{"last_updated":1679033316,"ttl":30,"version":"2.2","data":{"bikes":[{"bike_id":"7a896b77-c535-4b89-a543-d3dd0397f4cf","system_id":"levelo_inurba_marseille","lat":43.312239,"lon":5.368562,"is_reserved":false,"is_disabled":false,"rental_uris":{"android":"levelo://app?vid=7a896b77-c535-4b89-a543-d3dd0397f4cf","ios":"levelo://app?vid=7a896b77-c535-4b89-a543-d3dd0397f4cf"},"vehicle_type_id":"4","last_reported":1679033316,"current_range_meters":26800,"station_id":"ce4bgl92rcd13ifvqbq0","pricing_plan_id":"free"},{"bike_id":"2e97d5f0-0a03-45a2-bf4a-4a3ca539d9fe","system_id":"levelo_inurba_marseille","lat":43.312239,"lon":5.368562,"is_reserved":false,"is_disabled":false,"rental_uris":{"android":"levelo://app?vid=2e97d5f0-0a03-45a2-bf4a-4a3ca539d9fe","ios":"levelo://app?vid=2e97d5f0-0a03-45a2-bf4a-4a3ca539d9fe"},"vehicle_type_id":"4","last_reported":1679033316,"current_range_meters":29600,"station_id":"ce4bgl92rcd13ifvqbq0","pricing_plan_id":"free"},{"bike_id":"9c6f7336-5d87-4099-9c81-f8e66053871a","system_id":"levelo_inurba_marseille","lat":43.312239,"lon":5.368562,"is_reserved":false,"is_disabled":false,"rental_uris":{"android":"levelo://app?vid=9c6f7336-5d87-4099-9c81-f8e66053871a","ios":"levelo://app?vid=9c6f7336-5d87-4099-9c81-f8e66053871a"},"vehicle_type_id":"4","last_reported":1679033316,"current_range_meters":31600,"station_id":"ce4bgl92rcd13ifvqbq0","pricing_plan_id":"free"},{"bike_id":"873a6dab-7b4f-49d5-ae02-f0f3cb38262c","system_id":"levelo_inurba_marseille","lat":43.312239,"lon":5.368562,"is_reserved":false,"is_disabled":false,"rental_uris":{"android":"levelo://app?vid=873a6dab-7b4f-49d5-ae02-f0f3cb38262c","ios":"levelo://app?vid=873a6dab-7b4f-49d5-ae02-f0f3cb38262c"},"vehicle_type_id":"4","last_reported":1679033316,"current_range_meters":29200,"station_id":"ce4bgl92rcd13ifvqbq0","pricing_plan_id":"free"},{"bike_id":"b9d5223d-c08e-41d3-a43a-af2351a5f085","system_id":"levelo_inurba_marseille","lat":43.309074,"lon":5.368486,"is_reserved":false,"is_disabled":false,"rental_uris":{"android":"levelo://app?vid=b9d5223d-c08e-41d3-a43a-af2351a5f085","ios":"levelo://app?vid=b9d5223d-c08e-41d3-a43a-af2351a5f085"},"vehicle_type_id":"4","last_reported":1679033316,"current_range_meters":0,"station_id":"ce4bgn92rcd13ifvqbvg","pricing_plan_id":"free"},{"bike_id":"084a4d6c-7342-4aed-8a0d-c3fc026d4975","system_id":"levelo_inurba_marseille","lat":43.30906,"lon":5.36848,"is_reserved":false,"is_disabled":false,"rental_uris":{"android":"levelo://app?vid=084a4d6c-7342-4aed-8a0d-c3fc026d4975","ios":"levelo://app?vid=084a4d6c-7342-4aed-8a0d-c3fc026d4975"},"vehicle_type_id":"4","last_reported":1679033316,"current_range_meters":0,"station_id":"ce4bgn92rcd13ifvqbvg","pricing_plan_id":"free"},{"bike_id":"6d6f698c-27c6-42b7-94a1-d61379a9ccf6","system_id":"levelo_inurba_marseille","lat":43.309076,"lon":5.368465,"is_reserved":false,"is_disabled":false,"rental_uris":{"android":"levelo://app?vid=6d6f698c-27c6-42b7-94a1-d61379a9ccf6","ios":"levelo://app?vid=6d6f698c-27c6-42b7-94a1-d61379a9ccf6"},"vehicle_type_id":"4","last_reported":1679033316,"current_range_meters":20400,"station_id":"ce4bgn92rcd13ifvqbvg","pricing_plan_id":"free"},{"bike_id":"91522351-d8e8-4624-a544-f0a2a87bcd01","system_id":"levelo_inurba_marseille","lat":43.314811,"lon":5.373103,"is_reserved":false,"is_disabled":false,"rental_uris":{"android":"levelo://app?vid=91522351-d8e8-4624-a544-f0a2a87bcd01","ios":"levelo://app?vid=91522351-d8e8-4624-a544-f0a2a87bcd01"},"vehicle_type_id":"4","last_reported":1679033316,"current_range_meters":14000,"station_id":"ce4bgt12rcd13ifvqcd0","pricing_plan_id":"free"},{"bike_id":"45bd89d4-3293-4764-8f27-51824185b62e","system_id":"levelo_inurba_marseille","lat":43.308614,"lon":5.372098,"is_reserved":false,"is_disabled":false,"rental_uris":{"android":"levelo://app?vid=45bd89d4-3293-4764-8f27-51824185b62e","ios":"levelo://app?vid=45bd89d4-3293-4764-8f27-51824185b62e"},"vehicle_type_id":"4","last_reported":1679033316,"current_range_meters":22400,"station_id":"ce4bguh2rcd13ifvqckg","pricing_plan_id":"free"},{"bike_id":"bdcddec4-8447-486d-a05c-395e742bdc0a","system_id":"levelo_inurba_marseille","lat":43.307317,"lon":5.37388,"is_reserved":false,"is_disabled":false,"rental_uris":{"android":"levelo://app?vid=bdcddec4-8447-486d-a05c-395e742bdc0a","ios":"levelo://app?vid=bdcddec4-8447-486d-a05c-395e742bdc0a"},"vehicle_type_id":"4","last_reported":1679033316,"current_range_meters":0,"station_id":"","pricing_plan_id":"free"},{"bike_id":"11b5c99a-e009-459a-9986-8da42c20c549","system_id":"levelo_inurba_marseille","lat":43.305989,"lon":5.37225,"is_reserved":false,"is_disabled":false,"rental_uris":{"android":"levelo://app?vid=11b5c99a-e009-459a-9986-8da42c20c549","ios":"levelo://app?vid=11b5c99a-e009-459a-9986-8da42c20c549"},"vehicle_type_id":"4","last_reported":1679033316,"current_range_meters":19600,"station_id":"ce4bgqh2rcd13ifvqc4g","pricing_plan_id":"free"},{"bike_id":"74c4cd18-ce50-4b2a-a680-221226dc2313","system_id":"levelo_inurba_marseille","lat":43.312435,"lon":5.379944,"is_reserved":false,"is_disabled":false,"rental_uris":{"android":"levelo://app?vid=74c4cd18-ce50-4b2a-a680-221226dc2313","ios":"levelo://app?vid=74c4cd18-ce50-4b2a-a680-221226dc2313"},"vehicle_type_id":"4","last_reported":1679033316,"current_range_meters":0,"station_id":"","pricing_plan_id":"free"},{"bike_id":"53f46fe3-1715-495f-854a-ed22d5088a0a","system_id":"levelo_inurba_marseille","lat":43.301939,"lon":5.366286,"is_reserved":false,"is_disabled":false,"rental_uris":{"android":"levelo://app?vid=53f46fe3-1715-495f-854a-ed22d5088a0a","ios":"levelo://app?vid=53f46fe3-1715-495f-854a-ed22d5088a0a"},"vehicle_type_id":"4","last_reported":1679033316,"current_range_meters":31200,"station_id":"ce4bgrh2rcd13ifvqc8g","pricing_plan_id":"free"},{"bike_id":"5cf3b848-25b8-4b66-8519-d5db577d1858","system_id":"levelo_inurba_marseille","lat":43.301939,"lon":5.366286,"is_reserved":false,"is_disabled":false,"rental_uris":{"android":"levelo://app?vid=5cf3b848-25b8-4b66-8519-d5db577d1858","ios":"levelo://app?vid=5cf3b848-25b8-4b66-8519-d5db577d1858"},"vehicle_type_id":"4","last_reported":1679033316,"current_range_meters":29200,"station_id":"ce4bgrh2rcd13ifvqc8g","pricing_plan_id":"free"},{"bike_id":"9549eccb-f7c4-4f34-96fc-7f52044ea501","system_id":"levelo_inurba_marseille","lat":43.30805,"lon":5.38135,"is_reserved":false,"is_disabled":false,"rental_uris":{"android":"levelo://app?vid=9549eccb-f7c4-4f34-96fc-7f52044ea501","ios":"levelo://app?vid=9549eccb-f7c4-4f34-96fc-7f52044ea501"},"vehicle_type_id":"4","last_reported":1679033316,"current_range_meters":25200,"station_id":"ce4bgt12rcd13ifvqce0","pricing_plan_id":"free"},{"bike_id":"13883a18-ad30-46ba-ba84-469b926832a4","system_id":"levelo_inurba_marseille","lat":43.308097,"lon":5.381474,"is_reserved":false,"is_disabled":false,"rental_uris":{"android":"levelo://app?vid=13883a18-ad30-46ba-ba84-469b926832a4","ios":"levelo://app?vid=13883a18-ad30-46ba-ba84-469b926832a4"},"vehicle_type_id":"4","last_reported":1679033316,"current_range_meters":1600,"station_id":"ce4bgt12rcd13ifvqce0","pricing_plan_id":"free"},{"bike_id":"7fe14d5d-c630-46fb-9fea-7b86e7301e11","system_id":"levelo_inurba_marseille","lat":43.308033,"lon":5.381528,"is_reserved":false,"is_disabled":false,"rental_uris":{"android":"levelo://app?vid=7fe14d5d-c630-46fb-9fea-7b86e7301e11","ios":"levelo://app?vid=7fe14d5d-c630-46fb-9fea-7b86e7301e11"},"vehicle_type_id":"4","last_reported":1679033316,"current_range_meters":25200,"station_id":"","pricing_plan_id":"free"},{"bike_id":"e3798450-ae6b-416a-8407-51b89ecaa4a5","system_id":"levelo_inurba_marseille","lat":43.304606,"lon":5.379026,"is_reserved":false,"is_disabled":false,"rental_uris":{"android":"levelo://app?vid=e3798450-ae6b-416a-8407-51b89ecaa4a5","ios":"levelo://app?vid=e3798450-ae6b-416a-8407-51b89ecaa4a5"},"vehicle_type_id":"4","last_reported":1679033316,"current_range_meters":26800,"station_id":"ce4bgup2rcd13ifvqcn0","pricing_plan_id":"free"},{"bike_id":"f57e988d-ba69-413f-a18e-67194a3bc5e0","system_id":"levelo_inurba_marseille","lat":43.304606,"lon":5.379026,"is_reserved":false,"is_disabled":false,"rental_uris":{"android":"levelo://app?vid=f57e988d-ba69-413f-a18e-67194a3bc5e0","ios":"levelo://app?vid=f57e988d-ba69-413f-a18e-67194a3bc5e0"},"vehicle_type_id":"4","last_reported":1679033316,"current_range_meters":6000,"station_id":"ce4bgup2rcd13ifvqcn0","pricing_plan_id":"free"},{"bike_id":"0359f095-2161-4ab4-9d29-355cf222bffc","system_id":"levelo_inurba_marseille","lat":43.304674,"lon":5.379156,"is_reserved":false,"is_disabled":false,"rental_uris":{"android":"levelo://app?vid=0359f095-2161-4ab4-9d29-355cf222bffc","ios":"levelo://app?vid=0359f095-2161-4ab4-9d29-355cf222bffc"},"vehicle_type_id":"4","last_reported":1679033316,"current_range_meters":17200,"station_id":"ce4bgup2rcd13ifvqcn0","pricing_plan_id":"free"},{"bike_id":"9279a9a3-b22e-4127-8cda-7dc05579d465","system_id":"levelo_inurba_marseille","lat":43.304606,"lon":5.379026,"is_reserved":false,"is_disabled":false,"rental_uris":{"android":"levelo://app?vid=9279a9a3-b22e-4127-8cda-7dc05579d465","ios":"levelo://app?vid=9279a9a3-b22e-4127-8cda-7dc05579d465"},"vehicle_type_id":"4","last_reported":1679033316,"current_range_meters":25200,"station_id":"ce4bgup2rcd13ifvqcn0","pricing_plan_id":"free"},{"bike_id":"141e73d1-16e5-471b-9939-f08feb9ef076","system_id":"levelo_inurba_marseille","lat":43.304606,"lon":5.379026,"is_reserved":false,"is_disabled":false,"rental_uris":{"android":"levelo://app?vid=141e73d1-16e5-471b-9939-f08feb9ef076","ios":"levelo://app?vid=141e73d1-16e5-471b-9939-f08feb9ef076"},"vehicle_type_id":"4","last_reported":1679033316,"current_range_meters":28400,"station_id":"ce4bgup2rcd13ifvqcn0","pricing_plan_id":"free"},{"bike_id":"3832f7ee-0ddb-4d60-9f5c-aea98acc602c","system_id":"levelo_inurba_marseille","lat":43.304606,"lon":5.379026,"is_reserved":false,"is_disabled":false,"rental_uris":{"android":"levelo://app?vid=3832f7ee-0ddb-4d60-9f5c-aea98acc602c","ios":"levelo://app?vid=3832f7ee-0ddb-4d60-9f5c-aea98acc602c"},"vehicle_type_id":"4","last_reported":1679033316,"current_range_meters":30800,"station_id":"ce4bgup2rcd13ifvqcn0","pricing_plan_id":"free"},{"bike_id":"b322ec94-5224-4a76-8453-c721b38c064b","system_id":"levelo_inurba_marseille","lat":43.304606,"lon":5.379026,"is_reserved":false,"is_disabled":false,"rental_uris":{"android":"levelo://app?vid=b322ec94-5224-4a76-8453-c721b38c064b","ios":"levelo://app?vid=b322ec94-5224-4a76-8453-c721b38c064b"},"vehicle_type_id":"4","last_reported":1679033316,"current_range_meters":26000,"station_id":"ce4bgup2rcd13ifvqcn0","pricing_plan_id":"free"},{"bike_id":"0c890e02-797e-4312-9065-a432ed292ef7","system_id":"levelo_inurba_marseille","lat":43.301388,"lon":5.374177,"is_reserved":false,"is_disabled":false,"rental_uris":{"android":"levelo://app?vid=0c890e02-797e-4312-9065-a432ed292ef7","ios":"levelo://app?vid=0c890e02-797e-4312-9065-a432ed292ef7"},"vehicle_type_id":"4","last_reported":1679033316,"current_range_meters":17600,"station_id":"","pricing_plan_id":"free"},{"bike_id":"bd2b8347-18f3-4feb-8ff0-4bbf792db46c","system_id":"levelo_inurba_marseille","lat":43.301334,"lon":5.374158,"is_reserved":false,"is_disabled":false,"rental_uris":{"android":"levelo://app?vid=bd2b8347-18f3-4feb-8ff0-4bbf792db46c","ios":"levelo://app?vid=bd2b8347-18f3-4feb-8ff0-4bbf792db46c"},"vehicle_type_id":"4","last_reported":1679033316,"current_range_meters":31600,"station_id":"ce4bgs92rcd13ifvqcc0","pricing_plan_id":"free"},{"bike_id":"9ff9de58-3f66-4b56-b83b-31acd78c532d","system_id":"levelo_inurba_marseille","lat":43.321459,"lon":5.37957,"is_reserved":false,"is_disabled":false,"rental_uris":{"android":"levelo://app?vid=9ff9de58-3f66-4b56-b83b-31acd78c532d","ios":"levelo://app?vid=9ff9de58-3f66-4b56-b83b-31acd78c532d"},"vehicle_type_id":"4","last_reported":1679033316,"current_range_meters":0,"station_id":"","pricing_plan_id":"free"},{"bike_id":"42175a87-f0d1-4a7f-a6f9-d6e80c22d828","system_id":"levelo_inurba_marseille","lat":43.313571,"lon":5.384829,"is_reserved":false,"is_disabled":false,"rental_uris":{"android":"levelo://app?vid=42175a87-f0d1-4a7f-a6f9-d6e80c22d828","ios":"levelo://app?vid=42175a87-f0d1-4a7f-a6f9-d6e80c22d828"},"vehicle_type_id":"4","last_reported":1679033316,"current_range_meters":17600,"station_id":"ce4bgt92rcd13ifvqcf0","pricing_plan_id":"free"},{"bike_id":"a28efe80-7b3f-4cf7-aa89-f6e7e7e4bdd1","system_id":"levelo_inurba_marseille","lat":43.313571,"lon":5.384829,"is_reserved":false,"is_disabled":false,"rental_uris":{"android":"levelo://app?vid=a28efe80-7b3f-4cf7-aa89-f6e7e7e4bdd1","ios":"levelo://app?vid=a28efe80-7b3f-4cf7-aa89-f6e7e7e4bdd1"},"vehicle_type_id":"4","last_reported":1679033316,"current_range_meters":16800,"station_id":"ce4bgt92rcd13ifvqcf0","pricing_plan_id":"free"},{"bike_id":"2fd98575-fc1f-4e7d-96bd-6d7b58805ef0","system_id":"levelo_inurba_marseille","lat":43.313571,"lon":5.384829,"is_reserved":false,"is_disabled":false,"rental_uris":{"android":"levelo://app?vid=2fd98575-fc1f-4e7d-96bd-6d7b58805ef0","ios":"levelo://app?vid=2fd98575-fc1f-4e7d-96bd-6d7b58805ef0"},"vehicle_type_id":"4","last_reported":1679033316,"current_range_meters":13600,"station_id":"ce4bgt92rcd13ifvqcf0","pricing_plan_id":"free"},{"bike_id":"bd13f36b-c735-4c99-ab78-6883218dc1e8","system_id":"levelo_inurba_marseille","lat":43.313571,"lon":5.384829,"is_reserved":false,"is_disabled":false,"rental_uris":{"android":"levelo://app?vid=bd13f36b-c735-4c99-ab78-6883218dc1e8","ios":"levelo://app?vid=bd13f36b-c735-4c99-ab78-6883218dc1e8"},"vehicle_type_id":"4","last_reported":1679033316,"current_range_meters":4400,"station_id":"ce4bgt92rcd13ifvqcf0","pricing_plan_id":"free"},{"bike_id":"a49b9628-6c16-456b-9bc5-7e314b20e52e","system_id":"levelo_inurba_marseille","lat":43.313571,"lon":5.384829,"is_reserved":false,"is_disabled":false,"rental_uris":{"android":"levelo://app?vid=a49b9628-6c16-456b-9bc5-7e314b20e52e","ios":"levelo://app?vid=a49b9628-6c16-456b-9bc5-7e314b20e52e"},"vehicle_type_id":"4","last_reported":1679033316,"current_range_meters":18000,"station_id":"ce4bgt92rcd13ifvqcf0","pricing_plan_id":"free"},{"bike_id":"d683d363-d31b-4234-85ef-544b00a3fe3e","system_id":"levelo_inurba_marseille","lat":43.313571,"lon":5.384829,"is_reserved":false,"is_disabled":false,"rental_uris":{"android":"levelo://app?vid=d683d363-d31b-4234-85ef-544b00a3fe3e","ios":"levelo://app?vid=d683d363-d31b-4234-85ef-544b00a3fe3e"},"vehicle_type_id":"4","last_reported":1679033316,"current_range_meters":0,"station_id":"ce4bgt92rcd13ifvqcf0","pricing_plan_id":"free"},{"bike_id":"177df3fe-ed07-490c-b4a5-db8001c92354","system_id":"levelo_inurba_marseille","lat":43.300897,"lon":5.375187,"is_reserved":false,"is_disabled":false,"rental_uris":{"android":"levelo://app?vid=177df3fe-ed07-490c-b4a5-db8001c92354","ios":"levelo://app?vid=177df3fe-ed07-490c-b4a5-db8001c92354"},"vehicle_type_id":"4","last_reported":1679033316,"current_range_meters":0,"station_id":"","pricing_plan_id":"free"},{"bike_id":"5c3314ed-e223-477d-affa-761c29bf8e54","system_id":"levelo_inurba_marseille","lat":43.300578,"lon":5.374326,"is_reserved":false,"is_disabled":false,"rental_uris":{"android":"levelo://app?vid=5c3314ed-e223-477d-affa-761c29bf8e54","ios":"levelo://app?vid=5c3314ed-e223-477d-affa-761c29bf8e54"},"vehicle_type_id":"4","last_reported":1679033316,"current_range_meters":0,"station_id":"","pricing_plan_id":"free"},{"bike_id":"69d60c77-5afc-46ff-95b9-93b9ab4a2c26","system_id":"levelo_inurba_marseille","lat":43.299094,"lon":5.365415,"is_reserved":false,"is_disabled":false,"rental_uris":{"android":"levelo://app?vid=69d60c77-5afc-46ff-95b9-93b9ab4a2c26","ios":"levelo://app?vid=69d60c77-5afc-46ff-95b9-93b9ab4a2c26"},"vehicle_type_id":"4","last_reported":1679033316,"current_range_meters":30800,"station_id":"ce4bgm92rcd13ifvqbr0","pricing_plan_id":"free"},{"bike_id":"be1909ed-9356-4d9b-b267-76599cd38eee","system_id":"levelo_inurba_marseille","lat":43.299094,"lon":5.365415,"is_reserved":false,"is_disabled":false,"rental_uris":{"android":"levelo://app?vid=be1909ed-9356-4d9b-b267-76599cd38eee","ios":"levelo://app?vid=be1909ed-9356-4d9b-b267-76599cd38eee"},"vehicle_type_id":"4","last_reported":1679033316,"current_range_meters":30400,"station_id":"ce4bgm92rcd13ifvqbr0","pricing_plan_id":"free"},{"bike_id":"3729e689-e5c0-47df-980f-502517931a18","system_id":"levelo_inurba_marseille","lat":43.298433,"lon":5.362774,"is_reserved":false,"is_disabled":false,"rental_uris":{"android":"levelo://app?vid=3729e689-e5c0-47df-980f-502517931a18","ios":"levelo://app?vid=3729e689-e5c0-47df-980f-502517931a18"},"vehicle_type_id":"4","last_reported":1679033316,"current_range_meters":400,"station_id":"ce4bgpp2rcd13ifvqc3g","pricing_plan_id":"free"},{"bike_id":"b4ea6953-627d-4945-af3d-7bc85032b767","system_id":"levelo_inurba_marseille","lat":43.298433,"lon":5.362774,"is_reserved":false,"is_disabled":false,"rental_uris":{"android":"levelo://app?vid=b4ea6953-627d-4945-af3d-7bc85032b767","ios":"levelo://app?vid=b4ea6953-627d-4945-af3d-7bc85032b767"},"vehicle_type_id":"4","last_reported":1679033316,"current_range_meters":23600,"station_id":"ce4bgpp2rcd13ifvqc3g","pricing_plan_id":"free"},{"bike_id":"04f37ac6-e0a1-49f7-8cd7-8aa69607e9e0","system_id":"levelo_inurba_marseille","lat":43.298433,"lon":5.362774,"is_reserved":false,"is_disabled":false,"rental_uris":{"android":"levelo://app?vid=04f37ac6-e0a1-49f7-8cd7-8aa69607e9e0","ios":"levelo://app?vid=04f37ac6-e0a1-49f7-8cd7-8aa69607e9e0"},"vehicle_type_id":"4","last_reported":1679033316,"current_range_meters":11200,"station_id":"ce4bgpp2rcd13ifvqc3g","pricing_plan_id":"free"},{"bike_id":"ab4ef87b-4065-4028-87ca-f459e761b864","system_id":"levelo_inurba_marseille","lat":43.298433,"lon":5.362774,"is_reserved":false,"is_disabled":false,"rental_uris":{"android":"levelo://app?vid=ab4ef87b-4065-4028-87ca-f459e761b864","ios":"levelo://app?vid=ab4ef87b-4065-4028-87ca-f459e761b864"},"vehicle_type_id":"4","last_reported":1679033316,"current_range_meters":27200,"station_id":"ce4bgpp2rcd13ifvqc3g","pricing_plan_id":"free"},{"bike_id":"0a1c5105-9961-47c4-b271-f871262eb687","system_id":"levelo_inurba_marseille","lat":43.298433,"lon":5.362774,"is_reserved":false,"is_disabled":false,"rental_uris":{"android":"levelo://app?vid=0a1c5105-9961-47c4-b271-f871262eb687","ios":"levelo://app?vid=0a1c5105-9961-47c4-b271-f871262eb687"},"vehicle_type_id":"4","last_reported":1679033316,"current_range_meters":28800,"station_id":"ce4bgpp2rcd13ifvqc3g","pricing_plan_id":"free"},{"bike_id":"ff83575f-d479-4547-b9ca-da962080d2cc","system_id":"levelo_inurba_marseille","lat":43.298433,"lon":5.362774,"is_reserved":false,"is_disabled":false,"rental_uris":{"android":"levelo://app?vid=ff83575f-d479-4547-b9ca-da962080d2cc","ios":"levelo://app?vid=ff83575f-d479-4547-b9ca-da962080d2cc"},"vehicle_type_id":"4","last_reported":1679033316,"current_range_meters":30800,"station_id":"ce4bgpp2rcd13ifvqc3g","pricing_plan_id":"free"},{"bike_id":"7e1f7601-831b-4057-9491-058798cf6680","system_id":"levelo_inurba_marseille","lat":43.298433,"lon":5.362774,"is_reserved":false,"is_disabled":false,"rental_uris":{"android":"levelo://app?vid=7e1f7601-831b-4057-9491-058798cf6680","ios":"levelo://app?vid=7e1f7601-831b-4057-9491-058798cf6680"},"vehicle_type_id":"4","last_reported":1679033316,"current_range_meters":4000,"station_id":"ce4bgpp2rcd13ifvqc3g","pricing_plan_id":"free"},{"bike_id":"83ebd4b3-db0e-408b-9a45-0920c8924699","system_id":"levelo_inurba_marseille","lat":43.298433,"lon":5.362774,"is_reserved":false,"is_disabled":false,"rental_uris":{"android":"levelo://app?vid=83ebd4b3-db0e-408b-9a45-0920c8924699","ios":"levelo://app?vid=83ebd4b3-db0e-408b-9a45-0920c8924699"},"vehicle_type_id":"4","last_reported":1679033316,"current_range_meters":31600,"station_id":"ce4bgpp2rcd13ifvqc3g","pricing_plan_id":"free"},{"bike_id":"5a4a8f32-e3d8-4aec-8e74-5c6b2264aee2","system_id":"levelo_inurba_marseille","lat":43.311722,"lon":5.387247,"is_reserved":false,"is_disabled":false,"rental_uris":{"android":"levelo://app?vid=5a4a8f32-e3d8-4aec-8e74-5c6b2264aee2","ios":"levelo://app?vid=5a4a8f32-e3d8-4aec-8e74-5c6b2264aee2"},"vehicle_type_id":"4","last_reported":1679033316,"current_range_meters":28800,"station_id":"ce4bgv12rcd13ifvqcp0","pricing_plan_id":"free"},{"bike_id":"74b194c6-0815-49a4-a08b-fed692308b57","system_id":"levelo_inurba_marseille","lat":43.311722,"lon":5.387247,"is_reserved":false,"is_disabled":false,"rental_uris":{"android":"levelo://app?vid=74b194c6-0815-49a4-a08b-fed692308b57","ios":"levelo://app?vid=74b194c6-0815-49a4-a08b-fed692308b57"},"vehicle_type_id":"4","last_reported":1679033316,"current_range_meters":31600,"station_id":"ce4bgv12rcd13ifvqcp0","pricing_plan_id":"free"},{"bike_id":"27689a73-be71-430a-9920-84a9d85ae9d0","system_id":"levelo_inurba_marseille","lat":43.311658,"lon":5.387132,"is_reserved":false,"is_disabled":false,"rental_uris":{"android":"levelo://app?vid=27689a73-be71-430a-9920-84a9d85ae9d0","ios":"levelo://app?vid=27689a73-be71-430a-9920-84a9d85ae9d0"},"vehicle_type_id":"4","last_reported":1679033316,"current_range_meters":12400,"station_id":"ce4bgv12rcd13ifvqcp0","pricing_plan_id":"free"},{"bike_id":"3693ec8d-6542-4346-8a5f-3195434809c4","system_id":"levelo_inurba_marseille","lat":43.311722,"lon":5.387247,"is_reserved":false,"is_disabled":false,"rental_uris":{"android":"levelo://app?vid=3693ec8d-6542-4346-8a5f-3195434809c4","ios":"levelo://app?vid=3693ec8d-6542-4346-8a5f-3195434809c4"},"vehicle_type_id":"4","last_reported":1679033316,"current_range_meters":31600,"station_id":"ce4bgv12rcd13ifvqcp0","pricing_plan_id":"free"},{"bike_id":"a1ae5dbb-8f47-44ff-a1cc-2deb4f1f75c1","system_id":"levelo_inurba_marseille","lat":43.311722,"lon":5.387247,"is_reserved":false,"is_disabled":false,"rental_uris":{"android":"levelo://app?vid=a1ae5dbb-8f47-44ff-a1cc-2deb4f1f75c1","ios":"levelo://app?vid=a1ae5dbb-8f47-44ff-a1cc-2deb4f1f75c1"},"vehicle_type_id":"4","last_reported":1679033316,"current_range_meters":20400,"station_id":"ce4bgv12rcd13ifvqcp0","pricing_plan_id":"free"},{"bike_id":"2b0b8841-900d-46bd-9cf2-2e7227b42968","system_id":"levelo_inurba_marseille","lat":43.32555,"lon":5.38018,"is_reserved":false,"is_disabled":false,"rental_uris":{"android":"levelo://app?vid=2b0b8841-900d-46bd-9cf2-2e7227b42968","ios":"levelo://app?vid=2b0b8841-900d-46bd-9cf2-2e7227b42968"},"vehicle_type_id":"4","last_reported":1679033316,"current_range_meters":0,"station_id":"","pricing_plan_id":"free"},{"bike_id":"578cc2a5-1588-472f-ae4a-c60a5b8dc296","system_id":"levelo_inurba_marseille","lat":43.296876,"lon":5.372723,"is_reserved":false,"is_disabled":false,"rental_uris":{"android":"levelo://app?vid=578cc2a5-1588-472f-ae4a-c60a5b8dc296","ios":"levelo://app?vid=578cc2a5-1588-472f-ae4a-c60a5b8dc296"},"vehicle_type_id":"4","last_reported":1679033316,"current_range_meters":24800,"station_id":"ce4bgk12rcd13ifvqbj0","pricing_plan_id":"free"},{"bike_id":"4c4d14ff-df5e-4cf4-b797-a8bf3cfbe4c7","system_id":"levelo_inurba_marseille","lat":43.296856,"lon":5.372899,"is_reserved":false,"is_disabled":false,"rental_uris":{"android":"levelo://app?vid=4c4d14ff-df5e-4cf4-b797-a8bf3cfbe4c7","ios":"levelo://app?vid=4c4d14ff-df5e-4cf4-b797-a8bf3cfbe4c7"},"vehicle_type_id":"4","last_reported":1679033316,"current_range_meters":31200,"station_id":"ce4bgk12rcd13ifvqbj0","pricing_plan_id":"free"},{"bike_id":"f5b28ce4-1dae-4af5-b317-b7c50207c154","system_id":"levelo_inurba_marseille","lat":43.297059,"lon":5.377057,"is_reserved":false,"is_disabled":false,"rental_uris":{"android":"levelo://app?vid=f5b28ce4-1dae-4af5-b317-b7c50207c154","ios":"levelo://app?vid=f5b28ce4-1dae-4af5-b317-b7c50207c154"},"vehicle_type_id":"4","last_reported":1679033316,"current_range_meters":11600,"station_id":"","pricing_plan_id":"free"},{"bike_id":"b99c15ee-950d-4439-87d9-b8932bfd28d5","system_id":"levelo_inurba_marseille","lat":43.309589,"lon":5.390258,"is_reserved":false,"is_disabled":false,"rental_uris":{"android":"levelo://app?vid=b99c15ee-950d-4439-87d9-b8932bfd28d5","ios":"levelo://app?vid=b99c15ee-950d-4439-87d9-b8932bfd28d5"},"vehicle_type_id":"4","last_reported":1679033316,"current_range_meters":29600,"station_id":"ce4bgup2rcd13ifvqco0","pricing_plan_id":"free"},{"bike_id":"33ef06ab-8859-4224-a3e1-2bc3c2501e17","system_id":"levelo_inurba_marseille","lat":43.317557,"lon":5.390173,"is_reserved":false,"is_disabled":false,"rental_uris":{"android":"levelo://app?vid=33ef06ab-8859-4224-a3e1-2bc3c2501e17","ios":"levelo://app?vid=33ef06ab-8859-4224-a3e1-2bc3c2501e17"},"vehicle_type_id":"4","last_reported":1679033316,"current_range_meters":29200,"station_id":"ce4bhqp2rcd13ifvqhng","pricing_plan_id":"free"},{"bike_id":"aea15cfa-d0c2-432f-bcec-502280b74ad1","system_id":"levelo_inurba_marseille","lat":43.317557,"lon":5.390173,"is_reserved":false,"is_disabled":false,"rental_uris":{"android":"levelo://app?vid=aea15cfa-d0c2-432f-bcec-502280b74ad1","ios":"levelo://app?vid=aea15cfa-d0c2-432f-bcec-502280b74ad1"},"vehicle_type_id":"4","last_reported":1679033316,"current_range_meters":14400,"station_id":"ce4bhqp2rcd13ifvqhng","pricing_plan_id":"free"},{"bike_id":"6848402a-6ed3-43d4-9982-7fee83ea1065","system_id":"levelo_inurba_marseille","lat":43.317557,"lon":5.390173,"is_reserved":false,"is_disabled":false,"rental_uris":{"android":"levelo://app?vid=6848402a-6ed3-43d4-9982-7fee83ea1065","ios":"levelo://app?vid=6848402a-6ed3-43d4-9982-7fee83ea1065"},"vehicle_type_id":"4","last_reported":1679033316,"current_range_meters":13200,"station_id":"ce4bhqp2rcd13ifvqhng","pricing_plan_id":"free"},{"bike_id":"0d5a657b-9b11-4549-b4f7-c163c989bc74","system_id":"levelo_inurba_marseille","lat":43.317557,"lon":5.390173,"is_reserved":false,"is_disabled":false,"rental_uris":{"android":"levelo://app?vid=0d5a657b-9b11-4549-b4f7-c163c989bc74","ios":"levelo://app?vid=0d5a657b-9b11-4549-b4f7-c163c989bc74"},"vehicle_type_id":"4","last_reported":1679033316,"current_range_meters":17200,"station_id":"ce4bhqp2rcd13ifvqhng","pricing_plan_id":"free"},{"bike_id":"b5387cdd-354f-4d3d-a8e8-038ee77974df","system_id":"levelo_inurba_marseille","lat":43.295748,"lon":5.37522,"is_reserved":false,"is_disabled":false,"rental_uris":{"android":"levelo://app?vid=b5387cdd-354f-4d3d-a8e8-038ee77974df","ios":"levelo://app?vid=b5387cdd-354f-4d3d-a8e8-038ee77974df"},"vehicle_type_id":"4","last_reported":1679033316,"current_range_meters":19200,"station_id":"ce4bgh92rcd13ifvqb50","pricing_plan_id":"free"},{"bike_id":"d0bf1cc8-c711-47c0-871a-e6151f01b552","system_id":"levelo_inurba_marseille","lat":43.30438,"lon":5.38897,"is_reserved":false,"is_disabled":false,"rental_uris":{"android":"levelo://app?vid=d0bf1cc8-c711-47c0-871a-e6151f01b552","ios":"levelo://app?vid=d0bf1cc8-c711-47c0-871a-e6151f01b552"},"vehicle_type_id":"4","last_reported":1679033316,"current_range_meters":24400,"station_id":"ce4bgk12rcd13ifvqbi0","pricing_plan_id":"free"},{"bike_id":"257e7572-d6ba-49f9-86d2-2edaff9e51a6","system_id":"levelo_inurba_marseille","lat":43.299724,"lon":5.384848,"is_reserved":false,"is_disabled":false,"rental_uris":{"android":"levelo://app?vid=257e7572-d6ba-49f9-86d2-2edaff9e51a6","ios":"levelo://app?vid=257e7572-d6ba-49f9-86d2-2edaff9e51a6"},"vehicle_type_id":"4","last_reported":1679033316,"current_range_meters":14800,"station_id":"ce4bgj92rcd13ifvqbd0","pricing_plan_id":"free"},{"bike_id":"6d1b6b14-bd45-42ae-8cfc-d6307c4c6b4f","system_id":"levelo_inurba_marseille","lat":43.32361,"lon":5.38879,"is_reserved":false,"is_disabled":false,"rental_uris":{"android":"levelo://app?vid=6d1b6b14-bd45-42ae-8cfc-d6307c4c6b4f","ios":"levelo://app?vid=6d1b6b14-bd45-42ae-8cfc-d6307c4c6b4f"},"vehicle_type_id":"4","last_reported":1679033316,"current_range_meters":12400,"station_id":"","pricing_plan_id":"free"},{"bike_id":"cb2a4f67-faec-4c5a-9132-2a4c0d6ca4b6","system_id":"levelo_inurba_marseille","lat":43.32367,"lon":5.388836,"is_reserved":false,"is_disabled":false,"rental_uris":{"android":"levelo://app?vid=cb2a4f67-faec-4c5a-9132-2a4c0d6ca4b6","ios":"levelo://app?vid=cb2a4f67-faec-4c5a-9132-2a4c0d6ca4b6"},"vehicle_type_id":"4","last_reported":1679033316,"current_range_meters":23600,"station_id":"ce4bhqp2rcd13ifvqhog","pricing_plan_id":"free"},{"bike_id":"40f2c24c-84d2-43af-aea2-27dacc7519a1","system_id":"levelo_inurba_marseille","lat":43.32367,"lon":5.388836,"is_reserved":false,"is_disabled":false,"rental_uris":{"android":"levelo://app?vid=40f2c24c-84d2-43af-aea2-27dacc7519a1","ios":"levelo://app?vid=40f2c24c-84d2-43af-aea2-27dacc7519a1"},"vehicle_type_id":"4","last_reported":1679033316,"current_range_meters":18800,"station_id":"ce4bhqp2rcd13ifvqhog","pricing_plan_id":"free"},{"bike_id":"34b9c942-a1f5-47dd-91d3-ca12cf64e914","system_id":"levelo_inurba_marseille","lat":43.32367,"lon":5.388836,"is_reserved":false,"is_disabled":false,"rental_uris":{"android":"levelo://app?vid=34b9c942-a1f5-47dd-91d3-ca12cf64e914","ios":"levelo://app?vid=34b9c942-a1f5-47dd-91d3-ca12cf64e914"},"vehicle_type_id":"4","last_reported":1679033316,"current_range_meters":16800,"station_id":"ce4bhqp2rcd13ifvqhog","pricing_plan_id":"free"},{"bike_id":"dc9b31b6-cf7f-4750-a8c0-0076201a7410","system_id":"levelo_inurba_marseille","lat":43.32367,"lon":5.388836,"is_reserved":false,"is_disabled":false,"rental_uris":{"android":"levelo://app?vid=dc9b31b6-cf7f-4750-a8c0-0076201a7410","ios":"levelo://app?vid=dc9b31b6-cf7f-4750-a8c0-0076201a7410"},"vehicle_type_id":"4","last_reported":1679033316,"current_range_meters":28400,"station_id":"ce4bhqp2rcd13ifvqhog","pricing_plan_id":"free"},{"bike_id":"1a726172-28be-4f0b-ad17-9530674947a9","system_id":"levelo_inurba_marseille","lat":43.32367,"lon":5.388836,"is_reserved":false,"is_disabled":false,"rental_uris":{"android":"levelo://app?vid=1a726172-28be-4f0b-ad17-9530674947a9","ios":"levelo://app?vid=1a726172-28be-4f0b-ad17-9530674947a9"},"vehicle_type_id":"4","last_reported":1679033316,"current_range_meters":4400,"station_id":"ce4bhqp2rcd13ifvqhog","pricing_plan_id":"free"},{"bike_id":"aba3e2ac-3206-44b1-b472-7dcc4b26bb63","system_id":"levelo_inurba_marseille","lat":43.32367,"lon":5.388836,"is_reserved":false,"is_disabled":false,"rental_uris":{"android":"levelo://app?vid=aba3e2ac-3206-44b1-b472-7dcc4b26bb63","ios":"levelo://app?vid=aba3e2ac-3206-44b1-b472-7dcc4b26bb63"},"vehicle_type_id":"4","last_reported":1679033316,"current_range_meters":26000,"station_id":"ce4bhqp2rcd13ifvqhog","pricing_plan_id":"free"},{"bike_id":"31c38f9e-c28e-4e63-a841-a4c05f7a559f","system_id":"levelo_inurba_marseille","lat":43.32367,"lon":5.388836,"is_reserved":false,"is_disabled":false,"rental_uris":{"android":"levelo://app?vid=31c38f9e-c28e-4e63-a841-a4c05f7a559f","ios":"levelo://app?vid=31c38f9e-c28e-4e63-a841-a4c05f7a559f"},"vehicle_type_id":"4","last_reported":1679033316,"current_range_meters":28400,"station_id":"ce4bhqp2rcd13ifvqhog","pricing_plan_id":"free"},{"bike_id":"1c0b2d3f-b32a-4495-bfcd-8564d3ec95c0","system_id":"levelo_inurba_marseille","lat":43.323783,"lon":5.389181,"is_reserved":false,"is_disabled":false,"rental_uris":{"android":"levelo://app?vid=1c0b2d3f-b32a-4495-bfcd-8564d3ec95c0","ios":"levelo://app?vid=1c0b2d3f-b32a-4495-bfcd-8564d3ec95c0"},"vehicle_type_id":"4","last_reported":1679033316,"current_range_meters":30800,"station_id":"","pricing_plan_id":"free"},{"bike_id":"0d865ae6-66ce-420f-b674-4fd8ff20add3","system_id":"levelo_inurba_marseille","lat":43.323794,"lon":5.389212,"is_reserved":false,"is_disabled":false,"rental_uris":{"android":"levelo://app?vid=0d865ae6-66ce-420f-b674-4fd8ff20add3","ios":"levelo://app?vid=0d865ae6-66ce-420f-b674-4fd8ff20add3"},"vehicle_type_id":"4","last_reported":1679033316,"current_range_meters":23200,"station_id":"","pricing_plan_id":"free"},{"bike_id":"38a98b44-e0ad-4fdc-9cb1-45982d9b1367","system_id":"levelo_inurba_marseille","lat":43.293249,"lon":5.371578,"is_reserved":false,"is_disabled":false,"rental_uris":{"android":"levelo://app?vid=38a98b44-e0ad-4fdc-9cb1-45982d9b1367","ios":"levelo://app?vid=38a98b44-e0ad-4fdc-9cb1-45982d9b1367"},"vehicle_type_id":"4","last_reported":1679033316,"current_range_meters":20000,"station_id":"ce4bgh92rcd13ifvqb40","pricing_plan_id":"free"},{"bike_id":"5bacc5ac-17d4-4be8-b82b-f5054a08e7d2","system_id":"levelo_inurba_marseille","lat":43.29298,"lon":5.37182,"is_reserved":false,"is_disabled":false,"rental_uris":{"android":"levelo://app?vid=5bacc5ac-17d4-4be8-b82b-f5054a08e7d2","ios":"levelo://app?vid=5bacc5ac-17d4-4be8-b82b-f5054a08e7d2"},"vehicle_type_id":"4","last_reported":1679033316,"current_range_meters":0,"station_id":"ce4bgh92rcd13ifvqb40","pricing_plan_id":"free"},{"bike_id":"a6e16e85-d6c4-4ffa-942f-915be43baf15","system_id":"levelo_inurba_marseille","lat":43.305994,"lon":5.393687,"is_reserved":false,"is_disabled":false,"rental_uris":{"android":"levelo://app?vid=a6e16e85-d6c4-4ffa-942f-915be43baf15","ios":"levelo://app?vid=a6e16e85-d6c4-4ffa-942f-915be43baf15"},"vehicle_type_id":"4","last_reported":1679033316,"current_range_meters":24800,"station_id":"ce4bh0p2rcd13ifvqd80","pricing_plan_id":"free"},{"bike_id":"ec33abe3-5d5f-43c7-8dfa-4374cf8a5a36","system_id":"levelo_inurba_marseille","lat":43.32642,"lon":5.388155,"is_reserved":false,"is_disabled":false,"rental_uris":{"android":"levelo://app?vid=ec33abe3-5d5f-43c7-8dfa-4374cf8a5a36","ios":"levelo://app?vid=ec33abe3-5d5f-43c7-8dfa-4374cf8a5a36"},"vehicle_type_id":"4","last_reported":1679033316,"current_range_meters":24800,"station_id":"","pricing_plan_id":"free"},{"bike_id":"a342aefb-20f4-404c-a93f-754922eb017a","system_id":"levelo_inurba_marseille","lat":43.313291,"lon":5.396838,"is_reserved":false,"is_disabled":false,"rental_uris":{"android":"levelo://app?vid=a342aefb-20f4-404c-a93f-754922eb017a","ios":"levelo://app?vid=a342aefb-20f4-404c-a93f-754922eb017a"},"vehicle_type_id":"4","last_reported":1679033316,"current_range_meters":6800,"station_id":"ce4bgvp2rcd13ifvqcu0","pricing_plan_id":"free"},{"bike_id":"8047d95a-988a-49f9-b7c4-743a44f4d864","system_id":"levelo_inurba_marseille","lat":43.313291,"lon":5.396838,"is_reserved":false,"is_disabled":false,"rental_uris":{"android":"levelo://app?vid=8047d95a-988a-49f9-b7c4-743a44f4d864","ios":"levelo://app?vid=8047d95a-988a-49f9-b7c4-743a44f4d864"},"vehicle_type_id":"4","last_reported":1679033316,"current_range_meters":10800,"station_id":"ce4bgvp2rcd13ifvqcu0","pricing_plan_id":"free"},{"bike_id":"93a67df9-1723-4916-9a38-740a21f71a76","system_id":"levelo_inurba_marseille","lat":43.313291,"lon":5.396838,"is_reserved":false,"is_disabled":false,"rental_uris":{"android":"levelo://app?vid=93a67df9-1723-4916-9a38-740a21f71a76","ios":"levelo://app?vid=93a67df9-1723-4916-9a38-740a21f71a76"},"vehicle_type_id":"4","last_reported":1679033316,"current_range_meters":0,"station_id":"ce4bgvp2rcd13ifvqcu0","pricing_plan_id":"free"},{"bike_id":"5ae9fbb8-735a-4f25-ab11-1df572dc9ec4","system_id":"levelo_inurba_marseille","lat":43.313291,"lon":5.396838,"is_reserved":false,"is_disabled":false,"rental_uris":{"android":"levelo://app?vid=5ae9fbb8-735a-4f25-ab11-1df572dc9ec4","ios":"levelo://app?vid=5ae9fbb8-735a-4f25-ab11-1df572dc9ec4"},"vehicle_type_id":"4","last_reported":1679033316,"current_range_meters":0,"station_id":"ce4bgvp2rcd13ifvqcu0","pricing_plan_id":"free"},{"bike_id":"4597b3dc-4e22-4756-98f3-39377e73ff0f","system_id":"levelo_inurba_marseille","lat":43.313291,"lon":5.396838,"is_reserved":false,"is_disabled":false,"rental_uris":{"android":"levelo://app?vid=4597b3dc-4e22-4756-98f3-39377e73ff0f","ios":"levelo://app?vid=4597b3dc-4e22-4756-98f3-39377e73ff0f"},"vehicle_type_id":"4","last_reported":1679033316,"current_range_meters":0,"station_id":"ce4bgvp2rcd13ifvqcu0","pricing_plan_id":"free"},{"bike_id":"f934e55a-ec44-40a8-8980-76c6fd531de8","system_id":"levelo_inurba_marseille","lat":43.313291,"lon":5.396838,"is_reserved":false,"is_disabled":false,"rental_uris":{"android":"levelo://app?vid=f934e55a-ec44-40a8-8980-76c6fd531de8","ios":"levelo://app?vid=f934e55a-ec44-40a8-8980-76c6fd531de8"},"vehicle_type_id":"4","last_reported":1679033316,"current_range_meters":15200,"station_id":"ce4bgvp2rcd13ifvqcu0","pricing_plan_id":"free"},{"bike_id":"4f47f9dd-c503-434f-a59f-70e8de3da525","system_id":"levelo_inurba_marseille","lat":43.313291,"lon":5.396838,"is_reserved":false,"is_disabled":false,"rental_uris":{"android":"levelo://app?vid=4f47f9dd-c503-434f-a59f-70e8de3da525","ios":"levelo://app?vid=4f47f9dd-c503-434f-a59f-70e8de3da525"},"vehicle_type_id":"4","last_reported":1679033316,"current_range_meters":0,"station_id":"ce4bgvp2rcd13ifvqcu0","pricing_plan_id":"free"},{"bike_id":"2a8ad661-31c6-4c36-81ee-e39afff76a51","system_id":"levelo_inurba_marseille","lat":43.322144,"lon":5.394276,"is_reserved":false,"is_disabled":false,"rental_uris":{"android":"levelo://app?vid=2a8ad661-31c6-4c36-81ee-e39afff76a51","ios":"levelo://app?vid=2a8ad661-31c6-4c36-81ee-e39afff76a51"},"vehicle_type_id":"4","last_reported":1679033316,"current_range_meters":16800,"station_id":"","pricing_plan_id":"free"},{"bike_id":"14ad1519-003f-4abf-bd78-6542ecd14e85","system_id":"levelo_inurba_marseille","lat":43.32724,"lon":5.390262,"is_reserved":false,"is_disabled":false,"rental_uris":{"android":"levelo://app?vid=14ad1519-003f-4abf-bd78-6542ecd14e85","ios":"levelo://app?vid=14ad1519-003f-4abf-bd78-6542ecd14e85"},"vehicle_type_id":"4","last_reported":1679033316,"current_range_meters":26400,"station_id":"","pricing_plan_id":"free"},{"bike_id":"91321826-90f1-42c6-be21-041bff1be875","system_id":"levelo_inurba_marseille","lat":43.327235,"lon":5.390319,"is_reserved":false,"is_disabled":false,"rental_uris":{"android":"levelo://app?vid=91321826-90f1-42c6-be21-041bff1be875","ios":"levelo://app?vid=91321826-90f1-42c6-be21-041bff1be875"},"vehicle_type_id":"4","last_reported":1679033316,"current_range_meters":28800,"station_id":"","pricing_plan_id":"free"},{"bike_id":"a9952087-6dbf-455c-ba31-e512f04aee75","system_id":"levelo_inurba_marseille","lat":43.290624,"lon":5.359245,"is_reserved":false,"is_disabled":false,"rental_uris":{"android":"levelo://app?vid=a9952087-6dbf-455c-ba31-e512f04aee75","ios":"levelo://app?vid=a9952087-6dbf-455c-ba31-e512f04aee75"},"vehicle_type_id":"4","last_reported":1679033316,"current_range_meters":7600,"station_id":"ce4bha92rcd13ifvqeg0","pricing_plan_id":"free"},{"bike_id":"5fcf4f7a-440e-45da-9f09-583170995cc5","system_id":"levelo_inurba_marseille","lat":43.290624,"lon":5.359245,"is_reserved":false,"is_disabled":false,"rental_uris":{"android":"levelo://app?vid=5fcf4f7a-440e-45da-9f09-583170995cc5","ios":"levelo://app?vid=5fcf4f7a-440e-45da-9f09-583170995cc5"},"vehicle_type_id":"4","last_reported":1679033316,"current_range_meters":7200,"station_id":"ce4bha92rcd13ifvqeg0","pricing_plan_id":"free"},{"bike_id":"e26b1fa1-c9a3-4067-b7c3-b7260e7dbea1","system_id":"levelo_inurba_marseille","lat":43.290624,"lon":5.359245,"is_reserved":false,"is_disabled":false,"rental_uris":{"android":"levelo://app?vid=e26b1fa1-c9a3-4067-b7c3-b7260e7dbea1","ios":"levelo://app?vid=e26b1fa1-c9a3-4067-b7c3-b7260e7dbea1"},"vehicle_type_id":"4","last_reported":1679033316,"current_range_meters":19200,"station_id":"ce4bha92rcd13ifvqeg0","pricing_plan_id":"free"},{"bike_id":"b0028b6c-882e-4437-9029-a83c9f4d75cd","system_id":"levelo_inurba_marseille","lat":43.290624,"lon":5.359245,"is_reserved":false,"is_disabled":false,"rental_uris":{"android":"levelo://app?vid=b0028b6c-882e-4437-9029-a83c9f4d75cd","ios":"levelo://app?vid=b0028b6c-882e-4437-9029-a83c9f4d75cd"},"vehicle_type_id":"4","last_reported":1679033316,"current_range_meters":26800,"station_id":"ce4bha92rcd13ifvqeg0","pricing_plan_id":"free"},{"bike_id":"3258ba00-7724-4e14-9766-0443b18385dd","system_id":"levelo_inurba_marseille","lat":43.290624,"lon":5.359245,"is_reserved":false,"is_disabled":false,"rental_uris":{"android":"levelo://app?vid=3258ba00-7724-4e14-9766-0443b18385dd","ios":"levelo://app?vid=3258ba00-7724-4e14-9766-0443b18385dd"},"vehicle_type_id":"4","last_reported":1679033316,"current_range_meters":6800,"station_id":"ce4bha92rcd13ifvqeg0","pricing_plan_id":"free"},{"bike_id":"f18965b5-74cd-4ec3-88fe-3c43598cfed6","system_id":"levelo_inurba_marseille","lat":43.289184,"lon":5.366408,"is_reserved":false,"is_disabled":false,"rental_uris":{"android":"levelo://app?vid=f18965b5-74cd-4ec3-88fe-3c43598cfed6","ios":"levelo://app?vid=f18965b5-74cd-4ec3-88fe-3c43598cfed6"},"vehicle_type_id":"4","last_reported":1679033316,"current_range_meters":30000,"station_id":"ce4bhap2rcd13ifvqek0","pricing_plan_id":"free"},{"bike_id":"35dc0e34-8b3e-43ba-9982-67e1ddf636c1","system_id":"levelo_inurba_marseille","lat":43.30429,"lon":5.3975,"is_reserved":false,"is_disabled":false,"rental_uris":{"android":"levelo://app?vid=35dc0e34-8b3e-43ba-9982-67e1ddf636c1","ios":"levelo://app?vid=35dc0e34-8b3e-43ba-9982-67e1ddf636c1"},"vehicle_type_id":"4","last_reported":1679033316,"current_range_meters":1600,"station_id":"","pricing_plan_id":"free"},{"bike_id":"22e9055a-869a-4853-bf07-7a41f8032c84","system_id":"levelo_inurba_marseille","lat":43.330429,"lon":5.389166,"is_reserved":false,"is_disabled":false,"rental_uris":{"android":"levelo://app?vid=22e9055a-869a-4853-bf07-7a41f8032c84","ios":"levelo://app?vid=22e9055a-869a-4853-bf07-7a41f8032c84"},"vehicle_type_id":"4","last_reported":1679033316,"current_range_meters":13600,"station_id":"ce4bhr92rcd13ifvqhrg","pricing_plan_id":"free"},{"bike_id":"c7b1c05f-b698-4a58-93cb-9d7be6083fa7","system_id":"levelo_inurba_marseille","lat":43.290104,"lon":5.356111,"is_reserved":false,"is_disabled":false,"rental_uris":{"android":"levelo://app?vid=c7b1c05f-b698-4a58-93cb-9d7be6083fa7","ios":"levelo://app?vid=c7b1c05f-b698-4a58-93cb-9d7be6083fa7"},"vehicle_type_id":"4","last_reported":1679033316,"current_range_meters":2000,"station_id":"ce4bhb92rcd13ifvqen0","pricing_plan_id":"free"},{"bike_id":"ff232081-6bbb-4587-acc9-78d646f4cd39","system_id":"levelo_inurba_marseille","lat":43.330442,"lon":5.389148,"is_reserved":false,"is_disabled":false,"rental_uris":{"android":"levelo://app?vid=ff232081-6bbb-4587-acc9-78d646f4cd39","ios":"levelo://app?vid=ff232081-6bbb-4587-acc9-78d646f4cd39"},"vehicle_type_id":"4","last_reported":1679033316,"current_range_meters":6000,"station_id":"ce4bhr92rcd13ifvqhrg","pricing_plan_id":"free"},{"bike_id":"957d554e-abb6-4c9e-ad61-d02fbfb92b10","system_id":"levelo_inurba_marseille","lat":43.33044,"lon":5.38917,"is_reserved":false,"is_disabled":false,"rental_uris":{"android":"levelo://app?vid=957d554e-abb6-4c9e-ad61-d02fbfb92b10","ios":"levelo://app?vid=957d554e-abb6-4c9e-ad61-d02fbfb92b10"},"vehicle_type_id":"4","last_reported":1679033316,"current_range_meters":10400,"station_id":"ce4bhr92rcd13ifvqhrg","pricing_plan_id":"free"},{"bike_id":"f93ed208-d59c-4d3c-a600-8dc7bcc5f637","system_id":"levelo_inurba_marseille","lat":43.33043,"lon":5.38919,"is_reserved":false,"is_disabled":false,"rental_uris":{"android":"levelo://app?vid=f93ed208-d59c-4d3c-a600-8dc7bcc5f637","ios":"levelo://app?vid=f93ed208-d59c-4d3c-a600-8dc7bcc5f637"},"vehicle_type_id":"4","last_reported":1679033316,"current_range_meters":21200,"station_id":"ce4bhr92rcd13ifvqhrg","pricing_plan_id":"free"},{"bike_id":"1d8de6c2-b10e-46a0-9fcd-af375109b4b6","system_id":"levelo_inurba_marseille","lat":43.33044,"lon":5.38918,"is_reserved":false,"is_disabled":false,"rental_uris":{"android":"levelo://app?vid=1d8de6c2-b10e-46a0-9fcd-af375109b4b6","ios":"levelo://app?vid=1d8de6c2-b10e-46a0-9fcd-af375109b4b6"},"vehicle_type_id":"4","last_reported":1679033316,"current_range_meters":27200,"station_id":"ce4bhr92rcd13ifvqhrg","pricing_plan_id":"free"},{"bike_id":"17c9fc7a-c866-4279-af46-05185eedbcb2","system_id":"levelo_inurba_marseille","lat":43.290104,"lon":5.356111,"is_reserved":false,"is_disabled":false,"rental_uris":{"android":"levelo://app?vid=17c9fc7a-c866-4279-af46-05185eedbcb2","ios":"levelo://app?vid=17c9fc7a-c866-4279-af46-05185eedbcb2"},"vehicle_type_id":"4","last_reported":1679033316,"current_range_meters":23200,"station_id":"ce4bhb92rcd13ifvqen0","pricing_plan_id":"free"},{"bike_id":"c4d11df4-b442-460c-9068-0463359332c2","system_id":"levelo_inurba_marseille","lat":43.330442,"lon":5.389148,"is_reserved":false,"is_disabled":false,"rental_uris":{"android":"levelo://app?vid=c4d11df4-b442-460c-9068-0463359332c2","ios":"levelo://app?vid=c4d11df4-b442-460c-9068-0463359332c2"},"vehicle_type_id":"4","last_reported":1679033316,"current_range_meters":26400,"station_id":"ce4bhr92rcd13ifvqhrg","pricing_plan_id":"free"},{"bike_id":"5fbe5ac8-f312-4641-98dd-511ec096747b","system_id":"levelo_inurba_marseille","lat":43.33043,"lon":5.38921,"is_reserved":false,"is_disabled":false,"rental_uris":{"android":"levelo://app?vid=5fbe5ac8-f312-4641-98dd-511ec096747b","ios":"levelo://app?vid=5fbe5ac8-f312-4641-98dd-511ec096747b"},"vehicle_type_id":"4","last_reported":1679033316,"current_range_meters":29200,"station_id":"","pricing_plan_id":"free"},{"bike_id":"7fe93e0e-631a-41b9-9973-ff118085f3b0","system_id":"levelo_inurba_marseille","lat":43.330445,"lon":5.389188,"is_reserved":false,"is_disabled":false,"rental_uris":{"android":"levelo://app?vid=7fe93e0e-631a-41b9-9973-ff118085f3b0","ios":"levelo://app?vid=7fe93e0e-631a-41b9-9973-ff118085f3b0"},"vehicle_type_id":"4","last_reported":1679033316,"current_range_meters":28800,"station_id":"ce4bhr92rcd13ifvqhrg","pricing_plan_id":"free"},{"bike_id":"151fedac-6368-43ca-81de-b5945e234f16","system_id":"levelo_inurba_marseille","lat":43.330454,"lon":5.389192,"is_reserved":false,"is_disabled":false,"rental_uris":{"android":"levelo://app?vid=151fedac-6368-43ca-81de-b5945e234f16","ios":"levelo://app?vid=151fedac-6368-43ca-81de-b5945e234f16"},"vehicle_type_id":"4","last_reported":1679033316,"current_range_meters":24400,"station_id":"ce4bhr92rcd13ifvqhrg","pricing_plan_id":"free"},{"bike_id":"9de20ad1-c84e-4ac1-adb5-9b1cc9b35037","system_id":"levelo_inurba_marseille","lat":43.290104,"lon":5.356111,"is_reserved":false,"is_disabled":false,"rental_uris":{"android":"levelo://app?vid=9de20ad1-c84e-4ac1-adb5-9b1cc9b35037","ios":"levelo://app?vid=9de20ad1-c84e-4ac1-adb5-9b1cc9b35037"},"vehicle_type_id":"4","last_reported":1679033316,"current_range_meters":27200,"station_id":"ce4bhb92rcd13ifvqen0","pricing_plan_id":"free"},{"bike_id":"4038654d-d7b4-4c74-8d55-d91de5bb98b3","system_id":"levelo_inurba_marseille","lat":43.290104,"lon":5.356111,"is_reserved":false,"is_disabled":false,"rental_uris":{"android":"levelo://app?vid=4038654d-d7b4-4c74-8d55-d91de5bb98b3","ios":"levelo://app?vid=4038654d-d7b4-4c74-8d55-d91de5bb98b3"},"vehicle_type_id":"4","last_reported":1679033316,"current_range_meters":0,"station_id":"ce4bhb92rcd13ifvqen0","pricing_plan_id":"free"},{"bike_id":"69f86ddb-a3d5-4e85-9041-b0b1e0b17cd2","system_id":"levelo_inurba_marseille","lat":43.290104,"lon":5.356111,"is_reserved":false,"is_disabled":false,"rental_uris":{"android":"levelo://app?vid=69f86ddb-a3d5-4e85-9041-b0b1e0b17cd2","ios":"levelo://app?vid=69f86ddb-a3d5-4e85-9041-b0b1e0b17cd2"},"vehicle_type_id":"4","last_reported":1679033316,"current_range_meters":0,"station_id":"ce4bhb92rcd13ifvqen0","pricing_plan_id":"free"},{"bike_id":"300a64aa-b2dc-4b3a-80b7-e62d0dfede32","system_id":"levelo_inurba_marseille","lat":43.284534,"lon":5.358662,"is_reserved":false,"is_disabled":false,"rental_uris":{"android":"levelo://app?vid=300a64aa-b2dc-4b3a-80b7-e62d0dfede32","ios":"levelo://app?vid=300a64aa-b2dc-4b3a-80b7-e62d0dfede32"},"vehicle_type_id":"4","last_reported":1679033316,"current_range_meters":13200,"station_id":"ce4bhah2rcd13ifvqei0","pricing_plan_id":"free"},{"bike_id":"dbf0f88b-43ac-4ff1-bfa6-de7fe5a1f559","system_id":"levelo_inurba_marseille","lat":43.289747,"lon":5.378378,"is_reserved":false,"is_disabled":false,"rental_uris":{"android":"levelo://app?vid=dbf0f88b-43ac-4ff1-bfa6-de7fe5a1f559","ios":"levelo://app?vid=dbf0f88b-43ac-4ff1-bfa6-de7fe5a1f559"},"vehicle_type_id":"4","last_reported":1679033316,"current_range_meters":0,"station_id":"","pricing_plan_id":"free"},{"bike_id":"2cf6783d-c163-4ca3-be70-7fa28c5bef78","system_id":"levelo_inurba_marseille","lat":43.28856,"lon":5.358371,"is_reserved":false,"is_disabled":false,"rental_uris":{"android":"levelo://app?vid=2cf6783d-c163-4ca3-be70-7fa28c5bef78","ios":"levelo://app?vid=2cf6783d-c163-4ca3-be70-7fa28c5bef78"},"vehicle_type_id":"4","last_reported":1679033316,"current_range_meters":28000,"station_id":"ce4bhb12rcd13ifvqem0","pricing_plan_id":"free"},{"bike_id":"fa89cc70-0574-4330-8372-6ea93cbd2927","system_id":"levelo_inurba_marseille","lat":43.28856,"lon":5.358371,"is_reserved":false,"is_disabled":false,"rental_uris":{"android":"levelo://app?vid=fa89cc70-0574-4330-8372-6ea93cbd2927","ios":"levelo://app?vid=fa89cc70-0574-4330-8372-6ea93cbd2927"},"vehicle_type_id":"4","last_reported":1679033316,"current_range_meters":31200,"station_id":"ce4bhb12rcd13ifvqem0","pricing_plan_id":"free"},{"bike_id":"520d2535-4d01-476f-9d41-b2ebd314a488","system_id":"levelo_inurba_marseille","lat":43.28856,"lon":5.358371,"is_reserved":false,"is_disabled":false,"rental_uris":{"android":"levelo://app?vid=520d2535-4d01-476f-9d41-b2ebd314a488","ios":"levelo://app?vid=520d2535-4d01-476f-9d41-b2ebd314a488"},"vehicle_type_id":"4","last_reported":1679033316,"current_range_meters":29600,"station_id":"ce4bhb12rcd13ifvqem0","pricing_plan_id":"free"},{"bike_id":"39f0ec80-84de-4a2d-a0d9-18b0a9d520ee","system_id":"levelo_inurba_marseille","lat":43.337408,"lon":5.374538,"is_reserved":false,"is_disabled":false,"rental_uris":{"android":"levelo://app?vid=39f0ec80-84de-4a2d-a0d9-18b0a9d520ee","ios":"levelo://app?vid=39f0ec80-84de-4a2d-a0d9-18b0a9d520ee"},"vehicle_type_id":"4","last_reported":1679033316,"current_range_meters":30400,"station_id":"","pricing_plan_id":"free"},{"bike_id":"f3e60a9c-2b74-43cb-ac11-5dfafdbb73c0","system_id":"levelo_inurba_marseille","lat":43.33735,"lon":5.37489,"is_reserved":false,"is_disabled":false,"rental_uris":{"android":"levelo://app?vid=f3e60a9c-2b74-43cb-ac11-5dfafdbb73c0","ios":"levelo://app?vid=f3e60a9c-2b74-43cb-ac11-5dfafdbb73c0"},"vehicle_type_id":"4","last_reported":1679033316,"current_range_meters":30000,"station_id":"ce4bhs92rcd13ifvqi0g","pricing_plan_id":"free"},{"bike_id":"ac2f47e1-841e-4962-ad05-dbc3c2513baf","system_id":"levelo_inurba_marseille","lat":43.337492,"lon":5.374439,"is_reserved":false,"is_disabled":false,"rental_uris":{"android":"levelo://app?vid=ac2f47e1-841e-4962-ad05-dbc3c2513baf","ios":"levelo://app?vid=ac2f47e1-841e-4962-ad05-dbc3c2513baf"},"vehicle_type_id":"4","last_reported":1679033316,"current_range_meters":0,"station_id":"","pricing_plan_id":"free"},{"bike_id":"97a70748-85a2-4139-aa8d-3426ee2a5b86","system_id":"levelo_inurba_marseille","lat":43.337467,"lon":5.374636,"is_reserved":false,"is_disabled":false,"rental_uris":{"android":"levelo://app?vid=97a70748-85a2-4139-aa8d-3426ee2a5b86","ios":"levelo://app?vid=97a70748-85a2-4139-aa8d-3426ee2a5b86"},"vehicle_type_id":"4","last_reported":1679033316,"current_range_meters":0,"station_id":"","pricing_plan_id":"free"},{"bike_id":"79e6cbbe-65be-46eb-8244-b84b1d9464df","system_id":"levelo_inurba_marseille","lat":43.306412,"lon":5.401035,"is_reserved":false,"is_disabled":false,"rental_uris":{"android":"levelo://app?vid=79e6cbbe-65be-46eb-8244-b84b1d9464df","ios":"levelo://app?vid=79e6cbbe-65be-46eb-8244-b84b1d9464df"},"vehicle_type_id":"4","last_reported":1679033316,"current_range_meters":7200,"station_id":"ce4bh112rcd13ifvqda0","pricing_plan_id":"free"},{"bike_id":"f0888a5d-8469-4a4a-aa32-e51183159fbe","system_id":"levelo_inurba_marseille","lat":43.337467,"lon":5.37474,"is_reserved":false,"is_disabled":false,"rental_uris":{"android":"levelo://app?vid=f0888a5d-8469-4a4a-aa32-e51183159fbe","ios":"levelo://app?vid=f0888a5d-8469-4a4a-aa32-e51183159fbe"},"vehicle_type_id":"4","last_reported":1679033316,"current_range_meters":10800,"station_id":"","pricing_plan_id":"free"},{"bike_id":"24e42b65-e736-4b02-9f91-341883142906","system_id":"levelo_inurba_marseille","lat":43.337554,"lon":5.374451,"is_reserved":false,"is_disabled":false,"rental_uris":{"android":"levelo://app?vid=24e42b65-e736-4b02-9f91-341883142906","ios":"levelo://app?vid=24e42b65-e736-4b02-9f91-341883142906"},"vehicle_type_id":"4","last_reported":1679033316,"current_range_meters":24400,"station_id":"","pricing_plan_id":"free"},{"bike_id":"f21ca6d4-486a-49ed-86bc-268f22ec7bc0","system_id":"levelo_inurba_marseille","lat":43.30642,"lon":5.401031,"is_reserved":false,"is_disabled":false,"rental_uris":{"android":"levelo://app?vid=f21ca6d4-486a-49ed-86bc-268f22ec7bc0","ios":"levelo://app?vid=f21ca6d4-486a-49ed-86bc-268f22ec7bc0"},"vehicle_type_id":"4","last_reported":1679033316,"current_range_meters":0,"station_id":"ce4bh112rcd13ifvqda0","pricing_plan_id":"free"},{"bike_id":"cd1cd56d-869a-454f-9bda-6e0639f6f473","system_id":"levelo_inurba_marseille","lat":43.301117,"lon":5.398795,"is_reserved":false,"is_disabled":false,"rental_uris":{"android":"levelo://app?vid=cd1cd56d-869a-454f-9bda-6e0639f6f473","ios":"levelo://app?vid=cd1cd56d-869a-454f-9bda-6e0639f6f473"},"vehicle_type_id":"4","last_reported":1679033316,"current_range_meters":27200,"station_id":"ce4bh0h2rcd13ifvqd40","pricing_plan_id":"free"},{"bike_id":"c2cb2425-0e69-4160-acf8-362ecf80f9f6","system_id":"levelo_inurba_marseille","lat":43.298681,"lon":5.397225,"is_reserved":false,"is_disabled":false,"rental_uris":{"android":"levelo://app?vid=c2cb2425-0e69-4160-acf8-362ecf80f9f6","ios":"levelo://app?vid=c2cb2425-0e69-4160-acf8-362ecf80f9f6"},"vehicle_type_id":"4","last_reported":1679033316,"current_range_meters":30800,"station_id":"ce4bh0h2rcd13ifvqd50","pricing_plan_id":"free"},{"bike_id":"30a6c1c9-3a32-4cbe-95bc-0d918fca34f1","system_id":"levelo_inurba_marseille","lat":43.286593,"lon":5.363346,"is_reserved":false,"is_disabled":false,"rental_uris":{"android":"levelo://app?vid=30a6c1c9-3a32-4cbe-95bc-0d918fca34f1","ios":"levelo://app?vid=30a6c1c9-3a32-4cbe-95bc-0d918fca34f1"},"vehicle_type_id":"4","last_reported":1679033316,"current_range_meters":18800,"station_id":"ce4bhah2rcd13ifvqej0","pricing_plan_id":"free"},{"bike_id":"ae88872f-5739-452f-ae8e-5e44889efa4d","system_id":"levelo_inurba_marseille","lat":43.302444,"lon":5.400504,"is_reserved":false,"is_disabled":false,"rental_uris":{"android":"levelo://app?vid=ae88872f-5739-452f-ae8e-5e44889efa4d","ios":"levelo://app?vid=ae88872f-5739-452f-ae8e-5e44889efa4d"},"vehicle_type_id":"4","last_reported":1679033316,"current_range_meters":16400,"station_id":"","pricing_plan_id":"free"},{"bike_id":"60e59d62-77e4-4a63-9e34-56a1965d9516","system_id":"levelo_inurba_marseille","lat":43.302759,"lon":5.400793,"is_reserved":false,"is_disabled":false,"rental_uris":{"android":"levelo://app?vid=60e59d62-77e4-4a63-9e34-56a1965d9516","ios":"levelo://app?vid=60e59d62-77e4-4a63-9e34-56a1965d9516"},"vehicle_type_id":"4","last_reported":1679033316,"current_range_meters":30400,"station_id":"ce4bgvh2rcd13ifvqcs0","pricing_plan_id":"free"},{"bike_id":"7b531292-1f2d-4ffc-b4f0-e4202935b827","system_id":"levelo_inurba_marseille","lat":43.302453,"lon":5.400562,"is_reserved":false,"is_disabled":false,"rental_uris":{"android":"levelo://app?vid=7b531292-1f2d-4ffc-b4f0-e4202935b827","ios":"levelo://app?vid=7b531292-1f2d-4ffc-b4f0-e4202935b827"},"vehicle_type_id":"4","last_reported":1679033316,"current_range_meters":10000,"station_id":"ce4bgvh2rcd13ifvqcs0","pricing_plan_id":"free"},{"bike_id":"57577c62-6555-4cf6-b1ec-6304a42baae6","system_id":"levelo_inurba_marseille","lat":43.302759,"lon":5.400793,"is_reserved":false,"is_disabled":false,"rental_uris":{"android":"levelo://app?vid=57577c62-6555-4cf6-b1ec-6304a42baae6","ios":"levelo://app?vid=57577c62-6555-4cf6-b1ec-6304a42baae6"},"vehicle_type_id":"4","last_reported":1679033316,"current_range_meters":31200,"station_id":"ce4bgvh2rcd13ifvqcs0","pricing_plan_id":"free"},{"bike_id":"dafa4b11-093b-4fc8-857a-207a1fcbf196","system_id":"levelo_inurba_marseille","lat":43.302398,"lon":5.400548,"is_reserved":false,"is_disabled":false,"rental_uris":{"android":"levelo://app?vid=dafa4b11-093b-4fc8-857a-207a1fcbf196","ios":"levelo://app?vid=dafa4b11-093b-4fc8-857a-207a1fcbf196"},"vehicle_type_id":"4","last_reported":1679033316,"current_range_meters":29600,"station_id":"","pricing_plan_id":"free"},{"bike_id":"44fbf68b-f310-461b-8475-50df2c3c8720","system_id":"levelo_inurba_marseille","lat":43.302546,"lon":5.400633,"is_reserved":false,"is_disabled":false,"rental_uris":{"android":"levelo://app?vid=44fbf68b-f310-461b-8475-50df2c3c8720","ios":"levelo://app?vid=44fbf68b-f310-461b-8475-50df2c3c8720"},"vehicle_type_id":"4","last_reported":1679033316,"current_range_meters":29200,"station_id":"ce4bgvh2rcd13ifvqcs0","pricing_plan_id":"free"},{"bike_id":"3a0d871f-4597-488a-b0c7-50822c27f30a","system_id":"levelo_inurba_marseille","lat":43.302759,"lon":5.400793,"is_reserved":false,"is_disabled":false,"rental_uris":{"android":"levelo://app?vid=3a0d871f-4597-488a-b0c7-50822c27f30a","ios":"levelo://app?vid=3a0d871f-4597-488a-b0c7-50822c27f30a"},"vehicle_type_id":"4","last_reported":1679033316,"current_range_meters":26400,"station_id":"ce4bgvh2rcd13ifvqcs0","pricing_plan_id":"free"},{"bike_id":"1b0024e4-446a-4312-808c-94c48d87b8b8","system_id":"levelo_inurba_marseille","lat":43.302519,"lon":5.400627,"is_reserved":false,"is_disabled":false,"rental_uris":{"android":"levelo://app?vid=1b0024e4-446a-4312-808c-94c48d87b8b8","ios":"levelo://app?vid=1b0024e4-446a-4312-808c-94c48d87b8b8"},"vehicle_type_id":"4","last_reported":1679033316,"current_range_meters":24000,"station_id":"","pricing_plan_id":"free"},{"bike_id":"12f81f18-c11f-44ec-8ee5-2e7cf0bb05a6","system_id":"levelo_inurba_marseille","lat":43.302759,"lon":5.400793,"is_reserved":false,"is_disabled":false,"rental_uris":{"android":"levelo://app?vid=12f81f18-c11f-44ec-8ee5-2e7cf0bb05a6","ios":"levelo://app?vid=12f81f18-c11f-44ec-8ee5-2e7cf0bb05a6"},"vehicle_type_id":"4","last_reported":1679033316,"current_range_meters":29200,"station_id":"ce4bgvh2rcd13ifvqcs0","pricing_plan_id":"free"},{"bike_id":"eb0e6ec8-7d76-4cfc-a302-292b577d5b77","system_id":"levelo_inurba_marseille","lat":43.302472,"lon":5.400615,"is_reserved":false,"is_disabled":false,"rental_uris":{"android":"levelo://app?vid=eb0e6ec8-7d76-4cfc-a302-292b577d5b77","ios":"levelo://app?vid=eb0e6ec8-7d76-4cfc-a302-292b577d5b77"},"vehicle_type_id":"4","last_reported":1679033316,"current_range_meters":22800,"station_id":"ce4bgvh2rcd13ifvqcs0","pricing_plan_id":"free"},{"bike_id":"ebe5564f-84aa-4e29-a94f-595f416e7a65","system_id":"levelo_inurba_marseille","lat":43.302555,"lon":5.400667,"is_reserved":false,"is_disabled":false,"rental_uris":{"android":"levelo://app?vid=ebe5564f-84aa-4e29-a94f-595f416e7a65","ios":"levelo://app?vid=ebe5564f-84aa-4e29-a94f-595f416e7a65"},"vehicle_type_id":"4","last_reported":1679033316,"current_range_meters":19200,"station_id":"","pricing_plan_id":"free"},{"bike_id":"6df83faf-8c74-4a52-b529-e79af9235319","system_id":"levelo_inurba_marseille","lat":43.3024,"lon":5.40058,"is_reserved":false,"is_disabled":false,"rental_uris":{"android":"levelo://app?vid=6df83faf-8c74-4a52-b529-e79af9235319","ios":"levelo://app?vid=6df83faf-8c74-4a52-b529-e79af9235319"},"vehicle_type_id":"4","last_reported":1679033316,"current_range_meters":28400,"station_id":"","pricing_plan_id":"free"},{"bike_id":"aae7bac1-c1fd-4583-9a4d-1396a4cf03ae","system_id":"levelo_inurba_marseille","lat":43.302759,"lon":5.400793,"is_reserved":false,"is_disabled":false,"rental_uris":{"android":"levelo://app?vid=aae7bac1-c1fd-4583-9a4d-1396a4cf03ae","ios":"levelo://app?vid=aae7bac1-c1fd-4583-9a4d-1396a4cf03ae"},"vehicle_type_id":"4","last_reported":1679033316,"current_range_meters":29600,"station_id":"ce4bgvh2rcd13ifvqcs0","pricing_plan_id":"free"},{"bike_id":"567b4044-9a0b-4094-8999-afe86a80c400","system_id":"levelo_inurba_marseille","lat":43.302564,"lon":5.400686,"is_reserved":false,"is_disabled":false,"rental_uris":{"android":"levelo://app?vid=567b4044-9a0b-4094-8999-afe86a80c400","ios":"levelo://app?vid=567b4044-9a0b-4094-8999-afe86a80c400"},"vehicle_type_id":"4","last_reported":1679033316,"current_range_meters":30000,"station_id":"ce4bgvh2rcd13ifvqcs0","pricing_plan_id":"free"},{"bike_id":"ee44ff9f-f323-4e58-81a4-32a54bd40165","system_id":"levelo_inurba_marseille","lat":43.302414,"lon":5.400604,"is_reserved":false,"is_disabled":false,"rental_uris":{"android":"levelo://app?vid=ee44ff9f-f323-4e58-81a4-32a54bd40165","ios":"levelo://app?vid=ee44ff9f-f323-4e58-81a4-32a54bd40165"},"vehicle_type_id":"4","last_reported":1679033316,"current_range_meters":17200,"station_id":"","pricing_plan_id":"free"},{"bike_id":"26cf7b04-dcab-46e0-b969-be46c8b8c9cd","system_id":"levelo_inurba_marseille","lat":43.30252,"lon":5.40067,"is_reserved":false,"is_disabled":false,"rental_uris":{"android":"levelo://app?vid=26cf7b04-dcab-46e0-b969-be46c8b8c9cd","ios":"levelo://app?vid=26cf7b04-dcab-46e0-b969-be46c8b8c9cd"},"vehicle_type_id":"4","last_reported":1679033316,"current_range_meters":24400,"station_id":"","pricing_plan_id":"free"},{"bike_id":"77c22153-42ac-4571-8606-c3656ef3e285","system_id":"levelo_inurba_marseille","lat":43.302499,"lon":5.400664,"is_reserved":false,"is_disabled":false,"rental_uris":{"android":"levelo://app?vid=77c22153-42ac-4571-8606-c3656ef3e285","ios":"levelo://app?vid=77c22153-42ac-4571-8606-c3656ef3e285"},"vehicle_type_id":"4","last_reported":1679033316,"current_range_meters":14400,"station_id":"","pricing_plan_id":"free"},{"bike_id":"6cae6c34-8a37-4a59-9463-f833e628fe4f","system_id":"levelo_inurba_marseille","lat":43.302759,"lon":5.400793,"is_reserved":false,"is_disabled":false,"rental_uris":{"android":"levelo://app?vid=6cae6c34-8a37-4a59-9463-f833e628fe4f","ios":"levelo://app?vid=6cae6c34-8a37-4a59-9463-f833e628fe4f"},"vehicle_type_id":"4","last_reported":1679033316,"current_range_meters":26400,"station_id":"ce4bgvh2rcd13ifvqcs0","pricing_plan_id":"free"},{"bike_id":"3174c0ae-3b8f-443d-baf2-9b7d1f28ea62","system_id":"levelo_inurba_marseille","lat":43.302514,"lon":5.400697,"is_reserved":false,"is_disabled":false,"rental_uris":{"android":"levelo://app?vid=3174c0ae-3b8f-443d-baf2-9b7d1f28ea62","ios":"levelo://app?vid=3174c0ae-3b8f-443d-baf2-9b7d1f28ea62"},"vehicle_type_id":"4","last_reported":1679033316,"current_range_meters":20400,"station_id":"","pricing_plan_id":"free"},{"bike_id":"489eb1d1-f0eb-441c-a014-586e7a50d915","system_id":"levelo_inurba_marseille","lat":43.302486,"lon":5.40071,"is_reserved":false,"is_disabled":false,"rental_uris":{"android":"levelo://app?vid=489eb1d1-f0eb-441c-a014-586e7a50d915","ios":"levelo://app?vid=489eb1d1-f0eb-441c-a014-586e7a50d915"},"vehicle_type_id":"4","last_reported":1679033316,"current_range_meters":24400,"station_id":"","pricing_plan_id":"free"},{"bike_id":"484d3b6a-75fb-4756-9805-6bc42f510749","system_id":"levelo_inurba_marseille","lat":43.302564,"lon":5.400892,"is_reserved":false,"is_disabled":false,"rental_uris":{"android":"levelo://app?vid=484d3b6a-75fb-4756-9805-6bc42f510749","ios":"levelo://app?vid=484d3b6a-75fb-4756-9805-6bc42f510749"},"vehicle_type_id":"4","last_reported":1679033316,"current_range_meters":25600,"station_id":"ce4bgvh2rcd13ifvqcs0","pricing_plan_id":"free"},{"bike_id":"9de98eb8-56ef-41b8-b012-5f43dc8fa4ac","system_id":"levelo_inurba_marseille","lat":43.272116,"lon":5.391747,"is_reserved":false,"is_disabled":false,"rental_uris":{"android":"levelo://app?vid=9de98eb8-56ef-41b8-b012-5f43dc8fa4ac","ios":"levelo://app?vid=9de98eb8-56ef-41b8-b012-5f43dc8fa4ac"},"vehicle_type_id":"4","last_reported":1679033316,"current_range_meters":29200,"station_id":"ce4bhhp2rcd13ifvqfm0","pricing_plan_id":"free"},{"bike_id":"4ff6fa64-0209-4bb6-9377-ba94342f96a2","system_id":"levelo_inurba_marseille","lat":43.272116,"lon":5.391747,"is_reserved":false,"is_disabled":false,"rental_uris":{"android":"levelo://app?vid=4ff6fa64-0209-4bb6-9377-ba94342f96a2","ios":"levelo://app?vid=4ff6fa64-0209-4bb6-9377-ba94342f96a2"},"vehicle_type_id":"4","last_reported":1679033316,"current_range_meters":29200,"station_id":"ce4bhhp2rcd13ifvqfm0","pricing_plan_id":"free"},{"bike_id":"abac45d7-cc55-4b2c-bf6f-4451456c7cc4","system_id":"levelo_inurba_marseille","lat":43.272116,"lon":5.391747,"is_reserved":false,"is_disabled":false,"rental_uris":{"android":"levelo://app?vid=abac45d7-cc55-4b2c-bf6f-4451456c7cc4","ios":"levelo://app?vid=abac45d7-cc55-4b2c-bf6f-4451456c7cc4"},"vehicle_type_id":"4","last_reported":1679033316,"current_range_meters":28400,"station_id":"ce4bhhp2rcd13ifvqfm0","pricing_plan_id":"free"},{"bike_id":"9a1543b5-84a3-4842-a3a7-d4db145565d6","system_id":"levelo_inurba_marseille","lat":43.316517,"lon":5.404375,"is_reserved":false,"is_disabled":false,"rental_uris":{"android":"levelo://app?vid=9a1543b5-84a3-4842-a3a7-d4db145565d6","ios":"levelo://app?vid=9a1543b5-84a3-4842-a3a7-d4db145565d6"},"vehicle_type_id":"4","last_reported":1679033316,"current_range_meters":12000,"station_id":"ce4bh012rcd13ifvqd00","pricing_plan_id":"free"},{"bike_id":"0dc7c510-0362-418c-bf44-e2ab6a26318e","system_id":"levelo_inurba_marseille","lat":43.316517,"lon":5.404375,"is_reserved":false,"is_disabled":false,"rental_uris":{"android":"levelo://app?vid=0dc7c510-0362-418c-bf44-e2ab6a26318e","ios":"levelo://app?vid=0dc7c510-0362-418c-bf44-e2ab6a26318e"},"vehicle_type_id":"4","last_reported":1679033316,"current_range_meters":26800,"station_id":"ce4bh012rcd13ifvqd00","pricing_plan_id":"free"},{"bike_id":"75adaf7c-9cfb-4461-93e8-de7c8bcd748a","system_id":"levelo_inurba_marseille","lat":43.316517,"lon":5.404375,"is_reserved":false,"is_disabled":false,"rental_uris":{"android":"levelo://app?vid=75adaf7c-9cfb-4461-93e8-de7c8bcd748a","ios":"levelo://app?vid=75adaf7c-9cfb-4461-93e8-de7c8bcd748a"},"vehicle_type_id":"4","last_reported":1679033316,"current_range_meters":21200,"station_id":"ce4bh012rcd13ifvqd00","pricing_plan_id":"free"},{"bike_id":"aea82775-e040-4cfc-94af-d2133265bfd2","system_id":"levelo_inurba_marseille","lat":43.316517,"lon":5.404375,"is_reserved":false,"is_disabled":false,"rental_uris":{"android":"levelo://app?vid=aea82775-e040-4cfc-94af-d2133265bfd2","ios":"levelo://app?vid=aea82775-e040-4cfc-94af-d2133265bfd2"},"vehicle_type_id":"4","last_reported":1679033316,"current_range_meters":18800,"station_id":"ce4bh012rcd13ifvqd00","pricing_plan_id":"free"},{"bike_id":"f7b1e147-7a27-40bb-8494-9ce825ee9059","system_id":"levelo_inurba_marseille","lat":43.284534,"lon":5.358662,"is_reserved":false,"is_disabled":false,"rental_uris":{"android":"levelo://app?vid=f7b1e147-7a27-40bb-8494-9ce825ee9059","ios":"levelo://app?vid=f7b1e147-7a27-40bb-8494-9ce825ee9059"},"vehicle_type_id":"4","last_reported":1679033316,"current_range_meters":30000,"station_id":"ce4bhah2rcd13ifvqei0","pricing_plan_id":"free"},{"bike_id":"719a27e6-38d0-42af-88ba-39ec434cabf5","system_id":"levelo_inurba_marseille","lat":43.284534,"lon":5.358662,"is_reserved":false,"is_disabled":false,"rental_uris":{"android":"levelo://app?vid=719a27e6-38d0-42af-88ba-39ec434cabf5","ios":"levelo://app?vid=719a27e6-38d0-42af-88ba-39ec434cabf5"},"vehicle_type_id":"4","last_reported":1679033316,"current_range_meters":0,"station_id":"ce4bhah2rcd13ifvqei0","pricing_plan_id":"free"},{"bike_id":"e7ec99d1-a82c-4514-803e-460a34bad4cf","system_id":"levelo_inurba_marseille","lat":43.284534,"lon":5.358662,"is_reserved":false,"is_disabled":false,"rental_uris":{"android":"levelo://app?vid=e7ec99d1-a82c-4514-803e-460a34bad4cf","ios":"levelo://app?vid=e7ec99d1-a82c-4514-803e-460a34bad4cf"},"vehicle_type_id":"4","last_reported":1679033316,"current_range_meters":29200,"station_id":"ce4bhah2rcd13ifvqei0","pricing_plan_id":"free"},{"bike_id":"9c0f4d1c-c417-4cbd-a178-1db6016b226a","system_id":"levelo_inurba_marseille","lat":43.284534,"lon":5.358662,"is_reserved":false,"is_disabled":false,"rental_uris":{"android":"levelo://app?vid=9c0f4d1c-c417-4cbd-a178-1db6016b226a","ios":"levelo://app?vid=9c0f4d1c-c417-4cbd-a178-1db6016b226a"},"vehicle_type_id":"4","last_reported":1679033316,"current_range_meters":12400,"station_id":"ce4bhah2rcd13ifvqei0","pricing_plan_id":"free"},{"bike_id":"783c8488-0b69-4ea7-85c8-87af90e42ace","system_id":"levelo_inurba_marseille","lat":43.284534,"lon":5.358662,"is_reserved":false,"is_disabled":false,"rental_uris":{"android":"levelo://app?vid=783c8488-0b69-4ea7-85c8-87af90e42ace","ios":"levelo://app?vid=783c8488-0b69-4ea7-85c8-87af90e42ace"},"vehicle_type_id":"4","last_reported":1679033316,"current_range_meters":22400,"station_id":"ce4bhah2rcd13ifvqei0","pricing_plan_id":"free"},{"bike_id":"16102cc4-9b6d-40ad-bde4-7c5bf4d58338","system_id":"levelo_inurba_marseille","lat":43.284534,"lon":5.358662,"is_reserved":false,"is_disabled":false,"rental_uris":{"android":"levelo://app?vid=16102cc4-9b6d-40ad-bde4-7c5bf4d58338","ios":"levelo://app?vid=16102cc4-9b6d-40ad-bde4-7c5bf4d58338"},"vehicle_type_id":"4","last_reported":1679033316,"current_range_meters":28400,"station_id":"ce4bhah2rcd13ifvqei0","pricing_plan_id":"free"},{"bike_id":"32a631d2-196c-4ae2-8e62-9ca1579f4fd3","system_id":"levelo_inurba_marseille","lat":43.284534,"lon":5.358662,"is_reserved":false,"is_disabled":false,"rental_uris":{"android":"levelo://app?vid=32a631d2-196c-4ae2-8e62-9ca1579f4fd3","ios":"levelo://app?vid=32a631d2-196c-4ae2-8e62-9ca1579f4fd3"},"vehicle_type_id":"4","last_reported":1679033316,"current_range_meters":5600,"station_id":"ce4bhah2rcd13ifvqei0","pricing_plan_id":"free"},{"bike_id":"8ab0e39f-b0ba-4266-8a69-7f07123966ab","system_id":"levelo_inurba_marseille","lat":43.284534,"lon":5.358662,"is_reserved":false,"is_disabled":false,"rental_uris":{"android":"levelo://app?vid=8ab0e39f-b0ba-4266-8a69-7f07123966ab","ios":"levelo://app?vid=8ab0e39f-b0ba-4266-8a69-7f07123966ab"},"vehicle_type_id":"4","last_reported":1679033316,"current_range_meters":20800,"station_id":"ce4bhah2rcd13ifvqei0","pricing_plan_id":"free"},{"bike_id":"4527f0d0-2e87-403b-8698-acf39e57ad65","system_id":"levelo_inurba_marseille","lat":43.284534,"lon":5.358662,"is_reserved":false,"is_disabled":false,"rental_uris":{"android":"levelo://app?vid=4527f0d0-2e87-403b-8698-acf39e57ad65","ios":"levelo://app?vid=4527f0d0-2e87-403b-8698-acf39e57ad65"},"vehicle_type_id":"4","last_reported":1679033316,"current_range_meters":30800,"station_id":"ce4bhah2rcd13ifvqei0","pricing_plan_id":"free"},{"bike_id":"44123ceb-83f7-4e76-beff-6463f829db6e","system_id":"levelo_inurba_marseille","lat":43.284534,"lon":5.358662,"is_reserved":false,"is_disabled":false,"rental_uris":{"android":"levelo://app?vid=44123ceb-83f7-4e76-beff-6463f829db6e","ios":"levelo://app?vid=44123ceb-83f7-4e76-beff-6463f829db6e"},"vehicle_type_id":"4","last_reported":1679033316,"current_range_meters":22400,"station_id":"ce4bhah2rcd13ifvqei0","pricing_plan_id":"free"},{"bike_id":"7069f3ac-9730-4da7-ac36-411f4c68af9c","system_id":"levelo_inurba_marseille","lat":43.284534,"lon":5.358662,"is_reserved":false,"is_disabled":false,"rental_uris":{"android":"levelo://app?vid=7069f3ac-9730-4da7-ac36-411f4c68af9c","ios":"levelo://app?vid=7069f3ac-9730-4da7-ac36-411f4c68af9c"},"vehicle_type_id":"4","last_reported":1679033316,"current_range_meters":28000,"station_id":"ce4bhah2rcd13ifvqei0","pricing_plan_id":"free"},{"bike_id":"c0a9c19e-4500-4a35-b325-0a58218a4d63","system_id":"levelo_inurba_marseille","lat":43.284534,"lon":5.358662,"is_reserved":false,"is_disabled":false,"rental_uris":{"android":"levelo://app?vid=c0a9c19e-4500-4a35-b325-0a58218a4d63","ios":"levelo://app?vid=c0a9c19e-4500-4a35-b325-0a58218a4d63"},"vehicle_type_id":"4","last_reported":1679033316,"current_range_meters":10000,"station_id":"ce4bhah2rcd13ifvqei0","pricing_plan_id":"free"},{"bike_id":"f2abdcbd-7d73-4a7a-86dc-62b7074e95b2","system_id":"levelo_inurba_marseille","lat":43.284534,"lon":5.358662,"is_reserved":false,"is_disabled":false,"rental_uris":{"android":"levelo://app?vid=f2abdcbd-7d73-4a7a-86dc-62b7074e95b2","ios":"levelo://app?vid=f2abdcbd-7d73-4a7a-86dc-62b7074e95b2"},"vehicle_type_id":"4","last_reported":1679033316,"current_range_meters":8000,"station_id":"ce4bhah2rcd13ifvqei0","pricing_plan_id":"free"},{"bike_id":"127a9e6b-6d5a-40f3-a8b6-cd177ca32339","system_id":"levelo_inurba_marseille","lat":43.284534,"lon":5.358662,"is_reserved":false,"is_disabled":false,"rental_uris":{"android":"levelo://app?vid=127a9e6b-6d5a-40f3-a8b6-cd177ca32339","ios":"levelo://app?vid=127a9e6b-6d5a-40f3-a8b6-cd177ca32339"},"vehicle_type_id":"4","last_reported":1679033316,"current_range_meters":16000,"station_id":"ce4bhah2rcd13ifvqei0","pricing_plan_id":"free"},{"bike_id":"76082511-aa30-4c9e-a12c-7c689545fb35","system_id":"levelo_inurba_marseille","lat":43.284534,"lon":5.358662,"is_reserved":false,"is_disabled":false,"rental_uris":{"android":"levelo://app?vid=76082511-aa30-4c9e-a12c-7c689545fb35","ios":"levelo://app?vid=76082511-aa30-4c9e-a12c-7c689545fb35"},"vehicle_type_id":"4","last_reported":1679033316,"current_range_meters":23200,"station_id":"ce4bhah2rcd13ifvqei0","pricing_plan_id":"free"},{"bike_id":"7a95d4e1-2068-477f-8e92-af2aa3c19589","system_id":"levelo_inurba_marseille","lat":43.337168,"lon":5.391825,"is_reserved":false,"is_disabled":false,"rental_uris":{"android":"levelo://app?vid=7a95d4e1-2068-477f-8e92-af2aa3c19589","ios":"levelo://app?vid=7a95d4e1-2068-477f-8e92-af2aa3c19589"},"vehicle_type_id":"4","last_reported":1679033316,"current_range_meters":23200,"station_id":"ce4bhr92rcd13ifvqhsg","pricing_plan_id":"free"},{"bike_id":"ffb12918-8529-4200-b940-5668aa688cc9","system_id":"levelo_inurba_marseille","lat":43.33717,"lon":5.391857,"is_reserved":false,"is_disabled":false,"rental_uris":{"android":"levelo://app?vid=ffb12918-8529-4200-b940-5668aa688cc9","ios":"levelo://app?vid=ffb12918-8529-4200-b940-5668aa688cc9"},"vehicle_type_id":"4","last_reported":1679033316,"current_range_meters":0,"station_id":"ce4bhr92rcd13ifvqhsg","pricing_plan_id":"free"},{"bike_id":"5c1766ed-6918-4615-a99c-e13ff54f720c","system_id":"levelo_inurba_marseille","lat":43.32271,"lon":5.40648,"is_reserved":false,"is_disabled":false,"rental_uris":{"android":"levelo://app?vid=5c1766ed-6918-4615-a99c-e13ff54f720c","ios":"levelo://app?vid=5c1766ed-6918-4615-a99c-e13ff54f720c"},"vehicle_type_id":"4","last_reported":1679033316,"current_range_meters":13200,"station_id":"ce4bhq92rcd13ifvqhjg","pricing_plan_id":"free"},{"bike_id":"866cd58c-8662-4574-acd2-ab2ab215b46a","system_id":"levelo_inurba_marseille","lat":43.323337,"lon":5.406193,"is_reserved":false,"is_disabled":false,"rental_uris":{"android":"levelo://app?vid=866cd58c-8662-4574-acd2-ab2ab215b46a","ios":"levelo://app?vid=866cd58c-8662-4574-acd2-ab2ab215b46a"},"vehicle_type_id":"4","last_reported":1679033316,"current_range_meters":0,"station_id":"","pricing_plan_id":"free"},{"bike_id":"10fc3ba8-60a8-4843-a17e-e1bfaac81e95","system_id":"levelo_inurba_marseille","lat":43.33717,"lon":5.391857,"is_reserved":false,"is_disabled":false,"rental_uris":{"android":"levelo://app?vid=10fc3ba8-60a8-4843-a17e-e1bfaac81e95","ios":"levelo://app?vid=10fc3ba8-60a8-4843-a17e-e1bfaac81e95"},"vehicle_type_id":"4","last_reported":1679033316,"current_range_meters":28400,"station_id":"ce4bhr92rcd13ifvqhsg","pricing_plan_id":"free"},{"bike_id":"02de506c-99d3-46f8-81ca-21e266d00bf4","system_id":"levelo_inurba_marseille","lat":43.323381,"lon":5.406223,"is_reserved":false,"is_disabled":false,"rental_uris":{"android":"levelo://app?vid=02de506c-99d3-46f8-81ca-21e266d00bf4","ios":"levelo://app?vid=02de506c-99d3-46f8-81ca-21e266d00bf4"},"vehicle_type_id":"4","last_reported":1679033316,"current_range_meters":3600,"station_id":"","pricing_plan_id":"free"},{"bike_id":"db1d5901-ffd4-4510-9337-e0959f13fade","system_id":"levelo_inurba_marseille","lat":43.284787,"lon":5.384116,"is_reserved":false,"is_disabled":false,"rental_uris":{"android":"levelo://app?vid=db1d5901-ffd4-4510-9337-e0959f13fade","ios":"levelo://app?vid=db1d5901-ffd4-4510-9337-e0959f13fade"},"vehicle_type_id":"4","last_reported":1679033316,"current_range_meters":7200,"station_id":"ce4bh512rcd13ifvqe3g","pricing_plan_id":"free"},{"bike_id":"60a89e88-9467-4a41-9fe4-1d6cd1913095","system_id":"levelo_inurba_marseille","lat":43.284793,"lon":5.384113,"is_reserved":false,"is_disabled":false,"rental_uris":{"android":"levelo://app?vid=60a89e88-9467-4a41-9fe4-1d6cd1913095","ios":"levelo://app?vid=60a89e88-9467-4a41-9fe4-1d6cd1913095"},"vehicle_type_id":"4","last_reported":1679033316,"current_range_meters":31600,"station_id":"ce4bh512rcd13ifvqe3g","pricing_plan_id":"free"},{"bike_id":"7b0e5243-2f05-45d1-86e3-59040abc23a1","system_id":"levelo_inurba_marseille","lat":43.284793,"lon":5.384113,"is_reserved":false,"is_disabled":false,"rental_uris":{"android":"levelo://app?vid=7b0e5243-2f05-45d1-86e3-59040abc23a1","ios":"levelo://app?vid=7b0e5243-2f05-45d1-86e3-59040abc23a1"},"vehicle_type_id":"4","last_reported":1679033316,"current_range_meters":31600,"station_id":"ce4bh512rcd13ifvqe3g","pricing_plan_id":"free"},{"bike_id":"fb9ba8e3-b4cb-433f-8479-8831d71c5578","system_id":"levelo_inurba_marseille","lat":43.255756,"lon":5.382303,"is_reserved":false,"is_disabled":false,"rental_uris":{"android":"levelo://app?vid=fb9ba8e3-b4cb-433f-8479-8831d71c5578","ios":"levelo://app?vid=fb9ba8e3-b4cb-433f-8479-8831d71c5578"},"vehicle_type_id":"4","last_reported":1679033316,"current_range_meters":31600,"station_id":"ce4bhih2rcd13ifvqfs0","pricing_plan_id":"free"},{"bike_id":"f4ef6259-79d5-470d-88b4-f27645a27212","system_id":"levelo_inurba_marseille","lat":43.284793,"lon":5.384119,"is_reserved":false,"is_disabled":false,"rental_uris":{"android":"levelo://app?vid=f4ef6259-79d5-470d-88b4-f27645a27212","ios":"levelo://app?vid=f4ef6259-79d5-470d-88b4-f27645a27212"},"vehicle_type_id":"4","last_reported":1679033316,"current_range_meters":29600,"station_id":"ce4bh512rcd13ifvqe3g","pricing_plan_id":"free"},{"bike_id":"b06affbc-2331-4456-b769-ab39f3f7fdd2","system_id":"levelo_inurba_marseille","lat":43.284787,"lon":5.384116,"is_reserved":false,"is_disabled":false,"rental_uris":{"android":"levelo://app?vid=b06affbc-2331-4456-b769-ab39f3f7fdd2","ios":"levelo://app?vid=b06affbc-2331-4456-b769-ab39f3f7fdd2"},"vehicle_type_id":"4","last_reported":1679033316,"current_range_meters":16400,"station_id":"ce4bh512rcd13ifvqe3g","pricing_plan_id":"free"},{"bike_id":"99a11b18-1fe1-407d-9371-7ecb38a226dd","system_id":"levelo_inurba_marseille","lat":43.284219,"lon":5.3497,"is_reserved":false,"is_disabled":false,"rental_uris":{"android":"levelo://app?vid=99a11b18-1fe1-407d-9371-7ecb38a226dd","ios":"levelo://app?vid=99a11b18-1fe1-407d-9371-7ecb38a226dd"},"vehicle_type_id":"4","last_reported":1679033316,"current_range_meters":16400,"station_id":"ce4bhbh2rcd13ifvqepg","pricing_plan_id":"free"},{"bike_id":"353706d6-25cc-4381-9fe3-7a97dd9b72fc","system_id":"levelo_inurba_marseille","lat":43.289363,"lon":5.396322,"is_reserved":false,"is_disabled":false,"rental_uris":{"android":"levelo://app?vid=353706d6-25cc-4381-9fe3-7a97dd9b72fc","ios":"levelo://app?vid=353706d6-25cc-4381-9fe3-7a97dd9b72fc"},"vehicle_type_id":"4","last_reported":1679033316,"current_range_meters":22400,"station_id":"ce4bh3h2rcd13ifvqdn0","pricing_plan_id":"free"},{"bike_id":"02cc4fd3-3cc3-4715-805e-21e27153680a","system_id":"levelo_inurba_marseille","lat":43.29276,"lon":5.40141,"is_reserved":false,"is_disabled":false,"rental_uris":{"android":"levelo://app?vid=02cc4fd3-3cc3-4715-805e-21e27153680a","ios":"levelo://app?vid=02cc4fd3-3cc3-4715-805e-21e27153680a"},"vehicle_type_id":"4","last_reported":1679033316,"current_range_meters":27600,"station_id":"ce4bh312rcd13ifvqdk0","pricing_plan_id":"free"},{"bike_id":"a2fb5b2b-6f81-429c-9a5d-fe661a2a67db","system_id":"levelo_inurba_marseille","lat":43.282843,"lon":5.350306,"is_reserved":false,"is_disabled":false,"rental_uris":{"android":"levelo://app?vid=a2fb5b2b-6f81-429c-9a5d-fe661a2a67db","ios":"levelo://app?vid=a2fb5b2b-6f81-429c-9a5d-fe661a2a67db"},"vehicle_type_id":"4","last_reported":1679033316,"current_range_meters":23600,"station_id":"ce4bhbp2rcd13ifvqerg","pricing_plan_id":"free"},{"bike_id":"4fc68012-f168-4b58-9e04-b5fc8bf75042","system_id":"levelo_inurba_marseille","lat":43.28039,"lon":5.369297,"is_reserved":false,"is_disabled":false,"rental_uris":{"android":"levelo://app?vid=4fc68012-f168-4b58-9e04-b5fc8bf75042","ios":"levelo://app?vid=4fc68012-f168-4b58-9e04-b5fc8bf75042"},"vehicle_type_id":"4","last_reported":1679033316,"current_range_meters":31600,"station_id":"ce4bha12rcd13ifvqef0","pricing_plan_id":"free"},{"bike_id":"6912800e-b3e0-4481-b8e2-5698f44a58f4","system_id":"levelo_inurba_marseille","lat":43.28033,"lon":5.36942,"is_reserved":false,"is_disabled":false,"rental_uris":{"android":"levelo://app?vid=6912800e-b3e0-4481-b8e2-5698f44a58f4","ios":"levelo://app?vid=6912800e-b3e0-4481-b8e2-5698f44a58f4"},"vehicle_type_id":"4","last_reported":1679033316,"current_range_meters":28400,"station_id":"ce4bha12rcd13ifvqef0","pricing_plan_id":"free"},{"bike_id":"afe6cddc-0e69-4e2f-8616-6572448b82b7","system_id":"levelo_inurba_marseille","lat":43.28039,"lon":5.369297,"is_reserved":false,"is_disabled":false,"rental_uris":{"android":"levelo://app?vid=afe6cddc-0e69-4e2f-8616-6572448b82b7","ios":"levelo://app?vid=afe6cddc-0e69-4e2f-8616-6572448b82b7"},"vehicle_type_id":"4","last_reported":1679033316,"current_range_meters":27200,"station_id":"ce4bha12rcd13ifvqef0","pricing_plan_id":"free"},{"bike_id":"bf71f86f-0140-4765-9367-82105a0be66a","system_id":"levelo_inurba_marseille","lat":43.28039,"lon":5.369297,"is_reserved":false,"is_disabled":false,"rental_uris":{"android":"levelo://app?vid=bf71f86f-0140-4765-9367-82105a0be66a","ios":"levelo://app?vid=bf71f86f-0140-4765-9367-82105a0be66a"},"vehicle_type_id":"4","last_reported":1679033316,"current_range_meters":20800,"station_id":"ce4bha12rcd13ifvqef0","pricing_plan_id":"free"},{"bike_id":"caf59951-45ab-4ed1-9f7c-1896da9e4e10","system_id":"levelo_inurba_marseille","lat":43.28039,"lon":5.369297,"is_reserved":false,"is_disabled":false,"rental_uris":{"android":"levelo://app?vid=caf59951-45ab-4ed1-9f7c-1896da9e4e10","ios":"levelo://app?vid=caf59951-45ab-4ed1-9f7c-1896da9e4e10"},"vehicle_type_id":"4","last_reported":1679033316,"current_range_meters":31600,"station_id":"ce4bha12rcd13ifvqef0","pricing_plan_id":"free"},{"bike_id":"c499df0d-9679-4427-88a4-f71ba595c745","system_id":"levelo_inurba_marseille","lat":43.28039,"lon":5.369297,"is_reserved":false,"is_disabled":false,"rental_uris":{"android":"levelo://app?vid=c499df0d-9679-4427-88a4-f71ba595c745","ios":"levelo://app?vid=c499df0d-9679-4427-88a4-f71ba595c745"},"vehicle_type_id":"4","last_reported":1679033316,"current_range_meters":28000,"station_id":"ce4bha12rcd13ifvqef0","pricing_plan_id":"free"},{"bike_id":"1066904f-94dd-4cbf-8bc6-c85a35e12aaa","system_id":"levelo_inurba_marseille","lat":43.28039,"lon":5.369297,"is_reserved":false,"is_disabled":false,"rental_uris":{"android":"levelo://app?vid=1066904f-94dd-4cbf-8bc6-c85a35e12aaa","ios":"levelo://app?vid=1066904f-94dd-4cbf-8bc6-c85a35e12aaa"},"vehicle_type_id":"4","last_reported":1679033316,"current_range_meters":31600,"station_id":"ce4bha12rcd13ifvqef0","pricing_plan_id":"free"},{"bike_id":"6733dad3-72de-433a-b58f-8b51f66465d4","system_id":"levelo_inurba_marseille","lat":43.290412,"lon":5.399633,"is_reserved":false,"is_disabled":false,"rental_uris":{"android":"levelo://app?vid=6733dad3-72de-433a-b58f-8b51f66465d4","ios":"levelo://app?vid=6733dad3-72de-433a-b58f-8b51f66465d4"},"vehicle_type_id":"4","last_reported":1679033316,"current_range_meters":30800,"station_id":"ce4bh392rcd13ifvqdm0","pricing_plan_id":"free"},{"bike_id":"13495df4-b312-4c50-8029-2afcd6cd4d11","system_id":"levelo_inurba_marseille","lat":43.290412,"lon":5.399633,"is_reserved":false,"is_disabled":false,"rental_uris":{"android":"levelo://app?vid=13495df4-b312-4c50-8029-2afcd6cd4d11","ios":"levelo://app?vid=13495df4-b312-4c50-8029-2afcd6cd4d11"},"vehicle_type_id":"4","last_reported":1679033316,"current_range_meters":31600,"station_id":"ce4bh392rcd13ifvqdm0","pricing_plan_id":"free"},{"bike_id":"241411ab-6e40-4681-bb4b-a621d4c86841","system_id":"levelo_inurba_marseille","lat":43.290412,"lon":5.399633,"is_reserved":false,"is_disabled":false,"rental_uris":{"android":"levelo://app?vid=241411ab-6e40-4681-bb4b-a621d4c86841","ios":"levelo://app?vid=241411ab-6e40-4681-bb4b-a621d4c86841"},"vehicle_type_id":"4","last_reported":1679033316,"current_range_meters":29200,"station_id":"ce4bh392rcd13ifvqdm0","pricing_plan_id":"free"},{"bike_id":"18a6da09-1bf3-4515-a4c1-486e5a8aaa93","system_id":"levelo_inurba_marseille","lat":43.29041,"lon":5.399634,"is_reserved":false,"is_disabled":false,"rental_uris":{"android":"levelo://app?vid=18a6da09-1bf3-4515-a4c1-486e5a8aaa93","ios":"levelo://app?vid=18a6da09-1bf3-4515-a4c1-486e5a8aaa93"},"vehicle_type_id":"4","last_reported":1679033316,"current_range_meters":13600,"station_id":"ce4bh392rcd13ifvqdm0","pricing_plan_id":"free"},{"bike_id":"b5087f80-e605-436d-a2a9-59cc112c52f6","system_id":"levelo_inurba_marseille","lat":43.281044,"lon":5.378308,"is_reserved":false,"is_disabled":false,"rental_uris":{"android":"levelo://app?vid=b5087f80-e605-436d-a2a9-59cc112c52f6","ios":"levelo://app?vid=b5087f80-e605-436d-a2a9-59cc112c52f6"},"vehicle_type_id":"4","last_reported":1679033316,"current_range_meters":0,"station_id":"ce4bha12rcd13ifvqee0","pricing_plan_id":"free"},{"bike_id":"e0f443f8-5f75-4160-b92b-71390a3f76b8","system_id":"levelo_inurba_marseille","lat":43.281044,"lon":5.378308,"is_reserved":false,"is_disabled":false,"rental_uris":{"android":"levelo://app?vid=e0f443f8-5f75-4160-b92b-71390a3f76b8","ios":"levelo://app?vid=e0f443f8-5f75-4160-b92b-71390a3f76b8"},"vehicle_type_id":"4","last_reported":1679033316,"current_range_meters":400,"station_id":"ce4bha12rcd13ifvqee0","pricing_plan_id":"free"},{"bike_id":"e30e531d-86c8-4ea4-a774-fadb516dbf4e","system_id":"levelo_inurba_marseille","lat":43.29041,"lon":5.399634,"is_reserved":false,"is_disabled":false,"rental_uris":{"android":"levelo://app?vid=e30e531d-86c8-4ea4-a774-fadb516dbf4e","ios":"levelo://app?vid=e30e531d-86c8-4ea4-a774-fadb516dbf4e"},"vehicle_type_id":"4","last_reported":1679033316,"current_range_meters":30000,"station_id":"ce4bh392rcd13ifvqdm0","pricing_plan_id":"free"},{"bike_id":"8fca3827-2123-4ba6-ac39-71ccb4e52f93","system_id":"levelo_inurba_marseille","lat":43.296263,"lon":5.40601,"is_reserved":false,"is_disabled":false,"rental_uris":{"android":"levelo://app?vid=8fca3827-2123-4ba6-ac39-71ccb4e52f93","ios":"levelo://app?vid=8fca3827-2123-4ba6-ac39-71ccb4e52f93"},"vehicle_type_id":"4","last_reported":1679033316,"current_range_meters":28400,"station_id":"ce4bh0h2rcd13ifvqd60","pricing_plan_id":"free"},{"bike_id":"37efcec1-4dcd-4bbf-b8ab-4c0348abf775","system_id":"levelo_inurba_marseille","lat":43.296263,"lon":5.40601,"is_reserved":false,"is_disabled":false,"rental_uris":{"android":"levelo://app?vid=37efcec1-4dcd-4bbf-b8ab-4c0348abf775","ios":"levelo://app?vid=37efcec1-4dcd-4bbf-b8ab-4c0348abf775"},"vehicle_type_id":"4","last_reported":1679033316,"current_range_meters":21200,"station_id":"ce4bh0h2rcd13ifvqd60","pricing_plan_id":"free"},{"bike_id":"29bc96c2-9ba0-46c1-8b87-e2dd7697cdb6","system_id":"levelo_inurba_marseille","lat":43.281044,"lon":5.378308,"is_reserved":false,"is_disabled":false,"rental_uris":{"android":"levelo://app?vid=29bc96c2-9ba0-46c1-8b87-e2dd7697cdb6","ios":"levelo://app?vid=29bc96c2-9ba0-46c1-8b87-e2dd7697cdb6"},"vehicle_type_id":"4","last_reported":1679033316,"current_range_meters":24000,"station_id":"ce4bha12rcd13ifvqee0","pricing_plan_id":"free"},{"bike_id":"2bb68103-299a-4d1c-8fba-a63a77f483f6","system_id":"levelo_inurba_marseille","lat":43.281044,"lon":5.378308,"is_reserved":false,"is_disabled":false,"rental_uris":{"android":"levelo://app?vid=2bb68103-299a-4d1c-8fba-a63a77f483f6","ios":"levelo://app?vid=2bb68103-299a-4d1c-8fba-a63a77f483f6"},"vehicle_type_id":"4","last_reported":1679033316,"current_range_meters":2000,"station_id":"ce4bha12rcd13ifvqee0","pricing_plan_id":"free"},{"bike_id":"55c288cf-8a9b-4b8f-87cb-2f467acc9e9b","system_id":"levelo_inurba_marseille","lat":43.284468,"lon":5.391836,"is_reserved":false,"is_disabled":false,"rental_uris":{"android":"levelo://app?vid=55c288cf-8a9b-4b8f-87cb-2f467acc9e9b","ios":"levelo://app?vid=55c288cf-8a9b-4b8f-87cb-2f467acc9e9b"},"vehicle_type_id":"4","last_reported":1679033316,"current_range_meters":0,"station_id":"ce4bhoh2rcd13ifvqh5g","pricing_plan_id":"free"},{"bike_id":"df88b1e5-3d45-498d-93b9-9e5887264199","system_id":"levelo_inurba_marseille","lat":43.299579,"lon":5.413255,"is_reserved":false,"is_disabled":false,"rental_uris":{"android":"levelo://app?vid=df88b1e5-3d45-498d-93b9-9e5887264199","ios":"levelo://app?vid=df88b1e5-3d45-498d-93b9-9e5887264199"},"vehicle_type_id":"4","last_reported":1679033316,"current_range_meters":29200,"station_id":"ce4bhp12rcd13ifvqh9g","pricing_plan_id":"free"},{"bike_id":"b4bef3b5-6057-414a-9c2e-9d106efc78e5","system_id":"levelo_inurba_marseille","lat":43.299579,"lon":5.413255,"is_reserved":false,"is_disabled":false,"rental_uris":{"android":"levelo://app?vid=b4bef3b5-6057-414a-9c2e-9d106efc78e5","ios":"levelo://app?vid=b4bef3b5-6057-414a-9c2e-9d106efc78e5"},"vehicle_type_id":"4","last_reported":1679033316,"current_range_meters":27600,"station_id":"ce4bhp12rcd13ifvqh9g","pricing_plan_id":"free"},{"bike_id":"761347c0-0272-4525-b037-d58ab59f7c84","system_id":"levelo_inurba_marseille","lat":43.320045,"lon":5.415048,"is_reserved":false,"is_disabled":false,"rental_uris":{"android":"levelo://app?vid=761347c0-0272-4525-b037-d58ab59f7c84","ios":"levelo://app?vid=761347c0-0272-4525-b037-d58ab59f7c84"},"vehicle_type_id":"4","last_reported":1679033316,"current_range_meters":30800,"station_id":"ce4bhq92rcd13ifvqhkg","pricing_plan_id":"free"},{"bike_id":"494d27f3-449d-42f2-ac3b-87dcf5ba8322","system_id":"levelo_inurba_marseille","lat":43.279742,"lon":5.38744,"is_reserved":false,"is_disabled":false,"rental_uris":{"android":"levelo://app?vid=494d27f3-449d-42f2-ac3b-87dcf5ba8322","ios":"levelo://app?vid=494d27f3-449d-42f2-ac3b-87dcf5ba8322"},"vehicle_type_id":"4","last_reported":1679033316,"current_range_meters":26000,"station_id":"ce4bhg12rcd13ifvqf80","pricing_plan_id":"free"},{"bike_id":"01a44b05-c2e3-4116-b012-5e3de118944d","system_id":"levelo_inurba_marseille","lat":43.32479,"lon":5.414331,"is_reserved":false,"is_disabled":false,"rental_uris":{"android":"levelo://app?vid=01a44b05-c2e3-4116-b012-5e3de118944d","ios":"levelo://app?vid=01a44b05-c2e3-4116-b012-5e3de118944d"},"vehicle_type_id":"4","last_reported":1679033316,"current_range_meters":2000,"station_id":"","pricing_plan_id":"free"},{"bike_id":"e9efcf8d-3e42-4a9b-b523-03c624e0c303","system_id":"levelo_inurba_marseille","lat":43.324764,"lon":5.414364,"is_reserved":false,"is_disabled":false,"rental_uris":{"android":"levelo://app?vid=e9efcf8d-3e42-4a9b-b523-03c624e0c303","ios":"levelo://app?vid=e9efcf8d-3e42-4a9b-b523-03c624e0c303"},"vehicle_type_id":"4","last_reported":1679033316,"current_range_meters":16800,"station_id":"","pricing_plan_id":"free"},{"bike_id":"fcdd4ac1-8356-4bc2-8e79-7db156e445f4","system_id":"levelo_inurba_marseille","lat":43.292571,"lon":5.409107,"is_reserved":false,"is_disabled":false,"rental_uris":{"android":"levelo://app?vid=fcdd4ac1-8356-4bc2-8e79-7db156e445f4","ios":"levelo://app?vid=fcdd4ac1-8356-4bc2-8e79-7db156e445f4"},"vehicle_type_id":"4","last_reported":1679033316,"current_range_meters":27200,"station_id":"ce4bh192rcd13ifvqdc0","pricing_plan_id":"free"},{"bike_id":"8092ad30-e12b-46e1-8388-c0f73afd79a7","system_id":"levelo_inurba_marseille","lat":43.325314,"lon":5.41446,"is_reserved":false,"is_disabled":false,"rental_uris":{"android":"levelo://app?vid=8092ad30-e12b-46e1-8388-c0f73afd79a7","ios":"levelo://app?vid=8092ad30-e12b-46e1-8388-c0f73afd79a7"},"vehicle_type_id":"4","last_reported":1679033316,"current_range_meters":0,"station_id":"ce4bhq12rcd13ifvqhhg","pricing_plan_id":"free"},{"bike_id":"b3f4e765-746f-471d-b958-a09abb16b402","system_id":"levelo_inurba_marseille","lat":43.325358,"lon":5.414462,"is_reserved":false,"is_disabled":false,"rental_uris":{"android":"levelo://app?vid=b3f4e765-746f-471d-b958-a09abb16b402","ios":"levelo://app?vid=b3f4e765-746f-471d-b958-a09abb16b402"},"vehicle_type_id":"4","last_reported":1679033316,"current_range_meters":0,"station_id":"","pricing_plan_id":"free"},{"bike_id":"99a90b99-f015-4133-bf3b-1412139ac2d6","system_id":"levelo_inurba_marseille","lat":43.273613,"lon":5.362705,"is_reserved":false,"is_disabled":false,"rental_uris":{"android":"levelo://app?vid=99a90b99-f015-4133-bf3b-1412139ac2d6","ios":"levelo://app?vid=99a90b99-f015-4133-bf3b-1412139ac2d6"},"vehicle_type_id":"4","last_reported":1679033316,"current_range_meters":30400,"station_id":"ce4bhbh2rcd13ifvqeo0","pricing_plan_id":"free"},{"bike_id":"67bb59f3-e924-4e42-b408-dc2b27703167","system_id":"levelo_inurba_marseille","lat":43.33612,"lon":5.410321,"is_reserved":false,"is_disabled":false,"rental_uris":{"android":"levelo://app?vid=67bb59f3-e924-4e42-b408-dc2b27703167","ios":"levelo://app?vid=67bb59f3-e924-4e42-b408-dc2b27703167"},"vehicle_type_id":"4","last_reported":1679033316,"current_range_meters":0,"station_id":"ce4bhqh2rcd13ifvqhmg","pricing_plan_id":"free"},{"bike_id":"00e266de-9dae-40b5-b2a4-6ea4f420d5bf","system_id":"levelo_inurba_marseille","lat":43.273613,"lon":5.362705,"is_reserved":false,"is_disabled":false,"rental_uris":{"android":"levelo://app?vid=00e266de-9dae-40b5-b2a4-6ea4f420d5bf","ios":"levelo://app?vid=00e266de-9dae-40b5-b2a4-6ea4f420d5bf"},"vehicle_type_id":"4","last_reported":1679033316,"current_range_meters":31200,"station_id":"ce4bhbh2rcd13ifvqeo0","pricing_plan_id":"free"},{"bike_id":"7282c657-b6f6-4ad4-81e8-a29ea2c26de4","system_id":"levelo_inurba_marseille","lat":43.33595,"lon":5.41025,"is_reserved":false,"is_disabled":false,"rental_uris":{"android":"levelo://app?vid=7282c657-b6f6-4ad4-81e8-a29ea2c26de4","ios":"levelo://app?vid=7282c657-b6f6-4ad4-81e8-a29ea2c26de4"},"vehicle_type_id":"4","last_reported":1679033316,"current_range_meters":0,"station_id":"ce4bhqh2rcd13ifvqhmg","pricing_plan_id":"free"},{"bike_id":"148a75c7-7480-4fbc-b32b-db4537ab22c7","system_id":"levelo_inurba_marseille","lat":43.273613,"lon":5.362705,"is_reserved":false,"is_disabled":false,"rental_uris":{"android":"levelo://app?vid=148a75c7-7480-4fbc-b32b-db4537ab22c7","ios":"levelo://app?vid=148a75c7-7480-4fbc-b32b-db4537ab22c7"},"vehicle_type_id":"4","last_reported":1679033316,"current_range_meters":28400,"station_id":"ce4bhbh2rcd13ifvqeo0","pricing_plan_id":"free"},{"bike_id":"3b0f7f08-7554-4ecb-b244-9079552d7101","system_id":"levelo_inurba_marseille","lat":43.33612,"lon":5.410321,"is_reserved":false,"is_disabled":false,"rental_uris":{"android":"levelo://app?vid=3b0f7f08-7554-4ecb-b244-9079552d7101","ios":"levelo://app?vid=3b0f7f08-7554-4ecb-b244-9079552d7101"},"vehicle_type_id":"4","last_reported":1679033316,"current_range_meters":3200,"station_id":"ce4bhqh2rcd13ifvqhmg","pricing_plan_id":"free"},{"bike_id":"4446e14c-c56b-4fce-817a-5fa7da4069ee","system_id":"levelo_inurba_marseille","lat":43.273613,"lon":5.362705,"is_reserved":false,"is_disabled":false,"rental_uris":{"android":"levelo://app?vid=4446e14c-c56b-4fce-817a-5fa7da4069ee","ios":"levelo://app?vid=4446e14c-c56b-4fce-817a-5fa7da4069ee"},"vehicle_type_id":"4","last_reported":1679033316,"current_range_meters":29200,"station_id":"ce4bhbh2rcd13ifvqeo0","pricing_plan_id":"free"},{"bike_id":"2fe319b8-49b3-482e-9758-efea794c1451","system_id":"levelo_inurba_marseille","lat":43.33612,"lon":5.410321,"is_reserved":false,"is_disabled":false,"rental_uris":{"android":"levelo://app?vid=2fe319b8-49b3-482e-9758-efea794c1451","ios":"levelo://app?vid=2fe319b8-49b3-482e-9758-efea794c1451"},"vehicle_type_id":"4","last_reported":1679033316,"current_range_meters":24000,"station_id":"ce4bhqh2rcd13ifvqhmg","pricing_plan_id":"free"},{"bike_id":"99682979-568e-4587-8258-5b6436c104d3","system_id":"levelo_inurba_marseille","lat":43.273613,"lon":5.362705,"is_reserved":false,"is_disabled":false,"rental_uris":{"android":"levelo://app?vid=99682979-568e-4587-8258-5b6436c104d3","ios":"levelo://app?vid=99682979-568e-4587-8258-5b6436c104d3"},"vehicle_type_id":"4","last_reported":1679033316,"current_range_meters":30400,"station_id":"ce4bhbh2rcd13ifvqeo0","pricing_plan_id":"free"},{"bike_id":"eb7dc1b0-a4aa-43fc-bdd0-7747a7799bee","system_id":"levelo_inurba_marseille","lat":43.273613,"lon":5.362705,"is_reserved":false,"is_disabled":false,"rental_uris":{"android":"levelo://app?vid=eb7dc1b0-a4aa-43fc-bdd0-7747a7799bee","ios":"levelo://app?vid=eb7dc1b0-a4aa-43fc-bdd0-7747a7799bee"},"vehicle_type_id":"4","last_reported":1679033316,"current_range_meters":28400,"station_id":"ce4bhbh2rcd13ifvqeo0","pricing_plan_id":"free"},{"bike_id":"e6d963ab-6899-4c4d-a6a7-6767b5d8e857","system_id":"levelo_inurba_marseille","lat":43.336145,"lon":5.410188,"is_reserved":false,"is_disabled":false,"rental_uris":{"android":"levelo://app?vid=e6d963ab-6899-4c4d-a6a7-6767b5d8e857","ios":"levelo://app?vid=e6d963ab-6899-4c4d-a6a7-6767b5d8e857"},"vehicle_type_id":"4","last_reported":1679033316,"current_range_meters":20400,"station_id":"ce4bhqh2rcd13ifvqhmg","pricing_plan_id":"free"},{"bike_id":"f2ac1a08-ac14-41db-b781-c4615fe13eb6","system_id":"levelo_inurba_marseille","lat":43.33612,"lon":5.410321,"is_reserved":false,"is_disabled":false,"rental_uris":{"android":"levelo://app?vid=f2ac1a08-ac14-41db-b781-c4615fe13eb6","ios":"levelo://app?vid=f2ac1a08-ac14-41db-b781-c4615fe13eb6"},"vehicle_type_id":"4","last_reported":1679033316,"current_range_meters":6000,"station_id":"ce4bhqh2rcd13ifvqhmg","pricing_plan_id":"free"},{"bike_id":"6933d967-8757-494a-a692-918d774c6819","system_id":"levelo_inurba_marseille","lat":43.33612,"lon":5.410321,"is_reserved":false,"is_disabled":false,"rental_uris":{"android":"levelo://app?vid=6933d967-8757-494a-a692-918d774c6819","ios":"levelo://app?vid=6933d967-8757-494a-a692-918d774c6819"},"vehicle_type_id":"4","last_reported":1679033316,"current_range_meters":24400,"station_id":"ce4bhqh2rcd13ifvqhmg","pricing_plan_id":"free"},{"bike_id":"37fa8c1f-4e29-472e-9392-d24b29bffce7","system_id":"levelo_inurba_marseille","lat":43.33612,"lon":5.410321,"is_reserved":false,"is_disabled":false,"rental_uris":{"android":"levelo://app?vid=37fa8c1f-4e29-472e-9392-d24b29bffce7","ios":"levelo://app?vid=37fa8c1f-4e29-472e-9392-d24b29bffce7"},"vehicle_type_id":"4","last_reported":1679033316,"current_range_meters":3600,"station_id":"ce4bhqh2rcd13ifvqhmg","pricing_plan_id":"free"},{"bike_id":"bdc659b7-1ba4-4c34-a5fe-b5561b6afd85","system_id":"levelo_inurba_marseille","lat":43.33612,"lon":5.410321,"is_reserved":false,"is_disabled":false,"rental_uris":{"android":"levelo://app?vid=bdc659b7-1ba4-4c34-a5fe-b5561b6afd85","ios":"levelo://app?vid=bdc659b7-1ba4-4c34-a5fe-b5561b6afd85"},"vehicle_type_id":"4","last_reported":1679033316,"current_range_meters":0,"station_id":"ce4bhqh2rcd13ifvqhmg","pricing_plan_id":"free"},{"bike_id":"4a514dbc-9f1d-459f-9b35-9ec644efafd3","system_id":"levelo_inurba_marseille","lat":43.33612,"lon":5.410321,"is_reserved":false,"is_disabled":false,"rental_uris":{"android":"levelo://app?vid=4a514dbc-9f1d-459f-9b35-9ec644efafd3","ios":"levelo://app?vid=4a514dbc-9f1d-459f-9b35-9ec644efafd3"},"vehicle_type_id":"4","last_reported":1679033316,"current_range_meters":7600,"station_id":"ce4bhqh2rcd13ifvqhmg","pricing_plan_id":"free"},{"bike_id":"1d72ffbe-ca71-42cd-8108-759b4f3eed23","system_id":"levelo_inurba_marseille","lat":43.33612,"lon":5.410321,"is_reserved":false,"is_disabled":false,"rental_uris":{"android":"levelo://app?vid=1d72ffbe-ca71-42cd-8108-759b4f3eed23","ios":"levelo://app?vid=1d72ffbe-ca71-42cd-8108-759b4f3eed23"},"vehicle_type_id":"4","last_reported":1679033316,"current_range_meters":26800,"station_id":"ce4bhqh2rcd13ifvqhmg","pricing_plan_id":"free"},{"bike_id":"31377ad5-6fed-43c8-b914-2090fdfd3ed4","system_id":"levelo_inurba_marseille","lat":43.276771,"lon":5.388799,"is_reserved":false,"is_disabled":false,"rental_uris":{"android":"levelo://app?vid=31377ad5-6fed-43c8-b914-2090fdfd3ed4","ios":"levelo://app?vid=31377ad5-6fed-43c8-b914-2090fdfd3ed4"},