{"last_updated":1740337571,"ttl":60,"version":"2.2","data":{"bikes":[{"bike_id":"597f22d2-3d4a-4b91-8dd6-0882bac65463","system_id":"levelo_inurba_marseille","lat":43.27613,"lon":5.36095,"is_reserved":false,"is_disabled":true,"rental_uris":{"android":"levelo://app?vid=597f22d2-3d4a-4b91-8dd6-0882bac65463","ios":"levelo://app?vid=597f22d2-3d4a-4b91-8dd6-0882bac65463"},"vehicle_type_id":"4","last_reported":1740337572,"current_range_meters":2800,"station_id":"ce4bgj92rcd13ifvqbe0","pricing_plan_id":"cebpf4jnsgd1na2vs0mg"},{"bike_id":"91cd9c50-a708-4ca7-8c38-9684716b8855","system_id":"levelo_inurba_marseille","lat":43.33774,"lon":5.37444,"is_reserved":false,"is_disabled":false,"rental_uris":{"android":"levelo://app?vid=91cd9c50-a708-4ca7-8c38-9684716b8855","ios":"levelo://app?vid=91cd9c50-a708-4ca7-8c38-9684716b8855"},"vehicle_type_id":"4","last_reported":1740337572,"current_range_meters":2800,"station_id":"","pricing_plan_id":"cebpf4jnsgd1na2vs0mg"},{"bike_id":"5cbd64ca-c4d8-45ee-a231-e1eb691e16c5","system_id":"levelo_inurba_marseille","lat":43.30304,"lon":5.392,"is_reserved":false,"is_disabled":false,"rental_uris":{"android":"levelo://app?vid=5cbd64ca-c4d8-45ee-a231-e1eb691e16c5","ios":"levelo://app?vid=5cbd64ca-c4d8-45ee-a231-e1eb691e16c5"},"vehicle_type_id":"4","last_reported":1740337572,"current_range_meters":2800,"station_id":"ce4bgkh2rcd13ifvqbk0","pricing_plan_id":"cebpf4jnsgd1na2vs0mg"},{"bike_id":"3a8604cb-7d3a-48d8-8952-9243347ff612","system_id":"levelo_inurba_marseille","lat":43.30126,"lon":5.39896,"is_reserved":false,"is_disabled":true,"rental_uris":{"android":"levelo://app?vid=3a8604cb-7d3a-48d8-8952-9243347ff612","ios":"levelo://app?vid=3a8604cb-7d3a-48d8-8952-9243347ff612"},"vehicle_type_id":"4","last_reported":1740337572,"current_range_meters":2800,"station_id":"ce4bh0h2rcd13ifvqd40","pricing_plan_id":"cebpf4jnsgd1na2vs0mg"},{"bike_id":"c121de91-3072-45b8-a443-a40f00019ef4","system_id":"levelo_inurba_marseille","lat":43.30083,"lon":5.39064,"is_reserved":false,"is_disabled":false,"rental_uris":{"android":"levelo://app?vid=c121de91-3072-45b8-a443-a40f00019ef4","ios":"levelo://app?vid=c121de91-3072-45b8-a443-a40f00019ef4"},"vehicle_type_id":"4","last_reported":1740337572,"current_range_meters":2800,"station_id":"ce4bh192rcd13ifvqdb0","pricing_plan_id":"cebpf4jnsgd1na2vs0mg"},{"bike_id":"8bfe7f7a-721f-4be6-825e-e8de2f4be402","system_id":"levelo_inurba_marseille","lat":43.27918,"lon":5.39592,"is_reserved":false,"is_disabled":false,"rental_uris":{"android":"levelo://app?vid=8bfe7f7a-721f-4be6-825e-e8de2f4be402","ios":"levelo://app?vid=8bfe7f7a-721f-4be6-825e-e8de2f4be402"},"vehicle_type_id":"4","last_reported":1740337572,"current_range_meters":2800,"station_id":"ce4bhf92rcd13ifvqf40","pricing_plan_id":"cebpf4jnsgd1na2vs0mg"},{"bike_id":"d0118a3a-7456-4992-92a7-8f7ee8b399e2","system_id":"levelo_inurba_marseille","lat":43.24181,"lon":5.39727,"is_reserved":false,"is_disabled":false,"rental_uris":{"android":"levelo://app?vid=d0118a3a-7456-4992-92a7-8f7ee8b399e2","ios":"levelo://app?vid=d0118a3a-7456-4992-92a7-8f7ee8b399e2"},"vehicle_type_id":"4","last_reported":1740337572,"current_range_meters":3200,"station_id":"ce4bhn12rcd13ifvqgpg","pricing_plan_id":"cebpf4jnsgd1na2vs0mg"},{"bike_id":"0abf9d37-c770-4f86-b74f-27e8fb3f7fae","system_id":"levelo_inurba_marseille","lat":43.30255,"lon":5.40069,"is_reserved":false,"is_disabled":false,"rental_uris":{"android":"levelo://app?vid=0abf9d37-c770-4f86-b74f-27e8fb3f7fae","ios":"levelo://app?vid=0abf9d37-c770-4f86-b74f-27e8fb3f7fae"},"vehicle_type_id":"4","last_reported":1740337572,"current_range_meters":3200,"station_id":"ce4bgvh2rcd13ifvqcs0","pricing_plan_id":"cebpf4jnsgd1na2vs0mg"},{"bike_id":"d2f7081c-6958-4345-b7de-996ae1e98563","system_id":"levelo_inurba_marseille","lat":43.28703,"lon":5.39992,"is_reserved":false,"is_disabled":false,"rental_uris":{"android":"levelo://app?vid=d2f7081c-6958-4345-b7de-996ae1e98563","ios":"levelo://app?vid=d2f7081c-6958-4345-b7de-996ae1e98563"},"vehicle_type_id":"4","last_reported":1740337572,"current_range_meters":3200,"station_id":"ce4bho92rcd13ifvqh3g","pricing_plan_id":"cebpf4jnsgd1na2vs0mg"},{"bike_id":"1ae71982-46ec-4282-a110-38ff2e443149","system_id":"levelo_inurba_marseille","lat":43.24805,"lon":5.37452,"is_reserved":false,"is_disabled":false,"rental_uris":{"android":"levelo://app?vid=1ae71982-46ec-4282-a110-38ff2e443149","ios":"levelo://app?vid=1ae71982-46ec-4282-a110-38ff2e443149"},"vehicle_type_id":"4","last_reported":1740337572,"current_range_meters":3600,"station_id":"ce4bhgh2rcd13ifvqfb0","pricing_plan_id":"cebpf4jnsgd1na2vs0mg"},{"bike_id":"922a0dfc-4d68-48c6-af2b-be31ee168128","system_id":"levelo_inurba_marseille","lat":43.29206,"lon":5.393315,"is_reserved":false,"is_disabled":false,"rental_uris":{"android":"levelo://app?vid=922a0dfc-4d68-48c6-af2b-be31ee168128","ios":"levelo://app?vid=922a0dfc-4d68-48c6-af2b-be31ee168128"},"vehicle_type_id":"4","last_reported":1740337572,"current_range_meters":3600,"station_id":"ce4bh192rcd13ifvqdd0","pricing_plan_id":"cebpf4jnsgd1na2vs0mg"},{"bike_id":"ab46b189-6bae-4129-a7fd-10b3ccd5a48e","system_id":"levelo_inurba_marseille","lat":43.27201,"lon":5.39995,"is_reserved":false,"is_disabled":false,"rental_uris":{"android":"levelo://app?vid=ab46b189-6bae-4129-a7fd-10b3ccd5a48e","ios":"levelo://app?vid=ab46b189-6bae-4129-a7fd-10b3ccd5a48e"},"vehicle_type_id":"4","last_reported":1740337572,"current_range_meters":3600,"station_id":"","pricing_plan_id":"cebpf4jnsgd1na2vs0mg"},{"bike_id":"fa83beb1-2405-4db0-9826-c091cb751783","system_id":"levelo_inurba_marseille","lat":43.25119,"lon":5.40335,"is_reserved":false,"is_disabled":true,"rental_uris":{"android":"levelo://app?vid=fa83beb1-2405-4db0-9826-c091cb751783","ios":"levelo://app?vid=fa83beb1-2405-4db0-9826-c091cb751783"},"vehicle_type_id":"4","last_reported":1740337572,"current_range_meters":3600,"station_id":"ce4bhlh2rcd13ifvqgig","pricing_plan_id":"cebpf4jnsgd1na2vs0mg"},{"bike_id":"1a825aa2-f323-4a83-96dc-36e035a1ab6d","system_id":"levelo_inurba_marseille","lat":43.29205,"lon":5.39321,"is_reserved":false,"is_disabled":false,"rental_uris":{"android":"levelo://app?vid=1a825aa2-f323-4a83-96dc-36e035a1ab6d","ios":"levelo://app?vid=1a825aa2-f323-4a83-96dc-36e035a1ab6d"},"vehicle_type_id":"4","last_reported":1740337572,"current_range_meters":4000,"station_id":"ce4bh192rcd13ifvqdd0","pricing_plan_id":"cebpf4jnsgd1na2vs0mg"},{"bike_id":"8733be56-19ff-4ab9-a910-fb9667cb8c7c","system_id":"levelo_inurba_marseille","lat":43.29257,"lon":5.40256,"is_reserved":false,"is_disabled":false,"rental_uris":{"android":"levelo://app?vid=8733be56-19ff-4ab9-a910-fb9667cb8c7c","ios":"levelo://app?vid=8733be56-19ff-4ab9-a910-fb9667cb8c7c"},"vehicle_type_id":"4","last_reported":1740337572,"current_range_meters":4000,"station_id":"ce4bh312rcd13ifvqdk0","pricing_plan_id":"cebpf4jnsgd1na2vs0mg"},{"bike_id":"362a3965-ca2d-4dd3-a119-082516fba0a5","system_id":"levelo_inurba_marseille","lat":43.32284,"lon":5.3826,"is_reserved":false,"is_disabled":false,"rental_uris":{"android":"levelo://app?vid=362a3965-ca2d-4dd3-a119-082516fba0a5","ios":"levelo://app?vid=362a3965-ca2d-4dd3-a119-082516fba0a5"},"vehicle_type_id":"4","last_reported":1740337572,"current_range_meters":4400,"station_id":"ce4bhr12rcd13ifvqhqg","pricing_plan_id":"cebpf4jnsgd1na2vs0mg"},{"bike_id":"60667e76-c3b5-44ba-a3bc-6e41d5eb78df","system_id":"levelo_inurba_marseille","lat":43.26524,"lon":5.39586,"is_reserved":false,"is_disabled":false,"rental_uris":{"android":"levelo://app?vid=60667e76-c3b5-44ba-a3bc-6e41d5eb78df","ios":"levelo://app?vid=60667e76-c3b5-44ba-a3bc-6e41d5eb78df"},"vehicle_type_id":"4","last_reported":1740337572,"current_range_meters":4400,"station_id":"ce4bhi12rcd13ifvqfq0","pricing_plan_id":"cebpf4jnsgd1na2vs0mg"},{"bike_id":"5aa8ad3e-a782-4cd0-9945-5894c654c989","system_id":"levelo_inurba_marseille","lat":43.31162,"lon":5.38715,"is_reserved":false,"is_disabled":false,"rental_uris":{"android":"levelo://app?vid=5aa8ad3e-a782-4cd0-9945-5894c654c989","ios":"levelo://app?vid=5aa8ad3e-a782-4cd0-9945-5894c654c989"},"vehicle_type_id":"4","last_reported":1740337572,"current_range_meters":4400,"station_id":"ce4bgv12rcd13ifvqcp0","pricing_plan_id":"cebpf4jnsgd1na2vs0mg"},{"bike_id":"30dc027b-862b-4eee-b5e9-748f55bddfeb","system_id":"levelo_inurba_marseille","lat":43.26222,"lon":5.40452,"is_reserved":false,"is_disabled":false,"rental_uris":{"android":"levelo://app?vid=30dc027b-862b-4eee-b5e9-748f55bddfeb","ios":"levelo://app?vid=30dc027b-862b-4eee-b5e9-748f55bddfeb"},"vehicle_type_id":"4","last_reported":1740337572,"current_range_meters":4400,"station_id":"ce4bhmh2rcd13ifvqgmg","pricing_plan_id":"cebpf4jnsgd1na2vs0mg"},{"bike_id":"b90d6a58-e54f-4e92-868f-74e06d117245","system_id":"levelo_inurba_marseille","lat":43.29041,"lon":5.39961,"is_reserved":false,"is_disabled":false,"rental_uris":{"android":"levelo://app?vid=b90d6a58-e54f-4e92-868f-74e06d117245","ios":"levelo://app?vid=b90d6a58-e54f-4e92-868f-74e06d117245"},"vehicle_type_id":"4","last_reported":1740337572,"current_range_meters":4400,"station_id":"ce4bh392rcd13ifvqdm0","pricing_plan_id":"cebpf4jnsgd1na2vs0mg"},{"bike_id":"874eb596-5c1d-46e4-834b-b12ee27d4770","system_id":"levelo_inurba_marseille","lat":43.25727,"lon":5.4111,"is_reserved":false,"is_disabled":false,"rental_uris":{"android":"levelo://app?vid=874eb596-5c1d-46e4-834b-b12ee27d4770","ios":"levelo://app?vid=874eb596-5c1d-46e4-834b-b12ee27d4770"},"vehicle_type_id":"4","last_reported":1740337572,"current_range_meters":4400,"station_id":"ce4bhkp2rcd13ifvqgd0","pricing_plan_id":"cebpf4jnsgd1na2vs0mg"},{"bike_id":"f5536d1f-3798-4190-81cf-337f90102848","system_id":"levelo_inurba_marseille","lat":43.29518,"lon":5.39414,"is_reserved":false,"is_disabled":false,"rental_uris":{"android":"levelo://app?vid=f5536d1f-3798-4190-81cf-337f90102848","ios":"levelo://app?vid=f5536d1f-3798-4190-81cf-337f90102848"},"vehicle_type_id":"4","last_reported":1740337572,"current_range_meters":4400,"station_id":"ce4bh292rcd13ifvqdf0","pricing_plan_id":"cebpf4jnsgd1na2vs0mg"},{"bike_id":"af1c5902-ca24-432d-ae7b-f8e1803daa4b","system_id":"levelo_inurba_marseille","lat":43.32027,"lon":5.38157,"is_reserved":false,"is_disabled":false,"rental_uris":{"android":"levelo://app?vid=af1c5902-ca24-432d-ae7b-f8e1803daa4b","ios":"levelo://app?vid=af1c5902-ca24-432d-ae7b-f8e1803daa4b"},"vehicle_type_id":"4","last_reported":1740337572,"current_range_meters":4800,"station_id":"ce4bhr12rcd13ifvqhpg","pricing_plan_id":"cebpf4jnsgd1na2vs0mg"},{"bike_id":"f8812183-2a7f-4612-bd78-a321cf2ab341","system_id":"levelo_inurba_marseille","lat":43.3235,"lon":5.40597,"is_reserved":false,"is_disabled":false,"rental_uris":{"android":"levelo://app?vid=f8812183-2a7f-4612-bd78-a321cf2ab341","ios":"levelo://app?vid=f8812183-2a7f-4612-bd78-a321cf2ab341"},"vehicle_type_id":"4","last_reported":1740337572,"current_range_meters":4800,"station_id":"ce4bhq92rcd13ifvqhjg","pricing_plan_id":"cebpf4jnsgd1na2vs0mg"},{"bike_id":"9116b8ac-629d-459b-b44d-248b2c2649b7","system_id":"levelo_inurba_marseille","lat":43.2799,"lon":5.41081,"is_reserved":false,"is_disabled":true,"rental_uris":{"android":"levelo://app?vid=9116b8ac-629d-459b-b44d-248b2c2649b7","ios":"levelo://app?vid=9116b8ac-629d-459b-b44d-248b2c2649b7"},"vehicle_type_id":"4","last_reported":1740337572,"current_range_meters":4800,"station_id":"","pricing_plan_id":"cebpf4jnsgd1na2vs0mg"},{"bike_id":"0894cba6-6c94-4e51-a550-4b7f58e2f445","system_id":"levelo_inurba_marseille","lat":43.28703,"lon":5.37919,"is_reserved":false,"is_disabled":false,"rental_uris":{"android":"levelo://app?vid=0894cba6-6c94-4e51-a550-4b7f58e2f445","ios":"levelo://app?vid=0894cba6-6c94-4e51-a550-4b7f58e2f445"},"vehicle_type_id":"4","last_reported":1740337572,"current_range_meters":4800,"station_id":"ce4bh9p2rcd13ifvqec0","pricing_plan_id":"cebpf4jnsgd1na2vs0mg"},{"bike_id":"0005b2f2-f898-4109-bebd-ab932a3e039b","system_id":"levelo_inurba_marseille","lat":43.30952,"lon":5.3903,"is_reserved":false,"is_disabled":false,"rental_uris":{"android":"levelo://app?vid=0005b2f2-f898-4109-bebd-ab932a3e039b","ios":"levelo://app?vid=0005b2f2-f898-4109-bebd-ab932a3e039b"},"vehicle_type_id":"4","last_reported":1740337572,"current_range_meters":5600,"station_id":"ce4bgup2rcd13ifvqco0","pricing_plan_id":"cebpf4jnsgd1na2vs0mg"},{"bike_id":"2a7165b4-60a1-4418-90cd-83d9915280e2","system_id":"levelo_inurba_marseille","lat":43.28019,"lon":5.40605,"is_reserved":false,"is_disabled":false,"rental_uris":{"android":"levelo://app?vid=2a7165b4-60a1-4418-90cd-83d9915280e2","ios":"levelo://app?vid=2a7165b4-60a1-4418-90cd-83d9915280e2"},"vehicle_type_id":"4","last_reported":1740337572,"current_range_meters":5600,"station_id":"","pricing_plan_id":"cebpf4jnsgd1na2vs0mg"},{"bike_id":"3200884f-7a10-4278-869a-99c0a05bb515","system_id":"levelo_inurba_marseille","lat":43.30869,"lon":5.39596,"is_reserved":false,"is_disabled":false,"rental_uris":{"android":"levelo://app?vid=3200884f-7a10-4278-869a-99c0a05bb515","ios":"levelo://app?vid=3200884f-7a10-4278-869a-99c0a05bb515"},"vehicle_type_id":"4","last_reported":1740337572,"current_range_meters":5600,"station_id":"","pricing_plan_id":"cebpf4jnsgd1na2vs0mg"},{"bike_id":"dc0020ee-6dc2-4051-94ea-6c80b33d3224","system_id":"levelo_inurba_marseille","lat":43.28446,"lon":5.392,"is_reserved":false,"is_disabled":false,"rental_uris":{"android":"levelo://app?vid=dc0020ee-6dc2-4051-94ea-6c80b33d3224","ios":"levelo://app?vid=dc0020ee-6dc2-4051-94ea-6c80b33d3224"},"vehicle_type_id":"4","last_reported":1740337572,"current_range_meters":5600,"station_id":"ce4bhoh2rcd13ifvqh5g","pricing_plan_id":"cebpf4jnsgd1na2vs0mg"},{"bike_id":"5be81403-e80e-49df-8f5d-218571205bc6","system_id":"levelo_inurba_marseille","lat":43.28408,"lon":5.37512,"is_reserved":false,"is_disabled":true,"rental_uris":{"android":"levelo://app?vid=5be81403-e80e-49df-8f5d-218571205bc6","ios":"levelo://app?vid=5be81403-e80e-49df-8f5d-218571205bc6"},"vehicle_type_id":"4","last_reported":1740337572,"current_range_meters":6000,"station_id":"ce4bh412rcd13ifvqds0","pricing_plan_id":"cebpf4jnsgd1na2vs0mg"},{"bike_id":"1f82c680-b18d-45d8-9056-e83c4013f481","system_id":"levelo_inurba_marseille","lat":43.29041,"lon":5.400044,"is_reserved":false,"is_disabled":false,"rental_uris":{"android":"levelo://app?vid=1f82c680-b18d-45d8-9056-e83c4013f481","ios":"levelo://app?vid=1f82c680-b18d-45d8-9056-e83c4013f481"},"vehicle_type_id":"4","last_reported":1740337572,"current_range_meters":5600,"station_id":"ce4bhg12rcd13ifvqf60","pricing_plan_id":"cebpf4jnsgd1na2vs0mg"},{"bike_id":"ff7a9e08-1430-4da6-996a-f97146e6552b","system_id":"levelo_inurba_marseille","lat":43.31274,"lon":5.40166,"is_reserved":false,"is_disabled":false,"rental_uris":{"android":"levelo://app?vid=ff7a9e08-1430-4da6-996a-f97146e6552b","ios":"levelo://app?vid=ff7a9e08-1430-4da6-996a-f97146e6552b"},"vehicle_type_id":"4","last_reported":1740337572,"current_range_meters":6000,"station_id":"ce4bh092rcd13ifvqd30","pricing_plan_id":"cebpf4jnsgd1na2vs0mg"},{"bike_id":"9d1f1e98-732f-4b68-b8c3-08b8590f9b32","system_id":"levelo_inurba_marseille","lat":43.294505,"lon":5.374864,"is_reserved":false,"is_disabled":false,"rental_uris":{"android":"levelo://app?vid=9d1f1e98-732f-4b68-b8c3-08b8590f9b32","ios":"levelo://app?vid=9d1f1e98-732f-4b68-b8c3-08b8590f9b32"},"vehicle_type_id":"4","last_reported":1740337572,"current_range_meters":6000,"station_id":"ce4bh012rcd13ifvqd10","pricing_plan_id":"cebpf4jnsgd1na2vs0mg"},{"bike_id":"2e4d9ef6-4dd9-45eb-8687-42db3850d70a","system_id":"levelo_inurba_marseille","lat":43.27465,"lon":5.40744,"is_reserved":false,"is_disabled":false,"rental_uris":{"android":"levelo://app?vid=2e4d9ef6-4dd9-45eb-8687-42db3850d70a","ios":"levelo://app?vid=2e4d9ef6-4dd9-45eb-8687-42db3850d70a"},"vehicle_type_id":"4","last_reported":1740337572,"current_range_meters":6000,"station_id":"","pricing_plan_id":"cebpf4jnsgd1na2vs0mg"},{"bike_id":"5ccc908f-1a11-43f6-afb2-992bd7bc5d25","system_id":"levelo_inurba_marseille","lat":43.30889,"lon":5.39647,"is_reserved":false,"is_disabled":false,"rental_uris":{"android":"levelo://app?vid=5ccc908f-1a11-43f6-afb2-992bd7bc5d25","ios":"levelo://app?vid=5ccc908f-1a11-43f6-afb2-992bd7bc5d25"},"vehicle_type_id":"4","last_reported":1740337572,"current_range_meters":6000,"station_id":"ce4bh012rcd13ifvqcv0","pricing_plan_id":"cebpf4jnsgd1na2vs0mg"},{"bike_id":"86e4bc0c-9513-4e34-a6cf-4815aa2232ee","system_id":"levelo_inurba_marseille","lat":43.28483,"lon":5.38416,"is_reserved":false,"is_disabled":false,"rental_uris":{"android":"levelo://app?vid=86e4bc0c-9513-4e34-a6cf-4815aa2232ee","ios":"levelo://app?vid=86e4bc0c-9513-4e34-a6cf-4815aa2232ee"},"vehicle_type_id":"4","last_reported":1740337572,"current_range_meters":6000,"station_id":"ce4bh512rcd13ifvqe3g","pricing_plan_id":"cebpf4jnsgd1na2vs0mg"},{"bike_id":"7fe2f26c-ee54-430f-b381-1213986bef6d","system_id":"levelo_inurba_marseille","lat":43.28705,"lon":5.39994,"is_reserved":false,"is_disabled":false,"rental_uris":{"android":"levelo://app?vid=7fe2f26c-ee54-430f-b381-1213986bef6d","ios":"levelo://app?vid=7fe2f26c-ee54-430f-b381-1213986bef6d"},"vehicle_type_id":"4","last_reported":1740337572,"current_range_meters":6000,"station_id":"ce4bho92rcd13ifvqh3g","pricing_plan_id":"cebpf4jnsgd1na2vs0mg"},{"bike_id":"e90984cf-0919-4380-9f2e-466bdd09bc2b","system_id":"levelo_inurba_marseille","lat":43.24666,"lon":5.38165,"is_reserved":false,"is_disabled":false,"rental_uris":{"android":"levelo://app?vid=e90984cf-0919-4380-9f2e-466bdd09bc2b","ios":"levelo://app?vid=e90984cf-0919-4380-9f2e-466bdd09bc2b"},"vehicle_type_id":"4","last_reported":1740337572,"current_range_meters":6000,"station_id":"ce4bhih2rcd13ifvqfr0","pricing_plan_id":"cebpf4jnsgd1na2vs0mg"},{"bike_id":"023ccbfd-cc77-49f3-bf20-7a64ffc8b6df","system_id":"levelo_inurba_marseille","lat":43.30542,"lon":5.36525,"is_reserved":false,"is_disabled":false,"rental_uris":{"android":"levelo://app?vid=023ccbfd-cc77-49f3-bf20-7a64ffc8b6df","ios":"levelo://app?vid=023ccbfd-cc77-49f3-bf20-7a64ffc8b6df"},"vehicle_type_id":"4","last_reported":1740337572,"current_range_meters":5600,"station_id":"ce4bgs12rcd13ifvqcag","pricing_plan_id":"cebpf4jnsgd1na2vs0mg"},{"bike_id":"31bd8ab8-d5ad-485d-b095-d8b2c1490c96","system_id":"levelo_inurba_marseille","lat":43.28037,"lon":5.3694,"is_reserved":false,"is_disabled":false,"rental_uris":{"android":"levelo://app?vid=31bd8ab8-d5ad-485d-b095-d8b2c1490c96","ios":"levelo://app?vid=31bd8ab8-d5ad-485d-b095-d8b2c1490c96"},"vehicle_type_id":"4","last_reported":1740337572,"current_range_meters":6400,"station_id":"ce4bha12rcd13ifvqef0","pricing_plan_id":"cebpf4jnsgd1na2vs0mg"},{"bike_id":"07fd0653-3452-47cc-9b06-b014674c55f7","system_id":"levelo_inurba_marseille","lat":43.31371,"lon":5.38477,"is_reserved":false,"is_disabled":false,"rental_uris":{"android":"levelo://app?vid=07fd0653-3452-47cc-9b06-b014674c55f7","ios":"levelo://app?vid=07fd0653-3452-47cc-9b06-b014674c55f7"},"vehicle_type_id":"4","last_reported":1740337572,"current_range_meters":6400,"station_id":"ce4bgt92rcd13ifvqcf0","pricing_plan_id":"cebpf4jnsgd1na2vs0mg"},{"bike_id":"f4c73116-43d3-41d9-88bb-9461dbbb405f","system_id":"levelo_inurba_marseille","lat":43.25421,"lon":5.4157,"is_reserved":false,"is_disabled":false,"rental_uris":{"android":"levelo://app?vid=f4c73116-43d3-41d9-88bb-9461dbbb405f","ios":"levelo://app?vid=f4c73116-43d3-41d9-88bb-9461dbbb405f"},"vehicle_type_id":"4","last_reported":1740337572,"current_range_meters":6400,"station_id":"","pricing_plan_id":"cebpf4jnsgd1na2vs0mg"},{"bike_id":"8a505d93-8918-4539-b7a7-e7d5cfa48e0c","system_id":"levelo_inurba_marseille","lat":43.29026,"lon":5.38641,"is_reserved":false,"is_disabled":false,"rental_uris":{"android":"levelo://app?vid=8a505d93-8918-4539-b7a7-e7d5cfa48e0c","ios":"levelo://app?vid=8a505d93-8918-4539-b7a7-e7d5cfa48e0c"},"vehicle_type_id":"4","last_reported":1740337572,"current_range_meters":6400,"station_id":"ce4bh4p2rcd13ifvqe0g","pricing_plan_id":"cebpf4jnsgd1na2vs0mg"},{"bike_id":"68eaf70c-86da-4a55-b86e-08db94ec71f8","system_id":"levelo_inurba_marseille","lat":43.308772,"lon":5.396457,"is_reserved":false,"is_disabled":false,"rental_uris":{"android":"levelo://app?vid=68eaf70c-86da-4a55-b86e-08db94ec71f8","ios":"levelo://app?vid=68eaf70c-86da-4a55-b86e-08db94ec71f8"},"vehicle_type_id":"4","last_reported":1740337572,"current_range_meters":6800,"station_id":"ce4bh012rcd13ifvqcv0","pricing_plan_id":"cebpf4jnsgd1na2vs0mg"},{"bike_id":"23517121-7e75-4600-a3af-ba8df80f13ac","system_id":"levelo_inurba_marseille","lat":43.295221,"lon":5.390379,"is_reserved":false,"is_disabled":false,"rental_uris":{"android":"levelo://app?vid=23517121-7e75-4600-a3af-ba8df80f13ac","ios":"levelo://app?vid=23517121-7e75-4600-a3af-ba8df80f13ac"},"vehicle_type_id":"4","last_reported":1740337572,"current_range_meters":6800,"station_id":"","pricing_plan_id":"cebpf4jnsgd1na2vs0mg"},{"bike_id":"d314cb54-b43a-41fb-af42-e877372bf84c","system_id":"levelo_inurba_marseille","lat":43.29713,"lon":5.37698,"is_reserved":false,"is_disabled":false,"rental_uris":{"android":"levelo://app?vid=d314cb54-b43a-41fb-af42-e877372bf84c","ios":"levelo://app?vid=d314cb54-b43a-41fb-af42-e877372bf84c"},"vehicle_type_id":"4","last_reported":1740337572,"current_range_meters":6400,"station_id":"ce4bgkh2rcd13ifvqbl0","pricing_plan_id":"cebpf4jnsgd1na2vs0mg"},{"bike_id":"21c03b67-4f1c-47ef-9bf8-29d8898d16e5","system_id":"levelo_inurba_marseille","lat":43.30877,"lon":5.39658,"is_reserved":false,"is_disabled":false,"rental_uris":{"android":"levelo://app?vid=21c03b67-4f1c-47ef-9bf8-29d8898d16e5","ios":"levelo://app?vid=21c03b67-4f1c-47ef-9bf8-29d8898d16e5"},"vehicle_type_id":"4","last_reported":1740337572,"current_range_meters":6800,"station_id":"ce4bh012rcd13ifvqcv0","pricing_plan_id":"cebpf4jnsgd1na2vs0mg"},{"bike_id":"1284377d-613e-4b0e-b8b9-30807af03316","system_id":"levelo_inurba_marseille","lat":43.27823,"lon":5.39167,"is_reserved":false,"is_disabled":true,"rental_uris":{"android":"levelo://app?vid=1284377d-613e-4b0e-b8b9-30807af03316","ios":"levelo://app?vid=1284377d-613e-4b0e-b8b9-30807af03316"},"vehicle_type_id":"4","last_reported":1740337572,"current_range_meters":6800,"station_id":"ce4bhjp2rcd13ifvqga0","pricing_plan_id":"cebpf4jnsgd1na2vs0mg"},{"bike_id":"7292c1e5-6964-4d8a-a212-eddc90011189","system_id":"levelo_inurba_marseille","lat":43.31117,"lon":5.37772,"is_reserved":false,"is_disabled":false,"rental_uris":{"android":"levelo://app?vid=7292c1e5-6964-4d8a-a212-eddc90011189","ios":"levelo://app?vid=7292c1e5-6964-4d8a-a212-eddc90011189"},"vehicle_type_id":"4","last_reported":1740337572,"current_range_meters":6800,"station_id":"ce4bgt92rcd13ifvqcg0","pricing_plan_id":"cebpf4jnsgd1na2vs0mg"},{"bike_id":"c5284811-5776-4603-ae13-b9f46cc09324","system_id":"levelo_inurba_marseille","lat":43.25872,"lon":5.39892,"is_reserved":false,"is_disabled":false,"rental_uris":{"android":"levelo://app?vid=c5284811-5776-4603-ae13-b9f46cc09324","ios":"levelo://app?vid=c5284811-5776-4603-ae13-b9f46cc09324"},"vehicle_type_id":"4","last_reported":1740337572,"current_range_meters":6400,"station_id":"ce4bhl92rcd13ifvqghg","pricing_plan_id":"cebpf4jnsgd1na2vs0mg"},{"bike_id":"c48e7869-1093-4d1b-b1c9-241dee4d119b","system_id":"levelo_inurba_marseille","lat":43.31711,"lon":5.40461,"is_reserved":false,"is_disabled":false,"rental_uris":{"android":"levelo://app?vid=c48e7869-1093-4d1b-b1c9-241dee4d119b","ios":"levelo://app?vid=c48e7869-1093-4d1b-b1c9-241dee4d119b"},"vehicle_type_id":"4","last_reported":1740337572,"current_range_meters":6800,"station_id":"ce4bh012rcd13ifvqd00","pricing_plan_id":"cebpf4jnsgd1na2vs0mg"},{"bike_id":"ea2ca8b8-d651-4855-9912-ee83c05843bd","system_id":"levelo_inurba_marseille","lat":43.30214,"lon":5.39468,"is_reserved":false,"is_disabled":false,"rental_uris":{"android":"levelo://app?vid=ea2ca8b8-d651-4855-9912-ee83c05843bd","ios":"levelo://app?vid=ea2ca8b8-d651-4855-9912-ee83c05843bd"},"vehicle_type_id":"4","last_reported":1740337572,"current_range_meters":6800,"station_id":"ce4bh0p2rcd13ifvqd70","pricing_plan_id":"cebpf4jnsgd1na2vs0mg"},{"bike_id":"08d3c49f-b378-451a-b094-0dca00f63d21","system_id":"levelo_inurba_marseille","lat":43.27213,"lon":5.39182,"is_reserved":false,"is_disabled":false,"rental_uris":{"android":"levelo://app?vid=08d3c49f-b378-451a-b094-0dca00f63d21","ios":"levelo://app?vid=08d3c49f-b378-451a-b094-0dca00f63d21"},"vehicle_type_id":"4","last_reported":1740337572,"current_range_meters":7200,"station_id":"ce4bho92rcd13ifvqh4g","pricing_plan_id":"cebpf4jnsgd1na2vs0mg"},{"bike_id":"519c0d90-c598-4074-9c80-d5e1565ff705","system_id":"levelo_inurba_marseille","lat":43.23063,"lon":5.35502,"is_reserved":false,"is_disabled":false,"rental_uris":{"android":"levelo://app?vid=519c0d90-c598-4074-9c80-d5e1565ff705","ios":"levelo://app?vid=519c0d90-c598-4074-9c80-d5e1565ff705"},"vehicle_type_id":"4","last_reported":1740337572,"current_range_meters":7200,"station_id":"cpo3342slgdg3j2ifvpg","pricing_plan_id":"cebpf4jnsgd1na2vs0mg"},{"bike_id":"623cde1b-b21b-493f-8ce2-b09bcee48cd2","system_id":"levelo_inurba_marseille","lat":43.28926,"lon":5.38383,"is_reserved":false,"is_disabled":false,"rental_uris":{"android":"levelo://app?vid=623cde1b-b21b-493f-8ce2-b09bcee48cd2","ios":"levelo://app?vid=623cde1b-b21b-493f-8ce2-b09bcee48cd2"},"vehicle_type_id":"4","last_reported":1740337572,"current_range_meters":7200,"station_id":"ce4bh612rcd13ifvqe6g","pricing_plan_id":"cebpf4jnsgd1na2vs0mg"},{"bike_id":"de2af38e-8549-4db4-b2a9-1a67f89772b3","system_id":"levelo_inurba_marseille","lat":43.28855,"lon":5.39411,"is_reserved":false,"is_disabled":false,"rental_uris":{"android":"levelo://app?vid=de2af38e-8549-4db4-b2a9-1a67f89772b3","ios":"levelo://app?vid=de2af38e-8549-4db4-b2a9-1a67f89772b3"},"vehicle_type_id":"4","last_reported":1740337572,"current_range_meters":7200,"station_id":"ce4bh2p2rcd13ifvqdi0","pricing_plan_id":"cebpf4jnsgd1na2vs0mg"},{"bike_id":"b6c77459-26f3-43ec-baac-b2da52ec6895","system_id":"levelo_inurba_marseille","lat":43.28572,"lon":5.39475,"is_reserved":false,"is_disabled":false,"rental_uris":{"android":"levelo://app?vid=b6c77459-26f3-43ec-baac-b2da52ec6895","ios":"levelo://app?vid=b6c77459-26f3-43ec-baac-b2da52ec6895"},"vehicle_type_id":"4","last_reported":1740337572,"current_range_meters":7200,"station_id":"ce4bh292rcd13ifvqdg0","pricing_plan_id":"cebpf4jnsgd1na2vs0mg"},{"bike_id":"008e3819-5e9f-4d7d-9965-20eb91aef423","system_id":"levelo_inurba_marseille","lat":43.26503,"lon":5.39537,"is_reserved":false,"is_disabled":false,"rental_uris":{"android":"levelo://app?vid=008e3819-5e9f-4d7d-9965-20eb91aef423","ios":"levelo://app?vid=008e3819-5e9f-4d7d-9965-20eb91aef423"},"vehicle_type_id":"4","last_reported":1740337572,"current_range_meters":7200,"station_id":"ce4bhi12rcd13ifvqfq0","pricing_plan_id":"cebpf4jnsgd1na2vs0mg"},{"bike_id":"924aed6c-ca4b-45b0-aff9-8350769370a8","system_id":"levelo_inurba_marseille","lat":43.29528,"lon":5.39397,"is_reserved":false,"is_disabled":false,"rental_uris":{"android":"levelo://app?vid=924aed6c-ca4b-45b0-aff9-8350769370a8","ios":"levelo://app?vid=924aed6c-ca4b-45b0-aff9-8350769370a8"},"vehicle_type_id":"4","last_reported":1740337572,"current_range_meters":8000,"station_id":"ce4bh292rcd13ifvqdf0","pricing_plan_id":"cebpf4jnsgd1na2vs0mg"},{"bike_id":"d96a811e-7000-43af-9b3e-6a5e4d5580d3","system_id":"levelo_inurba_marseille","lat":43.28406,"lon":5.37504,"is_reserved":false,"is_disabled":false,"rental_uris":{"android":"levelo://app?vid=d96a811e-7000-43af-9b3e-6a5e4d5580d3","ios":"levelo://app?vid=d96a811e-7000-43af-9b3e-6a5e4d5580d3"},"vehicle_type_id":"4","last_reported":1740337572,"current_range_meters":8000,"station_id":"ce4bh412rcd13ifvqds0","pricing_plan_id":"cebpf4jnsgd1na2vs0mg"},{"bike_id":"5f5ace94-8081-4409-b191-51d33ab96337","system_id":"levelo_inurba_marseille","lat":43.2849,"lon":5.38416,"is_reserved":false,"is_disabled":false,"rental_uris":{"android":"levelo://app?vid=5f5ace94-8081-4409-b191-51d33ab96337","ios":"levelo://app?vid=5f5ace94-8081-4409-b191-51d33ab96337"},"vehicle_type_id":"4","last_reported":1740337572,"current_range_meters":8000,"station_id":"ce4bh512rcd13ifvqe3g","pricing_plan_id":"cebpf4jnsgd1na2vs0mg"},{"bike_id":"3187e468-350d-4975-bfaf-2b747840febc","system_id":"levelo_inurba_marseille","lat":43.29711,"lon":5.36623,"is_reserved":false,"is_disabled":false,"rental_uris":{"android":"levelo://app?vid=3187e468-350d-4975-bfaf-2b747840febc","ios":"levelo://app?vid=3187e468-350d-4975-bfaf-2b747840febc"},"vehicle_type_id":"4","last_reported":1740337572,"current_range_meters":8000,"station_id":"ce4bgn12rcd13ifvqbt0","pricing_plan_id":"cebpf4jnsgd1na2vs0mg"},{"bike_id":"1af71967-b274-4269-9655-88715abf61c6","system_id":"levelo_inurba_marseille","lat":43.265448,"lon":5.37289,"is_reserved":false,"is_disabled":true,"rental_uris":{"android":"levelo://app?vid=1af71967-b274-4269-9655-88715abf61c6","ios":"levelo://app?vid=1af71967-b274-4269-9655-88715abf61c6"},"vehicle_type_id":"4","last_reported":1740337572,"current_range_meters":8000,"station_id":"ce4bhg12rcd13ifvqf70","pricing_plan_id":"cebpf4jnsgd1na2vs0mg"},{"bike_id":"dc9c9b72-424b-4f11-bfd6-1abfabb2d086","system_id":"levelo_inurba_marseille","lat":43.29909,"lon":5.38133,"is_reserved":false,"is_disabled":false,"rental_uris":{"android":"levelo://app?vid=dc9c9b72-424b-4f11-bfd6-1abfabb2d086","ios":"levelo://app?vid=dc9c9b72-424b-4f11-bfd6-1abfabb2d086"},"vehicle_type_id":"4","last_reported":1740337572,"current_range_meters":8000,"station_id":"ce4bgj12rcd13ifvqbc0","pricing_plan_id":"cebpf4jnsgd1na2vs0mg"},{"bike_id":"cc42a8c0-db27-4634-b2b7-32de4f5a4f68","system_id":"levelo_inurba_marseille","lat":43.24828,"lon":5.3746,"is_reserved":false,"is_disabled":false,"rental_uris":{"android":"levelo://app?vid=cc42a8c0-db27-4634-b2b7-32de4f5a4f68","ios":"levelo://app?vid=cc42a8c0-db27-4634-b2b7-32de4f5a4f68"},"vehicle_type_id":"4","last_reported":1740337572,"current_range_meters":8400,"station_id":"ce4bhgh2rcd13ifvqfb0","pricing_plan_id":"cebpf4jnsgd1na2vs0mg"},{"bike_id":"09486dc5-7654-4904-afc6-3b8a40308aeb","system_id":"levelo_inurba_marseille","lat":43.25406,"lon":5.41573,"is_reserved":false,"is_disabled":false,"rental_uris":{"android":"levelo://app?vid=09486dc5-7654-4904-afc6-3b8a40308aeb","ios":"levelo://app?vid=09486dc5-7654-4904-afc6-3b8a40308aeb"},"vehicle_type_id":"4","last_reported":1740337572,"current_range_meters":8400,"station_id":"","pricing_plan_id":"cebpf4jnsgd1na2vs0mg"},{"bike_id":"e4f1895c-9df9-425b-9619-e869991b5754","system_id":"levelo_inurba_marseille","lat":43.29903,"lon":5.38162,"is_reserved":false,"is_disabled":false,"rental_uris":{"android":"levelo://app?vid=e4f1895c-9df9-425b-9619-e869991b5754","ios":"levelo://app?vid=e4f1895c-9df9-425b-9619-e869991b5754"},"vehicle_type_id":"4","last_reported":1740337572,"current_range_meters":8400,"station_id":"ce4bgj12rcd13ifvqbc0","pricing_plan_id":"cebpf4jnsgd1na2vs0mg"},{"bike_id":"2413094d-b64d-4cf8-8185-922e7ff7ad50","system_id":"levelo_inurba_marseille","lat":43.25117,"lon":5.40318,"is_reserved":false,"is_disabled":false,"rental_uris":{"android":"levelo://app?vid=2413094d-b64d-4cf8-8185-922e7ff7ad50","ios":"levelo://app?vid=2413094d-b64d-4cf8-8185-922e7ff7ad50"},"vehicle_type_id":"4","last_reported":1740337572,"current_range_meters":8400,"station_id":"ce4bhlh2rcd13ifvqgig","pricing_plan_id":"cebpf4jnsgd1na2vs0mg"},{"bike_id":"94b4bc71-e527-48bf-887a-633df7141cac","system_id":"levelo_inurba_marseille","lat":43.28719,"lon":5.39841,"is_reserved":false,"is_disabled":false,"rental_uris":{"android":"levelo://app?vid=94b4bc71-e527-48bf-887a-633df7141cac","ios":"levelo://app?vid=94b4bc71-e527-48bf-887a-633df7141cac"},"vehicle_type_id":"4","last_reported":1740337572,"current_range_meters":8400,"station_id":"","pricing_plan_id":"cebpf4jnsgd1na2vs0mg"},{"bike_id":"26a2d076-f5f2-45a7-98f5-29542790fe7d","system_id":"levelo_inurba_marseille","lat":43.32371,"lon":5.36751,"is_reserved":false,"is_disabled":false,"rental_uris":{"android":"levelo://app?vid=26a2d076-f5f2-45a7-98f5-29542790fe7d","ios":"levelo://app?vid=26a2d076-f5f2-45a7-98f5-29542790fe7d"},"vehicle_type_id":"4","last_reported":1740337572,"current_range_meters":8400,"station_id":"ce4bhsh2rcd13ifvqi2g","pricing_plan_id":"cebpf4jnsgd1na2vs0mg"},{"bike_id":"99c0b403-3eae-45e7-9566-489955f44f49","system_id":"levelo_inurba_marseille","lat":43.29981,"lon":5.3849,"is_reserved":false,"is_disabled":false,"rental_uris":{"android":"levelo://app?vid=99c0b403-3eae-45e7-9566-489955f44f49","ios":"levelo://app?vid=99c0b403-3eae-45e7-9566-489955f44f49"},"vehicle_type_id":"4","last_reported":1740337572,"current_range_meters":8400,"station_id":"ce4bgj92rcd13ifvqbd0","pricing_plan_id":"cebpf4jnsgd1na2vs0mg"},{"bike_id":"e16ee71e-faf5-40b7-add7-026329d923cf","system_id":"levelo_inurba_marseille","lat":43.27989,"lon":5.41651,"is_reserved":false,"is_disabled":false,"rental_uris":{"android":"levelo://app?vid=e16ee71e-faf5-40b7-add7-026329d923cf","ios":"levelo://app?vid=e16ee71e-faf5-40b7-add7-026329d923cf"},"vehicle_type_id":"4","last_reported":1740337572,"current_range_meters":8400,"station_id":"ce4bho12rcd13ifvqh1g","pricing_plan_id":"cebpf4jnsgd1na2vs0mg"},{"bike_id":"bcda9898-36e8-46a1-83b5-be115c35a2d4","system_id":"levelo_inurba_marseille","lat":43.27989,"lon":5.41657,"is_reserved":false,"is_disabled":false,"rental_uris":{"android":"levelo://app?vid=bcda9898-36e8-46a1-83b5-be115c35a2d4","ios":"levelo://app?vid=bcda9898-36e8-46a1-83b5-be115c35a2d4"},"vehicle_type_id":"4","last_reported":1740337572,"current_range_meters":8400,"station_id":"ce4bho12rcd13ifvqh1g","pricing_plan_id":"cebpf4jnsgd1na2vs0mg"},{"bike_id":"60d071a9-e30a-4120-8c4e-38a8bf6689ed","system_id":"levelo_inurba_marseille","lat":43.28148,"lon":5.42628,"is_reserved":false,"is_disabled":false,"rental_uris":{"android":"levelo://app?vid=60d071a9-e30a-4120-8c4e-38a8bf6689ed","ios":"levelo://app?vid=60d071a9-e30a-4120-8c4e-38a8bf6689ed"},"vehicle_type_id":"4","last_reported":1740337572,"current_range_meters":8400,"station_id":"ce4bhnh2rcd13ifvqgug","pricing_plan_id":"cebpf4jnsgd1na2vs0mg"},{"bike_id":"0b72b27b-ee81-4f48-aa16-a232c74271a4","system_id":"levelo_inurba_marseille","lat":43.24388,"lon":5.37059,"is_reserved":false,"is_disabled":false,"rental_uris":{"android":"levelo://app?vid=0b72b27b-ee81-4f48-aa16-a232c74271a4","ios":"levelo://app?vid=0b72b27b-ee81-4f48-aa16-a232c74271a4"},"vehicle_type_id":"4","last_reported":1740337572,"current_range_meters":8400,"station_id":"ce4bhhh2rcd13ifvqfk0","pricing_plan_id":"cebpf4jnsgd1na2vs0mg"},{"bike_id":"e3991bf5-74ea-47f3-b966-8aae3ab90bf9","system_id":"levelo_inurba_marseille","lat":43.29535,"lon":5.39035,"is_reserved":false,"is_disabled":false,"rental_uris":{"android":"levelo://app?vid=e3991bf5-74ea-47f3-b966-8aae3ab90bf9","ios":"levelo://app?vid=e3991bf5-74ea-47f3-b966-8aae3ab90bf9"},"vehicle_type_id":"4","last_reported":1740337572,"current_range_meters":8800,"station_id":"ce4bh3p2rcd13ifvqdp0","pricing_plan_id":"cebpf4jnsgd1na2vs0mg"},{"bike_id":"d3dc4114-38c6-48d5-81b2-55fe1924872f","system_id":"levelo_inurba_marseille","lat":43.23189,"lon":5.39979,"is_reserved":false,"is_disabled":false,"rental_uris":{"android":"levelo://app?vid=d3dc4114-38c6-48d5-81b2-55fe1924872f","ios":"levelo://app?vid=d3dc4114-38c6-48d5-81b2-55fe1924872f"},"vehicle_type_id":"4","last_reported":1740337572,"current_range_meters":8800,"station_id":"ce4bhn12rcd13ifvqgqg","pricing_plan_id":"cebpf4jnsgd1na2vs0mg"},{"bike_id":"49e1c317-c43a-4e17-be08-ea23dc8d6739","system_id":"levelo_inurba_marseille","lat":43.30163,"lon":5.39587,"is_reserved":false,"is_disabled":true,"rental_uris":{"android":"levelo://app?vid=49e1c317-c43a-4e17-be08-ea23dc8d6739","ios":"levelo://app?vid=49e1c317-c43a-4e17-be08-ea23dc8d6739"},"vehicle_type_id":"4","last_reported":1740337572,"current_range_meters":8800,"station_id":"","pricing_plan_id":"cebpf4jnsgd1na2vs0mg"},{"bike_id":"691243e6-15af-4f99-bf00-539ec96b28d9","system_id":"levelo_inurba_marseille","lat":43.26784,"lon":5.39414,"is_reserved":false,"is_disabled":false,"rental_uris":{"android":"levelo://app?vid=691243e6-15af-4f99-bf00-539ec96b28d9","ios":"levelo://app?vid=691243e6-15af-4f99-bf00-539ec96b28d9"},"vehicle_type_id":"4","last_reported":1740337572,"current_range_meters":8800,"station_id":"ce4bhh12rcd13ifvqfg0","pricing_plan_id":"cebpf4jnsgd1na2vs0mg"},{"bike_id":"b423849d-016a-460a-b9fe-366342f82577","system_id":"levelo_inurba_marseille","lat":43.31123,"lon":5.37775,"is_reserved":false,"is_disabled":false,"rental_uris":{"android":"levelo://app?vid=b423849d-016a-460a-b9fe-366342f82577","ios":"levelo://app?vid=b423849d-016a-460a-b9fe-366342f82577"},"vehicle_type_id":"4","last_reported":1740337572,"current_range_meters":8800,"station_id":"ce4bgt92rcd13ifvqcg0","pricing_plan_id":"cebpf4jnsgd1na2vs0mg"},{"bike_id":"c604c96b-f627-4efc-be9f-ff37f1d399b6","system_id":"levelo_inurba_marseille","lat":43.29371,"lon":5.37849,"is_reserved":false,"is_disabled":false,"rental_uris":{"android":"levelo://app?vid=c604c96b-f627-4efc-be9f-ff37f1d399b6","ios":"levelo://app?vid=c604c96b-f627-4efc-be9f-ff37f1d399b6"},"vehicle_type_id":"4","last_reported":1740337572,"current_range_meters":8800,"station_id":"ce4bgjh2rcd13ifvqbf0","pricing_plan_id":"cebpf4jnsgd1na2vs0mg"},{"bike_id":"27ac7691-5381-47cb-bb1d-f93dafc2a8ec","system_id":"levelo_inurba_marseille","lat":43.29282,"lon":5.40153,"is_reserved":false,"is_disabled":false,"rental_uris":{"android":"levelo://app?vid=27ac7691-5381-47cb-bb1d-f93dafc2a8ec","ios":"levelo://app?vid=27ac7691-5381-47cb-bb1d-f93dafc2a8ec"},"vehicle_type_id":"4","last_reported":1740337572,"current_range_meters":9200,"station_id":"ce4bh312rcd13ifvqdk0","pricing_plan_id":"cebpf4jnsgd1na2vs0mg"},{"bike_id":"1f7411cd-9379-4bab-a8bc-411b928d8602","system_id":"levelo_inurba_marseille","lat":43.27487,"lon":5.42456,"is_reserved":false,"is_disabled":false,"rental_uris":{"android":"levelo://app?vid=1f7411cd-9379-4bab-a8bc-411b928d8602","ios":"levelo://app?vid=1f7411cd-9379-4bab-a8bc-411b928d8602"},"vehicle_type_id":"4","last_reported":1740337572,"current_range_meters":9200,"station_id":"ce4bhn92rcd13ifvqgrg","pricing_plan_id":"cebpf4jnsgd1na2vs0mg"},{"bike_id":"8dc51aab-29d3-43fa-a37e-6c47cc4c2e69","system_id":"levelo_inurba_marseille","lat":43.24164,"lon":5.36398,"is_reserved":false,"is_disabled":false,"rental_uris":{"android":"levelo://app?vid=8dc51aab-29d3-43fa-a37e-6c47cc4c2e69","ios":"levelo://app?vid=8dc51aab-29d3-43fa-a37e-6c47cc4c2e69"},"vehicle_type_id":"4","last_reported":1740337572,"current_range_meters":9200,"station_id":"cpo36qri1sfpv3e86is0","pricing_plan_id":"cebpf4jnsgd1na2vs0mg"},{"bike_id":"80e30e07-59ff-4807-b06b-c6dc1a9e08e2","system_id":"levelo_inurba_marseille","lat":43.33619,"lon":5.41007,"is_reserved":false,"is_disabled":true,"rental_uris":{"android":"levelo://app?vid=80e30e07-59ff-4807-b06b-c6dc1a9e08e2","ios":"levelo://app?vid=80e30e07-59ff-4807-b06b-c6dc1a9e08e2"},"vehicle_type_id":"4","last_reported":1740337572,"current_range_meters":9200,"station_id":"ce4bhqh2rcd13ifvqhmg","pricing_plan_id":"cebpf4jnsgd1na2vs0mg"},{"bike_id":"b6f977ce-1a0b-4f1d-b0e3-ce2e8087ee70","system_id":"levelo_inurba_marseille","lat":43.27837,"lon":5.39209,"is_reserved":false,"is_disabled":false,"rental_uris":{"android":"levelo://app?vid=b6f977ce-1a0b-4f1d-b0e3-ce2e8087ee70","ios":"levelo://app?vid=b6f977ce-1a0b-4f1d-b0e3-ce2e8087ee70"},"vehicle_type_id":"4","last_reported":1740337572,"current_range_meters":8800,"station_id":"ce4bhjp2rcd13ifvqga0","pricing_plan_id":"cebpf4jnsgd1na2vs0mg"},{"bike_id":"4cac3644-ba79-4f6c-94d4-64f3503d5237","system_id":"levelo_inurba_marseille","lat":43.29571,"lon":5.3998,"is_reserved":false,"is_disabled":false,"rental_uris":{"android":"levelo://app?vid=4cac3644-ba79-4f6c-94d4-64f3503d5237","ios":"levelo://app?vid=4cac3644-ba79-4f6c-94d4-64f3503d5237"},"vehicle_type_id":"4","last_reported":1740337572,"current_range_meters":9200,"station_id":"ce4bh312rcd13ifvqdj0","pricing_plan_id":"cebpf4jnsgd1na2vs0mg"},{"bike_id":"e0c1d965-9bb5-48f6-93c4-81a00c3e7849","system_id":"levelo_inurba_marseille","lat":43.27077,"lon":5.42279,"is_reserved":false,"is_disabled":false,"rental_uris":{"android":"levelo://app?vid=e0c1d965-9bb5-48f6-93c4-81a00c3e7849","ios":"levelo://app?vid=e0c1d965-9bb5-48f6-93c4-81a00c3e7849"},"vehicle_type_id":"4","last_reported":1740337572,"current_range_meters":9200,"station_id":"ce4bhk92rcd13ifvqgb0","pricing_plan_id":"cebpf4jnsgd1na2vs0mg"},{"bike_id":"331722d8-2645-4b84-81df-6a2aef51a19e","system_id":"levelo_inurba_marseille","lat":43.25115,"lon":5.40331,"is_reserved":false,"is_disabled":false,"rental_uris":{"android":"levelo://app?vid=331722d8-2645-4b84-81df-6a2aef51a19e","ios":"levelo://app?vid=331722d8-2645-4b84-81df-6a2aef51a19e"},"vehicle_type_id":"4","last_reported":1740337572,"current_range_meters":9600,"station_id":"ce4bhlh2rcd13ifvqgig","pricing_plan_id":"cebpf4jnsgd1na2vs0mg"},{"bike_id":"06e0e378-905d-4106-a0c6-a13e16fa7c7b","system_id":"levelo_inurba_marseille","lat":43.28846,"lon":5.39349,"is_reserved":false,"is_disabled":false,"rental_uris":{"android":"levelo://app?vid=06e0e378-905d-4106-a0c6-a13e16fa7c7b","ios":"levelo://app?vid=06e0e378-905d-4106-a0c6-a13e16fa7c7b"},"vehicle_type_id":"4","last_reported":1740337572,"current_range_meters":9600,"station_id":"ce4bh2p2rcd13ifvqdi0","pricing_plan_id":"cebpf4jnsgd1na2vs0mg"},{"bike_id":"095d5026-b6cb-411c-ab71-6c60703e2b2f","system_id":"levelo_inurba_marseille","lat":43.23036,"lon":5.35506,"is_reserved":false,"is_disabled":true,"rental_uris":{"android":"levelo://app?vid=095d5026-b6cb-411c-ab71-6c60703e2b2f","ios":"levelo://app?vid=095d5026-b6cb-411c-ab71-6c60703e2b2f"},"vehicle_type_id":"4","last_reported":1740337572,"current_range_meters":9600,"station_id":"cpo3342slgdg3j2ifvpg","pricing_plan_id":"cebpf4jnsgd1na2vs0mg"},{"bike_id":"1070e1e7-ecae-4b2f-b722-b83e59591e69","system_id":"levelo_inurba_marseille","lat":43.28079,"lon":5.39663,"is_reserved":false,"is_disabled":false,"rental_uris":{"android":"levelo://app?vid=1070e1e7-ecae-4b2f-b722-b83e59591e69","ios":"levelo://app?vid=1070e1e7-ecae-4b2f-b722-b83e59591e69"},"vehicle_type_id":"4","last_reported":1740337572,"current_range_meters":9600,"station_id":"ce4bho12rcd13ifvqh2g","pricing_plan_id":"cebpf4jnsgd1na2vs0mg"},{"bike_id":"26fcb201-df64-468b-8e95-1c64c755e2b5","system_id":"levelo_inurba_marseille","lat":43.2884,"lon":5.39313,"is_reserved":false,"is_disabled":false,"rental_uris":{"android":"levelo://app?vid=26fcb201-df64-468b-8e95-1c64c755e2b5","ios":"levelo://app?vid=26fcb201-df64-468b-8e95-1c64c755e2b5"},"vehicle_type_id":"4","last_reported":1740337572,"current_range_meters":9600,"station_id":"ce4bh2p2rcd13ifvqdi0","pricing_plan_id":"cebpf4jnsgd1na2vs0mg"},{"bike_id":"41bd148a-4d00-4ac9-9afd-deee364f0dcb","system_id":"levelo_inurba_marseille","lat":43.270667,"lon":5.422734,"is_reserved":false,"is_disabled":false,"rental_uris":{"android":"levelo://app?vid=41bd148a-4d00-4ac9-9afd-deee364f0dcb","ios":"levelo://app?vid=41bd148a-4d00-4ac9-9afd-deee364f0dcb"},"vehicle_type_id":"4","last_reported":1740337572,"current_range_meters":9600,"station_id":"ce4bhk92rcd13ifvqgb0","pricing_plan_id":"cebpf4jnsgd1na2vs0mg"},{"bike_id":"ea7e3de9-37ca-4851-8757-99555fe7bbaf","system_id":"levelo_inurba_marseille","lat":43.25088,"lon":5.3952,"is_reserved":false,"is_disabled":false,"rental_uris":{"android":"levelo://app?vid=ea7e3de9-37ca-4851-8757-99555fe7bbaf","ios":"levelo://app?vid=ea7e3de9-37ca-4851-8757-99555fe7bbaf"},"vehicle_type_id":"4","last_reported":1740337572,"current_range_meters":9600,"station_id":"ce4bhm12rcd13ifvqgkg","pricing_plan_id":"cebpf4jnsgd1na2vs0mg"},{"bike_id":"56ea01ce-cd35-4f93-9e6c-b2e5f8e6e8ca","system_id":"levelo_inurba_marseille","lat":43.28478,"lon":5.38406,"is_reserved":false,"is_disabled":false,"rental_uris":{"android":"levelo://app?vid=56ea01ce-cd35-4f93-9e6c-b2e5f8e6e8ca","ios":"levelo://app?vid=56ea01ce-cd35-4f93-9e6c-b2e5f8e6e8ca"},"vehicle_type_id":"4","last_reported":1740337572,"current_range_meters":9600,"station_id":"ce4bh512rcd13ifvqe3g","pricing_plan_id":"cebpf4jnsgd1na2vs0mg"},{"bike_id":"ac2b5109-6528-4dea-96a0-d31f618677f5","system_id":"levelo_inurba_marseille","lat":43.29093,"lon":5.3816,"is_reserved":false,"is_disabled":false,"rental_uris":{"android":"levelo://app?vid=ac2b5109-6528-4dea-96a0-d31f618677f5","ios":"levelo://app?vid=ac2b5109-6528-4dea-96a0-d31f618677f5"},"vehicle_type_id":"4","last_reported":1740337572,"current_range_meters":9600,"station_id":"ce4bh512rcd13ifvqe2g","pricing_plan_id":"cebpf4jnsgd1na2vs0mg"},{"bike_id":"0b18af74-2c32-42c3-8734-fc36b87e5c98","system_id":"levelo_inurba_marseille","lat":43.314,"lon":5.4037,"is_reserved":false,"is_disabled":false,"rental_uris":{"android":"levelo://app?vid=0b18af74-2c32-42c3-8734-fc36b87e5c98","ios":"levelo://app?vid=0b18af74-2c32-42c3-8734-fc36b87e5c98"},"vehicle_type_id":"4","last_reported":1740337572,"current_range_meters":10000,"station_id":"","pricing_plan_id":"cebpf4jnsgd1na2vs0mg"},{"bike_id":"a2f138f2-062a-4435-b557-c9539f69f9fd","system_id":"levelo_inurba_marseille","lat":43.297859,"lon":5.391345,"is_reserved":false,"is_disabled":false,"rental_uris":{"android":"levelo://app?vid=a2f138f2-062a-4435-b557-c9539f69f9fd","ios":"levelo://app?vid=a2f138f2-062a-4435-b557-c9539f69f9fd"},"vehicle_type_id":"4","last_reported":1740337572,"current_range_meters":10000,"station_id":"ce4bgs92rcd13ifvqcc0","pricing_plan_id":"cebpf4jnsgd1na2vs0mg"},{"bike_id":"a34024d2-bd78-4aa2-b9dd-e4711b4f4101","system_id":"levelo_inurba_marseille","lat":43.24392,"lon":5.37062,"is_reserved":false,"is_disabled":false,"rental_uris":{"android":"levelo://app?vid=a34024d2-bd78-4aa2-b9dd-e4711b4f4101","ios":"levelo://app?vid=a34024d2-bd78-4aa2-b9dd-e4711b4f4101"},"vehicle_type_id":"4","last_reported":1740337572,"current_range_meters":10000,"station_id":"ce4bhhh2rcd13ifvqfk0","pricing_plan_id":"cebpf4jnsgd1na2vs0mg"},{"bike_id":"b7ea3d0d-de2c-4aa5-9b4e-ee260e27a9ac","system_id":"levelo_inurba_marseille","lat":43.28109,"lon":5.37833,"is_reserved":false,"is_disabled":false,"rental_uris":{"android":"levelo://app?vid=b7ea3d0d-de2c-4aa5-9b4e-ee260e27a9ac","ios":"levelo://app?vid=b7ea3d0d-de2c-4aa5-9b4e-ee260e27a9ac"},"vehicle_type_id":"4","last_reported":1740337572,"current_range_meters":10000,"station_id":"ce4bha12rcd13ifvqee0","pricing_plan_id":"cebpf4jnsgd1na2vs0mg"},{"bike_id":"f1d259fc-9177-4a5c-a847-5b547d294945","system_id":"levelo_inurba_marseille","lat":43.28332,"lon":5.38095,"is_reserved":false,"is_disabled":false,"rental_uris":{"android":"levelo://app?vid=f1d259fc-9177-4a5c-a847-5b547d294945","ios":"levelo://app?vid=f1d259fc-9177-4a5c-a847-5b547d294945"},"vehicle_type_id":"4","last_reported":1740337572,"current_range_meters":10000,"station_id":"ce4bh412rcd13ifvqdr0","pricing_plan_id":"cebpf4jnsgd1na2vs0mg"},{"bike_id":"2e69a3f6-a2b6-4080-b745-6283f09f518b","system_id":"levelo_inurba_marseille","lat":43.27572,"lon":5.38424,"is_reserved":false,"is_disabled":false,"rental_uris":{"android":"levelo://app?vid=2e69a3f6-a2b6-4080-b745-6283f09f518b","ios":"levelo://app?vid=2e69a3f6-a2b6-4080-b745-6283f09f518b"},"vehicle_type_id":"4","last_reported":1740337572,"current_range_meters":10800,"station_id":"ce4bhh92rcd13ifvqfi0","pricing_plan_id":"cebpf4jnsgd1na2vs0mg"},{"bike_id":"5cc9c3bc-17a9-4dc8-b57e-faa94ac9530d","system_id":"levelo_inurba_marseille","lat":43.29265,"lon":5.40921,"is_reserved":false,"is_disabled":false,"rental_uris":{"android":"levelo://app?vid=5cc9c3bc-17a9-4dc8-b57e-faa94ac9530d","ios":"levelo://app?vid=5cc9c3bc-17a9-4dc8-b57e-faa94ac9530d"},"vehicle_type_id":"4","last_reported":1740337572,"current_range_meters":10800,"station_id":"ce4bh192rcd13ifvqdc0","pricing_plan_id":"cebpf4jnsgd1na2vs0mg"},{"bike_id":"96687f10-46b7-450c-aec9-7f287818eea4","system_id":"levelo_inurba_marseille","lat":43.30247,"lon":5.4005,"is_reserved":false,"is_disabled":false,"rental_uris":{"android":"levelo://app?vid=96687f10-46b7-450c-aec9-7f287818eea4","ios":"levelo://app?vid=96687f10-46b7-450c-aec9-7f287818eea4"},"vehicle_type_id":"4","last_reported":1740337572,"current_range_meters":10800,"station_id":"ce4bgvh2rcd13ifvqcs0","pricing_plan_id":"cebpf4jnsgd1na2vs0mg"},{"bike_id":"d8fe9461-3f19-4646-9471-9345bfd53bad","system_id":"levelo_inurba_marseille","lat":43.24379,"lon":5.37066,"is_reserved":false,"is_disabled":false,"rental_uris":{"android":"levelo://app?vid=d8fe9461-3f19-4646-9471-9345bfd53bad","ios":"levelo://app?vid=d8fe9461-3f19-4646-9471-9345bfd53bad"},"vehicle_type_id":"4","last_reported":1740337572,"current_range_meters":10800,"station_id":"ce4bhhh2rcd13ifvqfk0","pricing_plan_id":"cebpf4jnsgd1na2vs0mg"},{"bike_id":"41b8905f-5d71-47d2-981b-cd5802ac227d","system_id":"levelo_inurba_marseille","lat":43.28151,"lon":5.42636,"is_reserved":false,"is_disabled":false,"rental_uris":{"android":"levelo://app?vid=41b8905f-5d71-47d2-981b-cd5802ac227d","ios":"levelo://app?vid=41b8905f-5d71-47d2-981b-cd5802ac227d"},"vehicle_type_id":"4","last_reported":1740337572,"current_range_meters":10800,"station_id":"ce4bhnh2rcd13ifvqgug","pricing_plan_id":"cebpf4jnsgd1na2vs0mg"},{"bike_id":"8cd8e855-556a-49bb-858e-094e7857f894","system_id":"levelo_inurba_marseille","lat":43.29206,"lon":5.35826,"is_reserved":false,"is_disabled":true,"rental_uris":{"android":"levelo://app?vid=8cd8e855-556a-49bb-858e-094e7857f894","ios":"levelo://app?vid=8cd8e855-556a-49bb-858e-094e7857f894"},"vehicle_type_id":"4","last_reported":1740337572,"current_range_meters":10800,"station_id":"ce4bhb12rcd13ifvqel0","pricing_plan_id":"cebpf4jnsgd1na2vs0mg"},{"bike_id":"570d61fd-97de-42d1-a684-577872e9605a","system_id":"levelo_inurba_marseille","lat":43.28036,"lon":5.36943,"is_reserved":false,"is_disabled":false,"rental_uris":{"android":"levelo://app?vid=570d61fd-97de-42d1-a684-577872e9605a","ios":"levelo://app?vid=570d61fd-97de-42d1-a684-577872e9605a"},"vehicle_type_id":"4","last_reported":1740337572,"current_range_meters":10800,"station_id":"ce4bha12rcd13ifvqef0","pricing_plan_id":"cebpf4jnsgd1na2vs0mg"},{"bike_id":"4ac4169d-3c22-4f96-a3ff-385ef906f334","system_id":"levelo_inurba_marseille","lat":43.29867,"lon":5.38904,"is_reserved":false,"is_disabled":false,"rental_uris":{"android":"levelo://app?vid=4ac4169d-3c22-4f96-a3ff-385ef906f334","ios":"levelo://app?vid=4ac4169d-3c22-4f96-a3ff-385ef906f334"},"vehicle_type_id":"4","last_reported":1740337572,"current_range_meters":10800,"station_id":"ce4bh392rcd13ifvqdl0","pricing_plan_id":"cebpf4jnsgd1na2vs0mg"},{"bike_id":"2cd56aef-5e15-48fb-9f37-4361ebd29768","system_id":"levelo_inurba_marseille","lat":43.2904,"lon":5.39978,"is_reserved":false,"is_disabled":false,"rental_uris":{"android":"levelo://app?vid=2cd56aef-5e15-48fb-9f37-4361ebd29768","ios":"levelo://app?vid=2cd56aef-5e15-48fb-9f37-4361ebd29768"},"vehicle_type_id":"4","last_reported":1740337572,"current_range_meters":11200,"station_id":"ce4bh392rcd13ifvqdm0","pricing_plan_id":"cebpf4jnsgd1na2vs0mg"},{"bike_id":"fb44b31f-7afc-4a5c-8b14-6d56005aa669","system_id":"levelo_inurba_marseille","lat":43.28995,"lon":5.43272,"is_reserved":false,"is_disabled":false,"rental_uris":{"android":"levelo://app?vid=fb44b31f-7afc-4a5c-8b14-6d56005aa669","ios":"levelo://app?vid=fb44b31f-7afc-4a5c-8b14-6d56005aa669"},"vehicle_type_id":"4","last_reported":1740337572,"current_range_meters":11200,"station_id":"","pricing_plan_id":"cebpf4jnsgd1na2vs0mg"},{"bike_id":"618f913e-cba8-4c50-a313-a42d4485f0ce","system_id":"levelo_inurba_marseille","lat":43.30561,"lon":5.36725,"is_reserved":false,"is_disabled":true,"rental_uris":{"android":"levelo://app?vid=618f913e-cba8-4c50-a313-a42d4485f0ce","ios":"levelo://app?vid=618f913e-cba8-4c50-a313-a42d4485f0ce"},"vehicle_type_id":"4","last_reported":1740337572,"current_range_meters":11200,"station_id":"ce4bgrp2rcd13ifvqc9g","pricing_plan_id":"cebpf4jnsgd1na2vs0mg"},{"bike_id":"fa5ef085-ddb3-4ecc-a8bc-4bef34bfe151","system_id":"levelo_inurba_marseille","lat":43.26227,"lon":5.40453,"is_reserved":false,"is_disabled":false,"rental_uris":{"android":"levelo://app?vid=fa5ef085-ddb3-4ecc-a8bc-4bef34bfe151","ios":"levelo://app?vid=fa5ef085-ddb3-4ecc-a8bc-4bef34bfe151"},"vehicle_type_id":"4","last_reported":1740337572,"current_range_meters":11600,"station_id":"ce4bhmh2rcd13ifvqgmg","pricing_plan_id":"cebpf4jnsgd1na2vs0mg"},{"bike_id":"1127a561-55dc-461d-840d-fc4e71e9155a","system_id":"levelo_inurba_marseille","lat":43.29883,"lon":5.43658,"is_reserved":false,"is_disabled":false,"rental_uris":{"android":"levelo://app?vid=1127a561-55dc-461d-840d-fc4e71e9155a","ios":"levelo://app?vid=1127a561-55dc-461d-840d-fc4e71e9155a"},"vehicle_type_id":"4","last_reported":1740337572,"current_range_meters":11600,"station_id":"ce4bhpp2rcd13ifvqhfg","pricing_plan_id":"cebpf4jnsgd1na2vs0mg"},{"bike_id":"ab7da9df-c7ed-482b-9961-43b5cca3e34b","system_id":"levelo_inurba_marseille","lat":43.31133,"lon":5.37784,"is_reserved":false,"is_disabled":true,"rental_uris":{"android":"levelo://app?vid=ab7da9df-c7ed-482b-9961-43b5cca3e34b","ios":"levelo://app?vid=ab7da9df-c7ed-482b-9961-43b5cca3e34b"},"vehicle_type_id":"4","last_reported":1740337572,"current_range_meters":11600,"station_id":"ce4bgt92rcd13ifvqcg0","pricing_plan_id":"cebpf4jnsgd1na2vs0mg"},{"bike_id":"e61c2b74-4ece-46bf-bf8e-6ea12dcb1ec2","system_id":"levelo_inurba_marseille","lat":43.30612,"lon":5.39378,"is_reserved":false,"is_disabled":true,"rental_uris":{"android":"levelo://app?vid=e61c2b74-4ece-46bf-bf8e-6ea12dcb1ec2","ios":"levelo://app?vid=e61c2b74-4ece-46bf-bf8e-6ea12dcb1ec2"},"vehicle_type_id":"4","last_reported":1740337572,"current_range_meters":11600,"station_id":"ce4bh0p2rcd13ifvqd80","pricing_plan_id":"cebpf4jnsgd1na2vs0mg"},{"bike_id":"394da03c-f034-42f7-9bb7-f230019b180a","system_id":"levelo_inurba_marseille","lat":43.29534,"lon":5.38551,"is_reserved":false,"is_disabled":false,"rental_uris":{"android":"levelo://app?vid=394da03c-f034-42f7-9bb7-f230019b180a","ios":"levelo://app?vid=394da03c-f034-42f7-9bb7-f230019b180a"},"vehicle_type_id":"4","last_reported":1740337572,"current_range_meters":11600,"station_id":"ce4bgih2rcd13ifvqba0","pricing_plan_id":"cebpf4jnsgd1na2vs0mg"},{"bike_id":"9ec8cc63-14ea-41e2-a32b-68a8e86d1e16","system_id":"levelo_inurba_marseille","lat":43.28704,"lon":5.37916,"is_reserved":false,"is_disabled":false,"rental_uris":{"android":"levelo://app?vid=9ec8cc63-14ea-41e2-a32b-68a8e86d1e16","ios":"levelo://app?vid=9ec8cc63-14ea-41e2-a32b-68a8e86d1e16"},"vehicle_type_id":"4","last_reported":1740337572,"current_range_meters":11600,"station_id":"ce4bh9p2rcd13ifvqec0","pricing_plan_id":"cebpf4jnsgd1na2vs0mg"},{"bike_id":"47c58b1f-0f04-4a95-ba73-4d794abee5f2","system_id":"levelo_inurba_marseille","lat":43.30433,"lon":5.38896,"is_reserved":false,"is_disabled":true,"rental_uris":{"android":"levelo://app?vid=47c58b1f-0f04-4a95-ba73-4d794abee5f2","ios":"levelo://app?vid=47c58b1f-0f04-4a95-ba73-4d794abee5f2"},"vehicle_type_id":"4","last_reported":1740337572,"current_range_meters":12000,"station_id":"ce4bgk12rcd13ifvqbi0","pricing_plan_id":"cebpf4jnsgd1na2vs0mg"},{"bike_id":"dc6ec0ec-744c-4d7a-9d50-5b284b869f70","system_id":"levelo_inurba_marseille","lat":43.29785,"lon":5.3711,"is_reserved":false,"is_disabled":false,"rental_uris":{"android":"levelo://app?vid=dc6ec0ec-744c-4d7a-9d50-5b284b869f70","ios":"levelo://app?vid=dc6ec0ec-744c-4d7a-9d50-5b284b869f70"},"vehicle_type_id":"4","last_reported":1740337572,"current_range_meters":11600,"station_id":"ce4bgop2rcd13ifvqc1g","pricing_plan_id":"cebpf4jnsgd1na2vs0mg"},{"bike_id":"0e17628e-77f1-4b2d-9900-e51a8c9f0181","system_id":"levelo_inurba_marseille","lat":43.28889,"lon":5.44962,"is_reserved":false,"is_disabled":false,"rental_uris":{"android":"levelo://app?vid=0e17628e-77f1-4b2d-9900-e51a8c9f0181","ios":"levelo://app?vid=0e17628e-77f1-4b2d-9900-e51a8c9f0181"},"vehicle_type_id":"4","last_reported":1740337572,"current_range_meters":12000,"station_id":"","pricing_plan_id":"cebpf4jnsgd1na2vs0mg"},{"bike_id":"5b11e0e4-4d93-4d98-8d41-3835be00a81b","system_id":"levelo_inurba_marseille","lat":43.29246,"lon":5.38432,"is_reserved":false,"is_disabled":false,"rental_uris":{"android":"levelo://app?vid=5b11e0e4-4d93-4d98-8d41-3835be00a81b","ios":"levelo://app?vid=5b11e0e4-4d93-4d98-8d41-3835be00a81b"},"vehicle_type_id":"4","last_reported":1740337572,"current_range_meters":12000,"station_id":"ce4bh692rcd13ifvqea0","pricing_plan_id":"cebpf4jnsgd1na2vs0mg"},{"bike_id":"54a6b0ba-8381-4a72-830c-622766c32199","system_id":"levelo_inurba_marseille","lat":43.32134,"lon":5.36798,"is_reserved":false,"is_disabled":false,"rental_uris":{"android":"levelo://app?vid=54a6b0ba-8381-4a72-830c-622766c32199","ios":"levelo://app?vid=54a6b0ba-8381-4a72-830c-622766c32199"},"vehicle_type_id":"4","last_reported":1740337572,"current_range_meters":12000,"station_id":"ce4bhrh2rcd13ifvqhug","pricing_plan_id":"cebpf4jnsgd1na2vs0mg"},{"bike_id":"d55ba337-f9c3-4c94-ad6f-8d60a611e84a","system_id":"levelo_inurba_marseille","lat":43.26941,"lon":5.40257,"is_reserved":false,"is_disabled":false,"rental_uris":{"android":"levelo://app?vid=d55ba337-f9c3-4c94-ad6f-8d60a611e84a","ios":"levelo://app?vid=d55ba337-f9c3-4c94-ad6f-8d60a611e84a"},"vehicle_type_id":"4","last_reported":1740337572,"current_range_meters":11600,"station_id":"cjm6bp8fraef2m0cb0m0","pricing_plan_id":"cebpf4jnsgd1na2vs0mg"},{"bike_id":"70dd6c6d-97df-46a6-9f93-1c3e41882d39","system_id":"levelo_inurba_marseille","lat":43.2926,"lon":5.38447,"is_reserved":false,"is_disabled":false,"rental_uris":{"android":"levelo://app?vid=70dd6c6d-97df-46a6-9f93-1c3e41882d39","ios":"levelo://app?vid=70dd6c6d-97df-46a6-9f93-1c3e41882d39"},"vehicle_type_id":"4","last_reported":1740337572,"current_range_meters":12000,"station_id":"ce4bh692rcd13ifvqea0","pricing_plan_id":"cebpf4jnsgd1na2vs0mg"},{"bike_id":"97dfc99c-8bc1-4057-a4cf-f9222b2e86b6","system_id":"levelo_inurba_marseille","lat":43.29781,"lon":5.38093,"is_reserved":false,"is_disabled":false,"rental_uris":{"android":"levelo://app?vid=97dfc99c-8bc1-4057-a4cf-f9222b2e86b6","ios":"levelo://app?vid=97dfc99c-8bc1-4057-a4cf-f9222b2e86b6"},"vehicle_type_id":"4","last_reported":1740337572,"current_range_meters":11600,"station_id":"ce4bgip2rcd13ifvqbb0","pricing_plan_id":"cebpf4jnsgd1na2vs0mg"},{"bike_id":"a3610751-bbe4-4d3e-a717-1a0eebd2fb2a","system_id":"levelo_inurba_marseille","lat":43.30693,"lon":5.37549,"is_reserved":false,"is_disabled":false,"rental_uris":{"android":"levelo://app?vid=a3610751-bbe4-4d3e-a717-1a0eebd2fb2a","ios":"levelo://app?vid=a3610751-bbe4-4d3e-a717-1a0eebd2fb2a"},"vehicle_type_id":"4","last_reported":1740337572,"current_range_meters":12000,"station_id":"","pricing_plan_id":"cebpf4jnsgd1na2vs0mg"},{"bike_id":"696f4af4-db15-4315-8c23-3bb1f4e338d3","system_id":"levelo_inurba_marseille","lat":43.29977,"lon":5.38494,"is_reserved":false,"is_disabled":false,"rental_uris":{"android":"levelo://app?vid=696f4af4-db15-4315-8c23-3bb1f4e338d3","ios":"levelo://app?vid=696f4af4-db15-4315-8c23-3bb1f4e338d3"},"vehicle_type_id":"4","last_reported":1740337572,"current_range_meters":12000,"station_id":"ce4bgj92rcd13ifvqbd0","pricing_plan_id":"cebpf4jnsgd1na2vs0mg"},{"bike_id":"3a6da2eb-9572-401f-90a3-a1078da566b8","system_id":"levelo_inurba_marseille","lat":43.27563,"lon":5.38426,"is_reserved":false,"is_disabled":false,"rental_uris":{"android":"levelo://app?vid=3a6da2eb-9572-401f-90a3-a1078da566b8","ios":"levelo://app?vid=3a6da2eb-9572-401f-90a3-a1078da566b8"},"vehicle_type_id":"4","last_reported":1740337572,"current_range_meters":12000,"station_id":"ce4bhh92rcd13ifvqfi0","pricing_plan_id":"cebpf4jnsgd1na2vs0mg"},{"bike_id":"a4c0cd21-d532-4b6f-8473-de05733ce764","system_id":"levelo_inurba_marseille","lat":43.25866,"lon":5.39897,"is_reserved":false,"is_disabled":false,"rental_uris":{"android":"levelo://app?vid=a4c0cd21-d532-4b6f-8473-de05733ce764","ios":"levelo://app?vid=a4c0cd21-d532-4b6f-8473-de05733ce764"},"vehicle_type_id":"4","last_reported":1740337572,"current_range_meters":12400,"station_id":"ce4bhl92rcd13ifvqghg","pricing_plan_id":"cebpf4jnsgd1na2vs0mg"},{"bike_id":"8d60d634-973e-4a82-8ea0-70920e472946","system_id":"levelo_inurba_marseille","lat":43.27908,"lon":5.3958,"is_reserved":false,"is_disabled":false,"rental_uris":{"android":"levelo://app?vid=8d60d634-973e-4a82-8ea0-70920e472946","ios":"levelo://app?vid=8d60d634-973e-4a82-8ea0-70920e472946"},"vehicle_type_id":"4","last_reported":1740337572,"current_range_meters":12400,"station_id":"ce4bhf92rcd13ifvqf40","pricing_plan_id":"cebpf4jnsgd1na2vs0mg"},{"bike_id":"635358ac-9eda-4885-8bd1-c4da2a571fd0","system_id":"levelo_inurba_marseille","lat":43.28145,"lon":5.42637,"is_reserved":false,"is_disabled":false,"rental_uris":{"android":"levelo://app?vid=635358ac-9eda-4885-8bd1-c4da2a571fd0","ios":"levelo://app?vid=635358ac-9eda-4885-8bd1-c4da2a571fd0"},"vehicle_type_id":"4","last_reported":1740337572,"current_range_meters":12400,"station_id":"ce4bhnh2rcd13ifvqgug","pricing_plan_id":"cebpf4jnsgd1na2vs0mg"},{"bike_id":"7d71cc36-878e-4561-ab60-5bc145c8bc94","system_id":"levelo_inurba_marseille","lat":43.29707,"lon":5.37699,"is_reserved":false,"is_disabled":false,"rental_uris":{"android":"levelo://app?vid=7d71cc36-878e-4561-ab60-5bc145c8bc94","ios":"levelo://app?vid=7d71cc36-878e-4561-ab60-5bc145c8bc94"},"vehicle_type_id":"4","last_reported":1740337572,"current_range_meters":12000,"station_id":"ce4bgkh2rcd13ifvqbl0","pricing_plan_id":"cebpf4jnsgd1na2vs0mg"},{"bike_id":"43da2893-f487-4f7a-8e96-1fa17c28fcdd","system_id":"levelo_inurba_marseille","lat":43.248337,"lon":5.374492,"is_reserved":false,"is_disabled":false,"rental_uris":{"android":"levelo://app?vid=43da2893-f487-4f7a-8e96-1fa17c28fcdd","ios":"levelo://app?vid=43da2893-f487-4f7a-8e96-1fa17c28fcdd"},"vehicle_type_id":"4","last_reported":1740337572,"current_range_meters":12400,"station_id":"ce4bh492rcd13ifvqdvg","pricing_plan_id":"cebpf4jnsgd1na2vs0mg"},{"bike_id":"35f7fe5f-b05d-405c-a155-dda0758733e2","system_id":"levelo_inurba_marseille","lat":43.28162,"lon":5.42629,"is_reserved":false,"is_disabled":true,"rental_uris":{"android":"levelo://app?vid=35f7fe5f-b05d-405c-a155-dda0758733e2","ios":"levelo://app?vid=35f7fe5f-b05d-405c-a155-dda0758733e2"},"vehicle_type_id":"4","last_reported":1740337572,"current_range_meters":12400,"station_id":"ce4bhnh2rcd13ifvqgug","pricing_plan_id":"cebpf4jnsgd1na2vs0mg"},{"bike_id":"aee92d0c-c3e0-44c6-97b9-c388c335b82d","system_id":"levelo_inurba_marseille","lat":43.31072,"lon":5.38353,"is_reserved":false,"is_disabled":false,"rental_uris":{"android":"levelo://app?vid=aee92d0c-c3e0-44c6-97b9-c388c335b82d","ios":"levelo://app?vid=aee92d0c-c3e0-44c6-97b9-c388c335b82d"},"vehicle_type_id":"4","last_reported":1740337572,"current_range_meters":12400,"station_id":"ce4bgv92rcd13ifvqcr0","pricing_plan_id":"cebpf4jnsgd1na2vs0mg"},{"bike_id":"ba5b6e53-1377-4a1c-bbea-f64944f3efaa","system_id":"levelo_inurba_marseille","lat":43.27904,"lon":5.3802,"is_reserved":false,"is_disabled":false,"rental_uris":{"android":"levelo://app?vid=ba5b6e53-1377-4a1c-bbea-f64944f3efaa","ios":"levelo://app?vid=ba5b6e53-1377-4a1c-bbea-f64944f3efaa"},"vehicle_type_id":"4","last_reported":1740337572,"current_range_meters":12400,"station_id":"ce4bhf92rcd13ifvqf50","pricing_plan_id":"cebpf4jnsgd1na2vs0mg"},{"bike_id":"a0f40846-6cee-405d-8e1e-51fc52ce1647","system_id":"levelo_inurba_marseille","lat":43.29877,"lon":5.38914,"is_reserved":false,"is_disabled":false,"rental_uris":{"android":"levelo://app?vid=a0f40846-6cee-405d-8e1e-51fc52ce1647","ios":"levelo://app?vid=a0f40846-6cee-405d-8e1e-51fc52ce1647"},"vehicle_type_id":"4","last_reported":1740337572,"current_range_meters":12400,"station_id":"ce4bh392rcd13ifvqdl0","pricing_plan_id":"cebpf4jnsgd1na2vs0mg"},{"bike_id":"615a02a6-6646-4df1-8ade-8686d89d8747","system_id":"levelo_inurba_marseille","lat":43.31336,"lon":5.39699,"is_reserved":false,"is_disabled":true,"rental_uris":{"android":"levelo://app?vid=615a02a6-6646-4df1-8ade-8686d89d8747","ios":"levelo://app?vid=615a02a6-6646-4df1-8ade-8686d89d8747"},"vehicle_type_id":"4","last_reported":1740337572,"current_range_meters":12400,"station_id":"ce4bgvp2rcd13ifvqcu0","pricing_plan_id":"cebpf4jnsgd1na2vs0mg"},{"bike_id":"e70f6d1a-5f4b-4113-808f-ff55cece43ad","system_id":"levelo_inurba_marseille","lat":43.284058,"lon":5.375038,"is_reserved":false,"is_disabled":false,"rental_uris":{"android":"levelo://app?vid=e70f6d1a-5f4b-4113-808f-ff55cece43ad","ios":"levelo://app?vid=e70f6d1a-5f4b-4113-808f-ff55cece43ad"},"vehicle_type_id":"4","last_reported":1740337572,"current_range_meters":12400,"station_id":"ce4bhc92rcd13ifvqetg","pricing_plan_id":"cebpf4jnsgd1na2vs0mg"},{"bike_id":"7ca97e69-d258-4d13-b7d3-f8a5e2d4295c","system_id":"levelo_inurba_marseille","lat":43.292085,"lon":5.39333,"is_reserved":false,"is_disabled":false,"rental_uris":{"android":"levelo://app?vid=7ca97e69-d258-4d13-b7d3-f8a5e2d4295c","ios":"levelo://app?vid=7ca97e69-d258-4d13-b7d3-f8a5e2d4295c"},"vehicle_type_id":"4","last_reported":1740337572,"current_range_meters":12400,"station_id":"ce4bh192rcd13ifvqdd0","pricing_plan_id":"cebpf4jnsgd1na2vs0mg"},{"bike_id":"f776b8dc-2ed5-4176-ab4b-d7b921ddc867","system_id":"levelo_inurba_marseille","lat":43.30257,"lon":5.40071,"is_reserved":false,"is_disabled":false,"rental_uris":{"android":"levelo://app?vid=f776b8dc-2ed5-4176-ab4b-d7b921ddc867","ios":"levelo://app?vid=f776b8dc-2ed5-4176-ab4b-d7b921ddc867"},"vehicle_type_id":"4","last_reported":1740337572,"current_range_meters":12800,"station_id":"ce4bgvh2rcd13ifvqcs0","pricing_plan_id":"cebpf4jnsgd1na2vs0mg"},{"bike_id":"be29424e-ef5d-4d80-ad26-ba74ad9eed3b","system_id":"levelo_inurba_marseille","lat":43.28352,"lon":5.38114,"is_reserved":false,"is_disabled":false,"rental_uris":{"android":"levelo://app?vid=be29424e-ef5d-4d80-ad26-ba74ad9eed3b","ios":"levelo://app?vid=be29424e-ef5d-4d80-ad26-ba74ad9eed3b"},"vehicle_type_id":"4","last_reported":1740337572,"current_range_meters":12800,"station_id":"ce4bh412rcd13ifvqdr0","pricing_plan_id":"cebpf4jnsgd1na2vs0mg"},{"bike_id":"99336520-3ecc-4a8a-afa1-32a05d41d3c8","system_id":"levelo_inurba_marseille","lat":43.27927,"lon":5.39589,"is_reserved":false,"is_disabled":false,"rental_uris":{"android":"levelo://app?vid=99336520-3ecc-4a8a-afa1-32a05d41d3c8","ios":"levelo://app?vid=99336520-3ecc-4a8a-afa1-32a05d41d3c8"},"vehicle_type_id":"4","last_reported":1740337572,"current_range_meters":12800,"station_id":"ce4bhf92rcd13ifvqf40","pricing_plan_id":"cebpf4jnsgd1na2vs0mg"},{"bike_id":"bd3cd35d-8872-4079-b434-dfe718238ac3","system_id":"levelo_inurba_marseille","lat":43.32355,"lon":5.38882,"is_reserved":false,"is_disabled":false,"rental_uris":{"android":"levelo://app?vid=bd3cd35d-8872-4079-b434-dfe718238ac3","ios":"levelo://app?vid=bd3cd35d-8872-4079-b434-dfe718238ac3"},"vehicle_type_id":"4","last_reported":1740337572,"current_range_meters":12800,"station_id":"ce4bhqp2rcd13ifvqhog","pricing_plan_id":"cebpf4jnsgd1na2vs0mg"},{"bike_id":"e48ac3e8-e2d5-49a7-a667-544b365afbdd","system_id":"levelo_inurba_marseille","lat":43.27178,"lon":5.40997,"is_reserved":false,"is_disabled":false,"rental_uris":{"android":"levelo://app?vid=e48ac3e8-e2d5-49a7-a667-544b365afbdd","ios":"levelo://app?vid=e48ac3e8-e2d5-49a7-a667-544b365afbdd"},"vehicle_type_id":"4","last_reported":1740337572,"current_range_meters":12800,"station_id":"ce4bhl12rcd13ifvqgf0","pricing_plan_id":"cebpf4jnsgd1na2vs0mg"},{"bike_id":"5f0bcbf4-4caf-4213-bfbb-fc2fdf7b4ef4","system_id":"levelo_inurba_marseille","lat":43.29168,"lon":5.37173,"is_reserved":false,"is_disabled":false,"rental_uris":{"android":"levelo://app?vid=5f0bcbf4-4caf-4213-bfbb-fc2fdf7b4ef4","ios":"levelo://app?vid=5f0bcbf4-4caf-4213-bfbb-fc2fdf7b4ef4"},"vehicle_type_id":"4","last_reported":1740337572,"current_range_meters":12400,"station_id":"ce4bha92rcd13ifvqeh0","pricing_plan_id":"cebpf4jnsgd1na2vs0mg"},{"bike_id":"2f477d65-991f-489a-b56e-6fd95753af9b","system_id":"levelo_inurba_marseille","lat":43.3266,"lon":5.40983,"is_reserved":false,"is_disabled":false,"rental_uris":{"android":"levelo://app?vid=2f477d65-991f-489a-b56e-6fd95753af9b","ios":"levelo://app?vid=2f477d65-991f-489a-b56e-6fd95753af9b"},"vehicle_type_id":"4","last_reported":1740337572,"current_range_meters":12800,"station_id":"ce4bhpp2rcd13ifvqhgg","pricing_plan_id":"cebpf4jnsgd1na2vs0mg"},{"bike_id":"a519fa81-8f7e-45c5-a206-ee3032173aa9","system_id":"levelo_inurba_marseille","lat":43.2407,"lon":5.377657,"is_reserved":false,"is_disabled":false,"rental_uris":{"android":"levelo://app?vid=a519fa81-8f7e-45c5-a206-ee3032173aa9","ios":"levelo://app?vid=a519fa81-8f7e-45c5-a206-ee3032173aa9"},"vehicle_type_id":"4","last_reported":1740337572,"current_range_meters":12800,"station_id":"ce4bhm12rcd13ifvqgkg","pricing_plan_id":"cebpf4jnsgd1na2vs0mg"},{"bike_id":"ba094e4a-ed40-4d8d-93cf-35c1e86283ed","system_id":"levelo_inurba_marseille","lat":43.29044,"lon":5.37583,"is_reserved":false,"is_disabled":false,"rental_uris":{"android":"levelo://app?vid=ba094e4a-ed40-4d8d-93cf-35c1e86283ed","ios":"levelo://app?vid=ba094e4a-ed40-4d8d-93cf-35c1e86283ed"},"vehicle_type_id":"4","last_reported":1740337572,"current_range_meters":12800,"station_id":"ce4bh692rcd13ifvqe90","pricing_plan_id":"cebpf4jnsgd1na2vs0mg"},{"bike_id":"78eee090-6385-4431-9d4b-3ed2dcc97a7d","system_id":"levelo_inurba_marseille","lat":43.28489,"lon":5.38433,"is_reserved":false,"is_disabled":false,"rental_uris":{"android":"levelo://app?vid=78eee090-6385-4431-9d4b-3ed2dcc97a7d","ios":"levelo://app?vid=78eee090-6385-4431-9d4b-3ed2dcc97a7d"},"vehicle_type_id":"4","last_reported":1740337572,"current_range_meters":13600,"station_id":"ce4bh512rcd13ifvqe3g","pricing_plan_id":"cebpf4jnsgd1na2vs0mg"},{"bike_id":"6b23043b-66de-4237-b326-e76c679ac705","system_id":"levelo_inurba_marseille","lat":43.2743,"lon":5.39421,"is_reserved":false,"is_disabled":false,"rental_uris":{"android":"levelo://app?vid=6b23043b-66de-4237-b326-e76c679ac705","ios":"levelo://app?vid=6b23043b-66de-4237-b326-e76c679ac705"},"vehicle_type_id":"4","last_reported":1740337572,"current_range_meters":12800,"station_id":"ce4bhdp2rcd13ifvqf20","pricing_plan_id":"cebpf4jnsgd1na2vs0mg"},{"bike_id":"237fd8db-a326-420c-b2b2-8d53c620885b","system_id":"levelo_inurba_marseille","lat":43.27174,"lon":5.40994,"is_reserved":false,"is_disabled":false,"rental_uris":{"android":"levelo://app?vid=237fd8db-a326-420c-b2b2-8d53c620885b","ios":"levelo://app?vid=237fd8db-a326-420c-b2b2-8d53c620885b"},"vehicle_type_id":"4","last_reported":1740337572,"current_range_meters":13600,"station_id":"ce4bhl12rcd13ifvqgf0","pricing_plan_id":"cebpf4jnsgd1na2vs0mg"},{"bike_id":"4e591a4e-9ec1-44e1-8ded-60161a3f9a3a","system_id":"levelo_inurba_marseille","lat":43.25109,"lon":5.40324,"is_reserved":false,"is_disabled":false,"rental_uris":{"android":"levelo://app?vid=4e591a4e-9ec1-44e1-8ded-60161a3f9a3a","ios":"levelo://app?vid=4e591a4e-9ec1-44e1-8ded-60161a3f9a3a"},"vehicle_type_id":"4","last_reported":1740337572,"current_range_meters":13600,"station_id":"ce4bhlh2rcd13ifvqgig","pricing_plan_id":"cebpf4jnsgd1na2vs0mg"},{"bike_id":"9fdc5228-e835-4793-ad30-e5834cfd975b","system_id":"levelo_inurba_marseille","lat":43.2586,"lon":5.39904,"is_reserved":false,"is_disabled":false,"rental_uris":{"android":"levelo://app?vid=9fdc5228-e835-4793-ad30-e5834cfd975b","ios":"levelo://app?vid=9fdc5228-e835-4793-ad30-e5834cfd975b"},"vehicle_type_id":"4","last_reported":1740337572,"current_range_meters":13600,"station_id":"ce4bhl92rcd13ifvqghg","pricing_plan_id":"cebpf4jnsgd1na2vs0mg"},{"bike_id":"67e779a0-306a-4450-b799-b79cc40953ca","system_id":"levelo_inurba_marseille","lat":43.29019,"lon":5.38112,"is_reserved":false,"is_disabled":false,"rental_uris":{"android":"levelo://app?vid=67e779a0-306a-4450-b799-b79cc40953ca","ios":"levelo://app?vid=67e779a0-306a-4450-b799-b79cc40953ca"},"vehicle_type_id":"4","last_reported":1740337572,"current_range_meters":13600,"station_id":"ce4bh4p2rcd13ifvqe1g","pricing_plan_id":"cebpf4jnsgd1na2vs0mg"},{"bike_id":"6d253574-bcad-4f61-b852-f4a6a6aedce1","system_id":"levelo_inurba_marseille","lat":43.29035,"lon":5.39968,"is_reserved":false,"is_disabled":false,"rental_uris":{"android":"levelo://app?vid=6d253574-bcad-4f61-b852-f4a6a6aedce1","ios":"levelo://app?vid=6d253574-bcad-4f61-b852-f4a6a6aedce1"},"vehicle_type_id":"4","last_reported":1740337572,"current_range_meters":13600,"station_id":"ce4bh392rcd13ifvqdm0","pricing_plan_id":"cebpf4jnsgd1na2vs0mg"},{"bike_id":"860eff15-4aff-4d92-8690-98414ae73df2","system_id":"levelo_inurba_marseille","lat":43.26588,"lon":5.39022,"is_reserved":false,"is_disabled":true,"rental_uris":{"android":"levelo://app?vid=860eff15-4aff-4d92-8690-98414ae73df2","ios":"levelo://app?vid=860eff15-4aff-4d92-8690-98414ae73df2"},"vehicle_type_id":"4","last_reported":1740337572,"current_range_meters":13600,"station_id":"ce4bhe12rcd13ifvqf30","pricing_plan_id":"cebpf4jnsgd1na2vs0mg"},{"bike_id":"5c89da34-efd7-46ec-88fb-42cf783587ce","system_id":"levelo_inurba_marseille","lat":43.283,"lon":5.43227,"is_reserved":false,"is_disabled":false,"rental_uris":{"android":"levelo://app?vid=5c89da34-efd7-46ec-88fb-42cf783587ce","ios":"levelo://app?vid=5c89da34-efd7-46ec-88fb-42cf783587ce"},"vehicle_type_id":"4","last_reported":1740337572,"current_range_meters":13600,"station_id":"","pricing_plan_id":"cebpf4jnsgd1na2vs0mg"},{"bike_id":"e18ee7ec-5031-40eb-9e8f-c04eb69cbf8d","system_id":"levelo_inurba_marseille","lat":43.28471,"lon":5.38421,"is_reserved":false,"is_disabled":false,"rental_uris":{"android":"levelo://app?vid=e18ee7ec-5031-40eb-9e8f-c04eb69cbf8d","ios":"levelo://app?vid=e18ee7ec-5031-40eb-9e8f-c04eb69cbf8d"},"vehicle_type_id":"4","last_reported":1740337572,"current_range_meters":12800,"station_id":"ce4bh512rcd13ifvqe3g","pricing_plan_id":"cebpf4jnsgd1na2vs0mg"},{"bike_id":"b49d5e52-ea0b-48d3-8a70-3d9ea3251436","system_id":"levelo_inurba_marseille","lat":43.30122,"lon":5.39879,"is_reserved":false,"is_disabled":true,"rental_uris":{"android":"levelo://app?vid=b49d5e52-ea0b-48d3-8a70-3d9ea3251436","ios":"levelo://app?vid=b49d5e52-ea0b-48d3-8a70-3d9ea3251436"},"vehicle_type_id":"4","last_reported":1740337572,"current_range_meters":14000,"station_id":"ce4bh0h2rcd13ifvqd40","pricing_plan_id":"cebpf4jnsgd1na2vs0mg"},{"bike_id":"659f5779-fc22-47e7-8468-a2002ffd5727","system_id":"levelo_inurba_marseille","lat":43.29816,"lon":5.3936,"is_reserved":false,"is_disabled":false,"rental_uris":{"android":"levelo://app?vid=659f5779-fc22-47e7-8468-a2002ffd5727","ios":"levelo://app?vid=659f5779-fc22-47e7-8468-a2002ffd5727"},"vehicle_type_id":"4","last_reported":1740337572,"current_range_meters":13600,"station_id":"chh1huq6cuj3fo74tm60","pricing_plan_id":"cebpf4jnsgd1na2vs0mg"},{"bike_id":"9faf844a-413f-419f-bdea-64830f7f2bfb","system_id":"levelo_inurba_marseille","lat":43.29951,"lon":5.37835,"is_reserved":false,"is_disabled":false,"rental_uris":{"android":"levelo://app?vid=9faf844a-413f-419f-bdea-64830f7f2bfb","ios":"levelo://app?vid=9faf844a-413f-419f-bdea-64830f7f2bfb"},"vehicle_type_id":"4","last_reported":1740337572,"current_range_meters":14000,"station_id":"","pricing_plan_id":"cebpf4jnsgd1na2vs0mg"},{"bike_id":"45fc88ff-6b1b-4d10-bdcc-4179800d5630","system_id":"levelo_inurba_marseille","lat":43.28701,"lon":5.39999,"is_reserved":false,"is_disabled":false,"rental_uris":{"android":"levelo://app?vid=45fc88ff-6b1b-4d10-bdcc-4179800d5630","ios":"levelo://app?vid=45fc88ff-6b1b-4d10-bdcc-4179800d5630"},"vehicle_type_id":"4","last_reported":1740337572,"current_range_meters":14000,"station_id":"ce4bho92rcd13ifvqh3g","pricing_plan_id":"cebpf4jnsgd1na2vs0mg"},{"bike_id":"a1970bbf-2157-47b1-be2e-458005b6cd78","system_id":"levelo_inurba_marseille","lat":43.25122,"lon":5.40312,"is_reserved":false,"is_disabled":false,"rental_uris":{"android":"levelo://app?vid=a1970bbf-2157-47b1-be2e-458005b6cd78","ios":"levelo://app?vid=a1970bbf-2157-47b1-be2e-458005b6cd78"},"vehicle_type_id":"4","last_reported":1740337572,"current_range_meters":14000,"station_id":"ce4bhlh2rcd13ifvqgig","pricing_plan_id":"cebpf4jnsgd1na2vs0mg"},{"bike_id":"abf21030-ef22-4416-85cc-1504745febf6","system_id":"levelo_inurba_marseille","lat":43.29531,"lon":5.38544,"is_reserved":false,"is_disabled":false,"rental_uris":{"android":"levelo://app?vid=abf21030-ef22-4416-85cc-1504745febf6","ios":"levelo://app?vid=abf21030-ef22-4416-85cc-1504745febf6"},"vehicle_type_id":"4","last_reported":1740337572,"current_range_meters":14000,"station_id":"ce4bgih2rcd13ifvqba0","pricing_plan_id":"cebpf4jnsgd1na2vs0mg"},{"bike_id":"296fc058-c5a4-4ff2-a45b-108f5579b386","system_id":"levelo_inurba_marseille","lat":43.28847,"lon":5.39316,"is_reserved":false,"is_disabled":false,"rental_uris":{"android":"levelo://app?vid=296fc058-c5a4-4ff2-a45b-108f5579b386","ios":"levelo://app?vid=296fc058-c5a4-4ff2-a45b-108f5579b386"},"vehicle_type_id":"4","last_reported":1740337572,"current_range_meters":14400,"station_id":"ce4bh2p2rcd13ifvqdi0","pricing_plan_id":"cebpf4jnsgd1na2vs0mg"},{"bike_id":"22d9f0af-6d0a-4a97-b0a4-b0db01ae57e4","system_id":"levelo_inurba_marseille","lat":43.29259,"lon":5.40921,"is_reserved":false,"is_disabled":false,"rental_uris":{"android":"levelo://app?vid=22d9f0af-6d0a-4a97-b0a4-b0db01ae57e4","ios":"levelo://app?vid=22d9f0af-6d0a-4a97-b0a4-b0db01ae57e4"},"vehicle_type_id":"4","last_reported":1740337572,"current_range_meters":14400,"station_id":"ce4bh192rcd13ifvqdc0","pricing_plan_id":"cebpf4jnsgd1na2vs0mg"},{"bike_id":"f4434e29-5640-48c8-baa8-5cca863a5ca0","system_id":"levelo_inurba_marseille","lat":43.25834,"lon":5.39445,"is_reserved":false,"is_disabled":false,"rental_uris":{"android":"levelo://app?vid=f4434e29-5640-48c8-baa8-5cca863a5ca0","ios":"levelo://app?vid=f4434e29-5640-48c8-baa8-5cca863a5ca0"},"vehicle_type_id":"4","last_reported":1740337572,"current_range_meters":14400,"station_id":"ce4bhip2rcd13ifvqft0","pricing_plan_id":"cebpf4jnsgd1na2vs0mg"},{"bike_id":"34b60e4e-03ef-486b-8103-9545ecdbc1e1","system_id":"levelo_inurba_marseille","lat":43.267795,"lon":5.39416,"is_reserved":false,"is_disabled":true,"rental_uris":{"android":"levelo://app?vid=34b60e4e-03ef-486b-8103-9545ecdbc1e1","ios":"levelo://app?vid=34b60e4e-03ef-486b-8103-9545ecdbc1e1"},"vehicle_type_id":"4","last_reported":1740337572,"current_range_meters":14400,"station_id":"ce4bhh12rcd13ifvqfg0","pricing_plan_id":"cebpf4jnsgd1na2vs0mg"},{"bike_id":"fc93a0cd-d658-4fe7-9e6a-52a49333f268","system_id":"levelo_inurba_marseille","lat":43.30829,"lon":5.38196,"is_reserved":false,"is_disabled":false,"rental_uris":{"android":"levelo://app?vid=fc93a0cd-d658-4fe7-9e6a-52a49333f268","ios":"levelo://app?vid=fc93a0cd-d658-4fe7-9e6a-52a49333f268"},"vehicle_type_id":"4","last_reported":1740337572,"current_range_meters":14400,"station_id":"ce4bgt12rcd13ifvqce0","pricing_plan_id":"cebpf4jnsgd1na2vs0mg"},{"bike_id":"68c35458-869c-4795-ab47-dfab224b45e8","system_id":"levelo_inurba_marseille","lat":43.30143,"lon":5.38783,"is_reserved":false,"is_disabled":false,"rental_uris":{"android":"levelo://app?vid=68c35458-869c-4795-ab47-dfab224b45e8","ios":"levelo://app?vid=68c35458-869c-4795-ab47-dfab224b45e8"},"vehicle_type_id":"4","last_reported":1740337572,"current_range_meters":14400,"station_id":"ce4bghh2rcd13ifvqb60","pricing_plan_id":"cebpf4jnsgd1na2vs0mg"},{"bike_id":"6d3a28fb-ad8e-4099-ab7e-2f1842cf0da6","system_id":"levelo_inurba_marseille","lat":43.32003,"lon":5.38152,"is_reserved":false,"is_disabled":false,"rental_uris":{"android":"levelo://app?vid=6d3a28fb-ad8e-4099-ab7e-2f1842cf0da6","ios":"levelo://app?vid=6d3a28fb-ad8e-4099-ab7e-2f1842cf0da6"},"vehicle_type_id":"4","last_reported":1740337572,"current_range_meters":14800,"station_id":"ce4bhr12rcd13ifvqhpg","pricing_plan_id":"cebpf4jnsgd1na2vs0mg"},{"bike_id":"68c1cb49-7da1-4934-a025-4e78e338d091","system_id":"levelo_inurba_marseille","lat":43.337638,"lon":5.374412,"is_reserved":false,"is_disabled":false,"rental_uris":{"android":"levelo://app?vid=68c1cb49-7da1-4934-a025-4e78e338d091","ios":"levelo://app?vid=68c1cb49-7da1-4934-a025-4e78e338d091"},"vehicle_type_id":"4","last_reported":1740337572,"current_range_meters":14800,"station_id":"","pricing_plan_id":"cebpf4jnsgd1na2vs0mg"},{"bike_id":"6860277f-c8b3-4223-8fd2-e119fdaf012d","system_id":"levelo_inurba_marseille","lat":43.26556,"lon":5.37282,"is_reserved":false,"is_disabled":false,"rental_uris":{"android":"levelo://app?vid=6860277f-c8b3-4223-8fd2-e119fdaf012d","ios":"levelo://app?vid=6860277f-c8b3-4223-8fd2-e119fdaf012d"},"vehicle_type_id":"4","last_reported":1740337572,"current_range_meters":14800,"station_id":"ce4bhg12rcd13ifvqf70","pricing_plan_id":"cebpf4jnsgd1na2vs0mg"},{"bike_id":"dc9879cb-5db7-49e2-be14-6262685d78f5","system_id":"levelo_inurba_marseille","lat":43.28856,"lon":5.39313,"is_reserved":false,"is_disabled":false,"rental_uris":{"android":"levelo://app?vid=dc9879cb-5db7-49e2-be14-6262685d78f5","ios":"levelo://app?vid=dc9879cb-5db7-49e2-be14-6262685d78f5"},"vehicle_type_id":"4","last_reported":1740337572,"current_range_meters":15200,"station_id":"ce4bh2p2rcd13ifvqdi0","pricing_plan_id":"cebpf4jnsgd1na2vs0mg"},{"bike_id":"a85dea3d-d4f1-4002-bf3e-2b6ec1fa25b3","system_id":"levelo_inurba_marseille","lat":43.26215,"lon":5.40466,"is_reserved":false,"is_disabled":false,"rental_uris":{"android":"levelo://app?vid=a85dea3d-d4f1-4002-bf3e-2b6ec1fa25b3","ios":"levelo://app?vid=a85dea3d-d4f1-4002-bf3e-2b6ec1fa25b3"},"vehicle_type_id":"4","last_reported":1740337572,"current_range_meters":15200,"station_id":"ce4bhmh2rcd13ifvqgmg","pricing_plan_id":"cebpf4jnsgd1na2vs0mg"},{"bike_id":"7de3f6a1-24b1-4588-9fd0-243733aac689","system_id":"levelo_inurba_marseille","lat":43.28101,"lon":5.37844,"is_reserved":false,"is_disabled":false,"rental_uris":{"android":"levelo://app?vid=7de3f6a1-24b1-4588-9fd0-243733aac689","ios":"levelo://app?vid=7de3f6a1-24b1-4588-9fd0-243733aac689"},"vehicle_type_id":"4","last_reported":1740337572,"current_range_meters":15200,"station_id":"ce4bha12rcd13ifvqee0","pricing_plan_id":"cebpf4jnsgd1na2vs0mg"},{"bike_id":"aa2ee352-5a91-4b04-8ca1-d76b46e145bb","system_id":"levelo_inurba_marseille","lat":43.29788,"lon":5.39353,"is_reserved":false,"is_disabled":false,"rental_uris":{"android":"levelo://app?vid=aa2ee352-5a91-4b04-8ca1-d76b46e145bb","ios":"levelo://app?vid=aa2ee352-5a91-4b04-8ca1-d76b46e145bb"},"vehicle_type_id":"4","last_reported":1740337572,"current_range_meters":15200,"station_id":"chh1huq6cuj3fo74tm60","pricing_plan_id":"cebpf4jnsgd1na2vs0mg"},{"bike_id":"3414b944-a9b7-4b1e-b288-cbf493bce065","system_id":"levelo_inurba_marseille","lat":43.29882,"lon":5.38906,"is_reserved":false,"is_disabled":false,"rental_uris":{"android":"levelo://app?vid=3414b944-a9b7-4b1e-b288-cbf493bce065","ios":"levelo://app?vid=3414b944-a9b7-4b1e-b288-cbf493bce065"},"vehicle_type_id":"4","last_reported":1740337572,"current_range_meters":16000,"station_id":"ce4bh392rcd13ifvqdl0","pricing_plan_id":"cebpf4jnsgd1na2vs0mg"},{"bike_id":"619b296c-65ef-434b-b4a8-3909cdd378eb","system_id":"levelo_inurba_marseille","lat":43.29277,"lon":5.36843,"is_reserved":false,"is_disabled":false,"rental_uris":{"android":"levelo://app?vid=619b296c-65ef-434b-b4a8-3909cdd378eb","ios":"levelo://app?vid=619b296c-65ef-434b-b4a8-3909cdd378eb"},"vehicle_type_id":"4","last_reported":1740337572,"current_range_meters":16000,"station_id":"ce4bhbp2rcd13ifvqesg","pricing_plan_id":"cebpf4jnsgd1na2vs0mg"},{"bike_id":"21be5091-e192-4cd7-bfa4-6d6bc09b9478","system_id":"levelo_inurba_marseille","lat":43.28,"lon":5.41666,"is_reserved":false,"is_disabled":false,"rental_uris":{"android":"levelo://app?vid=21be5091-e192-4cd7-bfa4-6d6bc09b9478","ios":"levelo://app?vid=21be5091-e192-4cd7-bfa4-6d6bc09b9478"},"vehicle_type_id":"4","last_reported":1740337572,"current_range_meters":16000,"station_id":"ce4bho12rcd13ifvqh1g","pricing_plan_id":"cebpf4jnsgd1na2vs0mg"},{"bike_id":"51c7c09f-82e9-4a4b-a201-54869c0fba8f","system_id":"levelo_inurba_marseille","lat":43.25081,"lon":5.39529,"is_reserved":false,"is_disabled":true,"rental_uris":{"android":"levelo://app?vid=51c7c09f-82e9-4a4b-a201-54869c0fba8f","ios":"levelo://app?vid=51c7c09f-82e9-4a4b-a201-54869c0fba8f"},"vehicle_type_id":"4","last_reported":1740337572,"current_range_meters":16000,"station_id":"ce4bhm12rcd13ifvqgkg","pricing_plan_id":"cebpf4jnsgd1na2vs0mg"},{"bike_id":"2ae52bcd-1f15-49a3-892b-2115e0df7519","system_id":"levelo_inurba_marseille","lat":43.27514,"lon":5.43474,"is_reserved":false,"is_disabled":false,"rental_uris":{"android":"levelo://app?vid=2ae52bcd-1f15-49a3-892b-2115e0df7519","ios":"levelo://app?vid=2ae52bcd-1f15-49a3-892b-2115e0df7519"},"vehicle_type_id":"4","last_reported":1740337572,"current_range_meters":16000,"station_id":"","pricing_plan_id":"cebpf4jnsgd1na2vs0mg"},{"bike_id":"b4e0215b-f2ff-46db-ba8e-290afa8d74a4","system_id":"levelo_inurba_marseille","lat":43.28957,"lon":5.36642,"is_reserved":false,"is_disabled":false,"rental_uris":{"android":"levelo://app?vid=b4e0215b-f2ff-46db-ba8e-290afa8d74a4","ios":"levelo://app?vid=b4e0215b-f2ff-46db-ba8e-290afa8d74a4"},"vehicle_type_id":"4","last_reported":1740337572,"current_range_meters":16000,"station_id":"ce4bhap2rcd13ifvqek0","pricing_plan_id":"cebpf4jnsgd1na2vs0mg"},{"bike_id":"9a2aa4dd-64da-4ff9-80ee-f00c626d69dc","system_id":"levelo_inurba_marseille","lat":43.323675,"lon":5.388915,"is_reserved":false,"is_disabled":false,"rental_uris":{"android":"levelo://app?vid=9a2aa4dd-64da-4ff9-80ee-f00c626d69dc","ios":"levelo://app?vid=9a2aa4dd-64da-4ff9-80ee-f00c626d69dc"},"vehicle_type_id":"4","last_reported":1740337572,"current_range_meters":16000,"station_id":"ce4bhqp2rcd13ifvqhog","pricing_plan_id":"cebpf4jnsgd1na2vs0mg"},{"bike_id":"7884cd6e-6571-446d-ad19-a2a8bc8f14f8","system_id":"levelo_inurba_marseille","lat":43.28359,"lon":5.38616,"is_reserved":false,"is_disabled":false,"rental_uris":{"android":"levelo://app?vid=7884cd6e-6571-446d-ad19-a2a8bc8f14f8","ios":"levelo://app?vid=7884cd6e-6571-446d-ad19-a2a8bc8f14f8"},"vehicle_type_id":"4","last_reported":1740337572,"current_range_meters":16400,"station_id":"ce4bh492rcd13ifvqdvg","pricing_plan_id":"cebpf4jnsgd1na2vs0mg"},{"bike_id":"a7d79b08-9075-402a-abbd-5679cd523a69","system_id":"levelo_inurba_marseille","lat":43.26501,"lon":5.39536,"is_reserved":false,"is_disabled":false,"rental_uris":{"android":"levelo://app?vid=a7d79b08-9075-402a-abbd-5679cd523a69","ios":"levelo://app?vid=a7d79b08-9075-402a-abbd-5679cd523a69"},"vehicle_type_id":"4","last_reported":1740337572,"current_range_meters":16400,"station_id":"ce4bhi12rcd13ifvqfq0","pricing_plan_id":"cebpf4jnsgd1na2vs0mg"},{"bike_id":"8b750b4e-33fe-476c-b63c-d0e58342efc7","system_id":"levelo_inurba_marseille","lat":43.28492,"lon":5.38415,"is_reserved":false,"is_disabled":false,"rental_uris":{"android":"levelo://app?vid=8b750b4e-33fe-476c-b63c-d0e58342efc7","ios":"levelo://app?vid=8b750b4e-33fe-476c-b63c-d0e58342efc7"},"vehicle_type_id":"4","last_reported":1740337572,"current_range_meters":16400,"station_id":"ce4bh512rcd13ifvqe3g","pricing_plan_id":"cebpf4jnsgd1na2vs0mg"},{"bike_id":"92526d16-2da2-45e4-9a8a-a4cf51a4012f","system_id":"levelo_inurba_marseille","lat":43.295227,"lon":5.389495,"is_reserved":false,"is_disabled":false,"rental_uris":{"android":"levelo://app?vid=92526d16-2da2-45e4-9a8a-a4cf51a4012f","ios":"levelo://app?vid=92526d16-2da2-45e4-9a8a-a4cf51a4012f"},"vehicle_type_id":"4","last_reported":1740337572,"current_range_meters":16400,"station_id":"ce4bh0h2rcd13ifvqd60","pricing_plan_id":"cebpf4jnsgd1na2vs0mg"},{"bike_id":"87c93845-143c-4613-9a0d-08836448a26d","system_id":"levelo_inurba_marseille","lat":43.23955,"lon":5.36634,"is_reserved":false,"is_disabled":false,"rental_uris":{"android":"levelo://app?vid=87c93845-143c-4613-9a0d-08836448a26d","ios":"levelo://app?vid=87c93845-143c-4613-9a0d-08836448a26d"},"vehicle_type_id":"4","last_reported":1740337572,"current_range_meters":16400,"station_id":"ce4bhi12rcd13ifvqfp0","pricing_plan_id":"cebpf4jnsgd1na2vs0mg"},{"bike_id":"84ab67a6-6b3c-4b92-ac7d-399df2658698","system_id":"levelo_inurba_marseille","lat":43.30176,"lon":5.38169,"is_reserved":false,"is_disabled":false,"rental_uris":{"android":"levelo://app?vid=84ab67a6-6b3c-4b92-ac7d-399df2658698","ios":"levelo://app?vid=84ab67a6-6b3c-4b92-ac7d-399df2658698"},"vehicle_type_id":"4","last_reported":1740337572,"current_range_meters":16400,"station_id":"","pricing_plan_id":"cebpf4jnsgd1na2vs0mg"},{"bike_id":"f038b90f-7238-4381-906a-e07a8d66f02a","system_id":"levelo_inurba_marseille","lat":43.25087,"lon":5.39545,"is_reserved":false,"is_disabled":false,"rental_uris":{"android":"levelo://app?vid=f038b90f-7238-4381-906a-e07a8d66f02a","ios":"levelo://app?vid=f038b90f-7238-4381-906a-e07a8d66f02a"},"vehicle_type_id":"4","last_reported":1740337572,"current_range_meters":16400,"station_id":"ce4bhm12rcd13ifvqgkg","pricing_plan_id":"cebpf4jnsgd1na2vs0mg"},{"bike_id":"28c91c14-bec0-4ac9-9158-02bdbf9b3608","system_id":"levelo_inurba_marseille","lat":43.25007,"lon":5.38924,"is_reserved":false,"is_disabled":false,"rental_uris":{"android":"levelo://app?vid=28c91c14-bec0-4ac9-9158-02bdbf9b3608","ios":"levelo://app?vid=28c91c14-bec0-4ac9-9158-02bdbf9b3608"},"vehicle_type_id":"4","last_reported":1740337572,"current_range_meters":16400,"station_id":"ce4bhgp2rcd13ifvqfd0","pricing_plan_id":"cebpf4jnsgd1na2vs0mg"},{"bike_id":"7fe0996e-2e24-4a3a-b975-03a2a20f6506","system_id":"levelo_inurba_marseille","lat":43.32367,"lon":5.36781,"is_reserved":false,"is_disabled":false,"rental_uris":{"android":"levelo://app?vid=7fe0996e-2e24-4a3a-b975-03a2a20f6506","ios":"levelo://app?vid=7fe0996e-2e24-4a3a-b975-03a2a20f6506"},"vehicle_type_id":"4","last_reported":1740337572,"current_range_meters":16800,"station_id":"ce4bhsh2rcd13ifvqi2g","pricing_plan_id":"cebpf4jnsgd1na2vs0mg"},{"bike_id":"1f646346-934a-4200-a7d4-48257afd7845","system_id":"levelo_inurba_marseille","lat":43.31332,"lon":5.39691,"is_reserved":false,"is_disabled":false,"rental_uris":{"android":"levelo://app?vid=1f646346-934a-4200-a7d4-48257afd7845","ios":"levelo://app?vid=1f646346-934a-4200-a7d4-48257afd7845"},"vehicle_type_id":"4","last_reported":1740337572,"current_range_meters":16800,"station_id":"ce4bgvp2rcd13ifvqcu0","pricing_plan_id":"cebpf4jnsgd1na2vs0mg"},{"bike_id":"d5259184-ba3a-4ef8-baa9-a623b2d430bd","system_id":"levelo_inurba_marseille","lat":43.29265,"lon":5.40907,"is_reserved":false,"is_disabled":false,"rental_uris":{"android":"levelo://app?vid=d5259184-ba3a-4ef8-baa9-a623b2d430bd","ios":"levelo://app?vid=d5259184-ba3a-4ef8-baa9-a623b2d430bd"},"vehicle_type_id":"4","last_reported":1740337572,"current_range_meters":16800,"station_id":"ce4bh192rcd13ifvqdc0","pricing_plan_id":"cebpf4jnsgd1na2vs0mg"},{"bike_id":"1ef41376-cd3a-40a3-ae4a-f23a2a34fc30","system_id":"levelo_inurba_marseille","lat":43.2767,"lon":5.38914,"is_reserved":false,"is_disabled":true,"rental_uris":{"android":"levelo://app?vid=1ef41376-cd3a-40a3-ae4a-f23a2a34fc30","ios":"levelo://app?vid=1ef41376-cd3a-40a3-ae4a-f23a2a34fc30"},"vehicle_type_id":"4","last_reported":1740337572,"current_range_meters":17200,"station_id":"ce4bhi12rcd13ifvqfo0","pricing_plan_id":"cebpf4jnsgd1na2vs0mg"},{"bike_id":"d0faabc9-8e18-4f11-8f01-8ceb29a478f6","system_id":"levelo_inurba_marseille","lat":43.28498,"lon":5.38441,"is_reserved":false,"is_disabled":false,"rental_uris":{"android":"levelo://app?vid=d0faabc9-8e18-4f11-8f01-8ceb29a478f6","ios":"levelo://app?vid=d0faabc9-8e18-4f11-8f01-8ceb29a478f6"},"vehicle_type_id":"4","last_reported":1740337572,"current_range_meters":17200,"station_id":"ce4bh512rcd13ifvqe3g","pricing_plan_id":"cebpf4jnsgd1na2vs0mg"},{"bike_id":"307495fe-6dd0-4b16-93fe-16f50d217628","system_id":"levelo_inurba_marseille","lat":43.3078,"lon":5.37649,"is_reserved":false,"is_disabled":false,"rental_uris":{"android":"levelo://app?vid=307495fe-6dd0-4b16-93fe-16f50d217628","ios":"levelo://app?vid=307495fe-6dd0-4b16-93fe-16f50d217628"},"vehicle_type_id":"4","last_reported":1740337572,"current_range_meters":17200,"station_id":"ce4bgv92rcd13ifvqcq0","pricing_plan_id":"cebpf4jnsgd1na2vs0mg"},{"bike_id":"d44acff6-e72f-4da0-843d-6a5b1fe81a25","system_id":"levelo_inurba_marseille","lat":43.28674,"lon":5.38662,"is_reserved":false,"is_disabled":false,"rental_uris":{"android":"levelo://app?vid=d44acff6-e72f-4da0-843d-6a5b1fe81a25","ios":"levelo://app?vid=d44acff6-e72f-4da0-843d-6a5b1fe81a25"},"vehicle_type_id":"4","last_reported":1740337572,"current_range_meters":17200,"station_id":"ce4bh492rcd13ifvqdug","pricing_plan_id":"cebpf4jnsgd1na2vs0mg"},{"bike_id":"bfee4918-65bc-4430-8c1c-387fa672d48d","system_id":"levelo_inurba_marseille","lat":43.28705,"lon":5.39978,"is_reserved":false,"is_disabled":false,"rental_uris":{"android":"levelo://app?vid=bfee4918-65bc-4430-8c1c-387fa672d48d","ios":"levelo://app?vid=bfee4918-65bc-4430-8c1c-387fa672d48d"},"vehicle_type_id":"4","last_reported":1740337572,"current_range_meters":17200,"station_id":"ce4bho92rcd13ifvqh3g","pricing_plan_id":"cebpf4jnsgd1na2vs0mg"},{"bike_id":"738d7062-e684-48a6-b108-52fbc1509e4e","system_id":"levelo_inurba_marseille","lat":43.292111,"lon":5.393291,"is_reserved":false,"is_disabled":false,"rental_uris":{"android":"levelo://app?vid=738d7062-e684-48a6-b108-52fbc1509e4e","ios":"levelo://app?vid=738d7062-e684-48a6-b108-52fbc1509e4e"},"vehicle_type_id":"4","last_reported":1740337572,"current_range_meters":17200,"station_id":"ce4bh192rcd13ifvqdd0","pricing_plan_id":"cebpf4jnsgd1na2vs0mg"},{"bike_id":"3e28a292-cbf7-4558-9a5f-4bc7b4a80e33","system_id":"levelo_inurba_marseille","lat":43.2942,"lon":5.38624,"is_reserved":false,"is_disabled":false,"rental_uris":{"android":"levelo://app?vid=3e28a292-cbf7-4558-9a5f-4bc7b4a80e33","ios":"levelo://app?vid=3e28a292-cbf7-4558-9a5f-4bc7b4a80e33"},"vehicle_type_id":"4","last_reported":1740337572,"current_range_meters":17600,"station_id":"ce4bh2h2rcd13ifvqdh0","pricing_plan_id":"cebpf4jnsgd1na2vs0mg"},{"bike_id":"34168c40-3b8d-4627-9191-5e845802f26a","system_id":"levelo_inurba_marseille","lat":43.32744,"lon":5.39232,"is_reserved":false,"is_disabled":false,"rental_uris":{"android":"levelo://app?vid=34168c40-3b8d-4627-9191-5e845802f26a","ios":"levelo://app?vid=34168c40-3b8d-4627-9191-5e845802f26a"},"vehicle_type_id":"4","last_reported":1740337572,"current_range_meters":17600,"station_id":"","pricing_plan_id":"cebpf4jnsgd1na2vs0mg"},{"bike_id":"da805173-c32f-4615-b8c5-69bdaf0f2e7f","system_id":"levelo_inurba_marseille","lat":43.28993,"lon":5.35594,"is_reserved":false,"is_disabled":true,"rental_uris":{"android":"levelo://app?vid=da805173-c32f-4615-b8c5-69bdaf0f2e7f","ios":"levelo://app?vid=da805173-c32f-4615-b8c5-69bdaf0f2e7f"},"vehicle_type_id":"4","last_reported":1740337572,"current_range_meters":17600,"station_id":"ce4bhb92rcd13ifvqen0","pricing_plan_id":"cebpf4jnsgd1na2vs0mg"},{"bike_id":"11d2fe39-d9d4-48dc-add1-83528bf8cf2e","system_id":"levelo_inurba_marseille","lat":43.23193,"lon":5.39976,"is_reserved":false,"is_disabled":false,"rental_uris":{"android":"levelo://app?vid=11d2fe39-d9d4-48dc-add1-83528bf8cf2e","ios":"levelo://app?vid=11d2fe39-d9d4-48dc-add1-83528bf8cf2e"},"vehicle_type_id":"4","last_reported":1740337572,"current_range_meters":17600,"station_id":"ce4bhn12rcd13ifvqgqg","pricing_plan_id":"cebpf4jnsgd1na2vs0mg"},{"bike_id":"a2d6ae3f-66f4-4649-ba0a-99967149441d","system_id":"levelo_inurba_marseille","lat":43.29535,"lon":5.36133,"is_reserved":false,"is_disabled":false,"rental_uris":{"android":"levelo://app?vid=a2d6ae3f-66f4-4649-ba0a-99967149441d","ios":"levelo://app?vid=a2d6ae3f-66f4-4649-ba0a-99967149441d"},"vehicle_type_id":"4","last_reported":1740337572,"current_range_meters":17600,"station_id":"","pricing_plan_id":"cebpf4jnsgd1na2vs0mg"},{"bike_id":"6041431c-f644-4933-9ef4-c81e48d4ab9f","system_id":"levelo_inurba_marseille","lat":43.28158,"lon":5.42644,"is_reserved":false,"is_disabled":false,"rental_uris":{"android":"levelo://app?vid=6041431c-f644-4933-9ef4-c81e48d4ab9f","ios":"levelo://app?vid=6041431c-f644-4933-9ef4-c81e48d4ab9f"},"vehicle_type_id":"4","last_reported":1740337572,"current_range_meters":17200,"station_id":"ce4bhnh2rcd13ifvqgug","pricing_plan_id":"cebpf4jnsgd1na2vs0mg"},{"bike_id":"e081d557-188e-4e25-ac23-e03c2aa9ae41","system_id":"levelo_inurba_marseille","lat":43.29517,"lon":5.39403,"is_reserved":false,"is_disabled":false,"rental_uris":{"android":"levelo://app?vid=e081d557-188e-4e25-ac23-e03c2aa9ae41","ios":"levelo://app?vid=e081d557-188e-4e25-ac23-e03c2aa9ae41"},"vehicle_type_id":"4","last_reported":1740337572,"current_range_meters":17600,"station_id":"ce4bh292rcd13ifvqdf0","pricing_plan_id":"cebpf4jnsgd1na2vs0mg"},{"bike_id":"b5a1d484-9e63-43b3-9bbc-06f2df1a2c91","system_id":"levelo_inurba_marseille","lat":43.292101,"lon":5.393133,"is_reserved":false,"is_disabled":false,"rental_uris":{"android":"levelo://app?vid=b5a1d484-9e63-43b3-9bbc-06f2df1a2c91","ios":"levelo://app?vid=b5a1d484-9e63-43b3-9bbc-06f2df1a2c91"},"vehicle_type_id":"4","last_reported":1740337572,"current_range_meters":18000,"station_id":"ce4bh192rcd13ifvqdd0","pricing_plan_id":"cebpf4jnsgd1na2vs0mg"},{"bike_id":"41a2216f-8b22-4f4f-9eac-5e2283bcdb4b","system_id":"levelo_inurba_marseille","lat":43.28153,"lon":5.42652,"is_reserved":false,"is_disabled":true,"rental_uris":{"android":"levelo://app?vid=41a2216f-8b22-4f4f-9eac-5e2283bcdb4b","ios":"levelo://app?vid=41a2216f-8b22-4f4f-9eac-5e2283bcdb4b"},"vehicle_type_id":"4","last_reported":1740337572,"current_range_meters":18000,"station_id":"ce4bhnh2rcd13ifvqgug","pricing_plan_id":"cebpf4jnsgd1na2vs0mg"},{"bike_id":"b74b70b7-2ee4-40f6-9bb9-a30abcb56606","system_id":"levelo_inurba_marseille","lat":43.292084,"lon":5.393346,"is_reserved":false,"is_disabled":false,"rental_uris":{"android":"levelo://app?vid=b74b70b7-2ee4-40f6-9bb9-a30abcb56606","ios":"levelo://app?vid=b74b70b7-2ee4-40f6-9bb9-a30abcb56606"},"vehicle_type_id":"4","last_reported":1740337572,"current_range_meters":18000,"station_id":"ce4bh192rcd13ifvqdd0","pricing_plan_id":"cebpf4jnsgd1na2vs0mg"},{"bike_id":"8144d768-d95e-483c-8771-5a5a78fc17ce","system_id":"levelo_inurba_marseille","lat":43.2466,"lon":5.38151,"is_reserved":false,"is_disabled":false,"rental_uris":{"android":"levelo://app?vid=8144d768-d95e-483c-8771-5a5a78fc17ce","ios":"levelo://app?vid=8144d768-d95e-483c-8771-5a5a78fc17ce"},"vehicle_type_id":"4","last_reported":1740337572,"current_range_meters":18000,"station_id":"ce4bhih2rcd13ifvqfr0","pricing_plan_id":"cebpf4jnsgd1na2vs0mg"},{"bike_id":"0fb3d653-f99f-4896-bc45-6c89fdb9f8b3","system_id":"levelo_inurba_marseille","lat":43.2509,"lon":5.39536,"is_reserved":false,"is_disabled":false,"rental_uris":{"android":"levelo://app?vid=0fb3d653-f99f-4896-bc45-6c89fdb9f8b3","ios":"levelo://app?vid=0fb3d653-f99f-4896-bc45-6c89fdb9f8b3"},"vehicle_type_id":"4","last_reported":1740337572,"current_range_meters":18000,"station_id":"ce4bhm12rcd13ifvqgkg","pricing_plan_id":"cebpf4jnsgd1na2vs0mg"},{"bike_id":"2c226df1-fd18-49fa-937a-6cfcc5f50412","system_id":"levelo_inurba_marseille","lat":43.286937,"lon":5.400053,"is_reserved":false,"is_disabled":false,"rental_uris":{"android":"levelo://app?vid=2c226df1-fd18-49fa-937a-6cfcc5f50412","ios":"levelo://app?vid=2c226df1-fd18-49fa-937a-6cfcc5f50412"},"vehicle_type_id":"4","last_reported":1740337572,"current_range_meters":18000,"station_id":"ce4bho92rcd13ifvqh3g","pricing_plan_id":"cebpf4jnsgd1na2vs0mg"},{"bike_id":"ea19c552-2c39-40c3-adb0-a410590870f5","system_id":"levelo_inurba_marseille","lat":43.27561,"lon":5.38411,"is_reserved":false,"is_disabled":false,"rental_uris":{"android":"levelo://app?vid=ea19c552-2c39-40c3-adb0-a410590870f5","ios":"levelo://app?vid=ea19c552-2c39-40c3-adb0-a410590870f5"},"vehicle_type_id":"4","last_reported":1740337572,"current_range_meters":18000,"station_id":"ce4bhh92rcd13ifvqfi0","pricing_plan_id":"cebpf4jnsgd1na2vs0mg"},{"bike_id":"9ec80d5d-5365-4fe8-b1b8-741c81741c1c","system_id":"levelo_inurba_marseille","lat":43.27724,"lon":5.40818,"is_reserved":false,"is_disabled":false,"rental_uris":{"android":"levelo://app?vid=9ec80d5d-5365-4fe8-b1b8-741c81741c1c","ios":"levelo://app?vid=9ec80d5d-5365-4fe8-b1b8-741c81741c1c"},