{"last_updated":1745795374,"ttl":60,"version":"2.2","data":{"bikes":[{"bike_id":"238961a6-c4be-4c39-a96b-91bea8a0b401","system_id":"levelo_inurba_marseille","lat":43.26231,"lon":5.4044,"is_reserved":false,"is_disabled":false,"rental_uris":{"android":"levelo://app?vid=238961a6-c4be-4c39-a96b-91bea8a0b401","ios":"levelo://app?vid=238961a6-c4be-4c39-a96b-91bea8a0b401"},"vehicle_type_id":"4","last_reported":1745795374,"current_range_meters":3600,"station_id":"ce4bhmh2rcd13ifvqgmg","pricing_plan_id":"cebpf4jnsgd1na2vs0mg"},{"bike_id":"d48770ea-271d-480f-a83f-8620fe6a1833","system_id":"levelo_inurba_marseille","lat":43.28176,"lon":5.40462,"is_reserved":false,"is_disabled":true,"rental_uris":{"android":"levelo://app?vid=d48770ea-271d-480f-a83f-8620fe6a1833","ios":"levelo://app?vid=d48770ea-271d-480f-a83f-8620fe6a1833"},"vehicle_type_id":"4","last_reported":1745795374,"current_range_meters":3600,"station_id":"","pricing_plan_id":"cebpf4jnsgd1na2vs0mg"},{"bike_id":"dbf9e115-f6f2-4f9e-bd7d-02cb5c9d0d8e","system_id":"levelo_inurba_marseille","lat":43.288537,"lon":5.393143,"is_reserved":false,"is_disabled":false,"rental_uris":{"android":"levelo://app?vid=dbf9e115-f6f2-4f9e-bd7d-02cb5c9d0d8e","ios":"levelo://app?vid=dbf9e115-f6f2-4f9e-bd7d-02cb5c9d0d8e"},"vehicle_type_id":"4","last_reported":1745795374,"current_range_meters":4000,"station_id":"ce4bh2p2rcd13ifvqdi0","pricing_plan_id":"cebpf4jnsgd1na2vs0mg"},{"bike_id":"308ce0d7-54d5-4aec-879f-da2149307f93","system_id":"levelo_inurba_marseille","lat":43.225025,"lon":5.347676,"is_reserved":false,"is_disabled":true,"rental_uris":{"android":"levelo://app?vid=308ce0d7-54d5-4aec-879f-da2149307f93","ios":"levelo://app?vid=308ce0d7-54d5-4aec-879f-da2149307f93"},"vehicle_type_id":"4","last_reported":1745795374,"current_range_meters":6000,"station_id":"st_cvj5dfep6f1abm77gieg","pricing_plan_id":"cebpf4jnsgd1na2vs0mg"},{"bike_id":"042a36cf-a68c-4f02-8fbe-a3d4f36fa492","system_id":"levelo_inurba_marseille","lat":43.21196,"lon":5.35085,"is_reserved":false,"is_disabled":false,"rental_uris":{"android":"levelo://app?vid=042a36cf-a68c-4f02-8fbe-a3d4f36fa492","ios":"levelo://app?vid=042a36cf-a68c-4f02-8fbe-a3d4f36fa492"},"vehicle_type_id":"4","last_reported":1745795374,"current_range_meters":6000,"station_id":"st_cvj6sg6p6f1abm77japg","pricing_plan_id":"cebpf4jnsgd1na2vs0mg"},{"bike_id":"6fbd886a-9082-4287-bdf4-6c7b7aebe2be","system_id":"levelo_inurba_marseille","lat":43.26032,"lon":5.37546,"is_reserved":false,"is_disabled":false,"rental_uris":{"android":"levelo://app?vid=6fbd886a-9082-4287-bdf4-6c7b7aebe2be","ios":"levelo://app?vid=6fbd886a-9082-4287-bdf4-6c7b7aebe2be"},"vehicle_type_id":"4","last_reported":1745795374,"current_range_meters":6000,"station_id":"ce4bhgh2rcd13ifvqfa0","pricing_plan_id":"cebpf4jnsgd1na2vs0mg"},{"bike_id":"82016555-1022-467f-b7e9-084b6d838aac","system_id":"levelo_inurba_marseille","lat":43.25526,"lon":5.37608,"is_reserved":false,"is_disabled":false,"rental_uris":{"android":"levelo://app?vid=82016555-1022-467f-b7e9-084b6d838aac","ios":"levelo://app?vid=82016555-1022-467f-b7e9-084b6d838aac"},"vehicle_type_id":"4","last_reported":1745795374,"current_range_meters":6400,"station_id":"ce4bhh12rcd13ifvqff0","pricing_plan_id":"cebpf4jnsgd1na2vs0mg"},{"bike_id":"d9d42592-3084-4d0e-9bdc-dde1c8c2459a","system_id":"levelo_inurba_marseille","lat":43.23187,"lon":5.39984,"is_reserved":false,"is_disabled":false,"rental_uris":{"android":"levelo://app?vid=d9d42592-3084-4d0e-9bdc-dde1c8c2459a","ios":"levelo://app?vid=d9d42592-3084-4d0e-9bdc-dde1c8c2459a"},"vehicle_type_id":"4","last_reported":1745795374,"current_range_meters":6400,"station_id":"ce4bhn12rcd13ifvqgqg","pricing_plan_id":"cebpf4jnsgd1na2vs0mg"},{"bike_id":"b203106f-15ad-4224-a9bb-aef6d708468c","system_id":"levelo_inurba_marseille","lat":43.27504,"lon":5.42414,"is_reserved":false,"is_disabled":false,"rental_uris":{"android":"levelo://app?vid=b203106f-15ad-4224-a9bb-aef6d708468c","ios":"levelo://app?vid=b203106f-15ad-4224-a9bb-aef6d708468c"},"vehicle_type_id":"4","last_reported":1745795374,"current_range_meters":6400,"station_id":"ce4bhn92rcd13ifvqgrg","pricing_plan_id":"cebpf4jnsgd1na2vs0mg"},{"bike_id":"c1b1b433-bcb9-4a7d-8963-3218bcdcba1e","system_id":"levelo_inurba_marseille","lat":43.23359,"lon":5.36048,"is_reserved":false,"is_disabled":false,"rental_uris":{"android":"levelo://app?vid=c1b1b433-bcb9-4a7d-8963-3218bcdcba1e","ios":"levelo://app?vid=c1b1b433-bcb9-4a7d-8963-3218bcdcba1e"},"vehicle_type_id":"4","last_reported":1745795374,"current_range_meters":6400,"station_id":"","pricing_plan_id":"cebpf4jnsgd1na2vs0mg"},{"bike_id":"2d4820d4-569a-4ec0-b000-e82a960dd30b","system_id":"levelo_inurba_marseille","lat":43.23136,"lon":5.35491,"is_reserved":false,"is_disabled":false,"rental_uris":{"android":"levelo://app?vid=2d4820d4-569a-4ec0-b000-e82a960dd30b","ios":"levelo://app?vid=2d4820d4-569a-4ec0-b000-e82a960dd30b"},"vehicle_type_id":"4","last_reported":1745795374,"current_range_meters":6800,"station_id":"","pricing_plan_id":"cebpf4jnsgd1na2vs0mg"},{"bike_id":"81159e63-3b35-42d5-8e59-a6400c53568e","system_id":"levelo_inurba_marseille","lat":43.21772,"lon":5.34618,"is_reserved":false,"is_disabled":false,"rental_uris":{"android":"levelo://app?vid=81159e63-3b35-42d5-8e59-a6400c53568e","ios":"levelo://app?vid=81159e63-3b35-42d5-8e59-a6400c53568e"},"vehicle_type_id":"4","last_reported":1745795374,"current_range_meters":6800,"station_id":"st_cvj6r9ubvosntc0bgbag","pricing_plan_id":"cebpf4jnsgd1na2vs0mg"},{"bike_id":"cfedda18-f895-49da-bc3d-8d22c0dd79d7","system_id":"levelo_inurba_marseille","lat":43.25727,"lon":5.41113,"is_reserved":false,"is_disabled":false,"rental_uris":{"android":"levelo://app?vid=cfedda18-f895-49da-bc3d-8d22c0dd79d7","ios":"levelo://app?vid=cfedda18-f895-49da-bc3d-8d22c0dd79d7"},"vehicle_type_id":"4","last_reported":1745795374,"current_range_meters":6800,"station_id":"ce4bhkp2rcd13ifvqgd0","pricing_plan_id":"cebpf4jnsgd1na2vs0mg"},{"bike_id":"616f96be-946a-47a0-93f9-959efc31c108","system_id":"levelo_inurba_marseille","lat":43.27323,"lon":5.390975,"is_reserved":false,"is_disabled":true,"rental_uris":{"android":"levelo://app?vid=616f96be-946a-47a0-93f9-959efc31c108","ios":"levelo://app?vid=616f96be-946a-47a0-93f9-959efc31c108"},"vehicle_type_id":"4","last_reported":1745795374,"current_range_meters":6800,"station_id":"ce4bhgp2rcd13ifvqfe0","pricing_plan_id":"cebpf4jnsgd1na2vs0mg"},{"bike_id":"b4ab71dc-7ecc-4fcb-bfaf-2cb4e735be46","system_id":"levelo_inurba_marseille","lat":43.24172,"lon":5.39722,"is_reserved":false,"is_disabled":false,"rental_uris":{"android":"levelo://app?vid=b4ab71dc-7ecc-4fcb-bfaf-2cb4e735be46","ios":"levelo://app?vid=b4ab71dc-7ecc-4fcb-bfaf-2cb4e735be46"},"vehicle_type_id":"4","last_reported":1745795374,"current_range_meters":6800,"station_id":"ce4bhn12rcd13ifvqgpg","pricing_plan_id":"cebpf4jnsgd1na2vs0mg"},{"bike_id":"284efe7b-2e61-45b1-a1e4-7089a3b3d2dd","system_id":"levelo_inurba_marseille","lat":43.25954,"lon":5.40893,"is_reserved":false,"is_disabled":false,"rental_uris":{"android":"levelo://app?vid=284efe7b-2e61-45b1-a1e4-7089a3b3d2dd","ios":"levelo://app?vid=284efe7b-2e61-45b1-a1e4-7089a3b3d2dd"},"vehicle_type_id":"4","last_reported":1745795374,"current_range_meters":6800,"station_id":"ce4bhm92rcd13ifvqglg","pricing_plan_id":"cebpf4jnsgd1na2vs0mg"},{"bike_id":"4a5edcf1-6727-4c60-8f88-19c6d2a1f8fa","system_id":"levelo_inurba_marseille","lat":43.2293,"lon":5.35374,"is_reserved":false,"is_disabled":false,"rental_uris":{"android":"levelo://app?vid=4a5edcf1-6727-4c60-8f88-19c6d2a1f8fa","ios":"levelo://app?vid=4a5edcf1-6727-4c60-8f88-19c6d2a1f8fa"},"vehicle_type_id":"4","last_reported":1745795374,"current_range_meters":6800,"station_id":"cpo3532slgdg3j2ikp40","pricing_plan_id":"cebpf4jnsgd1na2vs0mg"},{"bike_id":"4f237f57-7e6d-4454-a0e6-195d0a8fae7b","system_id":"levelo_inurba_marseille","lat":43.32475,"lon":5.43871,"is_reserved":false,"is_disabled":false,"rental_uris":{"android":"levelo://app?vid=4f237f57-7e6d-4454-a0e6-195d0a8fae7b","ios":"levelo://app?vid=4f237f57-7e6d-4454-a0e6-195d0a8fae7b"},"vehicle_type_id":"4","last_reported":1745795374,"current_range_meters":7200,"station_id":"","pricing_plan_id":"cebpf4jnsgd1na2vs0mg"},{"bike_id":"0ac1cfd7-2f1b-4945-9eb9-e527c341db5d","system_id":"levelo_inurba_marseille","lat":43.27063,"lon":5.42263,"is_reserved":false,"is_disabled":false,"rental_uris":{"android":"levelo://app?vid=0ac1cfd7-2f1b-4945-9eb9-e527c341db5d","ios":"levelo://app?vid=0ac1cfd7-2f1b-4945-9eb9-e527c341db5d"},"vehicle_type_id":"4","last_reported":1745795374,"current_range_meters":7200,"station_id":"ce4bhk92rcd13ifvqgb0","pricing_plan_id":"cebpf4jnsgd1na2vs0mg"},{"bike_id":"4e09e2f3-6329-4563-9a1f-79c5001029cb","system_id":"levelo_inurba_marseille","lat":43.3243,"lon":5.39145,"is_reserved":false,"is_disabled":true,"rental_uris":{"android":"levelo://app?vid=4e09e2f3-6329-4563-9a1f-79c5001029cb","ios":"levelo://app?vid=4e09e2f3-6329-4563-9a1f-79c5001029cb"},"vehicle_type_id":"4","last_reported":1745795374,"current_range_meters":7200,"station_id":"","pricing_plan_id":"cebpf4jnsgd1na2vs0mg"},{"bike_id":"647eceb0-396c-4b66-9b6a-15942a39bd89","system_id":"levelo_inurba_marseille","lat":43.24189,"lon":5.36362,"is_reserved":false,"is_disabled":false,"rental_uris":{"android":"levelo://app?vid=647eceb0-396c-4b66-9b6a-15942a39bd89","ios":"levelo://app?vid=647eceb0-396c-4b66-9b6a-15942a39bd89"},"vehicle_type_id":"4","last_reported":1745795374,"current_range_meters":8000,"station_id":"cpo36qri1sfpv3e86is0","pricing_plan_id":"cebpf4jnsgd1na2vs0mg"},{"bike_id":"49567d34-daf3-413f-837e-ee3ec76e01ef","system_id":"levelo_inurba_marseille","lat":43.25011,"lon":5.38967,"is_reserved":false,"is_disabled":false,"rental_uris":{"android":"levelo://app?vid=49567d34-daf3-413f-837e-ee3ec76e01ef","ios":"levelo://app?vid=49567d34-daf3-413f-837e-ee3ec76e01ef"},"vehicle_type_id":"4","last_reported":1745795374,"current_range_meters":8000,"station_id":"ce4bhgp2rcd13ifvqfd0","pricing_plan_id":"cebpf4jnsgd1na2vs0mg"},{"bike_id":"d207e63a-1126-4002-8817-099b9155cf2f","system_id":"levelo_inurba_marseille","lat":43.2621,"lon":5.37918,"is_reserved":false,"is_disabled":false,"rental_uris":{"android":"levelo://app?vid=d207e63a-1126-4002-8817-099b9155cf2f","ios":"levelo://app?vid=d207e63a-1126-4002-8817-099b9155cf2f"},"vehicle_type_id":"4","last_reported":1745795374,"current_range_meters":8000,"station_id":"ce4bhjp2rcd13ifvqg90","pricing_plan_id":"cebpf4jnsgd1na2vs0mg"},{"bike_id":"1e6778b1-a8b4-4d99-84b7-a446771adee7","system_id":"levelo_inurba_marseille","lat":43.23195,"lon":5.39992,"is_reserved":false,"is_disabled":false,"rental_uris":{"android":"levelo://app?vid=1e6778b1-a8b4-4d99-84b7-a446771adee7","ios":"levelo://app?vid=1e6778b1-a8b4-4d99-84b7-a446771adee7"},"vehicle_type_id":"4","last_reported":1745795374,"current_range_meters":8000,"station_id":"ce4bhn12rcd13ifvqgqg","pricing_plan_id":"cebpf4jnsgd1na2vs0mg"},{"bike_id":"c596ab54-4f89-4649-a442-12778ac8adc4","system_id":"levelo_inurba_marseille","lat":43.31714,"lon":5.43704,"is_reserved":false,"is_disabled":true,"rental_uris":{"android":"levelo://app?vid=c596ab54-4f89-4649-a442-12778ac8adc4","ios":"levelo://app?vid=c596ab54-4f89-4649-a442-12778ac8adc4"},"vehicle_type_id":"4","last_reported":1745795374,"current_range_meters":8000,"station_id":"ce4bhp92rcd13ifvqhcg","pricing_plan_id":"cebpf4jnsgd1na2vs0mg"},{"bike_id":"64d4c2a4-c8f7-4762-af83-98c376c7623f","system_id":"levelo_inurba_marseille","lat":43.21754,"lon":5.34608,"is_reserved":false,"is_disabled":false,"rental_uris":{"android":"levelo://app?vid=64d4c2a4-c8f7-4762-af83-98c376c7623f","ios":"levelo://app?vid=64d4c2a4-c8f7-4762-af83-98c376c7623f"},"vehicle_type_id":"4","last_reported":1745795374,"current_range_meters":8000,"station_id":"st_cvj6r9ubvosntc0bgbag","pricing_plan_id":"cebpf4jnsgd1na2vs0mg"},{"bike_id":"721ac694-ddc1-45a4-93fe-2aef08d4b564","system_id":"levelo_inurba_marseille","lat":43.24175,"lon":5.3639,"is_reserved":false,"is_disabled":false,"rental_uris":{"android":"levelo://app?vid=721ac694-ddc1-45a4-93fe-2aef08d4b564","ios":"levelo://app?vid=721ac694-ddc1-45a4-93fe-2aef08d4b564"},"vehicle_type_id":"4","last_reported":1745795374,"current_range_meters":8000,"station_id":"cpo36qri1sfpv3e86is0","pricing_plan_id":"cebpf4jnsgd1na2vs0mg"},{"bike_id":"374695c7-05ae-441b-90bd-19811cb2defe","system_id":"levelo_inurba_marseille","lat":43.30731,"lon":5.42444,"is_reserved":false,"is_disabled":false,"rental_uris":{"android":"levelo://app?vid=374695c7-05ae-441b-90bd-19811cb2defe","ios":"levelo://app?vid=374695c7-05ae-441b-90bd-19811cb2defe"},"vehicle_type_id":"4","last_reported":1745795374,"current_range_meters":8000,"station_id":"st_cvj6ca6bvosntc0bfgr0","pricing_plan_id":"cebpf4jnsgd1na2vs0mg"},{"bike_id":"5ddba1f1-1747-4179-b91f-b8778028cd60","system_id":"levelo_inurba_marseille","lat":43.256218,"lon":5.411935,"is_reserved":false,"is_disabled":false,"rental_uris":{"android":"levelo://app?vid=5ddba1f1-1747-4179-b91f-b8778028cd60","ios":"levelo://app?vid=5ddba1f1-1747-4179-b91f-b8778028cd60"},"vehicle_type_id":"4","last_reported":1745795374,"current_range_meters":8000,"station_id":"","pricing_plan_id":"cebpf4jnsgd1na2vs0mg"},{"bike_id":"ee4b8cc4-1bda-40d1-a6f9-1454781afd38","system_id":"levelo_inurba_marseille","lat":43.28669,"lon":5.36357,"is_reserved":false,"is_disabled":true,"rental_uris":{"android":"levelo://app?vid=ee4b8cc4-1bda-40d1-a6f9-1454781afd38","ios":"levelo://app?vid=ee4b8cc4-1bda-40d1-a6f9-1454781afd38"},"vehicle_type_id":"4","last_reported":1745795374,"current_range_meters":8400,"station_id":"ce4bhah2rcd13ifvqej0","pricing_plan_id":"cebpf4jnsgd1na2vs0mg"},{"bike_id":"7d727c0a-6c28-48dc-bed3-bc7b1f3ba7ba","system_id":"levelo_inurba_marseille","lat":43.29251,"lon":5.36455,"is_reserved":false,"is_disabled":true,"rental_uris":{"android":"levelo://app?vid=7d727c0a-6c28-48dc-bed3-bc7b1f3ba7ba","ios":"levelo://app?vid=7d727c0a-6c28-48dc-bed3-bc7b1f3ba7ba"},"vehicle_type_id":"4","last_reported":1745795374,"current_range_meters":8400,"station_id":"","pricing_plan_id":"cebpf4jnsgd1na2vs0mg"},{"bike_id":"7285c221-847b-46d9-b086-1b7053cfaa3d","system_id":"levelo_inurba_marseille","lat":43.24178,"lon":5.39718,"is_reserved":false,"is_disabled":false,"rental_uris":{"android":"levelo://app?vid=7285c221-847b-46d9-b086-1b7053cfaa3d","ios":"levelo://app?vid=7285c221-847b-46d9-b086-1b7053cfaa3d"},"vehicle_type_id":"4","last_reported":1745795374,"current_range_meters":8400,"station_id":"ce4bhn12rcd13ifvqgpg","pricing_plan_id":"cebpf4jnsgd1na2vs0mg"},{"bike_id":"056cfee0-a140-4e5d-9027-ab217124f277","system_id":"levelo_inurba_marseille","lat":43.288422,"lon":5.393103,"is_reserved":false,"is_disabled":false,"rental_uris":{"android":"levelo://app?vid=056cfee0-a140-4e5d-9027-ab217124f277","ios":"levelo://app?vid=056cfee0-a140-4e5d-9027-ab217124f277"},"vehicle_type_id":"4","last_reported":1745795374,"current_range_meters":8800,"station_id":"ce4bh2p2rcd13ifvqdi0","pricing_plan_id":"cebpf4jnsgd1na2vs0mg"},{"bike_id":"574c21c3-5de9-4bfa-a3aa-ac4e3698f0a7","system_id":"levelo_inurba_marseille","lat":43.27213,"lon":5.39188,"is_reserved":false,"is_disabled":true,"rental_uris":{"android":"levelo://app?vid=574c21c3-5de9-4bfa-a3aa-ac4e3698f0a7","ios":"levelo://app?vid=574c21c3-5de9-4bfa-a3aa-ac4e3698f0a7"},"vehicle_type_id":"4","last_reported":1745795374,"current_range_meters":8800,"station_id":"ce4bhhp2rcd13ifvqfm0","pricing_plan_id":"cebpf4jnsgd1na2vs0mg"},{"bike_id":"c1faacd0-1f5b-4c1f-996a-7cfb70349eca","system_id":"levelo_inurba_marseille","lat":43.25722,"lon":5.41092,"is_reserved":false,"is_disabled":false,"rental_uris":{"android":"levelo://app?vid=c1faacd0-1f5b-4c1f-996a-7cfb70349eca","ios":"levelo://app?vid=c1faacd0-1f5b-4c1f-996a-7cfb70349eca"},"vehicle_type_id":"4","last_reported":1745795374,"current_range_meters":8800,"station_id":"ce4bhkp2rcd13ifvqgd0","pricing_plan_id":"cebpf4jnsgd1na2vs0mg"},{"bike_id":"ab08e698-0e23-4805-8aaa-b39648eaffad","system_id":"levelo_inurba_marseille","lat":43.28482,"lon":5.38434,"is_reserved":false,"is_disabled":true,"rental_uris":{"android":"levelo://app?vid=ab08e698-0e23-4805-8aaa-b39648eaffad","ios":"levelo://app?vid=ab08e698-0e23-4805-8aaa-b39648eaffad"},"vehicle_type_id":"4","last_reported":1745795374,"current_range_meters":8800,"station_id":"ce4bh512rcd13ifvqe3g","pricing_plan_id":"cebpf4jnsgd1na2vs0mg"},{"bike_id":"aae164b7-1114-49aa-b004-978d7030ee91","system_id":"levelo_inurba_marseille","lat":43.25004,"lon":5.389136,"is_reserved":false,"is_disabled":false,"rental_uris":{"android":"levelo://app?vid=aae164b7-1114-49aa-b004-978d7030ee91","ios":"levelo://app?vid=aae164b7-1114-49aa-b004-978d7030ee91"},"vehicle_type_id":"4","last_reported":1745795374,"current_range_meters":8800,"station_id":"ce4bhgp2rcd13ifvqfd0","pricing_plan_id":"cebpf4jnsgd1na2vs0mg"},{"bike_id":"b9573801-f8cd-450a-943a-86a4083bccfa","system_id":"levelo_inurba_marseille","lat":43.25113,"lon":5.4031,"is_reserved":false,"is_disabled":false,"rental_uris":{"android":"levelo://app?vid=b9573801-f8cd-450a-943a-86a4083bccfa","ios":"levelo://app?vid=b9573801-f8cd-450a-943a-86a4083bccfa"},"vehicle_type_id":"4","last_reported":1745795374,"current_range_meters":9200,"station_id":"ce4bhlh2rcd13ifvqgig","pricing_plan_id":"cebpf4jnsgd1na2vs0mg"},{"bike_id":"0053b840-de47-4900-98aa-cc8575176b05","system_id":"levelo_inurba_marseille","lat":43.24173,"lon":5.36386,"is_reserved":false,"is_disabled":true,"rental_uris":{"android":"levelo://app?vid=0053b840-de47-4900-98aa-cc8575176b05","ios":"levelo://app?vid=0053b840-de47-4900-98aa-cc8575176b05"},"vehicle_type_id":"4","last_reported":1745795374,"current_range_meters":9200,"station_id":"cpo36qri1sfpv3e86is0","pricing_plan_id":"cebpf4jnsgd1na2vs0mg"},{"bike_id":"be7ee95f-4688-4915-84c2-2540acb2c17f","system_id":"levelo_inurba_marseille","lat":43.315,"lon":5.37299,"is_reserved":false,"is_disabled":false,"rental_uris":{"android":"levelo://app?vid=be7ee95f-4688-4915-84c2-2540acb2c17f","ios":"levelo://app?vid=be7ee95f-4688-4915-84c2-2540acb2c17f"},"vehicle_type_id":"4","last_reported":1745795374,"current_range_meters":9200,"station_id":"ce4bgt12rcd13ifvqcd0","pricing_plan_id":"cebpf4jnsgd1na2vs0mg"},{"bike_id":"554c7222-d609-4841-a832-33adb157bebb","system_id":"levelo_inurba_marseille","lat":43.211974,"lon":5.350791,"is_reserved":false,"is_disabled":false,"rental_uris":{"android":"levelo://app?vid=554c7222-d609-4841-a832-33adb157bebb","ios":"levelo://app?vid=554c7222-d609-4841-a832-33adb157bebb"},"vehicle_type_id":"4","last_reported":1745795374,"current_range_meters":9200,"station_id":"st_cvj6sg6p6f1abm77japg","pricing_plan_id":"cebpf4jnsgd1na2vs0mg"},{"bike_id":"66c89bb7-3b13-49ff-b8c5-0823b0bd91cb","system_id":"levelo_inurba_marseille","lat":43.26188,"lon":5.37432,"is_reserved":false,"is_disabled":true,"rental_uris":{"android":"levelo://app?vid=66c89bb7-3b13-49ff-b8c5-0823b0bd91cb","ios":"levelo://app?vid=66c89bb7-3b13-49ff-b8c5-0823b0bd91cb"},"vehicle_type_id":"4","last_reported":1745795374,"current_range_meters":9200,"station_id":"ce4bhgp2rcd13ifvqfc0","pricing_plan_id":"cebpf4jnsgd1na2vs0mg"},{"bike_id":"91474842-32bf-45c2-856a-80fd91d22aa5","system_id":"levelo_inurba_marseille","lat":43.21202,"lon":5.3508,"is_reserved":false,"is_disabled":false,"rental_uris":{"android":"levelo://app?vid=91474842-32bf-45c2-856a-80fd91d22aa5","ios":"levelo://app?vid=91474842-32bf-45c2-856a-80fd91d22aa5"},"vehicle_type_id":"4","last_reported":1745795374,"current_range_meters":9200,"station_id":"st_cvj6sg6p6f1abm77japg","pricing_plan_id":"cebpf4jnsgd1na2vs0mg"},{"bike_id":"3a98c0df-de3e-40ca-9407-20a56af778c7","system_id":"levelo_inurba_marseille","lat":43.251189,"lon":5.403205,"is_reserved":false,"is_disabled":false,"rental_uris":{"android":"levelo://app?vid=3a98c0df-de3e-40ca-9407-20a56af778c7","ios":"levelo://app?vid=3a98c0df-de3e-40ca-9407-20a56af778c7"},"vehicle_type_id":"4","last_reported":1745795374,"current_range_meters":9600,"station_id":"ce4bhlh2rcd13ifvqgig","pricing_plan_id":"cebpf4jnsgd1na2vs0mg"},{"bike_id":"30288cb7-e849-4b02-8ab1-96deccfd974f","system_id":"levelo_inurba_marseille","lat":43.23962,"lon":5.36629,"is_reserved":false,"is_disabled":false,"rental_uris":{"android":"levelo://app?vid=30288cb7-e849-4b02-8ab1-96deccfd974f","ios":"levelo://app?vid=30288cb7-e849-4b02-8ab1-96deccfd974f"},"vehicle_type_id":"4","last_reported":1745795374,"current_range_meters":9600,"station_id":"ce4bhi12rcd13ifvqfp0","pricing_plan_id":"cebpf4jnsgd1na2vs0mg"},{"bike_id":"ae1d96a0-b0a2-41e1-be14-e78907f9338a","system_id":"levelo_inurba_marseille","lat":43.29515,"lon":5.39388,"is_reserved":false,"is_disabled":true,"rental_uris":{"android":"levelo://app?vid=ae1d96a0-b0a2-41e1-be14-e78907f9338a","ios":"levelo://app?vid=ae1d96a0-b0a2-41e1-be14-e78907f9338a"},"vehicle_type_id":"4","last_reported":1745795374,"current_range_meters":9600,"station_id":"ce4bh292rcd13ifvqdf0","pricing_plan_id":"cebpf4jnsgd1na2vs0mg"},{"bike_id":"44530a1d-b48a-47f5-a929-63b20a3c24dc","system_id":"levelo_inurba_marseille","lat":43.2418,"lon":5.36389,"is_reserved":false,"is_disabled":false,"rental_uris":{"android":"levelo://app?vid=44530a1d-b48a-47f5-a929-63b20a3c24dc","ios":"levelo://app?vid=44530a1d-b48a-47f5-a929-63b20a3c24dc"},"vehicle_type_id":"4","last_reported":1745795374,"current_range_meters":9600,"station_id":"cpo36qri1sfpv3e86is0","pricing_plan_id":"cebpf4jnsgd1na2vs0mg"},{"bike_id":"af4a97e0-dded-4da0-9eba-7bcd01c44383","system_id":"levelo_inurba_marseille","lat":43.3031,"lon":5.39174,"is_reserved":false,"is_disabled":true,"rental_uris":{"android":"levelo://app?vid=af4a97e0-dded-4da0-9eba-7bcd01c44383","ios":"levelo://app?vid=af4a97e0-dded-4da0-9eba-7bcd01c44383"},"vehicle_type_id":"4","last_reported":1745795374,"current_range_meters":9600,"station_id":"ce4bgkh2rcd13ifvqbk0","pricing_plan_id":"cebpf4jnsgd1na2vs0mg"},{"bike_id":"21a5b78b-6652-49fa-a8ee-70531791ccf1","system_id":"levelo_inurba_marseille","lat":43.24906,"lon":5.42484,"is_reserved":false,"is_disabled":false,"rental_uris":{"android":"levelo://app?vid=21a5b78b-6652-49fa-a8ee-70531791ccf1","ios":"levelo://app?vid=21a5b78b-6652-49fa-a8ee-70531791ccf1"},"vehicle_type_id":"4","last_reported":1745795374,"current_range_meters":9600,"station_id":"","pricing_plan_id":"cebpf4jnsgd1na2vs0mg"},{"bike_id":"cd177435-770b-406f-8c88-405a89734813","system_id":"levelo_inurba_marseille","lat":43.28032,"lon":5.36951,"is_reserved":false,"is_disabled":false,"rental_uris":{"android":"levelo://app?vid=cd177435-770b-406f-8c88-405a89734813","ios":"levelo://app?vid=cd177435-770b-406f-8c88-405a89734813"},"vehicle_type_id":"4","last_reported":1745795374,"current_range_meters":9600,"station_id":"ce4bha12rcd13ifvqef0","pricing_plan_id":"cebpf4jnsgd1na2vs0mg"},{"bike_id":"470d2f4f-18f9-40aa-a6ee-c93cc79026b0","system_id":"levelo_inurba_marseille","lat":43.30317,"lon":5.40434,"is_reserved":false,"is_disabled":false,"rental_uris":{"android":"levelo://app?vid=470d2f4f-18f9-40aa-a6ee-c93cc79026b0","ios":"levelo://app?vid=470d2f4f-18f9-40aa-a6ee-c93cc79026b0"},"vehicle_type_id":"4","last_reported":1745795374,"current_range_meters":9600,"station_id":"ce4bh012rcd13ifvqd10","pricing_plan_id":"cebpf4jnsgd1na2vs0mg"},{"bike_id":"78489e0f-0b4a-4de4-938c-aa05f1951ddd","system_id":"levelo_inurba_marseille","lat":43.28147,"lon":5.42628,"is_reserved":false,"is_disabled":false,"rental_uris":{"android":"levelo://app?vid=78489e0f-0b4a-4de4-938c-aa05f1951ddd","ios":"levelo://app?vid=78489e0f-0b4a-4de4-938c-aa05f1951ddd"},"vehicle_type_id":"4","last_reported":1745795374,"current_range_meters":9600,"station_id":"ce4bhnh2rcd13ifvqgug","pricing_plan_id":"cebpf4jnsgd1na2vs0mg"},{"bike_id":"8840b7d1-badd-45b4-91db-50feaeb6b7ed","system_id":"levelo_inurba_marseille","lat":43.31053,"lon":5.36698,"is_reserved":false,"is_disabled":false,"rental_uris":{"android":"levelo://app?vid=8840b7d1-badd-45b4-91db-50feaeb6b7ed","ios":"levelo://app?vid=8840b7d1-badd-45b4-91db-50feaeb6b7ed"},"vehicle_type_id":"4","last_reported":1745795374,"current_range_meters":9600,"station_id":"","pricing_plan_id":"cebpf4jnsgd1na2vs0mg"},{"bike_id":"a08e6535-7d97-4f82-b424-5e6daf2d2362","system_id":"levelo_inurba_marseille","lat":43.29525,"lon":5.39374,"is_reserved":false,"is_disabled":true,"rental_uris":{"android":"levelo://app?vid=a08e6535-7d97-4f82-b424-5e6daf2d2362","ios":"levelo://app?vid=a08e6535-7d97-4f82-b424-5e6daf2d2362"},"vehicle_type_id":"4","last_reported":1745795374,"current_range_meters":10000,"station_id":"ce4bh292rcd13ifvqdf0","pricing_plan_id":"cebpf4jnsgd1na2vs0mg"},{"bike_id":"42714ffe-c42c-407f-8e86-4a0c4f465a7a","system_id":"levelo_inurba_marseille","lat":43.24573,"lon":5.39529,"is_reserved":false,"is_disabled":false,"rental_uris":{"android":"levelo://app?vid=42714ffe-c42c-407f-8e86-4a0c4f465a7a","ios":"levelo://app?vid=42714ffe-c42c-407f-8e86-4a0c4f465a7a"},"vehicle_type_id":"4","last_reported":1745795374,"current_range_meters":10000,"station_id":"ce4bhlp2rcd13ifvqgjg","pricing_plan_id":"cebpf4jnsgd1na2vs0mg"},{"bike_id":"e1b84f42-92bc-49b3-afbe-e0f83fe8369e","system_id":"levelo_inurba_marseille","lat":43.23176,"lon":5.39969,"is_reserved":false,"is_disabled":false,"rental_uris":{"android":"levelo://app?vid=e1b84f42-92bc-49b3-afbe-e0f83fe8369e","ios":"levelo://app?vid=e1b84f42-92bc-49b3-afbe-e0f83fe8369e"},"vehicle_type_id":"4","last_reported":1745795374,"current_range_meters":10000,"station_id":"ce4bhn12rcd13ifvqgqg","pricing_plan_id":"cebpf4jnsgd1na2vs0mg"},{"bike_id":"980a0cb2-d545-4925-bccb-f686b0fe7d5a","system_id":"levelo_inurba_marseille","lat":43.2926,"lon":5.40894,"is_reserved":false,"is_disabled":false,"rental_uris":{"android":"levelo://app?vid=980a0cb2-d545-4925-bccb-f686b0fe7d5a","ios":"levelo://app?vid=980a0cb2-d545-4925-bccb-f686b0fe7d5a"},"vehicle_type_id":"4","last_reported":1745795374,"current_range_meters":10000,"station_id":"ce4bh192rcd13ifvqdc0","pricing_plan_id":"cebpf4jnsgd1na2vs0mg"},{"bike_id":"356b76a1-af1a-4bef-951e-98e5b057a721","system_id":"levelo_inurba_marseille","lat":43.292591,"lon":5.384324,"is_reserved":false,"is_disabled":true,"rental_uris":{"android":"levelo://app?vid=356b76a1-af1a-4bef-951e-98e5b057a721","ios":"levelo://app?vid=356b76a1-af1a-4bef-951e-98e5b057a721"},"vehicle_type_id":"4","last_reported":1745795374,"current_range_meters":10800,"station_id":"ce4bh692rcd13ifvqea0","pricing_plan_id":"cebpf4jnsgd1na2vs0mg"},{"bike_id":"a2e988ca-4cad-46d4-8096-1d1b1de4b0e4","system_id":"levelo_inurba_marseille","lat":43.323602,"lon":5.367545,"is_reserved":false,"is_disabled":false,"rental_uris":{"android":"levelo://app?vid=a2e988ca-4cad-46d4-8096-1d1b1de4b0e4","ios":"levelo://app?vid=a2e988ca-4cad-46d4-8096-1d1b1de4b0e4"},"vehicle_type_id":"4","last_reported":1745795374,"current_range_meters":10800,"station_id":"ce4bhsh2rcd13ifvqi2g","pricing_plan_id":"cebpf4jnsgd1na2vs0mg"},{"bike_id":"44340736-56d7-476e-8588-833b330433aa","system_id":"levelo_inurba_marseille","lat":43.269158,"lon":5.393532,"is_reserved":false,"is_disabled":false,"rental_uris":{"android":"levelo://app?vid=44340736-56d7-476e-8588-833b330433aa","ios":"levelo://app?vid=44340736-56d7-476e-8588-833b330433aa"},"vehicle_type_id":"4","last_reported":1745795374,"current_range_meters":10800,"station_id":"ce4bhah2rcd13ifvqei0","pricing_plan_id":"cebpf4jnsgd1na2vs0mg"},{"bike_id":"8235d872-096e-497c-a719-c2fcbf16281e","system_id":"levelo_inurba_marseille","lat":43.2466,"lon":5.38903,"is_reserved":false,"is_disabled":false,"rental_uris":{"android":"levelo://app?vid=8235d872-096e-497c-a719-c2fcbf16281e","ios":"levelo://app?vid=8235d872-096e-497c-a719-c2fcbf16281e"},"vehicle_type_id":"4","last_reported":1745795374,"current_range_meters":10800,"station_id":"ce4bhg12rcd13ifvqf60","pricing_plan_id":"cebpf4jnsgd1na2vs0mg"},{"bike_id":"43f36a44-4647-4264-9432-e11f11a1cf95","system_id":"levelo_inurba_marseille","lat":43.25583,"lon":5.38226,"is_reserved":false,"is_disabled":false,"rental_uris":{"android":"levelo://app?vid=43f36a44-4647-4264-9432-e11f11a1cf95","ios":"levelo://app?vid=43f36a44-4647-4264-9432-e11f11a1cf95"},"vehicle_type_id":"4","last_reported":1745795374,"current_range_meters":10800,"station_id":"ce4bhih2rcd13ifvqfs0","pricing_plan_id":"cebpf4jnsgd1na2vs0mg"},{"bike_id":"2702eb71-50fe-493a-b07f-fb844f7f5b60","system_id":"levelo_inurba_marseille","lat":43.31273,"lon":5.40175,"is_reserved":false,"is_disabled":false,"rental_uris":{"android":"levelo://app?vid=2702eb71-50fe-493a-b07f-fb844f7f5b60","ios":"levelo://app?vid=2702eb71-50fe-493a-b07f-fb844f7f5b60"},"vehicle_type_id":"4","last_reported":1745795374,"current_range_meters":10800,"station_id":"ce4bh092rcd13ifvqd30","pricing_plan_id":"cebpf4jnsgd1na2vs0mg"},{"bike_id":"560f12bb-1614-4d7c-b78e-ccf5bdec9ea6","system_id":"levelo_inurba_marseille","lat":43.28462,"lon":5.35891,"is_reserved":false,"is_disabled":true,"rental_uris":{"android":"levelo://app?vid=560f12bb-1614-4d7c-b78e-ccf5bdec9ea6","ios":"levelo://app?vid=560f12bb-1614-4d7c-b78e-ccf5bdec9ea6"},"vehicle_type_id":"4","last_reported":1745795374,"current_range_meters":10800,"station_id":"ce4bhah2rcd13ifvqei0","pricing_plan_id":"cebpf4jnsgd1na2vs0mg"},{"bike_id":"3ccac05c-9dfe-40ab-8170-c07c58eafdc3","system_id":"levelo_inurba_marseille","lat":43.26225,"lon":5.40478,"is_reserved":false,"is_disabled":false,"rental_uris":{"android":"levelo://app?vid=3ccac05c-9dfe-40ab-8170-c07c58eafdc3","ios":"levelo://app?vid=3ccac05c-9dfe-40ab-8170-c07c58eafdc3"},"vehicle_type_id":"4","last_reported":1745795374,"current_range_meters":11200,"station_id":"ce4bhmh2rcd13ifvqgmg","pricing_plan_id":"cebpf4jnsgd1na2vs0mg"},{"bike_id":"7626ed72-c0f8-4eb9-adb3-f027b3fcb3d9","system_id":"levelo_inurba_marseille","lat":43.24682,"lon":5.38152,"is_reserved":false,"is_disabled":false,"rental_uris":{"android":"levelo://app?vid=7626ed72-c0f8-4eb9-adb3-f027b3fcb3d9","ios":"levelo://app?vid=7626ed72-c0f8-4eb9-adb3-f027b3fcb3d9"},"vehicle_type_id":"4","last_reported":1745795374,"current_range_meters":11200,"station_id":"ce4bhih2rcd13ifvqfr0","pricing_plan_id":"cebpf4jnsgd1na2vs0mg"},{"bike_id":"717cabec-6d1e-4fbd-94f4-9e9366fab599","system_id":"levelo_inurba_marseille","lat":43.22509,"lon":5.34779,"is_reserved":false,"is_disabled":true,"rental_uris":{"android":"levelo://app?vid=717cabec-6d1e-4fbd-94f4-9e9366fab599","ios":"levelo://app?vid=717cabec-6d1e-4fbd-94f4-9e9366fab599"},"vehicle_type_id":"4","last_reported":1745795374,"current_range_meters":11600,"station_id":"st_cvj5dfep6f1abm77gieg","pricing_plan_id":"cebpf4jnsgd1na2vs0mg"},{"bike_id":"028b4836-3f4a-471a-8e02-46fac58e673e","system_id":"levelo_inurba_marseille","lat":43.28937,"lon":5.39611,"is_reserved":false,"is_disabled":false,"rental_uris":{"android":"levelo://app?vid=028b4836-3f4a-471a-8e02-46fac58e673e","ios":"levelo://app?vid=028b4836-3f4a-471a-8e02-46fac58e673e"},"vehicle_type_id":"4","last_reported":1745795374,"current_range_meters":11600,"station_id":"ce4bh3h2rcd13ifvqdn0","pricing_plan_id":"cebpf4jnsgd1na2vs0mg"},{"bike_id":"bab391eb-e982-4066-b94b-52cc02253741","system_id":"levelo_inurba_marseille","lat":43.30245,"lon":5.40057,"is_reserved":false,"is_disabled":true,"rental_uris":{"android":"levelo://app?vid=bab391eb-e982-4066-b94b-52cc02253741","ios":"levelo://app?vid=bab391eb-e982-4066-b94b-52cc02253741"},"vehicle_type_id":"4","last_reported":1745795374,"current_range_meters":11600,"station_id":"ce4bgvh2rcd13ifvqcs0","pricing_plan_id":"cebpf4jnsgd1na2vs0mg"},{"bike_id":"57ebd52c-bbc8-4a4d-8d80-2da8f6250dbd","system_id":"levelo_inurba_marseille","lat":43.278196,"lon":5.407199,"is_reserved":false,"is_disabled":true,"rental_uris":{"android":"levelo://app?vid=57ebd52c-bbc8-4a4d-8d80-2da8f6250dbd","ios":"levelo://app?vid=57ebd52c-bbc8-4a4d-8d80-2da8f6250dbd"},"vehicle_type_id":"4","last_reported":1745795374,"current_range_meters":11600,"station_id":"ce4bhnh2rcd13ifvqgtg","pricing_plan_id":"cebpf4jnsgd1na2vs0mg"},{"bike_id":"6303aeb8-901b-4f8f-8588-7c345791c8ea","system_id":"levelo_inurba_marseille","lat":43.247302,"lon":5.412185,"is_reserved":false,"is_disabled":false,"rental_uris":{"android":"levelo://app?vid=6303aeb8-901b-4f8f-8588-7c345791c8ea","ios":"levelo://app?vid=6303aeb8-901b-4f8f-8588-7c345791c8ea"},"vehicle_type_id":"4","last_reported":1745795374,"current_range_meters":12000,"station_id":"","pricing_plan_id":"cebpf4jnsgd1na2vs0mg"},{"bike_id":"6e7a0261-66ff-4ef0-9e0a-3171efd10510","system_id":"levelo_inurba_marseille","lat":43.2558,"lon":5.38238,"is_reserved":false,"is_disabled":false,"rental_uris":{"android":"levelo://app?vid=6e7a0261-66ff-4ef0-9e0a-3171efd10510","ios":"levelo://app?vid=6e7a0261-66ff-4ef0-9e0a-3171efd10510"},"vehicle_type_id":"4","last_reported":1745795374,"current_range_meters":12000,"station_id":"ce4bhih2rcd13ifvqfs0","pricing_plan_id":"cebpf4jnsgd1na2vs0mg"},{"bike_id":"6d593226-0a2e-46d4-8de3-9c8bd9d3e674","system_id":"levelo_inurba_marseille","lat":43.29599,"lon":5.37728,"is_reserved":false,"is_disabled":true,"rental_uris":{"android":"levelo://app?vid=6d593226-0a2e-46d4-8de3-9c8bd9d3e674","ios":"levelo://app?vid=6d593226-0a2e-46d4-8de3-9c8bd9d3e674"},"vehicle_type_id":"4","last_reported":1745795374,"current_range_meters":12000,"station_id":"ce4bgi92rcd13ifvqb90","pricing_plan_id":"cebpf4jnsgd1na2vs0mg"},{"bike_id":"03bd42f6-231b-41f0-967c-979162658d23","system_id":"levelo_inurba_marseille","lat":43.24675,"lon":5.38164,"is_reserved":false,"is_disabled":false,"rental_uris":{"android":"levelo://app?vid=03bd42f6-231b-41f0-967c-979162658d23","ios":"levelo://app?vid=03bd42f6-231b-41f0-967c-979162658d23"},"vehicle_type_id":"4","last_reported":1745795374,"current_range_meters":12400,"station_id":"ce4bhih2rcd13ifvqfr0","pricing_plan_id":"cebpf4jnsgd1na2vs0mg"},{"bike_id":"a5903229-b31f-421f-9c07-ee7e22bcdbb0","system_id":"levelo_inurba_marseille","lat":43.211951,"lon":5.350727,"is_reserved":false,"is_disabled":false,"rental_uris":{"android":"levelo://app?vid=a5903229-b31f-421f-9c07-ee7e22bcdbb0","ios":"levelo://app?vid=a5903229-b31f-421f-9c07-ee7e22bcdbb0"},"vehicle_type_id":"4","last_reported":1745795374,"current_range_meters":12400,"station_id":"","pricing_plan_id":"cebpf4jnsgd1na2vs0mg"},{"bike_id":"3d934169-6946-46cc-87a4-ce5d03b77075","system_id":"levelo_inurba_marseille","lat":43.21749,"lon":5.34597,"is_reserved":false,"is_disabled":false,"rental_uris":{"android":"levelo://app?vid=3d934169-6946-46cc-87a4-ce5d03b77075","ios":"levelo://app?vid=3d934169-6946-46cc-87a4-ce5d03b77075"},"vehicle_type_id":"4","last_reported":1745795374,"current_range_meters":12400,"station_id":"st_cvj6r9ubvosntc0bgbag","pricing_plan_id":"cebpf4jnsgd1na2vs0mg"},{"bike_id":"8dcd26eb-d81c-401c-b1d8-44b4314aedc3","system_id":"levelo_inurba_marseille","lat":43.31077,"lon":5.38351,"is_reserved":false,"is_disabled":false,"rental_uris":{"android":"levelo://app?vid=8dcd26eb-d81c-401c-b1d8-44b4314aedc3","ios":"levelo://app?vid=8dcd26eb-d81c-401c-b1d8-44b4314aedc3"},"vehicle_type_id":"4","last_reported":1745795374,"current_range_meters":12400,"station_id":"ce4bgv92rcd13ifvqcr0","pricing_plan_id":"cebpf4jnsgd1na2vs0mg"},{"bike_id":"f10c3916-d123-460c-9e9a-201695a357bc","system_id":"levelo_inurba_marseille","lat":43.28152,"lon":5.4263,"is_reserved":false,"is_disabled":false,"rental_uris":{"android":"levelo://app?vid=f10c3916-d123-460c-9e9a-201695a357bc","ios":"levelo://app?vid=f10c3916-d123-460c-9e9a-201695a357bc"},"vehicle_type_id":"4","last_reported":1745795374,"current_range_meters":12400,"station_id":"ce4bhnh2rcd13ifvqgug","pricing_plan_id":"cebpf4jnsgd1na2vs0mg"},{"bike_id":"1fe84233-d6e6-400c-ba7e-765c53207954","system_id":"levelo_inurba_marseille","lat":43.25707,"lon":5.39942,"is_reserved":false,"is_disabled":false,"rental_uris":{"android":"levelo://app?vid=1fe84233-d6e6-400c-ba7e-765c53207954","ios":"levelo://app?vid=1fe84233-d6e6-400c-ba7e-765c53207954"},"vehicle_type_id":"4","last_reported":1745795374,"current_range_meters":12400,"station_id":"","pricing_plan_id":"cebpf4jnsgd1na2vs0mg"},{"bike_id":"b330c3b4-8203-49c9-a4bf-5485d09a1d2d","system_id":"levelo_inurba_marseille","lat":43.29485,"lon":5.39599,"is_reserved":false,"is_disabled":true,"rental_uris":{"android":"levelo://app?vid=b330c3b4-8203-49c9-a4bf-5485d09a1d2d","ios":"levelo://app?vid=b330c3b4-8203-49c9-a4bf-5485d09a1d2d"},"vehicle_type_id":"4","last_reported":1745795374,"current_range_meters":12400,"station_id":"ce4bh3h2rcd13ifvqdo0","pricing_plan_id":"cebpf4jnsgd1na2vs0mg"},{"bike_id":"0d777af5-4166-475a-a6b9-6a0197032592","system_id":"levelo_inurba_marseille","lat":43.2326,"lon":5.35211,"is_reserved":false,"is_disabled":false,"rental_uris":{"android":"levelo://app?vid=0d777af5-4166-475a-a6b9-6a0197032592","ios":"levelo://app?vid=0d777af5-4166-475a-a6b9-6a0197032592"},"vehicle_type_id":"4","last_reported":1745795374,"current_range_meters":12800,"station_id":"","pricing_plan_id":"cebpf4jnsgd1na2vs0mg"},{"bike_id":"89e7ab08-7fc9-416d-a96f-130de8b43266","system_id":"levelo_inurba_marseille","lat":43.33736,"lon":5.39209,"is_reserved":false,"is_disabled":false,"rental_uris":{"android":"levelo://app?vid=89e7ab08-7fc9-416d-a96f-130de8b43266","ios":"levelo://app?vid=89e7ab08-7fc9-416d-a96f-130de8b43266"},"vehicle_type_id":"4","last_reported":1745795374,"current_range_meters":12800,"station_id":"ce4bhr92rcd13ifvqhsg","pricing_plan_id":"cebpf4jnsgd1na2vs0mg"},{"bike_id":"a6ef5e73-9c2a-4c3a-b853-48e28d6dc161","system_id":"levelo_inurba_marseille","lat":43.317405,"lon":5.437014,"is_reserved":false,"is_disabled":true,"rental_uris":{"android":"levelo://app?vid=a6ef5e73-9c2a-4c3a-b853-48e28d6dc161","ios":"levelo://app?vid=a6ef5e73-9c2a-4c3a-b853-48e28d6dc161"},"vehicle_type_id":"4","last_reported":1745795374,"current_range_meters":12800,"station_id":"ce4bhp92rcd13ifvqhcg","pricing_plan_id":"cebpf4jnsgd1na2vs0mg"},{"bike_id":"06b75956-2687-4df9-b215-943b6923c19a","system_id":"levelo_inurba_marseille","lat":43.29266,"lon":5.40904,"is_reserved":false,"is_disabled":false,"rental_uris":{"android":"levelo://app?vid=06b75956-2687-4df9-b215-943b6923c19a","ios":"levelo://app?vid=06b75956-2687-4df9-b215-943b6923c19a"},"vehicle_type_id":"4","last_reported":1745795374,"current_range_meters":12800,"station_id":"ce4bh192rcd13ifvqdc0","pricing_plan_id":"cebpf4jnsgd1na2vs0mg"},{"bike_id":"99be1414-58ff-4752-826b-d0dcc4401711","system_id":"levelo_inurba_marseille","lat":43.24828,"lon":5.37452,"is_reserved":false,"is_disabled":true,"rental_uris":{"android":"levelo://app?vid=99be1414-58ff-4752-826b-d0dcc4401711","ios":"levelo://app?vid=99be1414-58ff-4752-826b-d0dcc4401711"},"vehicle_type_id":"4","last_reported":1745795374,"current_range_meters":12800,"station_id":"ce4bhgh2rcd13ifvqfb0","pricing_plan_id":"cebpf4jnsgd1na2vs0mg"},{"bike_id":"a50377f4-2af4-45a3-9454-ff9685a35866","system_id":"levelo_inurba_marseille","lat":43.31709,"lon":5.43712,"is_reserved":false,"is_disabled":false,"rental_uris":{"android":"levelo://app?vid=a50377f4-2af4-45a3-9454-ff9685a35866","ios":"levelo://app?vid=a50377f4-2af4-45a3-9454-ff9685a35866"},"vehicle_type_id":"4","last_reported":1745795374,"current_range_meters":13600,"station_id":"ce4bhp92rcd13ifvqhcg","pricing_plan_id":"cebpf4jnsgd1na2vs0mg"},{"bike_id":"3a329fe9-deb6-4729-bbed-973ea17872b9","system_id":"levelo_inurba_marseille","lat":43.2512,"lon":5.40322,"is_reserved":false,"is_disabled":false,"rental_uris":{"android":"levelo://app?vid=3a329fe9-deb6-4729-bbed-973ea17872b9","ios":"levelo://app?vid=3a329fe9-deb6-4729-bbed-973ea17872b9"},"vehicle_type_id":"4","last_reported":1745795374,"current_range_meters":14000,"station_id":"ce4bhlh2rcd13ifvqgig","pricing_plan_id":"cebpf4jnsgd1na2vs0mg"},{"bike_id":"ed71a3f8-b6a3-4b3a-a730-5a8d95677d94","system_id":"levelo_inurba_marseille","lat":43.2884,"lon":5.35862,"is_reserved":false,"is_disabled":false,"rental_uris":{"android":"levelo://app?vid=ed71a3f8-b6a3-4b3a-a730-5a8d95677d94","ios":"levelo://app?vid=ed71a3f8-b6a3-4b3a-a730-5a8d95677d94"},"vehicle_type_id":"4","last_reported":1745795374,"current_range_meters":14400,"station_id":"ce4bhb12rcd13ifvqem0","pricing_plan_id":"cebpf4jnsgd1na2vs0mg"},{"bike_id":"f360aaad-e350-49e9-8191-58ce4616eb13","system_id":"levelo_inurba_marseille","lat":43.211961,"lon":5.350961,"is_reserved":false,"is_disabled":true,"rental_uris":{"android":"levelo://app?vid=f360aaad-e350-49e9-8191-58ce4616eb13","ios":"levelo://app?vid=f360aaad-e350-49e9-8191-58ce4616eb13"},"vehicle_type_id":"4","last_reported":1745795374,"current_range_meters":14400,"station_id":"st_cvj6sg6p6f1abm77japg","pricing_plan_id":"cebpf4jnsgd1na2vs0mg"},{"bike_id":"9979a00e-2e44-430d-a52a-2c59b70df091","system_id":"levelo_inurba_marseille","lat":43.23177,"lon":5.39974,"is_reserved":false,"is_disabled":false,"rental_uris":{"android":"levelo://app?vid=9979a00e-2e44-430d-a52a-2c59b70df091","ios":"levelo://app?vid=9979a00e-2e44-430d-a52a-2c59b70df091"},"vehicle_type_id":"4","last_reported":1745795374,"current_range_meters":14400,"station_id":"ce4bhn12rcd13ifvqgqg","pricing_plan_id":"cebpf4jnsgd1na2vs0mg"},{"bike_id":"d4ce7eab-d2e5-4dd9-bd61-f458b6331907","system_id":"levelo_inurba_marseille","lat":43.31375,"lon":5.38499,"is_reserved":false,"is_disabled":false,"rental_uris":{"android":"levelo://app?vid=d4ce7eab-d2e5-4dd9-bd61-f458b6331907","ios":"levelo://app?vid=d4ce7eab-d2e5-4dd9-bd61-f458b6331907"},"vehicle_type_id":"4","last_reported":1745795374,"current_range_meters":14400,"station_id":"ce4bgt92rcd13ifvqcf0","pricing_plan_id":"cebpf4jnsgd1na2vs0mg"},{"bike_id":"45d09500-4580-4832-b2a0-d173ab8318b9","system_id":"levelo_inurba_marseille","lat":43.32479,"lon":5.36616,"is_reserved":false,"is_disabled":false,"rental_uris":{"android":"levelo://app?vid=45d09500-4580-4832-b2a0-d173ab8318b9","ios":"levelo://app?vid=45d09500-4580-4832-b2a0-d173ab8318b9"},"vehicle_type_id":"4","last_reported":1745795374,"current_range_meters":14400,"station_id":"ce4bhs12rcd13ifvqhvg","pricing_plan_id":"cebpf4jnsgd1na2vs0mg"},{"bike_id":"13b849e7-ec86-4245-aa21-287dc6e1e5ba","system_id":"levelo_inurba_marseille","lat":43.25105,"lon":5.40333,"is_reserved":false,"is_disabled":false,"rental_uris":{"android":"levelo://app?vid=13b849e7-ec86-4245-aa21-287dc6e1e5ba","ios":"levelo://app?vid=13b849e7-ec86-4245-aa21-287dc6e1e5ba"},"vehicle_type_id":"4","last_reported":1745795374,"current_range_meters":14400,"station_id":"ce4bhlh2rcd13ifvqgig","pricing_plan_id":"cebpf4jnsgd1na2vs0mg"},{"bike_id":"4d30c610-c7f7-4753-955d-632d26f85af3","system_id":"levelo_inurba_marseille","lat":43.30123,"lon":5.39828,"is_reserved":false,"is_disabled":false,"rental_uris":{"android":"levelo://app?vid=4d30c610-c7f7-4753-955d-632d26f85af3","ios":"levelo://app?vid=4d30c610-c7f7-4753-955d-632d26f85af3"},"vehicle_type_id":"4","last_reported":1745795374,"current_range_meters":14400,"station_id":"ce4bh0h2rcd13ifvqd40","pricing_plan_id":"cebpf4jnsgd1na2vs0mg"},{"bike_id":"647355cc-822f-41e4-b0fe-856d5a69a337","system_id":"levelo_inurba_marseille","lat":43.2119,"lon":5.35064,"is_reserved":false,"is_disabled":false,"rental_uris":{"android":"levelo://app?vid=647355cc-822f-41e4-b0fe-856d5a69a337","ios":"levelo://app?vid=647355cc-822f-41e4-b0fe-856d5a69a337"},"vehicle_type_id":"4","last_reported":1745795374,"current_range_meters":14800,"station_id":"st_cvj6sg6p6f1abm77japg","pricing_plan_id":"cebpf4jnsgd1na2vs0mg"},{"bike_id":"4046a82f-66e8-4b55-bd0a-356edea772d8","system_id":"levelo_inurba_marseille","lat":43.30604,"lon":5.38176,"is_reserved":false,"is_disabled":false,"rental_uris":{"android":"levelo://app?vid=4046a82f-66e8-4b55-bd0a-356edea772d8","ios":"levelo://app?vid=4046a82f-66e8-4b55-bd0a-356edea772d8"},"vehicle_type_id":"4","last_reported":1745795374,"current_range_meters":14800,"station_id":"","pricing_plan_id":"cebpf4jnsgd1na2vs0mg"},{"bike_id":"97f36b89-3f79-4d54-80b9-0001fe6da6bb","system_id":"levelo_inurba_marseille","lat":43.32445,"lon":5.39134,"is_reserved":false,"is_disabled":true,"rental_uris":{"android":"levelo://app?vid=97f36b89-3f79-4d54-80b9-0001fe6da6bb","ios":"levelo://app?vid=97f36b89-3f79-4d54-80b9-0001fe6da6bb"},"vehicle_type_id":"4","last_reported":1745795374,"current_range_meters":14800,"station_id":"","pricing_plan_id":"cebpf4jnsgd1na2vs0mg"},{"bike_id":"a1300fa1-43f7-47bc-be68-1621591c429e","system_id":"levelo_inurba_marseille","lat":43.25023,"lon":5.38892,"is_reserved":false,"is_disabled":true,"rental_uris":{"android":"levelo://app?vid=a1300fa1-43f7-47bc-be68-1621591c429e","ios":"levelo://app?vid=a1300fa1-43f7-47bc-be68-1621591c429e"},"vehicle_type_id":"4","last_reported":1745795374,"current_range_meters":14800,"station_id":"ce4bhgp2rcd13ifvqfd0","pricing_plan_id":"cebpf4jnsgd1na2vs0mg"},{"bike_id":"3671c048-a27f-4653-8e90-69d883fe0063","system_id":"levelo_inurba_marseille","lat":43.28701,"lon":5.39981,"is_reserved":false,"is_disabled":false,"rental_uris":{"android":"levelo://app?vid=3671c048-a27f-4653-8e90-69d883fe0063","ios":"levelo://app?vid=3671c048-a27f-4653-8e90-69d883fe0063"},"vehicle_type_id":"4","last_reported":1745795374,"current_range_meters":14800,"station_id":"ce4bho92rcd13ifvqh3g","pricing_plan_id":"cebpf4jnsgd1na2vs0mg"},{"bike_id":"f17b8bc9-cb61-461c-a30c-7a4a35ea4852","system_id":"levelo_inurba_marseille","lat":43.2846,"lon":5.35867,"is_reserved":false,"is_disabled":false,"rental_uris":{"android":"levelo://app?vid=f17b8bc9-cb61-461c-a30c-7a4a35ea4852","ios":"levelo://app?vid=f17b8bc9-cb61-461c-a30c-7a4a35ea4852"},"vehicle_type_id":"4","last_reported":1745795374,"current_range_meters":15200,"station_id":"ce4bhah2rcd13ifvqei0","pricing_plan_id":"cebpf4jnsgd1na2vs0mg"},{"bike_id":"3f5f2c9a-9e49-4b78-9b1b-0708da9fec39","system_id":"levelo_inurba_marseille","lat":43.22496,"lon":5.34781,"is_reserved":false,"is_disabled":false,"rental_uris":{"android":"levelo://app?vid=3f5f2c9a-9e49-4b78-9b1b-0708da9fec39","ios":"levelo://app?vid=3f5f2c9a-9e49-4b78-9b1b-0708da9fec39"},"vehicle_type_id":"4","last_reported":1745795374,"current_range_meters":16400,"station_id":"st_cvj5dfep6f1abm77gieg","pricing_plan_id":"cebpf4jnsgd1na2vs0mg"},{"bike_id":"c17b80ad-6153-4325-ab92-0f28bc4dfaa9","system_id":"levelo_inurba_marseille","lat":43.25585,"lon":5.38236,"is_reserved":false,"is_disabled":false,"rental_uris":{"android":"levelo://app?vid=c17b80ad-6153-4325-ab92-0f28bc4dfaa9","ios":"levelo://app?vid=c17b80ad-6153-4325-ab92-0f28bc4dfaa9"},"vehicle_type_id":"4","last_reported":1745795374,"current_range_meters":16000,"station_id":"ce4bhih2rcd13ifvqfs0","pricing_plan_id":"cebpf4jnsgd1na2vs0mg"},{"bike_id":"e492037e-60a9-4864-84d6-2fe9ea031f90","system_id":"levelo_inurba_marseille","lat":43.27982,"lon":5.38761,"is_reserved":false,"is_disabled":false,"rental_uris":{"android":"levelo://app?vid=e492037e-60a9-4864-84d6-2fe9ea031f90","ios":"levelo://app?vid=e492037e-60a9-4864-84d6-2fe9ea031f90"},"vehicle_type_id":"4","last_reported":1745795374,"current_range_meters":16000,"station_id":"ce4bhg12rcd13ifvqf80","pricing_plan_id":"cebpf4jnsgd1na2vs0mg"},{"bike_id":"fbe5fa9c-e8fb-46cf-9f80-4c4dab68ff13","system_id":"levelo_inurba_marseille","lat":43.32481,"lon":5.36587,"is_reserved":false,"is_disabled":false,"rental_uris":{"android":"levelo://app?vid=fbe5fa9c-e8fb-46cf-9f80-4c4dab68ff13","ios":"levelo://app?vid=fbe5fa9c-e8fb-46cf-9f80-4c4dab68ff13"},"vehicle_type_id":"4","last_reported":1745795374,"current_range_meters":16000,"station_id":"ce4bhs12rcd13ifvqhvg","pricing_plan_id":"cebpf4jnsgd1na2vs0mg"},{"bike_id":"97fd7a4c-36e8-401d-b12d-1b4015a01ebe","system_id":"levelo_inurba_marseille","lat":43.26551,"lon":5.42197,"is_reserved":false,"is_disabled":false,"rental_uris":{"android":"levelo://app?vid=97fd7a4c-36e8-401d-b12d-1b4015a01ebe","ios":"levelo://app?vid=97fd7a4c-36e8-401d-b12d-1b4015a01ebe"},"vehicle_type_id":"4","last_reported":1745795374,"current_range_meters":16000,"station_id":"","pricing_plan_id":"cebpf4jnsgd1na2vs0mg"},{"bike_id":"d8e186e0-8d9f-4c16-bb12-3c50f63fd666","system_id":"levelo_inurba_marseille","lat":43.27497,"lon":5.4246,"is_reserved":false,"is_disabled":false,"rental_uris":{"android":"levelo://app?vid=d8e186e0-8d9f-4c16-bb12-3c50f63fd666","ios":"levelo://app?vid=d8e186e0-8d9f-4c16-bb12-3c50f63fd666"},"vehicle_type_id":"4","last_reported":1745795374,"current_range_meters":16000,"station_id":"ce4bhn92rcd13ifvqgrg","pricing_plan_id":"cebpf4jnsgd1na2vs0mg"},{"bike_id":"4de6f493-e285-48e2-b411-17ea7eea5c29","system_id":"levelo_inurba_marseille","lat":43.3237,"lon":5.3888,"is_reserved":false,"is_disabled":false,"rental_uris":{"android":"levelo://app?vid=4de6f493-e285-48e2-b411-17ea7eea5c29","ios":"levelo://app?vid=4de6f493-e285-48e2-b411-17ea7eea5c29"},"vehicle_type_id":"4","last_reported":1745795374,"current_range_meters":16000,"station_id":"ce4bhqp2rcd13ifvqhog","pricing_plan_id":"cebpf4jnsgd1na2vs0mg"},{"bike_id":"5debd579-c045-4892-a39c-8ac3bb501315","system_id":"levelo_inurba_marseille","lat":43.28407,"lon":5.37517,"is_reserved":false,"is_disabled":false,"rental_uris":{"android":"levelo://app?vid=5debd579-c045-4892-a39c-8ac3bb501315","ios":"levelo://app?vid=5debd579-c045-4892-a39c-8ac3bb501315"},"vehicle_type_id":"4","last_reported":1745795374,"current_range_meters":16000,"station_id":"ce4bh412rcd13ifvqds0","pricing_plan_id":"cebpf4jnsgd1na2vs0mg"},{"bike_id":"7d4859bb-6fe0-424f-a942-9c856aafc025","system_id":"levelo_inurba_marseille","lat":43.31506,"lon":5.37265,"is_reserved":false,"is_disabled":false,"rental_uris":{"android":"levelo://app?vid=7d4859bb-6fe0-424f-a942-9c856aafc025","ios":"levelo://app?vid=7d4859bb-6fe0-424f-a942-9c856aafc025"},"vehicle_type_id":"4","last_reported":1745795374,"current_range_meters":16000,"station_id":"ce4bgt12rcd13ifvqcd0","pricing_plan_id":"cebpf4jnsgd1na2vs0mg"},{"bike_id":"7cb17432-a062-465f-85a4-b60c350ddacd","system_id":"levelo_inurba_marseille","lat":43.29584,"lon":5.3751,"is_reserved":false,"is_disabled":true,"rental_uris":{"android":"levelo://app?vid=7cb17432-a062-465f-85a4-b60c350ddacd","ios":"levelo://app?vid=7cb17432-a062-465f-85a4-b60c350ddacd"},"vehicle_type_id":"4","last_reported":1745795374,"current_range_meters":16000,"station_id":"ce4bgh92rcd13ifvqb50","pricing_plan_id":"cebpf4jnsgd1na2vs0mg"},{"bike_id":"9b6a60a7-cecb-49e4-9154-8eb65457e233","system_id":"levelo_inurba_marseille","lat":43.25127,"lon":5.4032,"is_reserved":false,"is_disabled":false,"rental_uris":{"android":"levelo://app?vid=9b6a60a7-cecb-49e4-9154-8eb65457e233","ios":"levelo://app?vid=9b6a60a7-cecb-49e4-9154-8eb65457e233"},"vehicle_type_id":"4","last_reported":1745795374,"current_range_meters":16400,"station_id":"ce4bhlh2rcd13ifvqgig","pricing_plan_id":"cebpf4jnsgd1na2vs0mg"},{"bike_id":"2e7ac15a-983b-44da-a8d0-533b1e803195","system_id":"levelo_inurba_marseille","lat":43.255724,"lon":5.382446,"is_reserved":false,"is_disabled":false,"rental_uris":{"android":"levelo://app?vid=2e7ac15a-983b-44da-a8d0-533b1e803195","ios":"levelo://app?vid=2e7ac15a-983b-44da-a8d0-533b1e803195"},"vehicle_type_id":"4","last_reported":1745795374,"current_range_meters":16400,"station_id":"","pricing_plan_id":"cebpf4jnsgd1na2vs0mg"},{"bike_id":"d003d4c2-e712-4b4b-a918-2cf2a97cd6d4","system_id":"levelo_inurba_marseille","lat":43.29207,"lon":5.39316,"is_reserved":false,"is_disabled":false,"rental_uris":{"android":"levelo://app?vid=d003d4c2-e712-4b4b-a918-2cf2a97cd6d4","ios":"levelo://app?vid=d003d4c2-e712-4b4b-a918-2cf2a97cd6d4"},"vehicle_type_id":"4","last_reported":1745795374,"current_range_meters":16400,"station_id":"ce4bh192rcd13ifvqdd0","pricing_plan_id":"cebpf4jnsgd1na2vs0mg"},{"bike_id":"cdefb1fb-f28b-4051-a0f5-a9451436b4ed","system_id":"levelo_inurba_marseille","lat":43.25801,"lon":5.3859,"is_reserved":false,"is_disabled":false,"rental_uris":{"android":"levelo://app?vid=cdefb1fb-f28b-4051-a0f5-a9451436b4ed","ios":"levelo://app?vid=cdefb1fb-f28b-4051-a0f5-a9451436b4ed"},"vehicle_type_id":"4","last_reported":1745795374,"current_range_meters":16400,"station_id":"","pricing_plan_id":"cebpf4jnsgd1na2vs0mg"},{"bike_id":"e5f9117b-87fb-4758-9057-8a51ca118a16","system_id":"levelo_inurba_marseille","lat":43.28461,"lon":5.35882,"is_reserved":false,"is_disabled":false,"rental_uris":{"android":"levelo://app?vid=e5f9117b-87fb-4758-9057-8a51ca118a16","ios":"levelo://app?vid=e5f9117b-87fb-4758-9057-8a51ca118a16"},"vehicle_type_id":"4","last_reported":1745795374,"current_range_meters":16000,"station_id":"ce4bhah2rcd13ifvqei0","pricing_plan_id":"cebpf4jnsgd1na2vs0mg"},{"bike_id":"683b45fe-d6d7-4560-ae22-95bdbf4d269a","system_id":"levelo_inurba_marseille","lat":43.21752,"lon":5.34581,"is_reserved":false,"is_disabled":false,"rental_uris":{"android":"levelo://app?vid=683b45fe-d6d7-4560-ae22-95bdbf4d269a","ios":"levelo://app?vid=683b45fe-d6d7-4560-ae22-95bdbf4d269a"},"vehicle_type_id":"4","last_reported":1745795374,"current_range_meters":16400,"station_id":"st_cvj6r9ubvosntc0bgbag","pricing_plan_id":"cebpf4jnsgd1na2vs0mg"},{"bike_id":"02b3b6da-d67b-490c-8691-301aea41ade1","system_id":"levelo_inurba_marseille","lat":43.2846,"lon":5.35875,"is_reserved":false,"is_disabled":false,"rental_uris":{"android":"levelo://app?vid=02b3b6da-d67b-490c-8691-301aea41ade1","ios":"levelo://app?vid=02b3b6da-d67b-490c-8691-301aea41ade1"},"vehicle_type_id":"4","last_reported":1745795374,"current_range_meters":16400,"station_id":"ce4bhah2rcd13ifvqei0","pricing_plan_id":"cebpf4jnsgd1na2vs0mg"},{"bike_id":"181ed326-b471-49b5-9f00-acd48cb5b299","system_id":"levelo_inurba_marseille","lat":43.28271,"lon":5.35077,"is_reserved":false,"is_disabled":true,"rental_uris":{"android":"levelo://app?vid=181ed326-b471-49b5-9f00-acd48cb5b299","ios":"levelo://app?vid=181ed326-b471-49b5-9f00-acd48cb5b299"},"vehicle_type_id":"4","last_reported":1745795374,"current_range_meters":16400,"station_id":"ce4bhbp2rcd13ifvqerg","pricing_plan_id":"cebpf4jnsgd1na2vs0mg"},{"bike_id":"f8b82dd5-2d85-4846-8b9d-5afc30043cf6","system_id":"levelo_inurba_marseille","lat":43.2251,"lon":5.34782,"is_reserved":false,"is_disabled":false,"rental_uris":{"android":"levelo://app?vid=f8b82dd5-2d85-4846-8b9d-5afc30043cf6","ios":"levelo://app?vid=f8b82dd5-2d85-4846-8b9d-5afc30043cf6"},"vehicle_type_id":"4","last_reported":1745795374,"current_range_meters":16400,"station_id":"st_cvj5dfep6f1abm77gieg","pricing_plan_id":"cebpf4jnsgd1na2vs0mg"},{"bike_id":"6a3ad0ca-897c-414f-a69a-aae8b2ea7b61","system_id":"levelo_inurba_marseille","lat":43.2175,"lon":5.34618,"is_reserved":false,"is_disabled":false,"rental_uris":{"android":"levelo://app?vid=6a3ad0ca-897c-414f-a69a-aae8b2ea7b61","ios":"levelo://app?vid=6a3ad0ca-897c-414f-a69a-aae8b2ea7b61"},"vehicle_type_id":"4","last_reported":1745795374,"current_range_meters":16400,"station_id":"st_cvj6r9ubvosntc0bgbag","pricing_plan_id":"cebpf4jnsgd1na2vs0mg"},{"bike_id":"2d8ee308-03ed-4761-9d96-95839d6c6deb","system_id":"levelo_inurba_marseille","lat":43.28612,"lon":5.37057,"is_reserved":false,"is_disabled":false,"rental_uris":{"android":"levelo://app?vid=2d8ee308-03ed-4761-9d96-95839d6c6deb","ios":"levelo://app?vid=2d8ee308-03ed-4761-9d96-95839d6c6deb"},"vehicle_type_id":"4","last_reported":1745795374,"current_range_meters":16400,"station_id":"","pricing_plan_id":"cebpf4jnsgd1na2vs0mg"},{"bike_id":"0f708391-a7ed-4e44-bc44-cf2926cd4a0c","system_id":"levelo_inurba_marseille","lat":43.26232,"lon":5.40465,"is_reserved":false,"is_disabled":false,"rental_uris":{"android":"levelo://app?vid=0f708391-a7ed-4e44-bc44-cf2926cd4a0c","ios":"levelo://app?vid=0f708391-a7ed-4e44-bc44-cf2926cd4a0c"},"vehicle_type_id":"4","last_reported":1745795374,"current_range_meters":16400,"station_id":"ce4bhmh2rcd13ifvqgmg","pricing_plan_id":"cebpf4jnsgd1na2vs0mg"},{"bike_id":"5a6ac1ef-2dc1-443e-9eb7-7c540b3b79a7","system_id":"levelo_inurba_marseille","lat":43.31488,"lon":5.37304,"is_reserved":false,"is_disabled":false,"rental_uris":{"android":"levelo://app?vid=5a6ac1ef-2dc1-443e-9eb7-7c540b3b79a7","ios":"levelo://app?vid=5a6ac1ef-2dc1-443e-9eb7-7c540b3b79a7"},"vehicle_type_id":"4","last_reported":1745795374,"current_range_meters":16800,"station_id":"ce4bgt12rcd13ifvqcd0","pricing_plan_id":"cebpf4jnsgd1na2vs0mg"},{"bike_id":"5a983abf-1f6f-4a2d-880b-bac58e63b800","system_id":"levelo_inurba_marseille","lat":43.27831,"lon":5.40715,"is_reserved":false,"is_disabled":true,"rental_uris":{"android":"levelo://app?vid=5a983abf-1f6f-4a2d-880b-bac58e63b800","ios":"levelo://app?vid=5a983abf-1f6f-4a2d-880b-bac58e63b800"},"vehicle_type_id":"4","last_reported":1745795374,"current_range_meters":16800,"station_id":"ce4bhnh2rcd13ifvqgtg","pricing_plan_id":"cebpf4jnsgd1na2vs0mg"},{"bike_id":"9275afeb-620b-4a3c-83d1-31bc14709d93","system_id":"levelo_inurba_marseille","lat":43.28843,"lon":5.35852,"is_reserved":false,"is_disabled":true,"rental_uris":{"android":"levelo://app?vid=9275afeb-620b-4a3c-83d1-31bc14709d93","ios":"levelo://app?vid=9275afeb-620b-4a3c-83d1-31bc14709d93"},"vehicle_type_id":"4","last_reported":1745795374,"current_range_meters":17200,"station_id":"ce4bhb12rcd13ifvqem0","pricing_plan_id":"cebpf4jnsgd1na2vs0mg"},{"bike_id":"510d1b76-27be-4268-aedc-46993a5973e8","system_id":"levelo_inurba_marseille","lat":43.24634,"lon":5.38898,"is_reserved":false,"is_disabled":false,"rental_uris":{"android":"levelo://app?vid=510d1b76-27be-4268-aedc-46993a5973e8","ios":"levelo://app?vid=510d1b76-27be-4268-aedc-46993a5973e8"},"vehicle_type_id":"4","last_reported":1745795374,"current_range_meters":17200,"station_id":"ce4bhg12rcd13ifvqf60","pricing_plan_id":"cebpf4jnsgd1na2vs0mg"},{"bike_id":"ff75ad8a-84a8-4e09-b733-5fb0903ef15d","system_id":"levelo_inurba_marseille","lat":43.32285,"lon":5.383,"is_reserved":false,"is_disabled":false,"rental_uris":{"android":"levelo://app?vid=ff75ad8a-84a8-4e09-b733-5fb0903ef15d","ios":"levelo://app?vid=ff75ad8a-84a8-4e09-b733-5fb0903ef15d"},"vehicle_type_id":"4","last_reported":1745795374,"current_range_meters":17200,"station_id":"ce4bhr12rcd13ifvqhqg","pricing_plan_id":"cebpf4jnsgd1na2vs0mg"},{"bike_id":"db9128d4-fa4b-4b3d-b5d8-0462404fa361","system_id":"levelo_inurba_marseille","lat":43.32109,"lon":5.36789,"is_reserved":false,"is_disabled":false,"rental_uris":{"android":"levelo://app?vid=db9128d4-fa4b-4b3d-b5d8-0462404fa361","ios":"levelo://app?vid=db9128d4-fa4b-4b3d-b5d8-0462404fa361"},"vehicle_type_id":"4","last_reported":1745795374,"current_range_meters":17200,"station_id":"ce4bhrh2rcd13ifvqhug","pricing_plan_id":"cebpf4jnsgd1na2vs0mg"},{"bike_id":"988d3e51-0f81-4d05-9256-41d5bf2a54ae","system_id":"levelo_inurba_marseille","lat":43.29714,"lon":5.36608,"is_reserved":false,"is_disabled":true,"rental_uris":{"android":"levelo://app?vid=988d3e51-0f81-4d05-9256-41d5bf2a54ae","ios":"levelo://app?vid=988d3e51-0f81-4d05-9256-41d5bf2a54ae"},"vehicle_type_id":"4","last_reported":1745795374,"current_range_meters":17200,"station_id":"ce4bgn12rcd13ifvqbt0","pricing_plan_id":"cebpf4jnsgd1na2vs0mg"},{"bike_id":"6058bcf2-eeff-4bb1-b3c5-02cf3f2b3c6f","system_id":"levelo_inurba_marseille","lat":43.24673,"lon":5.38118,"is_reserved":false,"is_disabled":false,"rental_uris":{"android":"levelo://app?vid=6058bcf2-eeff-4bb1-b3c5-02cf3f2b3c6f","ios":"levelo://app?vid=6058bcf2-eeff-4bb1-b3c5-02cf3f2b3c6f"},"vehicle_type_id":"4","last_reported":1745795374,"current_range_meters":17600,"station_id":"ce4bhih2rcd13ifvqfr0","pricing_plan_id":"cebpf4jnsgd1na2vs0mg"},{"bike_id":"5d80cec4-cf0d-4b75-87cc-4649871dd5da","system_id":"levelo_inurba_marseille","lat":43.27506,"lon":5.42439,"is_reserved":false,"is_disabled":false,"rental_uris":{"android":"levelo://app?vid=5d80cec4-cf0d-4b75-87cc-4649871dd5da","ios":"levelo://app?vid=5d80cec4-cf0d-4b75-87cc-4649871dd5da"},"vehicle_type_id":"4","last_reported":1745795374,"current_range_meters":17600,"station_id":"ce4bhn92rcd13ifvqgrg","pricing_plan_id":"cebpf4jnsgd1na2vs0mg"},{"bike_id":"b45721df-1911-4bd0-96bb-0c84adb69cfd","system_id":"levelo_inurba_marseille","lat":43.23974,"lon":5.36625,"is_reserved":false,"is_disabled":false,"rental_uris":{"android":"levelo://app?vid=b45721df-1911-4bd0-96bb-0c84adb69cfd","ios":"levelo://app?vid=b45721df-1911-4bd0-96bb-0c84adb69cfd"},"vehicle_type_id":"4","last_reported":1745795374,"current_range_meters":17600,"station_id":"ce4bhi12rcd13ifvqfp0","pricing_plan_id":"cebpf4jnsgd1na2vs0mg"},{"bike_id":"8952473f-0080-4946-9426-27026c138261","system_id":"levelo_inurba_marseille","lat":43.30248,"lon":5.40026,"is_reserved":false,"is_disabled":false,"rental_uris":{"android":"levelo://app?vid=8952473f-0080-4946-9426-27026c138261","ios":"levelo://app?vid=8952473f-0080-4946-9426-27026c138261"},"vehicle_type_id":"4","last_reported":1745795374,"current_range_meters":17600,"station_id":"ce4bgvh2rcd13ifvqcs0","pricing_plan_id":"cebpf4jnsgd1na2vs0mg"},{"bike_id":"76e63d71-8810-488e-953a-865ffc6ba6e6","system_id":"levelo_inurba_marseille","lat":43.2466,"lon":5.38128,"is_reserved":false,"is_disabled":false,"rental_uris":{"android":"levelo://app?vid=76e63d71-8810-488e-953a-865ffc6ba6e6","ios":"levelo://app?vid=76e63d71-8810-488e-953a-865ffc6ba6e6"},"vehicle_type_id":"4","last_reported":1745795374,"current_range_meters":17600,"station_id":"ce4bhih2rcd13ifvqfr0","pricing_plan_id":"cebpf4jnsgd1na2vs0mg"},{"bike_id":"7d642a85-a2ce-4a2b-8b78-82205bdd50c2","system_id":"levelo_inurba_marseille","lat":43.23186,"lon":5.39988,"is_reserved":false,"is_disabled":false,"rental_uris":{"android":"levelo://app?vid=7d642a85-a2ce-4a2b-8b78-82205bdd50c2","ios":"levelo://app?vid=7d642a85-a2ce-4a2b-8b78-82205bdd50c2"},"vehicle_type_id":"4","last_reported":1745795374,"current_range_meters":18000,"station_id":"ce4bhn12rcd13ifvqgqg","pricing_plan_id":"cebpf4jnsgd1na2vs0mg"},{"bike_id":"5f363fb2-65d6-4f54-a7e8-9f0969c18dcf","system_id":"levelo_inurba_marseille","lat":43.305435,"lon":5.365265,"is_reserved":false,"is_disabled":true,"rental_uris":{"android":"levelo://app?vid=5f363fb2-65d6-4f54-a7e8-9f0969c18dcf","ios":"levelo://app?vid=5f363fb2-65d6-4f54-a7e8-9f0969c18dcf"},"vehicle_type_id":"4","last_reported":1745795374,"current_range_meters":18000,"station_id":"ce4bgs12rcd13ifvqcag","pricing_plan_id":"cebpf4jnsgd1na2vs0mg"},{"bike_id":"20f39650-9dfb-45df-bdda-86b58245b145","system_id":"levelo_inurba_marseille","lat":43.28733,"lon":5.36076,"is_reserved":false,"is_disabled":false,"rental_uris":{"android":"levelo://app?vid=20f39650-9dfb-45df-bdda-86b58245b145","ios":"levelo://app?vid=20f39650-9dfb-45df-bdda-86b58245b145"},"vehicle_type_id":"4","last_reported":1745795374,"current_range_meters":18000,"station_id":"cki0cbj6b192h4jlfktg","pricing_plan_id":"cebpf4jnsgd1na2vs0mg"},{"bike_id":"ec32d184-87f5-447e-be76-bbda4f5d3783","system_id":"levelo_inurba_marseille","lat":43.29458,"lon":5.39759,"is_reserved":false,"is_disabled":false,"rental_uris":{"android":"levelo://app?vid=ec32d184-87f5-447e-be76-bbda4f5d3783","ios":"levelo://app?vid=ec32d184-87f5-447e-be76-bbda4f5d3783"},"vehicle_type_id":"4","last_reported":1745795374,"current_range_meters":18000,"station_id":"ce4bh3h2rcd13ifvqdo0","pricing_plan_id":"cebpf4jnsgd1na2vs0mg"},{"bike_id":"d5792b96-81ae-4816-accb-680dcd29aa8e","system_id":"levelo_inurba_marseille","lat":43.24682,"lon":5.38166,"is_reserved":false,"is_disabled":true,"rental_uris":{"android":"levelo://app?vid=d5792b96-81ae-4816-accb-680dcd29aa8e","ios":"levelo://app?vid=d5792b96-81ae-4816-accb-680dcd29aa8e"},"vehicle_type_id":"4","last_reported":1745795374,"current_range_meters":18000,"station_id":"ce4bhih2rcd13ifvqfr0","pricing_plan_id":"cebpf4jnsgd1na2vs0mg"},{"bike_id":"daa5fb12-4e0b-4bce-a6b1-6719a5e359ca","system_id":"levelo_inurba_marseille","lat":43.23141,"lon":5.43711,"is_reserved":false,"is_disabled":false,"rental_uris":{"android":"levelo://app?vid=daa5fb12-4e0b-4bce-a6b1-6719a5e359ca","ios":"levelo://app?vid=daa5fb12-4e0b-4bce-a6b1-6719a5e359ca"},"vehicle_type_id":"4","last_reported":1745795374,"current_range_meters":18000,"station_id":"ce4bhmp2rcd13ifvqgog","pricing_plan_id":"cebpf4jnsgd1na2vs0mg"},{"bike_id":"53760166-3c11-4358-80eb-c77163b15b9a","system_id":"levelo_inurba_marseille","lat":43.2894,"lon":5.39628,"is_reserved":false,"is_disabled":false,"rental_uris":{"android":"levelo://app?vid=53760166-3c11-4358-80eb-c77163b15b9a","ios":"levelo://app?vid=53760166-3c11-4358-80eb-c77163b15b9a"},"vehicle_type_id":"4","last_reported":1745795374,"current_range_meters":18000,"station_id":"ce4bh3h2rcd13ifvqdn0","pricing_plan_id":"cebpf4jnsgd1na2vs0mg"},{"bike_id":"7a629823-3cc9-4265-bbd8-788e1b6db938","system_id":"levelo_inurba_marseille","lat":43.25515,"lon":5.37633,"is_reserved":false,"is_disabled":false,"rental_uris":{"android":"levelo://app?vid=7a629823-3cc9-4265-bbd8-788e1b6db938","ios":"levelo://app?vid=7a629823-3cc9-4265-bbd8-788e1b6db938"},"vehicle_type_id":"4","last_reported":1745795374,"current_range_meters":18800,"station_id":"ce4bhh12rcd13ifvqff0","pricing_plan_id":"cebpf4jnsgd1na2vs0mg"},{"bike_id":"854b6f67-ca9a-45bb-a87f-9accf64bf40e","system_id":"levelo_inurba_marseille","lat":43.2756,"lon":5.38396,"is_reserved":false,"is_disabled":true,"rental_uris":{"android":"levelo://app?vid=854b6f67-ca9a-45bb-a87f-9accf64bf40e","ios":"levelo://app?vid=854b6f67-ca9a-45bb-a87f-9accf64bf40e"},"vehicle_type_id":"4","last_reported":1745795374,"current_range_meters":18800,"station_id":"ce4bhh92rcd13ifvqfi0","pricing_plan_id":"cebpf4jnsgd1na2vs0mg"},{"bike_id":"e82d3078-1f25-45e1-b1d5-2c16802a8b4f","system_id":"levelo_inurba_marseille","lat":43.31079,"lon":5.38353,"is_reserved":false,"is_disabled":false,"rental_uris":{"android":"levelo://app?vid=e82d3078-1f25-45e1-b1d5-2c16802a8b4f","ios":"levelo://app?vid=e82d3078-1f25-45e1-b1d5-2c16802a8b4f"},"vehicle_type_id":"4","last_reported":1745795374,"current_range_meters":18800,"station_id":"ce4bgv92rcd13ifvqcr0","pricing_plan_id":"cebpf4jnsgd1na2vs0mg"},{"bike_id":"6c72de35-de49-45aa-84fb-0f4a50376358","system_id":"levelo_inurba_marseille","lat":43.32986,"lon":5.43836,"is_reserved":false,"is_disabled":false,"rental_uris":{"android":"levelo://app?vid=6c72de35-de49-45aa-84fb-0f4a50376358","ios":"levelo://app?vid=6c72de35-de49-45aa-84fb-0f4a50376358"},"vehicle_type_id":"4","last_reported":1745795374,"current_range_meters":18800,"station_id":"","pricing_plan_id":"cebpf4jnsgd1na2vs0mg"},{"bike_id":"26e2563a-5614-46af-9839-4e09e7d33768","system_id":"levelo_inurba_marseille","lat":43.33614,"lon":5.41007,"is_reserved":false,"is_disabled":false,"rental_uris":{"android":"levelo://app?vid=26e2563a-5614-46af-9839-4e09e7d33768","ios":"levelo://app?vid=26e2563a-5614-46af-9839-4e09e7d33768"},"vehicle_type_id":"4","last_reported":1745795374,"current_range_meters":19200,"station_id":"ce4bhqh2rcd13ifvqhmg","pricing_plan_id":"cebpf4jnsgd1na2vs0mg"},{"bike_id":"2420ad39-a5b7-4ea3-b775-69cf92e1a47f","system_id":"levelo_inurba_marseille","lat":43.259397,"lon":5.409025,"is_reserved":false,"is_disabled":false,"rental_uris":{"android":"levelo://app?vid=2420ad39-a5b7-4ea3-b775-69cf92e1a47f","ios":"levelo://app?vid=2420ad39-a5b7-4ea3-b775-69cf92e1a47f"},"vehicle_type_id":"4","last_reported":1745795374,"current_range_meters":19200,"station_id":"ce4bhm92rcd13ifvqglg","pricing_plan_id":"cebpf4jnsgd1na2vs0mg"},{"bike_id":"55c1d854-3d51-4d29-9506-b606c2c1e930","system_id":"levelo_inurba_marseille","lat":43.31504,"lon":5.37267,"is_reserved":false,"is_disabled":false,"rental_uris":{"android":"levelo://app?vid=55c1d854-3d51-4d29-9506-b606c2c1e930","ios":"levelo://app?vid=55c1d854-3d51-4d29-9506-b606c2c1e930"},"vehicle_type_id":"4","last_reported":1745795374,"current_range_meters":19200,"station_id":"ce4bgt12rcd13ifvqcd0","pricing_plan_id":"cebpf4jnsgd1na2vs0mg"},{"bike_id":"ae024c84-7e44-4a33-b963-d7705c42478f","system_id":"levelo_inurba_marseille","lat":43.23972,"lon":5.36606,"is_reserved":false,"is_disabled":false,"rental_uris":{"android":"levelo://app?vid=ae024c84-7e44-4a33-b963-d7705c42478f","ios":"levelo://app?vid=ae024c84-7e44-4a33-b963-d7705c42478f"},"vehicle_type_id":"4","last_reported":1745795374,"current_range_meters":19200,"station_id":"ce4bhi12rcd13ifvqfp0","pricing_plan_id":"cebpf4jnsgd1na2vs0mg"},{"bike_id":"1c484a84-52df-485c-b15f-8dc40bad3cae","system_id":"levelo_inurba_marseille","lat":43.30805,"lon":5.43522,"is_reserved":false,"is_disabled":false,"rental_uris":{"android":"levelo://app?vid=1c484a84-52df-485c-b15f-8dc40bad3cae","ios":"levelo://app?vid=1c484a84-52df-485c-b15f-8dc40bad3cae"},"vehicle_type_id":"4","last_reported":1745795374,"current_range_meters":19600,"station_id":"ce4bhph2rcd13ifvqheg","pricing_plan_id":"cebpf4jnsgd1na2vs0mg"},{"bike_id":"e2db68dd-f47f-4e15-8fe0-c97738bddb69","system_id":"levelo_inurba_marseille","lat":43.29276,"lon":5.36838,"is_reserved":false,"is_disabled":true,"rental_uris":{"android":"levelo://app?vid=e2db68dd-f47f-4e15-8fe0-c97738bddb69","ios":"levelo://app?vid=e2db68dd-f47f-4e15-8fe0-c97738bddb69"},"vehicle_type_id":"4","last_reported":1745795374,"current_range_meters":19600,"station_id":"ce4bhbp2rcd13ifvqesg","pricing_plan_id":"cebpf4jnsgd1na2vs0mg"},{"bike_id":"d0084b40-0977-469b-a971-471d5dd9a078","system_id":"levelo_inurba_marseille","lat":43.25931,"lon":5.40863,"is_reserved":false,"is_disabled":false,"rental_uris":{"android":"levelo://app?vid=d0084b40-0977-469b-a971-471d5dd9a078","ios":"levelo://app?vid=d0084b40-0977-469b-a971-471d5dd9a078"},"vehicle_type_id":"4","last_reported":1745795374,"current_range_meters":19600,"station_id":"ce4bhm92rcd13ifvqglg","pricing_plan_id":"cebpf4jnsgd1na2vs0mg"},{"bike_id":"d6f5efac-6ee4-4c3c-943a-fc9ab91c85d8","system_id":"levelo_inurba_marseille","lat":43.29264,"lon":5.40881,"is_reserved":false,"is_disabled":false,"rental_uris":{"android":"levelo://app?vid=d6f5efac-6ee4-4c3c-943a-fc9ab91c85d8","ios":"levelo://app?vid=d6f5efac-6ee4-4c3c-943a-fc9ab91c85d8"},"vehicle_type_id":"4","last_reported":1745795374,"current_range_meters":19600,"station_id":"ce4bh192rcd13ifvqdc0","pricing_plan_id":"cebpf4jnsgd1na2vs0mg"},{"bike_id":"4d68e657-e09f-41fc-8014-b29d8de6e54c","system_id":"levelo_inurba_marseille","lat":43.30878,"lon":5.396443,"is_reserved":false,"is_disabled":false,"rental_uris":{"android":"levelo://app?vid=4d68e657-e09f-41fc-8014-b29d8de6e54c","ios":"levelo://app?vid=4d68e657-e09f-41fc-8014-b29d8de6e54c"},"vehicle_type_id":"4","last_reported":1745795374,"current_range_meters":19600,"station_id":"ce4bh012rcd13ifvqcv0","pricing_plan_id":"cebpf4jnsgd1na2vs0mg"},{"bike_id":"02f5f992-5e1d-46f1-9ebe-e348914e0216","system_id":"levelo_inurba_marseille","lat":43.30311,"lon":5.3689,"is_reserved":false,"is_disabled":false,"rental_uris":{"android":"levelo://app?vid=02f5f992-5e1d-46f1-9ebe-e348914e0216","ios":"levelo://app?vid=02f5f992-5e1d-46f1-9ebe-e348914e0216"},"vehicle_type_id":"4","last_reported":1745795374,"current_range_meters":19600,"station_id":"ce4bgqh2rcd13ifvqc5g","pricing_plan_id":"cebpf4jnsgd1na2vs0mg"},{"bike_id":"4bf08038-f5c2-4f98-a256-2270055407f1","system_id":"levelo_inurba_marseille","lat":43.27412,"lon":5.42517,"is_reserved":false,"is_disabled":false,"rental_uris":{"android":"levelo://app?vid=4bf08038-f5c2-4f98-a256-2270055407f1","ios":"levelo://app?vid=4bf08038-f5c2-4f98-a256-2270055407f1"},"vehicle_type_id":"4","last_reported":1745795374,"current_range_meters":19600,"station_id":"ce4bhn92rcd13ifvqgrg","pricing_plan_id":"cebpf4jnsgd1na2vs0mg"},{"bike_id":"579b9d02-e6b0-4faa-8aa6-d259af964e22","system_id":"levelo_inurba_marseille","lat":43.23962,"lon":5.366377,"is_reserved":false,"is_disabled":false,"rental_uris":{"android":"levelo://app?vid=579b9d02-e6b0-4faa-8aa6-d259af964e22","ios":"levelo://app?vid=579b9d02-e6b0-4faa-8aa6-d259af964e22"},"vehicle_type_id":"4","last_reported":1745795374,"current_range_meters":20000,"station_id":"ce4bhi12rcd13ifvqfp0","pricing_plan_id":"cebpf4jnsgd1na2vs0mg"},{"bike_id":"e10dac24-cce6-4d7c-971a-3a12ee500d3a","system_id":"levelo_inurba_marseille","lat":43.292566,"lon":5.38439,"is_reserved":false,"is_disabled":true,"rental_uris":{"android":"levelo://app?vid=e10dac24-cce6-4d7c-971a-3a12ee500d3a","ios":"levelo://app?vid=e10dac24-cce6-4d7c-971a-3a12ee500d3a"},"vehicle_type_id":"4","last_reported":1745795374,"current_range_meters":20000,"station_id":"ce4bh692rcd13ifvqea0","pricing_plan_id":"cebpf4jnsgd1na2vs0mg"},{"bike_id":"0ab928f1-313f-453f-a075-ecf067324cdb","system_id":"levelo_inurba_marseille","lat":43.26208,"lon":5.40459,"is_reserved":false,"is_disabled":false,"rental_uris":{"android":"levelo://app?vid=0ab928f1-313f-453f-a075-ecf067324cdb","ios":"levelo://app?vid=0ab928f1-313f-453f-a075-ecf067324cdb"},"vehicle_type_id":"4","last_reported":1745795374,"current_range_meters":20000,"station_id":"ce4bhmh2rcd13ifvqgmg","pricing_plan_id":"cebpf4jnsgd1na2vs0mg"},{"bike_id":"9cbcc298-7276-4faa-a3f3-5f54c8726ff4","system_id":"levelo_inurba_marseille","lat":43.24519,"lon":5.41213,"is_reserved":false,"is_disabled":false,"rental_uris":{"android":"levelo://app?vid=9cbcc298-7276-4faa-a3f3-5f54c8726ff4","ios":"levelo://app?vid=9cbcc298-7276-4faa-a3f3-5f54c8726ff4"},"vehicle_type_id":"4","last_reported":1745795374,"current_range_meters":20000,"station_id":"","pricing_plan_id":"cebpf4jnsgd1na2vs0mg"},{"bike_id":"60f96b9e-661e-447d-a4c3-5f5297818c94","system_id":"levelo_inurba_marseille","lat":43.30137,"lon":5.39859,"is_reserved":false,"is_disabled":false,"rental_uris":{"android":"levelo://app?vid=60f96b9e-661e-447d-a4c3-5f5297818c94","ios":"levelo://app?vid=60f96b9e-661e-447d-a4c3-5f5297818c94"},"vehicle_type_id":"4","last_reported":1745795374,"current_range_meters":20000,"station_id":"ce4bh0h2rcd13ifvqd40","pricing_plan_id":"cebpf4jnsgd1na2vs0mg"},{"bike_id":"dd8ba2ea-896c-46a8-a041-af1fe4723729","system_id":"levelo_inurba_marseille","lat":43.25693,"lon":5.411235,"is_reserved":false,"is_disabled":false,"rental_uris":{"android":"levelo://app?vid=dd8ba2ea-896c-46a8-a041-af1fe4723729","ios":"levelo://app?vid=dd8ba2ea-896c-46a8-a041-af1fe4723729"},"vehicle_type_id":"4","last_reported":1745795374,"current_range_meters":20000,"station_id":"ce4bhkp2rcd13ifvqgd0","pricing_plan_id":"cebpf4jnsgd1na2vs0mg"},{"bike_id":"a1768aca-3c36-41d8-8280-17734ead4850","system_id":"levelo_inurba_marseille","lat":43.29024,"lon":5.38639,"is_reserved":false,"is_disabled":false,"rental_uris":{"android":"levelo://app?vid=a1768aca-3c36-41d8-8280-17734ead4850","ios":"levelo://app?vid=a1768aca-3c36-41d8-8280-17734ead4850"},"vehicle_type_id":"4","last_reported":1745795374,"current_range_meters":19600,"station_id":"ce4bh4p2rcd13ifvqe0g","pricing_plan_id":"cebpf4jnsgd1na2vs0mg"},{"bike_id":"120277a4-e644-406f-9354-c1381245ac98","system_id":"levelo_inurba_marseille","lat":43.28734,"lon":5.36068,"is_reserved":false,"is_disabled":false,"rental_uris":{"android":"levelo://app?vid=120277a4-e644-406f-9354-c1381245ac98","ios":"levelo://app?vid=120277a4-e644-406f-9354-c1381245ac98"},"vehicle_type_id":"4","last_reported":1745795374,"current_range_meters":20000,"station_id":"cki0cbj6b192h4jlfktg","pricing_plan_id":"cebpf4jnsgd1na2vs0mg"},{"bike_id":"c4e882de-82cc-40fc-8fdc-d03d27c35a19","system_id":"levelo_inurba_marseille","lat":43.30591,"lon":5.36689,"is_reserved":false,"is_disabled":true,"rental_uris":{"android":"levelo://app?vid=c4e882de-82cc-40fc-8fdc-d03d27c35a19","ios":"levelo://app?vid=c4e882de-82cc-40fc-8fdc-d03d27c35a19"},"vehicle_type_id":"4","last_reported":1745795374,"current_range_meters":20000,"station_id":"","pricing_plan_id":"cebpf4jnsgd1na2vs0mg"},{"bike_id":"f977d8fc-a486-45df-8727-671d07539b11","system_id":"levelo_inurba_marseille","lat":43.26213,"lon":5.37925,"is_reserved":false,"is_disabled":true,"rental_uris":{"android":"levelo://app?vid=f977d8fc-a486-45df-8727-671d07539b11","ios":"levelo://app?vid=f977d8fc-a486-45df-8727-671d07539b11"},"vehicle_type_id":"4","last_reported":1745795374,"current_range_meters":20400,"station_id":"ce4bhjp2rcd13ifvqg90","pricing_plan_id":"cebpf4jnsgd1na2vs0mg"},{"bike_id":"de62cb81-5006-4031-99a8-5646df80e288","system_id":"levelo_inurba_marseille","lat":43.28668,"lon":5.36331,"is_reserved":false,"is_disabled":false,"rental_uris":{"android":"levelo://app?vid=de62cb81-5006-4031-99a8-5646df80e288","ios":"levelo://app?vid=de62cb81-5006-4031-99a8-5646df80e288"},"vehicle_type_id":"4","last_reported":1745795374,"current_range_meters":20400,"station_id":"ce4bhah2rcd13ifvqej0","pricing_plan_id":"cebpf4jnsgd1na2vs0mg"},{"bike_id":"1b5dfaf4-fc89-4855-8a43-c4b154b91948","system_id":"levelo_inurba_marseille","lat":43.30301,"lon":5.39192,"is_reserved":false,"is_disabled":true,"rental_uris":{"android":"levelo://app?vid=1b5dfaf4-fc89-4855-8a43-c4b154b91948","ios":"levelo://app?vid=1b5dfaf4-fc89-4855-8a43-c4b154b91948"},"vehicle_type_id":"4","last_reported":1745795374,"current_range_meters":20400,"station_id":"ce4bgkh2rcd13ifvqbk0","pricing_plan_id":"cebpf4jnsgd1na2vs0mg"},{"bike_id":"573ff5fc-dcd8-4c41-a8a2-1fb4c179975e","system_id":"levelo_inurba_marseille","lat":43.31769,"lon":5.39008,"is_reserved":false,"is_disabled":false,"rental_uris":{"android":"levelo://app?vid=573ff5fc-dcd8-4c41-a8a2-1fb4c179975e","ios":"levelo://app?vid=573ff5fc-dcd8-4c41-a8a2-1fb4c179975e"},"vehicle_type_id":"4","last_reported":1745795374,"current_range_meters":20400,"station_id":"ce4bhqp2rcd13ifvqhng","pricing_plan_id":"cebpf4jnsgd1na2vs0mg"},{"bike_id":"425564c4-f883-4f68-876f-947748498d1f","system_id":"levelo_inurba_marseille","lat":43.26919,"lon":5.40255,"is_reserved":false,"is_disabled":true,"rental_uris":{"android":"levelo://app?vid=425564c4-f883-4f68-876f-947748498d1f","ios":"levelo://app?vid=425564c4-f883-4f68-876f-947748498d1f"},"vehicle_type_id":"4","last_reported":1745795374,"current_range_meters":20800,"station_id":"cjm6bp8fraef2m0cb0m0","pricing_plan_id":"cebpf4jnsgd1na2vs0mg"},{"bike_id":"d8b9b350-6636-4922-af94-8fbc6798af45","system_id":"levelo_inurba_marseille","lat":43.2398,"lon":5.36612,"is_reserved":false,"is_disabled":false,"rental_uris":{"android":"levelo://app?vid=d8b9b350-6636-4922-af94-8fbc6798af45","ios":"levelo://app?vid=d8b9b350-6636-4922-af94-8fbc6798af45"},"vehicle_type_id":"4","last_reported":1745795374,"current_range_meters":20800,"station_id":"ce4bhi12rcd13ifvqfp0","pricing_plan_id":"cebpf4jnsgd1na2vs0mg"},{"bike_id":"abf2dc50-2eb1-45c0-80d0-deafb929859f","system_id":"levelo_inurba_marseille","lat":43.326587,"lon":5.409889,"is_reserved":false,"is_disabled":false,"rental_uris":{"android":"levelo://app?vid=abf2dc50-2eb1-45c0-80d0-deafb929859f","ios":"levelo://app?vid=abf2dc50-2eb1-45c0-80d0-deafb929859f"},"vehicle_type_id":"4","last_reported":1745795374,"current_range_meters":20800,"station_id":"ce4bhpp2rcd13ifvqhgg","pricing_plan_id":"cebpf4jnsgd1na2vs0mg"},{"bike_id":"504af8b5-2522-4176-8201-9c37815f0fa0","system_id":"levelo_inurba_marseille","lat":43.24,"lon":5.36511,"is_reserved":false,"is_disabled":false,"rental_uris":{"android":"levelo://app?vid=504af8b5-2522-4176-8201-9c37815f0fa0","ios":"levelo://app?vid=504af8b5-2522-4176-8201-9c37815f0fa0"},"vehicle_type_id":"4","last_reported":1745795374,"current_range_meters":21600,"station_id":"","pricing_plan_id":"cebpf4jnsgd1na2vs0mg"},{"bike_id":"7046c6e0-63e7-4772-821a-9dbb15a79431","system_id":"levelo_inurba_marseille","lat":43.31373,"lon":5.38484,"is_reserved":false,"is_disabled":false,"rental_uris":{"android":"levelo://app?vid=7046c6e0-63e7-4772-821a-9dbb15a79431","ios":"levelo://app?vid=7046c6e0-63e7-4772-821a-9dbb15a79431"},"vehicle_type_id":"4","last_reported":1745795374,"current_range_meters":21600,"station_id":"ce4bgt92rcd13ifvqcf0","pricing_plan_id":"cebpf4jnsgd1na2vs0mg"},{"bike_id":"6de82b3f-55f7-4162-8251-5917d974025f","system_id":"levelo_inurba_marseille","lat":43.30742,"lon":5.42437,"is_reserved":false,"is_disabled":false,"rental_uris":{"android":"levelo://app?vid=6de82b3f-55f7-4162-8251-5917d974025f","ios":"levelo://app?vid=6de82b3f-55f7-4162-8251-5917d974025f"},"vehicle_type_id":"4","last_reported":1745795374,"current_range_meters":21600,"station_id":"st_cvj6ca6bvosntc0bfgr0","pricing_plan_id":"cebpf4jnsgd1na2vs0mg"},{"bike_id":"406d7795-4188-429e-aaff-5816755cbb94","system_id":"levelo_inurba_marseille","lat":43.29382,"lon":5.37958,"is_reserved":false,"is_disabled":true,"rental_uris":{"android":"levelo://app?vid=406d7795-4188-429e-aaff-5816755cbb94","ios":"levelo://app?vid=406d7795-4188-429e-aaff-5816755cbb94"},"vehicle_type_id":"4","last_reported":1745795374,"current_range_meters":21600,"station_id":"","pricing_plan_id":"cebpf4jnsgd1na2vs0mg"},{"bike_id":"d3881236-172c-42f8-a3e0-7e01c42f9e73","system_id":"levelo_inurba_marseille","lat":43.30076,"lon":5.38604,"is_reserved":false,"is_disabled":true,"rental_uris":{"android":"levelo://app?vid=d3881236-172c-42f8-a3e0-7e01c42f9e73","ios":"levelo://app?vid=d3881236-172c-42f8-a3e0-7e01c42f9e73"},"vehicle_type_id":"4","last_reported":1745795374,"current_range_meters":22400,"station_id":"","pricing_plan_id":"cebpf4jnsgd1na2vs0mg"},{"bike_id":"b5fe6816-f873-4cb9-8652-42ccdeb37fe9","system_id":"levelo_inurba_marseille","lat":43.271845,"lon":5.409759,"is_reserved":false,"is_disabled":false,"rental_uris":{"android":"levelo://app?vid=b5fe6816-f873-4cb9-8652-42ccdeb37fe9","ios":"levelo://app?vid=b5fe6816-f873-4cb9-8652-42ccdeb37fe9"},"vehicle_type_id":"4","last_reported":1745795374,"current_range_meters":22400,"station_id":"ce4bhl12rcd13ifvqgf0","pricing_plan_id":"cebpf4jnsgd1na2vs0mg"},{"bike_id":"f1fc8c90-0a41-47a2-9e0c-e4bec172a3a7","system_id":"levelo_inurba_marseille","lat":43.24079,"lon":5.37756,"is_reserved":false,"is_disabled":false,"rental_uris":{"android":"levelo://app?vid=f1fc8c90-0a41-47a2-9e0c-e4bec172a3a7","ios":"levelo://app?vid=f1fc8c90-0a41-47a2-9e0c-e4bec172a3a7"},"vehicle_type_id":"4","last_reported":1745795374,"current_range_meters":22400,"station_id":"ce4bhnp2rcd13ifvqgvg","pricing_plan_id":"cebpf4jnsgd1na2vs0mg"},{"bike_id":"a7a5c59b-8fdc-4ceb-a16c-2fd89466328d","system_id":"levelo_inurba_marseille","lat":43.32115,"lon":5.36783,"is_reserved":false,"is_disabled":false,"rental_uris":{"android":"levelo://app?vid=a7a5c59b-8fdc-4ceb-a16c-2fd89466328d","ios":"levelo://app?vid=a7a5c59b-8fdc-4ceb-a16c-2fd89466328d"},"vehicle_type_id":"4","last_reported":1745795374,"current_range_meters":22400,"station_id":"ce4bhrh2rcd13ifvqhug","pricing_plan_id":"cebpf4jnsgd1na2vs0mg"},{"bike_id":"2d7b50c2-e414-4e82-82a2-7035113690ad","system_id":"levelo_inurba_marseille","lat":43.31475,"lon":5.37281,"is_reserved":false,"is_disabled":false,"rental_uris":{"android":"levelo://app?vid=2d7b50c2-e414-4e82-82a2-7035113690ad","ios":"levelo://app?vid=2d7b50c2-e414-4e82-82a2-7035113690ad"},"vehicle_type_id":"4","last_reported":1745795374,"current_range_meters":22400,"station_id":"ce4bgt12rcd13ifvqcd0","pricing_plan_id":"cebpf4jnsgd1na2vs0mg"},{"bike_id":"be96cf12-1bfe-4b12-b9a9-b4a285b05aae","system_id":"levelo_inurba_marseille","lat":43.27517,"lon":5.42447,"is_reserved":false,"is_disabled":false,"rental_uris":{"android":"levelo://app?vid=be96cf12-1bfe-4b12-b9a9-b4a285b05aae","ios":"levelo://app?vid=be96cf12-1bfe-4b12-b9a9-b4a285b05aae"},"vehicle_type_id":"4","last_reported":1745795374,"current_range_meters":22400,"station_id":"ce4bhn92rcd13ifvqgrg","pricing_plan_id":"cebpf4jnsgd1na2vs0mg"},{"bike_id":"5b8f78a8-a4bf-408e-904d-fb55256215fc","system_id":"levelo_inurba_marseille","lat":43.2894,"lon":5.36611,"is_reserved":false,"is_disabled":false,"rental_uris":{"android":"levelo://app?vid=5b8f78a8-a4bf-408e-904d-fb55256215fc","ios":"levelo://app?vid=5b8f78a8-a4bf-408e-904d-fb55256215fc"},"vehicle_type_id":"4","last_reported":1745795374,"current_range_meters":22800,"station_id":"ce4bhap2rcd13ifvqek0","pricing_plan_id":"cebpf4jnsgd1na2vs0mg"},{"bike_id":"3b73e112-a19d-47d3-8128-205527bc344a","system_id":"levelo_inurba_marseille","lat":43.28402,"lon":5.37488,"is_reserved":false,"is_disabled":false,"rental_uris":{"android":"levelo://app?vid=3b73e112-a19d-47d3-8128-205527bc344a","ios":"levelo://app?vid=3b73e112-a19d-47d3-8128-205527bc344a"},"vehicle_type_id":"4","last_reported":1745795374,"current_range_meters":22800,"station_id":"ce4bh412rcd13ifvqds0","pricing_plan_id":"cebpf4jnsgd1na2vs0mg"},{"bike_id":"c9a186da-b941-47bb-b124-488b5449bd4e","system_id":"levelo_inurba_marseille","lat":43.33605,"lon":5.40983,"is_reserved":false,"is_disabled":false,"rental_uris":{"android":"levelo://app?vid=c9a186da-b941-47bb-b124-488b5449bd4e","ios":"levelo://app?vid=c9a186da-b941-47bb-b124-488b5449bd4e"},"vehicle_type_id":"4","last_reported":1745795374,"current_range_meters":22800,"station_id":"ce4bhqh2rcd13ifvqhmg","pricing_plan_id":"cebpf4jnsgd1na2vs0mg"},{"bike_id":"9e724425-100b-414d-82c8-b62ced2f8a95","system_id":"levelo_inurba_marseille","lat":43.27659,"lon":5.42182,"is_reserved":false,"is_disabled":false,"rental_uris":{"android":"levelo://app?vid=9e724425-100b-414d-82c8-b62ced2f8a95","ios":"levelo://app?vid=9e724425-100b-414d-82c8-b62ced2f8a95"},"vehicle_type_id":"4","last_reported":1745795374,"current_range_meters":22800,"station_id":"","pricing_plan_id":"cebpf4jnsgd1na2vs0mg"},{"bike_id":"2ed76ab3-29f9-4f23-8162-d0d033a13590","system_id":"levelo_inurba_marseille","lat":43.24069,"lon":5.37748,"is_reserved":false,"is_disabled":false,"rental_uris":{"android":"levelo://app?vid=2ed76ab3-29f9-4f23-8162-d0d033a13590","ios":"levelo://app?vid=2ed76ab3-29f9-4f23-8162-d0d033a13590"},"vehicle_type_id":"4","last_reported":1745795374,"current_range_meters":22800,"station_id":"ce4bhnp2rcd13ifvqgvg","pricing_plan_id":"cebpf4jnsgd1na2vs0mg"},{"bike_id":"b5482998-a5d9-47b1-9027-9150138fc049","system_id":"levelo_inurba_marseille","lat":43.29222,"lon":5.36048,"is_reserved":false,"is_disabled":true,"rental_uris":{"android":"levelo://app?vid=b5482998-a5d9-47b1-9027-9150138fc049","ios":"levelo://app?vid=b5482998-a5d9-47b1-9027-9150138fc049"},"vehicle_type_id":"4","last_reported":1745795374,"current_range_meters":22800,"station_id":"ce4bhbh2rcd13ifvqeqg","pricing_plan_id":"cebpf4jnsgd1na2vs0mg"},{"bike_id":"72822771-67fc-41dc-81f6-8a81f8e72774","system_id":"levelo_inurba_marseille","lat":43.25126,"lon":5.40343,"is_reserved":false,"is_disabled":false,"rental_uris":{"android":"levelo://app?vid=72822771-67fc-41dc-81f6-8a81f8e72774","ios":"levelo://app?vid=72822771-67fc-41dc-81f6-8a81f8e72774"},"vehicle_type_id":"4","last_reported":1745795374,"current_range_meters":23200,"station_id":"ce4bhlh2rcd13ifvqgig","pricing_plan_id":"cebpf4jnsgd1na2vs0mg"},{"bike_id":"e63d8cc9-5fe2-481a-87a4-6791e0727fcd","system_id":"levelo_inurba_marseille","lat":43.25097,"lon":5.40357,"is_reserved":false,"is_disabled":false,"rental_uris":{"android":"levelo://app?vid=e63d8cc9-5fe2-481a-87a4-6791e0727fcd","ios":"levelo://app?vid=e63d8cc9-5fe2-481a-87a4-6791e0727fcd"},"vehicle_type_id":"4","last_reported":1745795374,"current_range_meters":23200,"station_id":"ce4bhlh2rcd13ifvqgig","pricing_plan_id":"cebpf4jnsgd1na2vs0mg"},{"bike_id":"e0a90db8-995f-45bc-849b-4905774ceeac","system_id":"levelo_inurba_marseille","lat":43.294443,"lon":5.397514,"is_reserved":false,"is_disabled":false,"rental_uris":{"android":"levelo://app?vid=e0a90db8-995f-45bc-849b-4905774ceeac","ios":"levelo://app?vid=e0a90db8-995f-45bc-849b-4905774ceeac"},"vehicle_type_id":"4","last_reported":1745795374,"current_range_meters":23200,"station_id":"ce4bh692rcd13ifvqea0","pricing_plan_id":"cebpf4jnsgd1na2vs0mg"},{"bike_id":"867997b4-3589-4859-9406-f2d8e812e375","system_id":"levelo_inurba_marseille","lat":43.27495,"lon":5.42445,"is_reserved":false,"is_disabled":false,"rental_uris":{"android":"levelo://app?vid=867997b4-3589-4859-9406-f2d8e812e375","ios":"levelo://app?vid=867997b4-3589-4859-9406-f2d8e812e375"},"vehicle_type_id":"4","last_reported":1745795374,"current_range_meters":23200,"station_id":"ce4bhn92rcd13ifvqgrg","pricing_plan_id":"cebpf4jnsgd1na2vs0mg"},{"bike_id":"aaecc94e-a371-48c8-8300-38cd0d87784e","system_id":"levelo_inurba_marseille","lat":43.24654,"lon":5.38894,"is_reserved":false,"is_disabled":false,"rental_uris":{"android":"levelo://app?vid=aaecc94e-a371-48c8-8300-38cd0d87784e","ios":"levelo://app?vid=aaecc94e-a371-48c8-8300-38cd0d87784e"},"vehicle_type_id":"4","last_reported":1745795374,"current_range_meters":23200,"station_id":"ce4bhg12rcd13ifvqf60","pricing_plan_id":"cebpf4jnsgd1na2vs0mg"},{"bike_id":"1c1ce55a-e1fd-4d73-8043-d2de0510a033","system_id":"levelo_inurba_marseille","lat":43.30148,"lon":5.38072,"is_reserved":false,"is_disabled":false,"rental_uris":{"android":"levelo://app?vid=1c1ce55a-e1fd-4d73-8043-d2de0510a033","ios":"levelo://app?vid=1c1ce55a-e1fd-4d73-8043-d2de0510a033"},"vehicle_type_id":"4","last_reported":1745795374,"current_range_meters":24000,"station_id":"ce4bgjp2rcd13ifvqbh0","pricing_plan_id":"cebpf4jnsgd1na2vs0mg"},{"bike_id":"fe27e3a7-db31-4a3c-b2db-f7f85e5f90ab","system_id":"levelo_inurba_marseille","lat":43.337444,"lon":5.374475,"is_reserved":false,"is_disabled":false,"rental_uris":{"android":"levelo://app?vid=fe27e3a7-db31-4a3c-b2db-f7f85e5f90ab","ios":"levelo://app?vid=fe27e3a7-db31-4a3c-b2db-f7f85e5f90ab"},"vehicle_type_id":"4","last_reported":1745795374,"current_range_meters":24000,"station_id":"","pricing_plan_id":"cebpf4jnsgd1na2vs0mg"},{"bike_id":"8d621ff0-747a-4bf7-8b0e-d952f63f7611","system_id":"levelo_inurba_marseille","lat":43.2927,"lon":5.40901,"is_reserved":false,"is_disabled":false,"rental_uris":{"android":"levelo://app?vid=8d621ff0-747a-4bf7-8b0e-d952f63f7611","ios":"levelo://app?vid=8d621ff0-747a-4bf7-8b0e-d952f63f7611"},"vehicle_type_id":"4","last_reported":1745795374,"current_range_meters":24000,"station_id":"ce4bh192rcd13ifvqdc0","pricing_plan_id":"cebpf4jnsgd1na2vs0mg"},{"bike_id":"5ca629a8-597f-4dce-9e8d-80c3bd7916b7","system_id":"levelo_inurba_marseille","lat":43.309274,"lon":5.401361,"is_reserved":false,"is_disabled":false,"rental_uris":{"android":"levelo://app?vid=5ca629a8-597f-4dce-9e8d-80c3bd7916b7","ios":"levelo://app?vid=5ca629a8-597f-4dce-9e8d-80c3bd7916b7"},"vehicle_type_id":"4","last_reported":1745795374,"current_range_meters":24000,"station_id":"ce4bgl92rcd13ifvqbq0","pricing_plan_id":"cebpf4jnsgd1na2vs0mg"},{"bike_id":"2b077e0b-945a-4b8e-9e51-8b16fd0ed4dc","system_id":"levelo_inurba_marseille","lat":43.28922,"lon":5.36603,"is_reserved":false,"is_disabled":true,"rental_uris":{"android":"levelo://app?vid=2b077e0b-945a-4b8e-9e51-8b16fd0ed4dc","ios":"levelo://app?vid=2b077e0b-945a-4b8e-9e51-8b16fd0ed4dc"},"vehicle_type_id":"4","last_reported":1745795374,"current_range_meters":24000,"station_id":"ce4bhap2rcd13ifvqek0","pricing_plan_id":"cebpf4jnsgd1na2vs0mg"},{"bike_id":"c3087ea8-3303-4162-b517-cd5a45178f81","system_id":"levelo_inurba_marseille","lat":43.2872,"lon":5.37369,"is_reserved":false,"is_disabled":false,"rental_uris":{"android":"levelo://app?vid=c3087ea8-3303-4162-b517-cd5a45178f81","ios":"levelo://app?vid=c3087ea8-3303-4162-b517-cd5a45178f81"},"vehicle_type_id":"4","last_reported":1745795374,"current_range_meters":24000,"station_id":"ce4bh3p2rcd13ifvqdq0","pricing_plan_id":"cebpf4jnsgd1na2vs0mg"},{"bike_id":"d7f0f05d-3cc9-442a-8a8d-6275e283d032","system_id":"levelo_inurba_marseille","lat":43.2978,"lon":5.45992,"is_reserved":false,"is_disabled":false,"rental_uris":{"android":"levelo://app?vid=d7f0f05d-3cc9-442a-8a8d-6275e283d032","ios":"levelo://app?vid=d7f0f05d-3cc9-442a-8a8d-6275e283d032"},"vehicle_type_id":"4","last_reported":1745795374,"current_range_meters":24000,"station_id":"","pricing_plan_id":"cebpf4jnsgd1na2vs0mg"},{"bike_id":"e453a262-1c8d-4f1c-85d1-44cdc42d3fe4","system_id":"levelo_inurba_marseille","lat":43.31491,"lon":5.37307,"is_reserved":false,"is_disabled":false,"rental_uris":{"android":"levelo://app?vid=e453a262-1c8d-4f1c-85d1-44cdc42d3fe4","ios":"levelo://app?vid=e453a262-1c8d-4f1c-85d1-44cdc42d3fe4"},"vehicle_type_id":"4","last_reported":1745795374,"current_range_meters":24000,"station_id":"ce4bgt12rcd13ifvqcd0","pricing_plan_id":"cebpf4jnsgd1na2vs0mg"},{"bike_id":"e0e0a52a-57f9-448e-b7ef-0232403aef34","system_id":"levelo_inurba_marseille","lat":43.24168,"lon":5.36382,"is_reserved":false,"is_disabled":false,"rental_uris":{"android":"levelo://app?vid=e0e0a52a-57f9-448e-b7ef-0232403aef34","ios":"levelo://app?vid=e0e0a52a-57f9-448e-b7ef-0232403aef34"},"vehicle_type_id":"4","last_reported":1745795374,"current_range_meters":24000,"station_id":"cpo36qri1sfpv3e86is0","pricing_plan_id":"cebpf4jnsgd1na2vs0mg"},{"bike_id":"cf4e5c58-f52b-4255-913e-43d7dec326ab","system_id":"levelo_inurba_marseille","lat":43.24206,"lon":5.36397,"is_reserved":false,"is_disabled":false,"rental_uris":{"android":"levelo://app?vid=cf4e5c58-f52b-4255-913e-43d7dec326ab","ios":"levelo://app?vid=cf4e5c58-f52b-4255-913e-43d7dec326ab"},"vehicle_type_id":"4","last_reported":1745795374,"current_range_meters":24000,"station_id":"cpo36qri1sfpv3e86is0","pricing_plan_id":"cebpf4jnsgd1na2vs0mg"},{"bike_id":"2ee98afc-740b-4e97-a955-ebff5e1f8902","system_id":"levelo_inurba_marseille","lat":43.28858,"lon":5.35841,"is_reserved":false,"is_disabled":false,"rental_uris":{"android":"levelo://app?vid=2ee98afc-740b-4e97-a955-ebff5e1f8902","ios":"levelo://app?vid=2ee98afc-740b-4e97-a955-ebff5e1f8902"},"vehicle_type_id":"4","last_reported":1745795374,"current_range_meters":24000,"station_id":"ce4bhb12rcd13ifvqem0","pricing_plan_id":"cebpf4jnsgd1na2vs0mg"},{"bike_id":"9d986fec-547e-4839-8e5f-e0340a61adaf","system_id":"levelo_inurba_marseille","lat":43.30937,"lon":5.4013,"is_reserved":false,"is_disabled":false,"rental_uris":{"android":"levelo://app?vid=9d986fec-547e-4839-8e5f-e0340a61adaf","ios":"levelo://app?vid=9d986fec-547e-4839-8e5f-e0340a61adaf"},"vehicle_type_id":"4","last_reported":1745795374,"current_range_meters":24000,"station_id":"ce4bgvp2rcd13ifvqct0","pricing_plan_id":"cebpf4jnsgd1na2vs0mg"},{"bike_id":"eba1b870-541d-4494-9f13-6a091bc8b304","system_id":"levelo_inurba_marseille","lat":43.31692,"lon":5.40458,"is_reserved":false,"is_disabled":false,"rental_uris":{"android":"levelo://app?vid=eba1b870-541d-4494-9f13-6a091bc8b304","ios":"levelo://app?vid=eba1b870-541d-4494-9f13-6a091bc8b304"},"vehicle_type_id":"4","last_reported":1745795374,"current_range_meters":24400,"station_id":"ce4bh012rcd13ifvqd00","pricing_plan_id":"cebpf4jnsgd1na2vs0mg"},{"bike_id":"214fc918-0cac-4df8-99f7-5538aa4ddaa2","system_id":"levelo_inurba_marseille","lat":43.284584,"lon":5.358938,"is_reserved":false,"is_disabled":true,"rental_uris":{"android":"levelo://app?vid=214fc918-0cac-4df8-99f7-5538aa4ddaa2","ios":"levelo://app?vid=214fc918-0cac-4df8-99f7-5538aa4ddaa2"},"vehicle_type_id":"4","last_reported":1745795374,"current_range_meters":24400,"station_id":"ce4bhah2rcd13ifvqei0","pricing_plan_id":"cebpf4jnsgd1na2vs0mg"},{"bike_id":"07445598-68fe-40db-b19b-e14bab0e7c33","system_id":"levelo_inurba_marseille","lat":43.31462,"lon":5.37352,"is_reserved":false,"is_disabled":false,"rental_uris":{"android":"levelo://app?vid=07445598-68fe-40db-b19b-e14bab0e7c33","ios":"levelo://app?vid=07445598-68fe-40db-b19b-e14bab0e7c33"},"vehicle_type_id":"4","last_reported":1745795374,"current_range_meters":24400,"station_id":"","pricing_plan_id":"cebpf4jnsgd1na2vs0mg"},{"bike_id":"e9830214-0a29-4a00-a67c-181c91df276a","system_id":"levelo_inurba_marseille","lat":43.31684,"lon":5.40464,"is_reserved":false,"is_disabled":false,"rental_uris":{"android":"levelo://app?vid=e9830214-0a29-4a00-a67c-181c91df276a","ios":"levelo://app?vid=e9830214-0a29-4a00-a67c-181c91df276a"},"vehicle_type_id":"4","last_reported":1745795374,"current_range_meters":24400,"station_id":"ce4bh012rcd13ifvqd00","pricing_plan_id":"cebpf4jnsgd1na2vs0mg"},{"bike_id":"9db023e7-cfd5-42d5-8cd5-7836bd3239c3","system_id":"levelo_inurba_marseille","lat":43.3089,"lon":5.39638,"is_reserved":false,"is_disabled":false,"rental_uris":{"android":"levelo://app?vid=9db023e7-cfd5-42d5-8cd5-7836bd3239c3","ios":"levelo://app?vid=9db023e7-cfd5-42d5-8cd5-7836bd3239c3"},"vehicle_type_id":"4","last_reported":1745795374,"current_range_meters":24400,"station_id":"ce4bh012rcd13ifvqcv0","pricing_plan_id":"cebpf4jnsgd1na2vs0mg"},{"bike_id":"cbb8c955-1c4d-438b-a40e-28f76a411642","system_id":"levelo_inurba_marseille","lat":43.23963,"lon":5.36611,"is_reserved":false,"is_disabled":true,"rental_uris":{"android":"levelo://app?vid=cbb8c955-1c4d-438b-a40e-28f76a411642","ios":"levelo://app?vid=cbb8c955-1c4d-438b-a40e-28f76a411642"},"vehicle_type_id":"4","last_reported":1745795374,"current_range_meters":24400,"station_id":"ce4bhi12rcd13ifvqfp0","pricing_plan_id":"cebpf4jnsgd1na2vs0mg"},{"bike_id":"f63bfab8-d07c-4b8c-8faa-93a814367824","system_id":"levelo_inurba_marseille","lat":43.30891,"lon":5.39566,"is_reserved":false,"is_disabled":false,"rental_uris":{"android":"levelo://app?vid=f63bfab8-d07c-4b8c-8faa-93a814367824","ios":"levelo://app?vid=f63bfab8-d07c-4b8c-8faa-93a814367824"},"vehicle_type_id":"4","last_reported":1745795374,"current_range_meters":24400,"station_id":"ce4bh012rcd13ifvqcv0","pricing_plan_id":"cebpf4jnsgd1na2vs0mg"},{"bike_id":"499cf8cf-6dc3-483a-bfa0-938414fa5ff8","system_id":"levelo_inurba_marseille","lat":43.322658,"lon":5.382928,"is_reserved":false,"is_disabled":false,"rental_uris":{"android":"levelo://app?vid=499cf8cf-6dc3-483a-bfa0-938414fa5ff8","ios":"levelo://app?vid=499cf8cf-6dc3-483a-bfa0-938414fa5ff8"},"vehicle_type_id":"4","last_reported":1745795374,"current_range_meters":24400,"station_id":"ce4bhr12rcd13ifvqhqg","pricing_plan_id":"cebpf4jnsgd1na2vs0mg"},{"bike_id":"e3ebf125-2a2f-414f-baeb-ae64e8bddc46","system_id":"levelo_inurba_marseille","lat":43.30915,"lon":5.40135,"is_reserved":false,"is_disabled":false,"rental_uris":{"android":"levelo://app?vid=e3ebf125-2a2f-414f-baeb-ae64e8bddc46","ios":"levelo://app?vid=e3ebf125-2a2f-414f-baeb-ae64e8bddc46"},"vehicle_type_id":"4","last_reported":1745795374,"current_range_meters":24400,"station_id":"ce4bgvp2rcd13ifvqct0","pricing_plan_id":"cebpf4jnsgd1na2vs0mg"},{"bike_id":"ae1ea35f-c087-4075-8951-1dc116cdb425","system_id":"levelo_inurba_marseille","lat":43.30444,"lon":5.389,"is_reserved":false,"is_disabled":false,"rental_uris":{"android":"levelo://app?vid=ae1ea35f-c087-4075-8951-1dc116cdb425","ios":"levelo://app?vid=ae1ea35f-c087-4075-8951-1dc116cdb425"},"vehicle_type_id":"4","last_reported":1745795374,"current_range_meters":24400,"station_id":"ce4bgk12rcd13ifvqbi0","pricing_plan_id":"cebpf4jnsgd1na2vs0mg"},{"bike_id":"dd0d9de5-5317-433e-924b-4f9f7dfe078e","system_id":"levelo_inurba_marseille","lat":43.3079,"lon":5.38153,"is_reserved":false,"is_disabled":false,"rental_uris":{"android":"levelo://app?vid=dd0d9de5-5317-433e-924b-4f9f7dfe078e","ios":"levelo://app?vid=dd0d9de5-5317-433e-924b-4f9f7dfe078e"},"vehicle_type_id":"4","last_reported":1745795374,"current_range_meters":24400,"station_id":"ce4bgt12rcd13ifvqce0","pricing_plan_id":"cebpf4jnsgd1na2vs0mg"},{"bike_id":"03e972c9-0324-4f2e-95ed-782d4d7614d7","system_id":"levelo_inurba_marseille","lat":43.25937,"lon":5.40889,"is_reserved":false,"is_disabled":true,"rental_uris":{"android":"levelo://app?vid=03e972c9-0324-4f2e-95ed-782d4d7614d7","ios":"levelo://app?vid=03e972c9-0324-4f2e-95ed-782d4d7614d7"},"vehicle_type_id":"4","last_reported":1745795374,"current_range_meters":24800,"station_id":"ce4bhm92rcd13ifvqglg","pricing_plan_id":"cebpf4jnsgd1na2vs0mg"},{"bike_id":"39987612-e249-4f14-80ba-63b3b1ca5fae","system_id":"levelo_inurba_marseille","lat":43.31116,"lon":5.37743,"is_reserved":false,"is_disabled":false,"rental_uris":{"android":"levelo://app?vid=39987612-e249-4f14-80ba-63b3b1ca5fae","ios":"levelo://app?vid=39987612-e249-4f14-80ba-63b3b1ca5fae"},"vehicle_type_id":"4","last_reported":1745795374,"current_range_meters":24800,"station_id":"ce4bgt92rcd13ifvqcg0","pricing_plan_id":"cebpf4jnsgd1na2vs0mg"},{"bike_id":"40c71d07-9d0c-4e50-b56c-92cfb061b420","system_id":"levelo_inurba_marseille","lat":43.29261,"lon":5.40895,"is_reserved":false,"is_disabled":false,"rental_uris":{"android":"levelo://app?vid=40c71d07-9d0c-4e50-b56c-92cfb061b420","ios":"levelo://app?vid=40c71d07-9d0c-4e50-b56c-92cfb061b420"},"vehicle_type_id":"4","last_reported":1745795374,"current_range_meters":24800,"station_id":"ce4bh192rcd13ifvqdc0","pricing_plan_id":"cebpf4jnsgd1na2vs0mg"},{"bike_id":"e2e5bb7f-eed3-4dee-a88d-18306cda0357","system_id":"levelo_inurba_marseille","lat":43.296072,"lon":5.380985,"is_reserved":false,"is_disabled":true,"rental_uris":{"android":"levelo://app?vid=e2e5bb7f-eed3-4dee-a88d-18306cda0357","ios":"levelo://app?vid=e2e5bb7f-eed3-4dee-a88d-18306cda0357"},"vehicle_type_id":"4","last_reported":1745795374,"current_range_meters":24800,"station_id":"ce4bgl12rcd13ifvqbo0","pricing_plan_id":"cebpf4jnsgd1na2vs0mg"},