{"last_updated":1741129735,"ttl":60,"version":"2.2","data":{"bikes":[{"bike_id":"b54725ec-8902-41c7-a009-71ab8cc1ba48","system_id":"levelo_inurba_marseille","lat":43.29531,"lon":5.38541,"is_reserved":false,"is_disabled":false,"rental_uris":{"android":"levelo://app?vid=b54725ec-8902-41c7-a009-71ab8cc1ba48","ios":"levelo://app?vid=b54725ec-8902-41c7-a009-71ab8cc1ba48"},"vehicle_type_id":"4","last_reported":1741129735,"current_range_meters":2800,"station_id":"ce4bgih2rcd13ifvqba0","pricing_plan_id":"cebpf4jnsgd1na2vs0mg"},{"bike_id":"c5e8cd2d-bc8c-432b-b100-b523341f5479","system_id":"levelo_inurba_marseille","lat":43.30901,"lon":5.38529,"is_reserved":false,"is_disabled":true,"rental_uris":{"android":"levelo://app?vid=c5e8cd2d-bc8c-432b-b100-b523341f5479","ios":"levelo://app?vid=c5e8cd2d-bc8c-432b-b100-b523341f5479"},"vehicle_type_id":"4","last_reported":1741129735,"current_range_meters":3600,"station_id":"","pricing_plan_id":"cebpf4jnsgd1na2vs0mg"},{"bike_id":"e7ec1ac1-2323-47bd-a2b5-7cd3afb282cf","system_id":"levelo_inurba_marseille","lat":43.26959,"lon":5.36669,"is_reserved":false,"is_disabled":false,"rental_uris":{"android":"levelo://app?vid=e7ec1ac1-2323-47bd-a2b5-7cd3afb282cf","ios":"levelo://app?vid=e7ec1ac1-2323-47bd-a2b5-7cd3afb282cf"},"vehicle_type_id":"4","last_reported":1741129735,"current_range_meters":3600,"station_id":"","pricing_plan_id":"cebpf4jnsgd1na2vs0mg"},{"bike_id":"854cacf0-abe2-4035-b375-e6d8e7161638","system_id":"levelo_inurba_marseille","lat":43.29987,"lon":5.38513,"is_reserved":false,"is_disabled":false,"rental_uris":{"android":"levelo://app?vid=854cacf0-abe2-4035-b375-e6d8e7161638","ios":"levelo://app?vid=854cacf0-abe2-4035-b375-e6d8e7161638"},"vehicle_type_id":"4","last_reported":1741129735,"current_range_meters":1600,"station_id":"ce4bgj92rcd13ifvqbd0","pricing_plan_id":"cebpf4jnsgd1na2vs0mg"},{"bike_id":"219d62ce-7b93-4c64-8d23-3e9d98cebec8","system_id":"levelo_inurba_marseille","lat":43.23182,"lon":5.39994,"is_reserved":false,"is_disabled":false,"rental_uris":{"android":"levelo://app?vid=219d62ce-7b93-4c64-8d23-3e9d98cebec8","ios":"levelo://app?vid=219d62ce-7b93-4c64-8d23-3e9d98cebec8"},"vehicle_type_id":"4","last_reported":1741129735,"current_range_meters":4000,"station_id":"ce4bhn12rcd13ifvqgqg","pricing_plan_id":"cebpf4jnsgd1na2vs0mg"},{"bike_id":"52cd5871-7a5b-4398-91a3-580577120244","system_id":"levelo_inurba_marseille","lat":43.28408,"lon":5.37535,"is_reserved":false,"is_disabled":true,"rental_uris":{"android":"levelo://app?vid=52cd5871-7a5b-4398-91a3-580577120244","ios":"levelo://app?vid=52cd5871-7a5b-4398-91a3-580577120244"},"vehicle_type_id":"4","last_reported":1741129735,"current_range_meters":4000,"station_id":"ce4bh412rcd13ifvqds0","pricing_plan_id":"cebpf4jnsgd1na2vs0mg"},{"bike_id":"fa90804b-5b87-4221-9795-b52afbdbae7e","system_id":"levelo_inurba_marseille","lat":43.28707,"lon":5.37939,"is_reserved":false,"is_disabled":false,"rental_uris":{"android":"levelo://app?vid=fa90804b-5b87-4221-9795-b52afbdbae7e","ios":"levelo://app?vid=fa90804b-5b87-4221-9795-b52afbdbae7e"},"vehicle_type_id":"4","last_reported":1741129735,"current_range_meters":4000,"station_id":"ce4bh9p2rcd13ifvqec0","pricing_plan_id":"cebpf4jnsgd1na2vs0mg"},{"bike_id":"31701141-a4c2-4c66-89b3-ee2824e625e0","system_id":"levelo_inurba_marseille","lat":43.2511,"lon":5.40325,"is_reserved":false,"is_disabled":false,"rental_uris":{"android":"levelo://app?vid=31701141-a4c2-4c66-89b3-ee2824e625e0","ios":"levelo://app?vid=31701141-a4c2-4c66-89b3-ee2824e625e0"},"vehicle_type_id":"4","last_reported":1741129735,"current_range_meters":4000,"station_id":"ce4bhlh2rcd13ifvqgig","pricing_plan_id":"cebpf4jnsgd1na2vs0mg"},{"bike_id":"e432fcbc-da49-4827-bc18-4179d60243bb","system_id":"levelo_inurba_marseille","lat":43.31221,"lon":5.36852,"is_reserved":false,"is_disabled":false,"rental_uris":{"android":"levelo://app?vid=e432fcbc-da49-4827-bc18-4179d60243bb","ios":"levelo://app?vid=e432fcbc-da49-4827-bc18-4179d60243bb"},"vehicle_type_id":"4","last_reported":1741129735,"current_range_meters":4000,"station_id":"ce4bgl92rcd13ifvqbq0","pricing_plan_id":"cebpf4jnsgd1na2vs0mg"},{"bike_id":"3fdc9a7e-2885-4db2-b302-c77e590b4771","system_id":"levelo_inurba_marseille","lat":43.31017,"lon":5.37623,"is_reserved":false,"is_disabled":false,"rental_uris":{"android":"levelo://app?vid=3fdc9a7e-2885-4db2-b302-c77e590b4771","ios":"levelo://app?vid=3fdc9a7e-2885-4db2-b302-c77e590b4771"},"vehicle_type_id":"4","last_reported":1741129735,"current_range_meters":4000,"station_id":"","pricing_plan_id":"cebpf4jnsgd1na2vs0mg"},{"bike_id":"1816717f-7f3a-4645-a53a-e691c8067442","system_id":"levelo_inurba_marseille","lat":43.31275,"lon":5.40168,"is_reserved":false,"is_disabled":true,"rental_uris":{"android":"levelo://app?vid=1816717f-7f3a-4645-a53a-e691c8067442","ios":"levelo://app?vid=1816717f-7f3a-4645-a53a-e691c8067442"},"vehicle_type_id":"4","last_reported":1741129735,"current_range_meters":4400,"station_id":"ce4bh092rcd13ifvqd30","pricing_plan_id":"cebpf4jnsgd1na2vs0mg"},{"bike_id":"d66e2247-8e70-450a-84c4-7b03101437cc","system_id":"levelo_inurba_marseille","lat":43.27309,"lon":5.40914,"is_reserved":false,"is_disabled":false,"rental_uris":{"android":"levelo://app?vid=d66e2247-8e70-450a-84c4-7b03101437cc","ios":"levelo://app?vid=d66e2247-8e70-450a-84c4-7b03101437cc"},"vehicle_type_id":"4","last_reported":1741129735,"current_range_meters":4400,"station_id":"","pricing_plan_id":"cebpf4jnsgd1na2vs0mg"},{"bike_id":"6816f1ac-b414-4197-81d2-374b8b9ed23e","system_id":"levelo_inurba_marseille","lat":43.27955,"lon":5.38708,"is_reserved":false,"is_disabled":false,"rental_uris":{"android":"levelo://app?vid=6816f1ac-b414-4197-81d2-374b8b9ed23e","ios":"levelo://app?vid=6816f1ac-b414-4197-81d2-374b8b9ed23e"},"vehicle_type_id":"4","last_reported":1741129735,"current_range_meters":4400,"station_id":"ce4bhg12rcd13ifvqf80","pricing_plan_id":"cebpf4jnsgd1na2vs0mg"},{"bike_id":"8746e1e2-9e2c-4ab9-abdb-e6909cfda4b2","system_id":"levelo_inurba_marseille","lat":43.28398,"lon":5.37533,"is_reserved":false,"is_disabled":false,"rental_uris":{"android":"levelo://app?vid=8746e1e2-9e2c-4ab9-abdb-e6909cfda4b2","ios":"levelo://app?vid=8746e1e2-9e2c-4ab9-abdb-e6909cfda4b2"},"vehicle_type_id":"4","last_reported":1741129735,"current_range_meters":4000,"station_id":"ce4bh412rcd13ifvqds0","pricing_plan_id":"cebpf4jnsgd1na2vs0mg"},{"bike_id":"905da3b5-ffda-4093-b252-634c59f7dd89","system_id":"levelo_inurba_marseille","lat":43.28644,"lon":5.35079,"is_reserved":false,"is_disabled":false,"rental_uris":{"android":"levelo://app?vid=905da3b5-ffda-4093-b252-634c59f7dd89","ios":"levelo://app?vid=905da3b5-ffda-4093-b252-634c59f7dd89"},"vehicle_type_id":"4","last_reported":1741129735,"current_range_meters":4800,"station_id":"ce4bhch2rcd13ifvqeug","pricing_plan_id":"cebpf4jnsgd1na2vs0mg"},{"bike_id":"bfe26a9a-f533-4fbe-b0b6-95a1e95a5f24","system_id":"levelo_inurba_marseille","lat":43.28084,"lon":5.39665,"is_reserved":false,"is_disabled":true,"rental_uris":{"android":"levelo://app?vid=bfe26a9a-f533-4fbe-b0b6-95a1e95a5f24","ios":"levelo://app?vid=bfe26a9a-f533-4fbe-b0b6-95a1e95a5f24"},"vehicle_type_id":"4","last_reported":1741129735,"current_range_meters":4800,"station_id":"ce4bho12rcd13ifvqh2g","pricing_plan_id":"cebpf4jnsgd1na2vs0mg"},{"bike_id":"3199d0b1-1880-4a09-9b73-b476aef89546","system_id":"levelo_inurba_marseille","lat":43.29988,"lon":5.37172,"is_reserved":false,"is_disabled":true,"rental_uris":{"android":"levelo://app?vid=3199d0b1-1880-4a09-9b73-b476aef89546","ios":"levelo://app?vid=3199d0b1-1880-4a09-9b73-b476aef89546"},"vehicle_type_id":"4","last_reported":1741129735,"current_range_meters":4800,"station_id":"ce4bgr92rcd13ifvqc7g","pricing_plan_id":"cebpf4jnsgd1na2vs0mg"},{"bike_id":"e65082d6-5529-479d-9979-0976e546b0b6","system_id":"levelo_inurba_marseille","lat":43.25558,"lon":5.38249,"is_reserved":false,"is_disabled":false,"rental_uris":{"android":"levelo://app?vid=e65082d6-5529-479d-9979-0976e546b0b6","ios":"levelo://app?vid=e65082d6-5529-479d-9979-0976e546b0b6"},"vehicle_type_id":"4","last_reported":1741129735,"current_range_meters":4800,"station_id":"ce4bhih2rcd13ifvqfs0","pricing_plan_id":"cebpf4jnsgd1na2vs0mg"},{"bike_id":"1cadfa19-98ca-48dd-9f67-8ab3a87a0e75","system_id":"levelo_inurba_marseille","lat":43.27656,"lon":5.38894,"is_reserved":false,"is_disabled":false,"rental_uris":{"android":"levelo://app?vid=1cadfa19-98ca-48dd-9f67-8ab3a87a0e75","ios":"levelo://app?vid=1cadfa19-98ca-48dd-9f67-8ab3a87a0e75"},"vehicle_type_id":"4","last_reported":1741129735,"current_range_meters":4800,"station_id":"ce4bhi12rcd13ifvqfo0","pricing_plan_id":"cebpf4jnsgd1na2vs0mg"},{"bike_id":"79687e17-5ece-4f9c-9252-898196d1c2cb","system_id":"levelo_inurba_marseille","lat":43.29892,"lon":5.38506,"is_reserved":false,"is_disabled":false,"rental_uris":{"android":"levelo://app?vid=79687e17-5ece-4f9c-9252-898196d1c2cb","ios":"levelo://app?vid=79687e17-5ece-4f9c-9252-898196d1c2cb"},"vehicle_type_id":"4","last_reported":1741129735,"current_range_meters":5600,"station_id":"","pricing_plan_id":"cebpf4jnsgd1na2vs0mg"},{"bike_id":"9e6dbc2a-80eb-443b-bb2c-7b14a1ecc330","system_id":"levelo_inurba_marseille","lat":43.26808,"lon":5.40262,"is_reserved":false,"is_disabled":false,"rental_uris":{"android":"levelo://app?vid=9e6dbc2a-80eb-443b-bb2c-7b14a1ecc330","ios":"levelo://app?vid=9e6dbc2a-80eb-443b-bb2c-7b14a1ecc330"},"vehicle_type_id":"4","last_reported":1741129735,"current_range_meters":5600,"station_id":"ce501612rcd8frsf0b60","pricing_plan_id":"cebpf4jnsgd1na2vs0mg"},{"bike_id":"1bab2e36-7d4c-4e31-ac56-7f02c3a32337","system_id":"levelo_inurba_marseille","lat":43.30326,"lon":5.40432,"is_reserved":false,"is_disabled":false,"rental_uris":{"android":"levelo://app?vid=1bab2e36-7d4c-4e31-ac56-7f02c3a32337","ios":"levelo://app?vid=1bab2e36-7d4c-4e31-ac56-7f02c3a32337"},"vehicle_type_id":"4","last_reported":1741129735,"current_range_meters":5600,"station_id":"ce4bh012rcd13ifvqd10","pricing_plan_id":"cebpf4jnsgd1na2vs0mg"},{"bike_id":"e63e5fb2-1553-47f6-9ba9-b9fe49bde62f","system_id":"levelo_inurba_marseille","lat":43.27962,"lon":5.38754,"is_reserved":false,"is_disabled":false,"rental_uris":{"android":"levelo://app?vid=e63e5fb2-1553-47f6-9ba9-b9fe49bde62f","ios":"levelo://app?vid=e63e5fb2-1553-47f6-9ba9-b9fe49bde62f"},"vehicle_type_id":"4","last_reported":1741129735,"current_range_meters":5600,"station_id":"ce4bhg12rcd13ifvqf80","pricing_plan_id":"cebpf4jnsgd1na2vs0mg"},{"bike_id":"81837559-78cb-4a14-a847-89a84b64c16b","system_id":"levelo_inurba_marseille","lat":43.25011,"lon":5.38913,"is_reserved":false,"is_disabled":false,"rental_uris":{"android":"levelo://app?vid=81837559-78cb-4a14-a847-89a84b64c16b","ios":"levelo://app?vid=81837559-78cb-4a14-a847-89a84b64c16b"},"vehicle_type_id":"4","last_reported":1741129735,"current_range_meters":5600,"station_id":"ce4bhgp2rcd13ifvqfd0","pricing_plan_id":"cebpf4jnsgd1na2vs0mg"},{"bike_id":"cdfb91ec-7ee7-41b1-b614-7969d8e9230c","system_id":"levelo_inurba_marseille","lat":43.28004,"lon":5.40469,"is_reserved":false,"is_disabled":true,"rental_uris":{"android":"levelo://app?vid=cdfb91ec-7ee7-41b1-b614-7969d8e9230c","ios":"levelo://app?vid=cdfb91ec-7ee7-41b1-b614-7969d8e9230c"},"vehicle_type_id":"4","last_reported":1741129735,"current_range_meters":5600,"station_id":"","pricing_plan_id":"cebpf4jnsgd1na2vs0mg"},{"bike_id":"ce8ef3d2-07e3-4512-8813-bcde53a01429","system_id":"levelo_inurba_marseille","lat":43.24157,"lon":5.36404,"is_reserved":false,"is_disabled":false,"rental_uris":{"android":"levelo://app?vid=ce8ef3d2-07e3-4512-8813-bcde53a01429","ios":"levelo://app?vid=ce8ef3d2-07e3-4512-8813-bcde53a01429"},"vehicle_type_id":"4","last_reported":1741129735,"current_range_meters":6000,"station_id":"cpo36qri1sfpv3e86is0","pricing_plan_id":"cebpf4jnsgd1na2vs0mg"},{"bike_id":"771552a7-ab8d-491e-9bd8-ee533f6ca525","system_id":"levelo_inurba_marseille","lat":43.231456,"lon":5.437178,"is_reserved":false,"is_disabled":false,"rental_uris":{"android":"levelo://app?vid=771552a7-ab8d-491e-9bd8-ee533f6ca525","ios":"levelo://app?vid=771552a7-ab8d-491e-9bd8-ee533f6ca525"},"vehicle_type_id":"4","last_reported":1741129735,"current_range_meters":6000,"station_id":"ce4bhmp2rcd13ifvqgog","pricing_plan_id":"cebpf4jnsgd1na2vs0mg"},{"bike_id":"66cd4363-08cc-4826-8a77-b569fa4aa42d","system_id":"levelo_inurba_marseille","lat":43.28721,"lon":5.39966,"is_reserved":false,"is_disabled":false,"rental_uris":{"android":"levelo://app?vid=66cd4363-08cc-4826-8a77-b569fa4aa42d","ios":"levelo://app?vid=66cd4363-08cc-4826-8a77-b569fa4aa42d"},"vehicle_type_id":"4","last_reported":1741129735,"current_range_meters":6000,"station_id":"ce4bho92rcd13ifvqh3g","pricing_plan_id":"cebpf4jnsgd1na2vs0mg"},{"bike_id":"cb69cf68-80db-4a90-8aeb-7ba64d56d8df","system_id":"levelo_inurba_marseille","lat":43.27301,"lon":5.40923,"is_reserved":false,"is_disabled":false,"rental_uris":{"android":"levelo://app?vid=cb69cf68-80db-4a90-8aeb-7ba64d56d8df","ios":"levelo://app?vid=cb69cf68-80db-4a90-8aeb-7ba64d56d8df"},"vehicle_type_id":"4","last_reported":1741129735,"current_range_meters":6000,"station_id":"","pricing_plan_id":"cebpf4jnsgd1na2vs0mg"},{"bike_id":"4a0af5ae-37f5-487c-8467-5f26b3bc48e8","system_id":"levelo_inurba_marseille","lat":43.30703,"lon":5.3809,"is_reserved":false,"is_disabled":false,"rental_uris":{"android":"levelo://app?vid=4a0af5ae-37f5-487c-8467-5f26b3bc48e8","ios":"levelo://app?vid=4a0af5ae-37f5-487c-8467-5f26b3bc48e8"},"vehicle_type_id":"4","last_reported":1741129735,"current_range_meters":6000,"station_id":"","pricing_plan_id":"cebpf4jnsgd1na2vs0mg"},{"bike_id":"10d61af2-a218-4397-b179-939c5dec9f2f","system_id":"levelo_inurba_marseille","lat":43.26502,"lon":5.39547,"is_reserved":false,"is_disabled":false,"rental_uris":{"android":"levelo://app?vid=10d61af2-a218-4397-b179-939c5dec9f2f","ios":"levelo://app?vid=10d61af2-a218-4397-b179-939c5dec9f2f"},"vehicle_type_id":"4","last_reported":1741129735,"current_range_meters":6400,"station_id":"ce4bhi12rcd13ifvqfq0","pricing_plan_id":"cebpf4jnsgd1na2vs0mg"},{"bike_id":"13c44e5e-5463-4505-ba1b-c0544af7d8ca","system_id":"levelo_inurba_marseille","lat":43.23202,"lon":5.35554,"is_reserved":false,"is_disabled":false,"rental_uris":{"android":"levelo://app?vid=13c44e5e-5463-4505-ba1b-c0544af7d8ca","ios":"levelo://app?vid=13c44e5e-5463-4505-ba1b-c0544af7d8ca"},"vehicle_type_id":"4","last_reported":1741129735,"current_range_meters":6400,"station_id":"ce4bhu92rcd13ifvqi70","pricing_plan_id":"cebpf4jnsgd1na2vs0mg"},{"bike_id":"c1c6d331-bef2-4ec2-b58e-cea42d9b5662","system_id":"levelo_inurba_marseille","lat":43.26841,"lon":5.39383,"is_reserved":false,"is_disabled":true,"rental_uris":{"android":"levelo://app?vid=c1c6d331-bef2-4ec2-b58e-cea42d9b5662","ios":"levelo://app?vid=c1c6d331-bef2-4ec2-b58e-cea42d9b5662"},"vehicle_type_id":"4","last_reported":1741129735,"current_range_meters":6800,"station_id":"","pricing_plan_id":"cebpf4jnsgd1na2vs0mg"},{"bike_id":"0b818497-4d97-451b-b637-cef3d02b5c9d","system_id":"levelo_inurba_marseille","lat":43.31718,"lon":5.43713,"is_reserved":false,"is_disabled":false,"rental_uris":{"android":"levelo://app?vid=0b818497-4d97-451b-b637-cef3d02b5c9d","ios":"levelo://app?vid=0b818497-4d97-451b-b637-cef3d02b5c9d"},"vehicle_type_id":"4","last_reported":1741129735,"current_range_meters":6800,"station_id":"ce4bhp92rcd13ifvqhcg","pricing_plan_id":"cebpf4jnsgd1na2vs0mg"},{"bike_id":"94e2fe73-27e1-47ea-a6c9-99dd1f3918d4","system_id":"levelo_inurba_marseille","lat":43.25086,"lon":5.39511,"is_reserved":false,"is_disabled":false,"rental_uris":{"android":"levelo://app?vid=94e2fe73-27e1-47ea-a6c9-99dd1f3918d4","ios":"levelo://app?vid=94e2fe73-27e1-47ea-a6c9-99dd1f3918d4"},"vehicle_type_id":"4","last_reported":1741129735,"current_range_meters":6800,"station_id":"ce4bhm12rcd13ifvqgkg","pricing_plan_id":"cebpf4jnsgd1na2vs0mg"},{"bike_id":"83e13657-2b1f-4b00-8276-03c45d12c05c","system_id":"levelo_inurba_marseille","lat":43.2319,"lon":5.3998,"is_reserved":false,"is_disabled":false,"rental_uris":{"android":"levelo://app?vid=83e13657-2b1f-4b00-8276-03c45d12c05c","ios":"levelo://app?vid=83e13657-2b1f-4b00-8276-03c45d12c05c"},"vehicle_type_id":"4","last_reported":1741129735,"current_range_meters":6800,"station_id":"ce4bhn12rcd13ifvqgqg","pricing_plan_id":"cebpf4jnsgd1na2vs0mg"},{"bike_id":"07d91d1e-a702-41c7-9927-e6284ce1296c","system_id":"levelo_inurba_marseille","lat":43.29707,"lon":5.36608,"is_reserved":false,"is_disabled":false,"rental_uris":{"android":"levelo://app?vid=07d91d1e-a702-41c7-9927-e6284ce1296c","ios":"levelo://app?vid=07d91d1e-a702-41c7-9927-e6284ce1296c"},"vehicle_type_id":"4","last_reported":1741129735,"current_range_meters":6800,"station_id":"ce4bgn12rcd13ifvqbt0","pricing_plan_id":"cebpf4jnsgd1na2vs0mg"},{"bike_id":"4953908e-c12d-41ee-881a-cce039598782","system_id":"levelo_inurba_marseille","lat":43.30798,"lon":5.4353,"is_reserved":false,"is_disabled":false,"rental_uris":{"android":"levelo://app?vid=4953908e-c12d-41ee-881a-cce039598782","ios":"levelo://app?vid=4953908e-c12d-41ee-881a-cce039598782"},"vehicle_type_id":"4","last_reported":1741129735,"current_range_meters":6800,"station_id":"ce4bhph2rcd13ifvqheg","pricing_plan_id":"cebpf4jnsgd1na2vs0mg"},{"bike_id":"a7e4c0d5-f8e4-4c3b-acad-9c7d5ce39506","system_id":"levelo_inurba_marseille","lat":43.31715,"lon":5.43689,"is_reserved":false,"is_disabled":false,"rental_uris":{"android":"levelo://app?vid=a7e4c0d5-f8e4-4c3b-acad-9c7d5ce39506","ios":"levelo://app?vid=a7e4c0d5-f8e4-4c3b-acad-9c7d5ce39506"},"vehicle_type_id":"4","last_reported":1741129735,"current_range_meters":7200,"station_id":"ce4bhp92rcd13ifvqhcg","pricing_plan_id":"cebpf4jnsgd1na2vs0mg"},{"bike_id":"c85fc62f-5162-4936-8b1a-1aa8d5c60d7b","system_id":"levelo_inurba_marseille","lat":43.31331,"lon":5.3969,"is_reserved":false,"is_disabled":false,"rental_uris":{"android":"levelo://app?vid=c85fc62f-5162-4936-8b1a-1aa8d5c60d7b","ios":"levelo://app?vid=c85fc62f-5162-4936-8b1a-1aa8d5c60d7b"},"vehicle_type_id":"4","last_reported":1741129735,"current_range_meters":7200,"station_id":"ce4bgvp2rcd13ifvqcu0","pricing_plan_id":"cebpf4jnsgd1na2vs0mg"},{"bike_id":"7c56e753-c384-40ec-96b6-b270324269c6","system_id":"levelo_inurba_marseille","lat":43.26239,"lon":5.40505,"is_reserved":false,"is_disabled":false,"rental_uris":{"android":"levelo://app?vid=7c56e753-c384-40ec-96b6-b270324269c6","ios":"levelo://app?vid=7c56e753-c384-40ec-96b6-b270324269c6"},"vehicle_type_id":"4","last_reported":1741129735,"current_range_meters":7200,"station_id":"ce4bhmh2rcd13ifvqgmg","pricing_plan_id":"cebpf4jnsgd1na2vs0mg"},{"bike_id":"64953142-7637-42b4-b0d1-c449e63f1db7","system_id":"levelo_inurba_marseille","lat":43.29618,"lon":5.36011,"is_reserved":false,"is_disabled":false,"rental_uris":{"android":"levelo://app?vid=64953142-7637-42b4-b0d1-c449e63f1db7","ios":"levelo://app?vid=64953142-7637-42b4-b0d1-c449e63f1db7"},"vehicle_type_id":"4","last_reported":1741129735,"current_range_meters":7200,"station_id":"","pricing_plan_id":"cebpf4jnsgd1na2vs0mg"},{"bike_id":"4900e558-d896-4e88-a482-c92483d35a16","system_id":"levelo_inurba_marseille","lat":43.28101,"lon":5.4458,"is_reserved":false,"is_disabled":false,"rental_uris":{"android":"levelo://app?vid=4900e558-d896-4e88-a482-c92483d35a16","ios":"levelo://app?vid=4900e558-d896-4e88-a482-c92483d35a16"},"vehicle_type_id":"4","last_reported":1741129735,"current_range_meters":7200,"station_id":"","pricing_plan_id":"cebpf4jnsgd1na2vs0mg"},{"bike_id":"e7354dad-9663-4e36-86b3-e94320664f74","system_id":"levelo_inurba_marseille","lat":43.28553,"lon":5.39493,"is_reserved":false,"is_disabled":false,"rental_uris":{"android":"levelo://app?vid=e7354dad-9663-4e36-86b3-e94320664f74","ios":"levelo://app?vid=e7354dad-9663-4e36-86b3-e94320664f74"},"vehicle_type_id":"4","last_reported":1741129735,"current_range_meters":7200,"station_id":"ce4bh292rcd13ifvqdg0","pricing_plan_id":"cebpf4jnsgd1na2vs0mg"},{"bike_id":"d31b2456-8658-4979-bcc6-467a9b901726","system_id":"levelo_inurba_marseille","lat":43.28937,"lon":5.36403,"is_reserved":false,"is_disabled":false,"rental_uris":{"android":"levelo://app?vid=d31b2456-8658-4979-bcc6-467a9b901726","ios":"levelo://app?vid=d31b2456-8658-4979-bcc6-467a9b901726"},"vehicle_type_id":"4","last_reported":1741129735,"current_range_meters":8000,"station_id":"ce4bhc92rcd13ifvqetg","pricing_plan_id":"cebpf4jnsgd1na2vs0mg"},{"bike_id":"4d031821-b90c-420c-be9f-756d9af38822","system_id":"levelo_inurba_marseille","lat":43.27753,"lon":5.40733,"is_reserved":false,"is_disabled":false,"rental_uris":{"android":"levelo://app?vid=4d031821-b90c-420c-be9f-756d9af38822","ios":"levelo://app?vid=4d031821-b90c-420c-be9f-756d9af38822"},"vehicle_type_id":"4","last_reported":1741129735,"current_range_meters":8000,"station_id":"","pricing_plan_id":"cebpf4jnsgd1na2vs0mg"},{"bike_id":"8a41fa9b-5e16-4238-9659-a23b1216d147","system_id":"levelo_inurba_marseille","lat":43.26684,"lon":5.38277,"is_reserved":false,"is_disabled":true,"rental_uris":{"android":"levelo://app?vid=8a41fa9b-5e16-4238-9659-a23b1216d147","ios":"levelo://app?vid=8a41fa9b-5e16-4238-9659-a23b1216d147"},"vehicle_type_id":"4","last_reported":1741129735,"current_range_meters":8000,"station_id":"ce4bhg92rcd13ifvqf90","pricing_plan_id":"cebpf4jnsgd1na2vs0mg"},{"bike_id":"a5220610-2baa-4046-b2da-7bac11157add","system_id":"levelo_inurba_marseille","lat":43.30306,"lon":5.36894,"is_reserved":false,"is_disabled":false,"rental_uris":{"android":"levelo://app?vid=a5220610-2baa-4046-b2da-7bac11157add","ios":"levelo://app?vid=a5220610-2baa-4046-b2da-7bac11157add"},"vehicle_type_id":"4","last_reported":1741129735,"current_range_meters":8000,"station_id":"ce4bgqh2rcd13ifvqc5g","pricing_plan_id":"cebpf4jnsgd1na2vs0mg"},{"bike_id":"0d96420a-e9fb-4106-a142-1e100df6f8c3","system_id":"levelo_inurba_marseille","lat":43.28724,"lon":5.36081,"is_reserved":false,"is_disabled":false,"rental_uris":{"android":"levelo://app?vid=0d96420a-e9fb-4106-a142-1e100df6f8c3","ios":"levelo://app?vid=0d96420a-e9fb-4106-a142-1e100df6f8c3"},"vehicle_type_id":"4","last_reported":1741129735,"current_range_meters":8000,"station_id":"cki0cbj6b192h4jlfktg","pricing_plan_id":"cebpf4jnsgd1na2vs0mg"},{"bike_id":"ef586f23-ee4b-465a-84b4-b76ec36bdcf2","system_id":"levelo_inurba_marseille","lat":43.28428,"lon":5.37504,"is_reserved":false,"is_disabled":false,"rental_uris":{"android":"levelo://app?vid=ef586f23-ee4b-465a-84b4-b76ec36bdcf2","ios":"levelo://app?vid=ef586f23-ee4b-465a-84b4-b76ec36bdcf2"},"vehicle_type_id":"4","last_reported":1741129735,"current_range_meters":8000,"station_id":"ce4bh412rcd13ifvqds0","pricing_plan_id":"cebpf4jnsgd1na2vs0mg"},{"bike_id":"098e1208-3091-42bd-9bb4-612148ea4ada","system_id":"levelo_inurba_marseille","lat":43.23353,"lon":5.36007,"is_reserved":false,"is_disabled":false,"rental_uris":{"android":"levelo://app?vid=098e1208-3091-42bd-9bb4-612148ea4ada","ios":"levelo://app?vid=098e1208-3091-42bd-9bb4-612148ea4ada"},"vehicle_type_id":"4","last_reported":1741129735,"current_range_meters":8000,"station_id":"","pricing_plan_id":"cebpf4jnsgd1na2vs0mg"},{"bike_id":"51b35190-dd77-4929-ad86-193e8785fcc9","system_id":"levelo_inurba_marseille","lat":43.29254,"lon":5.40919,"is_reserved":false,"is_disabled":false,"rental_uris":{"android":"levelo://app?vid=51b35190-dd77-4929-ad86-193e8785fcc9","ios":"levelo://app?vid=51b35190-dd77-4929-ad86-193e8785fcc9"},"vehicle_type_id":"4","last_reported":1741129735,"current_range_meters":8000,"station_id":"ce4bh192rcd13ifvqdc0","pricing_plan_id":"cebpf4jnsgd1na2vs0mg"},{"bike_id":"a7044ed3-d5ae-409b-9044-aa2ba47e6936","system_id":"levelo_inurba_marseille","lat":43.28261,"lon":5.35098,"is_reserved":false,"is_disabled":false,"rental_uris":{"android":"levelo://app?vid=a7044ed3-d5ae-409b-9044-aa2ba47e6936","ios":"levelo://app?vid=a7044ed3-d5ae-409b-9044-aa2ba47e6936"},"vehicle_type_id":"4","last_reported":1741129735,"current_range_meters":8000,"station_id":"ce4bhbp2rcd13ifvqerg","pricing_plan_id":"cebpf4jnsgd1na2vs0mg"},{"bike_id":"2f2997b2-435b-4046-83a1-e6ed0b0f0bde","system_id":"levelo_inurba_marseille","lat":43.2467,"lon":5.38165,"is_reserved":false,"is_disabled":false,"rental_uris":{"android":"levelo://app?vid=2f2997b2-435b-4046-83a1-e6ed0b0f0bde","ios":"levelo://app?vid=2f2997b2-435b-4046-83a1-e6ed0b0f0bde"},"vehicle_type_id":"4","last_reported":1741129735,"current_range_meters":8400,"station_id":"ce4bhih2rcd13ifvqfr0","pricing_plan_id":"cebpf4jnsgd1na2vs0mg"},{"bike_id":"7cf386a1-f879-4a1b-a7c4-9eebe0c89ca8","system_id":"levelo_inurba_marseille","lat":43.28076,"lon":5.3966,"is_reserved":false,"is_disabled":false,"rental_uris":{"android":"levelo://app?vid=7cf386a1-f879-4a1b-a7c4-9eebe0c89ca8","ios":"levelo://app?vid=7cf386a1-f879-4a1b-a7c4-9eebe0c89ca8"},"vehicle_type_id":"4","last_reported":1741129735,"current_range_meters":8400,"station_id":"ce4bho12rcd13ifvqh2g","pricing_plan_id":"cebpf4jnsgd1na2vs0mg"},{"bike_id":"67f170b2-c527-4f82-a5e7-48060deabad3","system_id":"levelo_inurba_marseille","lat":43.28044,"lon":5.36948,"is_reserved":false,"is_disabled":false,"rental_uris":{"android":"levelo://app?vid=67f170b2-c527-4f82-a5e7-48060deabad3","ios":"levelo://app?vid=67f170b2-c527-4f82-a5e7-48060deabad3"},"vehicle_type_id":"4","last_reported":1741129735,"current_range_meters":8400,"station_id":"ce4bha12rcd13ifvqef0","pricing_plan_id":"cebpf4jnsgd1na2vs0mg"},{"bike_id":"523797ee-a9f0-494d-a6a9-db807f9343e4","system_id":"levelo_inurba_marseille","lat":43.26536,"lon":5.39051,"is_reserved":false,"is_disabled":false,"rental_uris":{"android":"levelo://app?vid=523797ee-a9f0-494d-a6a9-db807f9343e4","ios":"levelo://app?vid=523797ee-a9f0-494d-a6a9-db807f9343e4"},"vehicle_type_id":"4","last_reported":1741129735,"current_range_meters":8400,"station_id":"ce4bhe12rcd13ifvqf30","pricing_plan_id":"cebpf4jnsgd1na2vs0mg"},{"bike_id":"13cc4aae-49e8-44f7-bfab-719bb6820256","system_id":"levelo_inurba_marseille","lat":43.27805,"lon":5.40672,"is_reserved":false,"is_disabled":true,"rental_uris":{"android":"levelo://app?vid=13cc4aae-49e8-44f7-bfab-719bb6820256","ios":"levelo://app?vid=13cc4aae-49e8-44f7-bfab-719bb6820256"},"vehicle_type_id":"4","last_reported":1741129735,"current_range_meters":8400,"station_id":"ce4bhnh2rcd13ifvqgtg","pricing_plan_id":"cebpf4jnsgd1na2vs0mg"},{"bike_id":"7f320169-016b-4b3e-a792-d0d62327dc94","system_id":"levelo_inurba_marseille","lat":43.27546,"lon":5.38454,"is_reserved":false,"is_disabled":false,"rental_uris":{"android":"levelo://app?vid=7f320169-016b-4b3e-a792-d0d62327dc94","ios":"levelo://app?vid=7f320169-016b-4b3e-a792-d0d62327dc94"},"vehicle_type_id":"4","last_reported":1741129735,"current_range_meters":8400,"station_id":"ce4bhh92rcd13ifvqfi0","pricing_plan_id":"cebpf4jnsgd1na2vs0mg"},{"bike_id":"32ec58ac-1836-4fb6-ae91-f231fbc95936","system_id":"levelo_inurba_marseille","lat":43.32102,"lon":5.40944,"is_reserved":false,"is_disabled":false,"rental_uris":{"android":"levelo://app?vid=32ec58ac-1836-4fb6-ae91-f231fbc95936","ios":"levelo://app?vid=32ec58ac-1836-4fb6-ae91-f231fbc95936"},"vehicle_type_id":"4","last_reported":1741129735,"current_range_meters":8400,"station_id":"","pricing_plan_id":"cebpf4jnsgd1na2vs0mg"},{"bike_id":"40592169-4d72-4b69-a512-be614d00ab33","system_id":"levelo_inurba_marseille","lat":43.28412,"lon":5.39656,"is_reserved":false,"is_disabled":false,"rental_uris":{"android":"levelo://app?vid=40592169-4d72-4b69-a512-be614d00ab33","ios":"levelo://app?vid=40592169-4d72-4b69-a512-be614d00ab33"},"vehicle_type_id":"4","last_reported":1741129735,"current_range_meters":8400,"station_id":"","pricing_plan_id":"cebpf4jnsgd1na2vs0mg"},{"bike_id":"f9e6d230-69c5-4095-84ed-f5e6a773b409","system_id":"levelo_inurba_marseille","lat":43.31158,"lon":5.38714,"is_reserved":false,"is_disabled":false,"rental_uris":{"android":"levelo://app?vid=f9e6d230-69c5-4095-84ed-f5e6a773b409","ios":"levelo://app?vid=f9e6d230-69c5-4095-84ed-f5e6a773b409"},"vehicle_type_id":"4","last_reported":1741129735,"current_range_meters":8800,"station_id":"ce4bgv12rcd13ifvqcp0","pricing_plan_id":"cebpf4jnsgd1na2vs0mg"},{"bike_id":"82cf1890-6fc9-45de-a4c6-a2860b6ad381","system_id":"levelo_inurba_marseille","lat":43.30886,"lon":5.39638,"is_reserved":false,"is_disabled":false,"rental_uris":{"android":"levelo://app?vid=82cf1890-6fc9-45de-a4c6-a2860b6ad381","ios":"levelo://app?vid=82cf1890-6fc9-45de-a4c6-a2860b6ad381"},"vehicle_type_id":"4","last_reported":1741129735,"current_range_meters":8800,"station_id":"ce4bh012rcd13ifvqcv0","pricing_plan_id":"cebpf4jnsgd1na2vs0mg"},{"bike_id":"39fbed77-4b9c-4f8d-bb61-98aaba0b0ee1","system_id":"levelo_inurba_marseille","lat":43.28084,"lon":5.39642,"is_reserved":false,"is_disabled":false,"rental_uris":{"android":"levelo://app?vid=39fbed77-4b9c-4f8d-bb61-98aaba0b0ee1","ios":"levelo://app?vid=39fbed77-4b9c-4f8d-bb61-98aaba0b0ee1"},"vehicle_type_id":"4","last_reported":1741129735,"current_range_meters":8800,"station_id":"ce4bho12rcd13ifvqh2g","pricing_plan_id":"cebpf4jnsgd1na2vs0mg"},{"bike_id":"48d28e38-4ec2-4e1e-b64a-7d4b817a6fea","system_id":"levelo_inurba_marseille","lat":43.23198,"lon":5.39968,"is_reserved":false,"is_disabled":false,"rental_uris":{"android":"levelo://app?vid=48d28e38-4ec2-4e1e-b64a-7d4b817a6fea","ios":"levelo://app?vid=48d28e38-4ec2-4e1e-b64a-7d4b817a6fea"},"vehicle_type_id":"4","last_reported":1741129735,"current_range_meters":8800,"station_id":"ce4bhn12rcd13ifvqgqg","pricing_plan_id":"cebpf4jnsgd1na2vs0mg"},{"bike_id":"4bc22bc8-57d9-4e3e-bbf9-5bb2e57875a0","system_id":"levelo_inurba_marseille","lat":43.27809,"lon":5.40726,"is_reserved":false,"is_disabled":false,"rental_uris":{"android":"levelo://app?vid=4bc22bc8-57d9-4e3e-bbf9-5bb2e57875a0","ios":"levelo://app?vid=4bc22bc8-57d9-4e3e-bbf9-5bb2e57875a0"},"vehicle_type_id":"4","last_reported":1741129735,"current_range_meters":8800,"station_id":"ce4bhnh2rcd13ifvqgtg","pricing_plan_id":"cebpf4jnsgd1na2vs0mg"},{"bike_id":"da26748f-c9b8-406a-97da-4e2614f8590a","system_id":"levelo_inurba_marseille","lat":43.28231,"lon":5.35106,"is_reserved":false,"is_disabled":false,"rental_uris":{"android":"levelo://app?vid=da26748f-c9b8-406a-97da-4e2614f8590a","ios":"levelo://app?vid=da26748f-c9b8-406a-97da-4e2614f8590a"},"vehicle_type_id":"4","last_reported":1741129735,"current_range_meters":8800,"station_id":"","pricing_plan_id":"cebpf4jnsgd1na2vs0mg"},{"bike_id":"b8dacfd7-6aa1-4cb2-ac25-dfdf82e53218","system_id":"levelo_inurba_marseille","lat":43.32382,"lon":5.38878,"is_reserved":false,"is_disabled":false,"rental_uris":{"android":"levelo://app?vid=b8dacfd7-6aa1-4cb2-ac25-dfdf82e53218","ios":"levelo://app?vid=b8dacfd7-6aa1-4cb2-ac25-dfdf82e53218"},"vehicle_type_id":"4","last_reported":1741129735,"current_range_meters":8800,"station_id":"ce4bhqp2rcd13ifvqhog","pricing_plan_id":"cebpf4jnsgd1na2vs0mg"},{"bike_id":"af961a62-89ab-48c3-99b4-9e347c6b0fdf","system_id":"levelo_inurba_marseille","lat":43.28071,"lon":5.39643,"is_reserved":false,"is_disabled":false,"rental_uris":{"android":"levelo://app?vid=af961a62-89ab-48c3-99b4-9e347c6b0fdf","ios":"levelo://app?vid=af961a62-89ab-48c3-99b4-9e347c6b0fdf"},"vehicle_type_id":"4","last_reported":1741129735,"current_range_meters":8800,"station_id":"ce4bho12rcd13ifvqh2g","pricing_plan_id":"cebpf4jnsgd1na2vs0mg"},{"bike_id":"9b540801-2fb4-4668-80c9-cb399c571c1a","system_id":"levelo_inurba_marseille","lat":43.26557,"lon":5.39005,"is_reserved":false,"is_disabled":false,"rental_uris":{"android":"levelo://app?vid=9b540801-2fb4-4668-80c9-cb399c571c1a","ios":"levelo://app?vid=9b540801-2fb4-4668-80c9-cb399c571c1a"},"vehicle_type_id":"4","last_reported":1741129735,"current_range_meters":8800,"station_id":"ce4bhe12rcd13ifvqf30","pricing_plan_id":"cebpf4jnsgd1na2vs0mg"},{"bike_id":"119408e4-7624-4320-bf5e-e4f029d82dc4","system_id":"levelo_inurba_marseille","lat":43.28715,"lon":5.39984,"is_reserved":false,"is_disabled":true,"rental_uris":{"android":"levelo://app?vid=119408e4-7624-4320-bf5e-e4f029d82dc4","ios":"levelo://app?vid=119408e4-7624-4320-bf5e-e4f029d82dc4"},"vehicle_type_id":"4","last_reported":1741129735,"current_range_meters":8800,"station_id":"ce4bho92rcd13ifvqh3g","pricing_plan_id":"cebpf4jnsgd1na2vs0mg"},{"bike_id":"673a0145-2d59-42c5-a9c3-2acb956f3a40","system_id":"levelo_inurba_marseille","lat":43.248265,"lon":5.374464,"is_reserved":false,"is_disabled":false,"rental_uris":{"android":"levelo://app?vid=673a0145-2d59-42c5-a9c3-2acb956f3a40","ios":"levelo://app?vid=673a0145-2d59-42c5-a9c3-2acb956f3a40"},"vehicle_type_id":"4","last_reported":1741129735,"current_range_meters":8800,"station_id":"ce4bhgh2rcd13ifvqfb0","pricing_plan_id":"cebpf4jnsgd1na2vs0mg"},{"bike_id":"d4856af7-9b74-4c20-9ef9-3e21a73f2567","system_id":"levelo_inurba_marseille","lat":43.2622,"lon":5.40441,"is_reserved":false,"is_disabled":false,"rental_uris":{"android":"levelo://app?vid=d4856af7-9b74-4c20-9ef9-3e21a73f2567","ios":"levelo://app?vid=d4856af7-9b74-4c20-9ef9-3e21a73f2567"},"vehicle_type_id":"4","last_reported":1741129735,"current_range_meters":8800,"station_id":"ce4bhmh2rcd13ifvqgmg","pricing_plan_id":"cebpf4jnsgd1na2vs0mg"},{"bike_id":"75d8b1d8-ca8d-400c-bdcf-1a41c663b6a5","system_id":"levelo_inurba_marseille","lat":43.31333,"lon":5.397,"is_reserved":false,"is_disabled":false,"rental_uris":{"android":"levelo://app?vid=75d8b1d8-ca8d-400c-bdcf-1a41c663b6a5","ios":"levelo://app?vid=75d8b1d8-ca8d-400c-bdcf-1a41c663b6a5"},"vehicle_type_id":"4","last_reported":1741129735,"current_range_meters":8800,"station_id":"ce4bgvp2rcd13ifvqcu0","pricing_plan_id":"cebpf4jnsgd1na2vs0mg"},{"bike_id":"ab731e16-e279-4ae3-957f-2d69bce547d7","system_id":"levelo_inurba_marseille","lat":43.31313,"lon":5.39713,"is_reserved":false,"is_disabled":false,"rental_uris":{"android":"levelo://app?vid=ab731e16-e279-4ae3-957f-2d69bce547d7","ios":"levelo://app?vid=ab731e16-e279-4ae3-957f-2d69bce547d7"},"vehicle_type_id":"4","last_reported":1741129735,"current_range_meters":9200,"station_id":"ce4bgvp2rcd13ifvqcu0","pricing_plan_id":"cebpf4jnsgd1na2vs0mg"},{"bike_id":"ea6a4a15-a453-498d-be30-f6d5d98c6c99","system_id":"levelo_inurba_marseille","lat":43.26806,"lon":5.40266,"is_reserved":false,"is_disabled":false,"rental_uris":{"android":"levelo://app?vid=ea6a4a15-a453-498d-be30-f6d5d98c6c99","ios":"levelo://app?vid=ea6a4a15-a453-498d-be30-f6d5d98c6c99"},"vehicle_type_id":"4","last_reported":1741129735,"current_range_meters":9200,"station_id":"ce501612rcd8frsf0b60","pricing_plan_id":"cebpf4jnsgd1na2vs0mg"},{"bike_id":"ee1d2ad1-36ca-49dd-a328-f2a9a9994ecb","system_id":"levelo_inurba_marseille","lat":43.310776,"lon":5.381383,"is_reserved":false,"is_disabled":false,"rental_uris":{"android":"levelo://app?vid=ee1d2ad1-36ca-49dd-a328-f2a9a9994ecb","ios":"levelo://app?vid=ee1d2ad1-36ca-49dd-a328-f2a9a9994ecb"},"vehicle_type_id":"4","last_reported":1741129735,"current_range_meters":9200,"station_id":"","pricing_plan_id":"cebpf4jnsgd1na2vs0mg"},{"bike_id":"19903e2e-3d4f-41a1-b835-4cea4256f9c9","system_id":"levelo_inurba_marseille","lat":43.30957,"lon":5.39053,"is_reserved":false,"is_disabled":false,"rental_uris":{"android":"levelo://app?vid=19903e2e-3d4f-41a1-b835-4cea4256f9c9","ios":"levelo://app?vid=19903e2e-3d4f-41a1-b835-4cea4256f9c9"},"vehicle_type_id":"4","last_reported":1741129735,"current_range_meters":9200,"station_id":"ce4bgup2rcd13ifvqco0","pricing_plan_id":"cebpf4jnsgd1na2vs0mg"},{"bike_id":"6178d4a3-6d1b-438c-ac71-a61f5db2dfc0","system_id":"levelo_inurba_marseille","lat":43.27758,"lon":5.40749,"is_reserved":false,"is_disabled":false,"rental_uris":{"android":"levelo://app?vid=6178d4a3-6d1b-438c-ac71-a61f5db2dfc0","ios":"levelo://app?vid=6178d4a3-6d1b-438c-ac71-a61f5db2dfc0"},"vehicle_type_id":"4","last_reported":1741129735,"current_range_meters":9200,"station_id":"","pricing_plan_id":"cebpf4jnsgd1na2vs0mg"},{"bike_id":"3bbda077-ccb3-4e8b-a9c7-ffc479e5ae60","system_id":"levelo_inurba_marseille","lat":43.29237,"lon":5.40917,"is_reserved":false,"is_disabled":false,"rental_uris":{"android":"levelo://app?vid=3bbda077-ccb3-4e8b-a9c7-ffc479e5ae60","ios":"levelo://app?vid=3bbda077-ccb3-4e8b-a9c7-ffc479e5ae60"},"vehicle_type_id":"4","last_reported":1741129735,"current_range_meters":9200,"station_id":"ce4bh192rcd13ifvqdc0","pricing_plan_id":"cebpf4jnsgd1na2vs0mg"},{"bike_id":"fc362ed4-f97d-4509-a177-d63f9ff5896f","system_id":"levelo_inurba_marseille","lat":43.24075,"lon":5.37748,"is_reserved":false,"is_disabled":false,"rental_uris":{"android":"levelo://app?vid=fc362ed4-f97d-4509-a177-d63f9ff5896f","ios":"levelo://app?vid=fc362ed4-f97d-4509-a177-d63f9ff5896f"},"vehicle_type_id":"4","last_reported":1741129735,"current_range_meters":9200,"station_id":"ce4bhnp2rcd13ifvqgvg","pricing_plan_id":"cebpf4jnsgd1na2vs0mg"},{"bike_id":"bf284b86-4ac3-4366-b668-6c33ec16b817","system_id":"levelo_inurba_marseille","lat":43.31763,"lon":5.39021,"is_reserved":false,"is_disabled":false,"rental_uris":{"android":"levelo://app?vid=bf284b86-4ac3-4366-b668-6c33ec16b817","ios":"levelo://app?vid=bf284b86-4ac3-4366-b668-6c33ec16b817"},"vehicle_type_id":"4","last_reported":1741129735,"current_range_meters":9200,"station_id":"ce4bhqp2rcd13ifvqhng","pricing_plan_id":"cebpf4jnsgd1na2vs0mg"},{"bike_id":"16422601-b06e-4432-b609-e1ea0e7ea850","system_id":"levelo_inurba_marseille","lat":43.26213,"lon":5.40446,"is_reserved":false,"is_disabled":false,"rental_uris":{"android":"levelo://app?vid=16422601-b06e-4432-b609-e1ea0e7ea850","ios":"levelo://app?vid=16422601-b06e-4432-b609-e1ea0e7ea850"},"vehicle_type_id":"4","last_reported":1741129735,"current_range_meters":9200,"station_id":"ce4bhmh2rcd13ifvqgmg","pricing_plan_id":"cebpf4jnsgd1na2vs0mg"},{"bike_id":"5d3e6fd1-d59d-494a-b7ae-de8150ce0ae7","system_id":"levelo_inurba_marseille","lat":43.28424,"lon":5.37541,"is_reserved":false,"is_disabled":false,"rental_uris":{"android":"levelo://app?vid=5d3e6fd1-d59d-494a-b7ae-de8150ce0ae7","ios":"levelo://app?vid=5d3e6fd1-d59d-494a-b7ae-de8150ce0ae7"},"vehicle_type_id":"4","last_reported":1741129735,"current_range_meters":9200,"station_id":"ce4bh412rcd13ifvqds0","pricing_plan_id":"cebpf4jnsgd1na2vs0mg"},{"bike_id":"4ca12a71-1cf0-4991-b0f9-f8da3b9a9e30","system_id":"levelo_inurba_marseille","lat":43.27987,"lon":5.38698,"is_reserved":false,"is_disabled":false,"rental_uris":{"android":"levelo://app?vid=4ca12a71-1cf0-4991-b0f9-f8da3b9a9e30","ios":"levelo://app?vid=4ca12a71-1cf0-4991-b0f9-f8da3b9a9e30"},"vehicle_type_id":"4","last_reported":1741129735,"current_range_meters":9200,"station_id":"ce4bhg12rcd13ifvqf80","pricing_plan_id":"cebpf4jnsgd1na2vs0mg"},{"bike_id":"44a7153b-0fd7-4509-836b-676bbf84fb06","system_id":"levelo_inurba_marseille","lat":43.23194,"lon":5.35564,"is_reserved":false,"is_disabled":false,"rental_uris":{"android":"levelo://app?vid=44a7153b-0fd7-4509-836b-676bbf84fb06","ios":"levelo://app?vid=44a7153b-0fd7-4509-836b-676bbf84fb06"},"vehicle_type_id":"4","last_reported":1741129735,"current_range_meters":9200,"station_id":"ce4bhu92rcd13ifvqi70","pricing_plan_id":"cebpf4jnsgd1na2vs0mg"},{"bike_id":"378742b7-983e-469b-a38e-ad703616c184","system_id":"levelo_inurba_marseille","lat":43.28452,"lon":5.35889,"is_reserved":false,"is_disabled":false,"rental_uris":{"android":"levelo://app?vid=378742b7-983e-469b-a38e-ad703616c184","ios":"levelo://app?vid=378742b7-983e-469b-a38e-ad703616c184"},"vehicle_type_id":"4","last_reported":1741129735,"current_range_meters":9200,"station_id":"ce4bhah2rcd13ifvqei0","pricing_plan_id":"cebpf4jnsgd1na2vs0mg"},{"bike_id":"c225e1a0-be98-446e-a697-333af943beb7","system_id":"levelo_inurba_marseille","lat":43.2792,"lon":5.39596,"is_reserved":false,"is_disabled":false,"rental_uris":{"android":"levelo://app?vid=c225e1a0-be98-446e-a697-333af943beb7","ios":"levelo://app?vid=c225e1a0-be98-446e-a697-333af943beb7"},"vehicle_type_id":"4","last_reported":1741129735,"current_range_meters":9600,"station_id":"ce4bhf92rcd13ifvqf40","pricing_plan_id":"cebpf4jnsgd1na2vs0mg"},{"bike_id":"7713fc49-6e07-41e6-a17f-a9a87c419919","system_id":"levelo_inurba_marseille","lat":43.31077,"lon":5.38351,"is_reserved":false,"is_disabled":false,"rental_uris":{"android":"levelo://app?vid=7713fc49-6e07-41e6-a17f-a9a87c419919","ios":"levelo://app?vid=7713fc49-6e07-41e6-a17f-a9a87c419919"},"vehicle_type_id":"4","last_reported":1741129735,"current_range_meters":9600,"station_id":"ce4bgv92rcd13ifvqcr0","pricing_plan_id":"cebpf4jnsgd1na2vs0mg"},{"bike_id":"b7922d13-ed36-467a-ad1f-c7d4918b1458","system_id":"levelo_inurba_marseille","lat":43.31267,"lon":5.40182,"is_reserved":false,"is_disabled":false,"rental_uris":{"android":"levelo://app?vid=b7922d13-ed36-467a-ad1f-c7d4918b1458","ios":"levelo://app?vid=b7922d13-ed36-467a-ad1f-c7d4918b1458"},"vehicle_type_id":"4","last_reported":1741129735,"current_range_meters":9600,"station_id":"ce4bh092rcd13ifvqd30","pricing_plan_id":"cebpf4jnsgd1na2vs0mg"},{"bike_id":"d60cac99-82a1-4e5b-a599-a8a6f24a7ede","system_id":"levelo_inurba_marseille","lat":43.30923,"lon":5.40145,"is_reserved":false,"is_disabled":false,"rental_uris":{"android":"levelo://app?vid=d60cac99-82a1-4e5b-a599-a8a6f24a7ede","ios":"levelo://app?vid=d60cac99-82a1-4e5b-a599-a8a6f24a7ede"},"vehicle_type_id":"4","last_reported":1741129735,"current_range_meters":9600,"station_id":"ce4bgvp2rcd13ifvqct0","pricing_plan_id":"cebpf4jnsgd1na2vs0mg"},{"bike_id":"d0ca81a9-e00f-4db3-8736-356c22988b10","system_id":"levelo_inurba_marseille","lat":43.30804,"lon":5.43537,"is_reserved":false,"is_disabled":false,"rental_uris":{"android":"levelo://app?vid=d0ca81a9-e00f-4db3-8736-356c22988b10","ios":"levelo://app?vid=d0ca81a9-e00f-4db3-8736-356c22988b10"},"vehicle_type_id":"4","last_reported":1741129735,"current_range_meters":9600,"station_id":"ce4bhph2rcd13ifvqheg","pricing_plan_id":"cebpf4jnsgd1na2vs0mg"},{"bike_id":"0d40529a-4ceb-4fe5-a173-9a9387273cfa","system_id":"levelo_inurba_marseille","lat":43.25723,"lon":5.41102,"is_reserved":false,"is_disabled":false,"rental_uris":{"android":"levelo://app?vid=0d40529a-4ceb-4fe5-a173-9a9387273cfa","ios":"levelo://app?vid=0d40529a-4ceb-4fe5-a173-9a9387273cfa"},"vehicle_type_id":"4","last_reported":1741129735,"current_range_meters":9600,"station_id":"ce4bhkp2rcd13ifvqgd0","pricing_plan_id":"cebpf4jnsgd1na2vs0mg"},{"bike_id":"bb688706-69e9-4ba8-9806-7df641f3b926","system_id":"levelo_inurba_marseille","lat":43.2927,"lon":5.40176,"is_reserved":false,"is_disabled":false,"rental_uris":{"android":"levelo://app?vid=bb688706-69e9-4ba8-9806-7df641f3b926","ios":"levelo://app?vid=bb688706-69e9-4ba8-9806-7df641f3b926"},"vehicle_type_id":"4","last_reported":1741129735,"current_range_meters":9600,"station_id":"ce4bh312rcd13ifvqdk0","pricing_plan_id":"cebpf4jnsgd1na2vs0mg"},{"bike_id":"d67742a9-6760-4a59-9b2e-6bf86bea27b8","system_id":"levelo_inurba_marseille","lat":43.29917,"lon":5.37597,"is_reserved":false,"is_disabled":false,"rental_uris":{"android":"levelo://app?vid=d67742a9-6760-4a59-9b2e-6bf86bea27b8","ios":"levelo://app?vid=d67742a9-6760-4a59-9b2e-6bf86bea27b8"},"vehicle_type_id":"4","last_reported":1741129735,"current_range_meters":9600,"station_id":"","pricing_plan_id":"cebpf4jnsgd1na2vs0mg"},{"bike_id":"a2e9312b-d692-42a0-9823-fe0aab56075b","system_id":"levelo_inurba_marseille","lat":43.23143,"lon":5.4371,"is_reserved":false,"is_disabled":true,"rental_uris":{"android":"levelo://app?vid=a2e9312b-d692-42a0-9823-fe0aab56075b","ios":"levelo://app?vid=a2e9312b-d692-42a0-9823-fe0aab56075b"},"vehicle_type_id":"4","last_reported":1741129735,"current_range_meters":9600,"station_id":"ce4bhmp2rcd13ifvqgog","pricing_plan_id":"cebpf4jnsgd1na2vs0mg"},{"bike_id":"ebd5a4cc-9448-442e-9931-6c7b22efa41f","system_id":"levelo_inurba_marseille","lat":43.32368,"lon":5.38879,"is_reserved":false,"is_disabled":false,"rental_uris":{"android":"levelo://app?vid=ebd5a4cc-9448-442e-9931-6c7b22efa41f","ios":"levelo://app?vid=ebd5a4cc-9448-442e-9931-6c7b22efa41f"},"vehicle_type_id":"4","last_reported":1741129735,"current_range_meters":9600,"station_id":"ce4bhqp2rcd13ifvqhog","pricing_plan_id":"cebpf4jnsgd1na2vs0mg"},{"bike_id":"09c8dc9f-c3a7-4e22-a7b9-ef2e31aca175","system_id":"levelo_inurba_marseille","lat":43.30935,"lon":5.40144,"is_reserved":false,"is_disabled":false,"rental_uris":{"android":"levelo://app?vid=09c8dc9f-c3a7-4e22-a7b9-ef2e31aca175","ios":"levelo://app?vid=09c8dc9f-c3a7-4e22-a7b9-ef2e31aca175"},"vehicle_type_id":"4","last_reported":1741129735,"current_range_meters":9600,"station_id":"ce4bgvp2rcd13ifvqct0","pricing_plan_id":"cebpf4jnsgd1na2vs0mg"},{"bike_id":"97d0cc1e-b85b-4315-9149-86ad1aaf4246","system_id":"levelo_inurba_marseille","lat":43.28464,"lon":5.39194,"is_reserved":false,"is_disabled":false,"rental_uris":{"android":"levelo://app?vid=97d0cc1e-b85b-4315-9149-86ad1aaf4246","ios":"levelo://app?vid=97d0cc1e-b85b-4315-9149-86ad1aaf4246"},"vehicle_type_id":"4","last_reported":1741129735,"current_range_meters":9600,"station_id":"ce4bhoh2rcd13ifvqh5g","pricing_plan_id":"cebpf4jnsgd1na2vs0mg"},{"bike_id":"ac514084-b0c1-4f78-b5b9-9ce9636c049c","system_id":"levelo_inurba_marseille","lat":43.30593,"lon":5.37226,"is_reserved":false,"is_disabled":false,"rental_uris":{"android":"levelo://app?vid=ac514084-b0c1-4f78-b5b9-9ce9636c049c","ios":"levelo://app?vid=ac514084-b0c1-4f78-b5b9-9ce9636c049c"},"vehicle_type_id":"4","last_reported":1741129735,"current_range_meters":9600,"station_id":"ce4bgqh2rcd13ifvqc4g","pricing_plan_id":"cebpf4jnsgd1na2vs0mg"},{"bike_id":"ede61442-3229-4ac2-8d72-b654099eef6a","system_id":"levelo_inurba_marseille","lat":43.33012,"lon":5.39019,"is_reserved":false,"is_disabled":false,"rental_uris":{"android":"levelo://app?vid=ede61442-3229-4ac2-8d72-b654099eef6a","ios":"levelo://app?vid=ede61442-3229-4ac2-8d72-b654099eef6a"},"vehicle_type_id":"4","last_reported":1741129735,"current_range_meters":9600,"station_id":"ce4bhr92rcd13ifvqhrg","pricing_plan_id":"cebpf4jnsgd1na2vs0mg"},{"bike_id":"50c80d5f-c222-4d20-bbcf-1d367f507e27","system_id":"levelo_inurba_marseille","lat":43.291002,"lon":5.381398,"is_reserved":false,"is_disabled":false,"rental_uris":{"android":"levelo://app?vid=50c80d5f-c222-4d20-bbcf-1d367f507e27","ios":"levelo://app?vid=50c80d5f-c222-4d20-bbcf-1d367f507e27"},"vehicle_type_id":"4","last_reported":1741129735,"current_range_meters":9600,"station_id":"","pricing_plan_id":"cebpf4jnsgd1na2vs0mg"},{"bike_id":"21b19842-9ad9-4db0-bc46-3d2827c0069e","system_id":"levelo_inurba_marseille","lat":43.23204,"lon":5.35557,"is_reserved":false,"is_disabled":false,"rental_uris":{"android":"levelo://app?vid=21b19842-9ad9-4db0-bc46-3d2827c0069e","ios":"levelo://app?vid=21b19842-9ad9-4db0-bc46-3d2827c0069e"},"vehicle_type_id":"4","last_reported":1741129735,"current_range_meters":9600,"station_id":"ce4bhu92rcd13ifvqi70","pricing_plan_id":"cebpf4jnsgd1na2vs0mg"},{"bike_id":"332abda5-2296-4955-8d29-1593f717e1c9","system_id":"levelo_inurba_marseille","lat":43.27952,"lon":5.41582,"is_reserved":false,"is_disabled":false,"rental_uris":{"android":"levelo://app?vid=332abda5-2296-4955-8d29-1593f717e1c9","ios":"levelo://app?vid=332abda5-2296-4955-8d29-1593f717e1c9"},"vehicle_type_id":"4","last_reported":1741129735,"current_range_meters":10000,"station_id":"","pricing_plan_id":"cebpf4jnsgd1na2vs0mg"},{"bike_id":"daca5608-d824-4447-a25b-fde22b6fa82e","system_id":"levelo_inurba_marseille","lat":43.28699,"lon":5.37387,"is_reserved":false,"is_disabled":false,"rental_uris":{"android":"levelo://app?vid=daca5608-d824-4447-a25b-fde22b6fa82e","ios":"levelo://app?vid=daca5608-d824-4447-a25b-fde22b6fa82e"},"vehicle_type_id":"4","last_reported":1741129735,"current_range_meters":10000,"station_id":"ce4bh3p2rcd13ifvqdq0","pricing_plan_id":"cebpf4jnsgd1na2vs0mg"},{"bike_id":"4e6eac08-b624-4f71-84f3-0c6188cb583d","system_id":"levelo_inurba_marseille","lat":43.3305,"lon":5.39038,"is_reserved":false,"is_disabled":false,"rental_uris":{"android":"levelo://app?vid=4e6eac08-b624-4f71-84f3-0c6188cb583d","ios":"levelo://app?vid=4e6eac08-b624-4f71-84f3-0c6188cb583d"},"vehicle_type_id":"4","last_reported":1741129735,"current_range_meters":10000,"station_id":"ce4bhr92rcd13ifvqhrg","pricing_plan_id":"cebpf4jnsgd1na2vs0mg"},{"bike_id":"3ded77b2-2546-466b-86c8-ef9cfb4b4e63","system_id":"levelo_inurba_marseille","lat":43.25102,"lon":5.4038,"is_reserved":false,"is_disabled":false,"rental_uris":{"android":"levelo://app?vid=3ded77b2-2546-466b-86c8-ef9cfb4b4e63","ios":"levelo://app?vid=3ded77b2-2546-466b-86c8-ef9cfb4b4e63"},"vehicle_type_id":"4","last_reported":1741129735,"current_range_meters":10000,"station_id":"ce4bhlh2rcd13ifvqgig","pricing_plan_id":"cebpf4jnsgd1na2vs0mg"},{"bike_id":"913bb55b-2edb-4434-9d82-fe796f8d08f1","system_id":"levelo_inurba_marseille","lat":43.28613,"lon":5.35112,"is_reserved":false,"is_disabled":false,"rental_uris":{"android":"levelo://app?vid=913bb55b-2edb-4434-9d82-fe796f8d08f1","ios":"levelo://app?vid=913bb55b-2edb-4434-9d82-fe796f8d08f1"},"vehicle_type_id":"4","last_reported":1741129735,"current_range_meters":10000,"station_id":"ce4bhch2rcd13ifvqeug","pricing_plan_id":"cebpf4jnsgd1na2vs0mg"},{"bike_id":"3f3c1456-9049-45c0-983e-1e780cd7ac03","system_id":"levelo_inurba_marseille","lat":43.2807,"lon":5.39643,"is_reserved":false,"is_disabled":false,"rental_uris":{"android":"levelo://app?vid=3f3c1456-9049-45c0-983e-1e780cd7ac03","ios":"levelo://app?vid=3f3c1456-9049-45c0-983e-1e780cd7ac03"},"vehicle_type_id":"4","last_reported":1741129735,"current_range_meters":10000,"station_id":"ce4bho12rcd13ifvqh2g","pricing_plan_id":"cebpf4jnsgd1na2vs0mg"},{"bike_id":"3eb72fbf-7948-4624-8ffb-a8d97ab7c9e6","system_id":"levelo_inurba_marseille","lat":43.23982,"lon":5.3661,"is_reserved":false,"is_disabled":false,"rental_uris":{"android":"levelo://app?vid=3eb72fbf-7948-4624-8ffb-a8d97ab7c9e6","ios":"levelo://app?vid=3eb72fbf-7948-4624-8ffb-a8d97ab7c9e6"},"vehicle_type_id":"4","last_reported":1741129735,"current_range_meters":10000,"station_id":"ce4bhi12rcd13ifvqfp0","pricing_plan_id":"cebpf4jnsgd1na2vs0mg"},{"bike_id":"bb5de7ea-83f9-4463-b672-1ca258599166","system_id":"levelo_inurba_marseille","lat":43.31336,"lon":5.39705,"is_reserved":false,"is_disabled":false,"rental_uris":{"android":"levelo://app?vid=bb5de7ea-83f9-4463-b672-1ca258599166","ios":"levelo://app?vid=bb5de7ea-83f9-4463-b672-1ca258599166"},"vehicle_type_id":"4","last_reported":1741129735,"current_range_meters":10800,"station_id":"ce4bgvp2rcd13ifvqcu0","pricing_plan_id":"cebpf4jnsgd1na2vs0mg"},{"bike_id":"c39e2295-e7a5-4c5b-833a-007e71b3658e","system_id":"levelo_inurba_marseille","lat":43.30797,"lon":5.43526,"is_reserved":false,"is_disabled":false,"rental_uris":{"android":"levelo://app?vid=c39e2295-e7a5-4c5b-833a-007e71b3658e","ios":"levelo://app?vid=c39e2295-e7a5-4c5b-833a-007e71b3658e"},"vehicle_type_id":"4","last_reported":1741129735,"current_range_meters":10800,"station_id":"ce4bhph2rcd13ifvqheg","pricing_plan_id":"cebpf4jnsgd1na2vs0mg"},{"bike_id":"136cb9a9-1e3b-4d1b-badc-9ed56a652de2","system_id":"levelo_inurba_marseille","lat":43.28404,"lon":5.37521,"is_reserved":false,"is_disabled":false,"rental_uris":{"android":"levelo://app?vid=136cb9a9-1e3b-4d1b-badc-9ed56a652de2","ios":"levelo://app?vid=136cb9a9-1e3b-4d1b-badc-9ed56a652de2"},"vehicle_type_id":"4","last_reported":1741129735,"current_range_meters":10800,"station_id":"ce4bh412rcd13ifvqds0","pricing_plan_id":"cebpf4jnsgd1na2vs0mg"},{"bike_id":"00608916-7958-4604-b882-c5c8cddffbdd","system_id":"levelo_inurba_marseille","lat":43.30241,"lon":5.40089,"is_reserved":false,"is_disabled":false,"rental_uris":{"android":"levelo://app?vid=00608916-7958-4604-b882-c5c8cddffbdd","ios":"levelo://app?vid=00608916-7958-4604-b882-c5c8cddffbdd"},"vehicle_type_id":"4","last_reported":1741129735,"current_range_meters":10800,"station_id":"ce4bgvh2rcd13ifvqcs0","pricing_plan_id":"cebpf4jnsgd1na2vs0mg"},{"bike_id":"08edb43b-0433-48ff-8c1a-b9c3a5c66ded","system_id":"levelo_inurba_marseille","lat":43.28431,"lon":5.37545,"is_reserved":false,"is_disabled":false,"rental_uris":{"android":"levelo://app?vid=08edb43b-0433-48ff-8c1a-b9c3a5c66ded","ios":"levelo://app?vid=08edb43b-0433-48ff-8c1a-b9c3a5c66ded"},"vehicle_type_id":"4","last_reported":1741129735,"current_range_meters":10800,"station_id":"ce4bh412rcd13ifvqds0","pricing_plan_id":"cebpf4jnsgd1na2vs0mg"},{"bike_id":"0596970d-6eb4-4331-8d1d-96c25a649f4a","system_id":"levelo_inurba_marseille","lat":43.286676,"lon":5.363416,"is_reserved":false,"is_disabled":false,"rental_uris":{"android":"levelo://app?vid=0596970d-6eb4-4331-8d1d-96c25a649f4a","ios":"levelo://app?vid=0596970d-6eb4-4331-8d1d-96c25a649f4a"},"vehicle_type_id":"4","last_reported":1741129735,"current_range_meters":10800,"station_id":"ce4bhah2rcd13ifvqej0","pricing_plan_id":"cebpf4jnsgd1na2vs0mg"},{"bike_id":"ed4c1c10-3fc3-47c0-be84-e8c73611bf7f","system_id":"levelo_inurba_marseille","lat":43.27068,"lon":5.40273,"is_reserved":false,"is_disabled":false,"rental_uris":{"android":"levelo://app?vid=ed4c1c10-3fc3-47c0-be84-e8c73611bf7f","ios":"levelo://app?vid=ed4c1c10-3fc3-47c0-be84-e8c73611bf7f"},"vehicle_type_id":"4","last_reported":1741129735,"current_range_meters":10800,"station_id":"ce4bhk92rcd13ifvqgc0","pricing_plan_id":"cebpf4jnsgd1na2vs0mg"},{"bike_id":"53f986b5-b4ac-4e4d-bde6-b88e844ffa37","system_id":"levelo_inurba_marseille","lat":43.24065,"lon":5.37764,"is_reserved":false,"is_disabled":false,"rental_uris":{"android":"levelo://app?vid=53f986b5-b4ac-4e4d-bde6-b88e844ffa37","ios":"levelo://app?vid=53f986b5-b4ac-4e4d-bde6-b88e844ffa37"},"vehicle_type_id":"4","last_reported":1741129735,"current_range_meters":10800,"station_id":"ce4bhnp2rcd13ifvqgvg","pricing_plan_id":"cebpf4jnsgd1na2vs0mg"},{"bike_id":"226fc5b5-2dc3-4df3-b484-d227347b3355","system_id":"levelo_inurba_marseille","lat":43.28451,"lon":5.35885,"is_reserved":false,"is_disabled":false,"rental_uris":{"android":"levelo://app?vid=226fc5b5-2dc3-4df3-b484-d227347b3355","ios":"levelo://app?vid=226fc5b5-2dc3-4df3-b484-d227347b3355"},"vehicle_type_id":"4","last_reported":1741129735,"current_range_meters":10800,"station_id":"ce4bhah2rcd13ifvqei0","pricing_plan_id":"cebpf4jnsgd1na2vs0mg"},{"bike_id":"ec1930f4-7944-4e1a-8967-bad6e440e5c9","system_id":"levelo_inurba_marseille","lat":43.24637,"lon":5.3816,"is_reserved":false,"is_disabled":false,"rental_uris":{"android":"levelo://app?vid=ec1930f4-7944-4e1a-8967-bad6e440e5c9","ios":"levelo://app?vid=ec1930f4-7944-4e1a-8967-bad6e440e5c9"},"vehicle_type_id":"4","last_reported":1741129735,"current_range_meters":10800,"station_id":"ce4bhih2rcd13ifvqfr0","pricing_plan_id":"cebpf4jnsgd1na2vs0mg"},{"bike_id":"ceb5978b-80bd-4fc9-97eb-9be5a10aa63d","system_id":"levelo_inurba_marseille","lat":43.28573,"lon":5.39487,"is_reserved":false,"is_disabled":false,"rental_uris":{"android":"levelo://app?vid=ceb5978b-80bd-4fc9-97eb-9be5a10aa63d","ios":"levelo://app?vid=ceb5978b-80bd-4fc9-97eb-9be5a10aa63d"},"vehicle_type_id":"4","last_reported":1741129735,"current_range_meters":11200,"station_id":"ce4bh292rcd13ifvqdg0","pricing_plan_id":"cebpf4jnsgd1na2vs0mg"},{"bike_id":"0122c1c3-b417-4093-9107-12ae15086493","system_id":"levelo_inurba_marseille","lat":43.31335,"lon":5.39695,"is_reserved":false,"is_disabled":false,"rental_uris":{"android":"levelo://app?vid=0122c1c3-b417-4093-9107-12ae15086493","ios":"levelo://app?vid=0122c1c3-b417-4093-9107-12ae15086493"},"vehicle_type_id":"4","last_reported":1741129735,"current_range_meters":11200,"station_id":"ce4bgvp2rcd13ifvqcu0","pricing_plan_id":"cebpf4jnsgd1na2vs0mg"},{"bike_id":"75b157d8-b549-4cca-8cfc-29af76b0ecc3","system_id":"levelo_inurba_marseille","lat":43.29799,"lon":5.37112,"is_reserved":false,"is_disabled":false,"rental_uris":{"android":"levelo://app?vid=75b157d8-b549-4cca-8cfc-29af76b0ecc3","ios":"levelo://app?vid=75b157d8-b549-4cca-8cfc-29af76b0ecc3"},"vehicle_type_id":"4","last_reported":1741129735,"current_range_meters":11200,"station_id":"ce4bgop2rcd13ifvqc1g","pricing_plan_id":"cebpf4jnsgd1na2vs0mg"},{"bike_id":"d7527d7b-d40c-41ab-aeb5-cac021160e30","system_id":"levelo_inurba_marseille","lat":43.2803,"lon":5.36949,"is_reserved":false,"is_disabled":false,"rental_uris":{"android":"levelo://app?vid=d7527d7b-d40c-41ab-aeb5-cac021160e30","ios":"levelo://app?vid=d7527d7b-d40c-41ab-aeb5-cac021160e30"},"vehicle_type_id":"4","last_reported":1741129735,"current_range_meters":11200,"station_id":"ce4bha12rcd13ifvqef0","pricing_plan_id":"cebpf4jnsgd1na2vs0mg"},{"bike_id":"51f6f578-8898-487a-9da7-ff3d6d379d1b","system_id":"levelo_inurba_marseille","lat":43.321,"lon":5.36762,"is_reserved":false,"is_disabled":false,"rental_uris":{"android":"levelo://app?vid=51f6f578-8898-487a-9da7-ff3d6d379d1b","ios":"levelo://app?vid=51f6f578-8898-487a-9da7-ff3d6d379d1b"},"vehicle_type_id":"4","last_reported":1741129735,"current_range_meters":11200,"station_id":"ce4bhrh2rcd13ifvqhug","pricing_plan_id":"cebpf4jnsgd1na2vs0mg"},{"bike_id":"4c0e314a-87e2-48f0-a7b0-ec6605046de8","system_id":"levelo_inurba_marseille","lat":43.32117,"lon":5.36768,"is_reserved":false,"is_disabled":false,"rental_uris":{"android":"levelo://app?vid=4c0e314a-87e2-48f0-a7b0-ec6605046de8","ios":"levelo://app?vid=4c0e314a-87e2-48f0-a7b0-ec6605046de8"},"vehicle_type_id":"4","last_reported":1741129735,"current_range_meters":11200,"station_id":"ce4bhrh2rcd13ifvqhug","pricing_plan_id":"cebpf4jnsgd1na2vs0mg"},{"bike_id":"17c04b47-b4f3-4a2a-accd-d5f659a10fa3","system_id":"levelo_inurba_marseille","lat":43.32482,"lon":5.36566,"is_reserved":false,"is_disabled":false,"rental_uris":{"android":"levelo://app?vid=17c04b47-b4f3-4a2a-accd-d5f659a10fa3","ios":"levelo://app?vid=17c04b47-b4f3-4a2a-accd-d5f659a10fa3"},"vehicle_type_id":"4","last_reported":1741129735,"current_range_meters":11600,"station_id":"ce4bhs12rcd13ifvqhvg","pricing_plan_id":"cebpf4jnsgd1na2vs0mg"},{"bike_id":"6bd9ae6b-bfca-415f-be8f-f6dc404448cd","system_id":"levelo_inurba_marseille","lat":43.279998,"lon":5.400103,"is_reserved":false,"is_disabled":false,"rental_uris":{"android":"levelo://app?vid=6bd9ae6b-bfca-415f-be8f-f6dc404448cd","ios":"levelo://app?vid=6bd9ae6b-bfca-415f-be8f-f6dc404448cd"},"vehicle_type_id":"4","last_reported":1741129735,"current_range_meters":11600,"station_id":"ce4bh3h2rcd13ifvqdo0","pricing_plan_id":"cebpf4jnsgd1na2vs0mg"},{"bike_id":"6ea8ab5c-65c2-4db6-8cb6-dfdbe5b30189","system_id":"levelo_inurba_marseille","lat":43.3237,"lon":5.38873,"is_reserved":false,"is_disabled":false,"rental_uris":{"android":"levelo://app?vid=6ea8ab5c-65c2-4db6-8cb6-dfdbe5b30189","ios":"levelo://app?vid=6ea8ab5c-65c2-4db6-8cb6-dfdbe5b30189"},"vehicle_type_id":"4","last_reported":1741129735,"current_range_meters":11600,"station_id":"ce4bhqp2rcd13ifvqhog","pricing_plan_id":"cebpf4jnsgd1na2vs0mg"},{"bike_id":"40aff33d-1539-45b6-9efe-a1c7fa7c7dbc","system_id":"levelo_inurba_marseille","lat":43.25723,"lon":5.41113,"is_reserved":false,"is_disabled":false,"rental_uris":{"android":"levelo://app?vid=40aff33d-1539-45b6-9efe-a1c7fa7c7dbc","ios":"levelo://app?vid=40aff33d-1539-45b6-9efe-a1c7fa7c7dbc"},"vehicle_type_id":"4","last_reported":1741129735,"current_range_meters":11600,"station_id":"ce4bhkp2rcd13ifvqgd0","pricing_plan_id":"cebpf4jnsgd1na2vs0mg"},{"bike_id":"9250a28a-9289-4df0-ba18-f9b6050fcdec","system_id":"levelo_inurba_marseille","lat":43.29956,"lon":5.39206,"is_reserved":false,"is_disabled":false,"rental_uris":{"android":"levelo://app?vid=9250a28a-9289-4df0-ba18-f9b6050fcdec","ios":"levelo://app?vid=9250a28a-9289-4df0-ba18-f9b6050fcdec"},"vehicle_type_id":"4","last_reported":1741129735,"current_range_meters":12000,"station_id":"","pricing_plan_id":"cebpf4jnsgd1na2vs0mg"},{"bike_id":"62abbf65-fdb4-4039-8d17-a6787ca98437","system_id":"levelo_inurba_marseille","lat":43.26487,"lon":5.39543,"is_reserved":false,"is_disabled":true,"rental_uris":{"android":"levelo://app?vid=62abbf65-fdb4-4039-8d17-a6787ca98437","ios":"levelo://app?vid=62abbf65-fdb4-4039-8d17-a6787ca98437"},"vehicle_type_id":"4","last_reported":1741129735,"current_range_meters":12000,"station_id":"ce4bhi12rcd13ifvqfq0","pricing_plan_id":"cebpf4jnsgd1na2vs0mg"},{"bike_id":"6061c82f-63ed-42ba-870f-42df5f1a263a","system_id":"levelo_inurba_marseille","lat":43.28844,"lon":5.35839,"is_reserved":false,"is_disabled":false,"rental_uris":{"android":"levelo://app?vid=6061c82f-63ed-42ba-870f-42df5f1a263a","ios":"levelo://app?vid=6061c82f-63ed-42ba-870f-42df5f1a263a"},"vehicle_type_id":"4","last_reported":1741129735,"current_range_meters":12000,"station_id":"ce4bhb12rcd13ifvqem0","pricing_plan_id":"cebpf4jnsgd1na2vs0mg"},{"bike_id":"a47a13a9-c176-4f2b-bca1-9dd7e5a64881","system_id":"levelo_inurba_marseille","lat":43.30925,"lon":5.40143,"is_reserved":false,"is_disabled":true,"rental_uris":{"android":"levelo://app?vid=a47a13a9-c176-4f2b-bca1-9dd7e5a64881","ios":"levelo://app?vid=a47a13a9-c176-4f2b-bca1-9dd7e5a64881"},"vehicle_type_id":"4","last_reported":1741129735,"current_range_meters":12000,"station_id":"ce4bgvp2rcd13ifvqct0","pricing_plan_id":"cebpf4jnsgd1na2vs0mg"},{"bike_id":"65454335-2b8f-41a7-9a83-ad755de99323","system_id":"levelo_inurba_marseille","lat":43.24813,"lon":5.37442,"is_reserved":false,"is_disabled":false,"rental_uris":{"android":"levelo://app?vid=65454335-2b8f-41a7-9a83-ad755de99323","ios":"levelo://app?vid=65454335-2b8f-41a7-9a83-ad755de99323"},"vehicle_type_id":"4","last_reported":1741129735,"current_range_meters":12000,"station_id":"ce4bhgh2rcd13ifvqfb0","pricing_plan_id":"cebpf4jnsgd1na2vs0mg"},{"bike_id":"f8b34b05-3ce8-4023-b46a-493d367bd4f6","system_id":"levelo_inurba_marseille","lat":43.27197,"lon":5.4097,"is_reserved":false,"is_disabled":false,"rental_uris":{"android":"levelo://app?vid=f8b34b05-3ce8-4023-b46a-493d367bd4f6","ios":"levelo://app?vid=f8b34b05-3ce8-4023-b46a-493d367bd4f6"},"vehicle_type_id":"4","last_reported":1741129735,"current_range_meters":12000,"station_id":"ce4bhl12rcd13ifvqgf0","pricing_plan_id":"cebpf4jnsgd1na2vs0mg"},{"bike_id":"0eb9fef3-83c8-47c8-ad9e-cfe2998c47d1","system_id":"levelo_inurba_marseille","lat":43.3106,"lon":5.37564,"is_reserved":false,"is_disabled":false,"rental_uris":{"android":"levelo://app?vid=0eb9fef3-83c8-47c8-ad9e-cfe2998c47d1","ios":"levelo://app?vid=0eb9fef3-83c8-47c8-ad9e-cfe2998c47d1"},"vehicle_type_id":"4","last_reported":1741129735,"current_range_meters":12400,"station_id":"","pricing_plan_id":"cebpf4jnsgd1na2vs0mg"},{"bike_id":"391744a2-abab-4ab2-a32e-38c6ddee882a","system_id":"levelo_inurba_marseille","lat":43.29978,"lon":5.38494,"is_reserved":false,"is_disabled":true,"rental_uris":{"android":"levelo://app?vid=391744a2-abab-4ab2-a32e-38c6ddee882a","ios":"levelo://app?vid=391744a2-abab-4ab2-a32e-38c6ddee882a"},"vehicle_type_id":"4","last_reported":1741129735,"current_range_meters":12400,"station_id":"ce4bgj92rcd13ifvqbd0","pricing_plan_id":"cebpf4jnsgd1na2vs0mg"},{"bike_id":"20d1a78d-5f17-41db-b09b-679046e6747a","system_id":"levelo_inurba_marseille","lat":43.29423,"lon":5.39764,"is_reserved":false,"is_disabled":false,"rental_uris":{"android":"levelo://app?vid=20d1a78d-5f17-41db-b09b-679046e6747a","ios":"levelo://app?vid=20d1a78d-5f17-41db-b09b-679046e6747a"},"vehicle_type_id":"4","last_reported":1741129735,"current_range_meters":12400,"station_id":"ce4bh3h2rcd13ifvqdo0","pricing_plan_id":"cebpf4jnsgd1na2vs0mg"},{"bike_id":"c19d2d03-17b5-4949-b7dc-22a7fd555156","system_id":"levelo_inurba_marseille","lat":43.3004,"lon":5.39891,"is_reserved":false,"is_disabled":false,"rental_uris":{"android":"levelo://app?vid=c19d2d03-17b5-4949-b7dc-22a7fd555156","ios":"levelo://app?vid=c19d2d03-17b5-4949-b7dc-22a7fd555156"},"vehicle_type_id":"4","last_reported":1741129735,"current_range_meters":12400,"station_id":"","pricing_plan_id":"cebpf4jnsgd1na2vs0mg"},{"bike_id":"6d43b52d-edb7-44c3-8ec8-85fd8093a142","system_id":"levelo_inurba_marseille","lat":43.28114,"lon":5.37869,"is_reserved":false,"is_disabled":false,"rental_uris":{"android":"levelo://app?vid=6d43b52d-edb7-44c3-8ec8-85fd8093a142","ios":"levelo://app?vid=6d43b52d-edb7-44c3-8ec8-85fd8093a142"},"vehicle_type_id":"4","last_reported":1741129735,"current_range_meters":12400,"station_id":"ce4bha12rcd13ifvqee0","pricing_plan_id":"cebpf4jnsgd1na2vs0mg"},{"bike_id":"f6968460-496f-4dc8-98f9-fe94f42f985f","system_id":"levelo_inurba_marseille","lat":43.29255,"lon":5.40903,"is_reserved":false,"is_disabled":false,"rental_uris":{"android":"levelo://app?vid=f6968460-496f-4dc8-98f9-fe94f42f985f","ios":"levelo://app?vid=f6968460-496f-4dc8-98f9-fe94f42f985f"},"vehicle_type_id":"4","last_reported":1741129735,"current_range_meters":12400,"station_id":"ce4bh192rcd13ifvqdc0","pricing_plan_id":"cebpf4jnsgd1na2vs0mg"},{"bike_id":"d571166c-77a4-4a91-b051-9cc34ad31336","system_id":"levelo_inurba_marseille","lat":43.301994,"lon":5.393325,"is_reserved":false,"is_disabled":false,"rental_uris":{"android":"levelo://app?vid=d571166c-77a4-4a91-b051-9cc34ad31336","ios":"levelo://app?vid=d571166c-77a4-4a91-b051-9cc34ad31336"},"vehicle_type_id":"4","last_reported":1741129735,"current_range_meters":12400,"station_id":"","pricing_plan_id":"cebpf4jnsgd1na2vs0mg"},{"bike_id":"8441514c-4110-42af-a6dc-85606173b4cc","system_id":"levelo_inurba_marseille","lat":43.24657,"lon":5.38164,"is_reserved":false,"is_disabled":false,"rental_uris":{"android":"levelo://app?vid=8441514c-4110-42af-a6dc-85606173b4cc","ios":"levelo://app?vid=8441514c-4110-42af-a6dc-85606173b4cc"},"vehicle_type_id":"4","last_reported":1741129735,"current_range_meters":12400,"station_id":"ce4bhih2rcd13ifvqfr0","pricing_plan_id":"cebpf4jnsgd1na2vs0mg"},{"bike_id":"bfe0354a-b51d-4d0a-9a0b-5331f5003841","system_id":"levelo_inurba_marseille","lat":43.31326,"lon":5.39698,"is_reserved":false,"is_disabled":false,"rental_uris":{"android":"levelo://app?vid=bfe0354a-b51d-4d0a-9a0b-5331f5003841","ios":"levelo://app?vid=bfe0354a-b51d-4d0a-9a0b-5331f5003841"},"vehicle_type_id":"4","last_reported":1741129735,"current_range_meters":12400,"station_id":"ce4bgvp2rcd13ifvqcu0","pricing_plan_id":"cebpf4jnsgd1na2vs0mg"},{"bike_id":"b32a2fa1-b5fb-4c15-89ca-49c22cd0cab8","system_id":"levelo_inurba_marseille","lat":43.25113,"lon":5.40309,"is_reserved":false,"is_disabled":false,"rental_uris":{"android":"levelo://app?vid=b32a2fa1-b5fb-4c15-89ca-49c22cd0cab8","ios":"levelo://app?vid=b32a2fa1-b5fb-4c15-89ca-49c22cd0cab8"},"vehicle_type_id":"4","last_reported":1741129735,"current_range_meters":12400,"station_id":"ce4bhlh2rcd13ifvqgig","pricing_plan_id":"cebpf4jnsgd1na2vs0mg"},{"bike_id":"d6297422-2acf-4f46-aec5-5c41ff5cd34f","system_id":"levelo_inurba_marseille","lat":43.25823,"lon":5.39436,"is_reserved":false,"is_disabled":false,"rental_uris":{"android":"levelo://app?vid=d6297422-2acf-4f46-aec5-5c41ff5cd34f","ios":"levelo://app?vid=d6297422-2acf-4f46-aec5-5c41ff5cd34f"},"vehicle_type_id":"4","last_reported":1741129735,"current_range_meters":12800,"station_id":"ce4bhip2rcd13ifvqft0","pricing_plan_id":"cebpf4jnsgd1na2vs0mg"},{"bike_id":"9664280c-ec19-44a4-9913-206ac50d66b9","system_id":"levelo_inurba_marseille","lat":43.26212,"lon":5.40459,"is_reserved":false,"is_disabled":false,"rental_uris":{"android":"levelo://app?vid=9664280c-ec19-44a4-9913-206ac50d66b9","ios":"levelo://app?vid=9664280c-ec19-44a4-9913-206ac50d66b9"},"vehicle_type_id":"4","last_reported":1741129735,"current_range_meters":12800,"station_id":"ce4bhmh2rcd13ifvqgmg","pricing_plan_id":"cebpf4jnsgd1na2vs0mg"},{"bike_id":"a838736c-caba-4d79-b4b3-abe30bc022e5","system_id":"levelo_inurba_marseille","lat":43.30324,"lon":5.40431,"is_reserved":false,"is_disabled":false,"rental_uris":{"android":"levelo://app?vid=a838736c-caba-4d79-b4b3-abe30bc022e5","ios":"levelo://app?vid=a838736c-caba-4d79-b4b3-abe30bc022e5"},"vehicle_type_id":"4","last_reported":1741129735,"current_range_meters":12800,"station_id":"ce4bh012rcd13ifvqd10","pricing_plan_id":"cebpf4jnsgd1na2vs0mg"},{"bike_id":"d45ce4bf-f9f2-429a-8e99-fd1c9932a08a","system_id":"levelo_inurba_marseille","lat":43.30662,"lon":5.40729,"is_reserved":false,"is_disabled":false,"rental_uris":{"android":"levelo://app?vid=d45ce4bf-f9f2-429a-8e99-fd1c9932a08a","ios":"levelo://app?vid=d45ce4bf-f9f2-429a-8e99-fd1c9932a08a"},"vehicle_type_id":"4","last_reported":1741129735,"current_range_meters":12800,"station_id":"","pricing_plan_id":"cebpf4jnsgd1na2vs0mg"},{"bike_id":"7cd5e07c-ad2a-4af8-99d9-77c41335ce79","system_id":"levelo_inurba_marseille","lat":43.24169,"lon":5.364,"is_reserved":false,"is_disabled":false,"rental_uris":{"android":"levelo://app?vid=7cd5e07c-ad2a-4af8-99d9-77c41335ce79","ios":"levelo://app?vid=7cd5e07c-ad2a-4af8-99d9-77c41335ce79"},"vehicle_type_id":"4","last_reported":1741129735,"current_range_meters":12800,"station_id":"cpo36qri1sfpv3e86is0","pricing_plan_id":"cebpf4jnsgd1na2vs0mg"},{"bike_id":"b8c62fec-1043-4b45-af85-725c0bbab8a1","system_id":"levelo_inurba_marseille","lat":43.31698,"lon":5.37731,"is_reserved":false,"is_disabled":false,"rental_uris":{"android":"levelo://app?vid=b8c62fec-1043-4b45-af85-725c0bbab8a1","ios":"levelo://app?vid=b8c62fec-1043-4b45-af85-725c0bbab8a1"},"vehicle_type_id":"4","last_reported":1741129735,"current_range_meters":12800,"station_id":"ce4bgth2rcd13ifvqch0","pricing_plan_id":"cebpf4jnsgd1na2vs0mg"},{"bike_id":"03d5bd23-db2c-4a3d-9573-a1403447f741","system_id":"levelo_inurba_marseille","lat":43.27857,"lon":5.40667,"is_reserved":false,"is_disabled":false,"rental_uris":{"android":"levelo://app?vid=03d5bd23-db2c-4a3d-9573-a1403447f741","ios":"levelo://app?vid=03d5bd23-db2c-4a3d-9573-a1403447f741"},"vehicle_type_id":"4","last_reported":1741129735,"current_range_meters":12800,"station_id":"","pricing_plan_id":"cebpf4jnsgd1na2vs0mg"},{"bike_id":"e126cf9b-9912-4c39-ab86-baa13346af6b","system_id":"levelo_inurba_marseille","lat":43.30887,"lon":5.39642,"is_reserved":false,"is_disabled":false,"rental_uris":{"android":"levelo://app?vid=e126cf9b-9912-4c39-ab86-baa13346af6b","ios":"levelo://app?vid=e126cf9b-9912-4c39-ab86-baa13346af6b"},"vehicle_type_id":"4","last_reported":1741129735,"current_range_meters":12800,"station_id":"ce4bh012rcd13ifvqcv0","pricing_plan_id":"cebpf4jnsgd1na2vs0mg"},{"bike_id":"c55557ad-1ed5-4997-aee7-ac92107f14b6","system_id":"levelo_inurba_marseille","lat":43.26452,"lon":5.37501,"is_reserved":false,"is_disabled":false,"rental_uris":{"android":"levelo://app?vid=c55557ad-1ed5-4997-aee7-ac92107f14b6","ios":"levelo://app?vid=c55557ad-1ed5-4997-aee7-ac92107f14b6"},"vehicle_type_id":"4","last_reported":1741129735,"current_range_meters":13600,"station_id":"","pricing_plan_id":"cebpf4jnsgd1na2vs0mg"},{"bike_id":"28096b7f-96ae-4ea2-8ceb-2396385a6306","system_id":"levelo_inurba_marseille","lat":43.24635,"lon":5.38894,"is_reserved":false,"is_disabled":true,"rental_uris":{"android":"levelo://app?vid=28096b7f-96ae-4ea2-8ceb-2396385a6306","ios":"levelo://app?vid=28096b7f-96ae-4ea2-8ceb-2396385a6306"},"vehicle_type_id":"4","last_reported":1741129735,"current_range_meters":13600,"station_id":"ce4bhg12rcd13ifvqf60","pricing_plan_id":"cebpf4jnsgd1na2vs0mg"},{"bike_id":"15d8cf60-e2c6-4878-b1df-683348cc043e","system_id":"levelo_inurba_marseille","lat":43.2482,"lon":5.37478,"is_reserved":false,"is_disabled":false,"rental_uris":{"android":"levelo://app?vid=15d8cf60-e2c6-4878-b1df-683348cc043e","ios":"levelo://app?vid=15d8cf60-e2c6-4878-b1df-683348cc043e"},"vehicle_type_id":"4","last_reported":1741129735,"current_range_meters":13600,"station_id":"ce4bhgh2rcd13ifvqfb0","pricing_plan_id":"cebpf4jnsgd1na2vs0mg"},{"bike_id":"9de41fe4-188a-4afb-bc62-b371fe1daa54","system_id":"levelo_inurba_marseille","lat":43.29275,"lon":5.36843,"is_reserved":false,"is_disabled":false,"rental_uris":{"android":"levelo://app?vid=9de41fe4-188a-4afb-bc62-b371fe1daa54","ios":"levelo://app?vid=9de41fe4-188a-4afb-bc62-b371fe1daa54"},"vehicle_type_id":"4","last_reported":1741129735,"current_range_meters":13600,"station_id":"ce4bhbp2rcd13ifvqesg","pricing_plan_id":"cebpf4jnsgd1na2vs0mg"},{"bike_id":"59265087-e393-4063-9d20-fa507a2a898c","system_id":"levelo_inurba_marseille","lat":43.27822,"lon":5.40724,"is_reserved":false,"is_disabled":false,"rental_uris":{"android":"levelo://app?vid=59265087-e393-4063-9d20-fa507a2a898c","ios":"levelo://app?vid=59265087-e393-4063-9d20-fa507a2a898c"},"vehicle_type_id":"4","last_reported":1741129735,"current_range_meters":14000,"station_id":"ce4bhnh2rcd13ifvqgtg","pricing_plan_id":"cebpf4jnsgd1na2vs0mg"},{"bike_id":"b11ea1cf-21dd-4a0c-ae04-390baa13dc61","system_id":"levelo_inurba_marseille","lat":43.28439,"lon":5.39213,"is_reserved":false,"is_disabled":false,"rental_uris":{"android":"levelo://app?vid=b11ea1cf-21dd-4a0c-ae04-390baa13dc61","ios":"levelo://app?vid=b11ea1cf-21dd-4a0c-ae04-390baa13dc61"},"vehicle_type_id":"4","last_reported":1741129735,"current_range_meters":14000,"station_id":"ce4bhoh2rcd13ifvqh5g","pricing_plan_id":"cebpf4jnsgd1na2vs0mg"},{"bike_id":"b0bab969-b185-4a3a-91e5-f6829e4cca8e","system_id":"levelo_inurba_marseille","lat":43.30421,"lon":5.39753,"is_reserved":false,"is_disabled":false,"rental_uris":{"android":"levelo://app?vid=b0bab969-b185-4a3a-91e5-f6829e4cca8e","ios":"levelo://app?vid=b0bab969-b185-4a3a-91e5-f6829e4cca8e"},"vehicle_type_id":"4","last_reported":1741129735,"current_range_meters":14000,"station_id":"ce4bh092rcd13ifvqd20","pricing_plan_id":"cebpf4jnsgd1na2vs0mg"},{"bike_id":"e1cdc4f0-509b-415c-9592-9c6eaf597898","system_id":"levelo_inurba_marseille","lat":43.27816,"lon":5.4072,"is_reserved":false,"is_disabled":false,"rental_uris":{"android":"levelo://app?vid=e1cdc4f0-509b-415c-9592-9c6eaf597898","ios":"levelo://app?vid=e1cdc4f0-509b-415c-9592-9c6eaf597898"},"vehicle_type_id":"4","last_reported":1741129735,"current_range_meters":14000,"station_id":"ce4bhnh2rcd13ifvqgtg","pricing_plan_id":"cebpf4jnsgd1na2vs0mg"},{"bike_id":"5f696243-25ff-476b-9e33-4c40c23c931f","system_id":"levelo_inurba_marseille","lat":43.28707,"lon":5.374,"is_reserved":false,"is_disabled":false,"rental_uris":{"android":"levelo://app?vid=5f696243-25ff-476b-9e33-4c40c23c931f","ios":"levelo://app?vid=5f696243-25ff-476b-9e33-4c40c23c931f"},"vehicle_type_id":"4","last_reported":1741129735,"current_range_meters":14000,"station_id":"ce4bh3p2rcd13ifvqdq0","pricing_plan_id":"cebpf4jnsgd1na2vs0mg"},{"bike_id":"9c0cb693-0d39-41fb-97d0-abb597be980e","system_id":"levelo_inurba_marseille","lat":43.27811,"lon":5.40707,"is_reserved":false,"is_disabled":false,"rental_uris":{"android":"levelo://app?vid=9c0cb693-0d39-41fb-97d0-abb597be980e","ios":"levelo://app?vid=9c0cb693-0d39-41fb-97d0-abb597be980e"},"vehicle_type_id":"4","last_reported":1741129735,"current_range_meters":14400,"station_id":"ce4bhnh2rcd13ifvqgtg","pricing_plan_id":"cebpf4jnsgd1na2vs0mg"},{"bike_id":"43dceac1-ef60-48a7-b7c7-838b457fc8ef","system_id":"levelo_inurba_marseille","lat":43.28696,"lon":5.37392,"is_reserved":false,"is_disabled":false,"rental_uris":{"android":"levelo://app?vid=43dceac1-ef60-48a7-b7c7-838b457fc8ef","ios":"levelo://app?vid=43dceac1-ef60-48a7-b7c7-838b457fc8ef"},"vehicle_type_id":"4","last_reported":1741129735,"current_range_meters":14400,"station_id":"ce4bh3p2rcd13ifvqdq0","pricing_plan_id":"cebpf4jnsgd1na2vs0mg"},{"bike_id":"3c0c83c5-ab80-4377-a80d-6db8ea5c21e9","system_id":"levelo_inurba_marseille","lat":43.308563,"lon":5.396624,"is_reserved":false,"is_disabled":false,"rental_uris":{"android":"levelo://app?vid=3c0c83c5-ab80-4377-a80d-6db8ea5c21e9","ios":"levelo://app?vid=3c0c83c5-ab80-4377-a80d-6db8ea5c21e9"},"vehicle_type_id":"4","last_reported":1741129735,"current_range_meters":14400,"station_id":"ce4bh012rcd13ifvqcv0","pricing_plan_id":"cebpf4jnsgd1na2vs0mg"},{"bike_id":"d8a15c7f-2bb2-477c-8205-237aa113c198","system_id":"levelo_inurba_marseille","lat":43.272122,"lon":5.391806,"is_reserved":false,"is_disabled":false,"rental_uris":{"android":"levelo://app?vid=d8a15c7f-2bb2-477c-8205-237aa113c198","ios":"levelo://app?vid=d8a15c7f-2bb2-477c-8205-237aa113c198"},"vehicle_type_id":"4","last_reported":1741129735,"current_range_meters":14000,"station_id":"ce4bgqh2rcd13ifvqc4g","pricing_plan_id":"cebpf4jnsgd1na2vs0mg"},{"bike_id":"4e099002-469e-40dd-a988-90ba29d19792","system_id":"levelo_inurba_marseille","lat":43.2454,"lon":5.39528,"is_reserved":false,"is_disabled":false,"rental_uris":{"android":"levelo://app?vid=4e099002-469e-40dd-a988-90ba29d19792","ios":"levelo://app?vid=4e099002-469e-40dd-a988-90ba29d19792"},"vehicle_type_id":"4","last_reported":1741129735,"current_range_meters":14400,"station_id":"ce4bhlp2rcd13ifvqgjg","pricing_plan_id":"cebpf4jnsgd1na2vs0mg"},{"bike_id":"2227c538-770c-479b-ada4-e4d08befc53c","system_id":"levelo_inurba_marseille","lat":43.27648,"lon":5.36075,"is_reserved":false,"is_disabled":false,"rental_uris":{"android":"levelo://app?vid=2227c538-770c-479b-ada4-e4d08befc53c","ios":"levelo://app?vid=2227c538-770c-479b-ada4-e4d08befc53c"},"vehicle_type_id":"4","last_reported":1741129735,"current_range_meters":14400,"station_id":"ce4bgj92rcd13ifvqbe0","pricing_plan_id":"cebpf4jnsgd1na2vs0mg"},{"bike_id":"3ad6c8e2-1fb3-423e-b266-02e98d52a781","system_id":"levelo_inurba_marseille","lat":43.2836,"lon":5.38099,"is_reserved":false,"is_disabled":false,"rental_uris":{"android":"levelo://app?vid=3ad6c8e2-1fb3-423e-b266-02e98d52a781","ios":"levelo://app?vid=3ad6c8e2-1fb3-423e-b266-02e98d52a781"},"vehicle_type_id":"4","last_reported":1741129735,"current_range_meters":14400,"station_id":"ce4bh412rcd13ifvqdr0","pricing_plan_id":"cebpf4jnsgd1na2vs0mg"},{"bike_id":"0c16575b-2d4e-4cf9-960f-1cac2ff7caaf","system_id":"levelo_inurba_marseille","lat":43.28426,"lon":5.37535,"is_reserved":false,"is_disabled":false,"rental_uris":{"android":"levelo://app?vid=0c16575b-2d4e-4cf9-960f-1cac2ff7caaf","ios":"levelo://app?vid=0c16575b-2d4e-4cf9-960f-1cac2ff7caaf"},"vehicle_type_id":"4","last_reported":1741129735,"current_range_meters":14400,"station_id":"ce4bh412rcd13ifvqds0","pricing_plan_id":"cebpf4jnsgd1na2vs0mg"},{"bike_id":"892cd4cc-09bf-4c71-bb11-9df83de773e0","system_id":"levelo_inurba_marseille","lat":43.3132,"lon":5.397,"is_reserved":false,"is_disabled":false,"rental_uris":{"android":"levelo://app?vid=892cd4cc-09bf-4c71-bb11-9df83de773e0","ios":"levelo://app?vid=892cd4cc-09bf-4c71-bb11-9df83de773e0"},"vehicle_type_id":"4","last_reported":1741129735,"current_range_meters":14400,"station_id":"ce4bgvp2rcd13ifvqcu0","pricing_plan_id":"cebpf4jnsgd1na2vs0mg"},{"bike_id":"7aba1945-cb43-44f8-ba85-cb0c4eba84ed","system_id":"levelo_inurba_marseille","lat":43.29876,"lon":5.39734,"is_reserved":false,"is_disabled":false,"rental_uris":{"android":"levelo://app?vid=7aba1945-cb43-44f8-ba85-cb0c4eba84ed","ios":"levelo://app?vid=7aba1945-cb43-44f8-ba85-cb0c4eba84ed"},"vehicle_type_id":"4","last_reported":1741129735,"current_range_meters":14800,"station_id":"ce4bh0h2rcd13ifvqd50","pricing_plan_id":"cebpf4jnsgd1na2vs0mg"},{"bike_id":"ad84434d-20fb-4dcc-8def-077a9f6fa45b","system_id":"levelo_inurba_marseille","lat":43.284061,"lon":5.375022,"is_reserved":false,"is_disabled":false,"rental_uris":{"android":"levelo://app?vid=ad84434d-20fb-4dcc-8def-077a9f6fa45b","ios":"levelo://app?vid=ad84434d-20fb-4dcc-8def-077a9f6fa45b"},"vehicle_type_id":"4","last_reported":1741129735,"current_range_meters":14800,"station_id":"","pricing_plan_id":"cebpf4jnsgd1na2vs0mg"},{"bike_id":"cd6daa3a-07f9-42ed-90a2-4f41a2e8d311","system_id":"levelo_inurba_marseille","lat":43.3025,"lon":5.39482,"is_reserved":false,"is_disabled":false,"rental_uris":{"android":"levelo://app?vid=cd6daa3a-07f9-42ed-90a2-4f41a2e8d311","ios":"levelo://app?vid=cd6daa3a-07f9-42ed-90a2-4f41a2e8d311"},"vehicle_type_id":"4","last_reported":1741129735,"current_range_meters":14800,"station_id":"ce4bh0p2rcd13ifvqd70","pricing_plan_id":"cebpf4jnsgd1na2vs0mg"},{"bike_id":"cb694720-36da-474e-8a2b-878e802a7ef1","system_id":"levelo_inurba_marseille","lat":43.31886,"lon":5.40731,"is_reserved":false,"is_disabled":false,"rental_uris":{"android":"levelo://app?vid=cb694720-36da-474e-8a2b-878e802a7ef1","ios":"levelo://app?vid=cb694720-36da-474e-8a2b-878e802a7ef1"},"vehicle_type_id":"4","last_reported":1741129735,"current_range_meters":14800,"station_id":"ce4bhq12rcd13ifvqhig","pricing_plan_id":"cebpf4jnsgd1na2vs0mg"},{"bike_id":"95af3f61-11f3-48c0-a765-258073df16be","system_id":"levelo_inurba_marseille","lat":43.24803,"lon":5.37448,"is_reserved":false,"is_disabled":false,"rental_uris":{"android":"levelo://app?vid=95af3f61-11f3-48c0-a765-258073df16be","ios":"levelo://app?vid=95af3f61-11f3-48c0-a765-258073df16be"},"vehicle_type_id":"4","last_reported":1741129735,"current_range_meters":14800,"station_id":"ce4bhgh2rcd13ifvqfb0","pricing_plan_id":"cebpf4jnsgd1na2vs0mg"},{"bike_id":"4a2da07a-b9ad-4b93-a387-be16767f29cb","system_id":"levelo_inurba_marseille","lat":43.28939,"lon":5.36393,"is_reserved":false,"is_disabled":false,"rental_uris":{"android":"levelo://app?vid=4a2da07a-b9ad-4b93-a387-be16767f29cb","ios":"levelo://app?vid=4a2da07a-b9ad-4b93-a387-be16767f29cb"},"vehicle_type_id":"4","last_reported":1741129735,"current_range_meters":14800,"station_id":"ce4bhc92rcd13ifvqetg","pricing_plan_id":"cebpf4jnsgd1na2vs0mg"},{"bike_id":"4c318e6f-45ad-4827-bf6b-ffb0059697a8","system_id":"levelo_inurba_marseille","lat":43.32294,"lon":5.40638,"is_reserved":false,"is_disabled":false,"rental_uris":{"android":"levelo://app?vid=4c318e6f-45ad-4827-bf6b-ffb0059697a8","ios":"levelo://app?vid=4c318e6f-45ad-4827-bf6b-ffb0059697a8"},"vehicle_type_id":"4","last_reported":1741129735,"current_range_meters":14800,"station_id":"ce4bhq92rcd13ifvqhjg","pricing_plan_id":"cebpf4jnsgd1na2vs0mg"},{"bike_id":"0887995a-7163-48cf-a17f-e3237da9ea00","system_id":"levelo_inurba_marseille","lat":43.23177,"lon":5.39996,"is_reserved":false,"is_disabled":false,"rental_uris":{"android":"levelo://app?vid=0887995a-7163-48cf-a17f-e3237da9ea00","ios":"levelo://app?vid=0887995a-7163-48cf-a17f-e3237da9ea00"},"vehicle_type_id":"4","last_reported":1741129735,"current_range_meters":14800,"station_id":"ce4bhn12rcd13ifvqgqg","pricing_plan_id":"cebpf4jnsgd1na2vs0mg"},{"bike_id":"5c0d7678-af0d-4c07-ba6d-73e21c2b49b7","system_id":"levelo_inurba_marseille","lat":43.2854,"lon":5.39486,"is_reserved":false,"is_disabled":false,"rental_uris":{"android":"levelo://app?vid=5c0d7678-af0d-4c07-ba6d-73e21c2b49b7","ios":"levelo://app?vid=5c0d7678-af0d-4c07-ba6d-73e21c2b49b7"},"vehicle_type_id":"4","last_reported":1741129735,"current_range_meters":14800,"station_id":"ce4bh292rcd13ifvqdg0","pricing_plan_id":"cebpf4jnsgd1na2vs0mg"},{"bike_id":"4b37ce1f-b43f-429e-a19c-b8c9e00f65d3","system_id":"levelo_inurba_marseille","lat":43.24074,"lon":5.3776,"is_reserved":false,"is_disabled":false,"rental_uris":{"android":"levelo://app?vid=4b37ce1f-b43f-429e-a19c-b8c9e00f65d3","ios":"levelo://app?vid=4b37ce1f-b43f-429e-a19c-b8c9e00f65d3"},"vehicle_type_id":"4","last_reported":1741129735,"current_range_meters":15200,"station_id":"ce4bhnp2rcd13ifvqgvg","pricing_plan_id":"cebpf4jnsgd1na2vs0mg"},{"bike_id":"45531899-b171-4b11-9743-5e84d77c8538","system_id":"levelo_inurba_marseille","lat":43.27827,"lon":5.40758,"is_reserved":false,"is_disabled":false,"rental_uris":{"android":"levelo://app?vid=45531899-b171-4b11-9743-5e84d77c8538","ios":"levelo://app?vid=45531899-b171-4b11-9743-5e84d77c8538"},"vehicle_type_id":"4","last_reported":1741129735,"current_range_meters":15200,"station_id":"ce4bhnh2rcd13ifvqgtg","pricing_plan_id":"cebpf4jnsgd1na2vs0mg"},{"bike_id":"59dde47a-f49e-477d-b91c-eb1792d32685","system_id":"levelo_inurba_marseille","lat":43.30256,"lon":5.400657,"is_reserved":false,"is_disabled":false,"rental_uris":{"android":"levelo://app?vid=59dde47a-f49e-477d-b91c-eb1792d32685","ios":"levelo://app?vid=59dde47a-f49e-477d-b91c-eb1792d32685"},"vehicle_type_id":"4","last_reported":1741129735,"current_range_meters":15200,"station_id":"ce4bgvh2rcd13ifvqcs0","pricing_plan_id":"cebpf4jnsgd1na2vs0mg"},{"bike_id":"253377e6-7164-4811-973b-4d94bddbeffc","system_id":"levelo_inurba_marseille","lat":43.30496,"lon":5.37467,"is_reserved":false,"is_disabled":false,"rental_uris":{"android":"levelo://app?vid=253377e6-7164-4811-973b-4d94bddbeffc","ios":"levelo://app?vid=253377e6-7164-4811-973b-4d94bddbeffc"},"vehicle_type_id":"4","last_reported":1741129735,"current_range_meters":15200,"station_id":"","pricing_plan_id":"cebpf4jnsgd1na2vs0mg"},{"bike_id":"aa715833-0a99-4fea-9033-a95a90bcbac0","system_id":"levelo_inurba_marseille","lat":43.28808,"lon":5.39172,"is_reserved":false,"is_disabled":false,"rental_uris":{"android":"levelo://app?vid=aa715833-0a99-4fea-9033-a95a90bcbac0","ios":"levelo://app?vid=aa715833-0a99-4fea-9033-a95a90bcbac0"},"vehicle_type_id":"4","last_reported":1741129735,"current_range_meters":15200,"station_id":"ce4bh2p2rcd13ifvqdi0","pricing_plan_id":"cebpf4jnsgd1na2vs0mg"},{"bike_id":"c6762606-6123-4176-98c0-430a38ac0378","system_id":"levelo_inurba_marseille","lat":43.24799,"lon":5.41215,"is_reserved":false,"is_disabled":false,"rental_uris":{"android":"levelo://app?vid=c6762606-6123-4176-98c0-430a38ac0378","ios":"levelo://app?vid=c6762606-6123-4176-98c0-430a38ac0378"},"vehicle_type_id":"4","last_reported":1741129735,"current_range_meters":15200,"station_id":"","pricing_plan_id":"cebpf4jnsgd1na2vs0mg"},{"bike_id":"8e67c6c2-1f86-420e-855b-676e159ed831","system_id":"levelo_inurba_marseille","lat":43.23082,"lon":5.35475,"is_reserved":false,"is_disabled":false,"rental_uris":{"android":"levelo://app?vid=8e67c6c2-1f86-420e-855b-676e159ed831","ios":"levelo://app?vid=8e67c6c2-1f86-420e-855b-676e159ed831"},"vehicle_type_id":"4","last_reported":1741129735,"current_range_meters":16000,"station_id":"cpo3342slgdg3j2ifvpg","pricing_plan_id":"cebpf4jnsgd1na2vs0mg"},{"bike_id":"79ad4526-135b-4b53-9e21-d3b2fe547392","system_id":"levelo_inurba_marseille","lat":43.3089,"lon":5.3963,"is_reserved":false,"is_disabled":false,"rental_uris":{"android":"levelo://app?vid=79ad4526-135b-4b53-9e21-d3b2fe547392","ios":"levelo://app?vid=79ad4526-135b-4b53-9e21-d3b2fe547392"},"vehicle_type_id":"4","last_reported":1741129735,"current_range_meters":16000,"station_id":"ce4bh012rcd13ifvqcv0","pricing_plan_id":"cebpf4jnsgd1na2vs0mg"},{"bike_id":"cba6a766-3158-4fdc-849a-5887af830bdc","system_id":"levelo_inurba_marseille","lat":43.292512,"lon":5.382209,"is_reserved":false,"is_disabled":false,"rental_uris":{"android":"levelo://app?vid=cba6a766-3158-4fdc-849a-5887af830bdc","ios":"levelo://app?vid=cba6a766-3158-4fdc-849a-5887af830bdc"},"vehicle_type_id":"4","last_reported":1741129735,"current_range_meters":16000,"station_id":"","pricing_plan_id":"cebpf4jnsgd1na2vs0mg"},{"bike_id":"56d91efa-2eb7-4e4a-9db2-55b2e1600603","system_id":"levelo_inurba_marseille","lat":43.28861,"lon":5.35841,"is_reserved":false,"is_disabled":false,"rental_uris":{"android":"levelo://app?vid=56d91efa-2eb7-4e4a-9db2-55b2e1600603","ios":"levelo://app?vid=56d91efa-2eb7-4e4a-9db2-55b2e1600603"},"vehicle_type_id":"4","last_reported":1741129735,"current_range_meters":16000,"station_id":"ce4bhb12rcd13ifvqem0","pricing_plan_id":"cebpf4jnsgd1na2vs0mg"},{"bike_id":"bfaefdd0-de3c-401c-9815-bd6ab825eef1","system_id":"levelo_inurba_marseille","lat":43.31764,"lon":5.39013,"is_reserved":false,"is_disabled":false,"rental_uris":{"android":"levelo://app?vid=bfaefdd0-de3c-401c-9815-bd6ab825eef1","ios":"levelo://app?vid=bfaefdd0-de3c-401c-9815-bd6ab825eef1"},"vehicle_type_id":"4","last_reported":1741129735,"current_range_meters":16000,"station_id":"ce4bhqp2rcd13ifvqhng","pricing_plan_id":"cebpf4jnsgd1na2vs0mg"},{"bike_id":"330426bc-0af9-4c3e-8e4c-6ec10833df11","system_id":"levelo_inurba_marseille","lat":43.29899,"lon":5.43669,"is_reserved":false,"is_disabled":false,"rental_uris":{"android":"levelo://app?vid=330426bc-0af9-4c3e-8e4c-6ec10833df11","ios":"levelo://app?vid=330426bc-0af9-4c3e-8e4c-6ec10833df11"},"vehicle_type_id":"4","last_reported":1741129735,"current_range_meters":16000,"station_id":"ce4bhpp2rcd13ifvqhfg","pricing_plan_id":"cebpf4jnsgd1na2vs0mg"},{"bike_id":"e8fb3957-55aa-4712-b8af-a6da8b77890f","system_id":"levelo_inurba_marseille","lat":43.30167,"lon":5.38105,"is_reserved":false,"is_disabled":false,"rental_uris":{"android":"levelo://app?vid=e8fb3957-55aa-4712-b8af-a6da8b77890f","ios":"levelo://app?vid=e8fb3957-55aa-4712-b8af-a6da8b77890f"},"vehicle_type_id":"4","last_reported":1741129735,"current_range_meters":16400,"station_id":"ce4bgjp2rcd13ifvqbh0","pricing_plan_id":"cebpf4jnsgd1na2vs0mg"},{"bike_id":"9cbb5914-3ce0-45a9-bfe4-895657d5f46f","system_id":"levelo_inurba_marseille","lat":43.23207,"lon":5.35555,"is_reserved":false,"is_disabled":false,"rental_uris":{"android":"levelo://app?vid=9cbb5914-3ce0-45a9-bfe4-895657d5f46f","ios":"levelo://app?vid=9cbb5914-3ce0-45a9-bfe4-895657d5f46f"},"vehicle_type_id":"4","last_reported":1741129735,"current_range_meters":16400,"station_id":"ce4bhu92rcd13ifvqi70","pricing_plan_id":"cebpf4jnsgd1na2vs0mg"},{"bike_id":"6be2d959-3029-43e5-9ca2-a3dfb9eee01b","system_id":"levelo_inurba_marseille","lat":43.30816,"lon":5.43513,"is_reserved":false,"is_disabled":false,"rental_uris":{"android":"levelo://app?vid=6be2d959-3029-43e5-9ca2-a3dfb9eee01b","ios":"levelo://app?vid=6be2d959-3029-43e5-9ca2-a3dfb9eee01b"},"vehicle_type_id":"4","last_reported":1741129735,"current_range_meters":16400,"station_id":"ce4bhph2rcd13ifvqheg","pricing_plan_id":"cebpf4jnsgd1na2vs0mg"},{"bike_id":"a490f13d-ff40-47b1-9376-19fb2024ec77","system_id":"levelo_inurba_marseille","lat":43.28548,"lon":5.39494,"is_reserved":false,"is_disabled":true,"rental_uris":{"android":"levelo://app?vid=a490f13d-ff40-47b1-9376-19fb2024ec77","ios":"levelo://app?vid=a490f13d-ff40-47b1-9376-19fb2024ec77"},"vehicle_type_id":"4","last_reported":1741129735,"current_range_meters":16400,"station_id":"ce4bh292rcd13ifvqdg0","pricing_plan_id":"cebpf4jnsgd1na2vs0mg"},{"bike_id":"ee59b3a3-0f87-489f-91b5-15c91569f1b2","system_id":"levelo_inurba_marseille","lat":43.24168,"lon":5.36389,"is_reserved":false,"is_disabled":false,"rental_uris":{"android":"levelo://app?vid=ee59b3a3-0f87-489f-91b5-15c91569f1b2","ios":"levelo://app?vid=ee59b3a3-0f87-489f-91b5-15c91569f1b2"},"vehicle_type_id":"4","last_reported":1741129735,"current_range_meters":16400,"station_id":"cpo36qri1sfpv3e86is0","pricing_plan_id":"cebpf4jnsgd1na2vs0mg"},{"bike_id":"c3a15966-d6db-4a67-a176-541b2fe5f082","system_id":"levelo_inurba_marseille","lat":43.32363,"lon":5.38886,"is_reserved":false,"is_disabled":false,"rental_uris":{"android":"levelo://app?vid=c3a15966-d6db-4a67-a176-541b2fe5f082","ios":"levelo://app?vid=c3a15966-d6db-4a67-a176-541b2fe5f082"},"vehicle_type_id":"4","last_reported":1741129735,"current_range_meters":16400,"station_id":"ce4bhqp2rcd13ifvqhog","pricing_plan_id":"cebpf4jnsgd1na2vs0mg"},{"bike_id":"6a103aa7-a015-4a10-9441-a51bf89dfb39","system_id":"levelo_inurba_marseille","lat":43.30933,"lon":5.40145,"is_reserved":false,"is_disabled":false,"rental_uris":{"android":"levelo://app?vid=6a103aa7-a015-4a10-9441-a51bf89dfb39","ios":"levelo://app?vid=6a103aa7-a015-4a10-9441-a51bf89dfb39"},"vehicle_type_id":"4","last_reported":1741129735,"current_range_meters":16400,"station_id":"ce4bgvp2rcd13ifvqct0","pricing_plan_id":"cebpf4jnsgd1na2vs0mg"},{"bike_id":"e58dfbe3-e42b-4bf0-acbc-24f0b8d09ebf","system_id":"levelo_inurba_marseille","lat":43.28575,"lon":5.39491,"is_reserved":false,"is_disabled":false,"rental_uris":{"android":"levelo://app?vid=e58dfbe3-e42b-4bf0-acbc-24f0b8d09ebf","ios":"levelo://app?vid=e58dfbe3-e42b-4bf0-acbc-24f0b8d09ebf"},"vehicle_type_id":"4","last_reported":1741129735,"current_range_meters":16800,"station_id":"ce4bh292rcd13ifvqdg0","pricing_plan_id":"cebpf4jnsgd1na2vs0mg"},{"bike_id":"4b3527e0-2461-4d35-a7b3-3519632fea52","system_id":"levelo_inurba_marseille","lat":43.31328,"lon":5.39697,"is_reserved":false,"is_disabled":false,"rental_uris":{"android":"levelo://app?vid=4b3527e0-2461-4d35-a7b3-3519632fea52","ios":"levelo://app?vid=4b3527e0-2461-4d35-a7b3-3519632fea52"},"vehicle_type_id":"4","last_reported":1741129735,"current_range_meters":16800,"station_id":"ce4bgvp2rcd13ifvqcu0","pricing_plan_id":"cebpf4jnsgd1na2vs0mg"},{"bike_id":"6eb45ebf-101a-453b-bd7e-747f45b86cb8","system_id":"levelo_inurba_marseille","lat":43.28689,"lon":5.37399,"is_reserved":false,"is_disabled":false,"rental_uris":{"android":"levelo://app?vid=6eb45ebf-101a-453b-bd7e-747f45b86cb8","ios":"levelo://app?vid=6eb45ebf-101a-453b-bd7e-747f45b86cb8"},"vehicle_type_id":"4","last_reported":1741129735,"current_range_meters":16800,"station_id":"ce4bh3p2rcd13ifvqdq0","pricing_plan_id":"cebpf4jnsgd1na2vs0mg"},{"bike_id":"8479d310-69c3-461f-820a-fc2b327af55a","system_id":"levelo_inurba_marseille","lat":43.25876,"lon":5.39909,"is_reserved":false,"is_disabled":false,"rental_uris":{"android":"levelo://app?vid=8479d310-69c3-461f-820a-fc2b327af55a","ios":"levelo://app?vid=8479d310-69c3-461f-820a-fc2b327af55a"},"vehicle_type_id":"4","last_reported":1741129735,"current_range_meters":16800,"station_id":"ce4bhl92rcd13ifvqghg","pricing_plan_id":"cebpf4jnsgd1na2vs0mg"},{"bike_id":"a30c2f1a-4194-4284-8ef8-99b824fe9ab4","system_id":"levelo_inurba_marseille","lat":43.2804,"lon":5.36927,"is_reserved":false,"is_disabled":false,"rental_uris":{"android":"levelo://app?vid=a30c2f1a-4194-4284-8ef8-99b824fe9ab4","ios":"levelo://app?vid=a30c2f1a-4194-4284-8ef8-99b824fe9ab4"},"vehicle_type_id":"4","last_reported":1741129735,"current_range_meters":16800,"station_id":"ce4bha12rcd13ifvqef0","pricing_plan_id":"cebpf4jnsgd1na2vs0mg"},{"bike_id":"c6c08dd3-66e1-4917-8555-0d6d30fa328f","system_id":"levelo_inurba_marseille","lat":43.29259,"lon":5.40905,"is_reserved":false,"is_disabled":false,"rental_uris":{"android":"levelo://app?vid=c6c08dd3-66e1-4917-8555-0d6d30fa328f","ios":"levelo://app?vid=c6c08dd3-66e1-4917-8555-0d6d30fa328f"},"vehicle_type_id":"4","last_reported":1741129735,"current_range_meters":16800,"station_id":"ce4bh192rcd13ifvqdc0","pricing_plan_id":"cebpf4jnsgd1na2vs0mg"},{"bike_id":"6cd2c9f3-9c64-4f6f-a748-c71c29ea4e8f","system_id":"levelo_inurba_marseille","lat":43.3237,"lon":5.38898,"is_reserved":false,"is_disabled":false,"rental_uris":{"android":"levelo://app?vid=6cd2c9f3-9c64-4f6f-a748-c71c29ea4e8f","ios":"levelo://app?vid=6cd2c9f3-9c64-4f6f-a748-c71c29ea4e8f"},"vehicle_type_id":"4","last_reported":1741129735,"current_range_meters":16800,"station_id":"ce4bhqp2rcd13ifvqhog","pricing_plan_id":"cebpf4jnsgd1na2vs0mg"},{"bike_id":"3a61d3ee-a53c-4aba-987b-55941d57629d","system_id":"levelo_inurba_marseille","lat":43.30291,"lon":5.40051,"is_reserved":false,"is_disabled":false,"rental_uris":{"android":"levelo://app?vid=3a61d3ee-a53c-4aba-987b-55941d57629d","ios":"levelo://app?vid=3a61d3ee-a53c-4aba-987b-55941d57629d"},"vehicle_type_id":"4","last_reported":1741129735,"current_range_meters":16800,"station_id":"ce4bgvh2rcd13ifvqcs0","pricing_plan_id":"cebpf4jnsgd1na2vs0mg"},{"bike_id":"b3fee284-9dee-48bb-bfc4-8260c5aeab91","system_id":"levelo_inurba_marseille","lat":43.32279,"lon":5.38281,"is_reserved":false,"is_disabled":false,"rental_uris":{"android":"levelo://app?vid=b3fee284-9dee-48bb-bfc4-8260c5aeab91","ios":"levelo://app?vid=b3fee284-9dee-48bb-bfc4-8260c5aeab91"},"vehicle_type_id":"4","last_reported":1741129735,"current_range_meters":16800,"station_id":"ce4bhr12rcd13ifvqhqg","pricing_plan_id":"cebpf4jnsgd1na2vs0mg"},{"bike_id":"bfd429f4-9cd8-48fe-9a54-0ac696c46976","system_id":"levelo_inurba_marseille","lat":43.29028,"lon":5.37558,"is_reserved":false,"is_disabled":false,"rental_uris":{"android":"levelo://app?vid=bfd429f4-9cd8-48fe-9a54-0ac696c46976","ios":"levelo://app?vid=bfd429f4-9cd8-48fe-9a54-0ac696c46976"},"vehicle_type_id":"4","last_reported":1741129735,"current_range_meters":16800,"station_id":"ce4bh692rcd13ifvqe90","pricing_plan_id":"cebpf4jnsgd1na2vs0mg"},{"bike_id":"c05b2d08-bd31-479b-8742-979b003fe89f","system_id":"levelo_inurba_marseille","lat":43.30246,"lon":5.4007,"is_reserved":false,"is_disabled":false,"rental_uris":{"android":"levelo://app?vid=c05b2d08-bd31-479b-8742-979b003fe89f","ios":"levelo://app?vid=c05b2d08-bd31-479b-8742-979b003fe89f"},"vehicle_type_id":"4","last_reported":1741129735,"current_range_meters":16800,"station_id":"ce4bgvh2rcd13ifvqcs0","pricing_plan_id":"cebpf4jnsgd1na2vs0mg"},{"bike_id":"847a9ed0-4427-479f-9435-6aff4dc2f6a6","system_id":"levelo_inurba_marseille","lat":43.31892,"lon":5.40728,"is_reserved":false,"is_disabled":false,"rental_uris":{"android":"levelo://app?vid=847a9ed0-4427-479f-9435-6aff4dc2f6a6","ios":"levelo://app?vid=847a9ed0-4427-479f-9435-6aff4dc2f6a6"},"vehicle_type_id":"4","last_reported":1741129735,"current_range_meters":17200,"station_id":"ce4bhq12rcd13ifvqhig","pricing_plan_id":"cebpf4jnsgd1na2vs0mg"},{"bike_id":"d292bc9a-7a6c-48ca-a45f-7f9bc56b258c","system_id":"levelo_inurba_marseille","lat":43.28445,"lon":5.39193,"is_reserved":false,"is_disabled":false,"rental_uris":{"android":"levelo://app?vid=d292bc9a-7a6c-48ca-a45f-7f9bc56b258c","ios":"levelo://app?vid=d292bc9a-7a6c-48ca-a45f-7f9bc56b258c"},"vehicle_type_id":"4","last_reported":1741129735,"current_range_meters":17200,"station_id":"ce4bhoh2rcd13ifvqh5g","pricing_plan_id":"cebpf4jnsgd1na2vs0mg"},{"bike_id":"dfa7f32a-c716-402c-9680-a3f8333c7ce7","system_id":"levelo_inurba_marseille","lat":43.27427,"lon":5.3941,"is_reserved":false,"is_disabled":true,"rental_uris":{"android":"levelo://app?vid=dfa7f32a-c716-402c-9680-a3f8333c7ce7","ios":"levelo://app?vid=dfa7f32a-c716-402c-9680-a3f8333c7ce7"},"vehicle_type_id":"4","last_reported":1741129735,"current_range_meters":17200,"station_id":"ce4bhdp2rcd13ifvqf20","pricing_plan_id":"cebpf4jnsgd1na2vs0mg"},{"bike_id":"ae1b64d9-b131-4a11-9c1d-b248dbb59e23","system_id":"levelo_inurba_marseille","lat":43.31284,"lon":5.40156,"is_reserved":false,"is_disabled":false,"rental_uris":{"android":"levelo://app?vid=ae1b64d9-b131-4a11-9c1d-b248dbb59e23","ios":"levelo://app?vid=ae1b64d9-b131-4a11-9c1d-b248dbb59e23"},"vehicle_type_id":"4","last_reported":1741129735,"current_range_meters":17200,"station_id":"ce4bh092rcd13ifvqd30","pricing_plan_id":"cebpf4jnsgd1na2vs0mg"},{"bike_id":"cb80388b-8041-4c60-a895-a163ef95da6f","system_id":"levelo_inurba_marseille","lat":43.28458,"lon":5.35892,"is_reserved":false,"is_disabled":false,"rental_uris":{"android":"levelo://app?vid=cb80388b-8041-4c60-a895-a163ef95da6f","ios":"levelo://app?vid=cb80388b-8041-4c60-a895-a163ef95da6f"},"vehicle_type_id":"4","last_reported":1741129735,"current_range_meters":17200,"station_id":"ce4bhah2rcd13ifvqei0","pricing_plan_id":"cebpf4jnsgd1na2vs0mg"},{"bike_id":"123a193e-d3f7-45a0-92b1-fa7d8443540e","system_id":"levelo_inurba_marseille","lat":43.28915,"lon":5.364,"is_reserved":false,"is_disabled":false,"rental_uris":{"android":"levelo://app?vid=123a193e-d3f7-45a0-92b1-fa7d8443540e","ios":"levelo://app?vid=123a193e-d3f7-45a0-92b1-fa7d8443540e"},"vehicle_type_id":"4","last_reported":1741129735,"current_range_meters":17200,"station_id":"ce4bhc92rcd13ifvqetg","pricing_plan_id":"cebpf4jnsgd1na2vs0mg"},{"bike_id":"a1607d51-e02d-4b02-9e4f-3f583b699150","system_id":"levelo_inurba_marseille","lat":43.25975,"lon":5.39424,"is_reserved":false,"is_disabled":false,"rental_uris":{"android":"levelo://app?vid=a1607d51-e02d-4b02-9e4f-3f583b699150","ios":"levelo://app?vid=a1607d51-e02d-4b02-9e4f-3f583b699150"},"vehicle_type_id":"4","last_reported":1741129735,"current_range_meters":16800,"station_id":"ce4bhh92rcd13ifvqfj0","pricing_plan_id":"cebpf4jnsgd1na2vs0mg"},{"bike_id":"a7fdb7b9-1bc1-4687-abde-015d347a9641","system_id":"levelo_inurba_marseille","lat":43.29904,"lon":5.43653,"is_reserved":false,"is_disabled":false,"rental_uris":{"android":"levelo://app?vid=a7fdb7b9-1bc1-4687-abde-015d347a9641","ios":"levelo://app?vid=a7fdb7b9-1bc1-4687-abde-015d347a9641"},"vehicle_type_id":"4","last_reported":1741129735,"current_range_meters":17200,"station_id":"ce4bhpp2rcd13ifvqhfg","pricing_plan_id":"cebpf4jnsgd1na2vs0mg"},{"bike_id":"ddc4e932-3700-46b0-a34f-49ccac99feb1","system_id":"levelo_inurba_marseille","lat":43.28406,"lon":5.37516,"is_reserved":false,"is_disabled":false,"rental_uris":{"android":"levelo://app?vid=ddc4e932-3700-46b0-a34f-49ccac99feb1","ios":"levelo://app?vid=ddc4e932-3700-46b0-a34f-49ccac99feb1"},"vehicle_type_id":"4","last_reported":1741129735,"current_range_meters":17200,"station_id":"ce4bh412rcd13ifvqds0","pricing_plan_id":"cebpf4jnsgd1na2vs0mg"},