{"last_updated":1743260980,"ttl":60,"version":"2.2","data":{"bikes":[{"bike_id":"c5aac15d-d3ed-4e6b-bdc5-655693c23509","system_id":"levelo_inurba_marseille","lat":43.30285,"lon":5.40113,"is_reserved":false,"is_disabled":false,"rental_uris":{"android":"levelo://app?vid=c5aac15d-d3ed-4e6b-bdc5-655693c23509","ios":"levelo://app?vid=c5aac15d-d3ed-4e6b-bdc5-655693c23509"},"vehicle_type_id":"4","last_reported":1743260980,"current_range_meters":2800,"station_id":"ce4bgvh2rcd13ifvqcs0","pricing_plan_id":"cebpf4jnsgd1na2vs0mg"},{"bike_id":"c709631c-1835-495e-81fb-0c9f82b6d212","system_id":"levelo_inurba_marseille","lat":43.28847,"lon":5.39313,"is_reserved":false,"is_disabled":false,"rental_uris":{"android":"levelo://app?vid=c709631c-1835-495e-81fb-0c9f82b6d212","ios":"levelo://app?vid=c709631c-1835-495e-81fb-0c9f82b6d212"},"vehicle_type_id":"4","last_reported":1743260980,"current_range_meters":2800,"station_id":"ce4bh2p2rcd13ifvqdi0","pricing_plan_id":"cebpf4jnsgd1na2vs0mg"},{"bike_id":"d79c08ae-4cdf-49cd-9abc-99cc855ce7a0","system_id":"levelo_inurba_marseille","lat":43.30577,"lon":5.36575,"is_reserved":false,"is_disabled":false,"rental_uris":{"android":"levelo://app?vid=d79c08ae-4cdf-49cd-9abc-99cc855ce7a0","ios":"levelo://app?vid=d79c08ae-4cdf-49cd-9abc-99cc855ce7a0"},"vehicle_type_id":"4","last_reported":1743260980,"current_range_meters":3200,"station_id":"ce4bgs12rcd13ifvqcag","pricing_plan_id":"cebpf4jnsgd1na2vs0mg"},{"bike_id":"1b91513e-43e9-4bf4-9ebd-d5cdeb3148be","system_id":"levelo_inurba_marseille","lat":43.23196,"lon":5.35554,"is_reserved":false,"is_disabled":false,"rental_uris":{"android":"levelo://app?vid=1b91513e-43e9-4bf4-9ebd-d5cdeb3148be","ios":"levelo://app?vid=1b91513e-43e9-4bf4-9ebd-d5cdeb3148be"},"vehicle_type_id":"4","last_reported":1743260980,"current_range_meters":3600,"station_id":"ce4bhu92rcd13ifvqi70","pricing_plan_id":"cebpf4jnsgd1na2vs0mg"},{"bike_id":"8389bb5e-0c42-4720-ab89-64f0eba00336","system_id":"levelo_inurba_marseille","lat":43.24649,"lon":5.388897,"is_reserved":false,"is_disabled":false,"rental_uris":{"android":"levelo://app?vid=8389bb5e-0c42-4720-ab89-64f0eba00336","ios":"levelo://app?vid=8389bb5e-0c42-4720-ab89-64f0eba00336"},"vehicle_type_id":"4","last_reported":1743260980,"current_range_meters":3600,"station_id":"ce4bhg12rcd13ifvqf60","pricing_plan_id":"cebpf4jnsgd1na2vs0mg"},{"bike_id":"062e9891-df08-4b0f-a3a3-18bb5f78b204","system_id":"levelo_inurba_marseille","lat":43.29049,"lon":5.39958,"is_reserved":false,"is_disabled":false,"rental_uris":{"android":"levelo://app?vid=062e9891-df08-4b0f-a3a3-18bb5f78b204","ios":"levelo://app?vid=062e9891-df08-4b0f-a3a3-18bb5f78b204"},"vehicle_type_id":"4","last_reported":1743260980,"current_range_meters":3600,"station_id":"ce4bh392rcd13ifvqdm0","pricing_plan_id":"cebpf4jnsgd1na2vs0mg"},{"bike_id":"dcdd88bd-3b1c-42b1-88af-0d7dbb8c43b7","system_id":"levelo_inurba_marseille","lat":43.3077,"lon":5.37022,"is_reserved":false,"is_disabled":false,"rental_uris":{"android":"levelo://app?vid=dcdd88bd-3b1c-42b1-88af-0d7dbb8c43b7","ios":"levelo://app?vid=dcdd88bd-3b1c-42b1-88af-0d7dbb8c43b7"},"vehicle_type_id":"4","last_reported":1743260980,"current_range_meters":3600,"station_id":"","pricing_plan_id":"cebpf4jnsgd1na2vs0mg"},{"bike_id":"ee2588a0-8a3d-4c56-88e3-6823a90de92d","system_id":"levelo_inurba_marseille","lat":43.28101,"lon":5.38555,"is_reserved":false,"is_disabled":false,"rental_uris":{"android":"levelo://app?vid=ee2588a0-8a3d-4c56-88e3-6823a90de92d","ios":"levelo://app?vid=ee2588a0-8a3d-4c56-88e3-6823a90de92d"},"vehicle_type_id":"4","last_reported":1743260980,"current_range_meters":4000,"station_id":"","pricing_plan_id":"cebpf4jnsgd1na2vs0mg"},{"bike_id":"09c9898d-74bb-47b7-8009-a1501f8ac276","system_id":"levelo_inurba_marseille","lat":43.298456,"lon":5.362734,"is_reserved":false,"is_disabled":false,"rental_uris":{"android":"levelo://app?vid=09c9898d-74bb-47b7-8009-a1501f8ac276","ios":"levelo://app?vid=09c9898d-74bb-47b7-8009-a1501f8ac276"},"vehicle_type_id":"4","last_reported":1743260980,"current_range_meters":4000,"station_id":"ce4bgpp2rcd13ifvqc3g","pricing_plan_id":"cebpf4jnsgd1na2vs0mg"},{"bike_id":"bf486d29-80ae-43fc-9394-756ed3e2b73e","system_id":"levelo_inurba_marseille","lat":43.2798,"lon":5.40049,"is_reserved":false,"is_disabled":true,"rental_uris":{"android":"levelo://app?vid=bf486d29-80ae-43fc-9394-756ed3e2b73e","ios":"levelo://app?vid=bf486d29-80ae-43fc-9394-756ed3e2b73e"},"vehicle_type_id":"4","last_reported":1743260980,"current_range_meters":4400,"station_id":"ce4bho92rcd13ifvqh4g","pricing_plan_id":"cebpf4jnsgd1na2vs0mg"},{"bike_id":"1deeec2e-47a4-4f06-9316-1d0987be07b8","system_id":"levelo_inurba_marseille","lat":43.27485,"lon":5.42483,"is_reserved":false,"is_disabled":false,"rental_uris":{"android":"levelo://app?vid=1deeec2e-47a4-4f06-9316-1d0987be07b8","ios":"levelo://app?vid=1deeec2e-47a4-4f06-9316-1d0987be07b8"},"vehicle_type_id":"4","last_reported":1743260980,"current_range_meters":4400,"station_id":"ce4bhn92rcd13ifvqgrg","pricing_plan_id":"cebpf4jnsgd1na2vs0mg"},{"bike_id":"9227b771-2173-439e-81eb-91928600ecb6","system_id":"levelo_inurba_marseille","lat":43.26681,"lon":5.38264,"is_reserved":false,"is_disabled":false,"rental_uris":{"android":"levelo://app?vid=9227b771-2173-439e-81eb-91928600ecb6","ios":"levelo://app?vid=9227b771-2173-439e-81eb-91928600ecb6"},"vehicle_type_id":"4","last_reported":1743260980,"current_range_meters":4400,"station_id":"ce4bhg92rcd13ifvqf90","pricing_plan_id":"cebpf4jnsgd1na2vs0mg"},{"bike_id":"47959485-e03d-4eeb-99b4-0cc08a8f2586","system_id":"levelo_inurba_marseille","lat":43.29048,"lon":5.3994,"is_reserved":false,"is_disabled":false,"rental_uris":{"android":"levelo://app?vid=47959485-e03d-4eeb-99b4-0cc08a8f2586","ios":"levelo://app?vid=47959485-e03d-4eeb-99b4-0cc08a8f2586"},"vehicle_type_id":"4","last_reported":1743260980,"current_range_meters":4400,"station_id":"ce4bh392rcd13ifvqdm0","pricing_plan_id":"cebpf4jnsgd1na2vs0mg"},{"bike_id":"cd2dc4de-70a1-432b-8900-303cf935d2f7","system_id":"levelo_inurba_marseille","lat":43.24811,"lon":5.37463,"is_reserved":false,"is_disabled":false,"rental_uris":{"android":"levelo://app?vid=cd2dc4de-70a1-432b-8900-303cf935d2f7","ios":"levelo://app?vid=cd2dc4de-70a1-432b-8900-303cf935d2f7"},"vehicle_type_id":"4","last_reported":1743260980,"current_range_meters":4400,"station_id":"ce4bhgh2rcd13ifvqfb0","pricing_plan_id":"cebpf4jnsgd1na2vs0mg"},{"bike_id":"ee67c282-3343-4fd1-95db-9348b0de9c89","system_id":"levelo_inurba_marseille","lat":43.28951,"lon":5.36642,"is_reserved":false,"is_disabled":false,"rental_uris":{"android":"levelo://app?vid=ee67c282-3343-4fd1-95db-9348b0de9c89","ios":"levelo://app?vid=ee67c282-3343-4fd1-95db-9348b0de9c89"},"vehicle_type_id":"4","last_reported":1743260980,"current_range_meters":4800,"station_id":"ce4bhap2rcd13ifvqek0","pricing_plan_id":"cebpf4jnsgd1na2vs0mg"},{"bike_id":"372077d7-6912-4560-8e62-7c1226cc8258","system_id":"levelo_inurba_marseille","lat":43.27985,"lon":5.40042,"is_reserved":false,"is_disabled":false,"rental_uris":{"android":"levelo://app?vid=372077d7-6912-4560-8e62-7c1226cc8258","ios":"levelo://app?vid=372077d7-6912-4560-8e62-7c1226cc8258"},"vehicle_type_id":"4","last_reported":1743260980,"current_range_meters":5600,"station_id":"ce4bho92rcd13ifvqh4g","pricing_plan_id":"cebpf4jnsgd1na2vs0mg"},{"bike_id":"3b9b6626-eefd-413e-bf11-33a63b73e56e","system_id":"levelo_inurba_marseille","lat":43.29049,"lon":5.37569,"is_reserved":false,"is_disabled":false,"rental_uris":{"android":"levelo://app?vid=3b9b6626-eefd-413e-bf11-33a63b73e56e","ios":"levelo://app?vid=3b9b6626-eefd-413e-bf11-33a63b73e56e"},"vehicle_type_id":"4","last_reported":1743260980,"current_range_meters":5600,"station_id":"ce4bh692rcd13ifvqe90","pricing_plan_id":"cebpf4jnsgd1na2vs0mg"},{"bike_id":"8c70d967-5433-4ab2-96ae-7f058e59e1ad","system_id":"levelo_inurba_marseille","lat":43.27192,"lon":5.4098,"is_reserved":false,"is_disabled":false,"rental_uris":{"android":"levelo://app?vid=8c70d967-5433-4ab2-96ae-7f058e59e1ad","ios":"levelo://app?vid=8c70d967-5433-4ab2-96ae-7f058e59e1ad"},"vehicle_type_id":"4","last_reported":1743260980,"current_range_meters":5600,"station_id":"ce4bhl12rcd13ifvqgf0","pricing_plan_id":"cebpf4jnsgd1na2vs0mg"},{"bike_id":"e8ec3365-bc2f-45be-bcf0-92afa6768191","system_id":"levelo_inurba_marseille","lat":43.30126,"lon":5.3986,"is_reserved":false,"is_disabled":false,"rental_uris":{"android":"levelo://app?vid=e8ec3365-bc2f-45be-bcf0-92afa6768191","ios":"levelo://app?vid=e8ec3365-bc2f-45be-bcf0-92afa6768191"},"vehicle_type_id":"4","last_reported":1743260980,"current_range_meters":5600,"station_id":"ce4bh0h2rcd13ifvqd40","pricing_plan_id":"cebpf4jnsgd1na2vs0mg"},{"bike_id":"d7c9e49f-9da5-4b2e-bae8-8dbfb05890a7","system_id":"levelo_inurba_marseille","lat":43.33362,"lon":5.40117,"is_reserved":false,"is_disabled":false,"rental_uris":{"android":"levelo://app?vid=d7c9e49f-9da5-4b2e-bae8-8dbfb05890a7","ios":"levelo://app?vid=d7c9e49f-9da5-4b2e-bae8-8dbfb05890a7"},"vehicle_type_id":"4","last_reported":1743260980,"current_range_meters":6000,"station_id":"","pricing_plan_id":"cebpf4jnsgd1na2vs0mg"},{"bike_id":"4a42ca1e-41e4-4233-a4bb-a180f04564d6","system_id":"levelo_inurba_marseille","lat":43.29159,"lon":5.37154,"is_reserved":false,"is_disabled":false,"rental_uris":{"android":"levelo://app?vid=4a42ca1e-41e4-4233-a4bb-a180f04564d6","ios":"levelo://app?vid=4a42ca1e-41e4-4233-a4bb-a180f04564d6"},"vehicle_type_id":"4","last_reported":1743260980,"current_range_meters":6000,"station_id":"ce4bha92rcd13ifvqeh0","pricing_plan_id":"cebpf4jnsgd1na2vs0mg"},{"bike_id":"861ae205-c318-4688-ac53-947993e1b65f","system_id":"levelo_inurba_marseille","lat":43.24144,"lon":5.364,"is_reserved":false,"is_disabled":false,"rental_uris":{"android":"levelo://app?vid=861ae205-c318-4688-ac53-947993e1b65f","ios":"levelo://app?vid=861ae205-c318-4688-ac53-947993e1b65f"},"vehicle_type_id":"4","last_reported":1743260980,"current_range_meters":6000,"station_id":"cpo36qri1sfpv3e86is0","pricing_plan_id":"cebpf4jnsgd1na2vs0mg"},{"bike_id":"c2818494-39a8-427b-aa77-d7800fde363a","system_id":"levelo_inurba_marseille","lat":43.26201,"lon":5.37939,"is_reserved":false,"is_disabled":false,"rental_uris":{"android":"levelo://app?vid=c2818494-39a8-427b-aa77-d7800fde363a","ios":"levelo://app?vid=c2818494-39a8-427b-aa77-d7800fde363a"},"vehicle_type_id":"4","last_reported":1743260980,"current_range_meters":6000,"station_id":"ce4bhjp2rcd13ifvqg90","pricing_plan_id":"cebpf4jnsgd1na2vs0mg"},{"bike_id":"971c92cb-66df-438d-9a85-e63af939e6ff","system_id":"levelo_inurba_marseille","lat":43.28634,"lon":5.35102,"is_reserved":false,"is_disabled":true,"rental_uris":{"android":"levelo://app?vid=971c92cb-66df-438d-9a85-e63af939e6ff","ios":"levelo://app?vid=971c92cb-66df-438d-9a85-e63af939e6ff"},"vehicle_type_id":"4","last_reported":1743260980,"current_range_meters":6400,"station_id":"ce4bhch2rcd13ifvqeug","pricing_plan_id":"cebpf4jnsgd1na2vs0mg"},{"bike_id":"9489b2a9-0906-43bb-96c7-e90a501379a5","system_id":"levelo_inurba_marseille","lat":43.28728,"lon":5.37936,"is_reserved":false,"is_disabled":false,"rental_uris":{"android":"levelo://app?vid=9489b2a9-0906-43bb-96c7-e90a501379a5","ios":"levelo://app?vid=9489b2a9-0906-43bb-96c7-e90a501379a5"},"vehicle_type_id":"4","last_reported":1743260980,"current_range_meters":6400,"station_id":"ce4bh9p2rcd13ifvqec0","pricing_plan_id":"cebpf4jnsgd1na2vs0mg"},{"bike_id":"5165f54b-17f5-4d80-bc4c-6a0f5e83f806","system_id":"levelo_inurba_marseille","lat":43.28612,"lon":5.35114,"is_reserved":false,"is_disabled":false,"rental_uris":{"android":"levelo://app?vid=5165f54b-17f5-4d80-bc4c-6a0f5e83f806","ios":"levelo://app?vid=5165f54b-17f5-4d80-bc4c-6a0f5e83f806"},"vehicle_type_id":"4","last_reported":1743260980,"current_range_meters":6400,"station_id":"ce4bhch2rcd13ifvqeug","pricing_plan_id":"cebpf4jnsgd1na2vs0mg"},{"bike_id":"c6b682a7-e903-4363-967f-d69957e8f7ed","system_id":"levelo_inurba_marseille","lat":43.28589,"lon":5.35187,"is_reserved":false,"is_disabled":false,"rental_uris":{"android":"levelo://app?vid=c6b682a7-e903-4363-967f-d69957e8f7ed","ios":"levelo://app?vid=c6b682a7-e903-4363-967f-d69957e8f7ed"},"vehicle_type_id":"4","last_reported":1743260980,"current_range_meters":6400,"station_id":"","pricing_plan_id":"cebpf4jnsgd1na2vs0mg"},{"bike_id":"ba57c344-fb73-4ad3-ad7a-cb6fc90a0ce5","system_id":"levelo_inurba_marseille","lat":43.27206,"lon":5.39169,"is_reserved":false,"is_disabled":false,"rental_uris":{"android":"levelo://app?vid=ba57c344-fb73-4ad3-ad7a-cb6fc90a0ce5","ios":"levelo://app?vid=ba57c344-fb73-4ad3-ad7a-cb6fc90a0ce5"},"vehicle_type_id":"4","last_reported":1743260980,"current_range_meters":6400,"station_id":"ce4bhhp2rcd13ifvqfm0","pricing_plan_id":"cebpf4jnsgd1na2vs0mg"},{"bike_id":"9d413904-69b8-4c60-9ddc-e0489e565f70","system_id":"levelo_inurba_marseille","lat":43.28925,"lon":5.36407,"is_reserved":false,"is_disabled":false,"rental_uris":{"android":"levelo://app?vid=9d413904-69b8-4c60-9ddc-e0489e565f70","ios":"levelo://app?vid=9d413904-69b8-4c60-9ddc-e0489e565f70"},"vehicle_type_id":"4","last_reported":1743260980,"current_range_meters":6400,"station_id":"ce4bhc92rcd13ifvqetg","pricing_plan_id":"cebpf4jnsgd1na2vs0mg"},{"bike_id":"13c56d2e-c18f-4515-8b65-f4dfdbfb9010","system_id":"levelo_inurba_marseille","lat":43.24071,"lon":5.37762,"is_reserved":false,"is_disabled":false,"rental_uris":{"android":"levelo://app?vid=13c56d2e-c18f-4515-8b65-f4dfdbfb9010","ios":"levelo://app?vid=13c56d2e-c18f-4515-8b65-f4dfdbfb9010"},"vehicle_type_id":"4","last_reported":1743260980,"current_range_meters":6800,"station_id":"ce4bhnp2rcd13ifvqgvg","pricing_plan_id":"cebpf4jnsgd1na2vs0mg"},{"bike_id":"72237654-a170-419a-afc5-c29ea6d7445e","system_id":"levelo_inurba_marseille","lat":43.30795,"lon":5.37645,"is_reserved":false,"is_disabled":false,"rental_uris":{"android":"levelo://app?vid=72237654-a170-419a-afc5-c29ea6d7445e","ios":"levelo://app?vid=72237654-a170-419a-afc5-c29ea6d7445e"},"vehicle_type_id":"4","last_reported":1743260980,"current_range_meters":6800,"station_id":"ce4bgv92rcd13ifvqcq0","pricing_plan_id":"cebpf4jnsgd1na2vs0mg"},{"bike_id":"0c1b91a1-9b84-4f2a-abcb-461a8a683be0","system_id":"levelo_inurba_marseille","lat":43.290131,"lon":5.381032,"is_reserved":false,"is_disabled":false,"rental_uris":{"android":"levelo://app?vid=0c1b91a1-9b84-4f2a-abcb-461a8a683be0","ios":"levelo://app?vid=0c1b91a1-9b84-4f2a-abcb-461a8a683be0"},"vehicle_type_id":"4","last_reported":1743260980,"current_range_meters":6800,"station_id":"ce4bgqh2rcd13ifvqc4g","pricing_plan_id":"cebpf4jnsgd1na2vs0mg"},{"bike_id":"90df0f14-f996-423e-b605-53c2c708242e","system_id":"levelo_inurba_marseille","lat":43.31692,"lon":5.40531,"is_reserved":false,"is_disabled":false,"rental_uris":{"android":"levelo://app?vid=90df0f14-f996-423e-b605-53c2c708242e","ios":"levelo://app?vid=90df0f14-f996-423e-b605-53c2c708242e"},"vehicle_type_id":"4","last_reported":1743260980,"current_range_meters":6800,"station_id":"ce4bh012rcd13ifvqd00","pricing_plan_id":"cebpf4jnsgd1na2vs0mg"},{"bike_id":"87ce5af9-2c3f-4b34-8106-a0bd98c8708b","system_id":"levelo_inurba_marseille","lat":43.27996,"lon":5.40021,"is_reserved":false,"is_disabled":false,"rental_uris":{"android":"levelo://app?vid=87ce5af9-2c3f-4b34-8106-a0bd98c8708b","ios":"levelo://app?vid=87ce5af9-2c3f-4b34-8106-a0bd98c8708b"},"vehicle_type_id":"4","last_reported":1743260980,"current_range_meters":6800,"station_id":"ce4bho92rcd13ifvqh4g","pricing_plan_id":"cebpf4jnsgd1na2vs0mg"},{"bike_id":"350175df-f5a9-46d1-b127-47833b717552","system_id":"levelo_inurba_marseille","lat":43.28933,"lon":5.38398,"is_reserved":false,"is_disabled":false,"rental_uris":{"android":"levelo://app?vid=350175df-f5a9-46d1-b127-47833b717552","ios":"levelo://app?vid=350175df-f5a9-46d1-b127-47833b717552"},"vehicle_type_id":"4","last_reported":1743260980,"current_range_meters":6800,"station_id":"ce4bh612rcd13ifvqe6g","pricing_plan_id":"cebpf4jnsgd1na2vs0mg"},{"bike_id":"82fe6d4c-e7cb-42bb-b55d-642ac96d0640","system_id":"levelo_inurba_marseille","lat":43.2902,"lon":5.38649,"is_reserved":false,"is_disabled":false,"rental_uris":{"android":"levelo://app?vid=82fe6d4c-e7cb-42bb-b55d-642ac96d0640","ios":"levelo://app?vid=82fe6d4c-e7cb-42bb-b55d-642ac96d0640"},"vehicle_type_id":"4","last_reported":1743260980,"current_range_meters":6800,"station_id":"ce4bh4p2rcd13ifvqe0g","pricing_plan_id":"cebpf4jnsgd1na2vs0mg"},{"bike_id":"7e3f21a9-a66f-452c-a43c-3918e8061997","system_id":"levelo_inurba_marseille","lat":43.32109,"lon":5.36802,"is_reserved":false,"is_disabled":false,"rental_uris":{"android":"levelo://app?vid=7e3f21a9-a66f-452c-a43c-3918e8061997","ios":"levelo://app?vid=7e3f21a9-a66f-452c-a43c-3918e8061997"},"vehicle_type_id":"4","last_reported":1743260980,"current_range_meters":6800,"station_id":"ce4bhrh2rcd13ifvqhug","pricing_plan_id":"cebpf4jnsgd1na2vs0mg"},{"bike_id":"38e9cd0b-c35b-40c3-bd26-64d0b9ed9f7a","system_id":"levelo_inurba_marseille","lat":43.28851,"lon":5.39341,"is_reserved":false,"is_disabled":false,"rental_uris":{"android":"levelo://app?vid=38e9cd0b-c35b-40c3-bd26-64d0b9ed9f7a","ios":"levelo://app?vid=38e9cd0b-c35b-40c3-bd26-64d0b9ed9f7a"},"vehicle_type_id":"4","last_reported":1743260980,"current_range_meters":6800,"station_id":"ce4bh2p2rcd13ifvqdi0","pricing_plan_id":"cebpf4jnsgd1na2vs0mg"},{"bike_id":"3fd06759-418c-4a7b-b22b-1ca8b985958c","system_id":"levelo_inurba_marseille","lat":43.29302,"lon":5.3718,"is_reserved":false,"is_disabled":false,"rental_uris":{"android":"levelo://app?vid=3fd06759-418c-4a7b-b22b-1ca8b985958c","ios":"levelo://app?vid=3fd06759-418c-4a7b-b22b-1ca8b985958c"},"vehicle_type_id":"4","last_reported":1743260980,"current_range_meters":7200,"station_id":"ce4bgh92rcd13ifvqb40","pricing_plan_id":"cebpf4jnsgd1na2vs0mg"},{"bike_id":"c81aa651-71a6-4554-8d4e-6d82da0496cc","system_id":"levelo_inurba_marseille","lat":43.30215,"lon":5.39466,"is_reserved":false,"is_disabled":false,"rental_uris":{"android":"levelo://app?vid=c81aa651-71a6-4554-8d4e-6d82da0496cc","ios":"levelo://app?vid=c81aa651-71a6-4554-8d4e-6d82da0496cc"},"vehicle_type_id":"4","last_reported":1743260980,"current_range_meters":7200,"station_id":"ce4bh0p2rcd13ifvqd70","pricing_plan_id":"cebpf4jnsgd1na2vs0mg"},{"bike_id":"5f36957d-f963-4b7f-81a5-c8666edd2b8c","system_id":"levelo_inurba_marseille","lat":43.2919,"lon":5.35801,"is_reserved":false,"is_disabled":false,"rental_uris":{"android":"levelo://app?vid=5f36957d-f963-4b7f-81a5-c8666edd2b8c","ios":"levelo://app?vid=5f36957d-f963-4b7f-81a5-c8666edd2b8c"},"vehicle_type_id":"4","last_reported":1743260980,"current_range_meters":7200,"station_id":"ce4bhb12rcd13ifvqel0","pricing_plan_id":"cebpf4jnsgd1na2vs0mg"},{"bike_id":"0e6ec347-45c8-47db-b77d-3c573b607eb1","system_id":"levelo_inurba_marseille","lat":43.28941,"lon":5.3664,"is_reserved":false,"is_disabled":false,"rental_uris":{"android":"levelo://app?vid=0e6ec347-45c8-47db-b77d-3c573b607eb1","ios":"levelo://app?vid=0e6ec347-45c8-47db-b77d-3c573b607eb1"},"vehicle_type_id":"4","last_reported":1743260980,"current_range_meters":7200,"station_id":"ce4bhap2rcd13ifvqek0","pricing_plan_id":"cebpf4jnsgd1na2vs0mg"},{"bike_id":"74eeac28-e007-4178-9413-adcf3bac8e46","system_id":"levelo_inurba_marseille","lat":43.23066,"lon":5.3549,"is_reserved":false,"is_disabled":false,"rental_uris":{"android":"levelo://app?vid=74eeac28-e007-4178-9413-adcf3bac8e46","ios":"levelo://app?vid=74eeac28-e007-4178-9413-adcf3bac8e46"},"vehicle_type_id":"4","last_reported":1743260980,"current_range_meters":7200,"station_id":"cpo3342slgdg3j2ifvpg","pricing_plan_id":"cebpf4jnsgd1na2vs0mg"},{"bike_id":"f47eba55-a588-4033-a3dc-992c836c995d","system_id":"levelo_inurba_marseille","lat":43.31684,"lon":5.40522,"is_reserved":false,"is_disabled":false,"rental_uris":{"android":"levelo://app?vid=f47eba55-a588-4033-a3dc-992c836c995d","ios":"levelo://app?vid=f47eba55-a588-4033-a3dc-992c836c995d"},"vehicle_type_id":"4","last_reported":1743260980,"current_range_meters":8000,"station_id":"ce4bh012rcd13ifvqd00","pricing_plan_id":"cebpf4jnsgd1na2vs0mg"},{"bike_id":"1c0c3ea6-ddf3-4e3e-870d-bf3b622d83d0","system_id":"levelo_inurba_marseille","lat":43.28175,"lon":5.44252,"is_reserved":false,"is_disabled":false,"rental_uris":{"android":"levelo://app?vid=1c0c3ea6-ddf3-4e3e-870d-bf3b622d83d0","ios":"levelo://app?vid=1c0c3ea6-ddf3-4e3e-870d-bf3b622d83d0"},"vehicle_type_id":"4","last_reported":1743260980,"current_range_meters":8000,"station_id":"","pricing_plan_id":"cebpf4jnsgd1na2vs0mg"},{"bike_id":"6082a6d8-29f3-4441-bd82-d0f95ead75d7","system_id":"levelo_inurba_marseille","lat":43.23191,"lon":5.35544,"is_reserved":false,"is_disabled":false,"rental_uris":{"android":"levelo://app?vid=6082a6d8-29f3-4441-bd82-d0f95ead75d7","ios":"levelo://app?vid=6082a6d8-29f3-4441-bd82-d0f95ead75d7"},"vehicle_type_id":"4","last_reported":1743260980,"current_range_meters":8000,"station_id":"ce4bhu92rcd13ifvqi70","pricing_plan_id":"cebpf4jnsgd1na2vs0mg"},{"bike_id":"d5ffff0a-47db-470d-a1ce-99a37bfcd090","system_id":"levelo_inurba_marseille","lat":43.28614,"lon":5.35108,"is_reserved":false,"is_disabled":false,"rental_uris":{"android":"levelo://app?vid=d5ffff0a-47db-470d-a1ce-99a37bfcd090","ios":"levelo://app?vid=d5ffff0a-47db-470d-a1ce-99a37bfcd090"},"vehicle_type_id":"4","last_reported":1743260980,"current_range_meters":8000,"station_id":"ce4bhch2rcd13ifvqeug","pricing_plan_id":"cebpf4jnsgd1na2vs0mg"},{"bike_id":"043c60ec-2c8f-437a-b307-ea1603541d8f","system_id":"levelo_inurba_marseille","lat":43.28511,"lon":5.38562,"is_reserved":false,"is_disabled":false,"rental_uris":{"android":"levelo://app?vid=043c60ec-2c8f-437a-b307-ea1603541d8f","ios":"levelo://app?vid=043c60ec-2c8f-437a-b307-ea1603541d8f"},"vehicle_type_id":"4","last_reported":1743260980,"current_range_meters":8000,"station_id":"ce4bh8p2rcd13ifvqeb0","pricing_plan_id":"cebpf4jnsgd1na2vs0mg"},{"bike_id":"84bf9aa3-2242-4104-9c06-9c992f276e82","system_id":"levelo_inurba_marseille","lat":43.27368,"lon":5.36261,"is_reserved":false,"is_disabled":false,"rental_uris":{"android":"levelo://app?vid=84bf9aa3-2242-4104-9c06-9c992f276e82","ios":"levelo://app?vid=84bf9aa3-2242-4104-9c06-9c992f276e82"},"vehicle_type_id":"4","last_reported":1743260980,"current_range_meters":8000,"station_id":"ce4bhbh2rcd13ifvqeo0","pricing_plan_id":"cebpf4jnsgd1na2vs0mg"},{"bike_id":"75c8c074-9128-4b7d-a687-b8c332741f94","system_id":"levelo_inurba_marseille","lat":43.2926,"lon":5.37616,"is_reserved":false,"is_disabled":false,"rental_uris":{"android":"levelo://app?vid=75c8c074-9128-4b7d-a687-b8c332741f94","ios":"levelo://app?vid=75c8c074-9128-4b7d-a687-b8c332741f94"},"vehicle_type_id":"4","last_reported":1743260980,"current_range_meters":8400,"station_id":"ce4bgi12rcd13ifvqb80","pricing_plan_id":"cebpf4jnsgd1na2vs0mg"},{"bike_id":"7cb45fac-62b5-4ead-be9c-e53660ce9dfb","system_id":"levelo_inurba_marseille","lat":43.28714,"lon":5.40004,"is_reserved":false,"is_disabled":false,"rental_uris":{"android":"levelo://app?vid=7cb45fac-62b5-4ead-be9c-e53660ce9dfb","ios":"levelo://app?vid=7cb45fac-62b5-4ead-be9c-e53660ce9dfb"},"vehicle_type_id":"4","last_reported":1743260980,"current_range_meters":8400,"station_id":"ce4bho92rcd13ifvqh3g","pricing_plan_id":"cebpf4jnsgd1na2vs0mg"},{"bike_id":"983c4c9f-ee1a-4d13-8ce7-bfd36c479f46","system_id":"levelo_inurba_marseille","lat":43.24185,"lon":5.364,"is_reserved":false,"is_disabled":false,"rental_uris":{"android":"levelo://app?vid=983c4c9f-ee1a-4d13-8ce7-bfd36c479f46","ios":"levelo://app?vid=983c4c9f-ee1a-4d13-8ce7-bfd36c479f46"},"vehicle_type_id":"4","last_reported":1743260980,"current_range_meters":8400,"station_id":"cpo36qri1sfpv3e86is0","pricing_plan_id":"cebpf4jnsgd1na2vs0mg"},{"bike_id":"1b4e5c48-f3b8-4ca5-9244-3815d3918bd4","system_id":"levelo_inurba_marseille","lat":43.32371,"lon":5.38869,"is_reserved":false,"is_disabled":false,"rental_uris":{"android":"levelo://app?vid=1b4e5c48-f3b8-4ca5-9244-3815d3918bd4","ios":"levelo://app?vid=1b4e5c48-f3b8-4ca5-9244-3815d3918bd4"},"vehicle_type_id":"4","last_reported":1743260980,"current_range_meters":8400,"station_id":"ce4bhqp2rcd13ifvqhog","pricing_plan_id":"cebpf4jnsgd1na2vs0mg"},{"bike_id":"d110ea9c-afe8-47f1-b008-e66bc6e44a55","system_id":"levelo_inurba_marseille","lat":43.28421,"lon":5.34984,"is_reserved":false,"is_disabled":false,"rental_uris":{"android":"levelo://app?vid=d110ea9c-afe8-47f1-b008-e66bc6e44a55","ios":"levelo://app?vid=d110ea9c-afe8-47f1-b008-e66bc6e44a55"},"vehicle_type_id":"4","last_reported":1743260980,"current_range_meters":8400,"station_id":"ce4bhbh2rcd13ifvqepg","pricing_plan_id":"cebpf4jnsgd1na2vs0mg"},{"bike_id":"3a2e35ff-67f7-42a4-b09b-1fe3ef6e95d8","system_id":"levelo_inurba_marseille","lat":43.22919,"lon":5.35409,"is_reserved":false,"is_disabled":false,"rental_uris":{"android":"levelo://app?vid=3a2e35ff-67f7-42a4-b09b-1fe3ef6e95d8","ios":"levelo://app?vid=3a2e35ff-67f7-42a4-b09b-1fe3ef6e95d8"},"vehicle_type_id":"4","last_reported":1743260980,"current_range_meters":8400,"station_id":"cpo3532slgdg3j2ikp40","pricing_plan_id":"cebpf4jnsgd1na2vs0mg"},{"bike_id":"b5ace6c6-32e3-486d-9744-efb1ce0dfa9d","system_id":"levelo_inurba_marseille","lat":43.28938,"lon":5.37107,"is_reserved":false,"is_disabled":true,"rental_uris":{"android":"levelo://app?vid=b5ace6c6-32e3-486d-9744-efb1ce0dfa9d","ios":"levelo://app?vid=b5ace6c6-32e3-486d-9744-efb1ce0dfa9d"},"vehicle_type_id":"4","last_reported":1743260980,"current_range_meters":8400,"station_id":"","pricing_plan_id":"cebpf4jnsgd1na2vs0mg"},{"bike_id":"7c361f57-b0b1-4353-8ff6-65448b7d8ef6","system_id":"levelo_inurba_marseille","lat":43.29649,"lon":5.37115,"is_reserved":false,"is_disabled":false,"rental_uris":{"android":"levelo://app?vid=7c361f57-b0b1-4353-8ff6-65448b7d8ef6","ios":"levelo://app?vid=7c361f57-b0b1-4353-8ff6-65448b7d8ef6"},"vehicle_type_id":"4","last_reported":1743260980,"current_range_meters":8400,"station_id":"ce4bgnh2rcd13ifvqc0g","pricing_plan_id":"cebpf4jnsgd1na2vs0mg"},{"bike_id":"6f85d16b-6791-421f-9655-2cbde3f9e73b","system_id":"levelo_inurba_marseille","lat":43.27483,"lon":5.42447,"is_reserved":false,"is_disabled":false,"rental_uris":{"android":"levelo://app?vid=6f85d16b-6791-421f-9655-2cbde3f9e73b","ios":"levelo://app?vid=6f85d16b-6791-421f-9655-2cbde3f9e73b"},"vehicle_type_id":"4","last_reported":1743260980,"current_range_meters":8400,"station_id":"ce4bhn92rcd13ifvqgrg","pricing_plan_id":"cebpf4jnsgd1na2vs0mg"},{"bike_id":"bb238aab-ecce-4d51-ba90-677f93725c94","system_id":"levelo_inurba_marseille","lat":43.34151,"lon":5.40925,"is_reserved":false,"is_disabled":false,"rental_uris":{"android":"levelo://app?vid=bb238aab-ecce-4d51-ba90-677f93725c94","ios":"levelo://app?vid=bb238aab-ecce-4d51-ba90-677f93725c94"},"vehicle_type_id":"4","last_reported":1743260980,"current_range_meters":8400,"station_id":"ce4bhqh2rcd13ifvqhlg","pricing_plan_id":"cebpf4jnsgd1na2vs0mg"},{"bike_id":"0558bc66-2825-46b4-8c35-dfa19eca05b8","system_id":"levelo_inurba_marseille","lat":43.24389,"lon":5.37055,"is_reserved":false,"is_disabled":false,"rental_uris":{"android":"levelo://app?vid=0558bc66-2825-46b4-8c35-dfa19eca05b8","ios":"levelo://app?vid=0558bc66-2825-46b4-8c35-dfa19eca05b8"},"vehicle_type_id":"4","last_reported":1743260980,"current_range_meters":8400,"station_id":"ce4bhhh2rcd13ifvqfk0","pricing_plan_id":"cebpf4jnsgd1na2vs0mg"},{"bike_id":"c8ba5838-dfe0-4188-bf83-e110456d7940","system_id":"levelo_inurba_marseille","lat":43.2558,"lon":5.38232,"is_reserved":false,"is_disabled":false,"rental_uris":{"android":"levelo://app?vid=c8ba5838-dfe0-4188-bf83-e110456d7940","ios":"levelo://app?vid=c8ba5838-dfe0-4188-bf83-e110456d7940"},"vehicle_type_id":"4","last_reported":1743260980,"current_range_meters":8400,"station_id":"ce4bhih2rcd13ifvqfs0","pricing_plan_id":"cebpf4jnsgd1na2vs0mg"},{"bike_id":"87b79a73-1a04-4ef8-9db7-2d2d1ee599dd","system_id":"levelo_inurba_marseille","lat":43.26575,"lon":5.39008,"is_reserved":false,"is_disabled":false,"rental_uris":{"android":"levelo://app?vid=87b79a73-1a04-4ef8-9db7-2d2d1ee599dd","ios":"levelo://app?vid=87b79a73-1a04-4ef8-9db7-2d2d1ee599dd"},"vehicle_type_id":"4","last_reported":1743260980,"current_range_meters":8400,"station_id":"ce4bhe12rcd13ifvqf30","pricing_plan_id":"cebpf4jnsgd1na2vs0mg"},{"bike_id":"4983bcb1-a8fa-415b-840b-a542cede7223","system_id":"levelo_inurba_marseille","lat":43.27948,"lon":5.41048,"is_reserved":false,"is_disabled":false,"rental_uris":{"android":"levelo://app?vid=4983bcb1-a8fa-415b-840b-a542cede7223","ios":"levelo://app?vid=4983bcb1-a8fa-415b-840b-a542cede7223"},"vehicle_type_id":"4","last_reported":1743260980,"current_range_meters":8800,"station_id":"ce4bhnp2rcd13ifvqh0g","pricing_plan_id":"cebpf4jnsgd1na2vs0mg"},{"bike_id":"f0f97804-b7b3-4426-8b2c-447014ff356b","system_id":"levelo_inurba_marseille","lat":43.2928,"lon":5.3684,"is_reserved":false,"is_disabled":false,"rental_uris":{"android":"levelo://app?vid=f0f97804-b7b3-4426-8b2c-447014ff356b","ios":"levelo://app?vid=f0f97804-b7b3-4426-8b2c-447014ff356b"},"vehicle_type_id":"4","last_reported":1743260980,"current_range_meters":8800,"station_id":"ce4bhbp2rcd13ifvqesg","pricing_plan_id":"cebpf4jnsgd1na2vs0mg"},{"bike_id":"1a8ec8fe-cd0f-44f4-9a76-dfc354a60ccc","system_id":"levelo_inurba_marseille","lat":43.23961,"lon":5.36631,"is_reserved":false,"is_disabled":false,"rental_uris":{"android":"levelo://app?vid=1a8ec8fe-cd0f-44f4-9a76-dfc354a60ccc","ios":"levelo://app?vid=1a8ec8fe-cd0f-44f4-9a76-dfc354a60ccc"},"vehicle_type_id":"4","last_reported":1743260980,"current_range_meters":8800,"station_id":"ce4bhi12rcd13ifvqfp0","pricing_plan_id":"cebpf4jnsgd1na2vs0mg"},{"bike_id":"e5878ff8-383d-4704-b911-fe982989e533","system_id":"levelo_inurba_marseille","lat":43.28073,"lon":5.44256,"is_reserved":false,"is_disabled":false,"rental_uris":{"android":"levelo://app?vid=e5878ff8-383d-4704-b911-fe982989e533","ios":"levelo://app?vid=e5878ff8-383d-4704-b911-fe982989e533"},"vehicle_type_id":"4","last_reported":1743260980,"current_range_meters":8800,"station_id":"","pricing_plan_id":"cebpf4jnsgd1na2vs0mg"},{"bike_id":"d14cdd1e-f0b3-48a5-be5e-77128af69a2d","system_id":"levelo_inurba_marseille","lat":43.28642,"lon":5.35091,"is_reserved":false,"is_disabled":false,"rental_uris":{"android":"levelo://app?vid=d14cdd1e-f0b3-48a5-be5e-77128af69a2d","ios":"levelo://app?vid=d14cdd1e-f0b3-48a5-be5e-77128af69a2d"},"vehicle_type_id":"4","last_reported":1743260980,"current_range_meters":8800,"station_id":"ce4bhch2rcd13ifvqeug","pricing_plan_id":"cebpf4jnsgd1na2vs0mg"},{"bike_id":"e4614adf-59ca-49c9-9f29-fb2629aacd37","system_id":"levelo_inurba_marseille","lat":43.28617,"lon":5.351,"is_reserved":false,"is_disabled":false,"rental_uris":{"android":"levelo://app?vid=e4614adf-59ca-49c9-9f29-fb2629aacd37","ios":"levelo://app?vid=e4614adf-59ca-49c9-9f29-fb2629aacd37"},"vehicle_type_id":"4","last_reported":1743260980,"current_range_meters":8800,"station_id":"ce4bhch2rcd13ifvqeug","pricing_plan_id":"cebpf4jnsgd1na2vs0mg"},{"bike_id":"86402da5-f9ef-43b6-a281-06ce7c4c3160","system_id":"levelo_inurba_marseille","lat":43.28603,"lon":5.35119,"is_reserved":false,"is_disabled":false,"rental_uris":{"android":"levelo://app?vid=86402da5-f9ef-43b6-a281-06ce7c4c3160","ios":"levelo://app?vid=86402da5-f9ef-43b6-a281-06ce7c4c3160"},"vehicle_type_id":"4","last_reported":1743260980,"current_range_meters":9200,"station_id":"ce4bhch2rcd13ifvqeug","pricing_plan_id":"cebpf4jnsgd1na2vs0mg"},{"bike_id":"96fa1290-e699-40b9-9109-379d3b77c6fb","system_id":"levelo_inurba_marseille","lat":43.33731,"lon":5.39199,"is_reserved":false,"is_disabled":false,"rental_uris":{"android":"levelo://app?vid=96fa1290-e699-40b9-9109-379d3b77c6fb","ios":"levelo://app?vid=96fa1290-e699-40b9-9109-379d3b77c6fb"},"vehicle_type_id":"4","last_reported":1743260980,"current_range_meters":9200,"station_id":"ce4bhr92rcd13ifvqhsg","pricing_plan_id":"cebpf4jnsgd1na2vs0mg"},{"bike_id":"3f95773c-5714-403e-b7e4-ca8def34a69d","system_id":"levelo_inurba_marseille","lat":43.28417,"lon":5.34986,"is_reserved":false,"is_disabled":false,"rental_uris":{"android":"levelo://app?vid=3f95773c-5714-403e-b7e4-ca8def34a69d","ios":"levelo://app?vid=3f95773c-5714-403e-b7e4-ca8def34a69d"},"vehicle_type_id":"4","last_reported":1743260980,"current_range_meters":9200,"station_id":"ce4bhbh2rcd13ifvqepg","pricing_plan_id":"cebpf4jnsgd1na2vs0mg"},{"bike_id":"b1ecd358-38ec-4753-8af1-9b87454b444a","system_id":"levelo_inurba_marseille","lat":43.28628,"lon":5.35103,"is_reserved":false,"is_disabled":false,"rental_uris":{"android":"levelo://app?vid=b1ecd358-38ec-4753-8af1-9b87454b444a","ios":"levelo://app?vid=b1ecd358-38ec-4753-8af1-9b87454b444a"},"vehicle_type_id":"4","last_reported":1743260980,"current_range_meters":9200,"station_id":"ce4bhch2rcd13ifvqeug","pricing_plan_id":"cebpf4jnsgd1na2vs0mg"},{"bike_id":"9d49f0ce-432c-4030-969d-da629219d2c0","system_id":"levelo_inurba_marseille","lat":43.30143,"lon":5.37419,"is_reserved":false,"is_disabled":false,"rental_uris":{"android":"levelo://app?vid=9d49f0ce-432c-4030-969d-da629219d2c0","ios":"levelo://app?vid=9d49f0ce-432c-4030-969d-da629219d2c0"},"vehicle_type_id":"4","last_reported":1743260980,"current_range_meters":9200,"station_id":"ce4bgs92rcd13ifvqcc0","pricing_plan_id":"cebpf4jnsgd1na2vs0mg"},{"bike_id":"7fb8c394-4b57-4905-8986-2e4392265d88","system_id":"levelo_inurba_marseille","lat":43.242266,"lon":5.379407,"is_reserved":false,"is_disabled":false,"rental_uris":{"android":"levelo://app?vid=7fb8c394-4b57-4905-8986-2e4392265d88","ios":"levelo://app?vid=7fb8c394-4b57-4905-8986-2e4392265d88"},"vehicle_type_id":"4","last_reported":1743260980,"current_range_meters":9200,"station_id":"ce4bhnp2rcd13ifvqgvg","pricing_plan_id":"cebpf4jnsgd1na2vs0mg"},{"bike_id":"980b1b8d-c114-4f00-88f8-a0ddccb8fb71","system_id":"levelo_inurba_marseille","lat":43.28629,"lon":5.35124,"is_reserved":false,"is_disabled":false,"rental_uris":{"android":"levelo://app?vid=980b1b8d-c114-4f00-88f8-a0ddccb8fb71","ios":"levelo://app?vid=980b1b8d-c114-4f00-88f8-a0ddccb8fb71"},"vehicle_type_id":"4","last_reported":1743260980,"current_range_meters":9200,"station_id":"ce4bhch2rcd13ifvqeug","pricing_plan_id":"cebpf4jnsgd1na2vs0mg"},{"bike_id":"d862695e-98aa-4303-acc7-a095561bed60","system_id":"levelo_inurba_marseille","lat":43.27204,"lon":5.39181,"is_reserved":false,"is_disabled":false,"rental_uris":{"android":"levelo://app?vid=d862695e-98aa-4303-acc7-a095561bed60","ios":"levelo://app?vid=d862695e-98aa-4303-acc7-a095561bed60"},"vehicle_type_id":"4","last_reported":1743260980,"current_range_meters":9600,"station_id":"ce4bhhp2rcd13ifvqfm0","pricing_plan_id":"cebpf4jnsgd1na2vs0mg"},{"bike_id":"eaddfac1-0bf4-4f61-8016-0c16cda63728","system_id":"levelo_inurba_marseille","lat":43.2922,"lon":5.36057,"is_reserved":false,"is_disabled":false,"rental_uris":{"android":"levelo://app?vid=eaddfac1-0bf4-4f61-8016-0c16cda63728","ios":"levelo://app?vid=eaddfac1-0bf4-4f61-8016-0c16cda63728"},"vehicle_type_id":"4","last_reported":1743260980,"current_range_meters":9600,"station_id":"ce4bhbh2rcd13ifvqeqg","pricing_plan_id":"cebpf4jnsgd1na2vs0mg"},{"bike_id":"3ebec30b-3321-422a-b912-1c4632fda65e","system_id":"levelo_inurba_marseille","lat":43.25586,"lon":5.38239,"is_reserved":false,"is_disabled":false,"rental_uris":{"android":"levelo://app?vid=3ebec30b-3321-422a-b912-1c4632fda65e","ios":"levelo://app?vid=3ebec30b-3321-422a-b912-1c4632fda65e"},"vehicle_type_id":"4","last_reported":1743260980,"current_range_meters":9600,"station_id":"ce4bhih2rcd13ifvqfs0","pricing_plan_id":"cebpf4jnsgd1na2vs0mg"},{"bike_id":"68951826-6157-4f18-bd56-cc58997534b1","system_id":"levelo_inurba_marseille","lat":43.29419,"lon":5.38624,"is_reserved":false,"is_disabled":false,"rental_uris":{"android":"levelo://app?vid=68951826-6157-4f18-bd56-cc58997534b1","ios":"levelo://app?vid=68951826-6157-4f18-bd56-cc58997534b1"},"vehicle_type_id":"4","last_reported":1743260980,"current_range_meters":9600,"station_id":"ce4bh2h2rcd13ifvqdh0","pricing_plan_id":"cebpf4jnsgd1na2vs0mg"},{"bike_id":"ad2af8fb-7261-4b67-91fe-ae72dc8e2aa8","system_id":"levelo_inurba_marseille","lat":43.29419,"lon":5.38617,"is_reserved":false,"is_disabled":false,"rental_uris":{"android":"levelo://app?vid=ad2af8fb-7261-4b67-91fe-ae72dc8e2aa8","ios":"levelo://app?vid=ad2af8fb-7261-4b67-91fe-ae72dc8e2aa8"},"vehicle_type_id":"4","last_reported":1743260980,"current_range_meters":9600,"station_id":"ce4bh2h2rcd13ifvqdh0","pricing_plan_id":"cebpf4jnsgd1na2vs0mg"},{"bike_id":"88e39959-9376-48ac-ba76-c1bc6476f1c0","system_id":"levelo_inurba_marseille","lat":43.29232,"lon":5.36064,"is_reserved":false,"is_disabled":false,"rental_uris":{"android":"levelo://app?vid=88e39959-9376-48ac-ba76-c1bc6476f1c0","ios":"levelo://app?vid=88e39959-9376-48ac-ba76-c1bc6476f1c0"},"vehicle_type_id":"4","last_reported":1743260980,"current_range_meters":9600,"station_id":"ce4bhbh2rcd13ifvqeqg","pricing_plan_id":"cebpf4jnsgd1na2vs0mg"},{"bike_id":"4b2323ae-94b8-41f7-9062-4d9bd4bd549e","system_id":"levelo_inurba_marseille","lat":43.24176,"lon":5.36384,"is_reserved":false,"is_disabled":false,"rental_uris":{"android":"levelo://app?vid=4b2323ae-94b8-41f7-9062-4d9bd4bd549e","ios":"levelo://app?vid=4b2323ae-94b8-41f7-9062-4d9bd4bd549e"},"vehicle_type_id":"4","last_reported":1743260980,"current_range_meters":9600,"station_id":"cpo36qri1sfpv3e86is0","pricing_plan_id":"cebpf4jnsgd1na2vs0mg"},{"bike_id":"23b00ced-5f16-48a6-9062-633c1899eb74","system_id":"levelo_inurba_marseille","lat":43.309,"lon":5.37193,"is_reserved":false,"is_disabled":false,"rental_uris":{"android":"levelo://app?vid=23b00ced-5f16-48a6-9062-633c1899eb74","ios":"levelo://app?vid=23b00ced-5f16-48a6-9062-633c1899eb74"},"vehicle_type_id":"4","last_reported":1743260980,"current_range_meters":9600,"station_id":"ce4bguh2rcd13ifvqckg","pricing_plan_id":"cebpf4jnsgd1na2vs0mg"},{"bike_id":"2173b0b5-2e96-4975-a279-f9d4db4edd7f","system_id":"levelo_inurba_marseille","lat":43.3032,"lon":5.40458,"is_reserved":false,"is_disabled":false,"rental_uris":{"android":"levelo://app?vid=2173b0b5-2e96-4975-a279-f9d4db4edd7f","ios":"levelo://app?vid=2173b0b5-2e96-4975-a279-f9d4db4edd7f"},"vehicle_type_id":"4","last_reported":1743260980,"current_range_meters":9600,"station_id":"ce4bh012rcd13ifvqd10","pricing_plan_id":"cebpf4jnsgd1na2vs0mg"},{"bike_id":"bf9dcd55-93b8-4c72-9089-7af202712b14","system_id":"levelo_inurba_marseille","lat":43.28361,"lon":5.38104,"is_reserved":false,"is_disabled":false,"rental_uris":{"android":"levelo://app?vid=bf9dcd55-93b8-4c72-9089-7af202712b14","ios":"levelo://app?vid=bf9dcd55-93b8-4c72-9089-7af202712b14"},"vehicle_type_id":"4","last_reported":1743260980,"current_range_meters":9600,"station_id":"ce4bh412rcd13ifvqdr0","pricing_plan_id":"cebpf4jnsgd1na2vs0mg"},{"bike_id":"130b4417-0f40-454b-981c-c7972329f9e2","system_id":"levelo_inurba_marseille","lat":43.26683,"lon":5.38273,"is_reserved":false,"is_disabled":false,"rental_uris":{"android":"levelo://app?vid=130b4417-0f40-454b-981c-c7972329f9e2","ios":"levelo://app?vid=130b4417-0f40-454b-981c-c7972329f9e2"},"vehicle_type_id":"4","last_reported":1743260980,"current_range_meters":9600,"station_id":"ce4bhg92rcd13ifvqf90","pricing_plan_id":"cebpf4jnsgd1na2vs0mg"},{"bike_id":"4586e23a-2d77-446c-8e8c-a15b6ae5de02","system_id":"levelo_inurba_marseille","lat":43.28623,"lon":5.38128,"is_reserved":false,"is_disabled":false,"rental_uris":{"android":"levelo://app?vid=4586e23a-2d77-446c-8e8c-a15b6ae5de02","ios":"levelo://app?vid=4586e23a-2d77-446c-8e8c-a15b6ae5de02"},"vehicle_type_id":"4","last_reported":1743260980,"current_range_meters":9600,"station_id":"","pricing_plan_id":"cebpf4jnsgd1na2vs0mg"},{"bike_id":"3b9e2dbb-dda4-4ed5-8aef-7e67e6437f0d","system_id":"levelo_inurba_marseille","lat":43.33349,"lon":5.40132,"is_reserved":false,"is_disabled":false,"rental_uris":{"android":"levelo://app?vid=3b9e2dbb-dda4-4ed5-8aef-7e67e6437f0d","ios":"levelo://app?vid=3b9e2dbb-dda4-4ed5-8aef-7e67e6437f0d"},"vehicle_type_id":"4","last_reported":1743260980,"current_range_meters":9600,"station_id":"","pricing_plan_id":"cebpf4jnsgd1na2vs0mg"},{"bike_id":"24565657-e482-4932-93db-e35fe49c2025","system_id":"levelo_inurba_marseille","lat":43.26689,"lon":5.3828,"is_reserved":false,"is_disabled":false,"rental_uris":{"android":"levelo://app?vid=24565657-e482-4932-93db-e35fe49c2025","ios":"levelo://app?vid=24565657-e482-4932-93db-e35fe49c2025"},"vehicle_type_id":"4","last_reported":1743260980,"current_range_meters":10000,"station_id":"ce4bhg92rcd13ifvqf90","pricing_plan_id":"cebpf4jnsgd1na2vs0mg"},{"bike_id":"3cf409f2-da30-4f9d-95df-2167044d6397","system_id":"levelo_inurba_marseille","lat":43.22943,"lon":5.35379,"is_reserved":false,"is_disabled":false,"rental_uris":{"android":"levelo://app?vid=3cf409f2-da30-4f9d-95df-2167044d6397","ios":"levelo://app?vid=3cf409f2-da30-4f9d-95df-2167044d6397"},"vehicle_type_id":"4","last_reported":1743260980,"current_range_meters":10000,"station_id":"cpo3532slgdg3j2ikp40","pricing_plan_id":"cebpf4jnsgd1na2vs0mg"},{"bike_id":"004ed55f-f985-4268-b523-9ed16ba4ea3b","system_id":"levelo_inurba_marseille","lat":43.292739,"lon":5.368403,"is_reserved":false,"is_disabled":true,"rental_uris":{"android":"levelo://app?vid=004ed55f-f985-4268-b523-9ed16ba4ea3b","ios":"levelo://app?vid=004ed55f-f985-4268-b523-9ed16ba4ea3b"},"vehicle_type_id":"4","last_reported":1743260980,"current_range_meters":10000,"station_id":"","pricing_plan_id":"cebpf4jnsgd1na2vs0mg"},{"bike_id":"7fa575b5-fd6f-4d0e-aa68-984c58a76463","system_id":"levelo_inurba_marseille","lat":43.309501,"lon":5.390126,"is_reserved":false,"is_disabled":false,"rental_uris":{"android":"levelo://app?vid=7fa575b5-fd6f-4d0e-aa68-984c58a76463","ios":"levelo://app?vid=7fa575b5-fd6f-4d0e-aa68-984c58a76463"},"vehicle_type_id":"4","last_reported":1743260980,"current_range_meters":10000,"station_id":"ce4bgih2rcd13ifvqba0","pricing_plan_id":"cebpf4jnsgd1na2vs0mg"},{"bike_id":"036f1d27-abe5-4db7-a0ad-7f200051156a","system_id":"levelo_inurba_marseille","lat":43.28853,"lon":5.35848,"is_reserved":false,"is_disabled":false,"rental_uris":{"android":"levelo://app?vid=036f1d27-abe5-4db7-a0ad-7f200051156a","ios":"levelo://app?vid=036f1d27-abe5-4db7-a0ad-7f200051156a"},"vehicle_type_id":"4","last_reported":1743260980,"current_range_meters":10000,"station_id":"ce4bhb12rcd13ifvqem0","pricing_plan_id":"cebpf4jnsgd1na2vs0mg"},{"bike_id":"2af52b7b-59a2-483e-9f1d-85eb806e7e33","system_id":"levelo_inurba_marseille","lat":43.28838,"lon":5.3932,"is_reserved":false,"is_disabled":false,"rental_uris":{"android":"levelo://app?vid=2af52b7b-59a2-483e-9f1d-85eb806e7e33","ios":"levelo://app?vid=2af52b7b-59a2-483e-9f1d-85eb806e7e33"},"vehicle_type_id":"4","last_reported":1743260980,"current_range_meters":10000,"station_id":"ce4bh2p2rcd13ifvqdi0","pricing_plan_id":"cebpf4jnsgd1na2vs0mg"},{"bike_id":"8afc88af-2ae3-4a9b-ae4f-ee3cc9836ed0","system_id":"levelo_inurba_marseille","lat":43.290411,"lon":5.375575,"is_reserved":false,"is_disabled":false,"rental_uris":{"android":"levelo://app?vid=8afc88af-2ae3-4a9b-ae4f-ee3cc9836ed0","ios":"levelo://app?vid=8afc88af-2ae3-4a9b-ae4f-ee3cc9836ed0"},"vehicle_type_id":"4","last_reported":1743260980,"current_range_meters":10000,"station_id":"ce4bhah2rcd13ifvqej0","pricing_plan_id":"cebpf4jnsgd1na2vs0mg"},{"bike_id":"050d458d-cce9-44b3-9d16-b8a5c2076354","system_id":"levelo_inurba_marseille","lat":43.31752,"lon":5.39016,"is_reserved":false,"is_disabled":false,"rental_uris":{"android":"levelo://app?vid=050d458d-cce9-44b3-9d16-b8a5c2076354","ios":"levelo://app?vid=050d458d-cce9-44b3-9d16-b8a5c2076354"},"vehicle_type_id":"4","last_reported":1743260980,"current_range_meters":10000,"station_id":"ce4bhqp2rcd13ifvqhng","pricing_plan_id":"cebpf4jnsgd1na2vs0mg"},{"bike_id":"c039b3a3-dfc5-4473-9a36-f36cf023147d","system_id":"levelo_inurba_marseille","lat":43.23212,"lon":5.39946,"is_reserved":false,"is_disabled":true,"rental_uris":{"android":"levelo://app?vid=c039b3a3-dfc5-4473-9a36-f36cf023147d","ios":"levelo://app?vid=c039b3a3-dfc5-4473-9a36-f36cf023147d"},"vehicle_type_id":"4","last_reported":1743260980,"current_range_meters":10000,"station_id":"ce4bhn12rcd13ifvqgqg","pricing_plan_id":"cebpf4jnsgd1na2vs0mg"},{"bike_id":"18a7459a-9de6-4413-bb5e-bd445e06b1f8","system_id":"levelo_inurba_marseille","lat":43.29182,"lon":5.35804,"is_reserved":false,"is_disabled":false,"rental_uris":{"android":"levelo://app?vid=18a7459a-9de6-4413-bb5e-bd445e06b1f8","ios":"levelo://app?vid=18a7459a-9de6-4413-bb5e-bd445e06b1f8"},"vehicle_type_id":"4","last_reported":1743260980,"current_range_meters":10000,"station_id":"ce4bhb12rcd13ifvqel0","pricing_plan_id":"cebpf4jnsgd1na2vs0mg"},{"bike_id":"3554961e-fd7d-4e4a-b39f-d13b2cd74872","system_id":"levelo_inurba_marseille","lat":43.29603,"lon":5.38108,"is_reserved":false,"is_disabled":false,"rental_uris":{"android":"levelo://app?vid=3554961e-fd7d-4e4a-b39f-d13b2cd74872","ios":"levelo://app?vid=3554961e-fd7d-4e4a-b39f-d13b2cd74872"},"vehicle_type_id":"4","last_reported":1743260980,"current_range_meters":10000,"station_id":"ce4bgl12rcd13ifvqbo0","pricing_plan_id":"cebpf4jnsgd1na2vs0mg"},{"bike_id":"a1b5a514-f0ef-42eb-b1a4-22dd30a86324","system_id":"levelo_inurba_marseille","lat":43.31748,"lon":5.39006,"is_reserved":false,"is_disabled":false,"rental_uris":{"android":"levelo://app?vid=a1b5a514-f0ef-42eb-b1a4-22dd30a86324","ios":"levelo://app?vid=a1b5a514-f0ef-42eb-b1a4-22dd30a86324"},"vehicle_type_id":"4","last_reported":1743260980,"current_range_meters":10000,"station_id":"ce4bhqp2rcd13ifvqhng","pricing_plan_id":"cebpf4jnsgd1na2vs0mg"},{"bike_id":"a36a9ec1-537e-4091-9d7a-dd0444d14e10","system_id":"levelo_inurba_marseille","lat":43.248042,"lon":5.374555,"is_reserved":false,"is_disabled":false,"rental_uris":{"android":"levelo://app?vid=a36a9ec1-537e-4091-9d7a-dd0444d14e10","ios":"levelo://app?vid=a36a9ec1-537e-4091-9d7a-dd0444d14e10"},"vehicle_type_id":"4","last_reported":1743260980,"current_range_meters":10800,"station_id":"","pricing_plan_id":"cebpf4jnsgd1na2vs0mg"},{"bike_id":"6938d0ce-f954-4fff-b95b-2d698d38a5d7","system_id":"levelo_inurba_marseille","lat":43.2787,"lon":5.41062,"is_reserved":false,"is_disabled":false,"rental_uris":{"android":"levelo://app?vid=6938d0ce-f954-4fff-b95b-2d698d38a5d7","ios":"levelo://app?vid=6938d0ce-f954-4fff-b95b-2d698d38a5d7"},"vehicle_type_id":"4","last_reported":1743260980,"current_range_meters":10800,"station_id":"","pricing_plan_id":"cebpf4jnsgd1na2vs0mg"},{"bike_id":"0018b987-2a7a-4a9c-80b2-45a82c3f3de7","system_id":"levelo_inurba_marseille","lat":43.24072,"lon":5.37767,"is_reserved":false,"is_disabled":false,"rental_uris":{"android":"levelo://app?vid=0018b987-2a7a-4a9c-80b2-45a82c3f3de7","ios":"levelo://app?vid=0018b987-2a7a-4a9c-80b2-45a82c3f3de7"},"vehicle_type_id":"4","last_reported":1743260980,"current_range_meters":11200,"station_id":"ce4bhnp2rcd13ifvqgvg","pricing_plan_id":"cebpf4jnsgd1na2vs0mg"},{"bike_id":"8964994f-01e2-49e5-90d2-1dd7115283f3","system_id":"levelo_inurba_marseille","lat":43.23067,"lon":5.35491,"is_reserved":false,"is_disabled":false,"rental_uris":{"android":"levelo://app?vid=8964994f-01e2-49e5-90d2-1dd7115283f3","ios":"levelo://app?vid=8964994f-01e2-49e5-90d2-1dd7115283f3"},"vehicle_type_id":"4","last_reported":1743260980,"current_range_meters":11200,"station_id":"cpo3342slgdg3j2ifvpg","pricing_plan_id":"cebpf4jnsgd1na2vs0mg"},{"bike_id":"fc7bf1eb-233a-4e33-9153-cd02cddf909f","system_id":"levelo_inurba_marseille","lat":43.27368,"lon":5.3626,"is_reserved":false,"is_disabled":false,"rental_uris":{"android":"levelo://app?vid=fc7bf1eb-233a-4e33-9153-cd02cddf909f","ios":"levelo://app?vid=fc7bf1eb-233a-4e33-9153-cd02cddf909f"},"vehicle_type_id":"4","last_reported":1743260980,"current_range_meters":11200,"station_id":"ce4bhbh2rcd13ifvqeo0","pricing_plan_id":"cebpf4jnsgd1na2vs0mg"},{"bike_id":"96ac20e8-5840-4579-b371-184ec6253952","system_id":"levelo_inurba_marseille","lat":43.2752,"lon":5.41138,"is_reserved":false,"is_disabled":false,"rental_uris":{"android":"levelo://app?vid=96ac20e8-5840-4579-b371-184ec6253952","ios":"levelo://app?vid=96ac20e8-5840-4579-b371-184ec6253952"},"vehicle_type_id":"4","last_reported":1743260980,"current_range_meters":11200,"station_id":"","pricing_plan_id":"cebpf4jnsgd1na2vs0mg"},{"bike_id":"ead84735-1991-4501-b506-2229ced7058a","system_id":"levelo_inurba_marseille","lat":43.23057,"lon":5.35496,"is_reserved":false,"is_disabled":false,"rental_uris":{"android":"levelo://app?vid=ead84735-1991-4501-b506-2229ced7058a","ios":"levelo://app?vid=ead84735-1991-4501-b506-2229ced7058a"},"vehicle_type_id":"4","last_reported":1743260980,"current_range_meters":11200,"station_id":"cpo3342slgdg3j2ifvpg","pricing_plan_id":"cebpf4jnsgd1na2vs0mg"},{"bike_id":"89b372e0-e34b-4448-a651-9f0d9816c98e","system_id":"levelo_inurba_marseille","lat":43.24188,"lon":5.36399,"is_reserved":false,"is_disabled":false,"rental_uris":{"android":"levelo://app?vid=89b372e0-e34b-4448-a651-9f0d9816c98e","ios":"levelo://app?vid=89b372e0-e34b-4448-a651-9f0d9816c98e"},"vehicle_type_id":"4","last_reported":1743260980,"current_range_meters":11200,"station_id":"cpo36qri1sfpv3e86is0","pricing_plan_id":"cebpf4jnsgd1na2vs0mg"},{"bike_id":"b1e5ad4c-0944-4754-bb31-77d984fa0591","system_id":"levelo_inurba_marseille","lat":43.22932,"lon":5.35378,"is_reserved":false,"is_disabled":false,"rental_uris":{"android":"levelo://app?vid=b1e5ad4c-0944-4754-bb31-77d984fa0591","ios":"levelo://app?vid=b1e5ad4c-0944-4754-bb31-77d984fa0591"},"vehicle_type_id":"4","last_reported":1743260980,"current_range_meters":11200,"station_id":"cpo3532slgdg3j2ikp40","pricing_plan_id":"cebpf4jnsgd1na2vs0mg"},{"bike_id":"4914594a-9570-44ae-8a2d-b7a2a5042d11","system_id":"levelo_inurba_marseille","lat":43.32289,"lon":5.38276,"is_reserved":false,"is_disabled":false,"rental_uris":{"android":"levelo://app?vid=4914594a-9570-44ae-8a2d-b7a2a5042d11","ios":"levelo://app?vid=4914594a-9570-44ae-8a2d-b7a2a5042d11"},"vehicle_type_id":"4","last_reported":1743260980,"current_range_meters":11200,"station_id":"ce4bhr12rcd13ifvqhqg","pricing_plan_id":"cebpf4jnsgd1na2vs0mg"},{"bike_id":"aa2a2b57-8ad0-4e69-9156-9bb10fd5d03a","system_id":"levelo_inurba_marseille","lat":43.28004,"lon":5.40004,"is_reserved":false,"is_disabled":false,"rental_uris":{"android":"levelo://app?vid=aa2a2b57-8ad0-4e69-9156-9bb10fd5d03a","ios":"levelo://app?vid=aa2a2b57-8ad0-4e69-9156-9bb10fd5d03a"},"vehicle_type_id":"4","last_reported":1743260980,"current_range_meters":11200,"station_id":"ce4bho92rcd13ifvqh4g","pricing_plan_id":"cebpf4jnsgd1na2vs0mg"},{"bike_id":"aa8607bb-b5d2-4f91-a082-c4272120a7ed","system_id":"levelo_inurba_marseille","lat":43.28935,"lon":5.36398,"is_reserved":false,"is_disabled":false,"rental_uris":{"android":"levelo://app?vid=aa8607bb-b5d2-4f91-a082-c4272120a7ed","ios":"levelo://app?vid=aa8607bb-b5d2-4f91-a082-c4272120a7ed"},"vehicle_type_id":"4","last_reported":1743260980,"current_range_meters":11200,"station_id":"ce4bhc92rcd13ifvqetg","pricing_plan_id":"cebpf4jnsgd1na2vs0mg"},{"bike_id":"af2d613f-1598-4f6c-b6c8-0f2169b865ac","system_id":"levelo_inurba_marseille","lat":43.27098,"lon":5.39267,"is_reserved":false,"is_disabled":false,"rental_uris":{"android":"levelo://app?vid=af2d613f-1598-4f6c-b6c8-0f2169b865ac","ios":"levelo://app?vid=af2d613f-1598-4f6c-b6c8-0f2169b865ac"},"vehicle_type_id":"4","last_reported":1743260980,"current_range_meters":11200,"station_id":"","pricing_plan_id":"cebpf4jnsgd1na2vs0mg"},{"bike_id":"b08e0385-f76c-475c-b42e-1c6ea4ea373b","system_id":"levelo_inurba_marseille","lat":43.295278,"lon":5.391165,"is_reserved":false,"is_disabled":false,"rental_uris":{"android":"levelo://app?vid=b08e0385-f76c-475c-b42e-1c6ea4ea373b","ios":"levelo://app?vid=b08e0385-f76c-475c-b42e-1c6ea4ea373b"},"vehicle_type_id":"4","last_reported":1743260980,"current_range_meters":11200,"station_id":"ce4bh292rcd13ifvqdf0","pricing_plan_id":"cebpf4jnsgd1na2vs0mg"},{"bike_id":"0b2c3a46-1812-4098-81f2-b85f3b390c4a","system_id":"levelo_inurba_marseille","lat":43.28278,"lon":5.35066,"is_reserved":false,"is_disabled":false,"rental_uris":{"android":"levelo://app?vid=0b2c3a46-1812-4098-81f2-b85f3b390c4a","ios":"levelo://app?vid=0b2c3a46-1812-4098-81f2-b85f3b390c4a"},"vehicle_type_id":"4","last_reported":1743260980,"current_range_meters":11200,"station_id":"ce4bhbp2rcd13ifvqerg","pricing_plan_id":"cebpf4jnsgd1na2vs0mg"},{"bike_id":"12b3f83c-56cf-4590-a850-165deba3df16","system_id":"levelo_inurba_marseille","lat":43.30084,"lon":5.39081,"is_reserved":false,"is_disabled":false,"rental_uris":{"android":"levelo://app?vid=12b3f83c-56cf-4590-a850-165deba3df16","ios":"levelo://app?vid=12b3f83c-56cf-4590-a850-165deba3df16"},"vehicle_type_id":"4","last_reported":1743260980,"current_range_meters":11600,"station_id":"ce4bh192rcd13ifvqdb0","pricing_plan_id":"cebpf4jnsgd1na2vs0mg"},{"bike_id":"92bfecbf-789d-4c73-ae76-0e5a1e2a6e8a","system_id":"levelo_inurba_marseille","lat":43.25577,"lon":5.38233,"is_reserved":false,"is_disabled":false,"rental_uris":{"android":"levelo://app?vid=92bfecbf-789d-4c73-ae76-0e5a1e2a6e8a","ios":"levelo://app?vid=92bfecbf-789d-4c73-ae76-0e5a1e2a6e8a"},"vehicle_type_id":"4","last_reported":1743260980,"current_range_meters":11600,"station_id":"ce4bhih2rcd13ifvqfs0","pricing_plan_id":"cebpf4jnsgd1na2vs0mg"},{"bike_id":"3f2bcfca-c616-4059-a95b-b1ee7948eb41","system_id":"levelo_inurba_marseille","lat":43.29907,"lon":5.39742,"is_reserved":false,"is_disabled":false,"rental_uris":{"android":"levelo://app?vid=3f2bcfca-c616-4059-a95b-b1ee7948eb41","ios":"levelo://app?vid=3f2bcfca-c616-4059-a95b-b1ee7948eb41"},"vehicle_type_id":"4","last_reported":1743260980,"current_range_meters":11600,"station_id":"ce4bh0h2rcd13ifvqd50","pricing_plan_id":"cebpf4jnsgd1na2vs0mg"},{"bike_id":"699cb6a9-80bb-4d7b-8f84-b25847471872","system_id":"levelo_inurba_marseille","lat":43.28935,"lon":5.36395,"is_reserved":false,"is_disabled":false,"rental_uris":{"android":"levelo://app?vid=699cb6a9-80bb-4d7b-8f84-b25847471872","ios":"levelo://app?vid=699cb6a9-80bb-4d7b-8f84-b25847471872"},"vehicle_type_id":"4","last_reported":1743260980,"current_range_meters":11600,"station_id":"ce4bhc92rcd13ifvqetg","pricing_plan_id":"cebpf4jnsgd1na2vs0mg"},{"bike_id":"484616e0-291e-4957-8109-8c05c450ccb0","system_id":"levelo_inurba_marseille","lat":43.30138,"lon":5.38782,"is_reserved":false,"is_disabled":false,"rental_uris":{"android":"levelo://app?vid=484616e0-291e-4957-8109-8c05c450ccb0","ios":"levelo://app?vid=484616e0-291e-4957-8109-8c05c450ccb0"},"vehicle_type_id":"4","last_reported":1743260980,"current_range_meters":11600,"station_id":"ce4bghh2rcd13ifvqb60","pricing_plan_id":"cebpf4jnsgd1na2vs0mg"},{"bike_id":"acf1e1c3-a629-4c7b-a838-cba3f3b54603","system_id":"levelo_inurba_marseille","lat":43.31868,"lon":5.3763,"is_reserved":false,"is_disabled":false,"rental_uris":{"android":"levelo://app?vid=acf1e1c3-a629-4c7b-a838-cba3f3b54603","ios":"levelo://app?vid=acf1e1c3-a629-4c7b-a838-cba3f3b54603"},"vehicle_type_id":"4","last_reported":1743260980,"current_range_meters":11600,"station_id":"","pricing_plan_id":"cebpf4jnsgd1na2vs0mg"},{"bike_id":"62fbe971-ecaf-4adf-a02e-e818ded74fbf","system_id":"levelo_inurba_marseille","lat":43.27953,"lon":5.41051,"is_reserved":false,"is_disabled":false,"rental_uris":{"android":"levelo://app?vid=62fbe971-ecaf-4adf-a02e-e818ded74fbf","ios":"levelo://app?vid=62fbe971-ecaf-4adf-a02e-e818ded74fbf"},"vehicle_type_id":"4","last_reported":1743260980,"current_range_meters":12000,"station_id":"ce4bhnp2rcd13ifvqh0g","pricing_plan_id":"cebpf4jnsgd1na2vs0mg"},{"bike_id":"56deadf3-1a4c-45fa-8a45-00c9657d4c8a","system_id":"levelo_inurba_marseille","lat":43.2511,"lon":5.40326,"is_reserved":false,"is_disabled":false,"rental_uris":{"android":"levelo://app?vid=56deadf3-1a4c-45fa-8a45-00c9657d4c8a","ios":"levelo://app?vid=56deadf3-1a4c-45fa-8a45-00c9657d4c8a"},"vehicle_type_id":"4","last_reported":1743260980,"current_range_meters":12000,"station_id":"ce4bhlh2rcd13ifvqgig","pricing_plan_id":"cebpf4jnsgd1na2vs0mg"},{"bike_id":"4e9c9b76-fa0e-4851-94e9-fe0cef38ad62","system_id":"levelo_inurba_marseille","lat":43.30273,"lon":5.40092,"is_reserved":false,"is_disabled":false,"rental_uris":{"android":"levelo://app?vid=4e9c9b76-fa0e-4851-94e9-fe0cef38ad62","ios":"levelo://app?vid=4e9c9b76-fa0e-4851-94e9-fe0cef38ad62"},"vehicle_type_id":"4","last_reported":1743260980,"current_range_meters":12000,"station_id":"ce4bgvh2rcd13ifvqcs0","pricing_plan_id":"cebpf4jnsgd1na2vs0mg"},{"bike_id":"747d2bc2-6706-42d9-8381-8fcc8fac62bd","system_id":"levelo_inurba_marseille","lat":43.28598,"lon":5.37083,"is_reserved":false,"is_disabled":true,"rental_uris":{"android":"levelo://app?vid=747d2bc2-6706-42d9-8381-8fcc8fac62bd","ios":"levelo://app?vid=747d2bc2-6706-42d9-8381-8fcc8fac62bd"},"vehicle_type_id":"4","last_reported":1743260980,"current_range_meters":12000,"station_id":"ce4bht12rcd13ifvqi60","pricing_plan_id":"cebpf4jnsgd1na2vs0mg"},{"bike_id":"fa3c96ba-c753-485a-a01c-e492ffe30acb","system_id":"levelo_inurba_marseille","lat":43.28614,"lon":5.35109,"is_reserved":false,"is_disabled":false,"rental_uris":{"android":"levelo://app?vid=fa3c96ba-c753-485a-a01c-e492ffe30acb","ios":"levelo://app?vid=fa3c96ba-c753-485a-a01c-e492ffe30acb"},"vehicle_type_id":"4","last_reported":1743260980,"current_range_meters":12000,"station_id":"ce4bhch2rcd13ifvqeug","pricing_plan_id":"cebpf4jnsgd1na2vs0mg"},{"bike_id":"24032ffe-ae67-4ae3-907b-2aab152facd4","system_id":"levelo_inurba_marseille","lat":43.29184,"lon":5.35793,"is_reserved":false,"is_disabled":false,"rental_uris":{"android":"levelo://app?vid=24032ffe-ae67-4ae3-907b-2aab152facd4","ios":"levelo://app?vid=24032ffe-ae67-4ae3-907b-2aab152facd4"},"vehicle_type_id":"4","last_reported":1743260980,"current_range_meters":12000,"station_id":"ce4bhb12rcd13ifvqel0","pricing_plan_id":"cebpf4jnsgd1na2vs0mg"},{"bike_id":"02578301-968f-4db5-8d14-677a8ef1e53b","system_id":"levelo_inurba_marseille","lat":43.29552,"lon":5.375,"is_reserved":false,"is_disabled":false,"rental_uris":{"android":"levelo://app?vid=02578301-968f-4db5-8d14-677a8ef1e53b","ios":"levelo://app?vid=02578301-968f-4db5-8d14-677a8ef1e53b"},"vehicle_type_id":"4","last_reported":1743260980,"current_range_meters":12000,"station_id":"ce4bgkp2rcd13ifvqbmg","pricing_plan_id":"cebpf4jnsgd1na2vs0mg"},{"bike_id":"516eec70-9871-443d-bcef-31d65d51e4f5","system_id":"levelo_inurba_marseille","lat":43.3029,"lon":5.37692,"is_reserved":false,"is_disabled":false,"rental_uris":{"android":"levelo://app?vid=516eec70-9871-443d-bcef-31d65d51e4f5","ios":"levelo://app?vid=516eec70-9871-443d-bcef-31d65d51e4f5"},"vehicle_type_id":"4","last_reported":1743260980,"current_range_meters":12000,"station_id":"ce4bguh2rcd13ifvqcj0","pricing_plan_id":"cebpf4jnsgd1na2vs0mg"},{"bike_id":"25bb5fbc-8229-4010-b703-31f5ee6ac141","system_id":"levelo_inurba_marseille","lat":43.30627,"lon":5.36597,"is_reserved":false,"is_disabled":false,"rental_uris":{"android":"levelo://app?vid=25bb5fbc-8229-4010-b703-31f5ee6ac141","ios":"levelo://app?vid=25bb5fbc-8229-4010-b703-31f5ee6ac141"},"vehicle_type_id":"4","last_reported":1743260980,"current_range_meters":12400,"station_id":"","pricing_plan_id":"cebpf4jnsgd1na2vs0mg"},{"bike_id":"76d4ed16-8625-4a14-a5f1-d28ac2574c13","system_id":"levelo_inurba_marseille","lat":43.245459,"lon":5.395466,"is_reserved":false,"is_disabled":false,"rental_uris":{"android":"levelo://app?vid=76d4ed16-8625-4a14-a5f1-d28ac2574c13","ios":"levelo://app?vid=76d4ed16-8625-4a14-a5f1-d28ac2574c13"},"vehicle_type_id":"4","last_reported":1743260980,"current_range_meters":12400,"station_id":"","pricing_plan_id":"cebpf4jnsgd1na2vs0mg"},{"bike_id":"296d0da0-4cc4-40ab-acd1-7c240f5eee02","system_id":"levelo_inurba_marseille","lat":43.30148,"lon":5.36963,"is_reserved":false,"is_disabled":false,"rental_uris":{"android":"levelo://app?vid=296d0da0-4cc4-40ab-acd1-7c240f5eee02","ios":"levelo://app?vid=296d0da0-4cc4-40ab-acd1-7c240f5eee02"},"vehicle_type_id":"4","last_reported":1743260980,"current_range_meters":12400,"station_id":"","pricing_plan_id":"cebpf4jnsgd1na2vs0mg"},{"bike_id":"906b540e-e920-417f-92b5-0ef35349f644","system_id":"levelo_inurba_marseille","lat":43.31531,"lon":5.39701,"is_reserved":false,"is_disabled":false,"rental_uris":{"android":"levelo://app?vid=906b540e-e920-417f-92b5-0ef35349f644","ios":"levelo://app?vid=906b540e-e920-417f-92b5-0ef35349f644"},"vehicle_type_id":"4","last_reported":1743260980,"current_range_meters":12400,"station_id":"","pricing_plan_id":"cebpf4jnsgd1na2vs0mg"},{"bike_id":"e6967797-29d0-4947-88e5-61bc42de65df","system_id":"levelo_inurba_marseille","lat":43.28618,"lon":5.35103,"is_reserved":false,"is_disabled":false,"rental_uris":{"android":"levelo://app?vid=e6967797-29d0-4947-88e5-61bc42de65df","ios":"levelo://app?vid=e6967797-29d0-4947-88e5-61bc42de65df"},"vehicle_type_id":"4","last_reported":1743260980,"current_range_meters":12400,"station_id":"ce4bhch2rcd13ifvqeug","pricing_plan_id":"cebpf4jnsgd1na2vs0mg"},{"bike_id":"00be0317-17ab-4e44-83e9-4e55c9cffd8f","system_id":"levelo_inurba_marseille","lat":43.23965,"lon":5.36618,"is_reserved":false,"is_disabled":false,"rental_uris":{"android":"levelo://app?vid=00be0317-17ab-4e44-83e9-4e55c9cffd8f","ios":"levelo://app?vid=00be0317-17ab-4e44-83e9-4e55c9cffd8f"},"vehicle_type_id":"4","last_reported":1743260980,"current_range_meters":12400,"station_id":"ce4bhi12rcd13ifvqfp0","pricing_plan_id":"cebpf4jnsgd1na2vs0mg"},{"bike_id":"3ac94ff1-fc84-426f-b155-785886a48287","system_id":"levelo_inurba_marseille","lat":43.26042,"lon":5.39415,"is_reserved":false,"is_disabled":false,"rental_uris":{"android":"levelo://app?vid=3ac94ff1-fc84-426f-b155-785886a48287","ios":"levelo://app?vid=3ac94ff1-fc84-426f-b155-785886a48287"},"vehicle_type_id":"4","last_reported":1743260980,"current_range_meters":12400,"station_id":"ce4bhh92rcd13ifvqfj0","pricing_plan_id":"cebpf4jnsgd1na2vs0mg"},{"bike_id":"e53fb0b6-4828-47af-a0d0-116bdf650cf4","system_id":"levelo_inurba_marseille","lat":43.26689,"lon":5.38278,"is_reserved":false,"is_disabled":false,"rental_uris":{"android":"levelo://app?vid=e53fb0b6-4828-47af-a0d0-116bdf650cf4","ios":"levelo://app?vid=e53fb0b6-4828-47af-a0d0-116bdf650cf4"},"vehicle_type_id":"4","last_reported":1743260980,"current_range_meters":12800,"station_id":"ce4bhg92rcd13ifvqf90","pricing_plan_id":"cebpf4jnsgd1na2vs0mg"},{"bike_id":"1bf928b2-7ac9-41a7-adcc-77e0f5608510","system_id":"levelo_inurba_marseille","lat":43.3244,"lon":5.36398,"is_reserved":false,"is_disabled":false,"rental_uris":{"android":"levelo://app?vid=1bf928b2-7ac9-41a7-adcc-77e0f5608510","ios":"levelo://app?vid=1bf928b2-7ac9-41a7-adcc-77e0f5608510"},"vehicle_type_id":"4","last_reported":1743260980,"current_range_meters":12800,"station_id":"","pricing_plan_id":"cebpf4jnsgd1na2vs0mg"},{"bike_id":"74df4a5e-b014-4fba-87d9-1691b26e5ad5","system_id":"levelo_inurba_marseille","lat":43.30142,"lon":5.3742,"is_reserved":false,"is_disabled":false,"rental_uris":{"android":"levelo://app?vid=74df4a5e-b014-4fba-87d9-1691b26e5ad5","ios":"levelo://app?vid=74df4a5e-b014-4fba-87d9-1691b26e5ad5"},"vehicle_type_id":"4","last_reported":1743260980,"current_range_meters":12800,"station_id":"ce4bgs92rcd13ifvqcc0","pricing_plan_id":"cebpf4jnsgd1na2vs0mg"},{"bike_id":"a5b68ea4-c379-4fca-bfc9-713bbff8f8fe","system_id":"levelo_inurba_marseille","lat":43.29969,"lon":5.37179,"is_reserved":false,"is_disabled":false,"rental_uris":{"android":"levelo://app?vid=a5b68ea4-c379-4fca-bfc9-713bbff8f8fe","ios":"levelo://app?vid=a5b68ea4-c379-4fca-bfc9-713bbff8f8fe"},"vehicle_type_id":"4","last_reported":1743260980,"current_range_meters":12800,"station_id":"ce4bgr92rcd13ifvqc7g","pricing_plan_id":"cebpf4jnsgd1na2vs0mg"},{"bike_id":"f14f703a-e9a4-4f8a-8684-da5b5c0a7402","system_id":"levelo_inurba_marseille","lat":43.255,"lon":5.3765,"is_reserved":false,"is_disabled":false,"rental_uris":{"android":"levelo://app?vid=f14f703a-e9a4-4f8a-8684-da5b5c0a7402","ios":"levelo://app?vid=f14f703a-e9a4-4f8a-8684-da5b5c0a7402"},"vehicle_type_id":"4","last_reported":1743260980,"current_range_meters":12800,"station_id":"ce4bhh12rcd13ifvqff0","pricing_plan_id":"cebpf4jnsgd1na2vs0mg"},{"bike_id":"e281c986-54ee-4e76-b2ee-9f1511eaf722","system_id":"levelo_inurba_marseille","lat":43.30306,"lon":5.39215,"is_reserved":false,"is_disabled":false,"rental_uris":{"android":"levelo://app?vid=e281c986-54ee-4e76-b2ee-9f1511eaf722","ios":"levelo://app?vid=e281c986-54ee-4e76-b2ee-9f1511eaf722"},"vehicle_type_id":"4","last_reported":1743260980,"current_range_meters":13600,"station_id":"ce4bgkh2rcd13ifvqbk0","pricing_plan_id":"cebpf4jnsgd1na2vs0mg"},{"bike_id":"9f50066e-01fa-4519-9f61-8109fe65f5d9","system_id":"levelo_inurba_marseille","lat":43.29714,"lon":5.37104,"is_reserved":false,"is_disabled":false,"rental_uris":{"android":"levelo://app?vid=9f50066e-01fa-4519-9f61-8109fe65f5d9","ios":"levelo://app?vid=9f50066e-01fa-4519-9f61-8109fe65f5d9"},"vehicle_type_id":"4","last_reported":1743260980,"current_range_meters":13600,"station_id":"","pricing_plan_id":"cebpf4jnsgd1na2vs0mg"},{"bike_id":"eef0d096-1725-4142-af5c-bbedb7677ec8","system_id":"levelo_inurba_marseille","lat":43.30898,"lon":5.372,"is_reserved":false,"is_disabled":false,"rental_uris":{"android":"levelo://app?vid=eef0d096-1725-4142-af5c-bbedb7677ec8","ios":"levelo://app?vid=eef0d096-1725-4142-af5c-bbedb7677ec8"},"vehicle_type_id":"4","last_reported":1743260980,"current_range_meters":13600,"station_id":"ce4bguh2rcd13ifvqckg","pricing_plan_id":"cebpf4jnsgd1na2vs0mg"},{"bike_id":"653ea6de-a177-4007-9cfa-5f3f77e975f6","system_id":"levelo_inurba_marseille","lat":43.24812,"lon":5.37461,"is_reserved":false,"is_disabled":false,"rental_uris":{"android":"levelo://app?vid=653ea6de-a177-4007-9cfa-5f3f77e975f6","ios":"levelo://app?vid=653ea6de-a177-4007-9cfa-5f3f77e975f6"},"vehicle_type_id":"4","last_reported":1743260980,"current_range_meters":13600,"station_id":"ce4bhgh2rcd13ifvqfb0","pricing_plan_id":"cebpf4jnsgd1na2vs0mg"},{"bike_id":"21b7dfed-4bf3-42a6-9071-9b2b5259da3c","system_id":"levelo_inurba_marseille","lat":43.29618,"lon":5.37128,"is_reserved":false,"is_disabled":true,"rental_uris":{"android":"levelo://app?vid=21b7dfed-4bf3-42a6-9071-9b2b5259da3c","ios":"levelo://app?vid=21b7dfed-4bf3-42a6-9071-9b2b5259da3c"},"vehicle_type_id":"4","last_reported":1743260980,"current_range_meters":13600,"station_id":"ce4bgnh2rcd13ifvqc0g","pricing_plan_id":"cebpf4jnsgd1na2vs0mg"},{"bike_id":"e3dddefa-9a90-402c-a1ed-56d53ccd09d1","system_id":"levelo_inurba_marseille","lat":43.29193,"lon":5.35794,"is_reserved":false,"is_disabled":false,"rental_uris":{"android":"levelo://app?vid=e3dddefa-9a90-402c-a1ed-56d53ccd09d1","ios":"levelo://app?vid=e3dddefa-9a90-402c-a1ed-56d53ccd09d1"},"vehicle_type_id":"4","last_reported":1743260980,"current_range_meters":14000,"station_id":"ce4bhb12rcd13ifvqel0","pricing_plan_id":"cebpf4jnsgd1na2vs0mg"},{"bike_id":"1194d893-debc-41d7-b347-816267570776","system_id":"levelo_inurba_marseille","lat":43.33723,"lon":5.392,"is_reserved":false,"is_disabled":false,"rental_uris":{"android":"levelo://app?vid=1194d893-debc-41d7-b347-816267570776","ios":"levelo://app?vid=1194d893-debc-41d7-b347-816267570776"},"vehicle_type_id":"4","last_reported":1743260980,"current_range_meters":14000,"station_id":"ce4bhr92rcd13ifvqhsg","pricing_plan_id":"cebpf4jnsgd1na2vs0mg"},{"bike_id":"b4e58fc5-3c14-4693-b426-fba23ebebfa6","system_id":"levelo_inurba_marseille","lat":43.2407,"lon":5.37759,"is_reserved":false,"is_disabled":false,"rental_uris":{"android":"levelo://app?vid=b4e58fc5-3c14-4693-b426-fba23ebebfa6","ios":"levelo://app?vid=b4e58fc5-3c14-4693-b426-fba23ebebfa6"},"vehicle_type_id":"4","last_reported":1743260980,"current_range_meters":14000,"station_id":"ce4bhnp2rcd13ifvqgvg","pricing_plan_id":"cebpf4jnsgd1na2vs0mg"},{"bike_id":"7115c83e-cde7-44fc-a9cd-d7873d60aaf6","system_id":"levelo_inurba_marseille","lat":43.239692,"lon":5.366312,"is_reserved":false,"is_disabled":false,"rental_uris":{"android":"levelo://app?vid=7115c83e-cde7-44fc-a9cd-d7873d60aaf6","ios":"levelo://app?vid=7115c83e-cde7-44fc-a9cd-d7873d60aaf6"},"vehicle_type_id":"4","last_reported":1743260980,"current_range_meters":14000,"station_id":"ce4bhi12rcd13ifvqfp0","pricing_plan_id":"cebpf4jnsgd1na2vs0mg"},{"bike_id":"f3dc96b3-fb6d-4932-8f80-b115aa9c03e6","system_id":"levelo_inurba_marseille","lat":43.25869,"lon":5.39905,"is_reserved":false,"is_disabled":false,"rental_uris":{"android":"levelo://app?vid=f3dc96b3-fb6d-4932-8f80-b115aa9c03e6","ios":"levelo://app?vid=f3dc96b3-fb6d-4932-8f80-b115aa9c03e6"},"vehicle_type_id":"4","last_reported":1743260980,"current_range_meters":14000,"station_id":"ce4bhl92rcd13ifvqghg","pricing_plan_id":"cebpf4jnsgd1na2vs0mg"},{"bike_id":"8a625d05-ee93-4cd1-8252-4a801f814f4d","system_id":"levelo_inurba_marseille","lat":43.295277,"lon":5.37444,"is_reserved":false,"is_disabled":false,"rental_uris":{"android":"levelo://app?vid=8a625d05-ee93-4cd1-8252-4a801f814f4d","ios":"levelo://app?vid=8a625d05-ee93-4cd1-8252-4a801f814f4d"},"vehicle_type_id":"4","last_reported":1743260980,"current_range_meters":14000,"station_id":"ce4bgkp2rcd13ifvqbmg","pricing_plan_id":"cebpf4jnsgd1na2vs0mg"},{"bike_id":"e1f39489-366e-4c51-a52d-46e1e2648fdc","system_id":"levelo_inurba_marseille","lat":43.23196,"lon":5.35552,"is_reserved":false,"is_disabled":false,"rental_uris":{"android":"levelo://app?vid=e1f39489-366e-4c51-a52d-46e1e2648fdc","ios":"levelo://app?vid=e1f39489-366e-4c51-a52d-46e1e2648fdc"},"vehicle_type_id":"4","last_reported":1743260980,"current_range_meters":14400,"station_id":"ce4bhu92rcd13ifvqi70","pricing_plan_id":"cebpf4jnsgd1na2vs0mg"},{"bike_id":"8a8496d0-fe67-478f-9118-7899502f108e","system_id":"levelo_inurba_marseille","lat":43.29594,"lon":5.38109,"is_reserved":false,"is_disabled":false,"rental_uris":{"android":"levelo://app?vid=8a8496d0-fe67-478f-9118-7899502f108e","ios":"levelo://app?vid=8a8496d0-fe67-478f-9118-7899502f108e"},"vehicle_type_id":"4","last_reported":1743260980,"current_range_meters":14400,"station_id":"ce4bgl12rcd13ifvqbo0","pricing_plan_id":"cebpf4jnsgd1na2vs0mg"},{"bike_id":"8e704ddb-78ee-48b9-9cef-3ccbffddce10","system_id":"levelo_inurba_marseille","lat":43.28676,"lon":5.38661,"is_reserved":false,"is_disabled":false,"rental_uris":{"android":"levelo://app?vid=8e704ddb-78ee-48b9-9cef-3ccbffddce10","ios":"levelo://app?vid=8e704ddb-78ee-48b9-9cef-3ccbffddce10"},"vehicle_type_id":"4","last_reported":1743260980,"current_range_meters":14400,"station_id":"ce4bh492rcd13ifvqdug","pricing_plan_id":"cebpf4jnsgd1na2vs0mg"},{"bike_id":"bb2d3e70-7257-44d6-ab21-53d892f1cac1","system_id":"levelo_inurba_marseille","lat":43.29558,"lon":5.37499,"is_reserved":false,"is_disabled":false,"rental_uris":{"android":"levelo://app?vid=bb2d3e70-7257-44d6-ab21-53d892f1cac1","ios":"levelo://app?vid=bb2d3e70-7257-44d6-ab21-53d892f1cac1"},"vehicle_type_id":"4","last_reported":1743260980,"current_range_meters":14400,"station_id":"ce4bgh92rcd13ifvqb50","pricing_plan_id":"cebpf4jnsgd1na2vs0mg"},{"bike_id":"a90d481a-7039-457f-a5b9-3dabbed904f5","system_id":"levelo_inurba_marseille","lat":43.27924,"lon":5.41023,"is_reserved":false,"is_disabled":false,"rental_uris":{"android":"levelo://app?vid=a90d481a-7039-457f-a5b9-3dabbed904f5","ios":"levelo://app?vid=a90d481a-7039-457f-a5b9-3dabbed904f5"},"vehicle_type_id":"4","last_reported":1743260980,"current_range_meters":14400,"station_id":"ce4bhnp2rcd13ifvqh0g","pricing_plan_id":"cebpf4jnsgd1na2vs0mg"},{"bike_id":"7564a4eb-fcbd-47e7-87b5-86c0ae53d2e9","system_id":"levelo_inurba_marseille","lat":43.26683,"lon":5.38273,"is_reserved":false,"is_disabled":false,"rental_uris":{"android":"levelo://app?vid=7564a4eb-fcbd-47e7-87b5-86c0ae53d2e9","ios":"levelo://app?vid=7564a4eb-fcbd-47e7-87b5-86c0ae53d2e9"},"vehicle_type_id":"4","last_reported":1743260980,"current_range_meters":14400,"station_id":"ce4bhg92rcd13ifvqf90","pricing_plan_id":"cebpf4jnsgd1na2vs0mg"},{"bike_id":"1c5e0327-9642-49fd-8e4e-34cb3fc72b9c","system_id":"levelo_inurba_marseille","lat":43.28853,"lon":5.39299,"is_reserved":false,"is_disabled":false,"rental_uris":{"android":"levelo://app?vid=1c5e0327-9642-49fd-8e4e-34cb3fc72b9c","ios":"levelo://app?vid=1c5e0327-9642-49fd-8e4e-34cb3fc72b9c"},"vehicle_type_id":"4","last_reported":1743260980,"current_range_meters":14400,"station_id":"ce4bh2p2rcd13ifvqdi0","pricing_plan_id":"cebpf4jnsgd1na2vs0mg"},{"bike_id":"bd90bf75-9c99-4619-93c2-7a5fd83388b5","system_id":"levelo_inurba_marseille","lat":43.313603,"lon":5.388284,"is_reserved":false,"is_disabled":false,"rental_uris":{"android":"levelo://app?vid=bd90bf75-9c99-4619-93c2-7a5fd83388b5","ios":"levelo://app?vid=bd90bf75-9c99-4619-93c2-7a5fd83388b5"},"vehicle_type_id":"4","last_reported":1743260980,"current_range_meters":14800,"station_id":"ce4bgt92rcd13ifvqcf0","pricing_plan_id":"cebpf4jnsgd1na2vs0mg"},{"bike_id":"87dfe9cb-57fe-47b6-962e-291ad621b9df","system_id":"levelo_inurba_marseille","lat":43.288489,"lon":5.393091,"is_reserved":false,"is_disabled":false,"rental_uris":{"android":"levelo://app?vid=87dfe9cb-57fe-47b6-962e-291ad621b9df","ios":"levelo://app?vid=87dfe9cb-57fe-47b6-962e-291ad621b9df"},"vehicle_type_id":"4","last_reported":1743260980,"current_range_meters":14800,"station_id":"ce4bh2p2rcd13ifvqdi0","pricing_plan_id":"cebpf4jnsgd1na2vs0mg"},{"bike_id":"f7a24c9b-d23c-40a3-83cb-9f8f8d282ead","system_id":"levelo_inurba_marseille","lat":43.29273,"lon":5.3685,"is_reserved":false,"is_disabled":false,"rental_uris":{"android":"levelo://app?vid=f7a24c9b-d23c-40a3-83cb-9f8f8d282ead","ios":"levelo://app?vid=f7a24c9b-d23c-40a3-83cb-9f8f8d282ead"},"vehicle_type_id":"4","last_reported":1743260980,"current_range_meters":14800,"station_id":"ce4bhbp2rcd13ifvqesg","pricing_plan_id":"cebpf4jnsgd1na2vs0mg"},{"bike_id":"ed5a1ae2-fa61-4587-b9a2-42244092b811","system_id":"levelo_inurba_marseille","lat":43.30138,"lon":5.38112,"is_reserved":false,"is_disabled":false,"rental_uris":{"android":"levelo://app?vid=ed5a1ae2-fa61-4587-b9a2-42244092b811","ios":"levelo://app?vid=ed5a1ae2-fa61-4587-b9a2-42244092b811"},"vehicle_type_id":"4","last_reported":1743260980,"current_range_meters":14800,"station_id":"ce4bgjp2rcd13ifvqbh0","pricing_plan_id":"cebpf4jnsgd1na2vs0mg"},{"bike_id":"a104ab6c-23d2-4bc9-8525-a85c5320e4d9","system_id":"levelo_inurba_marseille","lat":43.29527,"lon":5.3751,"is_reserved":false,"is_disabled":false,"rental_uris":{"android":"levelo://app?vid=a104ab6c-23d2-4bc9-8525-a85c5320e4d9","ios":"levelo://app?vid=a104ab6c-23d2-4bc9-8525-a85c5320e4d9"},"vehicle_type_id":"4","last_reported":1743260980,"current_range_meters":14800,"station_id":"ce4bgkp2rcd13ifvqbmg","pricing_plan_id":"cebpf4jnsgd1na2vs0mg"},{"bike_id":"8bcc045e-f28b-442a-a0af-38457b26197c","system_id":"levelo_inurba_marseille","lat":43.24167,"lon":5.36401,"is_reserved":false,"is_disabled":false,"rental_uris":{"android":"levelo://app?vid=8bcc045e-f28b-442a-a0af-38457b26197c","ios":"levelo://app?vid=8bcc045e-f28b-442a-a0af-38457b26197c"},"vehicle_type_id":"4","last_reported":1743260980,"current_range_meters":14800,"station_id":"cpo36qri1sfpv3e86is0","pricing_plan_id":"cebpf4jnsgd1na2vs0mg"},{"bike_id":"3fc690cc-514e-49af-8c16-561a3329ac3e","system_id":"levelo_inurba_marseille","lat":43.27063,"lon":5.42272,"is_reserved":false,"is_disabled":false,"rental_uris":{"android":"levelo://app?vid=3fc690cc-514e-49af-8c16-561a3329ac3e","ios":"levelo://app?vid=3fc690cc-514e-49af-8c16-561a3329ac3e"},"vehicle_type_id":"4","last_reported":1743260980,"current_range_meters":14800,"station_id":"ce4bhk92rcd13ifvqgb0","pricing_plan_id":"cebpf4jnsgd1na2vs0mg"},{"bike_id":"e461c282-058d-4d0e-a7d7-55427b9828bb","system_id":"levelo_inurba_marseille","lat":43.29555,"lon":5.37521,"is_reserved":false,"is_disabled":false,"rental_uris":{"android":"levelo://app?vid=e461c282-058d-4d0e-a7d7-55427b9828bb","ios":"levelo://app?vid=e461c282-058d-4d0e-a7d7-55427b9828bb"},"vehicle_type_id":"4","last_reported":1743260980,"current_range_meters":15200,"station_id":"ce4bgh92rcd13ifvqb50","pricing_plan_id":"cebpf4jnsgd1na2vs0mg"},{"bike_id":"eb21416e-661e-4d77-ac50-e7ccb1e55de0","system_id":"levelo_inurba_marseille","lat":43.29006,"lon":5.35607,"is_reserved":false,"is_disabled":false,"rental_uris":{"android":"levelo://app?vid=eb21416e-661e-4d77-ac50-e7ccb1e55de0","ios":"levelo://app?vid=eb21416e-661e-4d77-ac50-e7ccb1e55de0"},"vehicle_type_id":"4","last_reported":1743260980,"current_range_meters":15200,"station_id":"ce4bhb92rcd13ifvqen0","pricing_plan_id":"cebpf4jnsgd1na2vs0mg"},{"bike_id":"2d0a842d-5992-4aa5-9cf0-69a1079a58e6","system_id":"levelo_inurba_marseille","lat":43.317322,"lon":5.390026,"is_reserved":false,"is_disabled":false,"rental_uris":{"android":"levelo://app?vid=2d0a842d-5992-4aa5-9cf0-69a1079a58e6","ios":"levelo://app?vid=2d0a842d-5992-4aa5-9cf0-69a1079a58e6"},"vehicle_type_id":"4","last_reported":1743260980,"current_range_meters":15200,"station_id":"ce4bhqp2rcd13ifvqhng","pricing_plan_id":"cebpf4jnsgd1na2vs0mg"},{"bike_id":"cccdfc50-9172-4019-9d86-2d339a3ec58f","system_id":"levelo_inurba_marseille","lat":43.24663,"lon":5.38179,"is_reserved":false,"is_disabled":false,"rental_uris":{"android":"levelo://app?vid=cccdfc50-9172-4019-9d86-2d339a3ec58f","ios":"levelo://app?vid=cccdfc50-9172-4019-9d86-2d339a3ec58f"},"vehicle_type_id":"4","last_reported":1743260980,"current_range_meters":15200,"station_id":"ce4bhih2rcd13ifvqfr0","pricing_plan_id":"cebpf4jnsgd1na2vs0mg"},{"bike_id":"827e85c1-a7d5-4df8-a0d4-3cfc0c57b58e","system_id":"levelo_inurba_marseille","lat":43.30133,"lon":5.37425,"is_reserved":false,"is_disabled":false,"rental_uris":{"android":"levelo://app?vid=827e85c1-a7d5-4df8-a0d4-3cfc0c57b58e","ios":"levelo://app?vid=827e85c1-a7d5-4df8-a0d4-3cfc0c57b58e"},"vehicle_type_id":"4","last_reported":1743260980,"current_range_meters":15200,"station_id":"ce4bgs92rcd13ifvqcc0","pricing_plan_id":"cebpf4jnsgd1na2vs0mg"},{"bike_id":"ea212a2c-ebda-4fd3-87a5-afdf194e9b39","system_id":"levelo_inurba_marseille","lat":43.3158,"lon":5.38955,"is_reserved":false,"is_disabled":false,"rental_uris":{"android":"levelo://app?vid=ea212a2c-ebda-4fd3-87a5-afdf194e9b39","ios":"levelo://app?vid=ea212a2c-ebda-4fd3-87a5-afdf194e9b39"},"vehicle_type_id":"4","last_reported":1743260980,"current_range_meters":15200,"station_id":"","pricing_plan_id":"cebpf4jnsgd1na2vs0mg"},{"bike_id":"769f648a-3348-41c6-bcad-cfd5080a8737","system_id":"levelo_inurba_marseille","lat":43.30289,"lon":5.39212,"is_reserved":false,"is_disabled":false,"rental_uris":{"android":"levelo://app?vid=769f648a-3348-41c6-bcad-cfd5080a8737","ios":"levelo://app?vid=769f648a-3348-41c6-bcad-cfd5080a8737"},"vehicle_type_id":"4","last_reported":1743260980,"current_range_meters":15200,"station_id":"ce4bgkh2rcd13ifvqbk0","pricing_plan_id":"cebpf4jnsgd1na2vs0mg"},{"bike_id":"b6c18930-83f3-4e7b-a959-51413652e158","system_id":"levelo_inurba_marseille","lat":43.2669,"lon":5.38261,"is_reserved":false,"is_disabled":false,"rental_uris":{"android":"levelo://app?vid=b6c18930-83f3-4e7b-a959-51413652e158","ios":"levelo://app?vid=b6c18930-83f3-4e7b-a959-51413652e158"},"vehicle_type_id":"4","last_reported":1743260980,"current_range_meters":15200,"station_id":"ce4bhg92rcd13ifvqf90","pricing_plan_id":"cebpf4jnsgd1na2vs0mg"},{"bike_id":"504267af-8e90-4259-8a0d-8e23f32bd770","system_id":"levelo_inurba_marseille","lat":43.30591,"lon":5.37226,"is_reserved":false,"is_disabled":false,"rental_uris":{"android":"levelo://app?vid=504267af-8e90-4259-8a0d-8e23f32bd770","ios":"levelo://app?vid=504267af-8e90-4259-8a0d-8e23f32bd770"},"vehicle_type_id":"4","last_reported":1743260980,"current_range_meters":15200,"station_id":"ce4bgqh2rcd13ifvqc4g","pricing_plan_id":"cebpf4jnsgd1na2vs0mg"},{"bike_id":"2a651215-29ff-4da6-821d-6aba547eb86b","system_id":"levelo_inurba_marseille","lat":43.292162,"lon":5.360549,"is_reserved":false,"is_disabled":false,"rental_uris":{"android":"levelo://app?vid=2a651215-29ff-4da6-821d-6aba547eb86b","ios":"levelo://app?vid=2a651215-29ff-4da6-821d-6aba547eb86b"},"vehicle_type_id":"4","last_reported":1743260980,"current_range_meters":15200,"station_id":"ce4bhbh2rcd13ifvqeqg","pricing_plan_id":"cebpf4jnsgd1na2vs0mg"},{"bike_id":"61b93b3e-de2c-498f-9067-20d081913f50","system_id":"levelo_inurba_marseille","lat":43.29189,"lon":5.35798,"is_reserved":false,"is_disabled":false,"rental_uris":{"android":"levelo://app?vid=61b93b3e-de2c-498f-9067-20d081913f50","ios":"levelo://app?vid=61b93b3e-de2c-498f-9067-20d081913f50"},"vehicle_type_id":"4","last_reported":1743260980,"current_range_meters":15200,"station_id":"ce4bhb12rcd13ifvqel0","pricing_plan_id":"cebpf4jnsgd1na2vs0mg"},{"bike_id":"0a9ec2eb-1e79-43a5-ae4d-326ab3ba938e","system_id":"levelo_inurba_marseille","lat":43.28622,"lon":5.35102,"is_reserved":false,"is_disabled":false,"rental_uris":{"android":"levelo://app?vid=0a9ec2eb-1e79-43a5-ae4d-326ab3ba938e","ios":"levelo://app?vid=0a9ec2eb-1e79-43a5-ae4d-326ab3ba938e"},"vehicle_type_id":"4","last_reported":1743260980,"current_range_meters":15200,"station_id":"ce4bhch2rcd13ifvqeug","pricing_plan_id":"cebpf4jnsgd1na2vs0mg"},{"bike_id":"0e9d92a7-df29-43d8-906d-2a51c6561f7d","system_id":"levelo_inurba_marseille","lat":43.284152,"lon":5.349834,"is_reserved":false,"is_disabled":false,"rental_uris":{"android":"levelo://app?vid=0e9d92a7-df29-43d8-906d-2a51c6561f7d","ios":"levelo://app?vid=0e9d92a7-df29-43d8-906d-2a51c6561f7d"},"vehicle_type_id":"4","last_reported":1743260980,"current_range_meters":15200,"station_id":"ce4bhbh2rcd13ifvqepg","pricing_plan_id":"cebpf4jnsgd1na2vs0mg"},{"bike_id":"cf72e3b6-2c7c-47a5-b098-027316102e31","system_id":"levelo_inurba_marseille","lat":43.28843,"lon":5.39316,"is_reserved":false,"is_disabled":false,"rental_uris":{"android":"levelo://app?vid=cf72e3b6-2c7c-47a5-b098-027316102e31","ios":"levelo://app?vid=cf72e3b6-2c7c-47a5-b098-027316102e31"},"vehicle_type_id":"4","last_reported":1743260980,"current_range_meters":16000,"station_id":"ce4bh2p2rcd13ifvqdi0","pricing_plan_id":"cebpf4jnsgd1na2vs0mg"},{"bike_id":"0b7e3776-fde6-4953-818b-5eb61ed39b61","system_id":"levelo_inurba_marseille","lat":43.28697,"lon":5.39983,"is_reserved":false,"is_disabled":false,"rental_uris":{"android":"levelo://app?vid=0b7e3776-fde6-4953-818b-5eb61ed39b61","ios":"levelo://app?vid=0b7e3776-fde6-4953-818b-5eb61ed39b61"},"vehicle_type_id":"4","last_reported":1743260980,"current_range_meters":16000,"station_id":"ce4bho92rcd13ifvqh3g","pricing_plan_id":"cebpf4jnsgd1na2vs0mg"},{"bike_id":"8c118e09-a3e9-4d1d-9b5c-29a21ba96c6d","system_id":"levelo_inurba_marseille","lat":43.32363,"lon":5.38866,"is_reserved":false,"is_disabled":false,"rental_uris":{"android":"levelo://app?vid=8c118e09-a3e9-4d1d-9b5c-29a21ba96c6d","ios":"levelo://app?vid=8c118e09-a3e9-4d1d-9b5c-29a21ba96c6d"},"vehicle_type_id":"4","last_reported":1743260980,"current_range_meters":16000,"station_id":"ce4bhqp2rcd13ifvqhog","pricing_plan_id":"cebpf4jnsgd1na2vs0mg"},{"bike_id":"e5f51b31-4d9d-4082-b35e-63f3419640ec","system_id":"levelo_inurba_marseille","lat":43.23179,"lon":5.39986,"is_reserved":false,"is_disabled":false,"rental_uris":{"android":"levelo://app?vid=e5f51b31-4d9d-4082-b35e-63f3419640ec","ios":"levelo://app?vid=e5f51b31-4d9d-4082-b35e-63f3419640ec"},"vehicle_type_id":"4","last_reported":1743260980,"current_range_meters":16000,"station_id":"ce4bhn12rcd13ifvqgqg","pricing_plan_id":"cebpf4jnsgd1na2vs0mg"},{"bike_id":"7fcdb0f9-3334-43bd-bbaa-eef4e1209a76","system_id":"levelo_inurba_marseille","lat":43.30319,"lon":5.40446,"is_reserved":false,"is_disabled":false,"rental_uris":{"android":"levelo://app?vid=7fcdb0f9-3334-43bd-bbaa-eef4e1209a76","ios":"levelo://app?vid=7fcdb0f9-3334-43bd-bbaa-eef4e1209a76"},"vehicle_type_id":"4","last_reported":1743260980,"current_range_meters":16000,"station_id":"ce4bh012rcd13ifvqd10","pricing_plan_id":"cebpf4jnsgd1na2vs0mg"},{"bike_id":"82be5020-df29-4bb6-b821-10f31b9ed89a","system_id":"levelo_inurba_marseille","lat":43.28428,"lon":5.34993,"is_reserved":false,"is_disabled":false,"rental_uris":{"android":"levelo://app?vid=82be5020-df29-4bb6-b821-10f31b9ed89a","ios":"levelo://app?vid=82be5020-df29-4bb6-b821-10f31b9ed89a"},"vehicle_type_id":"4","last_reported":1743260980,"current_range_meters":16000,"station_id":"ce4bhbh2rcd13ifvqepg","pricing_plan_id":"cebpf4jnsgd1na2vs0mg"},{"bike_id":"6ef18dd7-1cb9-4ef6-bfdd-052cde57f183","system_id":"levelo_inurba_marseille","lat":43.32112,"lon":5.36789,"is_reserved":false,"is_disabled":false,"rental_uris":{"android":"levelo://app?vid=6ef18dd7-1cb9-4ef6-bfdd-052cde57f183","ios":"levelo://app?vid=6ef18dd7-1cb9-4ef6-bfdd-052cde57f183"},"vehicle_type_id":"4","last_reported":1743260980,"current_range_meters":16000,"station_id":"ce4bhrh2rcd13ifvqhug","pricing_plan_id":"cebpf4jnsgd1na2vs0mg"},{"bike_id":"0b311dac-99ed-4e2e-9db6-437f9613febd","system_id":"levelo_inurba_marseille","lat":43.287,"lon":5.39979,"is_reserved":false,"is_disabled":false,"rental_uris":{"android":"levelo://app?vid=0b311dac-99ed-4e2e-9db6-437f9613febd","ios":"levelo://app?vid=0b311dac-99ed-4e2e-9db6-437f9613febd"},"vehicle_type_id":"4","last_reported":1743260980,"current_range_meters":16000,"station_id":"ce4bho92rcd13ifvqh3g","pricing_plan_id":"cebpf4jnsgd1na2vs0mg"},{"bike_id":"b27b83ee-bd34-494b-878e-84f69ee4ca06","system_id":"levelo_inurba_marseille","lat":43.29951,"lon":5.36543,"is_reserved":false,"is_disabled":false,"rental_uris":{"android":"levelo://app?vid=b27b83ee-bd34-494b-878e-84f69ee4ca06","ios":"levelo://app?vid=b27b83ee-bd34-494b-878e-84f69ee4ca06"},"vehicle_type_id":"4","last_reported":1743260980,"current_range_meters":16400,"station_id":"ce4bgm92rcd13ifvqbr0","pricing_plan_id":"cebpf4jnsgd1na2vs0mg"},{"bike_id":"2e61c302-024f-4f90-b886-9834de9d366a","system_id":"levelo_inurba_marseille","lat":43.24379,"lon":5.37091,"is_reserved":false,"is_disabled":false,"rental_uris":{"android":"levelo://app?vid=2e61c302-024f-4f90-b886-9834de9d366a","ios":"levelo://app?vid=2e61c302-024f-4f90-b886-9834de9d366a"},"vehicle_type_id":"4","last_reported":1743260980,"current_range_meters":16400,"station_id":"ce4bhhh2rcd13ifvqfk0","pricing_plan_id":"cebpf4jnsgd1na2vs0mg"},{"bike_id":"dfbb6260-c784-4592-a1df-1e39e98bfefa","system_id":"levelo_inurba_marseille","lat":43.28431,"lon":5.35001,"is_reserved":false,"is_disabled":false,"rental_uris":{"android":"levelo://app?vid=dfbb6260-c784-4592-a1df-1e39e98bfefa","ios":"levelo://app?vid=dfbb6260-c784-4592-a1df-1e39e98bfefa"},"vehicle_type_id":"4","last_reported":1743260980,"current_range_meters":16400,"station_id":"ce4bhbh2rcd13ifvqepg","pricing_plan_id":"cebpf4jnsgd1na2vs0mg"},{"bike_id":"57574d51-3863-4dfd-a480-3fb0acc908a0","system_id":"levelo_inurba_marseille","lat":43.28611,"lon":5.3517,"is_reserved":false,"is_disabled":false,"rental_uris":{"android":"levelo://app?vid=57574d51-3863-4dfd-a480-3fb0acc908a0","ios":"levelo://app?vid=57574d51-3863-4dfd-a480-3fb0acc908a0"},"vehicle_type_id":"4","last_reported":1743260980,"current_range_meters":16400,"station_id":"","pricing_plan_id":"cebpf4jnsgd1na2vs0mg"},{"bike_id":"bfcad82b-6acc-493c-b418-93ec0bae17e4","system_id":"levelo_inurba_marseille","lat":43.32044,"lon":5.36769,"is_reserved":false,"is_disabled":false,"rental_uris":{"android":"levelo://app?vid=bfcad82b-6acc-493c-b418-93ec0bae17e4","ios":"levelo://app?vid=bfcad82b-6acc-493c-b418-93ec0bae17e4"},"vehicle_type_id":"4","last_reported":1743260980,"current_range_meters":16400,"station_id":"","pricing_plan_id":"cebpf4jnsgd1na2vs0mg"},{"bike_id":"59359988-faf5-47a1-b5f8-d319a6e1abfa","system_id":"levelo_inurba_marseille","lat":43.28419,"lon":5.34996,"is_reserved":false,"is_disabled":false,"rental_uris":{"android":"levelo://app?vid=59359988-faf5-47a1-b5f8-d319a6e1abfa","ios":"levelo://app?vid=59359988-faf5-47a1-b5f8-d319a6e1abfa"},"vehicle_type_id":"4","last_reported":1743260980,"current_range_meters":16400,"station_id":"ce4bhbh2rcd13ifvqepg","pricing_plan_id":"cebpf4jnsgd1na2vs0mg"},{"bike_id":"fc955607-216b-4c06-bebb-9a9b61d8688e","system_id":"levelo_inurba_marseille","lat":43.28926,"lon":5.36631,"is_reserved":false,"is_disabled":false,"rental_uris":{"android":"levelo://app?vid=fc955607-216b-4c06-bebb-9a9b61d8688e","ios":"levelo://app?vid=fc955607-216b-4c06-bebb-9a9b61d8688e"},"vehicle_type_id":"4","last_reported":1743260980,"current_range_meters":16400,"station_id":"ce4bhap2rcd13ifvqek0","pricing_plan_id":"cebpf4jnsgd1na2vs0mg"},{"bike_id":"a92ac8c4-48da-4ff3-8651-8e19b0cca230","system_id":"levelo_inurba_marseille","lat":43.28857,"lon":5.35858,"is_reserved":false,"is_disabled":false,"rental_uris":{"android":"levelo://app?vid=a92ac8c4-48da-4ff3-8651-8e19b0cca230","ios":"levelo://app?vid=a92ac8c4-48da-4ff3-8651-8e19b0cca230"},"vehicle_type_id":"4","last_reported":1743260980,"current_range_meters":16400,"station_id":"ce4bhb12rcd13ifvqem0","pricing_plan_id":"cebpf4jnsgd1na2vs0mg"},{"bike_id":"7ead70c6-d31b-4f5e-ac3c-001be24cc1a4","system_id":"levelo_inurba_marseille","lat":43.26683,"lon":5.38271,"is_reserved":false,"is_disabled":false,"rental_uris":{"android":"levelo://app?vid=7ead70c6-d31b-4f5e-ac3c-001be24cc1a4","ios":"levelo://app?vid=7ead70c6-d31b-4f5e-ac3c-001be24cc1a4"},"vehicle_type_id":"4","last_reported":1743260980,"current_range_meters":16400,"station_id":"ce4bhg92rcd13ifvqf90","pricing_plan_id":"cebpf4jnsgd1na2vs0mg"},{"bike_id":"7d7cb2e9-c0be-4eaa-8107-27488e9e0281","system_id":"levelo_inurba_marseille","lat":43.2925,"lon":5.37619,"is_reserved":false,"is_disabled":false,"rental_uris":{"android":"levelo://app?vid=7d7cb2e9-c0be-4eaa-8107-27488e9e0281","ios":"levelo://app?vid=7d7cb2e9-c0be-4eaa-8107-27488e9e0281"},"vehicle_type_id":"4","last_reported":1743260980,"current_range_meters":16400,"station_id":"ce4bgi12rcd13ifvqb80","pricing_plan_id":"cebpf4jnsgd1na2vs0mg"},{"bike_id":"0a054900-ac8c-4b77-a7f1-aac9c1d65319","system_id":"levelo_inurba_marseille","lat":43.2294,"lon":5.35356,"is_reserved":false,"is_disabled":false,"rental_uris":{"android":"levelo://app?vid=0a054900-ac8c-4b77-a7f1-aac9c1d65319","ios":"levelo://app?vid=0a054900-ac8c-4b77-a7f1-aac9c1d65319"},"vehicle_type_id":"4","last_reported":1743260980,"current_range_meters":16400,"station_id":"cpo3532slgdg3j2ikp40","pricing_plan_id":"cebpf4jnsgd1na2vs0mg"},{"bike_id":"275bc6b6-1772-4183-a522-de0f246b39c2","system_id":"levelo_inurba_marseille","lat":43.31561,"lon":5.38843,"is_reserved":false,"is_disabled":false,"rental_uris":{"android":"levelo://app?vid=275bc6b6-1772-4183-a522-de0f246b39c2","ios":"levelo://app?vid=275bc6b6-1772-4183-a522-de0f246b39c2"},"vehicle_type_id":"4","last_reported":1743260980,"current_range_meters":16800,"station_id":"","pricing_plan_id":"cebpf4jnsgd1na2vs0mg"},{"bike_id":"bd78c2c8-35d2-4732-b54e-cad470f8ffff","system_id":"levelo_inurba_marseille","lat":43.246587,"lon":5.388935,"is_reserved":false,"is_disabled":false,"rental_uris":{"android":"levelo://app?vid=bd78c2c8-35d2-4732-b54e-cad470f8ffff","ios":"levelo://app?vid=bd78c2c8-35d2-4732-b54e-cad470f8ffff"},"vehicle_type_id":"4","last_reported":1743260980,"current_range_meters":16800,"station_id":"ce4bhg12rcd13ifvqf60","pricing_plan_id":"cebpf4jnsgd1na2vs0mg"},{"bike_id":"5bb7b392-75b3-442b-9af9-5490a2c7b116","system_id":"levelo_inurba_marseille","lat":43.28852,"lon":5.39307,"is_reserved":false,"is_disabled":false,"rental_uris":{"android":"levelo://app?vid=5bb7b392-75b3-442b-9af9-5490a2c7b116","ios":"levelo://app?vid=5bb7b392-75b3-442b-9af9-5490a2c7b116"},"vehicle_type_id":"4","last_reported":1743260980,"current_range_meters":16800,"station_id":"ce4bh2p2rcd13ifvqdi0","pricing_plan_id":"cebpf4jnsgd1na2vs0mg"},{"bike_id":"b63bee20-71b5-45ac-921e-b915796e8804","system_id":"levelo_inurba_marseille","lat":43.28862,"lon":5.39321,"is_reserved":false,"is_disabled":false,"rental_uris":{"android":"levelo://app?vid=b63bee20-71b5-45ac-921e-b915796e8804","ios":"levelo://app?vid=b63bee20-71b5-45ac-921e-b915796e8804"},"vehicle_type_id":"4","last_reported":1743260980,"current_range_meters":16800,"station_id":"ce4bh2p2rcd13ifvqdi0","pricing_plan_id":"cebpf4jnsgd1na2vs0mg"},{"bike_id":"5ea29d9c-31de-4610-8a45-d52152f2f72c","system_id":"levelo_inurba_marseille","lat":43.29979,"lon":5.38482,"is_reserved":false,"is_disabled":false,"rental_uris":{"android":"levelo://app?vid=5ea29d9c-31de-4610-8a45-d52152f2f72c","ios":"levelo://app?vid=5ea29d9c-31de-4610-8a45-d52152f2f72c"},"vehicle_type_id":"4","last_reported":1743260980,"current_range_meters":17200,"station_id":"ce4bgj92rcd13ifvqbd0","pricing_plan_id":"cebpf4jnsgd1na2vs0mg"},{"bike_id":"cf411cc6-972e-4843-b476-fa1ba62e274b","system_id":"levelo_inurba_marseille","lat":43.29595,"lon":5.3811,"is_reserved":false,"is_disabled":false,"rental_uris":{"android":"levelo://app?vid=cf411cc6-972e-4843-b476-fa1ba62e274b","ios":"levelo://app?vid=cf411cc6-972e-4843-b476-fa1ba62e274b"},"vehicle_type_id":"4","last_reported":1743260980,"current_range_meters":17200,"station_id":"ce4bgl12rcd13ifvqbo0","pricing_plan_id":"cebpf4jnsgd1na2vs0mg"},{"bike_id":"468765c5-a3c7-4141-b682-b0c03b325a44","system_id":"levelo_inurba_marseille","lat":43.3014,"lon":5.37429,"is_reserved":false,"is_disabled":false,"rental_uris":{"android":"levelo://app?vid=468765c5-a3c7-4141-b682-b0c03b325a44","ios":"levelo://app?vid=468765c5-a3c7-4141-b682-b0c03b325a44"},"vehicle_type_id":"4","last_reported":1743260980,"current_range_meters":17200,"station_id":"ce4bgs92rcd13ifvqcc0","pricing_plan_id":"cebpf4jnsgd1na2vs0mg"},{"bike_id":"6e5e4bbc-7c73-40ce-969a-d4d8fdc80993","system_id":"levelo_inurba_marseille","lat":43.26556,"lon":5.37286,"is_reserved":false,"is_disabled":false,"rental_uris":{"android":"levelo://app?vid=6e5e4bbc-7c73-40ce-969a-d4d8fdc80993","ios":"levelo://app?vid=6e5e4bbc-7c73-40ce-969a-d4d8fdc80993"},"vehicle_type_id":"4","last_reported":1743260980,"current_range_meters":17200,"station_id":"ce4bhg12rcd13ifvqf70","pricing_plan_id":"cebpf4jnsgd1na2vs0mg"},{"bike_id":"e5466320-8acb-4332-86b8-324583fe3bc2","system_id":"levelo_inurba_marseille","lat":43.29224,"lon":5.36073,"is_reserved":false,"is_disabled":false,"rental_uris":{"android":"levelo://app?vid=e5466320-8acb-4332-86b8-324583fe3bc2","ios":"levelo://app?vid=e5466320-8acb-4332-86b8-324583fe3bc2"},"vehicle_type_id":"4","last_reported":1743260980,"current_range_meters":17200,"station_id":"ce4bhbh2rcd13ifvqeqg","pricing_plan_id":"cebpf4jnsgd1na2vs0mg"},{"bike_id":"58eb4411-6876-48b3-98f7-bbd26ed1611c","system_id":"levelo_inurba_marseille","lat":43.24809,"lon":5.37457,"is_reserved":false,"is_disabled":false,"rental_uris":{"android":"levelo://app?vid=58eb4411-6876-48b3-98f7-bbd26ed1611c","ios":"levelo://app?vid=58eb4411-6876-48b3-98f7-bbd26ed1611c"},"vehicle_type_id":"4","last_reported":1743260980,"current_range_meters":17200,"station_id":"ce4bhgh2rcd13ifvqfb0","pricing_plan_id":"cebpf4jnsgd1na2vs0mg"},{"bike_id":"07916ef3-3651-4042-9dbd-b2e593e7eece","system_id":"levelo_inurba_marseille","lat":43.29603,"lon":5.3773,"is_reserved":false,"is_disabled":false,"rental_uris":{"android":"levelo://app?vid=07916ef3-3651-4042-9dbd-b2e593e7eece","ios":"levelo://app?vid=07916ef3-3651-4042-9dbd-b2e593e7eece"},"vehicle_type_id":"4","last_reported":1743260980,"current_range_meters":17200,"station_id":"ce4bgi92rcd13ifvqb90","pricing_plan_id":"cebpf4jnsgd1na2vs0mg"},{"bike_id":"76859129-4009-4843-90a4-dc4d2b65271a","system_id":"levelo_inurba_marseille","lat":43.24172,"lon":5.36407,"is_reserved":false,"is_disabled":false,"rental_uris":{"android":"levelo://app?vid=76859129-4009-4843-90a4-dc4d2b65271a","ios":"levelo://app?vid=76859129-4009-4843-90a4-dc4d2b65271a"},"vehicle_type_id":"4","last_reported":1743260980,"current_range_meters":17200,"station_id":"cpo36qri1sfpv3e86is0","pricing_plan_id":"cebpf4jnsgd1na2vs0mg"},{"bike_id":"8800990b-0588-4701-9f9b-d00ff201f1bf","system_id":"levelo_inurba_marseille","lat":43.31756,"lon":5.39015,"is_reserved":false,"is_disabled":false,"rental_uris":{"android":"levelo://app?vid=8800990b-0588-4701-9f9b-d00ff201f1bf","ios":"levelo://app?vid=8800990b-0588-4701-9f9b-d00ff201f1bf"},"vehicle_type_id":"4","last_reported":1743260980,"current_range_meters":17200,"station_id":"ce4bhqp2rcd13ifvqhng","pricing_plan_id":"cebpf4jnsgd1na2vs0mg"},{"bike_id":"75b246c3-9b73-468c-8861-c6f26c95cf35","system_id":"levelo_inurba_marseille","lat":43.3014,"lon":5.37419,"is_reserved":false,"is_disabled":false,"rental_uris":{"android":"levelo://app?vid=75b246c3-9b73-468c-8861-c6f26c95cf35","ios":"levelo://app?vid=75b246c3-9b73-468c-8861-c6f26c95cf35"},"vehicle_type_id":"4","last_reported":1743260980,"current_range_meters":17200,"station_id":"ce4bgs92rcd13ifvqcc0","pricing_plan_id":"cebpf4jnsgd1na2vs0mg"},{"bike_id":"6302e02b-4f85-435c-9fd0-c8dc9062e591","system_id":"levelo_inurba_marseille","lat":43.29911,"lon":5.38154,"is_reserved":false,"is_disabled":false,"rental_uris":{"android":"levelo://app?vid=6302e02b-4f85-435c-9fd0-c8dc9062e591","ios":"levelo://app?vid=6302e02b-4f85-435c-9fd0-c8dc9062e591"},"vehicle_type_id":"4","last_reported":1743260980,"current_range_meters":17200,"station_id":"ce4bgj12rcd13ifvqbc0","pricing_plan_id":"cebpf4jnsgd1na2vs0mg"},{"bike_id":"4f0b362a-e97e-4a72-bd08-6dad736b64a6","system_id":"levelo_inurba_marseille","lat":43.30519,"lon":5.36699,"is_reserved":false,"is_disabled":false,"rental_uris":{"android":"levelo://app?vid=4f0b362a-e97e-4a72-bd08-6dad736b64a6","ios":"levelo://app?vid=4f0b362a-e97e-4a72-bd08-6dad736b64a6"},"vehicle_type_id":"4","last_reported":1743260980,"current_range_meters":17200,"station_id":"ce4bgrp2rcd13ifvqc9g","pricing_plan_id":"cebpf4jnsgd1na2vs0mg"},{"bike_id":"82d3c38f-f612-4fed-9ee4-86bddb211889","system_id":"levelo_inurba_marseille","lat":43.24981,"lon":5.38948,"is_reserved":false,"is_disabled":false,"rental_uris":{"android":"levelo://app?vid=82d3c38f-f612-4fed-9ee4-86bddb211889","ios":"levelo://app?vid=82d3c38f-f612-4fed-9ee4-86bddb211889"},"vehicle_type_id":"4","last_reported":1743260980,"current_range_meters":17200,"station_id":"ce4bhgp2rcd13ifvqfd0","pricing_plan_id":"cebpf4jnsgd1na2vs0mg"},{"bike_id":"3f063f54-1b19-45ab-a978-301e153dcb1d","system_id":"levelo_inurba_marseille","lat":43.23194,"lon":5.35553,"is_reserved":false,"is_disabled":false,"rental_uris":{"android":"levelo://app?vid=3f063f54-1b19-45ab-a978-301e153dcb1d","ios":"levelo://app?vid=3f063f54-1b19-45ab-a978-301e153dcb1d"},"vehicle_type_id":"4","last_reported":1743260980,"current_range_meters":17200,"station_id":"ce4bhu92rcd13ifvqi70","pricing_plan_id":"cebpf4jnsgd1na2vs0mg"},{"bike_id":"b3429057-69c0-4fdb-b27e-a6b3c41a90a5","system_id":"levelo_inurba_marseille","lat":43.30302,"lon":5.39221,"is_reserved":false,"is_disabled":false,"rental_uris":{"android":"levelo://app?vid=b3429057-69c0-4fdb-b27e-a6b3c41a90a5","ios":"levelo://app?vid=b3429057-69c0-4fdb-b27e-a6b3c41a90a5"},"vehicle_type_id":"4","last_reported":1743260980,"current_range_meters":17200,"station_id":"ce4bgkh2rcd13ifvqbk0","pricing_plan_id":"cebpf4jnsgd1na2vs0mg"},{"bike_id":"1959cc84-d2d5-4b16-bac3-c017c27eb3d7","system_id":"levelo_inurba_marseille","lat":43.32359,"lon":5.36764,"is_reserved":false,"is_disabled":false,"rental_uris":{"android":"levelo://app?vid=1959cc84-d2d5-4b16-bac3-c017c27eb3d7","ios":"levelo://app?vid=1959cc84-d2d5-4b16-bac3-c017c27eb3d7"},"vehicle_type_id":"4","last_reported":1743260980,"current_range_meters":17600,"station_id":"ce4bhsh2rcd13ifvqi2g","pricing_plan_id":"cebpf4jnsgd1na2vs0mg"},{"bike_id":"0ac88bae-92d2-4e4e-b81d-a0d362804664","system_id":"levelo_inurba_marseille","lat":43.29955,"lon":5.41322,"is_reserved":false,"is_disabled":false,"rental_uris":{"android":"levelo://app?vid=0ac88bae-92d2-4e4e-b81d-a0d362804664","ios":"levelo://app?vid=0ac88bae-92d2-4e4e-b81d-a0d362804664"},"vehicle_type_id":"4","last_reported":1743260980,"current_range_meters":17200,"station_id":"ce4bhp12rcd13ifvqh9g","pricing_plan_id":"cebpf4jnsgd1na2vs0mg"},{"bike_id":"30a4c9a9-b044-401c-94a4-8f1defb9a3c1","system_id":"levelo_inurba_marseille","lat":43.30199,"lon":5.39472,"is_reserved":false,"is_disabled":false,"rental_uris":{"android":"levelo://app?vid=30a4c9a9-b044-401c-94a4-8f1defb9a3c1","ios":"levelo://app?vid=30a4c9a9-b044-401c-94a4-8f1defb9a3c1"},"vehicle_type_id":"4","last_reported":1743260980,"current_range_meters":17600,"station_id":"ce4bh0p2rcd13ifvqd70","pricing_plan_id":"cebpf4jnsgd1na2vs0mg"},