{"last_updated":1762103311,"ttl":60,"version":"2.2","data":{"bikes":[{"bike_id":"e1196ee9-9c25-4674-a5fe-d3b7ddaa8e88","system_id":"levelo_inurba_marseille","lat":43.2257,"lon":5.41655,"is_reserved":false,"is_disabled":false,"rental_uris":{"android":"levelo://app?vid=e1196ee9-9c25-4674-a5fe-d3b7ddaa8e88","ios":"levelo://app?vid=e1196ee9-9c25-4674-a5fe-d3b7ddaa8e88"},"vehicle_type_id":"4","last_reported":1762103312,"current_range_meters":2800,"station_id":"st_d2o4gvlbi1j2169b742g","pricing_plan_id":"cebpf4jnsgd1na2vs0mg"},{"bike_id":"703023c3-d4f5-4f63-9d3d-d1a3778e891e","system_id":"levelo_inurba_marseille","lat":43.286683,"lon":5.363449,"is_reserved":false,"is_disabled":false,"rental_uris":{"android":"levelo://app?vid=703023c3-d4f5-4f63-9d3d-d1a3778e891e","ios":"levelo://app?vid=703023c3-d4f5-4f63-9d3d-d1a3778e891e"},"vehicle_type_id":"4","last_reported":1762103312,"current_range_meters":2800,"station_id":"ce4bhah2rcd13ifvqej0","pricing_plan_id":"cebpf4jnsgd1na2vs0mg"},{"bike_id":"c16ca171-3e5e-49d0-a567-1645c2374376","system_id":"levelo_inurba_marseille","lat":43.30547,"lon":5.36545,"is_reserved":false,"is_disabled":true,"rental_uris":{"android":"levelo://app?vid=c16ca171-3e5e-49d0-a567-1645c2374376","ios":"levelo://app?vid=c16ca171-3e5e-49d0-a567-1645c2374376"},"vehicle_type_id":"4","last_reported":1762103312,"current_range_meters":3200,"station_id":"ce4bgs12rcd13ifvqcag","pricing_plan_id":"cebpf4jnsgd1na2vs0mg"},{"bike_id":"3adc0d1f-8896-4bf1-9951-28a3961c79d6","system_id":"levelo_inurba_marseille","lat":43.30433,"lon":5.38889,"is_reserved":false,"is_disabled":false,"rental_uris":{"android":"levelo://app?vid=3adc0d1f-8896-4bf1-9951-28a3961c79d6","ios":"levelo://app?vid=3adc0d1f-8896-4bf1-9951-28a3961c79d6"},"vehicle_type_id":"4","last_reported":1762103312,"current_range_meters":3200,"station_id":"ce4bgk12rcd13ifvqbi0","pricing_plan_id":"cebpf4jnsgd1na2vs0mg"},{"bike_id":"64fe3e1e-ba97-43eb-90d9-322f6d3e22ff","system_id":"levelo_inurba_marseille","lat":43.27956,"lon":5.38753,"is_reserved":false,"is_disabled":false,"rental_uris":{"android":"levelo://app?vid=64fe3e1e-ba97-43eb-90d9-322f6d3e22ff","ios":"levelo://app?vid=64fe3e1e-ba97-43eb-90d9-322f6d3e22ff"},"vehicle_type_id":"4","last_reported":1762103312,"current_range_meters":3200,"station_id":"ce4bhg12rcd13ifvqf80","pricing_plan_id":"cebpf4jnsgd1na2vs0mg"},{"bike_id":"0c9d802c-30b7-44e8-b23f-def559f29a74","system_id":"levelo_inurba_marseille","lat":43.3054,"lon":5.366875,"is_reserved":false,"is_disabled":false,"rental_uris":{"android":"levelo://app?vid=0c9d802c-30b7-44e8-b23f-def559f29a74","ios":"levelo://app?vid=0c9d802c-30b7-44e8-b23f-def559f29a74"},"vehicle_type_id":"4","last_reported":1762103312,"current_range_meters":3600,"station_id":"ce4bgrp2rcd13ifvqc9g","pricing_plan_id":"cebpf4jnsgd1na2vs0mg"},{"bike_id":"6db9cb9d-d526-4072-a993-2b71d98f1aa5","system_id":"levelo_inurba_marseille","lat":43.270587,"lon":5.383105,"is_reserved":false,"is_disabled":false,"rental_uris":{"android":"levelo://app?vid=6db9cb9d-d526-4072-a993-2b71d98f1aa5","ios":"levelo://app?vid=6db9cb9d-d526-4072-a993-2b71d98f1aa5"},"vehicle_type_id":"4","last_reported":1762103312,"current_range_meters":3600,"station_id":"st_d3n2fo6cfp8s73cte1j0","pricing_plan_id":"cebpf4jnsgd1na2vs0mg"},{"bike_id":"89de16fe-b010-4adb-94b2-fbcf79e9714e","system_id":"levelo_inurba_marseille","lat":43.3031,"lon":5.39511,"is_reserved":false,"is_disabled":false,"rental_uris":{"android":"levelo://app?vid=89de16fe-b010-4adb-94b2-fbcf79e9714e","ios":"levelo://app?vid=89de16fe-b010-4adb-94b2-fbcf79e9714e"},"vehicle_type_id":"4","last_reported":1762103312,"current_range_meters":3600,"station_id":"","pricing_plan_id":"cebpf4jnsgd1na2vs0mg"},{"bike_id":"a4dac4fa-66e6-48be-a654-6e17cdc7ca0b","system_id":"levelo_inurba_marseille","lat":43.337571,"lon":5.374323,"is_reserved":false,"is_disabled":false,"rental_uris":{"android":"levelo://app?vid=a4dac4fa-66e6-48be-a654-6e17cdc7ca0b","ios":"levelo://app?vid=a4dac4fa-66e6-48be-a654-6e17cdc7ca0b"},"vehicle_type_id":"4","last_reported":1762103312,"current_range_meters":4000,"station_id":"","pricing_plan_id":"cebpf4jnsgd1na2vs0mg"},{"bike_id":"8a759722-19f7-4a56-9646-2c26a5e7e25d","system_id":"levelo_inurba_marseille","lat":43.27966,"lon":5.38694,"is_reserved":false,"is_disabled":true,"rental_uris":{"android":"levelo://app?vid=8a759722-19f7-4a56-9646-2c26a5e7e25d","ios":"levelo://app?vid=8a759722-19f7-4a56-9646-2c26a5e7e25d"},"vehicle_type_id":"4","last_reported":1762103312,"current_range_meters":4000,"station_id":"ce4bhg12rcd13ifvqf80","pricing_plan_id":"cebpf4jnsgd1na2vs0mg"},{"bike_id":"27abc7d1-dd85-495f-9415-aa00cef4846e","system_id":"levelo_inurba_marseille","lat":43.277896,"lon":5.395455,"is_reserved":false,"is_disabled":false,"rental_uris":{"android":"levelo://app?vid=27abc7d1-dd85-495f-9415-aa00cef4846e","ios":"levelo://app?vid=27abc7d1-dd85-495f-9415-aa00cef4846e"},"vehicle_type_id":"4","last_reported":1762103312,"current_range_meters":4400,"station_id":"","pricing_plan_id":"cebpf4jnsgd1na2vs0mg"},{"bike_id":"e1f67596-82b4-463f-9335-cc6907105152","system_id":"levelo_inurba_marseille","lat":43.31324,"lon":5.39696,"is_reserved":false,"is_disabled":false,"rental_uris":{"android":"levelo://app?vid=e1f67596-82b4-463f-9335-cc6907105152","ios":"levelo://app?vid=e1f67596-82b4-463f-9335-cc6907105152"},"vehicle_type_id":"4","last_reported":1762103312,"current_range_meters":4400,"station_id":"ce4bgvp2rcd13ifvqcu0","pricing_plan_id":"cebpf4jnsgd1na2vs0mg"},{"bike_id":"efb89f57-0848-4254-be6e-c1fe0f75d8dd","system_id":"levelo_inurba_marseille","lat":43.29913,"lon":5.37476,"is_reserved":false,"is_disabled":false,"rental_uris":{"android":"levelo://app?vid=efb89f57-0848-4254-be6e-c1fe0f75d8dd","ios":"levelo://app?vid=efb89f57-0848-4254-be6e-c1fe0f75d8dd"},"vehicle_type_id":"4","last_reported":1762103312,"current_range_meters":4400,"station_id":"ce4bgjh2rcd13ifvqbg0","pricing_plan_id":"cebpf4jnsgd1na2vs0mg"},{"bike_id":"52b117f2-4c01-4f66-887d-006722496528","system_id":"levelo_inurba_marseille","lat":43.3083,"lon":5.37168,"is_reserved":false,"is_disabled":false,"rental_uris":{"android":"levelo://app?vid=52b117f2-4c01-4f66-887d-006722496528","ios":"levelo://app?vid=52b117f2-4c01-4f66-887d-006722496528"},"vehicle_type_id":"4","last_reported":1762103312,"current_range_meters":4800,"station_id":"","pricing_plan_id":"cebpf4jnsgd1na2vs0mg"},{"bike_id":"782382b3-4cd2-4cb0-a24d-0ec1defc267b","system_id":"levelo_inurba_marseille","lat":43.31999,"lon":5.38166,"is_reserved":false,"is_disabled":false,"rental_uris":{"android":"levelo://app?vid=782382b3-4cd2-4cb0-a24d-0ec1defc267b","ios":"levelo://app?vid=782382b3-4cd2-4cb0-a24d-0ec1defc267b"},"vehicle_type_id":"4","last_reported":1762103312,"current_range_meters":4800,"station_id":"ce4bhr12rcd13ifvqhpg","pricing_plan_id":"cebpf4jnsgd1na2vs0mg"},{"bike_id":"09ec6c2b-7e59-4dc7-8282-e45a9414b7a0","system_id":"levelo_inurba_marseille","lat":43.29368,"lon":5.37825,"is_reserved":false,"is_disabled":false,"rental_uris":{"android":"levelo://app?vid=09ec6c2b-7e59-4dc7-8282-e45a9414b7a0","ios":"levelo://app?vid=09ec6c2b-7e59-4dc7-8282-e45a9414b7a0"},"vehicle_type_id":"4","last_reported":1762103312,"current_range_meters":4800,"station_id":"ce4bgjh2rcd13ifvqbf0","pricing_plan_id":"cebpf4jnsgd1na2vs0mg"},{"bike_id":"cd6f2d04-98c5-42b9-aa5b-b8110e64b304","system_id":"levelo_inurba_marseille","lat":43.2986,"lon":5.36294,"is_reserved":false,"is_disabled":false,"rental_uris":{"android":"levelo://app?vid=cd6f2d04-98c5-42b9-aa5b-b8110e64b304","ios":"levelo://app?vid=cd6f2d04-98c5-42b9-aa5b-b8110e64b304"},"vehicle_type_id":"4","last_reported":1762103312,"current_range_meters":5600,"station_id":"ce4bgpp2rcd13ifvqc3g","pricing_plan_id":"cebpf4jnsgd1na2vs0mg"},{"bike_id":"d185592e-acf7-4d2f-bbe9-404c99f3e5dc","system_id":"levelo_inurba_marseille","lat":43.3134,"lon":5.3969,"is_reserved":false,"is_disabled":false,"rental_uris":{"android":"levelo://app?vid=d185592e-acf7-4d2f-bbe9-404c99f3e5dc","ios":"levelo://app?vid=d185592e-acf7-4d2f-bbe9-404c99f3e5dc"},"vehicle_type_id":"4","last_reported":1762103312,"current_range_meters":5600,"station_id":"ce4bgvp2rcd13ifvqcu0","pricing_plan_id":"cebpf4jnsgd1na2vs0mg"},{"bike_id":"86dbaa0a-fb3b-4963-ac08-2297dc161bff","system_id":"levelo_inurba_marseille","lat":43.31014,"lon":5.3833,"is_reserved":false,"is_disabled":false,"rental_uris":{"android":"levelo://app?vid=86dbaa0a-fb3b-4963-ac08-2297dc161bff","ios":"levelo://app?vid=86dbaa0a-fb3b-4963-ac08-2297dc161bff"},"vehicle_type_id":"4","last_reported":1762103312,"current_range_meters":5600,"station_id":"","pricing_plan_id":"cebpf4jnsgd1na2vs0mg"},{"bike_id":"50292340-d33b-4d0e-ba04-c9de3b3ac66c","system_id":"levelo_inurba_marseille","lat":43.229876,"lon":5.353462,"is_reserved":false,"is_disabled":false,"rental_uris":{"android":"levelo://app?vid=50292340-d33b-4d0e-ba04-c9de3b3ac66c","ios":"levelo://app?vid=50292340-d33b-4d0e-ba04-c9de3b3ac66c"},"vehicle_type_id":"4","last_reported":1762103312,"current_range_meters":5600,"station_id":"cpo3532slgdg3j2ikp40","pricing_plan_id":"cebpf4jnsgd1na2vs0mg"},{"bike_id":"68d7b2d3-9a40-42a3-8649-4127a150ff1c","system_id":"levelo_inurba_marseille","lat":43.336996,"lon":5.392108,"is_reserved":false,"is_disabled":false,"rental_uris":{"android":"levelo://app?vid=68d7b2d3-9a40-42a3-8649-4127a150ff1c","ios":"levelo://app?vid=68d7b2d3-9a40-42a3-8649-4127a150ff1c"},"vehicle_type_id":"4","last_reported":1762103312,"current_range_meters":5600,"station_id":"ce4bhr92rcd13ifvqhsg","pricing_plan_id":"cebpf4jnsgd1na2vs0mg"},{"bike_id":"6f7e65d2-3aed-4031-b81f-2fe072071111","system_id":"levelo_inurba_marseille","lat":43.28569,"lon":5.39494,"is_reserved":false,"is_disabled":false,"rental_uris":{"android":"levelo://app?vid=6f7e65d2-3aed-4031-b81f-2fe072071111","ios":"levelo://app?vid=6f7e65d2-3aed-4031-b81f-2fe072071111"},"vehicle_type_id":"4","last_reported":1762103312,"current_range_meters":5600,"station_id":"ce4bh292rcd13ifvqdg0","pricing_plan_id":"cebpf4jnsgd1na2vs0mg"},{"bike_id":"fca252be-68c3-40cc-92d4-0eb23191f310","system_id":"levelo_inurba_marseille","lat":43.31889,"lon":5.40749,"is_reserved":false,"is_disabled":false,"rental_uris":{"android":"levelo://app?vid=fca252be-68c3-40cc-92d4-0eb23191f310","ios":"levelo://app?vid=fca252be-68c3-40cc-92d4-0eb23191f310"},"vehicle_type_id":"4","last_reported":1762103312,"current_range_meters":5600,"station_id":"ce4bhq12rcd13ifvqhig","pricing_plan_id":"cebpf4jnsgd1na2vs0mg"},{"bike_id":"35bbf743-6531-4a1e-a43a-a9e0f9988746","system_id":"levelo_inurba_marseille","lat":43.29278,"lon":5.40118,"is_reserved":false,"is_disabled":false,"rental_uris":{"android":"levelo://app?vid=35bbf743-6531-4a1e-a43a-a9e0f9988746","ios":"levelo://app?vid=35bbf743-6531-4a1e-a43a-a9e0f9988746"},"vehicle_type_id":"4","last_reported":1762103312,"current_range_meters":6000,"station_id":"ce4bh312rcd13ifvqdk0","pricing_plan_id":"cebpf4jnsgd1na2vs0mg"},{"bike_id":"b03fecbd-a4c9-4246-8b30-7f415f1517c7","system_id":"levelo_inurba_marseille","lat":43.2467,"lon":5.381655,"is_reserved":false,"is_disabled":false,"rental_uris":{"android":"levelo://app?vid=b03fecbd-a4c9-4246-8b30-7f415f1517c7","ios":"levelo://app?vid=b03fecbd-a4c9-4246-8b30-7f415f1517c7"},"vehicle_type_id":"4","last_reported":1762103312,"current_range_meters":6000,"station_id":"ce4bhih2rcd13ifvqfr0","pricing_plan_id":"cebpf4jnsgd1na2vs0mg"},{"bike_id":"d62a4e30-2a8a-47de-9d7a-fd92f829db09","system_id":"levelo_inurba_marseille","lat":43.29592,"lon":5.38014,"is_reserved":false,"is_disabled":false,"rental_uris":{"android":"levelo://app?vid=d62a4e30-2a8a-47de-9d7a-fd92f829db09","ios":"levelo://app?vid=d62a4e30-2a8a-47de-9d7a-fd92f829db09"},"vehicle_type_id":"4","last_reported":1762103312,"current_range_meters":6000,"station_id":"","pricing_plan_id":"cebpf4jnsgd1na2vs0mg"},{"bike_id":"dcb5f4d6-a57a-45ea-b185-de3fe952058c","system_id":"levelo_inurba_marseille","lat":43.281004,"lon":5.378469,"is_reserved":false,"is_disabled":true,"rental_uris":{"android":"levelo://app?vid=dcb5f4d6-a57a-45ea-b185-de3fe952058c","ios":"levelo://app?vid=dcb5f4d6-a57a-45ea-b185-de3fe952058c"},"vehicle_type_id":"4","last_reported":1762103312,"current_range_meters":6000,"station_id":"ce4bha12rcd13ifvqee0","pricing_plan_id":"cebpf4jnsgd1na2vs0mg"},{"bike_id":"567f1dd4-6f6c-4054-a290-0a03dbaf3082","system_id":"levelo_inurba_marseille","lat":43.28102,"lon":5.37849,"is_reserved":false,"is_disabled":false,"rental_uris":{"android":"levelo://app?vid=567f1dd4-6f6c-4054-a290-0a03dbaf3082","ios":"levelo://app?vid=567f1dd4-6f6c-4054-a290-0a03dbaf3082"},"vehicle_type_id":"4","last_reported":1762103312,"current_range_meters":6000,"station_id":"ce4bha12rcd13ifvqee0","pricing_plan_id":"cebpf4jnsgd1na2vs0mg"},{"bike_id":"f3aa2b01-0a4c-4939-9943-856a2be759f0","system_id":"levelo_inurba_marseille","lat":43.21755,"lon":5.34602,"is_reserved":false,"is_disabled":false,"rental_uris":{"android":"levelo://app?vid=f3aa2b01-0a4c-4939-9943-856a2be759f0","ios":"levelo://app?vid=f3aa2b01-0a4c-4939-9943-856a2be759f0"},"vehicle_type_id":"4","last_reported":1762103312,"current_range_meters":6400,"station_id":"st_cvj6r9ubvosntc0bgbag","pricing_plan_id":"cebpf4jnsgd1na2vs0mg"},{"bike_id":"fe211fee-df04-4312-bc0a-d625bf6086ab","system_id":"levelo_inurba_marseille","lat":43.29158,"lon":5.40309,"is_reserved":false,"is_disabled":true,"rental_uris":{"android":"levelo://app?vid=fe211fee-df04-4312-bc0a-d625bf6086ab","ios":"levelo://app?vid=fe211fee-df04-4312-bc0a-d625bf6086ab"},"vehicle_type_id":"4","last_reported":1762103312,"current_range_meters":6400,"station_id":"","pricing_plan_id":"cebpf4jnsgd1na2vs0mg"},{"bike_id":"b1e81361-2b17-4ef1-8a58-6def5753471b","system_id":"levelo_inurba_marseille","lat":43.33753,"lon":5.37484,"is_reserved":false,"is_disabled":false,"rental_uris":{"android":"levelo://app?vid=b1e81361-2b17-4ef1-8a58-6def5753471b","ios":"levelo://app?vid=b1e81361-2b17-4ef1-8a58-6def5753471b"},"vehicle_type_id":"4","last_reported":1762103312,"current_range_meters":6800,"station_id":"","pricing_plan_id":"cebpf4jnsgd1na2vs0mg"},{"bike_id":"9e07933c-c64d-4297-afdd-10e371e800e5","system_id":"levelo_inurba_marseille","lat":43.28696,"lon":5.39986,"is_reserved":false,"is_disabled":false,"rental_uris":{"android":"levelo://app?vid=9e07933c-c64d-4297-afdd-10e371e800e5","ios":"levelo://app?vid=9e07933c-c64d-4297-afdd-10e371e800e5"},"vehicle_type_id":"4","last_reported":1762103312,"current_range_meters":6800,"station_id":"ce4bho92rcd13ifvqh3g","pricing_plan_id":"cebpf4jnsgd1na2vs0mg"},{"bike_id":"09ee521d-590b-4c61-8cd2-4ece43a9f362","system_id":"levelo_inurba_marseille","lat":43.26924,"lon":5.38921,"is_reserved":false,"is_disabled":false,"rental_uris":{"android":"levelo://app?vid=09ee521d-590b-4c61-8cd2-4ece43a9f362","ios":"levelo://app?vid=09ee521d-590b-4c61-8cd2-4ece43a9f362"},"vehicle_type_id":"4","last_reported":1762103312,"current_range_meters":6800,"station_id":"ce4bhhh2rcd13ifvqfl0","pricing_plan_id":"cebpf4jnsgd1na2vs0mg"},{"bike_id":"c5643ca0-289e-4da8-b215-96a1f1e78271","system_id":"levelo_inurba_marseille","lat":43.30416,"lon":5.41291,"is_reserved":false,"is_disabled":false,"rental_uris":{"android":"levelo://app?vid=c5643ca0-289e-4da8-b215-96a1f1e78271","ios":"levelo://app?vid=c5643ca0-289e-4da8-b215-96a1f1e78271"},"vehicle_type_id":"4","last_reported":1762103312,"current_range_meters":6800,"station_id":"ce4bhop2rcd13ifvqh8g","pricing_plan_id":"cebpf4jnsgd1na2vs0mg"},{"bike_id":"c7c0fede-99f1-4259-b324-8cb1d940a13d","system_id":"levelo_inurba_marseille","lat":43.289469,"lon":5.425762,"is_reserved":false,"is_disabled":false,"rental_uris":{"android":"levelo://app?vid=c7c0fede-99f1-4259-b324-8cb1d940a13d","ios":"levelo://app?vid=c7c0fede-99f1-4259-b324-8cb1d940a13d"},"vehicle_type_id":"4","last_reported":1762103312,"current_range_meters":7200,"station_id":"ce4bh012rcd13ifvqd10","pricing_plan_id":"cebpf4jnsgd1na2vs0mg"},{"bike_id":"f0620558-d859-46bd-b13c-294a3832d776","system_id":"levelo_inurba_marseille","lat":43.31684,"lon":5.40478,"is_reserved":false,"is_disabled":false,"rental_uris":{"android":"levelo://app?vid=f0620558-d859-46bd-b13c-294a3832d776","ios":"levelo://app?vid=f0620558-d859-46bd-b13c-294a3832d776"},"vehicle_type_id":"4","last_reported":1762103312,"current_range_meters":7200,"station_id":"ce4bh012rcd13ifvqd00","pricing_plan_id":"cebpf4jnsgd1na2vs0mg"},{"bike_id":"ed890a36-02ef-4914-b497-b0b60f616f2a","system_id":"levelo_inurba_marseille","lat":43.28151,"lon":5.42642,"is_reserved":false,"is_disabled":false,"rental_uris":{"android":"levelo://app?vid=ed890a36-02ef-4914-b497-b0b60f616f2a","ios":"levelo://app?vid=ed890a36-02ef-4914-b497-b0b60f616f2a"},"vehicle_type_id":"4","last_reported":1762103312,"current_range_meters":7200,"station_id":"ce4bhnh2rcd13ifvqgug","pricing_plan_id":"cebpf4jnsgd1na2vs0mg"},{"bike_id":"1401c541-fe2b-45a6-9eb9-25c85b809177","system_id":"levelo_inurba_marseille","lat":43.30801,"lon":5.38157,"is_reserved":false,"is_disabled":false,"rental_uris":{"android":"levelo://app?vid=1401c541-fe2b-45a6-9eb9-25c85b809177","ios":"levelo://app?vid=1401c541-fe2b-45a6-9eb9-25c85b809177"},"vehicle_type_id":"4","last_reported":1762103312,"current_range_meters":7200,"station_id":"ce4bgt12rcd13ifvqce0","pricing_plan_id":"cebpf4jnsgd1na2vs0mg"},{"bike_id":"a8c37853-0b1d-4686-a393-5126f07eea8e","system_id":"levelo_inurba_marseille","lat":43.288147,"lon":5.391652,"is_reserved":false,"is_disabled":false,"rental_uris":{"android":"levelo://app?vid=a8c37853-0b1d-4686-a393-5126f07eea8e","ios":"levelo://app?vid=a8c37853-0b1d-4686-a393-5126f07eea8e"},"vehicle_type_id":"4","last_reported":1762103312,"current_range_meters":7200,"station_id":"","pricing_plan_id":"cebpf4jnsgd1na2vs0mg"},{"bike_id":"c5257073-791a-4a26-8036-44792c9891b8","system_id":"levelo_inurba_marseille","lat":43.31274,"lon":5.40168,"is_reserved":false,"is_disabled":false,"rental_uris":{"android":"levelo://app?vid=c5257073-791a-4a26-8036-44792c9891b8","ios":"levelo://app?vid=c5257073-791a-4a26-8036-44792c9891b8"},"vehicle_type_id":"4","last_reported":1762103312,"current_range_meters":7200,"station_id":"ce4bh092rcd13ifvqd30","pricing_plan_id":"cebpf4jnsgd1na2vs0mg"},{"bike_id":"7cc25aea-5755-4d8c-b751-b7a9100195f0","system_id":"levelo_inurba_marseille","lat":43.292694,"lon":5.401348,"is_reserved":false,"is_disabled":false,"rental_uris":{"android":"levelo://app?vid=7cc25aea-5755-4d8c-b751-b7a9100195f0","ios":"levelo://app?vid=7cc25aea-5755-4d8c-b751-b7a9100195f0"},"vehicle_type_id":"4","last_reported":1762103312,"current_range_meters":7200,"station_id":"ce4bh312rcd13ifvqdk0","pricing_plan_id":"cebpf4jnsgd1na2vs0mg"},{"bike_id":"603f84c7-55e1-4d19-8f37-178ddadc668f","system_id":"levelo_inurba_marseille","lat":43.211969,"lon":5.350771,"is_reserved":false,"is_disabled":false,"rental_uris":{"android":"levelo://app?vid=603f84c7-55e1-4d19-8f37-178ddadc668f","ios":"levelo://app?vid=603f84c7-55e1-4d19-8f37-178ddadc668f"},"vehicle_type_id":"4","last_reported":1762103312,"current_range_meters":8000,"station_id":"st_cvj6sg6p6f1abm77japg","pricing_plan_id":"cebpf4jnsgd1na2vs0mg"},{"bike_id":"1da56141-654f-442c-b20c-6c2bd52c2965","system_id":"levelo_inurba_marseille","lat":43.31272,"lon":5.38204,"is_reserved":false,"is_disabled":true,"rental_uris":{"android":"levelo://app?vid=1da56141-654f-442c-b20c-6c2bd52c2965","ios":"levelo://app?vid=1da56141-654f-442c-b20c-6c2bd52c2965"},"vehicle_type_id":"4","last_reported":1762103312,"current_range_meters":8000,"station_id":"","pricing_plan_id":"cebpf4jnsgd1na2vs0mg"},{"bike_id":"f7653420-df61-4935-8501-41ead73e40da","system_id":"levelo_inurba_marseille","lat":43.29788,"lon":5.38125,"is_reserved":false,"is_disabled":false,"rental_uris":{"android":"levelo://app?vid=f7653420-df61-4935-8501-41ead73e40da","ios":"levelo://app?vid=f7653420-df61-4935-8501-41ead73e40da"},"vehicle_type_id":"4","last_reported":1762103312,"current_range_meters":8000,"station_id":"ce4bgip2rcd13ifvqbb0","pricing_plan_id":"cebpf4jnsgd1na2vs0mg"},{"bike_id":"30ff92fc-b0fd-4e28-a064-702810b1ef0e","system_id":"levelo_inurba_marseille","lat":43.27987,"lon":5.41657,"is_reserved":false,"is_disabled":false,"rental_uris":{"android":"levelo://app?vid=30ff92fc-b0fd-4e28-a064-702810b1ef0e","ios":"levelo://app?vid=30ff92fc-b0fd-4e28-a064-702810b1ef0e"},"vehicle_type_id":"4","last_reported":1762103312,"current_range_meters":8000,"station_id":"ce4bho12rcd13ifvqh1g","pricing_plan_id":"cebpf4jnsgd1na2vs0mg"},{"bike_id":"4e879c6d-c4f5-4eaa-8dca-80109b1d6525","system_id":"levelo_inurba_marseille","lat":43.27072,"lon":5.42282,"is_reserved":false,"is_disabled":false,"rental_uris":{"android":"levelo://app?vid=4e879c6d-c4f5-4eaa-8dca-80109b1d6525","ios":"levelo://app?vid=4e879c6d-c4f5-4eaa-8dca-80109b1d6525"},"vehicle_type_id":"4","last_reported":1762103312,"current_range_meters":8400,"station_id":"ce4bhk92rcd13ifvqgb0","pricing_plan_id":"cebpf4jnsgd1na2vs0mg"},{"bike_id":"afba2e7c-0dbc-4820-b93f-fdd58168ba1f","system_id":"levelo_inurba_marseille","lat":43.28765,"lon":5.385455,"is_reserved":false,"is_disabled":false,"rental_uris":{"android":"levelo://app?vid=afba2e7c-0dbc-4820-b93f-fdd58168ba1f","ios":"levelo://app?vid=afba2e7c-0dbc-4820-b93f-fdd58168ba1f"},"vehicle_type_id":"4","last_reported":1762103312,"current_range_meters":8400,"station_id":"","pricing_plan_id":"cebpf4jnsgd1na2vs0mg"},{"bike_id":"5b499331-d6cf-4d04-bda5-fe6ee74a8c25","system_id":"levelo_inurba_marseille","lat":43.30752,"lon":5.4018,"is_reserved":false,"is_disabled":false,"rental_uris":{"android":"levelo://app?vid=5b499331-d6cf-4d04-bda5-fe6ee74a8c25","ios":"levelo://app?vid=5b499331-d6cf-4d04-bda5-fe6ee74a8c25"},"vehicle_type_id":"4","last_reported":1762103312,"current_range_meters":8800,"station_id":"","pricing_plan_id":"cebpf4jnsgd1na2vs0mg"},{"bike_id":"c4e85ff1-2981-4340-b10a-0befa0a74ff7","system_id":"levelo_inurba_marseille","lat":43.30417,"lon":5.4128,"is_reserved":false,"is_disabled":false,"rental_uris":{"android":"levelo://app?vid=c4e85ff1-2981-4340-b10a-0befa0a74ff7","ios":"levelo://app?vid=c4e85ff1-2981-4340-b10a-0befa0a74ff7"},"vehicle_type_id":"4","last_reported":1762103312,"current_range_meters":9200,"station_id":"ce4bhop2rcd13ifvqh8g","pricing_plan_id":"cebpf4jnsgd1na2vs0mg"},{"bike_id":"f6c90a50-6c87-464e-89fb-56ee38373b9c","system_id":"levelo_inurba_marseille","lat":43.26564,"lon":5.40324,"is_reserved":false,"is_disabled":false,"rental_uris":{"android":"levelo://app?vid=f6c90a50-6c87-464e-89fb-56ee38373b9c","ios":"levelo://app?vid=f6c90a50-6c87-464e-89fb-56ee38373b9c"},"vehicle_type_id":"4","last_reported":1762103312,"current_range_meters":9200,"station_id":"ce4bhmp2rcd13ifvqgng","pricing_plan_id":"cebpf4jnsgd1na2vs0mg"},{"bike_id":"eab4f4ee-67ed-41a8-819f-45c4f7c225ef","system_id":"levelo_inurba_marseille","lat":43.269521,"lon":5.386215,"is_reserved":false,"is_disabled":false,"rental_uris":{"android":"levelo://app?vid=eab4f4ee-67ed-41a8-819f-45c4f7c225ef","ios":"levelo://app?vid=eab4f4ee-67ed-41a8-819f-45c4f7c225ef"},"vehicle_type_id":"4","last_reported":1762103312,"current_range_meters":9200,"station_id":"ce4bh512rcd13ifvqe2g","pricing_plan_id":"cebpf4jnsgd1na2vs0mg"},{"bike_id":"ccbb9b89-ebba-4c6c-b9fe-acafe29ddb47","system_id":"levelo_inurba_marseille","lat":43.33477,"lon":5.42749,"is_reserved":false,"is_disabled":false,"rental_uris":{"android":"levelo://app?vid=ccbb9b89-ebba-4c6c-b9fe-acafe29ddb47","ios":"levelo://app?vid=ccbb9b89-ebba-4c6c-b9fe-acafe29ddb47"},"vehicle_type_id":"4","last_reported":1762103312,"current_range_meters":9600,"station_id":"","pricing_plan_id":"cebpf4jnsgd1na2vs0mg"},{"bike_id":"92454add-19f4-4aa3-85fc-a7c943eed08a","system_id":"levelo_inurba_marseille","lat":43.29548,"lon":5.42291,"is_reserved":false,"is_disabled":false,"rental_uris":{"android":"levelo://app?vid=92454add-19f4-4aa3-85fc-a7c943eed08a","ios":"levelo://app?vid=92454add-19f4-4aa3-85fc-a7c943eed08a"},"vehicle_type_id":"4","last_reported":1762103312,"current_range_meters":9600,"station_id":"ce4bhph2rcd13ifvqhdg","pricing_plan_id":"cebpf4jnsgd1na2vs0mg"},{"bike_id":"731911db-8cba-4c54-8d37-0624aec4ab7f","system_id":"levelo_inurba_marseille","lat":43.29267,"lon":5.38448,"is_reserved":false,"is_disabled":false,"rental_uris":{"android":"levelo://app?vid=731911db-8cba-4c54-8d37-0624aec4ab7f","ios":"levelo://app?vid=731911db-8cba-4c54-8d37-0624aec4ab7f"},"vehicle_type_id":"4","last_reported":1762103312,"current_range_meters":9600,"station_id":"ce4bh692rcd13ifvqea0","pricing_plan_id":"cebpf4jnsgd1na2vs0mg"},{"bike_id":"fa4ff9ba-527c-4f06-b8f0-b35719ffa2a0","system_id":"levelo_inurba_marseille","lat":43.23958,"lon":5.36637,"is_reserved":false,"is_disabled":false,"rental_uris":{"android":"levelo://app?vid=fa4ff9ba-527c-4f06-b8f0-b35719ffa2a0","ios":"levelo://app?vid=fa4ff9ba-527c-4f06-b8f0-b35719ffa2a0"},"vehicle_type_id":"4","last_reported":1762103312,"current_range_meters":9600,"station_id":"ce4bhi12rcd13ifvqfp0","pricing_plan_id":"cebpf4jnsgd1na2vs0mg"},{"bike_id":"1d29646a-da1f-4f66-b008-0838ffb2fa84","system_id":"levelo_inurba_marseille","lat":43.29975,"lon":5.37252,"is_reserved":false,"is_disabled":false,"rental_uris":{"android":"levelo://app?vid=1d29646a-da1f-4f66-b008-0838ffb2fa84","ios":"levelo://app?vid=1d29646a-da1f-4f66-b008-0838ffb2fa84"},"vehicle_type_id":"4","last_reported":1762103312,"current_range_meters":9600,"station_id":"","pricing_plan_id":"cebpf4jnsgd1na2vs0mg"},{"bike_id":"955b5700-b396-49d7-94bd-53a62252df5f","system_id":"levelo_inurba_marseille","lat":43.2466,"lon":5.38163,"is_reserved":false,"is_disabled":false,"rental_uris":{"android":"levelo://app?vid=955b5700-b396-49d7-94bd-53a62252df5f","ios":"levelo://app?vid=955b5700-b396-49d7-94bd-53a62252df5f"},"vehicle_type_id":"4","last_reported":1762103312,"current_range_meters":10000,"station_id":"ce4bhih2rcd13ifvqfr0","pricing_plan_id":"cebpf4jnsgd1na2vs0mg"},{"bike_id":"bfbaff58-9470-4d2a-a006-d6259ba3fc7d","system_id":"levelo_inurba_marseille","lat":43.254986,"lon":5.376484,"is_reserved":false,"is_disabled":false,"rental_uris":{"android":"levelo://app?vid=bfbaff58-9470-4d2a-a006-d6259ba3fc7d","ios":"levelo://app?vid=bfbaff58-9470-4d2a-a006-d6259ba3fc7d"},"vehicle_type_id":"4","last_reported":1762103312,"current_range_meters":10000,"station_id":"ce4bhh12rcd13ifvqff0","pricing_plan_id":"cebpf4jnsgd1na2vs0mg"},{"bike_id":"71ac7427-5e99-4da0-b09e-145d429775a3","system_id":"levelo_inurba_marseille","lat":43.24621,"lon":5.43166,"is_reserved":false,"is_disabled":false,"rental_uris":{"android":"levelo://app?vid=71ac7427-5e99-4da0-b09e-145d429775a3","ios":"levelo://app?vid=71ac7427-5e99-4da0-b09e-145d429775a3"},"vehicle_type_id":"4","last_reported":1762103312,"current_range_meters":10000,"station_id":"st_d2m6c4gdas8pm72e190g","pricing_plan_id":"cebpf4jnsgd1na2vs0mg"},{"bike_id":"1dfb7df3-c8ac-4849-95b5-9a3af0a3b6bb","system_id":"levelo_inurba_marseille","lat":43.32477,"lon":5.36565,"is_reserved":false,"is_disabled":false,"rental_uris":{"android":"levelo://app?vid=1dfb7df3-c8ac-4849-95b5-9a3af0a3b6bb","ios":"levelo://app?vid=1dfb7df3-c8ac-4849-95b5-9a3af0a3b6bb"},"vehicle_type_id":"4","last_reported":1762103312,"current_range_meters":10000,"station_id":"ce4bhs12rcd13ifvqhvg","pricing_plan_id":"cebpf4jnsgd1na2vs0mg"},{"bike_id":"87bf0f62-f5e5-4586-abe4-d7bb497c069f","system_id":"levelo_inurba_marseille","lat":43.32346,"lon":5.36745,"is_reserved":false,"is_disabled":false,"rental_uris":{"android":"levelo://app?vid=87bf0f62-f5e5-4586-abe4-d7bb497c069f","ios":"levelo://app?vid=87bf0f62-f5e5-4586-abe4-d7bb497c069f"},"vehicle_type_id":"4","last_reported":1762103312,"current_range_meters":10800,"station_id":"ce4bhsh2rcd13ifvqi2g","pricing_plan_id":"cebpf4jnsgd1na2vs0mg"},{"bike_id":"ed3ecb67-ce52-4bf0-a33a-e4422490f240","system_id":"levelo_inurba_marseille","lat":43.30185,"lon":5.36624,"is_reserved":false,"is_disabled":false,"rental_uris":{"android":"levelo://app?vid=ed3ecb67-ce52-4bf0-a33a-e4422490f240","ios":"levelo://app?vid=ed3ecb67-ce52-4bf0-a33a-e4422490f240"},"vehicle_type_id":"4","last_reported":1762103312,"current_range_meters":10800,"station_id":"ce4bgrh2rcd13ifvqc8g","pricing_plan_id":"cebpf4jnsgd1na2vs0mg"},{"bike_id":"6fe8defd-7365-4870-9fd8-a61adc4c20bd","system_id":"levelo_inurba_marseille","lat":43.29855,"lon":5.39738,"is_reserved":false,"is_disabled":true,"rental_uris":{"android":"levelo://app?vid=6fe8defd-7365-4870-9fd8-a61adc4c20bd","ios":"levelo://app?vid=6fe8defd-7365-4870-9fd8-a61adc4c20bd"},"vehicle_type_id":"4","last_reported":1762103312,"current_range_meters":10800,"station_id":"ce4bh0h2rcd13ifvqd50","pricing_plan_id":"cebpf4jnsgd1na2vs0mg"},{"bike_id":"12c24c1a-5f34-4e4f-b6c0-f07cd6755b8d","system_id":"levelo_inurba_marseille","lat":43.249468,"lon":5.40497,"is_reserved":false,"is_disabled":false,"rental_uris":{"android":"levelo://app?vid=12c24c1a-5f34-4e4f-b6c0-f07cd6755b8d","ios":"levelo://app?vid=12c24c1a-5f34-4e4f-b6c0-f07cd6755b8d"},"vehicle_type_id":"4","last_reported":1762103312,"current_range_meters":10800,"station_id":"st_d2ngiaodas8pm72gd1h0","pricing_plan_id":"cebpf4jnsgd1na2vs0mg"},{"bike_id":"c4c5d540-caac-4903-aba8-275aa7fb9054","system_id":"levelo_inurba_marseille","lat":43.26568,"lon":5.39866,"is_reserved":false,"is_disabled":false,"rental_uris":{"android":"levelo://app?vid=c4c5d540-caac-4903-aba8-275aa7fb9054","ios":"levelo://app?vid=c4c5d540-caac-4903-aba8-275aa7fb9054"},"vehicle_type_id":"4","last_reported":1762103312,"current_range_meters":10800,"station_id":"","pricing_plan_id":"cebpf4jnsgd1na2vs0mg"},{"bike_id":"6e1f3060-5bcc-49b9-b4de-5141d705fb3d","system_id":"levelo_inurba_marseille","lat":43.30886,"lon":5.40118,"is_reserved":false,"is_disabled":false,"rental_uris":{"android":"levelo://app?vid=6e1f3060-5bcc-49b9-b4de-5141d705fb3d","ios":"levelo://app?vid=6e1f3060-5bcc-49b9-b4de-5141d705fb3d"},"vehicle_type_id":"4","last_reported":1762103312,"current_range_meters":10800,"station_id":"","pricing_plan_id":"cebpf4jnsgd1na2vs0mg"},{"bike_id":"41598790-345d-414f-9e87-720cb432f278","system_id":"levelo_inurba_marseille","lat":43.29477,"lon":5.36227,"is_reserved":false,"is_disabled":false,"rental_uris":{"android":"levelo://app?vid=41598790-345d-414f-9e87-720cb432f278","ios":"levelo://app?vid=41598790-345d-414f-9e87-720cb432f278"},"vehicle_type_id":"4","last_reported":1762103312,"current_range_meters":10800,"station_id":"","pricing_plan_id":"cebpf4jnsgd1na2vs0mg"},{"bike_id":"a2e50b20-7ef0-4114-b41e-4d7ed76fe7a5","system_id":"levelo_inurba_marseille","lat":43.30307,"lon":5.39206,"is_reserved":false,"is_disabled":false,"rental_uris":{"android":"levelo://app?vid=a2e50b20-7ef0-4114-b41e-4d7ed76fe7a5","ios":"levelo://app?vid=a2e50b20-7ef0-4114-b41e-4d7ed76fe7a5"},"vehicle_type_id":"4","last_reported":1762103312,"current_range_meters":10800,"station_id":"ce4bgkh2rcd13ifvqbk0","pricing_plan_id":"cebpf4jnsgd1na2vs0mg"},{"bike_id":"d58af0e1-f580-4711-aac4-48744362ec4b","system_id":"levelo_inurba_marseille","lat":43.29909,"lon":5.38141,"is_reserved":false,"is_disabled":false,"rental_uris":{"android":"levelo://app?vid=d58af0e1-f580-4711-aac4-48744362ec4b","ios":"levelo://app?vid=d58af0e1-f580-4711-aac4-48744362ec4b"},"vehicle_type_id":"4","last_reported":1762103312,"current_range_meters":11200,"station_id":"ce4bgj12rcd13ifvqbc0","pricing_plan_id":"cebpf4jnsgd1na2vs0mg"},{"bike_id":"f556ad88-b0ef-4d15-8048-f36fbe8e026c","system_id":"levelo_inurba_marseille","lat":43.28528,"lon":5.44115,"is_reserved":false,"is_disabled":false,"rental_uris":{"android":"levelo://app?vid=f556ad88-b0ef-4d15-8048-f36fbe8e026c","ios":"levelo://app?vid=f556ad88-b0ef-4d15-8048-f36fbe8e026c"},"vehicle_type_id":"4","last_reported":1762103312,"current_range_meters":11200,"station_id":"st_d3j3df2ikq2c7380ej80","pricing_plan_id":"cebpf4jnsgd1na2vs0mg"},{"bike_id":"c7d57f9b-8ba9-4435-ac3b-54d333c0b4c7","system_id":"levelo_inurba_marseille","lat":43.32364,"lon":5.36716,"is_reserved":false,"is_disabled":false,"rental_uris":{"android":"levelo://app?vid=c7d57f9b-8ba9-4435-ac3b-54d333c0b4c7","ios":"levelo://app?vid=c7d57f9b-8ba9-4435-ac3b-54d333c0b4c7"},"vehicle_type_id":"4","last_reported":1762103312,"current_range_meters":11200,"station_id":"ce4bhsh2rcd13ifvqi2g","pricing_plan_id":"cebpf4jnsgd1na2vs0mg"},{"bike_id":"c4f2ef56-a448-4bb1-9320-6136c50246c9","system_id":"levelo_inurba_marseille","lat":43.24802,"lon":5.3745,"is_reserved":false,"is_disabled":true,"rental_uris":{"android":"levelo://app?vid=c4f2ef56-a448-4bb1-9320-6136c50246c9","ios":"levelo://app?vid=c4f2ef56-a448-4bb1-9320-6136c50246c9"},"vehicle_type_id":"4","last_reported":1762103312,"current_range_meters":11200,"station_id":"ce4bhgh2rcd13ifvqfb0","pricing_plan_id":"cebpf4jnsgd1na2vs0mg"},{"bike_id":"2690eb1e-20c3-4a07-9a8b-3ff3657fab69","system_id":"levelo_inurba_marseille","lat":43.31198,"lon":5.36846,"is_reserved":false,"is_disabled":true,"rental_uris":{"android":"levelo://app?vid=2690eb1e-20c3-4a07-9a8b-3ff3657fab69","ios":"levelo://app?vid=2690eb1e-20c3-4a07-9a8b-3ff3657fab69"},"vehicle_type_id":"4","last_reported":1762103312,"current_range_meters":11200,"station_id":"ce4bgl92rcd13ifvqbq0","pricing_plan_id":"cebpf4jnsgd1na2vs0mg"},{"bike_id":"8360e00d-e480-461e-9636-9abeaff3d29c","system_id":"levelo_inurba_marseille","lat":43.2909,"lon":5.38125,"is_reserved":false,"is_disabled":false,"rental_uris":{"android":"levelo://app?vid=8360e00d-e480-461e-9636-9abeaff3d29c","ios":"levelo://app?vid=8360e00d-e480-461e-9636-9abeaff3d29c"},"vehicle_type_id":"4","last_reported":1762103312,"current_range_meters":11200,"station_id":"ce4bh512rcd13ifvqe2g","pricing_plan_id":"cebpf4jnsgd1na2vs0mg"},{"bike_id":"9ed83576-2cd9-4d25-ba69-eddb8df93a38","system_id":"levelo_inurba_marseille","lat":43.23969,"lon":5.3664,"is_reserved":false,"is_disabled":false,"rental_uris":{"android":"levelo://app?vid=9ed83576-2cd9-4d25-ba69-eddb8df93a38","ios":"levelo://app?vid=9ed83576-2cd9-4d25-ba69-eddb8df93a38"},"vehicle_type_id":"4","last_reported":1762103312,"current_range_meters":11600,"station_id":"ce4bhi12rcd13ifvqfp0","pricing_plan_id":"cebpf4jnsgd1na2vs0mg"},{"bike_id":"f032dcd8-9da5-4d43-9733-2e1aaa8ea167","system_id":"levelo_inurba_marseille","lat":43.253359,"lon":5.421773,"is_reserved":false,"is_disabled":false,"rental_uris":{"android":"levelo://app?vid=f032dcd8-9da5-4d43-9733-2e1aaa8ea167","ios":"levelo://app?vid=f032dcd8-9da5-4d43-9733-2e1aaa8ea167"},"vehicle_type_id":"4","last_reported":1762103312,"current_range_meters":11600,"station_id":"","pricing_plan_id":"cebpf4jnsgd1na2vs0mg"},{"bike_id":"c6b37a3a-a12b-4f16-8c62-9b909f97e00a","system_id":"levelo_inurba_marseille","lat":43.2926,"lon":5.38435,"is_reserved":false,"is_disabled":false,"rental_uris":{"android":"levelo://app?vid=c6b37a3a-a12b-4f16-8c62-9b909f97e00a","ios":"levelo://app?vid=c6b37a3a-a12b-4f16-8c62-9b909f97e00a"},"vehicle_type_id":"4","last_reported":1762103312,"current_range_meters":11600,"station_id":"ce4bh692rcd13ifvqea0","pricing_plan_id":"cebpf4jnsgd1na2vs0mg"},{"bike_id":"de0ca7a8-116a-46c8-8c50-6b445a473423","system_id":"levelo_inurba_marseille","lat":43.28862,"lon":5.42535,"is_reserved":false,"is_disabled":false,"rental_uris":{"android":"levelo://app?vid=de0ca7a8-116a-46c8-8c50-6b445a473423","ios":"levelo://app?vid=de0ca7a8-116a-46c8-8c50-6b445a473423"},"vehicle_type_id":"4","last_reported":1762103312,"current_range_meters":11600,"station_id":"st_d3b462108ojc7389ooeg","pricing_plan_id":"cebpf4jnsgd1na2vs0mg"},{"bike_id":"7f4ea1c9-e771-489a-82b2-fae7d0c0a729","system_id":"levelo_inurba_marseille","lat":43.29803,"lon":5.39353,"is_reserved":false,"is_disabled":true,"rental_uris":{"android":"levelo://app?vid=7f4ea1c9-e771-489a-82b2-fae7d0c0a729","ios":"levelo://app?vid=7f4ea1c9-e771-489a-82b2-fae7d0c0a729"},"vehicle_type_id":"4","last_reported":1762103312,"current_range_meters":11600,"station_id":"chh1huq6cuj3fo74tm60","pricing_plan_id":"cebpf4jnsgd1na2vs0mg"},{"bike_id":"84f1bfac-8d21-499b-b8e1-fdc8049e10ac","system_id":"levelo_inurba_marseille","lat":43.31268,"lon":5.37771,"is_reserved":false,"is_disabled":false,"rental_uris":{"android":"levelo://app?vid=84f1bfac-8d21-499b-b8e1-fdc8049e10ac","ios":"levelo://app?vid=84f1bfac-8d21-499b-b8e1-fdc8049e10ac"},"vehicle_type_id":"4","last_reported":1762103312,"current_range_meters":11600,"station_id":"","pricing_plan_id":"cebpf4jnsgd1na2vs0mg"},{"bike_id":"af79d3f1-ea9f-4c0b-9a2d-782b39386671","system_id":"levelo_inurba_marseille","lat":43.21737,"lon":5.34606,"is_reserved":false,"is_disabled":true,"rental_uris":{"android":"levelo://app?vid=af79d3f1-ea9f-4c0b-9a2d-782b39386671","ios":"levelo://app?vid=af79d3f1-ea9f-4c0b-9a2d-782b39386671"},"vehicle_type_id":"4","last_reported":1762103312,"current_range_meters":11600,"station_id":"st_cvj6r9ubvosntc0bgbag","pricing_plan_id":"cebpf4jnsgd1na2vs0mg"},{"bike_id":"0f583a9b-84b4-45e2-a280-f0ff1282968e","system_id":"levelo_inurba_marseille","lat":43.27658,"lon":5.38911,"is_reserved":false,"is_disabled":true,"rental_uris":{"android":"levelo://app?vid=0f583a9b-84b4-45e2-a280-f0ff1282968e","ios":"levelo://app?vid=0f583a9b-84b4-45e2-a280-f0ff1282968e"},"vehicle_type_id":"4","last_reported":1762103312,"current_range_meters":11600,"station_id":"ce4bhi12rcd13ifvqfo0","pricing_plan_id":"cebpf4jnsgd1na2vs0mg"},{"bike_id":"63f252f3-ffdc-4384-ac89-a4e9be0dfd03","system_id":"levelo_inurba_marseille","lat":43.31153,"lon":5.39344,"is_reserved":false,"is_disabled":false,"rental_uris":{"android":"levelo://app?vid=63f252f3-ffdc-4384-ac89-a4e9be0dfd03","ios":"levelo://app?vid=63f252f3-ffdc-4384-ac89-a4e9be0dfd03"},"vehicle_type_id":"4","last_reported":1762103312,"current_range_meters":11600,"station_id":"","pricing_plan_id":"cebpf4jnsgd1na2vs0mg"},{"bike_id":"91602895-4b3a-490b-b103-482ece351bd9","system_id":"levelo_inurba_marseille","lat":43.231988,"lon":5.355521,"is_reserved":false,"is_disabled":false,"rental_uris":{"android":"levelo://app?vid=91602895-4b3a-490b-b103-482ece351bd9","ios":"levelo://app?vid=91602895-4b3a-490b-b103-482ece351bd9"},"vehicle_type_id":"4","last_reported":1762103312,"current_range_meters":11600,"station_id":"ce4bhi12rcd13ifvqfp0","pricing_plan_id":"cebpf4jnsgd1na2vs0mg"},{"bike_id":"32cce104-15aa-4214-a017-986598ec1d87","system_id":"levelo_inurba_marseille","lat":43.30218,"lon":5.39466,"is_reserved":false,"is_disabled":false,"rental_uris":{"android":"levelo://app?vid=32cce104-15aa-4214-a017-986598ec1d87","ios":"levelo://app?vid=32cce104-15aa-4214-a017-986598ec1d87"},"vehicle_type_id":"4","last_reported":1762103312,"current_range_meters":11600,"station_id":"ce4bh0p2rcd13ifvqd70","pricing_plan_id":"cebpf4jnsgd1na2vs0mg"},{"bike_id":"ba541a52-7e4e-4241-9791-ae6f1fb03dcd","system_id":"levelo_inurba_marseille","lat":43.32005,"lon":5.41601,"is_reserved":false,"is_disabled":false,"rental_uris":{"android":"levelo://app?vid=ba541a52-7e4e-4241-9791-ae6f1fb03dcd","ios":"levelo://app?vid=ba541a52-7e4e-4241-9791-ae6f1fb03dcd"},"vehicle_type_id":"4","last_reported":1762103312,"current_range_meters":11600,"station_id":"","pricing_plan_id":"cebpf4jnsgd1na2vs0mg"},{"bike_id":"26451360-c1c8-464f-a7bf-bc2a31850d65","system_id":"levelo_inurba_marseille","lat":43.22534,"lon":5.34836,"is_reserved":false,"is_disabled":false,"rental_uris":{"android":"levelo://app?vid=26451360-c1c8-464f-a7bf-bc2a31850d65","ios":"levelo://app?vid=26451360-c1c8-464f-a7bf-bc2a31850d65"},"vehicle_type_id":"4","last_reported":1762103312,"current_range_meters":12000,"station_id":"","pricing_plan_id":"cebpf4jnsgd1na2vs0mg"},{"bike_id":"052d5112-0550-43e8-974b-8209752d57d5","system_id":"levelo_inurba_marseille","lat":43.30137,"lon":5.38785,"is_reserved":false,"is_disabled":false,"rental_uris":{"android":"levelo://app?vid=052d5112-0550-43e8-974b-8209752d57d5","ios":"levelo://app?vid=052d5112-0550-43e8-974b-8209752d57d5"},"vehicle_type_id":"4","last_reported":1762103312,"current_range_meters":12000,"station_id":"ce4bghh2rcd13ifvqb60","pricing_plan_id":"cebpf4jnsgd1na2vs0mg"},{"bike_id":"8fcd260f-16b3-4c1d-9613-2d206079f071","system_id":"levelo_inurba_marseille","lat":43.2959,"lon":5.38669,"is_reserved":false,"is_disabled":false,"rental_uris":{"android":"levelo://app?vid=8fcd260f-16b3-4c1d-9613-2d206079f071","ios":"levelo://app?vid=8fcd260f-16b3-4c1d-9613-2d206079f071"},"vehicle_type_id":"4","last_reported":1762103312,"current_range_meters":12000,"station_id":"","pricing_plan_id":"cebpf4jnsgd1na2vs0mg"},{"bike_id":"62f9cf62-5d06-4dd6-b282-7b747589a777","system_id":"levelo_inurba_marseille","lat":43.28706,"lon":5.39996,"is_reserved":false,"is_disabled":true,"rental_uris":{"android":"levelo://app?vid=62f9cf62-5d06-4dd6-b282-7b747589a777","ios":"levelo://app?vid=62f9cf62-5d06-4dd6-b282-7b747589a777"},"vehicle_type_id":"4","last_reported":1762103312,"current_range_meters":12000,"station_id":"ce4bho92rcd13ifvqh3g","pricing_plan_id":"cebpf4jnsgd1na2vs0mg"},{"bike_id":"d87e8435-a903-4228-b33e-bd6d66e6673b","system_id":"levelo_inurba_marseille","lat":43.24655,"lon":5.43154,"is_reserved":false,"is_disabled":false,"rental_uris":{"android":"levelo://app?vid=d87e8435-a903-4228-b33e-bd6d66e6673b","ios":"levelo://app?vid=d87e8435-a903-4228-b33e-bd6d66e6673b"},"vehicle_type_id":"4","last_reported":1762103312,"current_range_meters":12000,"station_id":"st_d2m6c4gdas8pm72e190g","pricing_plan_id":"cebpf4jnsgd1na2vs0mg"},{"bike_id":"8f71930c-c20a-48d0-b7bf-91516b48ea54","system_id":"levelo_inurba_marseille","lat":43.30123,"lon":5.38793,"is_reserved":false,"is_disabled":false,"rental_uris":{"android":"levelo://app?vid=8f71930c-c20a-48d0-b7bf-91516b48ea54","ios":"levelo://app?vid=8f71930c-c20a-48d0-b7bf-91516b48ea54"},"vehicle_type_id":"4","last_reported":1762103312,"current_range_meters":12400,"station_id":"ce4bghh2rcd13ifvqb60","pricing_plan_id":"cebpf4jnsgd1na2vs0mg"},{"bike_id":"77679107-31f6-4769-888c-bfa8b6d2bccd","system_id":"levelo_inurba_marseille","lat":43.28861,"lon":5.42526,"is_reserved":false,"is_disabled":false,"rental_uris":{"android":"levelo://app?vid=77679107-31f6-4769-888c-bfa8b6d2bccd","ios":"levelo://app?vid=77679107-31f6-4769-888c-bfa8b6d2bccd"},"vehicle_type_id":"4","last_reported":1762103312,"current_range_meters":12400,"station_id":"st_d3b462108ojc7389ooeg","pricing_plan_id":"cebpf4jnsgd1na2vs0mg"},{"bike_id":"8adef542-af60-4b61-8a5b-4b604c3bcfe4","system_id":"levelo_inurba_marseille","lat":43.24673,"lon":5.43151,"is_reserved":false,"is_disabled":false,"rental_uris":{"android":"levelo://app?vid=8adef542-af60-4b61-8a5b-4b604c3bcfe4","ios":"levelo://app?vid=8adef542-af60-4b61-8a5b-4b604c3bcfe4"},"vehicle_type_id":"4","last_reported":1762103312,"current_range_meters":12400,"station_id":"st_d2m6c4gdas8pm72e190g","pricing_plan_id":"cebpf4jnsgd1na2vs0mg"},{"bike_id":"785bb9b8-af05-490b-ac19-68053d05bc99","system_id":"levelo_inurba_marseille","lat":43.28663,"lon":5.36354,"is_reserved":false,"is_disabled":false,"rental_uris":{"android":"levelo://app?vid=785bb9b8-af05-490b-ac19-68053d05bc99","ios":"levelo://app?vid=785bb9b8-af05-490b-ac19-68053d05bc99"},"vehicle_type_id":"4","last_reported":1762103312,"current_range_meters":12400,"station_id":"ce4bhah2rcd13ifvqej0","pricing_plan_id":"cebpf4jnsgd1na2vs0mg"},{"bike_id":"c4ca24b0-42cc-4340-9581-bbcafb48a92e","system_id":"levelo_inurba_marseille","lat":43.25085,"lon":5.39524,"is_reserved":false,"is_disabled":false,"rental_uris":{"android":"levelo://app?vid=c4ca24b0-42cc-4340-9581-bbcafb48a92e","ios":"levelo://app?vid=c4ca24b0-42cc-4340-9581-bbcafb48a92e"},"vehicle_type_id":"4","last_reported":1762103312,"current_range_meters":12400,"station_id":"ce4bhm12rcd13ifvqgkg","pricing_plan_id":"cebpf4jnsgd1na2vs0mg"},{"bike_id":"da2cc2c7-e93c-44a9-900c-55c5bc9280c8","system_id":"levelo_inurba_marseille","lat":43.22929,"lon":5.35375,"is_reserved":false,"is_disabled":false,"rental_uris":{"android":"levelo://app?vid=da2cc2c7-e93c-44a9-900c-55c5bc9280c8","ios":"levelo://app?vid=da2cc2c7-e93c-44a9-900c-55c5bc9280c8"},"vehicle_type_id":"4","last_reported":1762103312,"current_range_meters":12400,"station_id":"cpo3532slgdg3j2ikp40","pricing_plan_id":"cebpf4jnsgd1na2vs0mg"},{"bike_id":"e3521a68-868f-4143-a71f-4d8e192a1713","system_id":"levelo_inurba_marseille","lat":43.29008,"lon":5.35616,"is_reserved":false,"is_disabled":false,"rental_uris":{"android":"levelo://app?vid=e3521a68-868f-4143-a71f-4d8e192a1713","ios":"levelo://app?vid=e3521a68-868f-4143-a71f-4d8e192a1713"},"vehicle_type_id":"4","last_reported":1762103312,"current_range_meters":12800,"station_id":"ce4bhb92rcd13ifvqen0","pricing_plan_id":"cebpf4jnsgd1na2vs0mg"},{"bike_id":"079d2352-ba60-4c63-b7a4-6ec0ccf76dcc","system_id":"levelo_inurba_marseille","lat":43.25716,"lon":5.41115,"is_reserved":false,"is_disabled":false,"rental_uris":{"android":"levelo://app?vid=079d2352-ba60-4c63-b7a4-6ec0ccf76dcc","ios":"levelo://app?vid=079d2352-ba60-4c63-b7a4-6ec0ccf76dcc"},"vehicle_type_id":"4","last_reported":1762103312,"current_range_meters":12800,"station_id":"ce4bhkp2rcd13ifvqgd0","pricing_plan_id":"cebpf4jnsgd1na2vs0mg"},{"bike_id":"ebf85bdb-1a2b-49af-a88d-03e90d4c31b8","system_id":"levelo_inurba_marseille","lat":43.23957,"lon":5.36627,"is_reserved":false,"is_disabled":true,"rental_uris":{"android":"levelo://app?vid=ebf85bdb-1a2b-49af-a88d-03e90d4c31b8","ios":"levelo://app?vid=ebf85bdb-1a2b-49af-a88d-03e90d4c31b8"},"vehicle_type_id":"4","last_reported":1762103312,"current_range_meters":12800,"station_id":"ce4bhi12rcd13ifvqfp0","pricing_plan_id":"cebpf4jnsgd1na2vs0mg"},{"bike_id":"8f37d7b9-05da-4937-8327-280e878574fe","system_id":"levelo_inurba_marseille","lat":43.30423,"lon":5.397558,"is_reserved":false,"is_disabled":true,"rental_uris":{"android":"levelo://app?vid=8f37d7b9-05da-4937-8327-280e878574fe","ios":"levelo://app?vid=8f37d7b9-05da-4937-8327-280e878574fe"},"vehicle_type_id":"4","last_reported":1762103312,"current_range_meters":12800,"station_id":"","pricing_plan_id":"cebpf4jnsgd1na2vs0mg"},{"bike_id":"afc0b48b-96c0-4f62-9b18-3c4f27548f9d","system_id":"levelo_inurba_marseille","lat":43.26618,"lon":5.39032,"is_reserved":false,"is_disabled":false,"rental_uris":{"android":"levelo://app?vid=afc0b48b-96c0-4f62-9b18-3c4f27548f9d","ios":"levelo://app?vid=afc0b48b-96c0-4f62-9b18-3c4f27548f9d"},"vehicle_type_id":"4","last_reported":1762103312,"current_range_meters":12800,"station_id":"","pricing_plan_id":"cebpf4jnsgd1na2vs0mg"},{"bike_id":"6a599560-1868-4048-a5b7-d6d721742c3f","system_id":"levelo_inurba_marseille","lat":43.284035,"lon":5.375061,"is_reserved":false,"is_disabled":false,"rental_uris":{"android":"levelo://app?vid=6a599560-1868-4048-a5b7-d6d721742c3f","ios":"levelo://app?vid=6a599560-1868-4048-a5b7-d6d721742c3f"},"vehicle_type_id":"4","last_reported":1762103312,"current_range_meters":13600,"station_id":"ce4bh412rcd13ifvqds0","pricing_plan_id":"cebpf4jnsgd1na2vs0mg"},{"bike_id":"14b92a7a-0805-475a-abfd-8c979184b42b","system_id":"levelo_inurba_marseille","lat":43.30988,"lon":5.37025,"is_reserved":false,"is_disabled":false,"rental_uris":{"android":"levelo://app?vid=14b92a7a-0805-475a-abfd-8c979184b42b","ios":"levelo://app?vid=14b92a7a-0805-475a-abfd-8c979184b42b"},"vehicle_type_id":"4","last_reported":1762103312,"current_range_meters":13600,"station_id":"","pricing_plan_id":"cebpf4jnsgd1na2vs0mg"},{"bike_id":"9a8800fa-24be-4848-a250-19e32415acb4","system_id":"levelo_inurba_marseille","lat":43.212,"lon":5.35089,"is_reserved":false,"is_disabled":false,"rental_uris":{"android":"levelo://app?vid=9a8800fa-24be-4848-a250-19e32415acb4","ios":"levelo://app?vid=9a8800fa-24be-4848-a250-19e32415acb4"},"vehicle_type_id":"4","last_reported":1762103312,"current_range_meters":13600,"station_id":"st_cvj6sg6p6f1abm77japg","pricing_plan_id":"cebpf4jnsgd1na2vs0mg"},{"bike_id":"25b8b9c6-92a5-43d3-8767-0700e7c7de1c","system_id":"levelo_inurba_marseille","lat":43.33761,"lon":5.37416,"is_reserved":false,"is_disabled":false,"rental_uris":{"android":"levelo://app?vid=25b8b9c6-92a5-43d3-8767-0700e7c7de1c","ios":"levelo://app?vid=25b8b9c6-92a5-43d3-8767-0700e7c7de1c"},"vehicle_type_id":"4","last_reported":1762103312,"current_range_meters":13600,"station_id":"","pricing_plan_id":"cebpf4jnsgd1na2vs0mg"},{"bike_id":"e0b3975c-a733-44ee-8da3-d1302ec43c36","system_id":"levelo_inurba_marseille","lat":43.23148,"lon":5.43721,"is_reserved":false,"is_disabled":false,"rental_uris":{"android":"levelo://app?vid=e0b3975c-a733-44ee-8da3-d1302ec43c36","ios":"levelo://app?vid=e0b3975c-a733-44ee-8da3-d1302ec43c36"},"vehicle_type_id":"4","last_reported":1762103312,"current_range_meters":13600,"station_id":"ce4bhmp2rcd13ifvqgog","pricing_plan_id":"cebpf4jnsgd1na2vs0mg"},{"bike_id":"066ede02-47a2-4c83-bcb1-7eb633a370fb","system_id":"levelo_inurba_marseille","lat":43.312722,"lon":5.377559,"is_reserved":false,"is_disabled":false,"rental_uris":{"android":"levelo://app?vid=066ede02-47a2-4c83-bcb1-7eb633a370fb","ios":"levelo://app?vid=066ede02-47a2-4c83-bcb1-7eb633a370fb"},"vehicle_type_id":"4","last_reported":1762103312,"current_range_meters":14000,"station_id":"","pricing_plan_id":"cebpf4jnsgd1na2vs0mg"},{"bike_id":"423802bb-722e-4533-9018-c0f75cce34a6","system_id":"levelo_inurba_marseille","lat":43.306701,"lon":5.381782,"is_reserved":false,"is_disabled":false,"rental_uris":{"android":"levelo://app?vid=423802bb-722e-4533-9018-c0f75cce34a6","ios":"levelo://app?vid=423802bb-722e-4533-9018-c0f75cce34a6"},"vehicle_type_id":"4","last_reported":1762103312,"current_range_meters":14000,"station_id":"","pricing_plan_id":"cebpf4jnsgd1na2vs0mg"},{"bike_id":"409f828f-b26c-4197-81cf-db5fe4c597fa","system_id":"levelo_inurba_marseille","lat":43.25679,"lon":5.41103,"is_reserved":false,"is_disabled":false,"rental_uris":{"android":"levelo://app?vid=409f828f-b26c-4197-81cf-db5fe4c597fa","ios":"levelo://app?vid=409f828f-b26c-4197-81cf-db5fe4c597fa"},"vehicle_type_id":"4","last_reported":1762103312,"current_range_meters":14000,"station_id":"ce4bhkp2rcd13ifvqgd0","pricing_plan_id":"cebpf4jnsgd1na2vs0mg"},{"bike_id":"00f0f13d-fe2e-471f-8720-9cfd65befa3f","system_id":"levelo_inurba_marseille","lat":43.31066,"lon":5.38363,"is_reserved":false,"is_disabled":false,"rental_uris":{"android":"levelo://app?vid=00f0f13d-fe2e-471f-8720-9cfd65befa3f","ios":"levelo://app?vid=00f0f13d-fe2e-471f-8720-9cfd65befa3f"},"vehicle_type_id":"4","last_reported":1762103312,"current_range_meters":14000,"station_id":"ce4bgv92rcd13ifvqcr0","pricing_plan_id":"cebpf4jnsgd1na2vs0mg"},{"bike_id":"aad6a064-c048-4ba9-a156-1745b89548aa","system_id":"levelo_inurba_marseille","lat":43.28318,"lon":5.41082,"is_reserved":false,"is_disabled":false,"rental_uris":{"android":"levelo://app?vid=aad6a064-c048-4ba9-a156-1745b89548aa","ios":"levelo://app?vid=aad6a064-c048-4ba9-a156-1745b89548aa"},"vehicle_type_id":"4","last_reported":1762103312,"current_range_meters":14000,"station_id":"","pricing_plan_id":"cebpf4jnsgd1na2vs0mg"},{"bike_id":"9adbab99-825d-4f93-843f-219c1cfe54f5","system_id":"levelo_inurba_marseille","lat":43.31224,"lon":5.36871,"is_reserved":false,"is_disabled":false,"rental_uris":{"android":"levelo://app?vid=9adbab99-825d-4f93-843f-219c1cfe54f5","ios":"levelo://app?vid=9adbab99-825d-4f93-843f-219c1cfe54f5"},"vehicle_type_id":"4","last_reported":1762103312,"current_range_meters":14000,"station_id":"ce4bgl92rcd13ifvqbq0","pricing_plan_id":"cebpf4jnsgd1na2vs0mg"},{"bike_id":"b2e0d420-6b6b-4615-98ff-27e3ea7d31f2","system_id":"levelo_inurba_marseille","lat":43.29796,"lon":5.38106,"is_reserved":false,"is_disabled":false,"rental_uris":{"android":"levelo://app?vid=b2e0d420-6b6b-4615-98ff-27e3ea7d31f2","ios":"levelo://app?vid=b2e0d420-6b6b-4615-98ff-27e3ea7d31f2"},"vehicle_type_id":"4","last_reported":1762103312,"current_range_meters":14400,"station_id":"ce4bgip2rcd13ifvqbb0","pricing_plan_id":"cebpf4jnsgd1na2vs0mg"},{"bike_id":"10b17a26-6798-4334-8bde-0a7d55a31fd1","system_id":"levelo_inurba_marseille","lat":43.290102,"lon":5.381419,"is_reserved":false,"is_disabled":false,"rental_uris":{"android":"levelo://app?vid=10b17a26-6798-4334-8bde-0a7d55a31fd1","ios":"levelo://app?vid=10b17a26-6798-4334-8bde-0a7d55a31fd1"},"vehicle_type_id":"4","last_reported":1762103312,"current_range_meters":14400,"station_id":"ce4bh4p2rcd13ifvqe1g","pricing_plan_id":"cebpf4jnsgd1na2vs0mg"},{"bike_id":"cd508e6a-16b3-4ad6-afd7-00d28b4dddf5","system_id":"levelo_inurba_marseille","lat":43.2789,"lon":5.38016,"is_reserved":false,"is_disabled":false,"rental_uris":{"android":"levelo://app?vid=cd508e6a-16b3-4ad6-afd7-00d28b4dddf5","ios":"levelo://app?vid=cd508e6a-16b3-4ad6-afd7-00d28b4dddf5"},"vehicle_type_id":"4","last_reported":1762103312,"current_range_meters":14400,"station_id":"ce4bhf92rcd13ifvqf50","pricing_plan_id":"cebpf4jnsgd1na2vs0mg"},{"bike_id":"041b4805-7dc8-42e6-923f-896ec25ff758","system_id":"levelo_inurba_marseille","lat":43.29003,"lon":5.35608,"is_reserved":false,"is_disabled":false,"rental_uris":{"android":"levelo://app?vid=041b4805-7dc8-42e6-923f-896ec25ff758","ios":"levelo://app?vid=041b4805-7dc8-42e6-923f-896ec25ff758"},"vehicle_type_id":"4","last_reported":1762103312,"current_range_meters":14400,"station_id":"ce4bhb92rcd13ifvqen0","pricing_plan_id":"cebpf4jnsgd1na2vs0mg"},{"bike_id":"2ff20ab9-b52b-4e51-beea-738711729e0e","system_id":"levelo_inurba_marseille","lat":43.21194,"lon":5.3508,"is_reserved":false,"is_disabled":false,"rental_uris":{"android":"levelo://app?vid=2ff20ab9-b52b-4e51-beea-738711729e0e","ios":"levelo://app?vid=2ff20ab9-b52b-4e51-beea-738711729e0e"},"vehicle_type_id":"4","last_reported":1762103312,"current_range_meters":14400,"station_id":"st_cvj6sg6p6f1abm77japg","pricing_plan_id":"cebpf4jnsgd1na2vs0mg"},{"bike_id":"8c0f2cb2-c398-47e2-acd9-3500dd9655a2","system_id":"levelo_inurba_marseille","lat":43.28702,"lon":5.37393,"is_reserved":false,"is_disabled":false,"rental_uris":{"android":"levelo://app?vid=8c0f2cb2-c398-47e2-acd9-3500dd9655a2","ios":"levelo://app?vid=8c0f2cb2-c398-47e2-acd9-3500dd9655a2"},"vehicle_type_id":"4","last_reported":1762103312,"current_range_meters":14400,"station_id":"ce4bh3p2rcd13ifvqdq0","pricing_plan_id":"cebpf4jnsgd1na2vs0mg"},{"bike_id":"547cb632-8ca9-4277-bd16-a49ce0865b4b","system_id":"levelo_inurba_marseille","lat":43.28429,"lon":5.34984,"is_reserved":false,"is_disabled":false,"rental_uris":{"android":"levelo://app?vid=547cb632-8ca9-4277-bd16-a49ce0865b4b","ios":"levelo://app?vid=547cb632-8ca9-4277-bd16-a49ce0865b4b"},"vehicle_type_id":"4","last_reported":1762103312,"current_range_meters":14800,"station_id":"ce4bhbh2rcd13ifvqepg","pricing_plan_id":"cebpf4jnsgd1na2vs0mg"},{"bike_id":"b53ff486-849c-4668-84f1-30d27196f827","system_id":"levelo_inurba_marseille","lat":43.28405,"lon":5.37518,"is_reserved":false,"is_disabled":true,"rental_uris":{"android":"levelo://app?vid=b53ff486-849c-4668-84f1-30d27196f827","ios":"levelo://app?vid=b53ff486-849c-4668-84f1-30d27196f827"},"vehicle_type_id":"4","last_reported":1762103312,"current_range_meters":14800,"station_id":"ce4bh412rcd13ifvqds0","pricing_plan_id":"cebpf4jnsgd1na2vs0mg"},{"bike_id":"aef75ae5-d606-43b6-8ba5-d53a35c16de5","system_id":"levelo_inurba_marseille","lat":43.27431,"lon":5.39407,"is_reserved":false,"is_disabled":true,"rental_uris":{"android":"levelo://app?vid=aef75ae5-d606-43b6-8ba5-d53a35c16de5","ios":"levelo://app?vid=aef75ae5-d606-43b6-8ba5-d53a35c16de5"},"vehicle_type_id":"4","last_reported":1762103312,"current_range_meters":14800,"station_id":"ce4bhdp2rcd13ifvqf20","pricing_plan_id":"cebpf4jnsgd1na2vs0mg"},{"bike_id":"1c7e9560-2754-4a88-b1cb-cdee38fc1289","system_id":"levelo_inurba_marseille","lat":43.26943,"lon":5.4027,"is_reserved":false,"is_disabled":true,"rental_uris":{"android":"levelo://app?vid=1c7e9560-2754-4a88-b1cb-cdee38fc1289","ios":"levelo://app?vid=1c7e9560-2754-4a88-b1cb-cdee38fc1289"},"vehicle_type_id":"4","last_reported":1762103312,"current_range_meters":14800,"station_id":"cjm6bp8fraef2m0cb0m0","pricing_plan_id":"cebpf4jnsgd1na2vs0mg"},{"bike_id":"6eb523a4-350d-4959-ac5e-1335d8f70954","system_id":"levelo_inurba_marseille","lat":43.315717,"lon":5.406423,"is_reserved":false,"is_disabled":false,"rental_uris":{"android":"levelo://app?vid=6eb523a4-350d-4959-ac5e-1335d8f70954","ios":"levelo://app?vid=6eb523a4-350d-4959-ac5e-1335d8f70954"},"vehicle_type_id":"4","last_reported":1762103312,"current_range_meters":14800,"station_id":"","pricing_plan_id":"cebpf4jnsgd1na2vs0mg"},{"bike_id":"cc475582-0cc3-4b14-a66c-6041b0d2e976","system_id":"levelo_inurba_marseille","lat":43.29331,"lon":5.41167,"is_reserved":false,"is_disabled":false,"rental_uris":{"android":"levelo://app?vid=cc475582-0cc3-4b14-a66c-6041b0d2e976","ios":"levelo://app?vid=cc475582-0cc3-4b14-a66c-6041b0d2e976"},"vehicle_type_id":"4","last_reported":1762103312,"current_range_meters":14800,"station_id":"","pricing_plan_id":"cebpf4jnsgd1na2vs0mg"},{"bike_id":"ea981441-de44-4e91-a60f-0f3605343256","system_id":"levelo_inurba_marseille","lat":43.323625,"lon":5.367508,"is_reserved":false,"is_disabled":false,"rental_uris":{"android":"levelo://app?vid=ea981441-de44-4e91-a60f-0f3605343256","ios":"levelo://app?vid=ea981441-de44-4e91-a60f-0f3605343256"},"vehicle_type_id":"4","last_reported":1762103312,"current_range_meters":14800,"station_id":"ce4bhsh2rcd13ifvqi2g","pricing_plan_id":"cebpf4jnsgd1na2vs0mg"},{"bike_id":"4910d7c4-d705-49db-9cc8-a10f1ea5e134","system_id":"levelo_inurba_marseille","lat":43.29903,"lon":5.37189,"is_reserved":false,"is_disabled":false,"rental_uris":{"android":"levelo://app?vid=4910d7c4-d705-49db-9cc8-a10f1ea5e134","ios":"levelo://app?vid=4910d7c4-d705-49db-9cc8-a10f1ea5e134"},"vehicle_type_id":"4","last_reported":1762103312,"current_range_meters":15200,"station_id":"","pricing_plan_id":"cebpf4jnsgd1na2vs0mg"},{"bike_id":"fcc7a5b9-eb88-45bf-aebf-cf96cca8c3ef","system_id":"levelo_inurba_marseille","lat":43.24661,"lon":5.38171,"is_reserved":false,"is_disabled":false,"rental_uris":{"android":"levelo://app?vid=fcc7a5b9-eb88-45bf-aebf-cf96cca8c3ef","ios":"levelo://app?vid=fcc7a5b9-eb88-45bf-aebf-cf96cca8c3ef"},"vehicle_type_id":"4","last_reported":1762103312,"current_range_meters":15200,"station_id":"ce4bhih2rcd13ifvqfr0","pricing_plan_id":"cebpf4jnsgd1na2vs0mg"},{"bike_id":"fe2272ea-7316-4280-b90c-d8c4db7bc73e","system_id":"levelo_inurba_marseille","lat":43.27948,"lon":5.39305,"is_reserved":false,"is_disabled":false,"rental_uris":{"android":"levelo://app?vid=fe2272ea-7316-4280-b90c-d8c4db7bc73e","ios":"levelo://app?vid=fe2272ea-7316-4280-b90c-d8c4db7bc73e"},"vehicle_type_id":"4","last_reported":1762103312,"current_range_meters":15200,"station_id":"","pricing_plan_id":"cebpf4jnsgd1na2vs0mg"},{"bike_id":"6dbae8fb-b558-4de5-931e-260b80081062","system_id":"levelo_inurba_marseille","lat":43.29892,"lon":5.43646,"is_reserved":false,"is_disabled":false,"rental_uris":{"android":"levelo://app?vid=6dbae8fb-b558-4de5-931e-260b80081062","ios":"levelo://app?vid=6dbae8fb-b558-4de5-931e-260b80081062"},"vehicle_type_id":"4","last_reported":1762103312,"current_range_meters":15200,"station_id":"ce4bhpp2rcd13ifvqhfg","pricing_plan_id":"cebpf4jnsgd1na2vs0mg"},{"bike_id":"a86e4117-515a-45fd-a9ae-9bf165d5c212","system_id":"levelo_inurba_marseille","lat":43.312825,"lon":5.378081,"is_reserved":false,"is_disabled":false,"rental_uris":{"android":"levelo://app?vid=a86e4117-515a-45fd-a9ae-9bf165d5c212","ios":"levelo://app?vid=a86e4117-515a-45fd-a9ae-9bf165d5c212"},"vehicle_type_id":"4","last_reported":1762103312,"current_range_meters":15200,"station_id":"ce4bhc92rcd13ifvqetg","pricing_plan_id":"cebpf4jnsgd1na2vs0mg"},{"bike_id":"098d7ae5-5b2b-4d49-ad2f-d14f29937957","system_id":"levelo_inurba_marseille","lat":43.289669,"lon":5.378348,"is_reserved":false,"is_disabled":true,"rental_uris":{"android":"levelo://app?vid=098d7ae5-5b2b-4d49-ad2f-d14f29937957","ios":"levelo://app?vid=098d7ae5-5b2b-4d49-ad2f-d14f29937957"},"vehicle_type_id":"4","last_reported":1762103312,"current_range_meters":15200,"station_id":"ce4bh9p2rcd13ifvqed0","pricing_plan_id":"cebpf4jnsgd1na2vs0mg"},{"bike_id":"d38e6431-7e3d-4961-bb07-0f4841fff974","system_id":"levelo_inurba_marseille","lat":43.27058,"lon":5.40282,"is_reserved":false,"is_disabled":false,"rental_uris":{"android":"levelo://app?vid=d38e6431-7e3d-4961-bb07-0f4841fff974","ios":"levelo://app?vid=d38e6431-7e3d-4961-bb07-0f4841fff974"},"vehicle_type_id":"4","last_reported":1762103312,"current_range_meters":15200,"station_id":"ce4bhk92rcd13ifvqgc0","pricing_plan_id":"cebpf4jnsgd1na2vs0mg"},{"bike_id":"02ab0480-1393-487e-95a2-314141ae01bf","system_id":"levelo_inurba_marseille","lat":43.28149,"lon":5.426605,"is_reserved":false,"is_disabled":false,"rental_uris":{"android":"levelo://app?vid=02ab0480-1393-487e-95a2-314141ae01bf","ios":"levelo://app?vid=02ab0480-1393-487e-95a2-314141ae01bf"},"vehicle_type_id":"4","last_reported":1762103312,"current_range_meters":16000,"station_id":"ce4bhnh2rcd13ifvqgug","pricing_plan_id":"cebpf4jnsgd1na2vs0mg"},{"bike_id":"85d8043d-b929-43f8-9188-ad421047c360","system_id":"levelo_inurba_marseille","lat":43.253363,"lon":5.421843,"is_reserved":false,"is_disabled":false,"rental_uris":{"android":"levelo://app?vid=85d8043d-b929-43f8-9188-ad421047c360","ios":"levelo://app?vid=85d8043d-b929-43f8-9188-ad421047c360"},"vehicle_type_id":"4","last_reported":1762103312,"current_range_meters":16000,"station_id":"st_d2m65c5bi1j21697t3ng","pricing_plan_id":"cebpf4jnsgd1na2vs0mg"},{"bike_id":"41a0e05b-05bf-4f74-92d2-741c85fb6fe4","system_id":"levelo_inurba_marseille","lat":43.255201,"lon":5.376905,"is_reserved":false,"is_disabled":true,"rental_uris":{"android":"levelo://app?vid=41a0e05b-05bf-4f74-92d2-741c85fb6fe4","ios":"levelo://app?vid=41a0e05b-05bf-4f74-92d2-741c85fb6fe4"},"vehicle_type_id":"4","last_reported":1762103312,"current_range_meters":16000,"station_id":"ce4bhh12rcd13ifvqff0","pricing_plan_id":"cebpf4jnsgd1na2vs0mg"},{"bike_id":"d5e62b31-8894-4fba-bae3-00b762f76664","system_id":"levelo_inurba_marseille","lat":43.25104,"lon":5.40328,"is_reserved":false,"is_disabled":false,"rental_uris":{"android":"levelo://app?vid=d5e62b31-8894-4fba-bae3-00b762f76664","ios":"levelo://app?vid=d5e62b31-8894-4fba-bae3-00b762f76664"},"vehicle_type_id":"4","last_reported":1762103312,"current_range_meters":16000,"station_id":"ce4bhlh2rcd13ifvqgig","pricing_plan_id":"cebpf4jnsgd1na2vs0mg"},{"bike_id":"29af2563-d8af-4d5e-9a07-03e4487d9640","system_id":"levelo_inurba_marseille","lat":43.298523,"lon":5.362894,"is_reserved":false,"is_disabled":false,"rental_uris":{"android":"levelo://app?vid=29af2563-d8af-4d5e-9a07-03e4487d9640","ios":"levelo://app?vid=29af2563-d8af-4d5e-9a07-03e4487d9640"},"vehicle_type_id":"4","last_reported":1762103312,"current_range_meters":16000,"station_id":"ce4bgpp2rcd13ifvqc3g","pricing_plan_id":"cebpf4jnsgd1na2vs0mg"},{"bike_id":"aa56963e-5f6a-4043-b1c7-23e4d9f05d8c","system_id":"levelo_inurba_marseille","lat":43.313499,"lon":5.379119,"is_reserved":false,"is_disabled":false,"rental_uris":{"android":"levelo://app?vid=aa56963e-5f6a-4043-b1c7-23e4d9f05d8c","ios":"levelo://app?vid=aa56963e-5f6a-4043-b1c7-23e4d9f05d8c"},"vehicle_type_id":"4","last_reported":1762103312,"current_range_meters":16000,"station_id":"","pricing_plan_id":"cebpf4jnsgd1na2vs0mg"},{"bike_id":"99586ecc-6f15-4a27-bf8c-e4d952f6ea9a","system_id":"levelo_inurba_marseille","lat":43.303753,"lon":5.423876,"is_reserved":false,"is_disabled":false,"rental_uris":{"android":"levelo://app?vid=99586ecc-6f15-4a27-bf8c-e4d952f6ea9a","ios":"levelo://app?vid=99586ecc-6f15-4a27-bf8c-e4d952f6ea9a"},"vehicle_type_id":"4","last_reported":1762103312,"current_range_meters":16000,"station_id":"ce4bh492rcd13ifvqdvg","pricing_plan_id":"cebpf4jnsgd1na2vs0mg"},{"bike_id":"0a54d18f-fe43-4be5-a009-461a89594788","system_id":"levelo_inurba_marseille","lat":43.2828,"lon":5.35063,"is_reserved":false,"is_disabled":true,"rental_uris":{"android":"levelo://app?vid=0a54d18f-fe43-4be5-a009-461a89594788","ios":"levelo://app?vid=0a54d18f-fe43-4be5-a009-461a89594788"},"vehicle_type_id":"4","last_reported":1762103312,"current_range_meters":16400,"station_id":"ce4bhbp2rcd13ifvqerg","pricing_plan_id":"cebpf4jnsgd1na2vs0mg"},{"bike_id":"65959e76-2dec-43d3-b15c-b4e7433182fd","system_id":"levelo_inurba_marseille","lat":43.293631,"lon":5.371955,"is_reserved":false,"is_disabled":false,"rental_uris":{"android":"levelo://app?vid=65959e76-2dec-43d3-b15c-b4e7433182fd","ios":"levelo://app?vid=65959e76-2dec-43d3-b15c-b4e7433182fd"},"vehicle_type_id":"4","last_reported":1762103312,"current_range_meters":16400,"station_id":"","pricing_plan_id":"cebpf4jnsgd1na2vs0mg"},{"bike_id":"af4f7b47-7d8e-4840-b717-1f79462c0609","system_id":"levelo_inurba_marseille","lat":43.29794,"lon":5.3788,"is_reserved":false,"is_disabled":false,"rental_uris":{"android":"levelo://app?vid=af4f7b47-7d8e-4840-b717-1f79462c0609","ios":"levelo://app?vid=af4f7b47-7d8e-4840-b717-1f79462c0609"},"vehicle_type_id":"4","last_reported":1762103312,"current_range_meters":16400,"station_id":"","pricing_plan_id":"cebpf4jnsgd1na2vs0mg"},{"bike_id":"f10c1fd0-819c-4bcb-a779-837cb537741a","system_id":"levelo_inurba_marseille","lat":43.29486,"lon":5.37466,"is_reserved":false,"is_disabled":false,"rental_uris":{"android":"levelo://app?vid=f10c1fd0-819c-4bcb-a779-837cb537741a","ios":"levelo://app?vid=f10c1fd0-819c-4bcb-a779-837cb537741a"},"vehicle_type_id":"4","last_reported":1762103312,"current_range_meters":16400,"station_id":"","pricing_plan_id":"cebpf4jnsgd1na2vs0mg"},{"bike_id":"1f4bf620-5a86-4131-b1aa-491aa828d1ad","system_id":"levelo_inurba_marseille","lat":43.25089,"lon":5.3951,"is_reserved":false,"is_disabled":false,"rental_uris":{"android":"levelo://app?vid=1f4bf620-5a86-4131-b1aa-491aa828d1ad","ios":"levelo://app?vid=1f4bf620-5a86-4131-b1aa-491aa828d1ad"},"vehicle_type_id":"4","last_reported":1762103312,"current_range_meters":16800,"station_id":"ce4bhm12rcd13ifvqgkg","pricing_plan_id":"cebpf4jnsgd1na2vs0mg"},{"bike_id":"c0a4ec99-6aea-4196-a099-9caf7245f600","system_id":"levelo_inurba_marseille","lat":43.273155,"lon":5.39058,"is_reserved":false,"is_disabled":false,"rental_uris":{"android":"levelo://app?vid=c0a4ec99-6aea-4196-a099-9caf7245f600","ios":"levelo://app?vid=c0a4ec99-6aea-4196-a099-9caf7245f600"},"vehicle_type_id":"4","last_reported":1762103312,"current_range_meters":16800,"station_id":"ce4bhmh2rcd13ifvqgmg","pricing_plan_id":"cebpf4jnsgd1na2vs0mg"},{"bike_id":"bbfaa054-3bde-4aa6-8d40-ce2fd793f9c3","system_id":"levelo_inurba_marseille","lat":43.241689,"lon":5.364013,"is_reserved":false,"is_disabled":true,"rental_uris":{"android":"levelo://app?vid=bbfaa054-3bde-4aa6-8d40-ce2fd793f9c3","ios":"levelo://app?vid=bbfaa054-3bde-4aa6-8d40-ce2fd793f9c3"},"vehicle_type_id":"4","last_reported":1762103312,"current_range_meters":16800,"station_id":"cpo36qri1sfpv3e86is0","pricing_plan_id":"cebpf4jnsgd1na2vs0mg"},{"bike_id":"609aa62b-6b42-43fc-b33d-a59982117e81","system_id":"levelo_inurba_marseille","lat":43.2743,"lon":5.39413,"is_reserved":false,"is_disabled":true,"rental_uris":{"android":"levelo://app?vid=609aa62b-6b42-43fc-b33d-a59982117e81","ios":"levelo://app?vid=609aa62b-6b42-43fc-b33d-a59982117e81"},"vehicle_type_id":"4","last_reported":1762103312,"current_range_meters":16800,"station_id":"ce4bhdp2rcd13ifvqf20","pricing_plan_id":"cebpf4jnsgd1na2vs0mg"},{"bike_id":"ac6fb5ab-2bf5-4938-b19e-f037b143495c","system_id":"levelo_inurba_marseille","lat":43.270696,"lon":5.422767,"is_reserved":false,"is_disabled":false,"rental_uris":{"android":"levelo://app?vid=ac6fb5ab-2bf5-4938-b19e-f037b143495c","ios":"levelo://app?vid=ac6fb5ab-2bf5-4938-b19e-f037b143495c"},"vehicle_type_id":"4","last_reported":1762103312,"current_range_meters":16800,"station_id":"ce4bhk92rcd13ifvqgb0","pricing_plan_id":"cebpf4jnsgd1na2vs0mg"},{"bike_id":"28f5c609-94bd-4f1d-9186-f66e4c2140b5","system_id":"levelo_inurba_marseille","lat":43.3073,"lon":5.42435,"is_reserved":false,"is_disabled":false,"rental_uris":{"android":"levelo://app?vid=28f5c609-94bd-4f1d-9186-f66e4c2140b5","ios":"levelo://app?vid=28f5c609-94bd-4f1d-9186-f66e4c2140b5"},"vehicle_type_id":"4","last_reported":1762103312,"current_range_meters":16800,"station_id":"st_cvj6ca6bvosntc0bfgr0","pricing_plan_id":"cebpf4jnsgd1na2vs0mg"},{"bike_id":"d1b7e294-8ae6-48ef-89d0-e05e23f9f8e0","system_id":"levelo_inurba_marseille","lat":43.29538,"lon":5.36124,"is_reserved":false,"is_disabled":true,"rental_uris":{"android":"levelo://app?vid=d1b7e294-8ae6-48ef-89d0-e05e23f9f8e0","ios":"levelo://app?vid=d1b7e294-8ae6-48ef-89d0-e05e23f9f8e0"},"vehicle_type_id":"4","last_reported":1762103312,"current_range_meters":16800,"station_id":"","pricing_plan_id":"cebpf4jnsgd1na2vs0mg"},{"bike_id":"56c52f0a-b41e-44de-b871-6767c9c0d967","system_id":"levelo_inurba_marseille","lat":43.27917,"lon":5.39587,"is_reserved":false,"is_disabled":false,"rental_uris":{"android":"levelo://app?vid=56c52f0a-b41e-44de-b871-6767c9c0d967","ios":"levelo://app?vid=56c52f0a-b41e-44de-b871-6767c9c0d967"},"vehicle_type_id":"4","last_reported":1762103312,"current_range_meters":17200,"station_id":"ce4bhf92rcd13ifvqf40","pricing_plan_id":"cebpf4jnsgd1na2vs0mg"},{"bike_id":"e7f5bc6d-4c00-409e-904d-e5b750d916a9","system_id":"levelo_inurba_marseille","lat":43.28539,"lon":5.44106,"is_reserved":false,"is_disabled":false,"rental_uris":{"android":"levelo://app?vid=e7f5bc6d-4c00-409e-904d-e5b750d916a9","ios":"levelo://app?vid=e7f5bc6d-4c00-409e-904d-e5b750d916a9"},"vehicle_type_id":"4","last_reported":1762103312,"current_range_meters":17200,"station_id":"st_d3j3df2ikq2c7380ej80","pricing_plan_id":"cebpf4jnsgd1na2vs0mg"},{"bike_id":"4c2e795a-4ac2-4fba-b47e-7412c196e673","system_id":"levelo_inurba_marseille","lat":43.32115,"lon":5.36772,"is_reserved":false,"is_disabled":false,"rental_uris":{"android":"levelo://app?vid=4c2e795a-4ac2-4fba-b47e-7412c196e673","ios":"levelo://app?vid=4c2e795a-4ac2-4fba-b47e-7412c196e673"},"vehicle_type_id":"4","last_reported":1762103312,"current_range_meters":17200,"station_id":"ce4bhrh2rcd13ifvqhug","pricing_plan_id":"cebpf4jnsgd1na2vs0mg"},{"bike_id":"b2514755-0f11-4833-b225-7d1f8289efa4","system_id":"levelo_inurba_marseille","lat":43.22936,"lon":5.35369,"is_reserved":false,"is_disabled":false,"rental_uris":{"android":"levelo://app?vid=b2514755-0f11-4833-b225-7d1f8289efa4","ios":"levelo://app?vid=b2514755-0f11-4833-b225-7d1f8289efa4"},"vehicle_type_id":"4","last_reported":1762103312,"current_range_meters":17200,"station_id":"cpo3532slgdg3j2ikp40","pricing_plan_id":"cebpf4jnsgd1na2vs0mg"},{"bike_id":"cb6c36c2-4646-44ee-b9d1-9f2d0dee0a1f","system_id":"levelo_inurba_marseille","lat":43.241364,"lon":5.378736,"is_reserved":false,"is_disabled":false,"rental_uris":{"android":"levelo://app?vid=cb6c36c2-4646-44ee-b9d1-9f2d0dee0a1f","ios":"levelo://app?vid=cb6c36c2-4646-44ee-b9d1-9f2d0dee0a1f"},"vehicle_type_id":"4","last_reported":1762103312,"current_range_meters":17200,"station_id":"ce4bh0p2rcd13ifvqd80","pricing_plan_id":"cebpf4jnsgd1na2vs0mg"},{"bike_id":"4316ebb6-af9e-414e-ba87-072103d4da75","system_id":"levelo_inurba_marseille","lat":43.33528,"lon":5.39752,"is_reserved":false,"is_disabled":false,"rental_uris":{"android":"levelo://app?vid=4316ebb6-af9e-414e-ba87-072103d4da75","ios":"levelo://app?vid=4316ebb6-af9e-414e-ba87-072103d4da75"},"vehicle_type_id":"4","last_reported":1762103312,"current_range_meters":17200,"station_id":"","pricing_plan_id":"cebpf4jnsgd1na2vs0mg"},{"bike_id":"36459938-6c95-4b4c-a1a2-3e0f1fc043f2","system_id":"levelo_inurba_marseille","lat":43.29262,"lon":5.40918,"is_reserved":false,"is_disabled":false,"rental_uris":{"android":"levelo://app?vid=36459938-6c95-4b4c-a1a2-3e0f1fc043f2","ios":"levelo://app?vid=36459938-6c95-4b4c-a1a2-3e0f1fc043f2"},"vehicle_type_id":"4","last_reported":1762103312,"current_range_meters":17200,"station_id":"ce4bh192rcd13ifvqdc0","pricing_plan_id":"cebpf4jnsgd1na2vs0mg"},{"bike_id":"bc97e72b-f479-4cfb-ba90-458ce1432bd8","system_id":"levelo_inurba_marseille","lat":43.302967,"lon":5.377,"is_reserved":false,"is_disabled":true,"rental_uris":{"android":"levelo://app?vid=bc97e72b-f479-4cfb-ba90-458ce1432bd8","ios":"levelo://app?vid=bc97e72b-f479-4cfb-ba90-458ce1432bd8"},"vehicle_type_id":"4","last_reported":1762103312,"current_range_meters":17200,"station_id":"ce4bguh2rcd13ifvqcj0","pricing_plan_id":"cebpf4jnsgd1na2vs0mg"},{"bike_id":"ba8b4c9a-b12c-4a72-9794-a260a35ff235","system_id":"levelo_inurba_marseille","lat":43.23956,"lon":5.36645,"is_reserved":false,"is_disabled":false,"rental_uris":{"android":"levelo://app?vid=ba8b4c9a-b12c-4a72-9794-a260a35ff235","ios":"levelo://app?vid=ba8b4c9a-b12c-4a72-9794-a260a35ff235"},"vehicle_type_id":"4","last_reported":1762103312,"current_range_meters":17200,"station_id":"ce4bhi12rcd13ifvqfp0","pricing_plan_id":"cebpf4jnsgd1na2vs0mg"},{"bike_id":"fa26f30c-f4d8-4ef3-973f-f6b6f33bca8a","system_id":"levelo_inurba_marseille","lat":43.32982,"lon":5.4036,"is_reserved":false,"is_disabled":false,"rental_uris":{"android":"levelo://app?vid=fa26f30c-f4d8-4ef3-973f-f6b6f33bca8a","ios":"levelo://app?vid=fa26f30c-f4d8-4ef3-973f-f6b6f33bca8a"},"vehicle_type_id":"4","last_reported":1762103312,"current_range_meters":17200,"station_id":"","pricing_plan_id":"cebpf4jnsgd1na2vs0mg"},{"bike_id":"9b788760-a60f-4639-961f-e02be55156e8","system_id":"levelo_inurba_marseille","lat":43.29052,"lon":5.35913,"is_reserved":false,"is_disabled":false,"rental_uris":{"android":"levelo://app?vid=9b788760-a60f-4639-961f-e02be55156e8","ios":"levelo://app?vid=9b788760-a60f-4639-961f-e02be55156e8"},"vehicle_type_id":"4","last_reported":1762103312,"current_range_meters":17600,"station_id":"ce4bha92rcd13ifvqeg0","pricing_plan_id":"cebpf4jnsgd1na2vs0mg"},{"bike_id":"a0a724b1-d1e8-4dcf-b940-10f63e2008db","system_id":"levelo_inurba_marseille","lat":43.28353,"lon":5.34969,"is_reserved":false,"is_disabled":false,"rental_uris":{"android":"levelo://app?vid=a0a724b1-d1e8-4dcf-b940-10f63e2008db","ios":"levelo://app?vid=a0a724b1-d1e8-4dcf-b940-10f63e2008db"},"vehicle_type_id":"4","last_reported":1762103312,"current_range_meters":17600,"station_id":"ce4bhbh2rcd13ifvqepg","pricing_plan_id":"cebpf4jnsgd1na2vs0mg"},{"bike_id":"24905811-f9ad-494d-8e18-ca5626363886","system_id":"levelo_inurba_marseille","lat":43.27912,"lon":5.39579,"is_reserved":false,"is_disabled":false,"rental_uris":{"android":"levelo://app?vid=24905811-f9ad-494d-8e18-ca5626363886","ios":"levelo://app?vid=24905811-f9ad-494d-8e18-ca5626363886"},"vehicle_type_id":"4","last_reported":1762103312,"current_range_meters":17600,"station_id":"ce4bhf92rcd13ifvqf40","pricing_plan_id":"cebpf4jnsgd1na2vs0mg"},{"bike_id":"eb37c568-c2ee-4632-9af3-8a2aea623250","system_id":"levelo_inurba_marseille","lat":43.24807,"lon":5.37459,"is_reserved":false,"is_disabled":false,"rental_uris":{"android":"levelo://app?vid=eb37c568-c2ee-4632-9af3-8a2aea623250","ios":"levelo://app?vid=eb37c568-c2ee-4632-9af3-8a2aea623250"},"vehicle_type_id":"4","last_reported":1762103312,"current_range_meters":17600,"station_id":"ce4bhgh2rcd13ifvqfb0","pricing_plan_id":"cebpf4jnsgd1na2vs0mg"},{"bike_id":"75214922-1e7d-4be3-84ae-23b8d8279199","system_id":"levelo_inurba_marseille","lat":43.324599,"lon":5.3656,"is_reserved":false,"is_disabled":false,"rental_uris":{"android":"levelo://app?vid=75214922-1e7d-4be3-84ae-23b8d8279199","ios":"levelo://app?vid=75214922-1e7d-4be3-84ae-23b8d8279199"},"vehicle_type_id":"4","last_reported":1762103312,"current_range_meters":17600,"station_id":"ce4bhs12rcd13ifvqhvg","pricing_plan_id":"cebpf4jnsgd1na2vs0mg"},{"bike_id":"cfc27691-61f7-4b7d-9c2b-fa331c214f26","system_id":"levelo_inurba_marseille","lat":43.280335,"lon":5.369477,"is_reserved":false,"is_disabled":false,"rental_uris":{"android":"levelo://app?vid=cfc27691-61f7-4b7d-9c2b-fa331c214f26","ios":"levelo://app?vid=cfc27691-61f7-4b7d-9c2b-fa331c214f26"},"vehicle_type_id":"4","last_reported":1762103312,"current_range_meters":17600,"station_id":"ce4bha12rcd13ifvqef0","pricing_plan_id":"cebpf4jnsgd1na2vs0mg"},{"bike_id":"ef3051ac-87a4-400e-a432-5bfc2a83a3e3","system_id":"levelo_inurba_marseille","lat":43.324708,"lon":5.365633,"is_reserved":false,"is_disabled":false,"rental_uris":{"android":"levelo://app?vid=ef3051ac-87a4-400e-a432-5bfc2a83a3e3","ios":"levelo://app?vid=ef3051ac-87a4-400e-a432-5bfc2a83a3e3"},"vehicle_type_id":"4","last_reported":1762103312,"current_range_meters":17600,"station_id":"ce4bhs12rcd13ifvqhvg","pricing_plan_id":"cebpf4jnsgd1na2vs0mg"},{"bike_id":"054e5513-a18a-4fec-bab2-96a168188b7d","system_id":"levelo_inurba_marseille","lat":43.31178,"lon":5.3737,"is_reserved":false,"is_disabled":false,"rental_uris":{"android":"levelo://app?vid=054e5513-a18a-4fec-bab2-96a168188b7d","ios":"levelo://app?vid=054e5513-a18a-4fec-bab2-96a168188b7d"},"vehicle_type_id":"4","last_reported":1762103312,"current_range_meters":17600,"station_id":"","pricing_plan_id":"cebpf4jnsgd1na2vs0mg"},{"bike_id":"1a9255c3-f809-427d-b153-cdb99d824189","system_id":"levelo_inurba_marseille","lat":43.24948,"lon":5.40502,"is_reserved":false,"is_disabled":false,"rental_uris":{"android":"levelo://app?vid=1a9255c3-f809-427d-b153-cdb99d824189","ios":"levelo://app?vid=1a9255c3-f809-427d-b153-cdb99d824189"},"vehicle_type_id":"4","last_reported":1762103312,"current_range_meters":17600,"station_id":"st_d2ngiaodas8pm72gd1h0","pricing_plan_id":"cebpf4jnsgd1na2vs0mg"},{"bike_id":"968313c4-7603-443c-995c-94be4e41f97c","system_id":"levelo_inurba_marseille","lat":43.30533,"lon":5.38427,"is_reserved":false,"is_disabled":false,"rental_uris":{"android":"levelo://app?vid=968313c4-7603-443c-995c-94be4e41f97c","ios":"levelo://app?vid=968313c4-7603-443c-995c-94be4e41f97c"},"vehicle_type_id":"4","last_reported":1762103312,"current_range_meters":17600,"station_id":"ce4bgg92rcd13ifvqb30","pricing_plan_id":"cebpf4jnsgd1na2vs0mg"},{"bike_id":"dc59a6e8-3473-4c9d-b06d-4f3d43b9a772","system_id":"levelo_inurba_marseille","lat":43.2841,"lon":5.37528,"is_reserved":false,"is_disabled":false,"rental_uris":{"android":"levelo://app?vid=dc59a6e8-3473-4c9d-b06d-4f3d43b9a772","ios":"levelo://app?vid=dc59a6e8-3473-4c9d-b06d-4f3d43b9a772"},"vehicle_type_id":"4","last_reported":1762103312,"current_range_meters":18000,"station_id":"ce4bh412rcd13ifvqds0","pricing_plan_id":"cebpf4jnsgd1na2vs0mg"},{"bike_id":"32d4a401-7eac-4706-9e22-d4c2a7e55b17","system_id":"levelo_inurba_marseille","lat":43.24642,"lon":5.43144,"is_reserved":false,"is_disabled":false,"rental_uris":{"android":"levelo://app?vid=32d4a401-7eac-4706-9e22-d4c2a7e55b17","ios":"levelo://app?vid=32d4a401-7eac-4706-9e22-d4c2a7e55b17"},"vehicle_type_id":"4","last_reported":1762103312,"current_range_meters":18000,"station_id":"st_d2m6c4gdas8pm72e190g","pricing_plan_id":"cebpf4jnsgd1na2vs0mg"},{"bike_id":"2457a6da-e737-4e7a-9c85-e9723cf378b9","system_id":"levelo_inurba_marseille","lat":43.2718,"lon":5.40996,"is_reserved":false,"is_disabled":false,"rental_uris":{"android":"levelo://app?vid=2457a6da-e737-4e7a-9c85-e9723cf378b9","ios":"levelo://app?vid=2457a6da-e737-4e7a-9c85-e9723cf378b9"},"vehicle_type_id":"4","last_reported":1762103312,"current_range_meters":18000,"station_id":"ce4bhl12rcd13ifvqgf0","pricing_plan_id":"cebpf4jnsgd1na2vs0mg"},{"bike_id":"06756d68-f601-4313-a049-fec54d37d722","system_id":"levelo_inurba_marseille","lat":43.336107,"lon":5.410388,"is_reserved":false,"is_disabled":false,"rental_uris":{"android":"levelo://app?vid=06756d68-f601-4313-a049-fec54d37d722","ios":"levelo://app?vid=06756d68-f601-4313-a049-fec54d37d722"},"vehicle_type_id":"4","last_reported":1762103312,"current_range_meters":18000,"station_id":"ce4bhq92rcd13ifvqhkg","pricing_plan_id":"cebpf4jnsgd1na2vs0mg"},{"bike_id":"4c4b8bcf-4ef8-4551-8b0c-0892f8af6559","system_id":"levelo_inurba_marseille","lat":43.22571,"lon":5.41628,"is_reserved":false,"is_disabled":false,"rental_uris":{"android":"levelo://app?vid=4c4b8bcf-4ef8-4551-8b0c-0892f8af6559","ios":"levelo://app?vid=4c4b8bcf-4ef8-4551-8b0c-0892f8af6559"},"vehicle_type_id":"4","last_reported":1762103312,"current_range_meters":18000,"station_id":"st_d2o4gvlbi1j2169b742g","pricing_plan_id":"cebpf4jnsgd1na2vs0mg"},{"bike_id":"1ab1e346-50ff-483a-8cdf-5ecbca63e230","system_id":"levelo_inurba_marseille","lat":43.29964,"lon":5.385,"is_reserved":false,"is_disabled":false,"rental_uris":{"android":"levelo://app?vid=1ab1e346-50ff-483a-8cdf-5ecbca63e230","ios":"levelo://app?vid=1ab1e346-50ff-483a-8cdf-5ecbca63e230"},"vehicle_type_id":"4","last_reported":1762103312,"current_range_meters":18000,"station_id":"ce4bgj92rcd13ifvqbd0","pricing_plan_id":"cebpf4jnsgd1na2vs0mg"},{"bike_id":"1b1e71cc-c221-4e91-89c8-2d987f944d9c","system_id":"levelo_inurba_marseille","lat":43.24168,"lon":5.36417,"is_reserved":false,"is_disabled":true,"rental_uris":{"android":"levelo://app?vid=1b1e71cc-c221-4e91-89c8-2d987f944d9c","ios":"levelo://app?vid=1b1e71cc-c221-4e91-89c8-2d987f944d9c"},"vehicle_type_id":"4","last_reported":1762103312,"current_range_meters":18000,"station_id":"cpo36qri1sfpv3e86is0","pricing_plan_id":"cebpf4jnsgd1na2vs0mg"},{"bike_id":"45178dd9-b960-4161-871b-52bd5ff2bc66","system_id":"levelo_inurba_marseille","lat":43.25516,"lon":5.37663,"is_reserved":false,"is_disabled":false,"rental_uris":{"android":"levelo://app?vid=45178dd9-b960-4161-871b-52bd5ff2bc66","ios":"levelo://app?vid=45178dd9-b960-4161-871b-52bd5ff2bc66"},"vehicle_type_id":"4","last_reported":1762103312,"current_range_meters":18000,"station_id":"ce4bhh12rcd13ifvqff0","pricing_plan_id":"cebpf4jnsgd1na2vs0mg"},{"bike_id":"7c2e1dd0-781f-4876-a060-0d576f2acc81","system_id":"levelo_inurba_marseille","lat":43.29847,"lon":5.36284,"is_reserved":false,"is_disabled":false,"rental_uris":{"android":"levelo://app?vid=7c2e1dd0-781f-4876-a060-0d576f2acc81","ios":"levelo://app?vid=7c2e1dd0-781f-4876-a060-0d576f2acc81"},"vehicle_type_id":"4","last_reported":1762103312,"current_range_meters":18000,"station_id":"ce4bgpp2rcd13ifvqc3g","pricing_plan_id":"cebpf4jnsgd1na2vs0mg"},{"bike_id":"9cf7e28f-7b0d-4c2c-a2b9-f3633fadfc11","system_id":"levelo_inurba_marseille","lat":43.318793,"lon":5.407493,"is_reserved":false,"is_disabled":false,"rental_uris":{"android":"levelo://app?vid=9cf7e28f-7b0d-4c2c-a2b9-f3633fadfc11","ios":"levelo://app?vid=9cf7e28f-7b0d-4c2c-a2b9-f3633fadfc11"},"vehicle_type_id":"4","last_reported":1762103312,"current_range_meters":18000,"station_id":"ce4bhq12rcd13ifvqhig","pricing_plan_id":"cebpf4jnsgd1na2vs0mg"},{"bike_id":"88a37c3f-2822-4e65-9019-f92712cd5915","system_id":"levelo_inurba_marseille","lat":43.21192,"lon":5.350775,"is_reserved":false,"is_disabled":true,"rental_uris":{"android":"levelo://app?vid=88a37c3f-2822-4e65-9019-f92712cd5915","ios":"levelo://app?vid=88a37c3f-2822-4e65-9019-f92712cd5915"},"vehicle_type_id":"4","last_reported":1762103312,"current_range_meters":18000,"station_id":"st_cvj6sg6p6f1abm77japg","pricing_plan_id":"cebpf4jnsgd1na2vs0mg"},{"bike_id":"9a8d2278-1d65-477b-998f-ae9ab69ae5ff","system_id":"levelo_inurba_marseille","lat":43.292554,"lon":5.384217,"is_reserved":false,"is_disabled":false,"rental_uris":{"android":"levelo://app?vid=9a8d2278-1d65-477b-998f-ae9ab69ae5ff","ios":"levelo://app?vid=9a8d2278-1d65-477b-998f-ae9ab69ae5ff"},"vehicle_type_id":"4","last_reported":1762103312,"current_range_meters":18000,"station_id":"ce4bh692rcd13ifvqea0","pricing_plan_id":"cebpf4jnsgd1na2vs0mg"},{"bike_id":"c52b90b6-73b9-44d3-8027-ba05c1b92921","system_id":"levelo_inurba_marseille","lat":43.30647,"lon":5.40102,"is_reserved":false,"is_disabled":false,"rental_uris":{"android":"levelo://app?vid=c52b90b6-73b9-44d3-8027-ba05c1b92921","ios":"levelo://app?vid=c52b90b6-73b9-44d3-8027-ba05c1b92921"},"vehicle_type_id":"4","last_reported":1762103312,"current_range_meters":18000,"station_id":"ce4bh112rcd13ifvqda0","pricing_plan_id":"cebpf4jnsgd1na2vs0mg"},{"bike_id":"387ed5c2-1e7e-4305-a2b0-478fe0c08e48","system_id":"levelo_inurba_marseille","lat":43.29534,"lon":5.38543,"is_reserved":false,"is_disabled":false,"rental_uris":{"android":"levelo://app?vid=387ed5c2-1e7e-4305-a2b0-478fe0c08e48","ios":"levelo://app?vid=387ed5c2-1e7e-4305-a2b0-478fe0c08e48"},"vehicle_type_id":"4","last_reported":1762103312,"current_range_meters":18000,"station_id":"ce4bgih2rcd13ifvqba0","pricing_plan_id":"cebpf4jnsgd1na2vs0mg"},{"bike_id":"14e0fcd6-488b-4da1-b9ec-2f06247e9652","system_id":"levelo_inurba_marseille","lat":43.30748,"lon":5.42464,"is_reserved":false,"is_disabled":false,"rental_uris":{"android":"levelo://app?vid=14e0fcd6-488b-4da1-b9ec-2f06247e9652","ios":"levelo://app?vid=14e0fcd6-488b-4da1-b9ec-2f06247e9652"},"vehicle_type_id":"4","last_reported":1762103312,"current_range_meters":18800,"station_id":"st_cvj6ca6bvosntc0bfgr0","pricing_plan_id":"cebpf4jnsgd1na2vs0mg"},{"bike_id":"580e559c-3107-42fc-9c6d-a7d94bd39d44","system_id":"levelo_inurba_marseille","lat":43.28524,"lon":5.44113,"is_reserved":false,"is_disabled":false,"rental_uris":{"android":"levelo://app?vid=580e559c-3107-42fc-9c6d-a7d94bd39d44","ios":"levelo://app?vid=580e559c-3107-42fc-9c6d-a7d94bd39d44"},"vehicle_type_id":"4","last_reported":1762103312,"current_range_meters":18800,"station_id":"st_d3j3df2ikq2c7380ej80","pricing_plan_id":"cebpf4jnsgd1na2vs0mg"},{"bike_id":"189061b8-6b1b-4370-8312-cb00ba68744c","system_id":"levelo_inurba_marseille","lat":43.29795,"lon":5.3934,"is_reserved":false,"is_disabled":false,"rental_uris":{"android":"levelo://app?vid=189061b8-6b1b-4370-8312-cb00ba68744c","ios":"levelo://app?vid=189061b8-6b1b-4370-8312-cb00ba68744c"},"vehicle_type_id":"4","last_reported":1762103312,"current_range_meters":18800,"station_id":"chh1huq6cuj3fo74tm60","pricing_plan_id":"cebpf4jnsgd1na2vs0mg"},{"bike_id":"03fb121a-ef4f-423c-9354-65aa0b6c3950","system_id":"levelo_inurba_marseille","lat":43.29595,"lon":5.38105,"is_reserved":false,"is_disabled":false,"rental_uris":{"android":"levelo://app?vid=03fb121a-ef4f-423c-9354-65aa0b6c3950","ios":"levelo://app?vid=03fb121a-ef4f-423c-9354-65aa0b6c3950"},"vehicle_type_id":"4","last_reported":1762103312,"current_range_meters":18800,"station_id":"ce4bgl12rcd13ifvqbo0","pricing_plan_id":"cebpf4jnsgd1na2vs0mg"},{"bike_id":"17ef1335-63de-494a-b1de-b4ebcd5dd674","system_id":"levelo_inurba_marseille","lat":43.3253,"lon":5.41468,"is_reserved":false,"is_disabled":false,"rental_uris":{"android":"levelo://app?vid=17ef1335-63de-494a-b1de-b4ebcd5dd674","ios":"levelo://app?vid=17ef1335-63de-494a-b1de-b4ebcd5dd674"},"vehicle_type_id":"4","last_reported":1762103312,"current_range_meters":18800,"station_id":"ce4bhq12rcd13ifvqhhg","pricing_plan_id":"cebpf4jnsgd1na2vs0mg"},{"bike_id":"70436705-cc68-4a91-976b-1d3ca8ff73be","system_id":"levelo_inurba_marseille","lat":43.27175,"lon":5.40996,"is_reserved":false,"is_disabled":false,"rental_uris":{"android":"levelo://app?vid=70436705-cc68-4a91-976b-1d3ca8ff73be","ios":"levelo://app?vid=70436705-cc68-4a91-976b-1d3ca8ff73be"},"vehicle_type_id":"4","last_reported":1762103312,"current_range_meters":18800,"station_id":"ce4bhl12rcd13ifvqgf0","pricing_plan_id":"cebpf4jnsgd1na2vs0mg"},{"bike_id":"03518348-a473-43a5-aebe-4dbf2f87920e","system_id":"levelo_inurba_marseille","lat":43.284851,"lon":5.378887,"is_reserved":false,"is_disabled":false,"rental_uris":{"android":"levelo://app?vid=03518348-a473-43a5-aebe-4dbf2f87920e","ios":"levelo://app?vid=03518348-a473-43a5-aebe-4dbf2f87920e"},"vehicle_type_id":"4","last_reported":1762103312,"current_range_meters":18800,"station_id":"","pricing_plan_id":"cebpf4jnsgd1na2vs0mg"},{"bike_id":"864ba0be-68d0-407a-9050-41319c02f996","system_id":"levelo_inurba_marseille","lat":43.27808,"lon":5.40715,"is_reserved":false,"is_disabled":false,"rental_uris":{"android":"levelo://app?vid=864ba0be-68d0-407a-9050-41319c02f996","ios":"levelo://app?vid=864ba0be-68d0-407a-9050-41319c02f996"},"vehicle_type_id":"4","last_reported":1762103312,"current_range_meters":18800,"station_id":"ce4bhnh2rcd13ifvqgtg","pricing_plan_id":"cebpf4jnsgd1na2vs0mg"},{"bike_id":"a8ec203b-d616-4825-acb4-ec9a8037e9f2","system_id":"levelo_inurba_marseille","lat":43.28137,"lon":5.38317,"is_reserved":false,"is_disabled":false,"rental_uris":{"android":"levelo://app?vid=a8ec203b-d616-4825-acb4-ec9a8037e9f2","ios":"levelo://app?vid=a8ec203b-d616-4825-acb4-ec9a8037e9f2"},"vehicle_type_id":"4","last_reported":1762103312,"current_range_meters":18800,"station_id":"","pricing_plan_id":"cebpf4jnsgd1na2vs0mg"},{"bike_id":"830d83a4-def7-4eb2-8003-79d54a53b775","system_id":"levelo_inurba_marseille","lat":43.296,"lon":5.38095,"is_reserved":false,"is_disabled":false,"rental_uris":{"android":"levelo://app?vid=830d83a4-def7-4eb2-8003-79d54a53b775","ios":"levelo://app?vid=830d83a4-def7-4eb2-8003-79d54a53b775"},"vehicle_type_id":"4","last_reported":1762103312,"current_range_meters":18800,"station_id":"ce4bgl12rcd13ifvqbo0","pricing_plan_id":"cebpf4jnsgd1na2vs0mg"},{"bike_id":"600594a6-be69-4e43-ad17-c2d891da9a62","system_id":"levelo_inurba_marseille","lat":43.29026,"lon":5.38172,"is_reserved":false,"is_disabled":true,"rental_uris":{"android":"levelo://app?vid=600594a6-be69-4e43-ad17-c2d891da9a62","ios":"levelo://app?vid=600594a6-be69-4e43-ad17-c2d891da9a62"},"vehicle_type_id":"4","last_reported":1762103312,"current_range_meters":19200,"station_id":"ce4bh4p2rcd13ifvqe1g","pricing_plan_id":"cebpf4jnsgd1na2vs0mg"},{"bike_id":"145adec1-02ad-4d16-a5dd-42bf80721343","system_id":"levelo_inurba_marseille","lat":43.30094,"lon":5.38418,"is_reserved":false,"is_disabled":false,"rental_uris":{"android":"levelo://app?vid=145adec1-02ad-4d16-a5dd-42bf80721343","ios":"levelo://app?vid=145adec1-02ad-4d16-a5dd-42bf80721343"},"vehicle_type_id":"4","last_reported":1762103312,"current_range_meters":19200,"station_id":"","pricing_plan_id":"cebpf4jnsgd1na2vs0mg"},{"bike_id":"4bd98db7-5b5c-4641-abd2-41b774b4cb3e","system_id":"levelo_inurba_marseille","lat":43.2984,"lon":5.36279,"is_reserved":false,"is_disabled":false,"rental_uris":{"android":"levelo://app?vid=4bd98db7-5b5c-4641-abd2-41b774b4cb3e","ios":"levelo://app?vid=4bd98db7-5b5c-4641-abd2-41b774b4cb3e"},"vehicle_type_id":"4","last_reported":1762103312,"current_range_meters":19200,"station_id":"ce4bgpp2rcd13ifvqc3g","pricing_plan_id":"cebpf4jnsgd1na2vs0mg"},{"bike_id":"163ac26a-bd88-44ac-bac9-472793e7ac13","system_id":"levelo_inurba_marseille","lat":43.255,"lon":5.37653,"is_reserved":false,"is_disabled":false,"rental_uris":{"android":"levelo://app?vid=163ac26a-bd88-44ac-bac9-472793e7ac13","ios":"levelo://app?vid=163ac26a-bd88-44ac-bac9-472793e7ac13"},"vehicle_type_id":"4","last_reported":1762103312,"current_range_meters":19200,"station_id":"ce4bhh12rcd13ifvqff0","pricing_plan_id":"cebpf4jnsgd1na2vs0mg"},{"bike_id":"7aef1029-9880-4ac1-bc62-5df1ae769dad","system_id":"levelo_inurba_marseille","lat":43.31016,"lon":5.37048,"is_reserved":false,"is_disabled":false,"rental_uris":{"android":"levelo://app?vid=7aef1029-9880-4ac1-bc62-5df1ae769dad","ios":"levelo://app?vid=7aef1029-9880-4ac1-bc62-5df1ae769dad"},"vehicle_type_id":"4","last_reported":1762103312,"current_range_meters":19200,"station_id":"","pricing_plan_id":"cebpf4jnsgd1na2vs0mg"},{"bike_id":"05d6a3f7-b83a-4da1-9593-ef5015b8f8ec","system_id":"levelo_inurba_marseille","lat":43.279508,"lon":5.399368,"is_reserved":false,"is_disabled":false,"rental_uris":{"android":"levelo://app?vid=05d6a3f7-b83a-4da1-9593-ef5015b8f8ec","ios":"levelo://app?vid=05d6a3f7-b83a-4da1-9593-ef5015b8f8ec"},"vehicle_type_id":"4","last_reported":1762103312,"current_range_meters":19200,"station_id":"","pricing_plan_id":"cebpf4jnsgd1na2vs0mg"},{"bike_id":"943f6ffd-cc46-4c1a-8189-97a36b8bdcb6","system_id":"levelo_inurba_marseille","lat":43.28699,"lon":5.37394,"is_reserved":false,"is_disabled":false,"rental_uris":{"android":"levelo://app?vid=943f6ffd-cc46-4c1a-8189-97a36b8bdcb6","ios":"levelo://app?vid=943f6ffd-cc46-4c1a-8189-97a36b8bdcb6"},"vehicle_type_id":"4","last_reported":1762103312,"current_range_meters":19600,"station_id":"ce4bh3p2rcd13ifvqdq0","pricing_plan_id":"cebpf4jnsgd1na2vs0mg"},{"bike_id":"782a02c9-f51b-4b61-89b2-ec2ecf7d0e40","system_id":"levelo_inurba_marseille","lat":43.24946,"lon":5.40506,"is_reserved":false,"is_disabled":false,"rental_uris":{"android":"levelo://app?vid=782a02c9-f51b-4b61-89b2-ec2ecf7d0e40","ios":"levelo://app?vid=782a02c9-f51b-4b61-89b2-ec2ecf7d0e40"},"vehicle_type_id":"4","last_reported":1762103312,"current_range_meters":19600,"station_id":"st_d2ngiaodas8pm72gd1h0","pricing_plan_id":"cebpf4jnsgd1na2vs0mg"},{"bike_id":"5eee67bb-3614-4f3b-ab22-554d031d3012","system_id":"levelo_inurba_marseille","lat":43.25725,"lon":5.41123,"is_reserved":false,"is_disabled":false,"rental_uris":{"android":"levelo://app?vid=5eee67bb-3614-4f3b-ab22-554d031d3012","ios":"levelo://app?vid=5eee67bb-3614-4f3b-ab22-554d031d3012"},"vehicle_type_id":"4","last_reported":1762103312,"current_range_meters":19600,"station_id":"ce4bhkp2rcd13ifvqgd0","pricing_plan_id":"cebpf4jnsgd1na2vs0mg"},{"bike_id":"30376393-3c5b-4f5a-b840-ac8618b85038","system_id":"levelo_inurba_marseille","lat":43.29033,"lon":5.39983,"is_reserved":false,"is_disabled":false,"rental_uris":{"android":"levelo://app?vid=30376393-3c5b-4f5a-b840-ac8618b85038","ios":"levelo://app?vid=30376393-3c5b-4f5a-b840-ac8618b85038"},"vehicle_type_id":"4","last_reported":1762103312,"current_range_meters":19600,"station_id":"ce4bh392rcd13ifvqdm0","pricing_plan_id":"cebpf4jnsgd1na2vs0mg"},{"bike_id":"5eb9db26-abf8-4b3a-a40c-77af04cc957e","system_id":"levelo_inurba_marseille","lat":43.24162,"lon":5.36406,"is_reserved":false,"is_disabled":false,"rental_uris":{"android":"levelo://app?vid=5eb9db26-abf8-4b3a-a40c-77af04cc957e","ios":"levelo://app?vid=5eb9db26-abf8-4b3a-a40c-77af04cc957e"},"vehicle_type_id":"4","last_reported":1762103312,"current_range_meters":19600,"station_id":"cpo36qri1sfpv3e86is0","pricing_plan_id":"cebpf4jnsgd1na2vs0mg"},{"bike_id":"59e8d150-e278-4fb8-a716-23d0409678e9","system_id":"levelo_inurba_marseille","lat":43.255,"lon":5.3765,"is_reserved":false,"is_disabled":false,"rental_uris":{"android":"levelo://app?vid=59e8d150-e278-4fb8-a716-23d0409678e9","ios":"levelo://app?vid=59e8d150-e278-4fb8-a716-23d0409678e9"},"vehicle_type_id":"4","last_reported":1762103312,"current_range_meters":19600,"station_id":"ce4bhh12rcd13ifvqff0","pricing_plan_id":"cebpf4jnsgd1na2vs0mg"},{"bike_id":"7697f83b-11c1-4978-89f1-e9d9aca50ac7","system_id":"levelo_inurba_marseille","lat":43.24675,"lon":5.38173,"is_reserved":false,"is_disabled":true,"rental_uris":{"android":"levelo://app?vid=7697f83b-11c1-4978-89f1-e9d9aca50ac7","ios":"levelo://app?vid=7697f83b-11c1-4978-89f1-e9d9aca50ac7"},"vehicle_type_id":"4","last_reported":1762103312,"current_range_meters":19600,"station_id":"ce4bhih2rcd13ifvqfr0","pricing_plan_id":"cebpf4jnsgd1na2vs0mg"},{"bike_id":"c88172d8-b006-416c-bb90-899694f666d2","system_id":"levelo_inurba_marseille","lat":43.29025,"lon":5.38131,"is_reserved":false,"is_disabled":false,"rental_uris":{"android":"levelo://app?vid=c88172d8-b006-416c-bb90-899694f666d2","ios":"levelo://app?vid=c88172d8-b006-416c-bb90-899694f666d2"},"vehicle_type_id":"4","last_reported":1762103312,"current_range_meters":19600,"station_id":"ce4bh4p2rcd13ifvqe1g","pricing_plan_id":"cebpf4jnsgd1na2vs0mg"},{"bike_id":"78fd86d5-da4c-4278-affd-7283f0275d72","system_id":"levelo_inurba_marseille","lat":43.27834,"lon":5.40731,"is_reserved":false,"is_disabled":false,"rental_uris":{"android":"levelo://app?vid=78fd86d5-da4c-4278-affd-7283f0275d72","ios":"levelo://app?vid=78fd86d5-da4c-4278-affd-7283f0275d72"},"vehicle_type_id":"4","last_reported":1762103312,"current_range_meters":19600,"station_id":"ce4bhnh2rcd13ifvqgtg","pricing_plan_id":"cebpf4jnsgd1na2vs0mg"},{"bike_id":"6bef179c-0d38-4d2c-8ab3-d480701b31cb","system_id":"levelo_inurba_marseille","lat":43.27997,"lon":5.40014,"is_reserved":false,"is_disabled":false,"rental_uris":{"android":"levelo://app?vid=6bef179c-0d38-4d2c-8ab3-d480701b31cb","ios":"levelo://app?vid=6bef179c-0d38-4d2c-8ab3-d480701b31cb"},"vehicle_type_id":"4","last_reported":1762103312,"current_range_meters":19600,"station_id":"ce4bho92rcd13ifvqh4g","pricing_plan_id":"cebpf4jnsgd1na2vs0mg"},{"bike_id":"2919fe27-cd0f-4d33-a0d5-c120c66c283e","system_id":"levelo_inurba_marseille","lat":43.29769,"lon":5.38093,"is_reserved":false,"is_disabled":false,"rental_uris":{"android":"levelo://app?vid=2919fe27-cd0f-4d33-a0d5-c120c66c283e","ios":"levelo://app?vid=2919fe27-cd0f-4d33-a0d5-c120c66c283e"},"vehicle_type_id":"4","last_reported":1762103312,"current_range_meters":19600,"station_id":"ce4bgip2rcd13ifvqbb0","pricing_plan_id":"cebpf4jnsgd1na2vs0mg"},{"bike_id":"065017f9-a4e7-4c8d-9e89-4ad6b639cbf6","system_id":"levelo_inurba_marseille","lat":43.271049,"lon":5.409315,"is_reserved":false,"is_disabled":false,"rental_uris":{"android":"levelo://app?vid=065017f9-a4e7-4c8d-9e89-4ad6b639cbf6","ios":"levelo://app?vid=065017f9-a4e7-4c8d-9e89-4ad6b639cbf6"},"vehicle_type_id":"4","last_reported":1762103312,"current_range_meters":19600,"station_id":"ce4bhl12rcd13ifvqgf0","pricing_plan_id":"cebpf4jnsgd1na2vs0mg"},{"bike_id":"ac2f2e0c-7f3a-4615-95a9-755ddbeafcff","system_id":"levelo_inurba_marseille","lat":43.27372,"lon":5.36249,"is_reserved":false,"is_disabled":true,"rental_uris":{"android":"levelo://app?vid=ac2f2e0c-7f3a-4615-95a9-755ddbeafcff","ios":"levelo://app?vid=ac2f2e0c-7f3a-4615-95a9-755ddbeafcff"},"vehicle_type_id":"4","last_reported":1762103312,"current_range_meters":19600,"station_id":"ce4bhbh2rcd13ifvqeo0","pricing_plan_id":"cebpf4jnsgd1na2vs0mg"},{"bike_id":"bd374600-c19f-4468-a0d1-09e48024e059","system_id":"levelo_inurba_marseille","lat":43.304086,"lon":5.413099,"is_reserved":false,"is_disabled":false,"rental_uris":{"android":"levelo://app?vid=bd374600-c19f-4468-a0d1-09e48024e059","ios":"levelo://app?vid=bd374600-c19f-4468-a0d1-09e48024e059"},"vehicle_type_id":"4","last_reported":1762103312,"current_range_meters":19600,"station_id":"ce4bhop2rcd13ifvqh8g","pricing_plan_id":"cebpf4jnsgd1na2vs0mg"},{"bike_id":"a1247202-caf4-4378-b662-f0c99d9ef287","system_id":"levelo_inurba_marseille","lat":43.30352,"lon":5.41874,"is_reserved":false,"is_disabled":false,"rental_uris":{"android":"levelo://app?vid=a1247202-caf4-4378-b662-f0c99d9ef287","ios":"levelo://app?vid=a1247202-caf4-4378-b662-f0c99d9ef287"},"vehicle_type_id":"4","last_reported":1762103312,"current_range_meters":19600,"station_id":"ce4bhop2rcd13ifvqh7g","pricing_plan_id":"cebpf4jnsgd1na2vs0mg"},{"bike_id":"a8d0be4c-3e38-4247-b462-6e35f9043fea","system_id":"levelo_inurba_marseille","lat":43.2572,"lon":5.41105,"is_reserved":false,"is_disabled":true,"rental_uris":{"android":"levelo://app?vid=a8d0be4c-3e38-4247-b462-6e35f9043fea","ios":"levelo://app?vid=a8d0be4c-3e38-4247-b462-6e35f9043fea"},"vehicle_type_id":"4","last_reported":1762103312,"current_range_meters":19600,"station_id":"ce4bhkp2rcd13ifvqgd0","pricing_plan_id":"cebpf4jnsgd1na2vs0mg"},{"bike_id":"4f0c2a3d-e1d6-4be4-bc82-a4d53ca8cd34","system_id":"levelo_inurba_marseille","lat":43.299196,"lon":5.374689,"is_reserved":false,"is_disabled":false,"rental_uris":{"android":"levelo://app?vid=4f0c2a3d-e1d6-4be4-bc82-a4d53ca8cd34","ios":"levelo://app?vid=4f0c2a3d-e1d6-4be4-bc82-a4d53ca8cd34"},"vehicle_type_id":"4","last_reported":1762103312,"current_range_meters":20000,"station_id":"ce4bgjh2rcd13ifvqbg0","pricing_plan_id":"cebpf4jnsgd1na2vs0mg"},{"bike_id":"258d165a-449f-4925-b56e-beae8f481fb2","system_id":"levelo_inurba_marseille","lat":43.284004,"lon":5.349923,"is_reserved":false,"is_disabled":true,"rental_uris":{"android":"levelo://app?vid=258d165a-449f-4925-b56e-beae8f481fb2","ios":"levelo://app?vid=258d165a-449f-4925-b56e-beae8f481fb2"},"vehicle_type_id":"4","last_reported":1762103312,"current_range_meters":20000,"station_id":"","pricing_plan_id":"cebpf4jnsgd1na2vs0mg"},{"bike_id":"e8b28a79-d960-431b-99a8-00e81e08fcb5","system_id":"levelo_inurba_marseille","lat":43.24628,"lon":5.43148,"is_reserved":false,"is_disabled":false,"rental_uris":{"android":"levelo://app?vid=e8b28a79-d960-431b-99a8-00e81e08fcb5","ios":"levelo://app?vid=e8b28a79-d960-431b-99a8-00e81e08fcb5"},"vehicle_type_id":"4","last_reported":1762103312,"current_range_meters":20000,"station_id":"st_d2m6c4gdas8pm72e190g","pricing_plan_id":"cebpf4jnsgd1na2vs0mg"},{"bike_id":"f234ad47-0901-40bf-a06a-e46adc6b907e","system_id":"levelo_inurba_marseille","lat":43.231899,"lon":5.355552,"is_reserved":false,"is_disabled":true,"rental_uris":{"android":"levelo://app?vid=f234ad47-0901-40bf-a06a-e46adc6b907e","ios":"levelo://app?vid=f234ad47-0901-40bf-a06a-e46adc6b907e"},