{"last_updated":1700496592,"ttl":30,"version":"2.2","data":{"bikes":[{"bike_id":"f874da3e-b17e-47f0-a499-90fd16b42a65","system_id":"levelo_inurba_marseille","lat":43.31158,"lon":5.36887,"is_reserved":false,"is_disabled":false,"rental_uris":{"android":"levelo://app?vid=f874da3e-b17e-47f0-a499-90fd16b42a65","ios":"levelo://app?vid=f874da3e-b17e-47f0-a499-90fd16b42a65"},"vehicle_type_id":"4","last_reported":1700496592,"current_range_meters":0,"station_id":"","pricing_plan_id":"free"},{"bike_id":"fc17d1df-19ec-4a9c-acf7-fdc43b73a0bc","system_id":"levelo_inurba_marseille","lat":43.308428,"lon":5.368856,"is_reserved":false,"is_disabled":false,"rental_uris":{"android":"levelo://app?vid=fc17d1df-19ec-4a9c-acf7-fdc43b73a0bc","ios":"levelo://app?vid=fc17d1df-19ec-4a9c-acf7-fdc43b73a0bc"},"vehicle_type_id":"4","last_reported":1700496592,"current_range_meters":21200,"station_id":"","pricing_plan_id":"free"},{"bike_id":"61a8a4c5-a2f8-4b60-8914-c3d4c4b6a935","system_id":"levelo_inurba_marseille","lat":43.31494,"lon":5.37311,"is_reserved":false,"is_disabled":false,"rental_uris":{"android":"levelo://app?vid=61a8a4c5-a2f8-4b60-8914-c3d4c4b6a935","ios":"levelo://app?vid=61a8a4c5-a2f8-4b60-8914-c3d4c4b6a935"},"vehicle_type_id":"4","last_reported":1700496592,"current_range_meters":0,"station_id":"ce4bgt12rcd13ifvqcd0","pricing_plan_id":"free"},{"bike_id":"7b8f8ce1-6961-4472-8e52-bf917a52a7eb","system_id":"levelo_inurba_marseille","lat":43.309039,"lon":5.371797,"is_reserved":false,"is_disabled":false,"rental_uris":{"android":"levelo://app?vid=7b8f8ce1-6961-4472-8e52-bf917a52a7eb","ios":"levelo://app?vid=7b8f8ce1-6961-4472-8e52-bf917a52a7eb"},"vehicle_type_id":"4","last_reported":1700496592,"current_range_meters":30400,"station_id":"ce4bguh2rcd13ifvqckg","pricing_plan_id":"free"},{"bike_id":"f398eddb-44a4-484b-acf1-6f8766e94a46","system_id":"levelo_inurba_marseille","lat":43.3158,"lon":5.372458,"is_reserved":false,"is_disabled":false,"rental_uris":{"android":"levelo://app?vid=f398eddb-44a4-484b-acf1-6f8766e94a46","ios":"levelo://app?vid=f398eddb-44a4-484b-acf1-6f8766e94a46"},"vehicle_type_id":"4","last_reported":1700496592,"current_range_meters":16000,"station_id":"","pricing_plan_id":"free"},{"bike_id":"96735cb1-fcb3-4456-946e-8079966c4712","system_id":"levelo_inurba_marseille","lat":43.309039,"lon":5.371797,"is_reserved":false,"is_disabled":false,"rental_uris":{"android":"levelo://app?vid=96735cb1-fcb3-4456-946e-8079966c4712","ios":"levelo://app?vid=96735cb1-fcb3-4456-946e-8079966c4712"},"vehicle_type_id":"4","last_reported":1700496592,"current_range_meters":24000,"station_id":"ce4bguh2rcd13ifvqckg","pricing_plan_id":"free"},{"bike_id":"ecacab90-a2b7-4bc0-9ae0-42be90813023","system_id":"levelo_inurba_marseille","lat":43.30886,"lon":5.37201,"is_reserved":false,"is_disabled":false,"rental_uris":{"android":"levelo://app?vid=ecacab90-a2b7-4bc0-9ae0-42be90813023","ios":"levelo://app?vid=ecacab90-a2b7-4bc0-9ae0-42be90813023"},"vehicle_type_id":"4","last_reported":1700496592,"current_range_meters":29600,"station_id":"ce4bguh2rcd13ifvqckg","pricing_plan_id":"free"},{"bike_id":"3475d204-43b6-43d9-b615-ca1d0d58200e","system_id":"levelo_inurba_marseille","lat":43.30679,"lon":5.3679,"is_reserved":false,"is_disabled":false,"rental_uris":{"android":"levelo://app?vid=3475d204-43b6-43d9-b615-ca1d0d58200e","ios":"levelo://app?vid=3475d204-43b6-43d9-b615-ca1d0d58200e"},"vehicle_type_id":"4","last_reported":1700496592,"current_range_meters":6400,"station_id":"","pricing_plan_id":"free"},{"bike_id":"cd22bf67-74cc-43d5-bd12-1e1435dd4096","system_id":"levelo_inurba_marseille","lat":43.30553,"lon":5.36541,"is_reserved":false,"is_disabled":false,"rental_uris":{"android":"levelo://app?vid=cd22bf67-74cc-43d5-bd12-1e1435dd4096","ios":"levelo://app?vid=cd22bf67-74cc-43d5-bd12-1e1435dd4096"},"vehicle_type_id":"4","last_reported":1700496592,"current_range_meters":8400,"station_id":"ce4bgs12rcd13ifvqcag","pricing_plan_id":"free"},{"bike_id":"9e233418-27b0-48c0-b235-ae24a2335579","system_id":"levelo_inurba_marseille","lat":43.305714,"lon":5.365633,"is_reserved":false,"is_disabled":false,"rental_uris":{"android":"levelo://app?vid=9e233418-27b0-48c0-b235-ae24a2335579","ios":"levelo://app?vid=9e233418-27b0-48c0-b235-ae24a2335579"},"vehicle_type_id":"4","last_reported":1700496592,"current_range_meters":11200,"station_id":"ce4bgs12rcd13ifvqcag","pricing_plan_id":"free"},{"bike_id":"59700ec7-c400-4a76-a01f-31dcc70aa60a","system_id":"levelo_inurba_marseille","lat":43.30545,"lon":5.36541,"is_reserved":false,"is_disabled":false,"rental_uris":{"android":"levelo://app?vid=59700ec7-c400-4a76-a01f-31dcc70aa60a","ios":"levelo://app?vid=59700ec7-c400-4a76-a01f-31dcc70aa60a"},"vehicle_type_id":"4","last_reported":1700496592,"current_range_meters":14800,"station_id":"ce4bgs12rcd13ifvqcag","pricing_plan_id":"free"},{"bike_id":"85a0294f-fd84-4a3f-ade5-a5fae9a1ff6c","system_id":"levelo_inurba_marseille","lat":43.305326,"lon":5.367032,"is_reserved":false,"is_disabled":false,"rental_uris":{"android":"levelo://app?vid=85a0294f-fd84-4a3f-ade5-a5fae9a1ff6c","ios":"levelo://app?vid=85a0294f-fd84-4a3f-ade5-a5fae9a1ff6c"},"vehicle_type_id":"4","last_reported":1700496592,"current_range_meters":30800,"station_id":"ce4bgrp2rcd13ifvqc9g","pricing_plan_id":"free"},{"bike_id":"93a998fc-d3a3-43dc-aa67-81c98bb373b3","system_id":"levelo_inurba_marseille","lat":43.305706,"lon":5.365654,"is_reserved":false,"is_disabled":false,"rental_uris":{"android":"levelo://app?vid=93a998fc-d3a3-43dc-aa67-81c98bb373b3","ios":"levelo://app?vid=93a998fc-d3a3-43dc-aa67-81c98bb373b3"},"vehicle_type_id":"4","last_reported":1700496592,"current_range_meters":28400,"station_id":"ce4bgs12rcd13ifvqcag","pricing_plan_id":"free"},{"bike_id":"1ab10fda-0468-476c-a877-f257048f2133","system_id":"levelo_inurba_marseille","lat":43.305706,"lon":5.365654,"is_reserved":false,"is_disabled":false,"rental_uris":{"android":"levelo://app?vid=1ab10fda-0468-476c-a877-f257048f2133","ios":"levelo://app?vid=1ab10fda-0468-476c-a877-f257048f2133"},"vehicle_type_id":"4","last_reported":1700496592,"current_range_meters":31200,"station_id":"ce4bgs12rcd13ifvqcag","pricing_plan_id":"free"},{"bike_id":"b03e7659-7ec7-41ca-abc1-732fc5f62f98","system_id":"levelo_inurba_marseille","lat":43.305706,"lon":5.365654,"is_reserved":false,"is_disabled":false,"rental_uris":{"android":"levelo://app?vid=b03e7659-7ec7-41ca-abc1-732fc5f62f98","ios":"levelo://app?vid=b03e7659-7ec7-41ca-abc1-732fc5f62f98"},"vehicle_type_id":"4","last_reported":1700496592,"current_range_meters":31200,"station_id":"ce4bgs12rcd13ifvqcag","pricing_plan_id":"free"},{"bike_id":"3cb8c185-c31b-4eef-a7c6-7f786fc47019","system_id":"levelo_inurba_marseille","lat":43.310242,"lon":5.377298,"is_reserved":false,"is_disabled":false,"rental_uris":{"android":"levelo://app?vid=3cb8c185-c31b-4eef-a7c6-7f786fc47019","ios":"levelo://app?vid=3cb8c185-c31b-4eef-a7c6-7f786fc47019"},"vehicle_type_id":"4","last_reported":1700496592,"current_range_meters":15600,"station_id":"","pricing_plan_id":"free"},{"bike_id":"ace3bb47-19e8-47e0-801d-a04f316bd716","system_id":"levelo_inurba_marseille","lat":43.311131,"lon":5.377651,"is_reserved":false,"is_disabled":false,"rental_uris":{"android":"levelo://app?vid=ace3bb47-19e8-47e0-801d-a04f316bd716","ios":"levelo://app?vid=ace3bb47-19e8-47e0-801d-a04f316bd716"},"vehicle_type_id":"4","last_reported":1700496592,"current_range_meters":3200,"station_id":"ce4bgt92rcd13ifvqcg0","pricing_plan_id":"free"},{"bike_id":"baf36c7b-4ac0-4c7e-8f23-7946e859383e","system_id":"levelo_inurba_marseille","lat":43.317005,"lon":5.37737,"is_reserved":false,"is_disabled":false,"rental_uris":{"android":"levelo://app?vid=baf36c7b-4ac0-4c7e-8f23-7946e859383e","ios":"levelo://app?vid=baf36c7b-4ac0-4c7e-8f23-7946e859383e"},"vehicle_type_id":"4","last_reported":1700496592,"current_range_meters":21200,"station_id":"ce4bgth2rcd13ifvqch0","pricing_plan_id":"free"},{"bike_id":"7bce391b-3c1d-4a39-b4fc-8fb2a2181f2f","system_id":"levelo_inurba_marseille","lat":43.317075,"lon":5.377367,"is_reserved":false,"is_disabled":false,"rental_uris":{"android":"levelo://app?vid=7bce391b-3c1d-4a39-b4fc-8fb2a2181f2f","ios":"levelo://app?vid=7bce391b-3c1d-4a39-b4fc-8fb2a2181f2f"},"vehicle_type_id":"4","last_reported":1700496592,"current_range_meters":26000,"station_id":"ce4bgth2rcd13ifvqch0","pricing_plan_id":"free"},{"bike_id":"747a5a3e-a3b7-455d-ae77-119587f11bcf","system_id":"levelo_inurba_marseille","lat":43.3081,"lon":5.38149,"is_reserved":false,"is_disabled":false,"rental_uris":{"android":"levelo://app?vid=747a5a3e-a3b7-455d-ae77-119587f11bcf","ios":"levelo://app?vid=747a5a3e-a3b7-455d-ae77-119587f11bcf"},"vehicle_type_id":"4","last_reported":1700496592,"current_range_meters":800,"station_id":"ce4bgt12rcd13ifvqce0","pricing_plan_id":"free"},{"bike_id":"d38379f4-6fd8-4962-a66c-efe2917764b0","system_id":"levelo_inurba_marseille","lat":43.308012,"lon":5.381511,"is_reserved":false,"is_disabled":false,"rental_uris":{"android":"levelo://app?vid=d38379f4-6fd8-4962-a66c-efe2917764b0","ios":"levelo://app?vid=d38379f4-6fd8-4962-a66c-efe2917764b0"},"vehicle_type_id":"4","last_reported":1700496592,"current_range_meters":7200,"station_id":"ce4bgt12rcd13ifvqce0","pricing_plan_id":"free"},{"bike_id":"534a520e-28d8-40f5-af9c-1629fdd4f6b6","system_id":"levelo_inurba_marseille","lat":43.308012,"lon":5.381511,"is_reserved":false,"is_disabled":false,"rental_uris":{"android":"levelo://app?vid=534a520e-28d8-40f5-af9c-1629fdd4f6b6","ios":"levelo://app?vid=534a520e-28d8-40f5-af9c-1629fdd4f6b6"},"vehicle_type_id":"4","last_reported":1700496592,"current_range_meters":25200,"station_id":"ce4bgt12rcd13ifvqce0","pricing_plan_id":"free"},{"bike_id":"eadd1f45-a72d-4cdd-afbc-39d2a2754f50","system_id":"levelo_inurba_marseille","lat":43.319955,"lon":5.38161,"is_reserved":false,"is_disabled":false,"rental_uris":{"android":"levelo://app?vid=eadd1f45-a72d-4cdd-afbc-39d2a2754f50","ios":"levelo://app?vid=eadd1f45-a72d-4cdd-afbc-39d2a2754f50"},"vehicle_type_id":"4","last_reported":1700496592,"current_range_meters":16800,"station_id":"ce4bhr12rcd13ifvqhpg","pricing_plan_id":"free"},{"bike_id":"f15bd8c6-4aa2-432c-b981-4a3e6b59bfd3","system_id":"levelo_inurba_marseille","lat":43.313571,"lon":5.384829,"is_reserved":false,"is_disabled":false,"rental_uris":{"android":"levelo://app?vid=f15bd8c6-4aa2-432c-b981-4a3e6b59bfd3","ios":"levelo://app?vid=f15bd8c6-4aa2-432c-b981-4a3e6b59bfd3"},"vehicle_type_id":"4","last_reported":1700496592,"current_range_meters":19200,"station_id":"ce4bgt92rcd13ifvqcf0","pricing_plan_id":"free"},{"bike_id":"e8147e22-2328-4dcf-ac50-4233a6119e87","system_id":"levelo_inurba_marseille","lat":43.299222,"lon":5.365554,"is_reserved":false,"is_disabled":false,"rental_uris":{"android":"levelo://app?vid=e8147e22-2328-4dcf-ac50-4233a6119e87","ios":"levelo://app?vid=e8147e22-2328-4dcf-ac50-4233a6119e87"},"vehicle_type_id":"4","last_reported":1700496592,"current_range_meters":14400,"station_id":"ce4bgm92rcd13ifvqbr0","pricing_plan_id":"free"},{"bike_id":"60179856-6833-4d0d-b2b9-366f09261d15","system_id":"levelo_inurba_marseille","lat":43.299724,"lon":5.371829,"is_reserved":false,"is_disabled":false,"rental_uris":{"android":"levelo://app?vid=60179856-6833-4d0d-b2b9-366f09261d15","ios":"levelo://app?vid=60179856-6833-4d0d-b2b9-366f09261d15"},"vehicle_type_id":"4","last_reported":1700496592,"current_range_meters":4000,"station_id":"ce4bgr92rcd13ifvqc7g","pricing_plan_id":"free"},{"bike_id":"4e2b9fee-f9e4-4f3b-90f8-43f2913d839b","system_id":"levelo_inurba_marseille","lat":43.29848,"lon":5.36291,"is_reserved":false,"is_disabled":false,"rental_uris":{"android":"levelo://app?vid=4e2b9fee-f9e4-4f3b-90f8-43f2913d839b","ios":"levelo://app?vid=4e2b9fee-f9e4-4f3b-90f8-43f2913d839b"},"vehicle_type_id":"4","last_reported":1700496592,"current_range_meters":14800,"station_id":"ce4bgpp2rcd13ifvqc3g","pricing_plan_id":"free"},{"bike_id":"a91168a5-2f55-435c-a8d3-8a0f3a1839c3","system_id":"levelo_inurba_marseille","lat":43.29847,"lon":5.36283,"is_reserved":false,"is_disabled":false,"rental_uris":{"android":"levelo://app?vid=a91168a5-2f55-435c-a8d3-8a0f3a1839c3","ios":"levelo://app?vid=a91168a5-2f55-435c-a8d3-8a0f3a1839c3"},"vehicle_type_id":"4","last_reported":1700496592,"current_range_meters":14000,"station_id":"ce4bgpp2rcd13ifvqc3g","pricing_plan_id":"free"},{"bike_id":"5b6dd3e9-0d58-4624-adfc-9806a62712fc","system_id":"levelo_inurba_marseille","lat":43.29847,"lon":5.36282,"is_reserved":false,"is_disabled":false,"rental_uris":{"android":"levelo://app?vid=5b6dd3e9-0d58-4624-adfc-9806a62712fc","ios":"levelo://app?vid=5b6dd3e9-0d58-4624-adfc-9806a62712fc"},"vehicle_type_id":"4","last_reported":1700496592,"current_range_meters":20800,"station_id":"ce4bgpp2rcd13ifvqc3g","pricing_plan_id":"free"},{"bike_id":"9294b2b5-bb76-45a3-8df8-416fe6d6b766","system_id":"levelo_inurba_marseille","lat":43.298433,"lon":5.362774,"is_reserved":false,"is_disabled":false,"rental_uris":{"android":"levelo://app?vid=9294b2b5-bb76-45a3-8df8-416fe6d6b766","ios":"levelo://app?vid=9294b2b5-bb76-45a3-8df8-416fe6d6b766"},"vehicle_type_id":"4","last_reported":1700496592,"current_range_meters":0,"station_id":"ce4bgpp2rcd13ifvqc3g","pricing_plan_id":"free"},{"bike_id":"abc9d661-597f-4891-9f3d-81a486707eda","system_id":"levelo_inurba_marseille","lat":43.298433,"lon":5.362774,"is_reserved":false,"is_disabled":false,"rental_uris":{"android":"levelo://app?vid=abc9d661-597f-4891-9f3d-81a486707eda","ios":"levelo://app?vid=abc9d661-597f-4891-9f3d-81a486707eda"},"vehicle_type_id":"4","last_reported":1700496592,"current_range_meters":30400,"station_id":"ce4bgpp2rcd13ifvqc3g","pricing_plan_id":"free"},{"bike_id":"a82ce0f4-2c02-4550-8cad-d8d2f9d6be01","system_id":"levelo_inurba_marseille","lat":43.305364,"lon":5.384119,"is_reserved":false,"is_disabled":false,"rental_uris":{"android":"levelo://app?vid=a82ce0f4-2c02-4550-8cad-d8d2f9d6be01","ios":"levelo://app?vid=a82ce0f4-2c02-4550-8cad-d8d2f9d6be01"},"vehicle_type_id":"4","last_reported":1700496592,"current_range_meters":7200,"station_id":"ce4bgg92rcd13ifvqb30","pricing_plan_id":"free"},{"bike_id":"21a83434-4f9f-4699-b79c-878304816541","system_id":"levelo_inurba_marseille","lat":43.29844,"lon":5.36282,"is_reserved":false,"is_disabled":false,"rental_uris":{"android":"levelo://app?vid=21a83434-4f9f-4699-b79c-878304816541","ios":"levelo://app?vid=21a83434-4f9f-4699-b79c-878304816541"},"vehicle_type_id":"4","last_reported":1700496592,"current_range_meters":31200,"station_id":"ce4bgpp2rcd13ifvqc3g","pricing_plan_id":"free"},{"bike_id":"561113ff-06c8-405d-b412-9265d758f54c","system_id":"levelo_inurba_marseille","lat":43.29843,"lon":5.36281,"is_reserved":false,"is_disabled":false,"rental_uris":{"android":"levelo://app?vid=561113ff-06c8-405d-b412-9265d758f54c","ios":"levelo://app?vid=561113ff-06c8-405d-b412-9265d758f54c"},"vehicle_type_id":"4","last_reported":1700496592,"current_range_meters":30800,"station_id":"","pricing_plan_id":"free"},{"bike_id":"7aa9552b-a358-46e3-b4f3-7c5922bb1f3a","system_id":"levelo_inurba_marseille","lat":43.298433,"lon":5.362774,"is_reserved":false,"is_disabled":false,"rental_uris":{"android":"levelo://app?vid=7aa9552b-a358-46e3-b4f3-7c5922bb1f3a","ios":"levelo://app?vid=7aa9552b-a358-46e3-b4f3-7c5922bb1f3a"},"vehicle_type_id":"4","last_reported":1700496592,"current_range_meters":30800,"station_id":"ce4bgpp2rcd13ifvqc3g","pricing_plan_id":"free"},{"bike_id":"b630f31c-3bec-4ac1-b7b7-380121ed6cdc","system_id":"levelo_inurba_marseille","lat":43.298433,"lon":5.362774,"is_reserved":false,"is_disabled":false,"rental_uris":{"android":"levelo://app?vid=b630f31c-3bec-4ac1-b7b7-380121ed6cdc","ios":"levelo://app?vid=b630f31c-3bec-4ac1-b7b7-380121ed6cdc"},"vehicle_type_id":"4","last_reported":1700496592,"current_range_meters":31200,"station_id":"ce4bgpp2rcd13ifvqc3g","pricing_plan_id":"free"},{"bike_id":"417a40dd-69cd-4a7f-94ad-4af50d6de926","system_id":"levelo_inurba_marseille","lat":43.311722,"lon":5.387247,"is_reserved":false,"is_disabled":false,"rental_uris":{"android":"levelo://app?vid=417a40dd-69cd-4a7f-94ad-4af50d6de926","ios":"levelo://app?vid=417a40dd-69cd-4a7f-94ad-4af50d6de926"},"vehicle_type_id":"4","last_reported":1700496592,"current_range_meters":26000,"station_id":"ce4bgv12rcd13ifvqcp0","pricing_plan_id":"free"},{"bike_id":"8b11900d-f33c-45a3-a4be-cca60e9a1d0e","system_id":"levelo_inurba_marseille","lat":43.311722,"lon":5.387247,"is_reserved":false,"is_disabled":false,"rental_uris":{"android":"levelo://app?vid=8b11900d-f33c-45a3-a4be-cca60e9a1d0e","ios":"levelo://app?vid=8b11900d-f33c-45a3-a4be-cca60e9a1d0e"},"vehicle_type_id":"4","last_reported":1700496592,"current_range_meters":13600,"station_id":"ce4bgv12rcd13ifvqcp0","pricing_plan_id":"free"},{"bike_id":"f08b0271-ae73-492f-9a89-b8d51dfdbf59","system_id":"levelo_inurba_marseille","lat":43.29811,"lon":5.37099,"is_reserved":false,"is_disabled":false,"rental_uris":{"android":"levelo://app?vid=f08b0271-ae73-492f-9a89-b8d51dfdbf59","ios":"levelo://app?vid=f08b0271-ae73-492f-9a89-b8d51dfdbf59"},"vehicle_type_id":"4","last_reported":1700496592,"current_range_meters":19600,"station_id":"ce4bgop2rcd13ifvqc1g","pricing_plan_id":"free"},{"bike_id":"278eb7e7-f47d-4e3e-ba77-7f9c02c4d23f","system_id":"levelo_inurba_marseille","lat":43.32832,"lon":5.36693,"is_reserved":false,"is_disabled":false,"rental_uris":{"android":"levelo://app?vid=278eb7e7-f47d-4e3e-ba77-7f9c02c4d23f","ios":"levelo://app?vid=278eb7e7-f47d-4e3e-ba77-7f9c02c4d23f"},"vehicle_type_id":"4","last_reported":1700496592,"current_range_meters":23600,"station_id":"ce4bhs92rcd13ifvqi0g","pricing_plan_id":"free"},{"bike_id":"c8a44cca-ae06-4b02-8f92-e9f77b718a7d","system_id":"levelo_inurba_marseille","lat":43.297163,"lon":5.365866,"is_reserved":false,"is_disabled":false,"rental_uris":{"android":"levelo://app?vid=c8a44cca-ae06-4b02-8f92-e9f77b718a7d","ios":"levelo://app?vid=c8a44cca-ae06-4b02-8f92-e9f77b718a7d"},"vehicle_type_id":"4","last_reported":1700496592,"current_range_meters":12400,"station_id":"ce4bgn12rcd13ifvqbt0","pricing_plan_id":"free"},{"bike_id":"c01ec72b-9870-444f-9428-a3efc3d350f6","system_id":"levelo_inurba_marseille","lat":43.297163,"lon":5.365866,"is_reserved":false,"is_disabled":false,"rental_uris":{"android":"levelo://app?vid=c01ec72b-9870-444f-9428-a3efc3d350f6","ios":"levelo://app?vid=c01ec72b-9870-444f-9428-a3efc3d350f6"},"vehicle_type_id":"4","last_reported":1700496592,"current_range_meters":30000,"station_id":"ce4bgn12rcd13ifvqbt0","pricing_plan_id":"free"},{"bike_id":"97e03a7c-0ad3-4f12-b9f4-83a6153e4751","system_id":"levelo_inurba_marseille","lat":43.297163,"lon":5.365866,"is_reserved":false,"is_disabled":false,"rental_uris":{"android":"levelo://app?vid=97e03a7c-0ad3-4f12-b9f4-83a6153e4751","ios":"levelo://app?vid=97e03a7c-0ad3-4f12-b9f4-83a6153e4751"},"vehicle_type_id":"4","last_reported":1700496592,"current_range_meters":25200,"station_id":"ce4bgn12rcd13ifvqbt0","pricing_plan_id":"free"},{"bike_id":"a7874ba4-726d-4ce6-b705-f6694889466c","system_id":"levelo_inurba_marseille","lat":43.296131,"lon":5.370773,"is_reserved":false,"is_disabled":false,"rental_uris":{"android":"levelo://app?vid=a7874ba4-726d-4ce6-b705-f6694889466c","ios":"levelo://app?vid=a7874ba4-726d-4ce6-b705-f6694889466c"},"vehicle_type_id":"4","last_reported":1700496592,"current_range_meters":21600,"station_id":"ce4bgnh2rcd13ifvqc0g","pricing_plan_id":"free"},{"bike_id":"bf34cee4-a0d7-4c3c-89f1-814c9b74a6a9","system_id":"levelo_inurba_marseille","lat":43.29584,"lon":5.36751,"is_reserved":false,"is_disabled":false,"rental_uris":{"android":"levelo://app?vid=bf34cee4-a0d7-4c3c-89f1-814c9b74a6a9","ios":"levelo://app?vid=bf34cee4-a0d7-4c3c-89f1-814c9b74a6a9"},"vehicle_type_id":"4","last_reported":1700496592,"current_range_meters":26400,"station_id":"ce4bgph2rcd13ifvqc2g","pricing_plan_id":"free"},{"bike_id":"fee62c3c-84c7-490a-945d-8809b746ebc6","system_id":"levelo_inurba_marseille","lat":43.29573,"lon":5.367355,"is_reserved":false,"is_disabled":false,"rental_uris":{"android":"levelo://app?vid=fee62c3c-84c7-490a-945d-8809b746ebc6","ios":"levelo://app?vid=fee62c3c-84c7-490a-945d-8809b746ebc6"},"vehicle_type_id":"4","last_reported":1700496592,"current_range_meters":31600,"station_id":"ce4bgph2rcd13ifvqc2g","pricing_plan_id":"free"},{"bike_id":"6a868d1f-b531-4801-a4f2-c74ee9b5f793","system_id":"levelo_inurba_marseille","lat":43.29573,"lon":5.367355,"is_reserved":false,"is_disabled":false,"rental_uris":{"android":"levelo://app?vid=6a868d1f-b531-4801-a4f2-c74ee9b5f793","ios":"levelo://app?vid=6a868d1f-b531-4801-a4f2-c74ee9b5f793"},"vehicle_type_id":"4","last_reported":1700496592,"current_range_meters":6800,"station_id":"ce4bgph2rcd13ifvqc2g","pricing_plan_id":"free"},{"bike_id":"06337276-d354-49e3-af6a-0439543633cb","system_id":"levelo_inurba_marseille","lat":43.29573,"lon":5.367355,"is_reserved":false,"is_disabled":false,"rental_uris":{"android":"levelo://app?vid=06337276-d354-49e3-af6a-0439543633cb","ios":"levelo://app?vid=06337276-d354-49e3-af6a-0439543633cb"},"vehicle_type_id":"4","last_reported":1700496592,"current_range_meters":25600,"station_id":"ce4bgph2rcd13ifvqc2g","pricing_plan_id":"free"},{"bike_id":"7af1bf97-0c92-4923-b8f6-173d28fe85c4","system_id":"levelo_inurba_marseille","lat":43.295762,"lon":5.367446,"is_reserved":false,"is_disabled":false,"rental_uris":{"android":"levelo://app?vid=7af1bf97-0c92-4923-b8f6-173d28fe85c4","ios":"levelo://app?vid=7af1bf97-0c92-4923-b8f6-173d28fe85c4"},"vehicle_type_id":"4","last_reported":1700496592,"current_range_meters":0,"station_id":"","pricing_plan_id":"free"},{"bike_id":"f73e4b62-db53-41c8-9427-31b1dc519812","system_id":"levelo_inurba_marseille","lat":43.29724,"lon":5.37687,"is_reserved":false,"is_disabled":false,"rental_uris":{"android":"levelo://app?vid=f73e4b62-db53-41c8-9427-31b1dc519812","ios":"levelo://app?vid=f73e4b62-db53-41c8-9427-31b1dc519812"},"vehicle_type_id":"4","last_reported":1700496592,"current_range_meters":19600,"station_id":"ce4bgkh2rcd13ifvqbl0","pricing_plan_id":"free"},{"bike_id":"93f7ee65-bdfe-4bf5-9227-18f6aeb45e01","system_id":"levelo_inurba_marseille","lat":43.296935,"lon":5.376544,"is_reserved":false,"is_disabled":false,"rental_uris":{"android":"levelo://app?vid=93f7ee65-bdfe-4bf5-9227-18f6aeb45e01","ios":"levelo://app?vid=93f7ee65-bdfe-4bf5-9227-18f6aeb45e01"},"vehicle_type_id":"4","last_reported":1700496592,"current_range_meters":25200,"station_id":"ce4bgkh2rcd13ifvqbl0","pricing_plan_id":"free"},{"bike_id":"b01a6379-fd5f-4899-aced-fb248579e1ff","system_id":"levelo_inurba_marseille","lat":43.296935,"lon":5.376544,"is_reserved":false,"is_disabled":false,"rental_uris":{"android":"levelo://app?vid=b01a6379-fd5f-4899-aced-fb248579e1ff","ios":"levelo://app?vid=b01a6379-fd5f-4899-aced-fb248579e1ff"},"vehicle_type_id":"4","last_reported":1700496592,"current_range_meters":11600,"station_id":"ce4bgkh2rcd13ifvqbl0","pricing_plan_id":"free"},{"bike_id":"4c6a8d09-b913-4d7d-b122-6623b3207f41","system_id":"levelo_inurba_marseille","lat":43.317557,"lon":5.390173,"is_reserved":false,"is_disabled":false,"rental_uris":{"android":"levelo://app?vid=4c6a8d09-b913-4d7d-b122-6623b3207f41","ios":"levelo://app?vid=4c6a8d09-b913-4d7d-b122-6623b3207f41"},"vehicle_type_id":"4","last_reported":1700496592,"current_range_meters":20800,"station_id":"ce4bhqp2rcd13ifvqhng","pricing_plan_id":"free"},{"bike_id":"a78f95fa-666d-4b49-a840-cb7b29132f01","system_id":"levelo_inurba_marseille","lat":43.317501,"lon":5.390173,"is_reserved":false,"is_disabled":false,"rental_uris":{"android":"levelo://app?vid=a78f95fa-666d-4b49-a840-cb7b29132f01","ios":"levelo://app?vid=a78f95fa-666d-4b49-a840-cb7b29132f01"},"vehicle_type_id":"4","last_reported":1700496592,"current_range_meters":30000,"station_id":"ce4bhqp2rcd13ifvqhng","pricing_plan_id":"free"},{"bike_id":"f86e30bb-0164-45ce-994a-3aec30bdecf6","system_id":"levelo_inurba_marseille","lat":43.317557,"lon":5.390173,"is_reserved":false,"is_disabled":false,"rental_uris":{"android":"levelo://app?vid=f86e30bb-0164-45ce-994a-3aec30bdecf6","ios":"levelo://app?vid=f86e30bb-0164-45ce-994a-3aec30bdecf6"},"vehicle_type_id":"4","last_reported":1700496592,"current_range_meters":15600,"station_id":"ce4bhqp2rcd13ifvqhng","pricing_plan_id":"free"},{"bike_id":"a4fc4f1f-b4cb-4447-9650-54a96ed51e29","system_id":"levelo_inurba_marseille","lat":43.3236,"lon":5.3863,"is_reserved":false,"is_disabled":false,"rental_uris":{"android":"levelo://app?vid=a4fc4f1f-b4cb-4447-9650-54a96ed51e29","ios":"levelo://app?vid=a4fc4f1f-b4cb-4447-9650-54a96ed51e29"},"vehicle_type_id":"4","last_reported":1700496592,"current_range_meters":0,"station_id":"","pricing_plan_id":"free"},{"bike_id":"892f583f-6871-4555-a3c1-b75fc60440c4","system_id":"levelo_inurba_marseille","lat":43.298037,"lon":5.381066,"is_reserved":false,"is_disabled":false,"rental_uris":{"android":"levelo://app?vid=892f583f-6871-4555-a3c1-b75fc60440c4","ios":"levelo://app?vid=892f583f-6871-4555-a3c1-b75fc60440c4"},"vehicle_type_id":"4","last_reported":1700496592,"current_range_meters":12000,"station_id":"ce4bgip2rcd13ifvqbb0","pricing_plan_id":"free"},{"bike_id":"1326750c-2821-46d5-ab97-49f57c40cd5b","system_id":"levelo_inurba_marseille","lat":43.29576,"lon":5.37502,"is_reserved":false,"is_disabled":false,"rental_uris":{"android":"levelo://app?vid=1326750c-2821-46d5-ab97-49f57c40cd5b","ios":"levelo://app?vid=1326750c-2821-46d5-ab97-49f57c40cd5b"},"vehicle_type_id":"4","last_reported":1700496592,"current_range_meters":0,"station_id":"ce4bgh92rcd13ifvqb50","pricing_plan_id":"free"},{"bike_id":"27ebe950-1036-4936-be16-7c0878ab4e1f","system_id":"levelo_inurba_marseille","lat":43.298037,"lon":5.381066,"is_reserved":false,"is_disabled":false,"rental_uris":{"android":"levelo://app?vid=27ebe950-1036-4936-be16-7c0878ab4e1f","ios":"levelo://app?vid=27ebe950-1036-4936-be16-7c0878ab4e1f"},"vehicle_type_id":"4","last_reported":1700496592,"current_range_meters":23600,"station_id":"ce4bgip2rcd13ifvqbb0","pricing_plan_id":"free"},{"bike_id":"1870fc59-fa3a-4b30-89ba-d217c17a73ed","system_id":"levelo_inurba_marseille","lat":43.298037,"lon":5.381066,"is_reserved":false,"is_disabled":false,"rental_uris":{"android":"levelo://app?vid=1870fc59-fa3a-4b30-89ba-d217c17a73ed","ios":"levelo://app?vid=1870fc59-fa3a-4b30-89ba-d217c17a73ed"},"vehicle_type_id":"4","last_reported":1700496592,"current_range_meters":24400,"station_id":"ce4bgip2rcd13ifvqbb0","pricing_plan_id":"free"},{"bike_id":"83c7c71a-da0e-433a-a69f-7ffa84d102c1","system_id":"levelo_inurba_marseille","lat":43.298037,"lon":5.381066,"is_reserved":false,"is_disabled":false,"rental_uris":{"android":"levelo://app?vid=83c7c71a-da0e-433a-a69f-7ffa84d102c1","ios":"levelo://app?vid=83c7c71a-da0e-433a-a69f-7ffa84d102c1"},"vehicle_type_id":"4","last_reported":1700496592,"current_range_meters":24000,"station_id":"ce4bgip2rcd13ifvqbb0","pricing_plan_id":"free"},{"bike_id":"67ffd28a-0325-489b-a10f-d90500122751","system_id":"levelo_inurba_marseille","lat":43.295748,"lon":5.37522,"is_reserved":false,"is_disabled":false,"rental_uris":{"android":"levelo://app?vid=67ffd28a-0325-489b-a10f-d90500122751","ios":"levelo://app?vid=67ffd28a-0325-489b-a10f-d90500122751"},"vehicle_type_id":"4","last_reported":1700496592,"current_range_meters":31600,"station_id":"ce4bgh92rcd13ifvqb50","pricing_plan_id":"free"},{"bike_id":"849a2f50-f0ab-40df-a7fc-3c05e29a03b2","system_id":"levelo_inurba_marseille","lat":43.298037,"lon":5.381066,"is_reserved":false,"is_disabled":false,"rental_uris":{"android":"levelo://app?vid=849a2f50-f0ab-40df-a7fc-3c05e29a03b2","ios":"levelo://app?vid=849a2f50-f0ab-40df-a7fc-3c05e29a03b2"},"vehicle_type_id":"4","last_reported":1700496592,"current_range_meters":2800,"station_id":"ce4bgip2rcd13ifvqbb0","pricing_plan_id":"free"},{"bike_id":"efca5a11-dd19-4289-af00-2d7036b4ea6c","system_id":"levelo_inurba_marseille","lat":43.295748,"lon":5.37522,"is_reserved":false,"is_disabled":false,"rental_uris":{"android":"levelo://app?vid=efca5a11-dd19-4289-af00-2d7036b4ea6c","ios":"levelo://app?vid=efca5a11-dd19-4289-af00-2d7036b4ea6c"},"vehicle_type_id":"4","last_reported":1700496592,"current_range_meters":24400,"station_id":"ce4bgh92rcd13ifvqb50","pricing_plan_id":"free"},{"bike_id":"7305067e-1d05-4954-9d8a-2f4d6e6561b0","system_id":"levelo_inurba_marseille","lat":43.295748,"lon":5.37522,"is_reserved":false,"is_disabled":false,"rental_uris":{"android":"levelo://app?vid=7305067e-1d05-4954-9d8a-2f4d6e6561b0","ios":"levelo://app?vid=7305067e-1d05-4954-9d8a-2f4d6e6561b0"},"vehicle_type_id":"4","last_reported":1700496592,"current_range_meters":15200,"station_id":"ce4bgh92rcd13ifvqb50","pricing_plan_id":"free"},{"bike_id":"3e3e92fe-39b7-4933-99ff-3747b28b5d69","system_id":"levelo_inurba_marseille","lat":43.328154,"lon":5.380034,"is_reserved":false,"is_disabled":false,"rental_uris":{"android":"levelo://app?vid=3e3e92fe-39b7-4933-99ff-3747b28b5d69","ios":"levelo://app?vid=3e3e92fe-39b7-4933-99ff-3747b28b5d69"},"vehicle_type_id":"4","last_reported":1700496592,"current_range_meters":1600,"station_id":"","pricing_plan_id":"free"},{"bike_id":"8b993142-0681-485b-87fa-449d7c5bf5e3","system_id":"levelo_inurba_marseille","lat":43.298037,"lon":5.381066,"is_reserved":false,"is_disabled":false,"rental_uris":{"android":"levelo://app?vid=8b993142-0681-485b-87fa-449d7c5bf5e3","ios":"levelo://app?vid=8b993142-0681-485b-87fa-449d7c5bf5e3"},"vehicle_type_id":"4","last_reported":1700496592,"current_range_meters":6000,"station_id":"ce4bgip2rcd13ifvqbb0","pricing_plan_id":"free"},{"bike_id":"e145a3f7-00ac-4f8f-bfe5-435bc38ccaf7","system_id":"levelo_inurba_marseille","lat":43.293801,"lon":5.363066,"is_reserved":false,"is_disabled":false,"rental_uris":{"android":"levelo://app?vid=e145a3f7-00ac-4f8f-bfe5-435bc38ccaf7","ios":"levelo://app?vid=e145a3f7-00ac-4f8f-bfe5-435bc38ccaf7"},"vehicle_type_id":"4","last_reported":1700496592,"current_range_meters":19200,"station_id":"","pricing_plan_id":"free"},{"bike_id":"5e45ccd8-a336-4b7b-8243-29ea93b8ff1f","system_id":"levelo_inurba_marseille","lat":43.29601,"lon":5.381084,"is_reserved":false,"is_disabled":false,"rental_uris":{"android":"levelo://app?vid=5e45ccd8-a336-4b7b-8243-29ea93b8ff1f","ios":"levelo://app?vid=5e45ccd8-a336-4b7b-8243-29ea93b8ff1f"},"vehicle_type_id":"4","last_reported":1700496592,"current_range_meters":28400,"station_id":"ce4bgl12rcd13ifvqbo0","pricing_plan_id":"free"},{"bike_id":"115fb0eb-8fb9-4b10-9b5d-02d3bf259a95","system_id":"levelo_inurba_marseille","lat":43.29602,"lon":5.381084,"is_reserved":false,"is_disabled":false,"rental_uris":{"android":"levelo://app?vid=115fb0eb-8fb9-4b10-9b5d-02d3bf259a95","ios":"levelo://app?vid=115fb0eb-8fb9-4b10-9b5d-02d3bf259a95"},"vehicle_type_id":"4","last_reported":1700496592,"current_range_meters":17600,"station_id":"ce4bgl12rcd13ifvqbo0","pricing_plan_id":"free"},{"bike_id":"94f35869-741c-4e5f-8198-d4693fca93ce","system_id":"levelo_inurba_marseille","lat":43.323354,"lon":5.389615,"is_reserved":false,"is_disabled":false,"rental_uris":{"android":"levelo://app?vid=94f35869-741c-4e5f-8198-d4693fca93ce","ios":"levelo://app?vid=94f35869-741c-4e5f-8198-d4693fca93ce"},"vehicle_type_id":"4","last_reported":1700496592,"current_range_meters":0,"station_id":"","pricing_plan_id":"free"},{"bike_id":"518d7372-f926-4944-9343-ad58e975e295","system_id":"levelo_inurba_marseille","lat":43.29283,"lon":5.36837,"is_reserved":false,"is_disabled":false,"rental_uris":{"android":"levelo://app?vid=518d7372-f926-4944-9343-ad58e975e295","ios":"levelo://app?vid=518d7372-f926-4944-9343-ad58e975e295"},"vehicle_type_id":"4","last_reported":1700496592,"current_range_meters":3200,"station_id":"","pricing_plan_id":"free"},{"bike_id":"930d8ae0-57fa-4024-ac0f-aa2115e0fd14","system_id":"levelo_inurba_marseille","lat":43.2936,"lon":5.37835,"is_reserved":false,"is_disabled":false,"rental_uris":{"android":"levelo://app?vid=930d8ae0-57fa-4024-ac0f-aa2115e0fd14","ios":"levelo://app?vid=930d8ae0-57fa-4024-ac0f-aa2115e0fd14"},"vehicle_type_id":"4","last_reported":1700496592,"current_range_meters":22000,"station_id":"ce4bgjh2rcd13ifvqbf0","pricing_plan_id":"free"},{"bike_id":"f3153e4f-5156-400a-8ab1-09337d0e6b58","system_id":"levelo_inurba_marseille","lat":43.2936,"lon":5.37835,"is_reserved":false,"is_disabled":false,"rental_uris":{"android":"levelo://app?vid=f3153e4f-5156-400a-8ab1-09337d0e6b58","ios":"levelo://app?vid=f3153e4f-5156-400a-8ab1-09337d0e6b58"},"vehicle_type_id":"4","last_reported":1700496592,"current_range_meters":0,"station_id":"ce4bgjh2rcd13ifvqbf0","pricing_plan_id":"free"},{"bike_id":"fcd20cc9-6e29-4c18-b375-5a078752690d","system_id":"levelo_inurba_marseille","lat":43.300852,"lon":5.390859,"is_reserved":false,"is_disabled":false,"rental_uris":{"android":"levelo://app?vid=fcd20cc9-6e29-4c18-b375-5a078752690d","ios":"levelo://app?vid=fcd20cc9-6e29-4c18-b375-5a078752690d"},"vehicle_type_id":"4","last_reported":1700496592,"current_range_meters":19600,"station_id":"ce4bh192rcd13ifvqdb0","pricing_plan_id":"free"},{"bike_id":"48cabf18-b6ed-403f-b529-4a545672cab7","system_id":"levelo_inurba_marseille","lat":43.298764,"lon":5.388973,"is_reserved":false,"is_disabled":false,"rental_uris":{"android":"levelo://app?vid=48cabf18-b6ed-403f-b529-4a545672cab7","ios":"levelo://app?vid=48cabf18-b6ed-403f-b529-4a545672cab7"},"vehicle_type_id":"4","last_reported":1700496592,"current_range_meters":28000,"station_id":"ce4bh392rcd13ifvqdl0","pricing_plan_id":"free"},{"bike_id":"dd460574-08f9-41b4-9113-f05eee155d87","system_id":"levelo_inurba_marseille","lat":43.29164,"lon":5.37162,"is_reserved":false,"is_disabled":false,"rental_uris":{"android":"levelo://app?vid=dd460574-08f9-41b4-9113-f05eee155d87","ios":"levelo://app?vid=dd460574-08f9-41b4-9113-f05eee155d87"},"vehicle_type_id":"4","last_reported":1700496592,"current_range_meters":18800,"station_id":"ce4bha92rcd13ifvqeh0","pricing_plan_id":"free"},{"bike_id":"c831f563-0228-49c2-98ef-109d11efc493","system_id":"levelo_inurba_marseille","lat":43.29198,"lon":5.3581,"is_reserved":false,"is_disabled":false,"rental_uris":{"android":"levelo://app?vid=c831f563-0228-49c2-98ef-109d11efc493","ios":"levelo://app?vid=c831f563-0228-49c2-98ef-109d11efc493"},"vehicle_type_id":"4","last_reported":1700496592,"current_range_meters":2800,"station_id":"ce4bhb12rcd13ifvqel0","pricing_plan_id":"free"},{"bike_id":"85ffe956-2b6f-44ec-8e3f-d164d33189a6","system_id":"levelo_inurba_marseille","lat":43.291913,"lon":5.358034,"is_reserved":false,"is_disabled":false,"rental_uris":{"android":"levelo://app?vid=85ffe956-2b6f-44ec-8e3f-d164d33189a6","ios":"levelo://app?vid=85ffe956-2b6f-44ec-8e3f-d164d33189a6"},"vehicle_type_id":"4","last_reported":1700496592,"current_range_meters":22000,"station_id":"ce4bhb12rcd13ifvqel0","pricing_plan_id":"free"},{"bike_id":"19098b44-62f4-4a5e-a70c-f86e59f9bf89","system_id":"levelo_inurba_marseille","lat":43.31323,"lon":5.3969,"is_reserved":false,"is_disabled":false,"rental_uris":{"android":"levelo://app?vid=19098b44-62f4-4a5e-a70c-f86e59f9bf89","ios":"levelo://app?vid=19098b44-62f4-4a5e-a70c-f86e59f9bf89"},"vehicle_type_id":"4","last_reported":1700496592,"current_range_meters":3600,"station_id":"ce4bgvp2rcd13ifvqcu0","pricing_plan_id":"free"},{"bike_id":"abdb6bcf-f8f5-4680-b54a-7a28893b500c","system_id":"levelo_inurba_marseille","lat":43.3133,"lon":5.39692,"is_reserved":false,"is_disabled":false,"rental_uris":{"android":"levelo://app?vid=abdb6bcf-f8f5-4680-b54a-7a28893b500c","ios":"levelo://app?vid=abdb6bcf-f8f5-4680-b54a-7a28893b500c"},"vehicle_type_id":"4","last_reported":1700496592,"current_range_meters":4800,"station_id":"ce4bgvp2rcd13ifvqcu0","pricing_plan_id":"free"},{"bike_id":"8425c28a-6c51-49f1-a66d-3b438c0c0809","system_id":"levelo_inurba_marseille","lat":43.31331,"lon":5.39693,"is_reserved":false,"is_disabled":false,"rental_uris":{"android":"levelo://app?vid=8425c28a-6c51-49f1-a66d-3b438c0c0809","ios":"levelo://app?vid=8425c28a-6c51-49f1-a66d-3b438c0c0809"},"vehicle_type_id":"4","last_reported":1700496592,"current_range_meters":15200,"station_id":"ce4bgvp2rcd13ifvqcu0","pricing_plan_id":"free"},{"bike_id":"9995eb3c-2251-456c-b847-7f07a3ce9f22","system_id":"levelo_inurba_marseille","lat":43.31329,"lon":5.39694,"is_reserved":false,"is_disabled":false,"rental_uris":{"android":"levelo://app?vid=9995eb3c-2251-456c-b847-7f07a3ce9f22","ios":"levelo://app?vid=9995eb3c-2251-456c-b847-7f07a3ce9f22"},"vehicle_type_id":"4","last_reported":1700496592,"current_range_meters":31200,"station_id":"ce4bgvp2rcd13ifvqcu0","pricing_plan_id":"free"},{"bike_id":"5e2df123-d933-4169-a934-01acce82c9f3","system_id":"levelo_inurba_marseille","lat":43.31326,"lon":5.39696,"is_reserved":false,"is_disabled":false,"rental_uris":{"android":"levelo://app?vid=5e2df123-d933-4169-a934-01acce82c9f3","ios":"levelo://app?vid=5e2df123-d933-4169-a934-01acce82c9f3"},"vehicle_type_id":"4","last_reported":1700496592,"current_range_meters":23600,"station_id":"ce4bgvp2rcd13ifvqcu0","pricing_plan_id":"free"},{"bike_id":"98aa03dc-e2da-495e-8e32-de58a61e91d2","system_id":"levelo_inurba_marseille","lat":43.31327,"lon":5.39698,"is_reserved":false,"is_disabled":false,"rental_uris":{"android":"levelo://app?vid=98aa03dc-e2da-495e-8e32-de58a61e91d2","ios":"levelo://app?vid=98aa03dc-e2da-495e-8e32-de58a61e91d2"},"vehicle_type_id":"4","last_reported":1700496592,"current_range_meters":12800,"station_id":"ce4bgvp2rcd13ifvqcu0","pricing_plan_id":"free"},{"bike_id":"898c3e4e-8668-4b2c-a234-f4a461554868","system_id":"levelo_inurba_marseille","lat":43.313291,"lon":5.396838,"is_reserved":false,"is_disabled":false,"rental_uris":{"android":"levelo://app?vid=898c3e4e-8668-4b2c-a234-f4a461554868","ios":"levelo://app?vid=898c3e4e-8668-4b2c-a234-f4a461554868"},"vehicle_type_id":"4","last_reported":1700496592,"current_range_meters":10000,"station_id":"ce4bgvp2rcd13ifvqcu0","pricing_plan_id":"free"},{"bike_id":"5f5c2ff8-dc40-4f95-abca-b0538ddbf75c","system_id":"levelo_inurba_marseille","lat":43.309047,"lon":5.396551,"is_reserved":false,"is_disabled":false,"rental_uris":{"android":"levelo://app?vid=5f5c2ff8-dc40-4f95-abca-b0538ddbf75c","ios":"levelo://app?vid=5f5c2ff8-dc40-4f95-abca-b0538ddbf75c"},"vehicle_type_id":"4","last_reported":1700496592,"current_range_meters":21600,"station_id":"ce4bh012rcd13ifvqcv0","pricing_plan_id":"free"},{"bike_id":"33c83fc6-62a4-4046-8ca8-ec6e9a98fba3","system_id":"levelo_inurba_marseille","lat":43.309038,"lon":5.396546,"is_reserved":false,"is_disabled":false,"rental_uris":{"android":"levelo://app?vid=33c83fc6-62a4-4046-8ca8-ec6e9a98fba3","ios":"levelo://app?vid=33c83fc6-62a4-4046-8ca8-ec6e9a98fba3"},"vehicle_type_id":"4","last_reported":1700496592,"current_range_meters":23600,"station_id":"ce4bh012rcd13ifvqcv0","pricing_plan_id":"free"},{"bike_id":"ddf5bced-8898-4c67-8d63-e08765d11ca4","system_id":"levelo_inurba_marseille","lat":43.309038,"lon":5.396546,"is_reserved":false,"is_disabled":false,"rental_uris":{"android":"levelo://app?vid=ddf5bced-8898-4c67-8d63-e08765d11ca4","ios":"levelo://app?vid=ddf5bced-8898-4c67-8d63-e08765d11ca4"},"vehicle_type_id":"4","last_reported":1700496592,"current_range_meters":21200,"station_id":"ce4bh012rcd13ifvqcv0","pricing_plan_id":"free"},{"bike_id":"d1dc649b-4f51-4fdc-9dc2-dc0c36ecdbbc","system_id":"levelo_inurba_marseille","lat":43.29529,"lon":5.385581,"is_reserved":false,"is_disabled":false,"rental_uris":{"android":"levelo://app?vid=d1dc649b-4f51-4fdc-9dc2-dc0c36ecdbbc","ios":"levelo://app?vid=d1dc649b-4f51-4fdc-9dc2-dc0c36ecdbbc"},"vehicle_type_id":"4","last_reported":1700496592,"current_range_meters":14000,"station_id":"ce4bgih2rcd13ifvqba0","pricing_plan_id":"free"},{"bike_id":"b68612a0-f1c8-4ac6-b09b-e8c390039728","system_id":"levelo_inurba_marseille","lat":43.302133,"lon":5.394701,"is_reserved":false,"is_disabled":false,"rental_uris":{"android":"levelo://app?vid=b68612a0-f1c8-4ac6-b09b-e8c390039728","ios":"levelo://app?vid=b68612a0-f1c8-4ac6-b09b-e8c390039728"},"vehicle_type_id":"4","last_reported":1700496592,"current_range_meters":14000,"station_id":"","pricing_plan_id":"free"},{"bike_id":"96f3fa18-8db2-4420-88a2-83de44e61a9b","system_id":"levelo_inurba_marseille","lat":43.304274,"lon":5.397513,"is_reserved":false,"is_disabled":false,"rental_uris":{"android":"levelo://app?vid=96f3fa18-8db2-4420-88a2-83de44e61a9b","ios":"levelo://app?vid=96f3fa18-8db2-4420-88a2-83de44e61a9b"},"vehicle_type_id":"4","last_reported":1700496592,"current_range_meters":0,"station_id":"ce4bh092rcd13ifvqd20","pricing_plan_id":"free"},{"bike_id":"b04804cf-5e01-4a00-a221-33ce71eafa30","system_id":"levelo_inurba_marseille","lat":43.33041,"lon":5.38927,"is_reserved":false,"is_disabled":false,"rental_uris":{"android":"levelo://app?vid=b04804cf-5e01-4a00-a221-33ce71eafa30","ios":"levelo://app?vid=b04804cf-5e01-4a00-a221-33ce71eafa30"},"vehicle_type_id":"4","last_reported":1700496592,"current_range_meters":13200,"station_id":"ce4bhr92rcd13ifvqhrg","pricing_plan_id":"free"},{"bike_id":"1d21103f-5210-4c4b-9b14-860c82576090","system_id":"levelo_inurba_marseille","lat":43.28856,"lon":5.358371,"is_reserved":false,"is_disabled":false,"rental_uris":{"android":"levelo://app?vid=1d21103f-5210-4c4b-9b14-860c82576090","ios":"levelo://app?vid=1d21103f-5210-4c4b-9b14-860c82576090"},"vehicle_type_id":"4","last_reported":1700496592,"current_range_meters":2400,"station_id":"ce4bhb12rcd13ifvqem0","pricing_plan_id":"free"},{"bike_id":"df1b8076-dba3-4392-9cf1-91fafae14b79","system_id":"levelo_inurba_marseille","lat":43.28856,"lon":5.358371,"is_reserved":false,"is_disabled":false,"rental_uris":{"android":"levelo://app?vid=df1b8076-dba3-4392-9cf1-91fafae14b79","ios":"levelo://app?vid=df1b8076-dba3-4392-9cf1-91fafae14b79"},"vehicle_type_id":"4","last_reported":1700496592,"current_range_meters":11200,"station_id":"ce4bhb12rcd13ifvqem0","pricing_plan_id":"free"},{"bike_id":"08cd3c25-96f5-46a2-80f8-c59e2e04b11d","system_id":"levelo_inurba_marseille","lat":43.288427,"lon":5.358357,"is_reserved":false,"is_disabled":false,"rental_uris":{"android":"levelo://app?vid=08cd3c25-96f5-46a2-80f8-c59e2e04b11d","ios":"levelo://app?vid=08cd3c25-96f5-46a2-80f8-c59e2e04b11d"},"vehicle_type_id":"4","last_reported":1700496592,"current_range_meters":0,"station_id":"ce4bhb12rcd13ifvqem0","pricing_plan_id":"free"},{"bike_id":"07202f70-50d7-46f0-a5bd-59712659d6a0","system_id":"levelo_inurba_marseille","lat":43.31251,"lon":5.40162,"is_reserved":false,"is_disabled":false,"rental_uris":{"android":"levelo://app?vid=07202f70-50d7-46f0-a5bd-59712659d6a0","ios":"levelo://app?vid=07202f70-50d7-46f0-a5bd-59712659d6a0"},"vehicle_type_id":"4","last_reported":1700496592,"current_range_meters":6800,"station_id":"","pricing_plan_id":"free"},{"bike_id":"997f24cc-0d8b-406d-979d-acf9a80dd82f","system_id":"levelo_inurba_marseille","lat":43.337417,"lon":5.374497,"is_reserved":false,"is_disabled":false,"rental_uris":{"android":"levelo://app?vid=997f24cc-0d8b-406d-979d-acf9a80dd82f","ios":"levelo://app?vid=997f24cc-0d8b-406d-979d-acf9a80dd82f"},"vehicle_type_id":"4","last_reported":1700496592,"current_range_meters":26400,"station_id":"","pricing_plan_id":"free"},{"bike_id":"d5007cd5-ae02-43a7-8284-60107adb6236","system_id":"levelo_inurba_marseille","lat":43.33742,"lon":5.37456,"is_reserved":false,"is_disabled":false,"rental_uris":{"android":"levelo://app?vid=d5007cd5-ae02-43a7-8284-60107adb6236","ios":"levelo://app?vid=d5007cd5-ae02-43a7-8284-60107adb6236"},"vehicle_type_id":"4","last_reported":1700496592,"current_range_meters":27200,"station_id":"","pricing_plan_id":"free"},{"bike_id":"9d76eca6-e85e-49d7-809a-4e0ac58db9fa","system_id":"levelo_inurba_marseille","lat":43.312777,"lon":5.401693,"is_reserved":false,"is_disabled":false,"rental_uris":{"android":"levelo://app?vid=9d76eca6-e85e-49d7-809a-4e0ac58db9fa","ios":"levelo://app?vid=9d76eca6-e85e-49d7-809a-4e0ac58db9fa"},"vehicle_type_id":"4","last_reported":1700496592,"current_range_meters":31200,"station_id":"ce4bh092rcd13ifvqd30","pricing_plan_id":"free"},{"bike_id":"21ba781a-fbd7-4e04-aed8-4bfb65558650","system_id":"levelo_inurba_marseille","lat":43.312609,"lon":5.401662,"is_reserved":false,"is_disabled":false,"rental_uris":{"android":"levelo://app?vid=21ba781a-fbd7-4e04-aed8-4bfb65558650","ios":"levelo://app?vid=21ba781a-fbd7-4e04-aed8-4bfb65558650"},"vehicle_type_id":"4","last_reported":1700496592,"current_range_meters":16400,"station_id":"ce4bh092rcd13ifvqd30","pricing_plan_id":"free"},{"bike_id":"0d69921c-4554-4782-ae27-e667b541b566","system_id":"levelo_inurba_marseille","lat":43.30642,"lon":5.401031,"is_reserved":false,"is_disabled":false,"rental_uris":{"android":"levelo://app?vid=0d69921c-4554-4782-ae27-e667b541b566","ios":"levelo://app?vid=0d69921c-4554-4782-ae27-e667b541b566"},"vehicle_type_id":"4","last_reported":1700496592,"current_range_meters":4400,"station_id":"ce4bh112rcd13ifvqda0","pricing_plan_id":"free"},{"bike_id":"fd40aa40-e40d-4c6d-a120-ae5e2f230108","system_id":"levelo_inurba_marseille","lat":43.30642,"lon":5.401031,"is_reserved":false,"is_disabled":false,"rental_uris":{"android":"levelo://app?vid=fd40aa40-e40d-4c6d-a120-ae5e2f230108","ios":"levelo://app?vid=fd40aa40-e40d-4c6d-a120-ae5e2f230108"},"vehicle_type_id":"4","last_reported":1700496592,"current_range_meters":0,"station_id":"ce4bh112rcd13ifvqda0","pricing_plan_id":"free"},{"bike_id":"7d1b648a-c616-4e16-9ce5-054be0c1527d","system_id":"levelo_inurba_marseille","lat":43.33758,"lon":5.37493,"is_reserved":false,"is_disabled":false,"rental_uris":{"android":"levelo://app?vid=7d1b648a-c616-4e16-9ce5-054be0c1527d","ios":"levelo://app?vid=7d1b648a-c616-4e16-9ce5-054be0c1527d"},"vehicle_type_id":"4","last_reported":1700496592,"current_range_meters":30400,"station_id":"","pricing_plan_id":"free"},{"bike_id":"5e11e9d7-87f8-46d8-be7b-cd1eba76c956","system_id":"levelo_inurba_marseille","lat":43.30642,"lon":5.401031,"is_reserved":false,"is_disabled":false,"rental_uris":{"android":"levelo://app?vid=5e11e9d7-87f8-46d8-be7b-cd1eba76c956","ios":"levelo://app?vid=5e11e9d7-87f8-46d8-be7b-cd1eba76c956"},"vehicle_type_id":"4","last_reported":1700496592,"current_range_meters":8800,"station_id":"ce4bh112rcd13ifvqda0","pricing_plan_id":"free"},{"bike_id":"52ee9ca2-1fa9-4a5c-b2cd-e185bc2a757f","system_id":"levelo_inurba_marseille","lat":43.306453,"lon":5.40094,"is_reserved":false,"is_disabled":false,"rental_uris":{"android":"levelo://app?vid=52ee9ca2-1fa9-4a5c-b2cd-e185bc2a757f","ios":"levelo://app?vid=52ee9ca2-1fa9-4a5c-b2cd-e185bc2a757f"},"vehicle_type_id":"4","last_reported":1700496592,"current_range_meters":6400,"station_id":"ce4bh112rcd13ifvqda0","pricing_plan_id":"free"},{"bike_id":"4d0c9dd5-e5ff-45ba-ba31-725db1aee572","system_id":"levelo_inurba_marseille","lat":43.30644,"lon":5.401,"is_reserved":false,"is_disabled":false,"rental_uris":{"android":"levelo://app?vid=4d0c9dd5-e5ff-45ba-ba31-725db1aee572","ios":"levelo://app?vid=4d0c9dd5-e5ff-45ba-ba31-725db1aee572"},"vehicle_type_id":"4","last_reported":1700496592,"current_range_meters":21200,"station_id":"ce4bh112rcd13ifvqda0","pricing_plan_id":"free"},{"bike_id":"fd8f2a64-f6f3-4631-901a-79c251954df1","system_id":"levelo_inurba_marseille","lat":43.298681,"lon":5.397225,"is_reserved":false,"is_disabled":false,"rental_uris":{"android":"levelo://app?vid=fd8f2a64-f6f3-4631-901a-79c251954df1","ios":"levelo://app?vid=fd8f2a64-f6f3-4631-901a-79c251954df1"},"vehicle_type_id":"4","last_reported":1700496592,"current_range_meters":28800,"station_id":"ce4bh0h2rcd13ifvqd50","pricing_plan_id":"free"},{"bike_id":"67ddc98b-21fe-4f68-8e90-0f769da2f890","system_id":"levelo_inurba_marseille","lat":43.298681,"lon":5.397225,"is_reserved":false,"is_disabled":false,"rental_uris":{"android":"levelo://app?vid=67ddc98b-21fe-4f68-8e90-0f769da2f890","ios":"levelo://app?vid=67ddc98b-21fe-4f68-8e90-0f769da2f890"},"vehicle_type_id":"4","last_reported":1700496592,"current_range_meters":31200,"station_id":"ce4bh0h2rcd13ifvqd50","pricing_plan_id":"free"},{"bike_id":"7704edf1-77c5-4849-b8a8-3068e28b037e","system_id":"levelo_inurba_marseille","lat":43.298681,"lon":5.397225,"is_reserved":false,"is_disabled":false,"rental_uris":{"android":"levelo://app?vid=7704edf1-77c5-4849-b8a8-3068e28b037e","ios":"levelo://app?vid=7704edf1-77c5-4849-b8a8-3068e28b037e"},"vehicle_type_id":"4","last_reported":1700496592,"current_range_meters":31200,"station_id":"ce4bh0h2rcd13ifvqd50","pricing_plan_id":"free"},{"bike_id":"91ed970b-66ce-4c84-84de-437cfe8ae2f7","system_id":"levelo_inurba_marseille","lat":43.298681,"lon":5.397225,"is_reserved":false,"is_disabled":false,"rental_uris":{"android":"levelo://app?vid=91ed970b-66ce-4c84-84de-437cfe8ae2f7","ios":"levelo://app?vid=91ed970b-66ce-4c84-84de-437cfe8ae2f7"},"vehicle_type_id":"4","last_reported":1700496592,"current_range_meters":28400,"station_id":"ce4bh0h2rcd13ifvqd50","pricing_plan_id":"free"},{"bike_id":"1c188cac-456b-4f5f-bf43-3f456324329d","system_id":"levelo_inurba_marseille","lat":43.28655,"lon":5.363599,"is_reserved":false,"is_disabled":false,"rental_uris":{"android":"levelo://app?vid=1c188cac-456b-4f5f-bf43-3f456324329d","ios":"levelo://app?vid=1c188cac-456b-4f5f-bf43-3f456324329d"},"vehicle_type_id":"4","last_reported":1700496592,"current_range_meters":18800,"station_id":"ce4bhah2rcd13ifvqej0","pricing_plan_id":"free"},{"bike_id":"ca03b256-19bc-415e-83cd-37d88041714d","system_id":"levelo_inurba_marseille","lat":43.302759,"lon":5.400793,"is_reserved":false,"is_disabled":false,"rental_uris":{"android":"levelo://app?vid=ca03b256-19bc-415e-83cd-37d88041714d","ios":"levelo://app?vid=ca03b256-19bc-415e-83cd-37d88041714d"},"vehicle_type_id":"4","last_reported":1700496592,"current_range_meters":28000,"station_id":"ce4bgvh2rcd13ifvqcs0","pricing_plan_id":"free"},{"bike_id":"bbe7566c-5cb6-4a5a-b901-22109d3bc99e","system_id":"levelo_inurba_marseille","lat":43.302759,"lon":5.400793,"is_reserved":false,"is_disabled":false,"rental_uris":{"android":"levelo://app?vid=bbe7566c-5cb6-4a5a-b901-22109d3bc99e","ios":"levelo://app?vid=bbe7566c-5cb6-4a5a-b901-22109d3bc99e"},"vehicle_type_id":"4","last_reported":1700496592,"current_range_meters":5200,"station_id":"ce4bgvh2rcd13ifvqcs0","pricing_plan_id":"free"},{"bike_id":"34d30d31-fd26-40a3-bf63-6099f94244b8","system_id":"levelo_inurba_marseille","lat":43.302759,"lon":5.400793,"is_reserved":false,"is_disabled":false,"rental_uris":{"android":"levelo://app?vid=34d30d31-fd26-40a3-bf63-6099f94244b8","ios":"levelo://app?vid=34d30d31-fd26-40a3-bf63-6099f94244b8"},"vehicle_type_id":"4","last_reported":1700496592,"current_range_meters":21600,"station_id":"ce4bgvh2rcd13ifvqcs0","pricing_plan_id":"free"},{"bike_id":"619ee2be-89b1-436f-a167-988c12d457fc","system_id":"levelo_inurba_marseille","lat":43.2861,"lon":5.37061,"is_reserved":false,"is_disabled":false,"rental_uris":{"android":"levelo://app?vid=619ee2be-89b1-436f-a167-988c12d457fc","ios":"levelo://app?vid=619ee2be-89b1-436f-a167-988c12d457fc"},"vehicle_type_id":"4","last_reported":1700496592,"current_range_meters":0,"station_id":"ce4bht12rcd13ifvqi60","pricing_plan_id":"free"},{"bike_id":"301f7f85-cb19-4453-af70-fe80109d8c7c","system_id":"levelo_inurba_marseille","lat":43.302008,"lon":5.394694,"is_reserved":false,"is_disabled":false,"rental_uris":{"android":"levelo://app?vid=301f7f85-cb19-4453-af70-fe80109d8c7c","ios":"levelo://app?vid=301f7f85-cb19-4453-af70-fe80109d8c7c"},"vehicle_type_id":"4","last_reported":1700496592,"current_range_meters":10400,"station_id":"ce4bh0p2rcd13ifvqd70","pricing_plan_id":"free"},{"bike_id":"ecfb833b-6a77-458c-a9ec-5e09d80994b1","system_id":"levelo_inurba_marseille","lat":43.302008,"lon":5.394694,"is_reserved":false,"is_disabled":false,"rental_uris":{"android":"levelo://app?vid=ecfb833b-6a77-458c-a9ec-5e09d80994b1","ios":"levelo://app?vid=ecfb833b-6a77-458c-a9ec-5e09d80994b1"},"vehicle_type_id":"4","last_reported":1700496592,"current_range_meters":24000,"station_id":"ce4bh0p2rcd13ifvqd70","pricing_plan_id":"free"},{"bike_id":"60f9f49d-4f60-4720-bef7-3c8ea8bc36e5","system_id":"levelo_inurba_marseille","lat":43.284534,"lon":5.358662,"is_reserved":false,"is_disabled":false,"rental_uris":{"android":"levelo://app?vid=60f9f49d-4f60-4720-bef7-3c8ea8bc36e5","ios":"levelo://app?vid=60f9f49d-4f60-4720-bef7-3c8ea8bc36e5"},"vehicle_type_id":"4","last_reported":1700496592,"current_range_meters":23600,"station_id":"ce4bhah2rcd13ifvqei0","pricing_plan_id":"free"},{"bike_id":"35974fc7-0069-4b56-ae16-95d19856f8bb","system_id":"levelo_inurba_marseille","lat":43.284538,"lon":5.358657,"is_reserved":false,"is_disabled":false,"rental_uris":{"android":"levelo://app?vid=35974fc7-0069-4b56-ae16-95d19856f8bb","ios":"levelo://app?vid=35974fc7-0069-4b56-ae16-95d19856f8bb"},"vehicle_type_id":"4","last_reported":1700496592,"current_range_meters":4800,"station_id":"ce4bhah2rcd13ifvqei0","pricing_plan_id":"free"},{"bike_id":"257815f9-6d85-482f-ba6e-71a2ecc50af1","system_id":"levelo_inurba_marseille","lat":43.284538,"lon":5.358657,"is_reserved":false,"is_disabled":false,"rental_uris":{"android":"levelo://app?vid=257815f9-6d85-482f-ba6e-71a2ecc50af1","ios":"levelo://app?vid=257815f9-6d85-482f-ba6e-71a2ecc50af1"},"vehicle_type_id":"4","last_reported":1700496592,"current_range_meters":9200,"station_id":"ce4bhah2rcd13ifvqei0","pricing_plan_id":"free"},{"bike_id":"bc246175-f3c5-4bbb-8bc6-68f6df665cd3","system_id":"levelo_inurba_marseille","lat":43.285856,"lon":5.350771,"is_reserved":false,"is_disabled":false,"rental_uris":{"android":"levelo://app?vid=bc246175-f3c5-4bbb-8bc6-68f6df665cd3","ios":"levelo://app?vid=bc246175-f3c5-4bbb-8bc6-68f6df665cd3"},"vehicle_type_id":"4","last_reported":1700496592,"current_range_meters":7600,"station_id":"ce4bhch2rcd13ifvqeug","pricing_plan_id":"free"},{"bike_id":"e2888d54-4cde-4cd1-a872-e6c664296037","system_id":"levelo_inurba_marseille","lat":43.286275,"lon":5.38407,"is_reserved":false,"is_disabled":false,"rental_uris":{"android":"levelo://app?vid=e2888d54-4cde-4cd1-a872-e6c664296037","ios":"levelo://app?vid=e2888d54-4cde-4cd1-a872-e6c664296037"},"vehicle_type_id":"4","last_reported":1700496592,"current_range_meters":0,"station_id":"","pricing_plan_id":"free"},{"bike_id":"37c8a8e0-5eab-4447-a3f5-86f777c3aeac","system_id":"levelo_inurba_marseille","lat":43.283998,"lon":5.375062,"is_reserved":false,"is_disabled":false,"rental_uris":{"android":"levelo://app?vid=37c8a8e0-5eab-4447-a3f5-86f777c3aeac","ios":"levelo://app?vid=37c8a8e0-5eab-4447-a3f5-86f777c3aeac"},"vehicle_type_id":"4","last_reported":1700496592,"current_range_meters":20800,"station_id":"ce4bh412rcd13ifvqds0","pricing_plan_id":"free"},{"bike_id":"8f03f680-cdcf-4950-8296-de83ac3d125b","system_id":"levelo_inurba_marseille","lat":43.295713,"lon":5.399639,"is_reserved":false,"is_disabled":false,"rental_uris":{"android":"levelo://app?vid=8f03f680-cdcf-4950-8296-de83ac3d125b","ios":"levelo://app?vid=8f03f680-cdcf-4950-8296-de83ac3d125b"},"vehicle_type_id":"4","last_reported":1700496592,"current_range_meters":6400,"station_id":"ce4bh312rcd13ifvqdj0","pricing_plan_id":"free"},{"bike_id":"82a0af8e-75cc-45f3-9b26-ffb35114ab8a","system_id":"levelo_inurba_marseille","lat":43.2864,"lon":5.385447,"is_reserved":false,"is_disabled":false,"rental_uris":{"android":"levelo://app?vid=82a0af8e-75cc-45f3-9b26-ffb35114ab8a","ios":"levelo://app?vid=82a0af8e-75cc-45f3-9b26-ffb35114ab8a"},"vehicle_type_id":"4","last_reported":1700496592,"current_range_meters":21200,"station_id":"","pricing_plan_id":"free"},{"bike_id":"f3585427-ecf9-4704-b265-9a1d1db45976","system_id":"levelo_inurba_marseille","lat":43.286595,"lon":5.386795,"is_reserved":false,"is_disabled":false,"rental_uris":{"android":"levelo://app?vid=f3585427-ecf9-4704-b265-9a1d1db45976","ios":"levelo://app?vid=f3585427-ecf9-4704-b265-9a1d1db45976"},"vehicle_type_id":"4","last_reported":1700496592,"current_range_meters":17200,"station_id":"ce4bh492rcd13ifvqdug","pricing_plan_id":"free"},{"bike_id":"a214605d-f2a6-4a37-ac2e-75033385edd5","system_id":"levelo_inurba_marseille","lat":43.319179,"lon":5.407725,"is_reserved":false,"is_disabled":false,"rental_uris":{"android":"levelo://app?vid=a214605d-f2a6-4a37-ac2e-75033385edd5","ios":"levelo://app?vid=a214605d-f2a6-4a37-ac2e-75033385edd5"},"vehicle_type_id":"4","last_reported":1700496592,"current_range_meters":8000,"station_id":"ce4bhq12rcd13ifvqhig","pricing_plan_id":"free"},{"bike_id":"20d7875e-45dc-40c9-9fb5-5fa7e72141d1","system_id":"levelo_inurba_marseille","lat":43.319179,"lon":5.407725,"is_reserved":false,"is_disabled":false,"rental_uris":{"android":"levelo://app?vid=20d7875e-45dc-40c9-9fb5-5fa7e72141d1","ios":"levelo://app?vid=20d7875e-45dc-40c9-9fb5-5fa7e72141d1"},"vehicle_type_id":"4","last_reported":1700496592,"current_range_meters":13200,"station_id":"ce4bhq12rcd13ifvqhig","pricing_plan_id":"free"},{"bike_id":"5974ad3b-da81-42ca-a08b-1b3632a47afa","system_id":"levelo_inurba_marseille","lat":43.33237,"lon":5.3985,"is_reserved":false,"is_disabled":false,"rental_uris":{"android":"levelo://app?vid=5974ad3b-da81-42ca-a08b-1b3632a47afa","ios":"levelo://app?vid=5974ad3b-da81-42ca-a08b-1b3632a47afa"},"vehicle_type_id":"4","last_reported":1700496592,"current_range_meters":0,"station_id":"","pricing_plan_id":"free"},{"bike_id":"078fc2dd-39b9-4d29-a340-37acd5789adc","system_id":"levelo_inurba_marseille","lat":43.33704,"lon":5.39207,"is_reserved":false,"is_disabled":false,"rental_uris":{"android":"levelo://app?vid=078fc2dd-39b9-4d29-a340-37acd5789adc","ios":"levelo://app?vid=078fc2dd-39b9-4d29-a340-37acd5789adc"},"vehicle_type_id":"4","last_reported":1700496592,"current_range_meters":24400,"station_id":"ce4bhr92rcd13ifvqhsg","pricing_plan_id":"free"},{"bike_id":"95b0af1f-1f18-4aea-baa0-e5a5b68c942f","system_id":"levelo_inurba_marseille","lat":43.284793,"lon":5.384113,"is_reserved":false,"is_disabled":false,"rental_uris":{"android":"levelo://app?vid=95b0af1f-1f18-4aea-baa0-e5a5b68c942f","ios":"levelo://app?vid=95b0af1f-1f18-4aea-baa0-e5a5b68c942f"},"vehicle_type_id":"4","last_reported":1700496592,"current_range_meters":400,"station_id":"ce4bh512rcd13ifvqe3g","pricing_plan_id":"free"},{"bike_id":"5f7be159-3ffc-4d0b-ac0b-2482534e516c","system_id":"levelo_inurba_marseille","lat":43.323464,"lon":5.406297,"is_reserved":false,"is_disabled":false,"rental_uris":{"android":"levelo://app?vid=5f7be159-3ffc-4d0b-ac0b-2482534e516c","ios":"levelo://app?vid=5f7be159-3ffc-4d0b-ac0b-2482534e516c"},"vehicle_type_id":"4","last_reported":1700496592,"current_range_meters":13200,"station_id":"ce4bhq92rcd13ifvqhjg","pricing_plan_id":"free"},{"bike_id":"4647cf91-8a7f-43fc-9284-829238422ab4","system_id":"levelo_inurba_marseille","lat":43.28854,"lon":5.39299,"is_reserved":false,"is_disabled":false,"rental_uris":{"android":"levelo://app?vid=4647cf91-8a7f-43fc-9284-829238422ab4","ios":"levelo://app?vid=4647cf91-8a7f-43fc-9284-829238422ab4"},"vehicle_type_id":"4","last_reported":1700496592,"current_range_meters":23600,"station_id":"ce4bh2p2rcd13ifvqdi0","pricing_plan_id":"free"},{"bike_id":"8f00a6ac-e522-4854-ac63-d9dac3d1bd27","system_id":"levelo_inurba_marseille","lat":43.297946,"lon":5.404063,"is_reserved":false,"is_disabled":false,"rental_uris":{"android":"levelo://app?vid=8f00a6ac-e522-4854-ac63-d9dac3d1bd27","ios":"levelo://app?vid=8f00a6ac-e522-4854-ac63-d9dac3d1bd27"},"vehicle_type_id":"4","last_reported":1700496592,"current_range_meters":18800,"station_id":"ce4bh112rcd13ifvqd90","pricing_plan_id":"free"},{"bike_id":"eabb88d6-f2e1-4a32-a85a-5e75ff712cf0","system_id":"levelo_inurba_marseille","lat":43.28854,"lon":5.39303,"is_reserved":false,"is_disabled":false,"rental_uris":{"android":"levelo://app?vid=eabb88d6-f2e1-4a32-a85a-5e75ff712cf0","ios":"levelo://app?vid=eabb88d6-f2e1-4a32-a85a-5e75ff712cf0"},"vehicle_type_id":"4","last_reported":1700496592,"current_range_meters":10000,"station_id":"ce4bh2p2rcd13ifvqdi0","pricing_plan_id":"free"},{"bike_id":"5129b393-30b0-4a3a-8578-1978e6d489cc","system_id":"levelo_inurba_marseille","lat":43.29795,"lon":5.404086,"is_reserved":false,"is_disabled":false,"rental_uris":{"android":"levelo://app?vid=5129b393-30b0-4a3a-8578-1978e6d489cc","ios":"levelo://app?vid=5129b393-30b0-4a3a-8578-1978e6d489cc"},"vehicle_type_id":"4","last_reported":1700496592,"current_range_meters":30000,"station_id":"ce4bh112rcd13ifvqd90","pricing_plan_id":"free"},{"bike_id":"51640ced-ee05-4e9e-be09-737c5fadf563","system_id":"levelo_inurba_marseille","lat":43.283494,"lon":5.380945,"is_reserved":false,"is_disabled":false,"rental_uris":{"android":"levelo://app?vid=51640ced-ee05-4e9e-be09-737c5fadf563","ios":"levelo://app?vid=51640ced-ee05-4e9e-be09-737c5fadf563"},"vehicle_type_id":"4","last_reported":1700496592,"current_range_meters":15200,"station_id":"ce4bh412rcd13ifvqdr0","pricing_plan_id":"free"},{"bike_id":"9a7983f3-258a-4c2a-84de-5715c0d6fbf3","system_id":"levelo_inurba_marseille","lat":43.289363,"lon":5.396322,"is_reserved":false,"is_disabled":false,"rental_uris":{"android":"levelo://app?vid=9a7983f3-258a-4c2a-84de-5715c0d6fbf3","ios":"levelo://app?vid=9a7983f3-258a-4c2a-84de-5715c0d6fbf3"},"vehicle_type_id":"4","last_reported":1700496592,"current_range_meters":30000,"station_id":"ce4bh3h2rcd13ifvqdn0","pricing_plan_id":"free"},{"bike_id":"f3eb3bc9-e1b7-4ad8-a5e6-52f51fe058e1","system_id":"levelo_inurba_marseille","lat":43.282754,"lon":5.350519,"is_reserved":false,"is_disabled":false,"rental_uris":{"android":"levelo://app?vid=f3eb3bc9-e1b7-4ad8-a5e6-52f51fe058e1","ios":"levelo://app?vid=f3eb3bc9-e1b7-4ad8-a5e6-52f51fe058e1"},"vehicle_type_id":"4","last_reported":1700496592,"current_range_meters":10800,"station_id":"ce4bhbp2rcd13ifvqerg","pricing_plan_id":"free"},{"bike_id":"d91a4321-33cb-4444-ae0a-360a0804a435","system_id":"levelo_inurba_marseille","lat":43.28039,"lon":5.369297,"is_reserved":false,"is_disabled":false,"rental_uris":{"android":"levelo://app?vid=d91a4321-33cb-4444-ae0a-360a0804a435","ios":"levelo://app?vid=d91a4321-33cb-4444-ae0a-360a0804a435"},"vehicle_type_id":"4","last_reported":1700496592,"current_range_meters":28000,"station_id":"ce4bha12rcd13ifvqef0","pricing_plan_id":"free"},{"bike_id":"c15b2980-33da-4e20-8228-30cad018ccad","system_id":"levelo_inurba_marseille","lat":43.29042,"lon":5.39968,"is_reserved":false,"is_disabled":false,"rental_uris":{"android":"levelo://app?vid=c15b2980-33da-4e20-8228-30cad018ccad","ios":"levelo://app?vid=c15b2980-33da-4e20-8228-30cad018ccad"},"vehicle_type_id":"4","last_reported":1700496592,"current_range_meters":0,"station_id":"ce4bh392rcd13ifvqdm0","pricing_plan_id":"free"},{"bike_id":"35ef8625-ec48-4188-b183-819b63de26e0","system_id":"levelo_inurba_marseille","lat":43.281044,"lon":5.378308,"is_reserved":false,"is_disabled":false,"rental_uris":{"android":"levelo://app?vid=35ef8625-ec48-4188-b183-819b63de26e0","ios":"levelo://app?vid=35ef8625-ec48-4188-b183-819b63de26e0"},"vehicle_type_id":"4","last_reported":1700496592,"current_range_meters":24400,"station_id":"ce4bha12rcd13ifvqee0","pricing_plan_id":"free"},{"bike_id":"ccf9b17e-2fb6-47d5-b5cb-73ea08fcb6e5","system_id":"levelo_inurba_marseille","lat":43.28575,"lon":5.39498,"is_reserved":false,"is_disabled":false,"rental_uris":{"android":"levelo://app?vid=ccf9b17e-2fb6-47d5-b5cb-73ea08fcb6e5","ios":"levelo://app?vid=ccf9b17e-2fb6-47d5-b5cb-73ea08fcb6e5"},"vehicle_type_id":"4","last_reported":1700496592,"current_range_meters":0,"station_id":"ce4bh292rcd13ifvqdg0","pricing_plan_id":"free"},{"bike_id":"75526636-fd84-45ad-895a-c60cf0c4d57b","system_id":"levelo_inurba_marseille","lat":43.28573,"lon":5.394992,"is_reserved":false,"is_disabled":false,"rental_uris":{"android":"levelo://app?vid=75526636-fd84-45ad-895a-c60cf0c4d57b","ios":"levelo://app?vid=75526636-fd84-45ad-895a-c60cf0c4d57b"},"vehicle_type_id":"4","last_reported":1700496592,"current_range_meters":12800,"station_id":"ce4bh292rcd13ifvqdg0","pricing_plan_id":"free"},{"bike_id":"cff0522e-33cd-4e86-b953-f73f6bb554d9","system_id":"levelo_inurba_marseille","lat":43.278598,"lon":5.363696,"is_reserved":false,"is_disabled":false,"rental_uris":{"android":"levelo://app?vid=cff0522e-33cd-4e86-b953-f73f6bb554d9","ios":"levelo://app?vid=cff0522e-33cd-4e86-b953-f73f6bb554d9"},"vehicle_type_id":"4","last_reported":1700496592,"current_range_meters":7600,"station_id":"ce4bgj92rcd13ifvqbe0","pricing_plan_id":"free"},{"bike_id":"7633c5a3-b622-4994-9c41-a758a771d6ea","system_id":"levelo_inurba_marseille","lat":43.279087,"lon":5.380114,"is_reserved":false,"is_disabled":false,"rental_uris":{"android":"levelo://app?vid=7633c5a3-b622-4994-9c41-a758a771d6ea","ios":"levelo://app?vid=7633c5a3-b622-4994-9c41-a758a771d6ea"},"vehicle_type_id":"4","last_reported":1700496592,"current_range_meters":22800,"station_id":"ce4bhf92rcd13ifvqf50","pricing_plan_id":"free"},{"bike_id":"8a6d093a-0dc1-4042-af17-dc57d45d6173","system_id":"levelo_inurba_marseille","lat":43.287154,"lon":5.399979,"is_reserved":false,"is_disabled":false,"rental_uris":{"android":"levelo://app?vid=8a6d093a-0dc1-4042-af17-dc57d45d6173","ios":"levelo://app?vid=8a6d093a-0dc1-4042-af17-dc57d45d6173"},"vehicle_type_id":"4","last_reported":1700496592,"current_range_meters":19200,"station_id":"ce4bho92rcd13ifvqh3g","pricing_plan_id":"free"},{"bike_id":"a607bb98-abb5-4045-9272-6b5bc9f174d3","system_id":"levelo_inurba_marseille","lat":43.287154,"lon":5.399979,"is_reserved":false,"is_disabled":false,"rental_uris":{"android":"levelo://app?vid=a607bb98-abb5-4045-9272-6b5bc9f174d3","ios":"levelo://app?vid=a607bb98-abb5-4045-9272-6b5bc9f174d3"},"vehicle_type_id":"4","last_reported":1700496592,"current_range_meters":31200,"station_id":"ce4bho92rcd13ifvqh3g","pricing_plan_id":"free"},{"bike_id":"8eb8f1b4-e76b-4388-a869-4146b358aec1","system_id":"levelo_inurba_marseille","lat":43.292571,"lon":5.409107,"is_reserved":false,"is_disabled":false,"rental_uris":{"android":"levelo://app?vid=8eb8f1b4-e76b-4388-a869-4146b358aec1","ios":"levelo://app?vid=8eb8f1b4-e76b-4388-a869-4146b358aec1"},"vehicle_type_id":"4","last_reported":1700496592,"current_range_meters":21600,"station_id":"ce4bh192rcd13ifvqdc0","pricing_plan_id":"free"},{"bike_id":"ea4511a1-ab67-4913-ab0d-ba840400124d","system_id":"levelo_inurba_marseille","lat":43.292569,"lon":5.409107,"is_reserved":false,"is_disabled":false,"rental_uris":{"android":"levelo://app?vid=ea4511a1-ab67-4913-ab0d-ba840400124d","ios":"levelo://app?vid=ea4511a1-ab67-4913-ab0d-ba840400124d"},"vehicle_type_id":"4","last_reported":1700496592,"current_range_meters":20000,"station_id":"ce4bh192rcd13ifvqdc0","pricing_plan_id":"free"},{"bike_id":"52fd3e13-c490-4580-b4b9-ef7c39594c41","system_id":"levelo_inurba_marseille","lat":43.292569,"lon":5.409107,"is_reserved":false,"is_disabled":false,"rental_uris":{"android":"levelo://app?vid=52fd3e13-c490-4580-b4b9-ef7c39594c41","ios":"levelo://app?vid=52fd3e13-c490-4580-b4b9-ef7c39594c41"},"vehicle_type_id":"4","last_reported":1700496592,"current_range_meters":20400,"station_id":"ce4bh192rcd13ifvqdc0","pricing_plan_id":"free"},{"bike_id":"5d9e0f61-3ef2-46bf-80cd-8b1cc5acf214","system_id":"levelo_inurba_marseille","lat":43.276189,"lon":5.361042,"is_reserved":false,"is_disabled":false,"rental_uris":{"android":"levelo://app?vid=5d9e0f61-3ef2-46bf-80cd-8b1cc5acf214","ios":"levelo://app?vid=5d9e0f61-3ef2-46bf-80cd-8b1cc5acf214"},"vehicle_type_id":"4","last_reported":1700496592,"current_range_meters":11200,"station_id":"","pricing_plan_id":"free"},{"bike_id":"54d83bdb-854d-4ada-827b-6f0754351f02","system_id":"levelo_inurba_marseille","lat":43.27617,"lon":5.36111,"is_reserved":false,"is_disabled":false,"rental_uris":{"android":"levelo://app?vid=54d83bdb-854d-4ada-827b-6f0754351f02","ios":"levelo://app?vid=54d83bdb-854d-4ada-827b-6f0754351f02"},"vehicle_type_id":"4","last_reported":1700496592,"current_range_meters":6400,"station_id":"ce4bgj92rcd13ifvqbe0","pricing_plan_id":"free"},{"bike_id":"f91eeb3c-69ad-4653-b479-bf02928f8fef","system_id":"levelo_inurba_marseille","lat":43.27617,"lon":5.3611,"is_reserved":false,"is_disabled":false,"rental_uris":{"android":"levelo://app?vid=f91eeb3c-69ad-4653-b479-bf02928f8fef","ios":"levelo://app?vid=f91eeb3c-69ad-4653-b479-bf02928f8fef"},"vehicle_type_id":"4","last_reported":1700496592,"current_range_meters":3200,"station_id":"ce4bgj92rcd13ifvqbe0","pricing_plan_id":"free"},{"bike_id":"e1ee67d5-65ca-49be-be05-a6f126eae74c","system_id":"levelo_inurba_marseille","lat":43.27617,"lon":5.36103,"is_reserved":false,"is_disabled":false,"rental_uris":{"android":"levelo://app?vid=e1ee67d5-65ca-49be-be05-a6f126eae74c","ios":"levelo://app?vid=e1ee67d5-65ca-49be-be05-a6f126eae74c"},"vehicle_type_id":"4","last_reported":1700496592,"current_range_meters":23600,"station_id":"ce4bgj92rcd13ifvqbe0","pricing_plan_id":"free"},{"bike_id":"c14454c6-496a-4926-89f1-660158c03d7b","system_id":"levelo_inurba_marseille","lat":43.27616,"lon":5.36107,"is_reserved":false,"is_disabled":false,"rental_uris":{"android":"levelo://app?vid=c14454c6-496a-4926-89f1-660158c03d7b","ios":"levelo://app?vid=c14454c6-496a-4926-89f1-660158c03d7b"},"vehicle_type_id":"4","last_reported":1700496592,"current_range_meters":4800,"station_id":"ce4bgj92rcd13ifvqbe0","pricing_plan_id":"free"},{"bike_id":"1ec53fc5-b8e3-4edc-85bf-09f89af93265","system_id":"levelo_inurba_marseille","lat":43.276148,"lon":5.361175,"is_reserved":false,"is_disabled":false,"rental_uris":{"android":"levelo://app?vid=1ec53fc5-b8e3-4edc-85bf-09f89af93265","ios":"levelo://app?vid=1ec53fc5-b8e3-4edc-85bf-09f89af93265"},"vehicle_type_id":"4","last_reported":1700496592,"current_range_meters":15200,"station_id":"ce4bgj92rcd13ifvqbe0","pricing_plan_id":"free"},{"bike_id":"08c4eaeb-135a-48aa-8474-d823f7e7fc98","system_id":"levelo_inurba_marseille","lat":43.27615,"lon":5.36114,"is_reserved":false,"is_disabled":false,"rental_uris":{"android":"levelo://app?vid=08c4eaeb-135a-48aa-8474-d823f7e7fc98","ios":"levelo://app?vid=08c4eaeb-135a-48aa-8474-d823f7e7fc98"},"vehicle_type_id":"4","last_reported":1700496592,"current_range_meters":16400,"station_id":"ce4bgj92rcd13ifvqbe0","pricing_plan_id":"free"},{"bike_id":"4f1a6b35-6778-477c-bad5-109b7f667c51","system_id":"levelo_inurba_marseille","lat":43.27614,"lon":5.36109,"is_reserved":false,"is_disabled":false,"rental_uris":{"android":"levelo://app?vid=4f1a6b35-6778-477c-bad5-109b7f667c51","ios":"levelo://app?vid=4f1a6b35-6778-477c-bad5-109b7f667c51"},"vehicle_type_id":"4","last_reported":1700496592,"current_range_meters":21600,"station_id":"ce4bgj92rcd13ifvqbe0","pricing_plan_id":"free"},{"bike_id":"0eac5785-59a2-4702-9166-05792bf737eb","system_id":"levelo_inurba_marseille","lat":43.275625,"lon":5.384392,"is_reserved":false,"is_disabled":false,"rental_uris":{"android":"levelo://app?vid=0eac5785-59a2-4702-9166-05792bf737eb","ios":"levelo://app?vid=0eac5785-59a2-4702-9166-05792bf737eb"},"vehicle_type_id":"4","last_reported":1700496592,"current_range_meters":13200,"station_id":"ce4bhh92rcd13ifvqfi0","pricing_plan_id":"free"},{"bike_id":"14491e89-76d4-4f00-805c-e48bf0203f90","system_id":"levelo_inurba_marseille","lat":43.273613,"lon":5.362705,"is_reserved":false,"is_disabled":false,"rental_uris":{"android":"levelo://app?vid=14491e89-76d4-4f00-805c-e48bf0203f90","ios":"levelo://app?vid=14491e89-76d4-4f00-805c-e48bf0203f90"},"vehicle_type_id":"4","last_reported":1700496592,"current_range_meters":26400,"station_id":"ce4bhbh2rcd13ifvqeo0","pricing_plan_id":"free"},{"bike_id":"52750df6-f390-45cc-b0c2-8b2e503a2784","system_id":"levelo_inurba_marseille","lat":43.275625,"lon":5.384392,"is_reserved":false,"is_disabled":false,"rental_uris":{"android":"levelo://app?vid=52750df6-f390-45cc-b0c2-8b2e503a2784","ios":"levelo://app?vid=52750df6-f390-45cc-b0c2-8b2e503a2784"},"vehicle_type_id":"4","last_reported":1700496592,"current_range_meters":8000,"station_id":"ce4bhh92rcd13ifvqfi0","pricing_plan_id":"free"},{"bike_id":"889edf4a-63af-48e0-9a99-9739571fa4a3","system_id":"levelo_inurba_marseille","lat":43.273613,"lon":5.362705,"is_reserved":false,"is_disabled":false,"rental_uris":{"android":"levelo://app?vid=889edf4a-63af-48e0-9a99-9739571fa4a3","ios":"levelo://app?vid=889edf4a-63af-48e0-9a99-9739571fa4a3"},"vehicle_type_id":"4","last_reported":1700496592,"current_range_meters":0,"station_id":"ce4bhbh2rcd13ifvqeo0","pricing_plan_id":"free"},{"bike_id":"5d19f1f7-3336-4f09-94b9-b5be46c6c0df","system_id":"levelo_inurba_marseille","lat":43.27647,"lon":5.389453,"is_reserved":false,"is_disabled":false,"rental_uris":{"android":"levelo://app?vid=5d19f1f7-3336-4f09-94b9-b5be46c6c0df","ios":"levelo://app?vid=5d19f1f7-3336-4f09-94b9-b5be46c6c0df"},"vehicle_type_id":"4","last_reported":1700496592,"current_range_meters":0,"station_id":"","pricing_plan_id":"free"},{"bike_id":"a462ad5e-bea9-41c4-ab74-c8f536700599","system_id":"levelo_inurba_marseille","lat":43.279952,"lon":5.400085,"is_reserved":false,"is_disabled":false,"rental_uris":{"android":"levelo://app?vid=a462ad5e-bea9-41c4-ab74-c8f536700599","ios":"levelo://app?vid=a462ad5e-bea9-41c4-ab74-c8f536700599"},"vehicle_type_id":"4","last_reported":1700496592,"current_range_meters":27200,"station_id":"ce4bho92rcd13ifvqh4g","pricing_plan_id":"free"},{"bike_id":"0c3c91a0-2760-436d-8134-9f5da30b513e","system_id":"levelo_inurba_marseille","lat":43.274045,"lon":5.389855,"is_reserved":false,"is_disabled":false,"rental_uris":{"android":"levelo://app?vid=0c3c91a0-2760-436d-8134-9f5da30b513e","ios":"levelo://app?vid=0c3c91a0-2760-436d-8134-9f5da30b513e"},"vehicle_type_id":"4","last_reported":1700496592,"current_range_meters":8400,"station_id":"","pricing_plan_id":"free"},{"bike_id":"2950851a-9c2e-48e8-ada9-f02c20a1f900","system_id":"levelo_inurba_marseille","lat":43.3041,"lon":5.42554,"is_reserved":false,"is_disabled":false,"rental_uris":{"android":"levelo://app?vid=2950851a-9c2e-48e8-ada9-f02c20a1f900","ios":"levelo://app?vid=2950851a-9c2e-48e8-ada9-f02c20a1f900"},"vehicle_type_id":"4","last_reported":1700496592,"current_range_meters":11200,"station_id":"ce4bhoh2rcd13ifvqh6g","pricing_plan_id":"free"},{"bike_id":"164a4810-657b-4fa0-8237-6ea798b24259","system_id":"levelo_inurba_marseille","lat":43.29552,"lon":5.42284,"is_reserved":false,"is_disabled":false,"rental_uris":{"android":"levelo://app?vid=164a4810-657b-4fa0-8237-6ea798b24259","ios":"levelo://app?vid=164a4810-657b-4fa0-8237-6ea798b24259"},"vehicle_type_id":"4","last_reported":1700496592,"current_range_meters":31200,"station_id":"ce4bhph2rcd13ifvqhdg","pricing_plan_id":"free"},{"bike_id":"bb824f64-d3d9-4e6a-a933-cb38324da65d","system_id":"levelo_inurba_marseille","lat":43.295523,"lon":5.422926,"is_reserved":false,"is_disabled":false,"rental_uris":{"android":"levelo://app?vid=bb824f64-d3d9-4e6a-a933-cb38324da65d","ios":"levelo://app?vid=bb824f64-d3d9-4e6a-a933-cb38324da65d"},"vehicle_type_id":"4","last_reported":1700496592,"current_range_meters":22800,"station_id":"ce4bhph2rcd13ifvqhdg","pricing_plan_id":"free"},{"bike_id":"f8f5619a-a183-461d-b100-453fb972fcd4","system_id":"levelo_inurba_marseille","lat":43.272118,"lon":5.391758,"is_reserved":false,"is_disabled":false,"rental_uris":{"android":"levelo://app?vid=f8f5619a-a183-461d-b100-453fb972fcd4","ios":"levelo://app?vid=f8f5619a-a183-461d-b100-453fb972fcd4"},"vehicle_type_id":"4","last_reported":1700496592,"current_range_meters":10800,"station_id":"ce4bhhp2rcd13ifvqfm0","pricing_plan_id":"free"},{"bike_id":"2c26963f-e1c9-45df-a770-b5d46932edeb","system_id":"levelo_inurba_marseille","lat":43.272118,"lon":5.391758,"is_reserved":false,"is_disabled":false,"rental_uris":{"android":"levelo://app?vid=2c26963f-e1c9-45df-a770-b5d46932edeb","ios":"levelo://app?vid=2c26963f-e1c9-45df-a770-b5d46932edeb"},"vehicle_type_id":"4","last_reported":1700496592,"current_range_meters":21200,"station_id":"ce4bhhp2rcd13ifvqfm0","pricing_plan_id":"free"},{"bike_id":"f0ed4531-078e-42fb-a007-3ed80505eb54","system_id":"levelo_inurba_marseille","lat":43.271891,"lon":5.392412,"is_reserved":false,"is_disabled":false,"rental_uris":{"android":"levelo://app?vid=f0ed4531-078e-42fb-a007-3ed80505eb54","ios":"levelo://app?vid=f0ed4531-078e-42fb-a007-3ed80505eb54"},"vehicle_type_id":"4","last_reported":1700496592,"current_range_meters":0,"station_id":"","pricing_plan_id":"free"},{"bike_id":"d095bf52-3315-4817-b9d7-c2fed72a10fb","system_id":"levelo_inurba_marseille","lat":43.278128,"lon":5.407195,"is_reserved":false,"is_disabled":false,"rental_uris":{"android":"levelo://app?vid=d095bf52-3315-4817-b9d7-c2fed72a10fb","ios":"levelo://app?vid=d095bf52-3315-4817-b9d7-c2fed72a10fb"},"vehicle_type_id":"4","last_reported":1700496592,"current_range_meters":17600,"station_id":"ce4bhnh2rcd13ifvqgtg","pricing_plan_id":"free"},{"bike_id":"c3278e98-b3ff-46b2-86a2-9d8344ebcbe7","system_id":"levelo_inurba_marseille","lat":43.278128,"lon":5.407195,"is_reserved":false,"is_disabled":false,"rental_uris":{"android":"levelo://app?vid=c3278e98-b3ff-46b2-86a2-9d8344ebcbe7","ios":"levelo://app?vid=c3278e98-b3ff-46b2-86a2-9d8344ebcbe7"},"vehicle_type_id":"4","last_reported":1700496592,"current_range_meters":0,"station_id":"ce4bhnh2rcd13ifvqgtg","pricing_plan_id":"free"},{"bike_id":"26e0a3e2-c9e0-47aa-92d0-36833f1d3c78","system_id":"levelo_inurba_marseille","lat":43.26562,"lon":5.37282,"is_reserved":false,"is_disabled":false,"rental_uris":{"android":"levelo://app?vid=26e0a3e2-c9e0-47aa-92d0-36833f1d3c78","ios":"levelo://app?vid=26e0a3e2-c9e0-47aa-92d0-36833f1d3c78"},"vehicle_type_id":"4","last_reported":1700496592,"current_range_meters":26000,"station_id":"ce4bhg12rcd13ifvqf70","pricing_plan_id":"free"},{"bike_id":"a7f33887-c7b6-4e65-828d-3292bc989ff3","system_id":"levelo_inurba_marseille","lat":43.26559,"lon":5.37281,"is_reserved":false,"is_disabled":false,"rental_uris":{"android":"levelo://app?vid=a7f33887-c7b6-4e65-828d-3292bc989ff3","ios":"levelo://app?vid=a7f33887-c7b6-4e65-828d-3292bc989ff3"},"vehicle_type_id":"4","last_reported":1700496592,"current_range_meters":22800,"station_id":"ce4bhg12rcd13ifvqf70","pricing_plan_id":"free"},{"bike_id":"fed9c38e-bb17-489f-81b9-43b5173f27cd","system_id":"levelo_inurba_marseille","lat":43.265569,"lon":5.372891,"is_reserved":false,"is_disabled":false,"rental_uris":{"android":"levelo://app?vid=fed9c38e-bb17-489f-81b9-43b5173f27cd","ios":"levelo://app?vid=fed9c38e-bb17-489f-81b9-43b5173f27cd"},"vehicle_type_id":"4","last_reported":1700496592,"current_range_meters":29600,"station_id":"ce4bhg12rcd13ifvqf70","pricing_plan_id":"free"},{"bike_id":"4725fca8-ebe7-456c-a7db-a4427d2bf15d","system_id":"levelo_inurba_marseille","lat":43.26556,"lon":5.3729,"is_reserved":false,"is_disabled":false,"rental_uris":{"android":"levelo://app?vid=4725fca8-ebe7-456c-a7db-a4427d2bf15d","ios":"levelo://app?vid=4725fca8-ebe7-456c-a7db-a4427d2bf15d"},"vehicle_type_id":"4","last_reported":1700496592,"current_range_meters":30800,"station_id":"ce4bhg12rcd13ifvqf70","pricing_plan_id":"free"},{"bike_id":"557a514a-d578-4810-808a-bc75f701480d","system_id":"levelo_inurba_marseille","lat":43.26554,"lon":5.37293,"is_reserved":false,"is_disabled":false,"rental_uris":{"android":"levelo://app?vid=557a514a-d578-4810-808a-bc75f701480d","ios":"levelo://app?vid=557a514a-d578-4810-808a-bc75f701480d"},"vehicle_type_id":"4","last_reported":1700496592,"current_range_meters":30400,"station_id":"ce4bhg12rcd13ifvqf70","pricing_plan_id":"free"},{"bike_id":"d0d9128a-d081-4323-aa12-401cf455ceb9","system_id":"levelo_inurba_marseille","lat":43.26551,"lon":5.37291,"is_reserved":false,"is_disabled":false,"rental_uris":{"android":"levelo://app?vid=d0d9128a-d081-4323-aa12-401cf455ceb9","ios":"levelo://app?vid=d0d9128a-d081-4323-aa12-401cf455ceb9"},"vehicle_type_id":"4","last_reported":1700496592,"current_range_meters":18800,"station_id":"ce4bhg12rcd13ifvqf70","pricing_plan_id":"free"},{"bike_id":"44cac569-7620-4f82-a539-2071f1a43b45","system_id":"levelo_inurba_marseille","lat":43.2655,"lon":5.37288,"is_reserved":false,"is_disabled":false,"rental_uris":{"android":"levelo://app?vid=44cac569-7620-4f82-a539-2071f1a43b45","ios":"levelo://app?vid=44cac569-7620-4f82-a539-2071f1a43b45"},"vehicle_type_id":"4","last_reported":1700496592,"current_range_meters":29200,"station_id":"ce4bhg12rcd13ifvqf70","pricing_plan_id":"free"},{"bike_id":"1716cda1-1aa0-4886-afa7-8df4f0f77633","system_id":"levelo_inurba_marseille","lat":43.2655,"lon":5.37293,"is_reserved":false,"is_disabled":false,"rental_uris":{"android":"levelo://app?vid=1716cda1-1aa0-4886-afa7-8df4f0f77633","ios":"levelo://app?vid=1716cda1-1aa0-4886-afa7-8df4f0f77633"},"vehicle_type_id":"4","last_reported":1700496592,"current_range_meters":17200,"station_id":"ce4bhg12rcd13ifvqf70","pricing_plan_id":"free"},{"bike_id":"c7758cb2-2a45-4f89-aa5c-0e391d845c76","system_id":"levelo_inurba_marseille","lat":43.326053,"lon":5.429943,"is_reserved":false,"is_disabled":false,"rental_uris":{"android":"levelo://app?vid=c7758cb2-2a45-4f89-aa5c-0e391d845c76","ios":"levelo://app?vid=c7758cb2-2a45-4f89-aa5c-0e391d845c76"},"vehicle_type_id":"4","last_reported":1700496592,"current_range_meters":0,"station_id":"","pricing_plan_id":"free"},{"bike_id":"42871d3b-8c03-490f-baf1-f4b57c44a331","system_id":"levelo_inurba_marseille","lat":43.326174,"lon":5.430584,"is_reserved":false,"is_disabled":false,"rental_uris":{"android":"levelo://app?vid=42871d3b-8c03-490f-baf1-f4b57c44a331","ios":"levelo://app?vid=42871d3b-8c03-490f-baf1-f4b57c44a331"},"vehicle_type_id":"4","last_reported":1700496592,"current_range_meters":14000,"station_id":"","pricing_plan_id":"free"},{"bike_id":"b2c14fc1-7ad1-45ee-8f05-a044f4db70c3","system_id":"levelo_inurba_marseille","lat":43.30798,"lon":5.43523,"is_reserved":false,"is_disabled":false,"rental_uris":{"android":"levelo://app?vid=b2c14fc1-7ad1-45ee-8f05-a044f4db70c3","ios":"levelo://app?vid=b2c14fc1-7ad1-45ee-8f05-a044f4db70c3"},"vehicle_type_id":"4","last_reported":1700496592,"current_range_meters":0,"station_id":"ce4bhph2rcd13ifvqheg","pricing_plan_id":"free"},{"bike_id":"e0b6e798-96e8-4d3e-97b1-72573e4132fe","system_id":"levelo_inurba_marseille","lat":43.308051,"lon":5.43527,"is_reserved":false,"is_disabled":false,"rental_uris":{"android":"levelo://app?vid=e0b6e798-96e8-4d3e-97b1-72573e4132fe","ios":"levelo://app?vid=e0b6e798-96e8-4d3e-97b1-72573e4132fe"},"vehicle_type_id":"4","last_reported":1700496592,"current_range_meters":24800,"station_id":"ce4bhph2rcd13ifvqheg","pricing_plan_id":"free"},{"bike_id":"7bf0fc47-97a5-4f4d-826a-022382cff8a8","system_id":"levelo_inurba_marseille","lat":43.26941,"lon":5.40252,"is_reserved":false,"is_disabled":false,"rental_uris":{"android":"levelo://app?vid=7bf0fc47-97a5-4f4d-826a-022382cff8a8","ios":"levelo://app?vid=7bf0fc47-97a5-4f4d-826a-022382cff8a8"},"vehicle_type_id":"4","last_reported":1700496592,"current_range_meters":0,"station_id":"cjm6bp8fraef2m0cb0m0","pricing_plan_id":"free"},{"bike_id":"1fa69da7-ea36-4937-8350-3e6f2f5fc11f","system_id":"levelo_inurba_marseille","lat":43.26949,"lon":5.40262,"is_reserved":false,"is_disabled":false,"rental_uris":{"android":"levelo://app?vid=1fa69da7-ea36-4937-8350-3e6f2f5fc11f","ios":"levelo://app?vid=1fa69da7-ea36-4937-8350-3e6f2f5fc11f"},"vehicle_type_id":"4","last_reported":1700496592,"current_range_meters":12400,"station_id":"cjm6bp8fraef2m0cb0m0","pricing_plan_id":"free"},{"bike_id":"074d868c-f5b6-48a8-a2dc-f6355a644030","system_id":"levelo_inurba_marseille","lat":43.317104,"lon":5.436818,"is_reserved":false,"is_disabled":false,"rental_uris":{"android":"levelo://app?vid=074d868c-f5b6-48a8-a2dc-f6355a644030","ios":"levelo://app?vid=074d868c-f5b6-48a8-a2dc-f6355a644030"},"vehicle_type_id":"4","last_reported":1700496592,"current_range_meters":0,"station_id":"ce4bhp92rcd13ifvqhcg","pricing_plan_id":"free"},{"bike_id":"a1e3e474-3ce1-451c-b5a5-c24af6467ac7","system_id":"levelo_inurba_marseille","lat":43.271388,"lon":5.409269,"is_reserved":false,"is_disabled":false,"rental_uris":{"android":"levelo://app?vid=a1e3e474-3ce1-451c-b5a5-c24af6467ac7","ios":"levelo://app?vid=a1e3e474-3ce1-451c-b5a5-c24af6467ac7"},"vehicle_type_id":"4","last_reported":1700496592,"current_range_meters":30800,"station_id":"ce4bhl12rcd13ifvqgf0","pricing_plan_id":"free"},{"bike_id":"0992f684-cd70-4b6f-974e-1e2d870d6b02","system_id":"levelo_inurba_marseille","lat":43.26202,"lon":5.37935,"is_reserved":false,"is_disabled":false,"rental_uris":{"android":"levelo://app?vid=0992f684-cd70-4b6f-974e-1e2d870d6b02","ios":"levelo://app?vid=0992f684-cd70-4b6f-974e-1e2d870d6b02"},"vehicle_type_id":"4","last_reported":1700496592,"current_range_meters":26000,"station_id":"ce4bhjp2rcd13ifvqg90","pricing_plan_id":"free"},{"bike_id":"d7b28952-e5e1-4586-b0b3-e4c8f949d94d","system_id":"levelo_inurba_marseille","lat":43.262012,"lon":5.379307,"is_reserved":false,"is_disabled":false,"rental_uris":{"android":"levelo://app?vid=d7b28952-e5e1-4586-b0b3-e4c8f949d94d","ios":"levelo://app?vid=d7b28952-e5e1-4586-b0b3-e4c8f949d94d"},"vehicle_type_id":"4","last_reported":1700496592,"current_range_meters":14000,"station_id":"ce4bhjp2rcd13ifvqg90","pricing_plan_id":"free"},{"bike_id":"3a7d226d-0ff0-43a7-a394-06bfa8b3ed74","system_id":"levelo_inurba_marseille","lat":43.267959,"lon":5.402685,"is_reserved":false,"is_disabled":false,"rental_uris":{"android":"levelo://app?vid=3a7d226d-0ff0-43a7-a394-06bfa8b3ed74","ios":"levelo://app?vid=3a7d226d-0ff0-43a7-a394-06bfa8b3ed74"},"vehicle_type_id":"4","last_reported":1700496592,"current_range_meters":18400,"station_id":"ce501612rcd8frsf0b60","pricing_plan_id":"free"},{"bike_id":"5302718e-b5a1-459f-a66c-46f936158d69","system_id":"levelo_inurba_marseille","lat":43.267959,"lon":5.402687,"is_reserved":false,"is_disabled":false,"rental_uris":{"android":"levelo://app?vid=5302718e-b5a1-459f-a66c-46f936158d69","ios":"levelo://app?vid=5302718e-b5a1-459f-a66c-46f936158d69"},"vehicle_type_id":"4","last_reported":1700496592,"current_range_meters":4800,"station_id":"ce501612rcd8frsf0b60","pricing_plan_id":"free"},{"bike_id":"74ce853b-0d8b-42c9-81c8-17a7564a4b34","system_id":"levelo_inurba_marseille","lat":43.31725,"lon":5.43786,"is_reserved":false,"is_disabled":false,"rental_uris":{"android":"levelo://app?vid=74ce853b-0d8b-42c9-81c8-17a7564a4b34","ios":"levelo://app?vid=74ce853b-0d8b-42c9-81c8-17a7564a4b34"},"vehicle_type_id":"4","last_reported":1700496592,"current_range_meters":10400,"station_id":"","pricing_plan_id":"free"},{"bike_id":"1b136f83-d0f8-4625-a205-cfef9793a119","system_id":"levelo_inurba_marseille","lat":43.298768,"lon":5.43643,"is_reserved":false,"is_disabled":false,"rental_uris":{"android":"levelo://app?vid=1b136f83-d0f8-4625-a205-cfef9793a119","ios":"levelo://app?vid=1b136f83-d0f8-4625-a205-cfef9793a119"},"vehicle_type_id":"4","last_reported":1700496592,"current_range_meters":28400,"station_id":"ce4bhpp2rcd13ifvqhfg","pricing_plan_id":"free"},{"bike_id":"c38091d4-196e-46a9-85e8-f6507c5e0233","system_id":"levelo_inurba_marseille","lat":43.298768,"lon":5.43643,"is_reserved":false,"is_disabled":false,"rental_uris":{"android":"levelo://app?vid=c38091d4-196e-46a9-85e8-f6507c5e0233","ios":"levelo://app?vid=c38091d4-196e-46a9-85e8-f6507c5e0233"},"vehicle_type_id":"4","last_reported":1700496592,"current_range_meters":16400,"station_id":"ce4bhpp2rcd13ifvqhfg","pricing_plan_id":"free"},{"bike_id":"4b50d9c0-cf60-4521-b801-fe3a56656a21","system_id":"levelo_inurba_marseille","lat":43.298768,"lon":5.43643,"is_reserved":false,"is_disabled":false,"rental_uris":{"android":"levelo://app?vid=4b50d9c0-cf60-4521-b801-fe3a56656a21","ios":"levelo://app?vid=4b50d9c0-cf60-4521-b801-fe3a56656a21"},"vehicle_type_id":"4","last_reported":1700496592,"current_range_meters":14000,"station_id":"ce4bhpp2rcd13ifvqhfg","pricing_plan_id":"free"},{"bike_id":"26ab2b47-3401-463c-b5d9-b5da82411f1a","system_id":"levelo_inurba_marseille","lat":43.298768,"lon":5.43643,"is_reserved":false,"is_disabled":false,"rental_uris":{"android":"levelo://app?vid=26ab2b47-3401-463c-b5d9-b5da82411f1a","ios":"levelo://app?vid=26ab2b47-3401-463c-b5d9-b5da82411f1a"},"vehicle_type_id":"4","last_reported":1700496592,"current_range_meters":6800,"station_id":"ce4bhpp2rcd13ifvqhfg","pricing_plan_id":"free"},{"bike_id":"20de7ca0-1d8b-468f-8015-1c65ce26c12c","system_id":"levelo_inurba_marseille","lat":43.281548,"lon":5.42643,"is_reserved":false,"is_disabled":false,"rental_uris":{"android":"levelo://app?vid=20de7ca0-1d8b-468f-8015-1c65ce26c12c","ios":"levelo://app?vid=20de7ca0-1d8b-468f-8015-1c65ce26c12c"},"vehicle_type_id":"4","last_reported":1700496592,"current_range_meters":28000,"station_id":"ce4bhnh2rcd13ifvqgug","pricing_plan_id":"free"},{"bike_id":"6f980f16-6376-4a16-8d50-a80af6b5a6ba","system_id":"levelo_inurba_marseille","lat":43.281548,"lon":5.42643,"is_reserved":false,"is_disabled":false,"rental_uris":{"android":"levelo://app?vid=6f980f16-6376-4a16-8d50-a80af6b5a6ba","ios":"levelo://app?vid=6f980f16-6376-4a16-8d50-a80af6b5a6ba"},"vehicle_type_id":"4","last_reported":1700496592,"current_range_meters":26400,"station_id":"ce4bhnh2rcd13ifvqgug","pricing_plan_id":"free"},{"bike_id":"bd297c3f-87ed-41f6-9b99-6ce3ca31f3df","system_id":"levelo_inurba_marseille","lat":43.281548,"lon":5.42643,"is_reserved":false,"is_disabled":false,"rental_uris":{"android":"levelo://app?vid=bd297c3f-87ed-41f6-9b99-6ce3ca31f3df","ios":"levelo://app?vid=bd297c3f-87ed-41f6-9b99-6ce3ca31f3df"},"vehicle_type_id":"4","last_reported":1700496592,"current_range_meters":31600,"station_id":"ce4bhnh2rcd13ifvqgug","pricing_plan_id":"free"},{"bike_id":"07ee27fb-4f20-425e-91b2-97679d648b06","system_id":"levelo_inurba_marseille","lat":43.28155,"lon":5.42641,"is_reserved":false,"is_disabled":false,"rental_uris":{"android":"levelo://app?vid=07ee27fb-4f20-425e-91b2-97679d648b06","ios":"levelo://app?vid=07ee27fb-4f20-425e-91b2-97679d648b06"},"vehicle_type_id":"4","last_reported":1700496592,"current_range_meters":14800,"station_id":"ce4bhnh2rcd13ifvqgug","pricing_plan_id":"free"},{"bike_id":"bb9be511-01f9-4e51-961e-d16839319d2d","system_id":"levelo_inurba_marseille","lat":43.281548,"lon":5.42643,"is_reserved":false,"is_disabled":false,"rental_uris":{"android":"levelo://app?vid=bb9be511-01f9-4e51-961e-d16839319d2d","ios":"levelo://app?vid=bb9be511-01f9-4e51-961e-d16839319d2d"},"vehicle_type_id":"4","last_reported":1700496592,"current_range_meters":25200,"station_id":"ce4bhnh2rcd13ifvqgug","pricing_plan_id":"free"},{"bike_id":"083a14ff-f820-488b-8bad-5a89f1d18eaa","system_id":"levelo_inurba_marseille","lat":43.281548,"lon":5.42643,"is_reserved":false,"is_disabled":false,"rental_uris":{"android":"levelo://app?vid=083a14ff-f820-488b-8bad-5a89f1d18eaa","ios":"levelo://app?vid=083a14ff-f820-488b-8bad-5a89f1d18eaa"},"vehicle_type_id":"4","last_reported":1700496592,"current_range_meters":31200,"station_id":"ce4bhnh2rcd13ifvqgug","pricing_plan_id":"free"},{"bike_id":"6e1d5160-ae00-4902-abe5-906930afdfd7","system_id":"levelo_inurba_marseille","lat":43.28148,"lon":5.42644,"is_reserved":false,"is_disabled":false,"rental_uris":{"android":"levelo://app?vid=6e1d5160-ae00-4902-abe5-906930afdfd7","ios":"levelo://app?vid=6e1d5160-ae00-4902-abe5-906930afdfd7"},"vehicle_type_id":"4","last_reported":1700496592,"current_range_meters":31600,"station_id":"ce4bhnh2rcd13ifvqgug","pricing_plan_id":"free"},{"bike_id":"80abe8d9-b191-4672-9e88-24afd6a1c6b4","system_id":"levelo_inurba_marseille","lat":43.281548,"lon":5.42643,"is_reserved":false,"is_disabled":false,"rental_uris":{"android":"levelo://app?vid=80abe8d9-b191-4672-9e88-24afd6a1c6b4","ios":"levelo://app?vid=80abe8d9-b191-4672-9e88-24afd6a1c6b4"},"vehicle_type_id":"4","last_reported":1700496592,"current_range_meters":30400,"station_id":"ce4bhnh2rcd13ifvqgug","pricing_plan_id":"free"},{"bike_id":"3656d2c5-dd84-4458-8c20-ad61af089d09","system_id":"levelo_inurba_marseille","lat":43.281548,"lon":5.42643,"is_reserved":false,"is_disabled":false,"rental_uris":{"android":"levelo://app?vid=3656d2c5-dd84-4458-8c20-ad61af089d09","ios":"levelo://app?vid=3656d2c5-dd84-4458-8c20-ad61af089d09"},"vehicle_type_id":"4","last_reported":1700496592,"current_range_meters":19600,"station_id":"ce4bhnh2rcd13ifvqgug","pricing_plan_id":"free"},{"bike_id":"0eb85f73-13ef-477f-bc61-58f2c9bd5d84","system_id":"levelo_inurba_marseille","lat":43.2607,"lon":5.393983,"is_reserved":false,"is_disabled":false,"rental_uris":{"android":"levelo://app?vid=0eb85f73-13ef-477f-bc61-58f2c9bd5d84","ios":"levelo://app?vid=0eb85f73-13ef-477f-bc61-58f2c9bd5d84"},"vehicle_type_id":"4","last_reported":1700496592,"current_range_meters":20800,"station_id":"ce4bhh92rcd13ifvqfj0","pricing_plan_id":"free"},{"bike_id":"97a89154-79cc-48a9-90d3-27bfefa8b07b","system_id":"levelo_inurba_marseille","lat":43.275028,"lon":5.424534,"is_reserved":false,"is_disabled":false,"rental_uris":{"android":"levelo://app?vid=97a89154-79cc-48a9-90d3-27bfefa8b07b","ios":"levelo://app?vid=97a89154-79cc-48a9-90d3-27bfefa8b07b"},"vehicle_type_id":"4","last_reported":1700496592,"current_range_meters":3600,"station_id":"ce4bhn92rcd13ifvqgrg","pricing_plan_id":"free"},{"bike_id":"7f831dc8-d528-4582-b9b2-7b985a95f979","system_id":"levelo_inurba_marseille","lat":43.275028,"lon":5.424534,"is_reserved":false,"is_disabled":false,"rental_uris":{"android":"levelo://app?vid=7f831dc8-d528-4582-b9b2-7b985a95f979","ios":"levelo://app?vid=7f831dc8-d528-4582-b9b2-7b985a95f979"},"vehicle_type_id":"4","last_reported":1700496592,"current_range_meters":26800,"station_id":"ce4bhn92rcd13ifvqgrg","pricing_plan_id":"free"},{"bike_id":"04c477db-7459-401d-8d6d-4ce09fe8c850","system_id":"levelo_inurba_marseille","lat":43.25831,"lon":5.39437,"is_reserved":false,"is_disabled":false,"rental_uris":{"android":"levelo://app?vid=04c477db-7459-401d-8d6d-4ce09fe8c850","ios":"levelo://app?vid=04c477db-7459-401d-8d6d-4ce09fe8c850"},"vehicle_type_id":"4","last_reported":1700496592,"current_range_meters":0,"station_id":"ce4bhip2rcd13ifvqft0","pricing_plan_id":"free"},{"bike_id":"5cb8ed14-8926-4a73-9b51-2b9f0ce74846","system_id":"levelo_inurba_marseille","lat":43.25566,"lon":5.38244,"is_reserved":false,"is_disabled":false,"rental_uris":{"android":"levelo://app?vid=5cb8ed14-8926-4a73-9b51-2b9f0ce74846","ios":"levelo://app?vid=5cb8ed14-8926-4a73-9b51-2b9f0ce74846"},"vehicle_type_id":"4","last_reported":1700496592,"current_range_meters":0,"station_id":"ce4bhih2rcd13ifvqfs0","pricing_plan_id":"free"},{"bike_id":"5180e714-af13-409d-b7ee-446211c40ceb","system_id":"levelo_inurba_marseille","lat":43.2707,"lon":5.42281,"is_reserved":false,"is_disabled":false,"rental_uris":{"android":"levelo://app?vid=5180e714-af13-409d-b7ee-446211c40ceb","ios":"levelo://app?vid=5180e714-af13-409d-b7ee-446211c40ceb"},"vehicle_type_id":"4","last_reported":1700496592,"current_range_meters":26000,"station_id":"ce4bhk92rcd13ifvqgb0","pricing_plan_id":"free"},{"bike_id":"a695f128-603d-45af-9348-0100ca4db4fa","system_id":"levelo_inurba_marseille","lat":43.270721,"lon":5.422764,"is_reserved":false,"is_disabled":false,"rental_uris":{"android":"levelo://app?vid=a695f128-603d-45af-9348-0100ca4db4fa","ios":"levelo://app?vid=a695f128-603d-45af-9348-0100ca4db4fa"},"vehicle_type_id":"4","last_reported":1700496592,"current_range_meters":8000,"station_id":"ce4bhk92rcd13ifvqgb0","pricing_plan_id":"free"},{"bike_id":"9d509333-0979-45ab-9a3b-93489a38821b","system_id":"levelo_inurba_marseille","lat":43.257079,"lon":5.411051,"is_reserved":false,"is_disabled":false,"rental_uris":{"android":"levelo://app?vid=9d509333-0979-45ab-9a3b-93489a38821b","ios":"levelo://app?vid=9d509333-0979-45ab-9a3b-93489a38821b"},"vehicle_type_id":"4","last_reported":1700496592,"current_range_meters":20800,"station_id":"ce4bhkp2rcd13ifvqgd0","pricing_plan_id":"free"},{"bike_id":"4d5a5d8d-5a6e-460b-85a1-ec0a67b5ecd2","system_id":"levelo_inurba_marseille","lat":43.257079,"lon":5.411051,"is_reserved":false,"is_disabled":false,"rental_uris":{"android":"levelo://app?vid=4d5a5d8d-5a6e-460b-85a1-ec0a67b5ecd2","ios":"levelo://app?vid=4d5a5d8d-5a6e-460b-85a1-ec0a67b5ecd2"},"vehicle_type_id":"4","last_reported":1700496592,"current_range_meters":15200,"station_id":"ce4bhkp2rcd13ifvqgd0","pricing_plan_id":"free"},{"bike_id":"53b678cf-6a1f-4b50-b209-238a92d08861","system_id":"levelo_inurba_marseille","lat":43.25722,"lon":5.41105,"is_reserved":false,"is_disabled":false,"rental_uris":{"android":"levelo://app?vid=53b678cf-6a1f-4b50-b209-238a92d08861","ios":"levelo://app?vid=53b678cf-6a1f-4b50-b209-238a92d08861"},"vehicle_type_id":"4","last_reported":1700496592,"current_range_meters":0,"station_id":"ce4bhkp2rcd13ifvqgd0","pricing_plan_id":"free"},{"bike_id":"f5918fea-625d-4e62-8b31-2f7540bf8aed","system_id":"levelo_inurba_marseille","lat":43.257079,"lon":5.411051,"is_reserved":false,"is_disabled":false,"rental_uris":{"android":"levelo://app?vid=f5918fea-625d-4e62-8b31-2f7540bf8aed","ios":"levelo://app?vid=f5918fea-625d-4e62-8b31-2f7540bf8aed"},"vehicle_type_id":"4","last_reported":1700496592,"current_range_meters":14400,"station_id":"ce4bhkp2rcd13ifvqgd0","pricing_plan_id":"free"},{"bike_id":"0db5ca2c-a3aa-4060-ad48-660638d19074","system_id":"levelo_inurba_marseille","lat":43.257079,"lon":5.411051,"is_reserved":false,"is_disabled":false,"rental_uris":{"android":"levelo://app?vid=0db5ca2c-a3aa-4060-ad48-660638d19074","ios":"levelo://app?vid=0db5ca2c-a3aa-4060-ad48-660638d19074"},"vehicle_type_id":"4","last_reported":1700496592,"current_range_meters":29200,"station_id":"ce4bhkp2rcd13ifvqgd0","pricing_plan_id":"free"},{"bike_id":"c9f9745f-82f3-47d6-b6c4-3f373f79a23a","system_id":"levelo_inurba_marseille","lat":43.2479,"lon":5.374457,"is_reserved":false,"is_disabled":false,"rental_uris":{"android":"levelo://app?vid=c9f9745f-82f3-47d6-b6c4-3f373f79a23a","ios":"levelo://app?vid=c9f9745f-82f3-47d6-b6c4-3f373f79a23a"},"vehicle_type_id":"4","last_reported":1700496592,"current_range_meters":30800,"station_id":"ce4bhgh2rcd13ifvqfb0","pricing_plan_id":"free"},{"bike_id":"d84fbe72-46ef-447d-bd14-585d825012a0","system_id":"levelo_inurba_marseille","lat":43.2479,"lon":5.374457,"is_reserved":false,"is_disabled":false,"rental_uris":{"android":"levelo://app?vid=d84fbe72-46ef-447d-bd14-585d825012a0","ios":"levelo://app?vid=d84fbe72-46ef-447d-bd14-585d825012a0"},"vehicle_type_id":"4","last_reported":1700496592,"current_range_meters":7200,"station_id":"ce4bhgh2rcd13ifvqfb0","pricing_plan_id":"free"},{"bike_id":"a72c8492-f03a-4970-9fcd-599f3e0bfef4","system_id":"levelo_inurba_marseille","lat":43.2479,"lon":5.374457,"is_reserved":false,"is_disabled":false,"rental_uris":{"android":"levelo://app?vid=a72c8492-f03a-4970-9fcd-599f3e0bfef4","ios":"levelo://app?vid=a72c8492-f03a-4970-9fcd-599f3e0bfef4"},"vehicle_type_id":"4","last_reported":1700496592,"current_range_meters":4800,"station_id":"ce4bhgh2rcd13ifvqfb0","pricing_plan_id":"free"},{"bike_id":"16371f9b-aed1-4d28-929d-9e7e34ecc98e","system_id":"levelo_inurba_marseille","lat":43.250966,"lon":5.395186,"is_reserved":false,"is_disabled":false,"rental_uris":{"android":"levelo://app?vid=16371f9b-aed1-4d28-929d-9e7e34ecc98e","ios":"levelo://app?vid=16371f9b-aed1-4d28-929d-9e7e34ecc98e"},"vehicle_type_id":"4","last_reported":1700496592,"current_range_meters":23600,"station_id":"ce4bhm12rcd13ifvqgkg","pricing_plan_id":"free"},{"bike_id":"b5b00b63-df6e-4990-bd15-b974e25d2a85","system_id":"levelo_inurba_marseille","lat":43.250966,"lon":5.395186,"is_reserved":false,"is_disabled":false,"rental_uris":{"android":"levelo://app?vid=b5b00b63-df6e-4990-bd15-b974e25d2a85","ios":"levelo://app?vid=b5b00b63-df6e-4990-bd15-b974e25d2a85"},"vehicle_type_id":"4","last_reported":1700496592,"current_range_meters":7600,"station_id":"ce4bhm12rcd13ifvqgkg","pricing_plan_id":"free"},{"bike_id":"47d8efd1-d339-4459-9b02-b47fd0487d23","system_id":"levelo_inurba_marseille","lat":43.246467,"lon":5.388984,"is_reserved":false,"is_disabled":false,"rental_uris":{"android":"levelo://app?vid=47d8efd1-d339-4459-9b02-b47fd0487d23","ios":"levelo://app?vid=47d8efd1-d339-4459-9b02-b47fd0487d23"},"vehicle_type_id":"4","last_reported":1700496592,"current_range_meters":22400,"station_id":"ce4bhg12rcd13ifvqf60","pricing_plan_id":"free"},