{"last_updated":1747303907,"ttl":60,"version":"2.2","data":{"bikes":[{"bike_id":"c0b9fd4f-e181-46ce-b0bf-f5119973334f","system_id":"levelo_inurba_marseille","lat":43.33771,"lon":5.37424,"is_reserved":false,"is_disabled":false,"rental_uris":{"android":"levelo://app?vid=c0b9fd4f-e181-46ce-b0bf-f5119973334f","ios":"levelo://app?vid=c0b9fd4f-e181-46ce-b0bf-f5119973334f"},"vehicle_type_id":"4","last_reported":1747303907,"current_range_meters":14800,"station_id":"","pricing_plan_id":"cebpf4jnsgd1na2vs0mg"},{"bike_id":"fc2577e7-1497-425b-9d4f-ab8d7dc843c6","system_id":"levelo_inurba_marseille","lat":43.33771,"lon":5.37485,"is_reserved":false,"is_disabled":true,"rental_uris":{"android":"levelo://app?vid=fc2577e7-1497-425b-9d4f-ab8d7dc843c6","ios":"levelo://app?vid=fc2577e7-1497-425b-9d4f-ab8d7dc843c6"},"vehicle_type_id":"4","last_reported":1747303907,"current_range_meters":0,"station_id":"","pricing_plan_id":"cebpf4jnsgd1na2vs0mg"},{"bike_id":"58759d40-402f-44ad-a9ec-ef71c6f52c01","system_id":"levelo_inurba_marseille","lat":43.27895,"lon":5.354115,"is_reserved":false,"is_disabled":true,"rental_uris":{"android":"levelo://app?vid=58759d40-402f-44ad-a9ec-ef71c6f52c01","ios":"levelo://app?vid=58759d40-402f-44ad-a9ec-ef71c6f52c01"},"vehicle_type_id":"4","last_reported":1747303907,"current_range_meters":0,"station_id":"","pricing_plan_id":"cebpf4jnsgd1na2vs0mg"},{"bike_id":"792567c6-0442-4011-aff0-9c05e25deb48","system_id":"levelo_inurba_marseille","lat":43.337444,"lon":5.374475,"is_reserved":false,"is_disabled":true,"rental_uris":{"android":"levelo://app?vid=792567c6-0442-4011-aff0-9c05e25deb48","ios":"levelo://app?vid=792567c6-0442-4011-aff0-9c05e25deb48"},"vehicle_type_id":"4","last_reported":1747303907,"current_range_meters":0,"station_id":"","pricing_plan_id":"cebpf4jnsgd1na2vs0mg"},{"bike_id":"90477825-ffb2-4978-859d-dd7669b366b6","system_id":"levelo_inurba_marseille","lat":43.30883,"lon":5.39641,"is_reserved":false,"is_disabled":true,"rental_uris":{"android":"levelo://app?vid=90477825-ffb2-4978-859d-dd7669b366b6","ios":"levelo://app?vid=90477825-ffb2-4978-859d-dd7669b366b6"},"vehicle_type_id":"4","last_reported":1747303907,"current_range_meters":0,"station_id":"ce4bh012rcd13ifvqcv0","pricing_plan_id":"cebpf4jnsgd1na2vs0mg"},{"bike_id":"44cb5dd6-71dd-4fbe-8dc2-55077e77d931","system_id":"levelo_inurba_marseille","lat":43.27929,"lon":5.39583,"is_reserved":false,"is_disabled":true,"rental_uris":{"android":"levelo://app?vid=44cb5dd6-71dd-4fbe-8dc2-55077e77d931","ios":"levelo://app?vid=44cb5dd6-71dd-4fbe-8dc2-55077e77d931"},"vehicle_type_id":"4","last_reported":1747303907,"current_range_meters":0,"station_id":"ce4bhf92rcd13ifvqf40","pricing_plan_id":"cebpf4jnsgd1na2vs0mg"},{"bike_id":"c8a4afc3-244f-4dbe-98c5-6aaa774a836b","system_id":"levelo_inurba_marseille","lat":43.27071,"lon":5.42286,"is_reserved":false,"is_disabled":true,"rental_uris":{"android":"levelo://app?vid=c8a4afc3-244f-4dbe-98c5-6aaa774a836b","ios":"levelo://app?vid=c8a4afc3-244f-4dbe-98c5-6aaa774a836b"},"vehicle_type_id":"4","last_reported":1747303907,"current_range_meters":0,"station_id":"ce4bhk92rcd13ifvqgb0","pricing_plan_id":"cebpf4jnsgd1na2vs0mg"},{"bike_id":"f69b76cc-8219-4b7a-997d-eafe88d3699c","system_id":"levelo_inurba_marseille","lat":43.24169,"lon":5.39713,"is_reserved":false,"is_disabled":true,"rental_uris":{"android":"levelo://app?vid=f69b76cc-8219-4b7a-997d-eafe88d3699c","ios":"levelo://app?vid=f69b76cc-8219-4b7a-997d-eafe88d3699c"},"vehicle_type_id":"4","last_reported":1747303907,"current_range_meters":0,"station_id":"ce4bhn12rcd13ifvqgpg","pricing_plan_id":"cebpf4jnsgd1na2vs0mg"},{"bike_id":"0d44d20c-5476-4809-b039-e90373358771","system_id":"levelo_inurba_marseille","lat":43.27487,"lon":5.42468,"is_reserved":false,"is_disabled":true,"rental_uris":{"android":"levelo://app?vid=0d44d20c-5476-4809-b039-e90373358771","ios":"levelo://app?vid=0d44d20c-5476-4809-b039-e90373358771"},"vehicle_type_id":"4","last_reported":1747303907,"current_range_meters":0,"station_id":"ce4bhn92rcd13ifvqgrg","pricing_plan_id":"cebpf4jnsgd1na2vs0mg"},{"bike_id":"85c6a8d5-1c00-4bf6-b151-bed1d76277cf","system_id":"levelo_inurba_marseille","lat":43.27826,"lon":5.40721,"is_reserved":false,"is_disabled":true,"rental_uris":{"android":"levelo://app?vid=85c6a8d5-1c00-4bf6-b151-bed1d76277cf","ios":"levelo://app?vid=85c6a8d5-1c00-4bf6-b151-bed1d76277cf"},"vehicle_type_id":"4","last_reported":1747303907,"current_range_meters":0,"station_id":"ce4bhnh2rcd13ifvqgtg","pricing_plan_id":"cebpf4jnsgd1na2vs0mg"},{"bike_id":"40038491-ecf2-4891-b2ec-58b479258a71","system_id":"levelo_inurba_marseille","lat":43.25939,"lon":5.40897,"is_reserved":false,"is_disabled":true,"rental_uris":{"android":"levelo://app?vid=40038491-ecf2-4891-b2ec-58b479258a71","ios":"levelo://app?vid=40038491-ecf2-4891-b2ec-58b479258a71"},"vehicle_type_id":"4","last_reported":1747303907,"current_range_meters":400,"station_id":"ce4bhm92rcd13ifvqglg","pricing_plan_id":"cebpf4jnsgd1na2vs0mg"},{"bike_id":"a18a5b63-5fcd-4f8a-bca3-f604364709d7","system_id":"levelo_inurba_marseille","lat":43.25922,"lon":5.40895,"is_reserved":false,"is_disabled":true,"rental_uris":{"android":"levelo://app?vid=a18a5b63-5fcd-4f8a-bca3-f604364709d7","ios":"levelo://app?vid=a18a5b63-5fcd-4f8a-bca3-f604364709d7"},"vehicle_type_id":"4","last_reported":1747303907,"current_range_meters":400,"station_id":"ce4bhm92rcd13ifvqglg","pricing_plan_id":"cebpf4jnsgd1na2vs0mg"},{"bike_id":"893cee9f-22ed-4823-82b3-4da288b81784","system_id":"levelo_inurba_marseille","lat":43.31806,"lon":5.36953,"is_reserved":false,"is_disabled":true,"rental_uris":{"android":"levelo://app?vid=893cee9f-22ed-4823-82b3-4da288b81784","ios":"levelo://app?vid=893cee9f-22ed-4823-82b3-4da288b81784"},"vehicle_type_id":"4","last_reported":1747303907,"current_range_meters":800,"station_id":"","pricing_plan_id":"cebpf4jnsgd1na2vs0mg"},{"bike_id":"e7e9708d-222e-420f-93d2-f2a2d91faf65","system_id":"levelo_inurba_marseille","lat":43.25936,"lon":5.40903,"is_reserved":false,"is_disabled":true,"rental_uris":{"android":"levelo://app?vid=e7e9708d-222e-420f-93d2-f2a2d91faf65","ios":"levelo://app?vid=e7e9708d-222e-420f-93d2-f2a2d91faf65"},"vehicle_type_id":"4","last_reported":1747303907,"current_range_meters":800,"station_id":"ce4bhm92rcd13ifvqglg","pricing_plan_id":"cebpf4jnsgd1na2vs0mg"},{"bike_id":"35783b03-67b6-4df8-98b6-bec94665b3c9","system_id":"levelo_inurba_marseille","lat":43.23153,"lon":5.43722,"is_reserved":false,"is_disabled":true,"rental_uris":{"android":"levelo://app?vid=35783b03-67b6-4df8-98b6-bec94665b3c9","ios":"levelo://app?vid=35783b03-67b6-4df8-98b6-bec94665b3c9"},"vehicle_type_id":"4","last_reported":1747303907,"current_range_meters":800,"station_id":"ce4bhmp2rcd13ifvqgog","pricing_plan_id":"cebpf4jnsgd1na2vs0mg"},{"bike_id":"ce4325af-2448-4172-bdec-81d552ee0b62","system_id":"levelo_inurba_marseille","lat":43.26166,"lon":5.42012,"is_reserved":false,"is_disabled":true,"rental_uris":{"android":"levelo://app?vid=ce4325af-2448-4172-bdec-81d552ee0b62","ios":"levelo://app?vid=ce4325af-2448-4172-bdec-81d552ee0b62"},"vehicle_type_id":"4","last_reported":1747303907,"current_range_meters":2000,"station_id":"","pricing_plan_id":"cebpf4jnsgd1na2vs0mg"},{"bike_id":"ce56dac4-3879-4283-8148-af2b9fd6c04b","system_id":"levelo_inurba_marseille","lat":43.312972,"lon":5.390164,"is_reserved":false,"is_disabled":true,"rental_uris":{"android":"levelo://app?vid=ce56dac4-3879-4283-8148-af2b9fd6c04b","ios":"levelo://app?vid=ce56dac4-3879-4283-8148-af2b9fd6c04b"},"vehicle_type_id":"4","last_reported":1747303907,"current_range_meters":2000,"station_id":"","pricing_plan_id":"cebpf4jnsgd1na2vs0mg"},{"bike_id":"e5e9c484-41c1-41f7-a06d-ecfdb0cf3fa9","system_id":"levelo_inurba_marseille","lat":43.3014,"lon":5.38058,"is_reserved":false,"is_disabled":true,"rental_uris":{"android":"levelo://app?vid=e5e9c484-41c1-41f7-a06d-ecfdb0cf3fa9","ios":"levelo://app?vid=e5e9c484-41c1-41f7-a06d-ecfdb0cf3fa9"},"vehicle_type_id":"4","last_reported":1747303907,"current_range_meters":2000,"station_id":"ce4bgjp2rcd13ifvqbh0","pricing_plan_id":"cebpf4jnsgd1na2vs0mg"},{"bike_id":"8d177d2b-9eb4-4ce5-9eeb-d51a6f1d0608","system_id":"levelo_inurba_marseille","lat":43.30268,"lon":5.40087,"is_reserved":false,"is_disabled":true,"rental_uris":{"android":"levelo://app?vid=8d177d2b-9eb4-4ce5-9eeb-d51a6f1d0608","ios":"levelo://app?vid=8d177d2b-9eb4-4ce5-9eeb-d51a6f1d0608"},"vehicle_type_id":"4","last_reported":1747303907,"current_range_meters":2000,"station_id":"ce4bgvh2rcd13ifvqcs0","pricing_plan_id":"cebpf4jnsgd1na2vs0mg"},{"bike_id":"d5dfcc3f-0f22-45ef-bb5c-d34352617436","system_id":"levelo_inurba_marseille","lat":43.2997,"lon":5.38499,"is_reserved":false,"is_disabled":false,"rental_uris":{"android":"levelo://app?vid=d5dfcc3f-0f22-45ef-bb5c-d34352617436","ios":"levelo://app?vid=d5dfcc3f-0f22-45ef-bb5c-d34352617436"},"vehicle_type_id":"4","last_reported":1747303907,"current_range_meters":2800,"station_id":"ce4bgj92rcd13ifvqbd0","pricing_plan_id":"cebpf4jnsgd1na2vs0mg"},{"bike_id":"d805c266-e964-4fbd-aa05-19511acd6f8b","system_id":"levelo_inurba_marseille","lat":43.312228,"lon":5.368553,"is_reserved":false,"is_disabled":false,"rental_uris":{"android":"levelo://app?vid=d805c266-e964-4fbd-aa05-19511acd6f8b","ios":"levelo://app?vid=d805c266-e964-4fbd-aa05-19511acd6f8b"},"vehicle_type_id":"4","last_reported":1747303907,"current_range_meters":2800,"station_id":"ce4bgl92rcd13ifvqbq0","pricing_plan_id":"cebpf4jnsgd1na2vs0mg"},{"bike_id":"362a25b7-c8d8-4875-96dc-f584ec2c794f","system_id":"levelo_inurba_marseille","lat":43.30533,"lon":5.36714,"is_reserved":false,"is_disabled":false,"rental_uris":{"android":"levelo://app?vid=362a25b7-c8d8-4875-96dc-f584ec2c794f","ios":"levelo://app?vid=362a25b7-c8d8-4875-96dc-f584ec2c794f"},"vehicle_type_id":"4","last_reported":1747303907,"current_range_meters":3200,"station_id":"ce4bgrp2rcd13ifvqc9g","pricing_plan_id":"cebpf4jnsgd1na2vs0mg"},{"bike_id":"7f137d5f-52e0-425e-aec5-ff304b67027a","system_id":"levelo_inurba_marseille","lat":43.31886,"lon":5.40749,"is_reserved":false,"is_disabled":false,"rental_uris":{"android":"levelo://app?vid=7f137d5f-52e0-425e-aec5-ff304b67027a","ios":"levelo://app?vid=7f137d5f-52e0-425e-aec5-ff304b67027a"},"vehicle_type_id":"4","last_reported":1747303907,"current_range_meters":4000,"station_id":"ce4bhq12rcd13ifvqhig","pricing_plan_id":"cebpf4jnsgd1na2vs0mg"},{"bike_id":"e9e27993-8fde-4ec4-b078-277b6f30869f","system_id":"levelo_inurba_marseille","lat":43.2656,"lon":5.37286,"is_reserved":false,"is_disabled":false,"rental_uris":{"android":"levelo://app?vid=e9e27993-8fde-4ec4-b078-277b6f30869f","ios":"levelo://app?vid=e9e27993-8fde-4ec4-b078-277b6f30869f"},"vehicle_type_id":"4","last_reported":1747303907,"current_range_meters":4400,"station_id":"ce4bhg12rcd13ifvqf70","pricing_plan_id":"cebpf4jnsgd1na2vs0mg"},{"bike_id":"a4475511-dd18-4806-bccd-5e8413de3711","system_id":"levelo_inurba_marseille","lat":43.30527,"lon":5.366886,"is_reserved":false,"is_disabled":false,"rental_uris":{"android":"levelo://app?vid=a4475511-dd18-4806-bccd-5e8413de3711","ios":"levelo://app?vid=a4475511-dd18-4806-bccd-5e8413de3711"},"vehicle_type_id":"4","last_reported":1747303907,"current_range_meters":6000,"station_id":"ce4bgrp2rcd13ifvqc9g","pricing_plan_id":"cebpf4jnsgd1na2vs0mg"},{"bike_id":"df6a3abf-a8c8-4423-b5b7-3a11a2ceb959","system_id":"levelo_inurba_marseille","lat":43.2512,"lon":5.40321,"is_reserved":false,"is_disabled":false,"rental_uris":{"android":"levelo://app?vid=df6a3abf-a8c8-4423-b5b7-3a11a2ceb959","ios":"levelo://app?vid=df6a3abf-a8c8-4423-b5b7-3a11a2ceb959"},"vehicle_type_id":"4","last_reported":1747303907,"current_range_meters":6000,"station_id":"ce4bhlh2rcd13ifvqgig","pricing_plan_id":"cebpf4jnsgd1na2vs0mg"},{"bike_id":"be8622eb-2829-4248-a4b4-e647c505699f","system_id":"levelo_inurba_marseille","lat":43.27993,"lon":5.40006,"is_reserved":false,"is_disabled":false,"rental_uris":{"android":"levelo://app?vid=be8622eb-2829-4248-a4b4-e647c505699f","ios":"levelo://app?vid=be8622eb-2829-4248-a4b4-e647c505699f"},"vehicle_type_id":"4","last_reported":1747303907,"current_range_meters":6000,"station_id":"ce4bho92rcd13ifvqh4g","pricing_plan_id":"cebpf4jnsgd1na2vs0mg"},{"bike_id":"00693bce-80bb-4828-8199-0cd50b551836","system_id":"levelo_inurba_marseille","lat":43.27323,"lon":5.39079,"is_reserved":false,"is_disabled":false,"rental_uris":{"android":"levelo://app?vid=00693bce-80bb-4828-8199-0cd50b551836","ios":"levelo://app?vid=00693bce-80bb-4828-8199-0cd50b551836"},"vehicle_type_id":"4","last_reported":1747303907,"current_range_meters":6400,"station_id":"ce4bhgp2rcd13ifvqfe0","pricing_plan_id":"cebpf4jnsgd1na2vs0mg"},{"bike_id":"e5f3be07-ee55-47c0-a064-813d3152fd26","system_id":"levelo_inurba_marseille","lat":43.23152,"lon":5.43716,"is_reserved":false,"is_disabled":false,"rental_uris":{"android":"levelo://app?vid=e5f3be07-ee55-47c0-a064-813d3152fd26","ios":"levelo://app?vid=e5f3be07-ee55-47c0-a064-813d3152fd26"},"vehicle_type_id":"4","last_reported":1747303907,"current_range_meters":6400,"station_id":"ce4bhmp2rcd13ifvqgog","pricing_plan_id":"cebpf4jnsgd1na2vs0mg"},{"bike_id":"de10a2bc-5fd1-4e4e-8582-80d6c68f80c9","system_id":"levelo_inurba_marseille","lat":43.30606,"lon":5.37235,"is_reserved":false,"is_disabled":false,"rental_uris":{"android":"levelo://app?vid=de10a2bc-5fd1-4e4e-8582-80d6c68f80c9","ios":"levelo://app?vid=de10a2bc-5fd1-4e4e-8582-80d6c68f80c9"},"vehicle_type_id":"4","last_reported":1747303907,"current_range_meters":7200,"station_id":"ce4bgqh2rcd13ifvqc4g","pricing_plan_id":"cebpf4jnsgd1na2vs0mg"},{"bike_id":"54926177-f981-4529-9770-36bb94b3f022","system_id":"levelo_inurba_marseille","lat":43.30546,"lon":5.36537,"is_reserved":false,"is_disabled":false,"rental_uris":{"android":"levelo://app?vid=54926177-f981-4529-9770-36bb94b3f022","ios":"levelo://app?vid=54926177-f981-4529-9770-36bb94b3f022"},"vehicle_type_id":"4","last_reported":1747303907,"current_range_meters":8000,"station_id":"ce4bgs12rcd13ifvqcag","pricing_plan_id":"cebpf4jnsgd1na2vs0mg"},{"bike_id":"c417b2ba-0e9f-47bb-9d30-30a0cd114ce0","system_id":"levelo_inurba_marseille","lat":43.29092,"lon":5.38112,"is_reserved":false,"is_disabled":false,"rental_uris":{"android":"levelo://app?vid=c417b2ba-0e9f-47bb-9d30-30a0cd114ce0","ios":"levelo://app?vid=c417b2ba-0e9f-47bb-9d30-30a0cd114ce0"},"vehicle_type_id":"4","last_reported":1747303907,"current_range_meters":8000,"station_id":"ce4bh512rcd13ifvqe2g","pricing_plan_id":"cebpf4jnsgd1na2vs0mg"},{"bike_id":"da0c4fad-78e4-4017-9c8d-6f6509cc04e9","system_id":"levelo_inurba_marseille","lat":43.246552,"lon":5.381659,"is_reserved":false,"is_disabled":false,"rental_uris":{"android":"levelo://app?vid=da0c4fad-78e4-4017-9c8d-6f6509cc04e9","ios":"levelo://app?vid=da0c4fad-78e4-4017-9c8d-6f6509cc04e9"},"vehicle_type_id":"4","last_reported":1747303907,"current_range_meters":8000,"station_id":"ce4bho92rcd13ifvqh4g","pricing_plan_id":"cebpf4jnsgd1na2vs0mg"},{"bike_id":"3faf053c-e846-4d83-83ee-8fd51efc38bb","system_id":"levelo_inurba_marseille","lat":43.3211,"lon":5.36776,"is_reserved":false,"is_disabled":false,"rental_uris":{"android":"levelo://app?vid=3faf053c-e846-4d83-83ee-8fd51efc38bb","ios":"levelo://app?vid=3faf053c-e846-4d83-83ee-8fd51efc38bb"},"vehicle_type_id":"4","last_reported":1747303907,"current_range_meters":8000,"station_id":"ce4bhrh2rcd13ifvqhug","pricing_plan_id":"cebpf4jnsgd1na2vs0mg"},{"bike_id":"6a94c510-06e9-4819-80f4-2a1f66907200","system_id":"levelo_inurba_marseille","lat":43.24332,"lon":5.37996,"is_reserved":false,"is_disabled":false,"rental_uris":{"android":"levelo://app?vid=6a94c510-06e9-4819-80f4-2a1f66907200","ios":"levelo://app?vid=6a94c510-06e9-4819-80f4-2a1f66907200"},"vehicle_type_id":"4","last_reported":1747303907,"current_range_meters":8400,"station_id":"","pricing_plan_id":"cebpf4jnsgd1na2vs0mg"},{"bike_id":"cec7fd52-577a-4efe-8dd9-d12000bc71c1","system_id":"levelo_inurba_marseille","lat":43.27377,"lon":5.36259,"is_reserved":false,"is_disabled":false,"rental_uris":{"android":"levelo://app?vid=cec7fd52-577a-4efe-8dd9-d12000bc71c1","ios":"levelo://app?vid=cec7fd52-577a-4efe-8dd9-d12000bc71c1"},"vehicle_type_id":"4","last_reported":1747303907,"current_range_meters":8400,"station_id":"ce4bhbh2rcd13ifvqeo0","pricing_plan_id":"cebpf4jnsgd1na2vs0mg"},{"bike_id":"e3faef6f-635a-4b6b-b2b3-c0b918604df6","system_id":"levelo_inurba_marseille","lat":43.29918,"lon":5.43651,"is_reserved":false,"is_disabled":false,"rental_uris":{"android":"levelo://app?vid=e3faef6f-635a-4b6b-b2b3-c0b918604df6","ios":"levelo://app?vid=e3faef6f-635a-4b6b-b2b3-c0b918604df6"},"vehicle_type_id":"4","last_reported":1747303907,"current_range_meters":8400,"station_id":"ce4bhpp2rcd13ifvqhfg","pricing_plan_id":"cebpf4jnsgd1na2vs0mg"},{"bike_id":"d8371178-a0c6-48a6-8db9-be67c4312462","system_id":"levelo_inurba_marseille","lat":43.32043,"lon":5.41543,"is_reserved":false,"is_disabled":false,"rental_uris":{"android":"levelo://app?vid=d8371178-a0c6-48a6-8db9-be67c4312462","ios":"levelo://app?vid=d8371178-a0c6-48a6-8db9-be67c4312462"},"vehicle_type_id":"4","last_reported":1747303907,"current_range_meters":8400,"station_id":"ce4bhq92rcd13ifvqhkg","pricing_plan_id":"cebpf4jnsgd1na2vs0mg"},{"bike_id":"b4ab39c3-0d60-4245-b87b-09baaec1b976","system_id":"levelo_inurba_marseille","lat":43.299336,"lon":5.382012,"is_reserved":false,"is_disabled":false,"rental_uris":{"android":"levelo://app?vid=b4ab39c3-0d60-4245-b87b-09baaec1b976","ios":"levelo://app?vid=b4ab39c3-0d60-4245-b87b-09baaec1b976"},"vehicle_type_id":"4","last_reported":1747303907,"current_range_meters":9200,"station_id":"","pricing_plan_id":"cebpf4jnsgd1na2vs0mg"},{"bike_id":"44b74201-d72b-4944-ba7e-a46f7b7d8dd9","system_id":"levelo_inurba_marseille","lat":43.28472,"lon":5.38446,"is_reserved":false,"is_disabled":false,"rental_uris":{"android":"levelo://app?vid=44b74201-d72b-4944-ba7e-a46f7b7d8dd9","ios":"levelo://app?vid=44b74201-d72b-4944-ba7e-a46f7b7d8dd9"},"vehicle_type_id":"4","last_reported":1747303907,"current_range_meters":9200,"station_id":"ce4bh512rcd13ifvqe3g","pricing_plan_id":"cebpf4jnsgd1na2vs0mg"},{"bike_id":"094c4808-776d-4b66-af3a-cf29dfc94970","system_id":"levelo_inurba_marseille","lat":43.26555,"lon":5.37284,"is_reserved":false,"is_disabled":false,"rental_uris":{"android":"levelo://app?vid=094c4808-776d-4b66-af3a-cf29dfc94970","ios":"levelo://app?vid=094c4808-776d-4b66-af3a-cf29dfc94970"},"vehicle_type_id":"4","last_reported":1747303907,"current_range_meters":9200,"station_id":"ce4bhg12rcd13ifvqf70","pricing_plan_id":"cebpf4jnsgd1na2vs0mg"},{"bike_id":"d3adf1de-82ef-485f-b931-44e738c720a9","system_id":"levelo_inurba_marseille","lat":43.3243,"lon":5.36545,"is_reserved":false,"is_disabled":false,"rental_uris":{"android":"levelo://app?vid=d3adf1de-82ef-485f-b931-44e738c720a9","ios":"levelo://app?vid=d3adf1de-82ef-485f-b931-44e738c720a9"},"vehicle_type_id":"4","last_reported":1747303907,"current_range_meters":9200,"station_id":"ce4bhs12rcd13ifvqhvg","pricing_plan_id":"cebpf4jnsgd1na2vs0mg"},{"bike_id":"e53c7f18-60cf-4219-9ac8-4254c2f9fe68","system_id":"levelo_inurba_marseille","lat":43.3125,"lon":5.36848,"is_reserved":false,"is_disabled":false,"rental_uris":{"android":"levelo://app?vid=e53c7f18-60cf-4219-9ac8-4254c2f9fe68","ios":"levelo://app?vid=e53c7f18-60cf-4219-9ac8-4254c2f9fe68"},"vehicle_type_id":"4","last_reported":1747303907,"current_range_meters":9600,"station_id":"ce4bgl92rcd13ifvqbq0","pricing_plan_id":"cebpf4jnsgd1na2vs0mg"},{"bike_id":"b3a67403-528a-4681-9091-5978964f7921","system_id":"levelo_inurba_marseille","lat":43.29036,"lon":5.37571,"is_reserved":false,"is_disabled":false,"rental_uris":{"android":"levelo://app?vid=b3a67403-528a-4681-9091-5978964f7921","ios":"levelo://app?vid=b3a67403-528a-4681-9091-5978964f7921"},"vehicle_type_id":"4","last_reported":1747303907,"current_range_meters":9600,"station_id":"ce4bh692rcd13ifvqe90","pricing_plan_id":"cebpf4jnsgd1na2vs0mg"},{"bike_id":"8b7418d8-10aa-48ac-9f43-b40e7e5b61f2","system_id":"levelo_inurba_marseille","lat":43.26557,"lon":5.37285,"is_reserved":false,"is_disabled":false,"rental_uris":{"android":"levelo://app?vid=8b7418d8-10aa-48ac-9f43-b40e7e5b61f2","ios":"levelo://app?vid=8b7418d8-10aa-48ac-9f43-b40e7e5b61f2"},"vehicle_type_id":"4","last_reported":1747303907,"current_range_meters":9600,"station_id":"ce4bhg12rcd13ifvqf70","pricing_plan_id":"cebpf4jnsgd1na2vs0mg"},{"bike_id":"c68022f0-7be7-4dde-9a51-7a59aed68b2d","system_id":"levelo_inurba_marseille","lat":43.231526,"lon":5.437155,"is_reserved":false,"is_disabled":false,"rental_uris":{"android":"levelo://app?vid=c68022f0-7be7-4dde-9a51-7a59aed68b2d","ios":"levelo://app?vid=c68022f0-7be7-4dde-9a51-7a59aed68b2d"},"vehicle_type_id":"4","last_reported":1747303907,"current_range_meters":9600,"station_id":"ce4bhmp2rcd13ifvqgog","pricing_plan_id":"cebpf4jnsgd1na2vs0mg"},{"bike_id":"7cad8bbf-afe9-4767-8543-3e633fd367b9","system_id":"levelo_inurba_marseille","lat":43.27804,"lon":5.40712,"is_reserved":false,"is_disabled":false,"rental_uris":{"android":"levelo://app?vid=7cad8bbf-afe9-4767-8543-3e633fd367b9","ios":"levelo://app?vid=7cad8bbf-afe9-4767-8543-3e633fd367b9"},"vehicle_type_id":"4","last_reported":1747303907,"current_range_meters":9600,"station_id":"ce4bhnh2rcd13ifvqgtg","pricing_plan_id":"cebpf4jnsgd1na2vs0mg"},{"bike_id":"1df29c85-c2d2-43e9-b87f-2e0aef721c71","system_id":"levelo_inurba_marseille","lat":43.27942,"lon":5.4104,"is_reserved":false,"is_disabled":false,"rental_uris":{"android":"levelo://app?vid=1df29c85-c2d2-43e9-b87f-2e0aef721c71","ios":"levelo://app?vid=1df29c85-c2d2-43e9-b87f-2e0aef721c71"},"vehicle_type_id":"4","last_reported":1747303907,"current_range_meters":9600,"station_id":"ce4bhnp2rcd13ifvqh0g","pricing_plan_id":"cebpf4jnsgd1na2vs0mg"},{"bike_id":"9f22b8aa-a9ca-4a2c-ab0b-0a0b10dbe182","system_id":"levelo_inurba_marseille","lat":43.324849,"lon":5.365616,"is_reserved":false,"is_disabled":false,"rental_uris":{"android":"levelo://app?vid=9f22b8aa-a9ca-4a2c-ab0b-0a0b10dbe182","ios":"levelo://app?vid=9f22b8aa-a9ca-4a2c-ab0b-0a0b10dbe182"},"vehicle_type_id":"4","last_reported":1747303907,"current_range_meters":9600,"station_id":"ce4bhs12rcd13ifvqhvg","pricing_plan_id":"cebpf4jnsgd1na2vs0mg"},{"bike_id":"267c9e85-5681-4963-84eb-5898f4a618db","system_id":"levelo_inurba_marseille","lat":43.312347,"lon":5.368639,"is_reserved":false,"is_disabled":false,"rental_uris":{"android":"levelo://app?vid=267c9e85-5681-4963-84eb-5898f4a618db","ios":"levelo://app?vid=267c9e85-5681-4963-84eb-5898f4a618db"},"vehicle_type_id":"4","last_reported":1747303907,"current_range_meters":10000,"station_id":"ce4bgl92rcd13ifvqbq0","pricing_plan_id":"cebpf4jnsgd1na2vs0mg"},{"bike_id":"17d57f58-ffb0-4d77-bbe5-7f462887ac74","system_id":"levelo_inurba_marseille","lat":43.241778,"lon":5.397148,"is_reserved":false,"is_disabled":false,"rental_uris":{"android":"levelo://app?vid=17d57f58-ffb0-4d77-bbe5-7f462887ac74","ios":"levelo://app?vid=17d57f58-ffb0-4d77-bbe5-7f462887ac74"},"vehicle_type_id":"4","last_reported":1747303907,"current_range_meters":10000,"station_id":"ce4bhn12rcd13ifvqgpg","pricing_plan_id":"cebpf4jnsgd1na2vs0mg"},{"bike_id":"bbfd3c35-ddaa-44e6-9cb1-c430263d73d9","system_id":"levelo_inurba_marseille","lat":43.265525,"lon":5.372771,"is_reserved":false,"is_disabled":false,"rental_uris":{"android":"levelo://app?vid=bbfd3c35-ddaa-44e6-9cb1-c430263d73d9","ios":"levelo://app?vid=bbfd3c35-ddaa-44e6-9cb1-c430263d73d9"},"vehicle_type_id":"4","last_reported":1747303907,"current_range_meters":10800,"station_id":"ce4bhg12rcd13ifvqf70","pricing_plan_id":"cebpf4jnsgd1na2vs0mg"},{"bike_id":"8c7308bf-84fd-4edb-9b86-07fbeaf5e51b","system_id":"levelo_inurba_marseille","lat":43.31723,"lon":5.42414,"is_reserved":false,"is_disabled":false,"rental_uris":{"android":"levelo://app?vid=8c7308bf-84fd-4edb-9b86-07fbeaf5e51b","ios":"levelo://app?vid=8c7308bf-84fd-4edb-9b86-07fbeaf5e51b"},"vehicle_type_id":"4","last_reported":1747303907,"current_range_meters":10800,"station_id":"ce4bhp92rcd13ifvqhbg","pricing_plan_id":"cebpf4jnsgd1na2vs0mg"},{"bike_id":"5d8f9421-7717-4f62-9efa-6db62182d9f0","system_id":"levelo_inurba_marseille","lat":43.23192,"lon":5.3555,"is_reserved":false,"is_disabled":false,"rental_uris":{"android":"levelo://app?vid=5d8f9421-7717-4f62-9efa-6db62182d9f0","ios":"levelo://app?vid=5d8f9421-7717-4f62-9efa-6db62182d9f0"},"vehicle_type_id":"4","last_reported":1747303907,"current_range_meters":10800,"station_id":"ce4bhu92rcd13ifvqi70","pricing_plan_id":"cebpf4jnsgd1na2vs0mg"},{"bike_id":"cc377332-c824-4cf8-bc9d-97d1852f3692","system_id":"levelo_inurba_marseille","lat":43.31686,"lon":5.40489,"is_reserved":false,"is_disabled":false,"rental_uris":{"android":"levelo://app?vid=cc377332-c824-4cf8-bc9d-97d1852f3692","ios":"levelo://app?vid=cc377332-c824-4cf8-bc9d-97d1852f3692"},"vehicle_type_id":"4","last_reported":1747303907,"current_range_meters":12000,"station_id":"ce4bh012rcd13ifvqd00","pricing_plan_id":"cebpf4jnsgd1na2vs0mg"},{"bike_id":"a21c6e18-0aaa-42d8-8d65-417dfa355dac","system_id":"levelo_inurba_marseille","lat":43.28466,"lon":5.35895,"is_reserved":false,"is_disabled":false,"rental_uris":{"android":"levelo://app?vid=a21c6e18-0aaa-42d8-8d65-417dfa355dac","ios":"levelo://app?vid=a21c6e18-0aaa-42d8-8d65-417dfa355dac"},"vehicle_type_id":"4","last_reported":1747303907,"current_range_meters":12000,"station_id":"ce4bhah2rcd13ifvqei0","pricing_plan_id":"cebpf4jnsgd1na2vs0mg"},{"bike_id":"cb8b7059-8a42-4571-9d84-7a35fb676251","system_id":"levelo_inurba_marseille","lat":43.2622,"lon":5.40457,"is_reserved":false,"is_disabled":false,"rental_uris":{"android":"levelo://app?vid=cb8b7059-8a42-4571-9d84-7a35fb676251","ios":"levelo://app?vid=cb8b7059-8a42-4571-9d84-7a35fb676251"},"vehicle_type_id":"4","last_reported":1747303907,"current_range_meters":12000,"station_id":"ce4bhmh2rcd13ifvqgmg","pricing_plan_id":"cebpf4jnsgd1na2vs0mg"},{"bike_id":"f7b25ce1-a89d-4c0c-8bc4-c0f867e52f74","system_id":"levelo_inurba_marseille","lat":43.26559,"lon":5.37282,"is_reserved":false,"is_disabled":false,"rental_uris":{"android":"levelo://app?vid=f7b25ce1-a89d-4c0c-8bc4-c0f867e52f74","ios":"levelo://app?vid=f7b25ce1-a89d-4c0c-8bc4-c0f867e52f74"},"vehicle_type_id":"4","last_reported":1747303907,"current_range_meters":12400,"station_id":"ce4bhg12rcd13ifvqf70","pricing_plan_id":"cebpf4jnsgd1na2vs0mg"},{"bike_id":"94425245-09df-4108-9a30-610dbcaf2585","system_id":"levelo_inurba_marseille","lat":43.317221,"lon":5.423937,"is_reserved":false,"is_disabled":false,"rental_uris":{"android":"levelo://app?vid=94425245-09df-4108-9a30-610dbcaf2585","ios":"levelo://app?vid=94425245-09df-4108-9a30-610dbcaf2585"},"vehicle_type_id":"4","last_reported":1747303907,"current_range_meters":12800,"station_id":"ce4bhp92rcd13ifvqhbg","pricing_plan_id":"cebpf4jnsgd1na2vs0mg"},{"bike_id":"6ff54207-6ff2-4643-be63-185d4b880241","system_id":"levelo_inurba_marseille","lat":43.28612,"lon":5.37054,"is_reserved":false,"is_disabled":false,"rental_uris":{"android":"levelo://app?vid=6ff54207-6ff2-4643-be63-185d4b880241","ios":"levelo://app?vid=6ff54207-6ff2-4643-be63-185d4b880241"},"vehicle_type_id":"4","last_reported":1747303907,"current_range_meters":12800,"station_id":"ce4bht12rcd13ifvqi60","pricing_plan_id":"cebpf4jnsgd1na2vs0mg"},{"bike_id":"461e201b-1aad-4f20-8c6f-08da186b5910","system_id":"levelo_inurba_marseille","lat":43.26799,"lon":5.40268,"is_reserved":false,"is_disabled":false,"rental_uris":{"android":"levelo://app?vid=461e201b-1aad-4f20-8c6f-08da186b5910","ios":"levelo://app?vid=461e201b-1aad-4f20-8c6f-08da186b5910"},"vehicle_type_id":"4","last_reported":1747303907,"current_range_meters":12800,"station_id":"ce501612rcd8frsf0b60","pricing_plan_id":"cebpf4jnsgd1na2vs0mg"},{"bike_id":"80f5d5c6-327d-422b-a201-76685bf6ac91","system_id":"levelo_inurba_marseille","lat":43.30192,"lon":5.36606,"is_reserved":false,"is_disabled":false,"rental_uris":{"android":"levelo://app?vid=80f5d5c6-327d-422b-a201-76685bf6ac91","ios":"levelo://app?vid=80f5d5c6-327d-422b-a201-76685bf6ac91"},"vehicle_type_id":"4","last_reported":1747303907,"current_range_meters":13600,"station_id":"ce4bgrh2rcd13ifvqc8g","pricing_plan_id":"cebpf4jnsgd1na2vs0mg"},{"bike_id":"c980f7a1-12c8-4d68-b029-2ed568a6d769","system_id":"levelo_inurba_marseille","lat":43.295695,"lon":5.39982,"is_reserved":false,"is_disabled":false,"rental_uris":{"android":"levelo://app?vid=c980f7a1-12c8-4d68-b029-2ed568a6d769","ios":"levelo://app?vid=c980f7a1-12c8-4d68-b029-2ed568a6d769"},"vehicle_type_id":"4","last_reported":1747303907,"current_range_meters":13600,"station_id":"ce4bh312rcd13ifvqdj0","pricing_plan_id":"cebpf4jnsgd1na2vs0mg"},{"bike_id":"21f5a1a4-43c5-4049-8a8d-3146c5c35157","system_id":"levelo_inurba_marseille","lat":43.22935,"lon":5.35375,"is_reserved":false,"is_disabled":false,"rental_uris":{"android":"levelo://app?vid=21f5a1a4-43c5-4049-8a8d-3146c5c35157","ios":"levelo://app?vid=21f5a1a4-43c5-4049-8a8d-3146c5c35157"},"vehicle_type_id":"4","last_reported":1747303907,"current_range_meters":13600,"station_id":"cpo3532slgdg3j2ikp40","pricing_plan_id":"cebpf4jnsgd1na2vs0mg"},{"bike_id":"d9075084-c00c-4018-ae5a-366e792064f6","system_id":"levelo_inurba_marseille","lat":43.29439,"lon":5.39763,"is_reserved":false,"is_disabled":false,"rental_uris":{"android":"levelo://app?vid=d9075084-c00c-4018-ae5a-366e792064f6","ios":"levelo://app?vid=d9075084-c00c-4018-ae5a-366e792064f6"},"vehicle_type_id":"4","last_reported":1747303907,"current_range_meters":14000,"station_id":"ce4bh3h2rcd13ifvqdo0","pricing_plan_id":"cebpf4jnsgd1na2vs0mg"},{"bike_id":"eea4e765-fe5f-4a6a-88a3-4745a1c1eed2","system_id":"levelo_inurba_marseille","lat":43.28441,"lon":5.39212,"is_reserved":false,"is_disabled":false,"rental_uris":{"android":"levelo://app?vid=eea4e765-fe5f-4a6a-88a3-4745a1c1eed2","ios":"levelo://app?vid=eea4e765-fe5f-4a6a-88a3-4745a1c1eed2"},"vehicle_type_id":"4","last_reported":1747303907,"current_range_meters":14000,"station_id":"ce4bhoh2rcd13ifvqh5g","pricing_plan_id":"cebpf4jnsgd1na2vs0mg"},{"bike_id":"459ac1b1-ee5b-431e-9407-05b95013ce08","system_id":"levelo_inurba_marseille","lat":43.31532,"lon":5.38041,"is_reserved":false,"is_disabled":false,"rental_uris":{"android":"levelo://app?vid=459ac1b1-ee5b-431e-9407-05b95013ce08","ios":"levelo://app?vid=459ac1b1-ee5b-431e-9407-05b95013ce08"},"vehicle_type_id":"4","last_reported":1747303907,"current_range_meters":14000,"station_id":"ce4bhsp2rcd13ifvqi50","pricing_plan_id":"cebpf4jnsgd1na2vs0mg"},{"bike_id":"5f4b40f5-f1a6-4a8c-8e6e-c24fb8ec1231","system_id":"levelo_inurba_marseille","lat":43.29199,"lon":5.35803,"is_reserved":false,"is_disabled":false,"rental_uris":{"android":"levelo://app?vid=5f4b40f5-f1a6-4a8c-8e6e-c24fb8ec1231","ios":"levelo://app?vid=5f4b40f5-f1a6-4a8c-8e6e-c24fb8ec1231"},"vehicle_type_id":"4","last_reported":1747303907,"current_range_meters":14400,"station_id":"ce4bhb12rcd13ifvqel0","pricing_plan_id":"cebpf4jnsgd1na2vs0mg"},{"bike_id":"6512dc23-f60a-488d-a315-f5d48618081a","system_id":"levelo_inurba_marseille","lat":43.265639,"lon":5.390074,"is_reserved":false,"is_disabled":false,"rental_uris":{"android":"levelo://app?vid=6512dc23-f60a-488d-a315-f5d48618081a","ios":"levelo://app?vid=6512dc23-f60a-488d-a315-f5d48618081a"},"vehicle_type_id":"4","last_reported":1747303907,"current_range_meters":14400,"station_id":"ce4bhe12rcd13ifvqf30","pricing_plan_id":"cebpf4jnsgd1na2vs0mg"},{"bike_id":"2e8ede2f-403c-49e6-b9b6-32bb1a46e36a","system_id":"levelo_inurba_marseille","lat":43.260618,"lon":5.394004,"is_reserved":false,"is_disabled":false,"rental_uris":{"android":"levelo://app?vid=2e8ede2f-403c-49e6-b9b6-32bb1a46e36a","ios":"levelo://app?vid=2e8ede2f-403c-49e6-b9b6-32bb1a46e36a"},"vehicle_type_id":"4","last_reported":1747303907,"current_range_meters":14400,"station_id":"ce4bhh92rcd13ifvqfj0","pricing_plan_id":"cebpf4jnsgd1na2vs0mg"},{"bike_id":"6f078e2e-cea1-4234-baae-53be02f64369","system_id":"levelo_inurba_marseille","lat":43.24661,"lon":5.38169,"is_reserved":false,"is_disabled":false,"rental_uris":{"android":"levelo://app?vid=6f078e2e-cea1-4234-baae-53be02f64369","ios":"levelo://app?vid=6f078e2e-cea1-4234-baae-53be02f64369"},"vehicle_type_id":"4","last_reported":1747303907,"current_range_meters":14400,"station_id":"ce4bhih2rcd13ifvqfr0","pricing_plan_id":"cebpf4jnsgd1na2vs0mg"},{"bike_id":"cd3b4502-1608-4eb8-9176-eb06e254b87a","system_id":"levelo_inurba_marseille","lat":43.29717,"lon":5.36616,"is_reserved":false,"is_disabled":false,"rental_uris":{"android":"levelo://app?vid=cd3b4502-1608-4eb8-9176-eb06e254b87a","ios":"levelo://app?vid=cd3b4502-1608-4eb8-9176-eb06e254b87a"},"vehicle_type_id":"4","last_reported":1747303907,"current_range_meters":14800,"station_id":"ce4bgn12rcd13ifvqbt0","pricing_plan_id":"cebpf4jnsgd1na2vs0mg"},{"bike_id":"129209f1-c1b5-46ff-9e0b-93da23f8b640","system_id":"levelo_inurba_marseille","lat":43.29623,"lon":5.37168,"is_reserved":false,"is_disabled":false,"rental_uris":{"android":"levelo://app?vid=129209f1-c1b5-46ff-9e0b-93da23f8b640","ios":"levelo://app?vid=129209f1-c1b5-46ff-9e0b-93da23f8b640"},"vehicle_type_id":"4","last_reported":1747303907,"current_range_meters":14800,"station_id":"ce4bgnh2rcd13ifvqc0g","pricing_plan_id":"cebpf4jnsgd1na2vs0mg"},{"bike_id":"9d06ad4a-7fa6-4a4c-8ae2-b03f7dafd6db","system_id":"levelo_inurba_marseille","lat":43.28422,"lon":5.34975,"is_reserved":false,"is_disabled":false,"rental_uris":{"android":"levelo://app?vid=9d06ad4a-7fa6-4a4c-8ae2-b03f7dafd6db","ios":"levelo://app?vid=9d06ad4a-7fa6-4a4c-8ae2-b03f7dafd6db"},"vehicle_type_id":"4","last_reported":1747303907,"current_range_meters":14800,"station_id":"ce4bhbh2rcd13ifvqepg","pricing_plan_id":"cebpf4jnsgd1na2vs0mg"},{"bike_id":"7bbd5443-7a26-45cd-9bbf-b2e088eaa359","system_id":"levelo_inurba_marseille","lat":43.25498,"lon":5.37652,"is_reserved":false,"is_disabled":false,"rental_uris":{"android":"levelo://app?vid=7bbd5443-7a26-45cd-9bbf-b2e088eaa359","ios":"levelo://app?vid=7bbd5443-7a26-45cd-9bbf-b2e088eaa359"},"vehicle_type_id":"4","last_reported":1747303907,"current_range_meters":14800,"station_id":"ce4bhh12rcd13ifvqff0","pricing_plan_id":"cebpf4jnsgd1na2vs0mg"},{"bike_id":"a949b9e7-5481-4332-a4e1-0b6f34f3838d","system_id":"levelo_inurba_marseille","lat":43.28611,"lon":5.37059,"is_reserved":false,"is_disabled":false,"rental_uris":{"android":"levelo://app?vid=a949b9e7-5481-4332-a4e1-0b6f34f3838d","ios":"levelo://app?vid=a949b9e7-5481-4332-a4e1-0b6f34f3838d"},"vehicle_type_id":"4","last_reported":1747303907,"current_range_meters":14800,"station_id":"ce4bht12rcd13ifvqi60","pricing_plan_id":"cebpf4jnsgd1na2vs0mg"},{"bike_id":"c3acc1e9-c036-4520-87a3-7e8466cee4e3","system_id":"levelo_inurba_marseille","lat":43.324912,"lon":5.365542,"is_reserved":false,"is_disabled":false,"rental_uris":{"android":"levelo://app?vid=c3acc1e9-c036-4520-87a3-7e8466cee4e3","ios":"levelo://app?vid=c3acc1e9-c036-4520-87a3-7e8466cee4e3"},"vehicle_type_id":"4","last_reported":1747303907,"current_range_meters":15200,"station_id":"ce4bhs12rcd13ifvqhvg","pricing_plan_id":"cebpf4jnsgd1na2vs0mg"},{"bike_id":"5df5f25e-a346-436e-b3c7-0939f5cb869e","system_id":"levelo_inurba_marseille","lat":43.31234,"lon":5.36876,"is_reserved":false,"is_disabled":false,"rental_uris":{"android":"levelo://app?vid=5df5f25e-a346-436e-b3c7-0939f5cb869e","ios":"levelo://app?vid=5df5f25e-a346-436e-b3c7-0939f5cb869e"},"vehicle_type_id":"4","last_reported":1747303907,"current_range_meters":16000,"station_id":"ce4bgl92rcd13ifvqbq0","pricing_plan_id":"cebpf4jnsgd1na2vs0mg"},{"bike_id":"dbd34c21-58aa-4a6b-9f71-a475cb3405ff","system_id":"levelo_inurba_marseille","lat":43.28427,"lon":5.34988,"is_reserved":false,"is_disabled":false,"rental_uris":{"android":"levelo://app?vid=dbd34c21-58aa-4a6b-9f71-a475cb3405ff","ios":"levelo://app?vid=dbd34c21-58aa-4a6b-9f71-a475cb3405ff"},"vehicle_type_id":"4","last_reported":1747303907,"current_range_meters":16000,"station_id":"ce4bhbh2rcd13ifvqepg","pricing_plan_id":"cebpf4jnsgd1na2vs0mg"},{"bike_id":"96f94c94-a8d8-48ef-99d3-5f0bcf6b1297","system_id":"levelo_inurba_marseille","lat":43.25503,"lon":5.37651,"is_reserved":false,"is_disabled":false,"rental_uris":{"android":"levelo://app?vid=96f94c94-a8d8-48ef-99d3-5f0bcf6b1297","ios":"levelo://app?vid=96f94c94-a8d8-48ef-99d3-5f0bcf6b1297"},"vehicle_type_id":"4","last_reported":1747303907,"current_range_meters":16000,"station_id":"ce4bhh12rcd13ifvqff0","pricing_plan_id":"cebpf4jnsgd1na2vs0mg"},{"bike_id":"c0e50a0a-d47d-4ec7-ba5c-4b56053f7d0f","system_id":"levelo_inurba_marseille","lat":43.23128,"lon":5.437,"is_reserved":false,"is_disabled":false,"rental_uris":{"android":"levelo://app?vid=c0e50a0a-d47d-4ec7-ba5c-4b56053f7d0f","ios":"levelo://app?vid=c0e50a0a-d47d-4ec7-ba5c-4b56053f7d0f"},"vehicle_type_id":"4","last_reported":1747303907,"current_range_meters":16000,"station_id":"ce4bhmp2rcd13ifvqgog","pricing_plan_id":"cebpf4jnsgd1na2vs0mg"},{"bike_id":"65809621-3c20-4f8e-bae7-2ca37f73834e","system_id":"levelo_inurba_marseille","lat":43.27942,"lon":5.41044,"is_reserved":false,"is_disabled":false,"rental_uris":{"android":"levelo://app?vid=65809621-3c20-4f8e-bae7-2ca37f73834e","ios":"levelo://app?vid=65809621-3c20-4f8e-bae7-2ca37f73834e"},"vehicle_type_id":"4","last_reported":1747303907,"current_range_meters":16000,"station_id":"ce4bhnp2rcd13ifvqh0g","pricing_plan_id":"cebpf4jnsgd1na2vs0mg"},{"bike_id":"249de94b-fd95-4983-a475-f4b57b786f5e","system_id":"levelo_inurba_marseille","lat":43.33604,"lon":5.41032,"is_reserved":false,"is_disabled":false,"rental_uris":{"android":"levelo://app?vid=249de94b-fd95-4983-a475-f4b57b786f5e","ios":"levelo://app?vid=249de94b-fd95-4983-a475-f4b57b786f5e"},"vehicle_type_id":"4","last_reported":1747303907,"current_range_meters":16000,"station_id":"ce4bhqh2rcd13ifvqhmg","pricing_plan_id":"cebpf4jnsgd1na2vs0mg"},{"bike_id":"1b2ca96b-a115-4009-b707-71f4c5b975d8","system_id":"levelo_inurba_marseille","lat":43.324889,"lon":5.365711,"is_reserved":false,"is_disabled":false,"rental_uris":{"android":"levelo://app?vid=1b2ca96b-a115-4009-b707-71f4c5b975d8","ios":"levelo://app?vid=1b2ca96b-a115-4009-b707-71f4c5b975d8"},"vehicle_type_id":"4","last_reported":1747303907,"current_range_meters":16000,"station_id":"ce4bhs12rcd13ifvqhvg","pricing_plan_id":"cebpf4jnsgd1na2vs0mg"},{"bike_id":"46d8de76-ce03-4a99-b9a9-0e690e273029","system_id":"levelo_inurba_marseille","lat":43.337751,"lon":5.374257,"is_reserved":false,"is_disabled":false,"rental_uris":{"android":"levelo://app?vid=46d8de76-ce03-4a99-b9a9-0e690e273029","ios":"levelo://app?vid=46d8de76-ce03-4a99-b9a9-0e690e273029"},"vehicle_type_id":"4","last_reported":1747303907,"current_range_meters":16400,"station_id":"","pricing_plan_id":"cebpf4jnsgd1na2vs0mg"},{"bike_id":"a97e7f2f-a4bd-43dc-a4a3-f47c4b150cbd","system_id":"levelo_inurba_marseille","lat":43.24175,"lon":5.39717,"is_reserved":false,"is_disabled":false,"rental_uris":{"android":"levelo://app?vid=a97e7f2f-a4bd-43dc-a4a3-f47c4b150cbd","ios":"levelo://app?vid=a97e7f2f-a4bd-43dc-a4a3-f47c4b150cbd"},"vehicle_type_id":"4","last_reported":1747303907,"current_range_meters":16400,"station_id":"ce4bhn12rcd13ifvqgpg","pricing_plan_id":"cebpf4jnsgd1na2vs0mg"},{"bike_id":"6e09a424-e841-44ba-8ad4-ce2253a7578a","system_id":"levelo_inurba_marseille","lat":43.31079,"lon":5.42429,"is_reserved":false,"is_disabled":false,"rental_uris":{"android":"levelo://app?vid=6e09a424-e841-44ba-8ad4-ce2253a7578a","ios":"levelo://app?vid=6e09a424-e841-44ba-8ad4-ce2253a7578a"},"vehicle_type_id":"4","last_reported":1747303907,"current_range_meters":16400,"station_id":"ce4bhp92rcd13ifvqhag","pricing_plan_id":"cebpf4jnsgd1na2vs0mg"},{"bike_id":"385c5680-aa17-4953-8596-7f0cb64e8bcd","system_id":"levelo_inurba_marseille","lat":43.324879,"lon":5.365654,"is_reserved":false,"is_disabled":false,"rental_uris":{"android":"levelo://app?vid=385c5680-aa17-4953-8596-7f0cb64e8bcd","ios":"levelo://app?vid=385c5680-aa17-4953-8596-7f0cb64e8bcd"},"vehicle_type_id":"4","last_reported":1747303907,"current_range_meters":16400,"station_id":"ce4bhs12rcd13ifvqhvg","pricing_plan_id":"cebpf4jnsgd1na2vs0mg"},{"bike_id":"d82557df-e581-4e7c-a50d-54afec677056","system_id":"levelo_inurba_marseille","lat":43.21749,"lon":5.34605,"is_reserved":false,"is_disabled":false,"rental_uris":{"android":"levelo://app?vid=d82557df-e581-4e7c-a50d-54afec677056","ios":"levelo://app?vid=d82557df-e581-4e7c-a50d-54afec677056"},"vehicle_type_id":"4","last_reported":1747303907,"current_range_meters":16400,"station_id":"st_cvj6r9ubvosntc0bgbag","pricing_plan_id":"cebpf4jnsgd1na2vs0mg"},{"bike_id":"6e32295c-235c-4471-8794-f6c1950cd8e4","system_id":"levelo_inurba_marseille","lat":43.31115,"lon":5.37764,"is_reserved":false,"is_disabled":false,"rental_uris":{"android":"levelo://app?vid=6e32295c-235c-4471-8794-f6c1950cd8e4","ios":"levelo://app?vid=6e32295c-235c-4471-8794-f6c1950cd8e4"},"vehicle_type_id":"4","last_reported":1747303907,"current_range_meters":16800,"station_id":"ce4bgt92rcd13ifvqcg0","pricing_plan_id":"cebpf4jnsgd1na2vs0mg"},{"bike_id":"23340d87-59f5-4bc6-8602-a0bd649c693b","system_id":"levelo_inurba_marseille","lat":43.27965,"lon":5.38773,"is_reserved":false,"is_disabled":false,"rental_uris":{"android":"levelo://app?vid=23340d87-59f5-4bc6-8602-a0bd649c693b","ios":"levelo://app?vid=23340d87-59f5-4bc6-8602-a0bd649c693b"},"vehicle_type_id":"4","last_reported":1747303907,"current_range_meters":16800,"station_id":"ce4bhg12rcd13ifvqf80","pricing_plan_id":"cebpf4jnsgd1na2vs0mg"},{"bike_id":"2c677a98-4d64-4574-a2b4-126ede226841","system_id":"levelo_inurba_marseille","lat":43.25114,"lon":5.4033,"is_reserved":false,"is_disabled":false,"rental_uris":{"android":"levelo://app?vid=2c677a98-4d64-4574-a2b4-126ede226841","ios":"levelo://app?vid=2c677a98-4d64-4574-a2b4-126ede226841"},"vehicle_type_id":"4","last_reported":1747303907,"current_range_meters":16800,"station_id":"ce4bhlh2rcd13ifvqgig","pricing_plan_id":"cebpf4jnsgd1na2vs0mg"},{"bike_id":"111ebbdb-72a9-4e4d-bc22-f68f42b99ba3","system_id":"levelo_inurba_marseille","lat":43.28466,"lon":5.38426,"is_reserved":false,"is_disabled":false,"rental_uris":{"android":"levelo://app?vid=111ebbdb-72a9-4e4d-bc22-f68f42b99ba3","ios":"levelo://app?vid=111ebbdb-72a9-4e4d-bc22-f68f42b99ba3"},"vehicle_type_id":"4","last_reported":1747303907,"current_range_meters":17200,"station_id":"","pricing_plan_id":"cebpf4jnsgd1na2vs0mg"},{"bike_id":"b08bbf47-ac53-4f7b-bd0b-067505858b13","system_id":"levelo_inurba_marseille","lat":43.29526,"lon":5.37506,"is_reserved":false,"is_disabled":false,"rental_uris":{"android":"levelo://app?vid=b08bbf47-ac53-4f7b-bd0b-067505858b13","ios":"levelo://app?vid=b08bbf47-ac53-4f7b-bd0b-067505858b13"},"vehicle_type_id":"4","last_reported":1747303907,"current_range_meters":17200,"station_id":"ce4bgkp2rcd13ifvqbmg","pricing_plan_id":"cebpf4jnsgd1na2vs0mg"},{"bike_id":"ddfd940d-95a7-45bf-9c9c-763900983f9b","system_id":"levelo_inurba_marseille","lat":43.305382,"lon":5.367002,"is_reserved":false,"is_disabled":false,"rental_uris":{"android":"levelo://app?vid=ddfd940d-95a7-45bf-9c9c-763900983f9b","ios":"levelo://app?vid=ddfd940d-95a7-45bf-9c9c-763900983f9b"},"vehicle_type_id":"4","last_reported":1747303907,"current_range_meters":17200,"station_id":"ce4bgrp2rcd13ifvqc9g","pricing_plan_id":"cebpf4jnsgd1na2vs0mg"},{"bike_id":"1719b5ef-1104-48ff-ad82-814be2e44e3b","system_id":"levelo_inurba_marseille","lat":43.30936,"lon":5.40144,"is_reserved":false,"is_disabled":false,"rental_uris":{"android":"levelo://app?vid=1719b5ef-1104-48ff-ad82-814be2e44e3b","ios":"levelo://app?vid=1719b5ef-1104-48ff-ad82-814be2e44e3b"},"vehicle_type_id":"4","last_reported":1747303907,"current_range_meters":17200,"station_id":"ce4bgvp2rcd13ifvqct0","pricing_plan_id":"cebpf4jnsgd1na2vs0mg"},{"bike_id":"bcc12598-861c-4276-9412-2ab8eac23bb7","system_id":"levelo_inurba_marseille","lat":43.25493,"lon":5.37648,"is_reserved":false,"is_disabled":false,"rental_uris":{"android":"levelo://app?vid=bcc12598-861c-4276-9412-2ab8eac23bb7","ios":"levelo://app?vid=bcc12598-861c-4276-9412-2ab8eac23bb7"},"vehicle_type_id":"4","last_reported":1747303907,"current_range_meters":17200,"station_id":"ce4bhh12rcd13ifvqff0","pricing_plan_id":"cebpf4jnsgd1na2vs0mg"},{"bike_id":"85891e73-3e73-4a05-b845-1b10e5ff67c1","system_id":"levelo_inurba_marseille","lat":43.27674,"lon":5.38887,"is_reserved":false,"is_disabled":false,"rental_uris":{"android":"levelo://app?vid=85891e73-3e73-4a05-b845-1b10e5ff67c1","ios":"levelo://app?vid=85891e73-3e73-4a05-b845-1b10e5ff67c1"},"vehicle_type_id":"4","last_reported":1747303907,"current_range_meters":17200,"station_id":"ce4bhi12rcd13ifvqfo0","pricing_plan_id":"cebpf4jnsgd1na2vs0mg"},{"bike_id":"7eabcfe4-4418-4b9d-b76d-5930654da7d6","system_id":"levelo_inurba_marseille","lat":43.26219,"lon":5.40448,"is_reserved":false,"is_disabled":false,"rental_uris":{"android":"levelo://app?vid=7eabcfe4-4418-4b9d-b76d-5930654da7d6","ios":"levelo://app?vid=7eabcfe4-4418-4b9d-b76d-5930654da7d6"},"vehicle_type_id":"4","last_reported":1747303907,"current_range_meters":17200,"station_id":"ce4bhmh2rcd13ifvqgmg","pricing_plan_id":"cebpf4jnsgd1na2vs0mg"},{"bike_id":"60af0a7f-4cfd-4f77-8f2f-31f09c58ccf0","system_id":"levelo_inurba_marseille","lat":43.2175,"lon":5.34604,"is_reserved":false,"is_disabled":false,"rental_uris":{"android":"levelo://app?vid=60af0a7f-4cfd-4f77-8f2f-31f09c58ccf0","ios":"levelo://app?vid=60af0a7f-4cfd-4f77-8f2f-31f09c58ccf0"},"vehicle_type_id":"4","last_reported":1747303907,"current_range_meters":17200,"station_id":"st_cvj6r9ubvosntc0bgbag","pricing_plan_id":"cebpf4jnsgd1na2vs0mg"},{"bike_id":"8b44f886-59c7-4896-a2ca-0dea931a883f","system_id":"levelo_inurba_marseille","lat":43.21181,"lon":5.35091,"is_reserved":false,"is_disabled":false,"rental_uris":{"android":"levelo://app?vid=8b44f886-59c7-4896-a2ca-0dea931a883f","ios":"levelo://app?vid=8b44f886-59c7-4896-a2ca-0dea931a883f"},"vehicle_type_id":"4","last_reported":1747303907,"current_range_meters":17200,"station_id":"st_cvj6sg6p6f1abm77japg","pricing_plan_id":"cebpf4jnsgd1na2vs0mg"},{"bike_id":"a2d6a384-311c-42f7-acd0-99b54160f604","system_id":"levelo_inurba_marseille","lat":43.30905,"lon":5.36865,"is_reserved":false,"is_disabled":false,"rental_uris":{"android":"levelo://app?vid=a2d6a384-311c-42f7-acd0-99b54160f604","ios":"levelo://app?vid=a2d6a384-311c-42f7-acd0-99b54160f604"},"vehicle_type_id":"4","last_reported":1747303907,"current_range_meters":17600,"station_id":"ce4bgn92rcd13ifvqbvg","pricing_plan_id":"cebpf4jnsgd1na2vs0mg"},{"bike_id":"0e642aa4-6b11-42d7-a2d5-23309c013ac1","system_id":"levelo_inurba_marseille","lat":43.30548,"lon":5.36707,"is_reserved":false,"is_disabled":false,"rental_uris":{"android":"levelo://app?vid=0e642aa4-6b11-42d7-a2d5-23309c013ac1","ios":"levelo://app?vid=0e642aa4-6b11-42d7-a2d5-23309c013ac1"},"vehicle_type_id":"4","last_reported":1747303907,"current_range_meters":17600,"station_id":"ce4bgrp2rcd13ifvqc9g","pricing_plan_id":"cebpf4jnsgd1na2vs0mg"},{"bike_id":"494dd66f-544d-4283-ab79-1e06e40f62b5","system_id":"levelo_inurba_marseille","lat":43.28473,"lon":5.38412,"is_reserved":false,"is_disabled":false,"rental_uris":{"android":"levelo://app?vid=494dd66f-544d-4283-ab79-1e06e40f62b5","ios":"levelo://app?vid=494dd66f-544d-4283-ab79-1e06e40f62b5"},"vehicle_type_id":"4","last_reported":1747303907,"current_range_meters":17600,"station_id":"ce4bh512rcd13ifvqe3g","pricing_plan_id":"cebpf4jnsgd1na2vs0mg"},{"bike_id":"6414c6d0-c577-4b00-8541-05cb008ccfad","system_id":"levelo_inurba_marseille","lat":43.28414,"lon":5.34982,"is_reserved":false,"is_disabled":false,"rental_uris":{"android":"levelo://app?vid=6414c6d0-c577-4b00-8541-05cb008ccfad","ios":"levelo://app?vid=6414c6d0-c577-4b00-8541-05cb008ccfad"},"vehicle_type_id":"4","last_reported":1747303907,"current_range_meters":17600,"station_id":"ce4bhbh2rcd13ifvqepg","pricing_plan_id":"cebpf4jnsgd1na2vs0mg"},{"bike_id":"6d886103-344e-431a-ac80-7f62879d2f7c","system_id":"levelo_inurba_marseille","lat":43.22928,"lon":5.35376,"is_reserved":false,"is_disabled":false,"rental_uris":{"android":"levelo://app?vid=6d886103-344e-431a-ac80-7f62879d2f7c","ios":"levelo://app?vid=6d886103-344e-431a-ac80-7f62879d2f7c"},"vehicle_type_id":"4","last_reported":1747303907,"current_range_meters":17600,"station_id":"cpo3532slgdg3j2ikp40","pricing_plan_id":"cebpf4jnsgd1na2vs0mg"},{"bike_id":"d17e2576-e2bc-4475-a7fe-5b109c372ebc","system_id":"levelo_inurba_marseille","lat":43.29577,"lon":5.39984,"is_reserved":false,"is_disabled":false,"rental_uris":{"android":"levelo://app?vid=d17e2576-e2bc-4475-a7fe-5b109c372ebc","ios":"levelo://app?vid=d17e2576-e2bc-4475-a7fe-5b109c372ebc"},"vehicle_type_id":"4","last_reported":1747303907,"current_range_meters":18000,"station_id":"ce4bh312rcd13ifvqdj0","pricing_plan_id":"cebpf4jnsgd1na2vs0mg"},{"bike_id":"663ff73a-1f1c-4297-937e-01b4880b5a71","system_id":"levelo_inurba_marseille","lat":43.26057,"lon":5.394,"is_reserved":false,"is_disabled":false,"rental_uris":{"android":"levelo://app?vid=663ff73a-1f1c-4297-937e-01b4880b5a71","ios":"levelo://app?vid=663ff73a-1f1c-4297-937e-01b4880b5a71"},"vehicle_type_id":"4","last_reported":1747303907,"current_range_meters":18000,"station_id":"ce4bhh92rcd13ifvqfj0","pricing_plan_id":"cebpf4jnsgd1na2vs0mg"},{"bike_id":"34af7d95-a46f-4a4d-b96f-03cda0e7d10e","system_id":"levelo_inurba_marseille","lat":43.27056,"lon":5.42281,"is_reserved":false,"is_disabled":false,"rental_uris":{"android":"levelo://app?vid=34af7d95-a46f-4a4d-b96f-03cda0e7d10e","ios":"levelo://app?vid=34af7d95-a46f-4a4d-b96f-03cda0e7d10e"},"vehicle_type_id":"4","last_reported":1747303907,"current_range_meters":18000,"station_id":"ce4bhk92rcd13ifvqgb0","pricing_plan_id":"cebpf4jnsgd1na2vs0mg"},{"bike_id":"9b4b440d-b8c0-4709-9c4b-431dc1629b9a","system_id":"levelo_inurba_marseille","lat":43.27074,"lon":5.42255,"is_reserved":false,"is_disabled":false,"rental_uris":{"android":"levelo://app?vid=9b4b440d-b8c0-4709-9c4b-431dc1629b9a","ios":"levelo://app?vid=9b4b440d-b8c0-4709-9c4b-431dc1629b9a"},"vehicle_type_id":"4","last_reported":1747303907,"current_range_meters":18000,"station_id":"ce4bhk92rcd13ifvqgb0","pricing_plan_id":"cebpf4jnsgd1na2vs0mg"},{"bike_id":"15b78ca4-8eda-4012-b392-8e1c04a2c79c","system_id":"levelo_inurba_marseille","lat":43.27998,"lon":5.41672,"is_reserved":false,"is_disabled":false,"rental_uris":{"android":"levelo://app?vid=15b78ca4-8eda-4012-b392-8e1c04a2c79c","ios":"levelo://app?vid=15b78ca4-8eda-4012-b392-8e1c04a2c79c"},"vehicle_type_id":"4","last_reported":1747303907,"current_range_meters":18000,"station_id":"ce4bho12rcd13ifvqh1g","pricing_plan_id":"cebpf4jnsgd1na2vs0mg"},{"bike_id":"5550a0de-9fd6-4ea8-a137-dd5884c4a10a","system_id":"levelo_inurba_marseille","lat":43.28003,"lon":5.40014,"is_reserved":false,"is_disabled":false,"rental_uris":{"android":"levelo://app?vid=5550a0de-9fd6-4ea8-a137-dd5884c4a10a","ios":"levelo://app?vid=5550a0de-9fd6-4ea8-a137-dd5884c4a10a"},"vehicle_type_id":"4","last_reported":1747303907,"current_range_meters":18000,"station_id":"ce4bho92rcd13ifvqh4g","pricing_plan_id":"cebpf4jnsgd1na2vs0mg"},{"bike_id":"05647ffd-ffa9-4a9c-92e9-9a49dc821811","system_id":"levelo_inurba_marseille","lat":43.32222,"lon":5.36512,"is_reserved":false,"is_disabled":false,"rental_uris":{"android":"levelo://app?vid=05647ffd-ffa9-4a9c-92e9-9a49dc821811","ios":"levelo://app?vid=05647ffd-ffa9-4a9c-92e9-9a49dc821811"},"vehicle_type_id":"4","last_reported":1747303907,"current_range_meters":18000,"station_id":"ce4bhsh2rcd13ifvqi2g","pricing_plan_id":"cebpf4jnsgd1na2vs0mg"},{"bike_id":"84433003-0f08-43ea-afeb-c2465d9725ac","system_id":"levelo_inurba_marseille","lat":43.2694,"lon":5.40252,"is_reserved":false,"is_disabled":false,"rental_uris":{"android":"levelo://app?vid=84433003-0f08-43ea-afeb-c2465d9725ac","ios":"levelo://app?vid=84433003-0f08-43ea-afeb-c2465d9725ac"},"vehicle_type_id":"4","last_reported":1747303907,"current_range_meters":18000,"station_id":"cjm6bp8fraef2m0cb0m0","pricing_plan_id":"cebpf4jnsgd1na2vs0mg"},{"bike_id":"24662577-69c7-4d84-a260-f2892b169180","system_id":"levelo_inurba_marseille","lat":43.21751,"lon":5.34603,"is_reserved":false,"is_disabled":false,"rental_uris":{"android":"levelo://app?vid=24662577-69c7-4d84-a260-f2892b169180","ios":"levelo://app?vid=24662577-69c7-4d84-a260-f2892b169180"},"vehicle_type_id":"4","last_reported":1747303907,"current_range_meters":18000,"station_id":"st_cvj6r9ubvosntc0bgbag","pricing_plan_id":"cebpf4jnsgd1na2vs0mg"},{"bike_id":"c3000279-955b-456e-978b-b408d994653f","system_id":"levelo_inurba_marseille","lat":43.29632,"lon":5.40608,"is_reserved":false,"is_disabled":false,"rental_uris":{"android":"levelo://app?vid=c3000279-955b-456e-978b-b408d994653f","ios":"levelo://app?vid=c3000279-955b-456e-978b-b408d994653f"},"vehicle_type_id":"4","last_reported":1747303907,"current_range_meters":18800,"station_id":"ce4bh0h2rcd13ifvqd60","pricing_plan_id":"cebpf4jnsgd1na2vs0mg"},{"bike_id":"8c801b9f-3818-4ceb-9573-4499ff41234b","system_id":"levelo_inurba_marseille","lat":43.28425,"lon":5.34988,"is_reserved":false,"is_disabled":false,"rental_uris":{"android":"levelo://app?vid=8c801b9f-3818-4ceb-9573-4499ff41234b","ios":"levelo://app?vid=8c801b9f-3818-4ceb-9573-4499ff41234b"},"vehicle_type_id":"4","last_reported":1747303907,"current_range_meters":18800,"station_id":"ce4bhbh2rcd13ifvqepg","pricing_plan_id":"cebpf4jnsgd1na2vs0mg"},{"bike_id":"b01ef8b7-f396-46ca-96b7-e98c863e4a47","system_id":"levelo_inurba_marseille","lat":43.25934,"lon":5.40893,"is_reserved":false,"is_disabled":false,"rental_uris":{"android":"levelo://app?vid=b01ef8b7-f396-46ca-96b7-e98c863e4a47","ios":"levelo://app?vid=b01ef8b7-f396-46ca-96b7-e98c863e4a47"},"vehicle_type_id":"4","last_reported":1747303907,"current_range_meters":18800,"station_id":"ce4bhm92rcd13ifvqglg","pricing_plan_id":"cebpf4jnsgd1na2vs0mg"},{"bike_id":"df1c4951-efe1-4d34-9497-1627486c9084","system_id":"levelo_inurba_marseille","lat":43.29305,"lon":5.37176,"is_reserved":false,"is_disabled":false,"rental_uris":{"android":"levelo://app?vid=df1c4951-efe1-4d34-9497-1627486c9084","ios":"levelo://app?vid=df1c4951-efe1-4d34-9497-1627486c9084"},"vehicle_type_id":"4","last_reported":1747303907,"current_range_meters":19200,"station_id":"ce4bgh92rcd13ifvqb40","pricing_plan_id":"cebpf4jnsgd1na2vs0mg"},{"bike_id":"ff8c31a0-1c02-41af-992d-f5052b02aea3","system_id":"levelo_inurba_marseille","lat":43.30934,"lon":5.3684,"is_reserved":false,"is_disabled":false,"rental_uris":{"android":"levelo://app?vid=ff8c31a0-1c02-41af-992d-f5052b02aea3","ios":"levelo://app?vid=ff8c31a0-1c02-41af-992d-f5052b02aea3"},"vehicle_type_id":"4","last_reported":1747303907,"current_range_meters":19200,"station_id":"ce4bgn92rcd13ifvqbvg","pricing_plan_id":"cebpf4jnsgd1na2vs0mg"},{"bike_id":"71061298-85e7-45bc-993b-630ac66b913f","system_id":"levelo_inurba_marseille","lat":43.26553,"lon":5.37292,"is_reserved":false,"is_disabled":false,"rental_uris":{"android":"levelo://app?vid=71061298-85e7-45bc-993b-630ac66b913f","ios":"levelo://app?vid=71061298-85e7-45bc-993b-630ac66b913f"},"vehicle_type_id":"4","last_reported":1747303907,"current_range_meters":19200,"station_id":"ce4bhg12rcd13ifvqf70","pricing_plan_id":"cebpf4jnsgd1na2vs0mg"},{"bike_id":"613ffd6f-3e58-49d4-bd25-15dff4b73bdd","system_id":"levelo_inurba_marseille","lat":43.26209,"lon":5.37448,"is_reserved":false,"is_disabled":false,"rental_uris":{"android":"levelo://app?vid=613ffd6f-3e58-49d4-bd25-15dff4b73bdd","ios":"levelo://app?vid=613ffd6f-3e58-49d4-bd25-15dff4b73bdd"},"vehicle_type_id":"4","last_reported":1747303907,"current_range_meters":19200,"station_id":"ce4bhgp2rcd13ifvqfc0","pricing_plan_id":"cebpf4jnsgd1na2vs0mg"},{"bike_id":"f767a323-a2dc-4bbf-99d7-08e15a1ba73f","system_id":"levelo_inurba_marseille","lat":43.26199,"lon":5.37937,"is_reserved":false,"is_disabled":false,"rental_uris":{"android":"levelo://app?vid=f767a323-a2dc-4bbf-99d7-08e15a1ba73f","ios":"levelo://app?vid=f767a323-a2dc-4bbf-99d7-08e15a1ba73f"},"vehicle_type_id":"4","last_reported":1747303907,"current_range_meters":19200,"station_id":"ce4bhjp2rcd13ifvqg90","pricing_plan_id":"cebpf4jnsgd1na2vs0mg"},{"bike_id":"e2910f79-1c0a-4884-b847-5b14d3b66b3f","system_id":"levelo_inurba_marseille","lat":43.29541,"lon":5.37522,"is_reserved":false,"is_disabled":false,"rental_uris":{"android":"levelo://app?vid=e2910f79-1c0a-4884-b847-5b14d3b66b3f","ios":"levelo://app?vid=e2910f79-1c0a-4884-b847-5b14d3b66b3f"},"vehicle_type_id":"4","last_reported":1747303907,"current_range_meters":19600,"station_id":"ce4bgkp2rcd13ifvqbmg","pricing_plan_id":"cebpf4jnsgd1na2vs0mg"},{"bike_id":"db77887e-0d96-4823-9d7a-29dcd7da204d","system_id":"levelo_inurba_marseille","lat":43.26216,"lon":5.40465,"is_reserved":false,"is_disabled":false,"rental_uris":{"android":"levelo://app?vid=db77887e-0d96-4823-9d7a-29dcd7da204d","ios":"levelo://app?vid=db77887e-0d96-4823-9d7a-29dcd7da204d"},"vehicle_type_id":"4","last_reported":1747303907,"current_range_meters":19600,"station_id":"ce4bhmh2rcd13ifvqgmg","pricing_plan_id":"cebpf4jnsgd1na2vs0mg"},{"bike_id":"b92181ff-964b-4650-9138-55d8b1255073","system_id":"levelo_inurba_marseille","lat":43.23152,"lon":5.43705,"is_reserved":false,"is_disabled":false,"rental_uris":{"android":"levelo://app?vid=b92181ff-964b-4650-9138-55d8b1255073","ios":"levelo://app?vid=b92181ff-964b-4650-9138-55d8b1255073"},"vehicle_type_id":"4","last_reported":1747303907,"current_range_meters":19600,"station_id":"ce4bhmp2rcd13ifvqgog","pricing_plan_id":"cebpf4jnsgd1na2vs0mg"},{"bike_id":"2fcc4300-9147-4a4b-a12c-17076499c238","system_id":"levelo_inurba_marseille","lat":43.32535,"lon":5.41466,"is_reserved":false,"is_disabled":false,"rental_uris":{"android":"levelo://app?vid=2fcc4300-9147-4a4b-a12c-17076499c238","ios":"levelo://app?vid=2fcc4300-9147-4a4b-a12c-17076499c238"},"vehicle_type_id":"4","last_reported":1747303907,"current_range_meters":19600,"station_id":"ce4bhq12rcd13ifvqhhg","pricing_plan_id":"cebpf4jnsgd1na2vs0mg"},{"bike_id":"5a45e03c-09e5-4eda-b3a9-4e85d7df2f80","system_id":"levelo_inurba_marseille","lat":43.26938,"lon":5.40247,"is_reserved":false,"is_disabled":false,"rental_uris":{"android":"levelo://app?vid=5a45e03c-09e5-4eda-b3a9-4e85d7df2f80","ios":"levelo://app?vid=5a45e03c-09e5-4eda-b3a9-4e85d7df2f80"},"vehicle_type_id":"4","last_reported":1747303907,"current_range_meters":19600,"station_id":"cjm6bp8fraef2m0cb0m0","pricing_plan_id":"cebpf4jnsgd1na2vs0mg"},{"bike_id":"c0e0fd84-4c7c-420a-b641-45b7066ef9a9","system_id":"levelo_inurba_marseille","lat":43.31361,"lon":5.36707,"is_reserved":false,"is_disabled":false,"rental_uris":{"android":"levelo://app?vid=c0e0fd84-4c7c-420a-b641-45b7066ef9a9","ios":"levelo://app?vid=c0e0fd84-4c7c-420a-b641-45b7066ef9a9"},"vehicle_type_id":"4","last_reported":1747303907,"current_range_meters":20000,"station_id":"ce4bgr92rcd13ifvqc6g","pricing_plan_id":"cebpf4jnsgd1na2vs0mg"},{"bike_id":"d4c0fdb6-719d-449b-9dce-be316c6988f9","system_id":"levelo_inurba_marseille","lat":43.25009,"lon":5.38906,"is_reserved":false,"is_disabled":false,"rental_uris":{"android":"levelo://app?vid=d4c0fdb6-719d-449b-9dce-be316c6988f9","ios":"levelo://app?vid=d4c0fdb6-719d-449b-9dce-be316c6988f9"},"vehicle_type_id":"4","last_reported":1747303907,"current_range_meters":20000,"station_id":"ce4bhgp2rcd13ifvqfd0","pricing_plan_id":"cebpf4jnsgd1na2vs0mg"},{"bike_id":"54a1a73b-9f7a-414c-a48f-eeace73bd9b0","system_id":"levelo_inurba_marseille","lat":43.22512,"lon":5.34769,"is_reserved":false,"is_disabled":false,"rental_uris":{"android":"levelo://app?vid=54a1a73b-9f7a-414c-a48f-eeace73bd9b0","ios":"levelo://app?vid=54a1a73b-9f7a-414c-a48f-eeace73bd9b0"},"vehicle_type_id":"4","last_reported":1747303907,"current_range_meters":20000,"station_id":"st_cvj5dfep6f1abm77gieg","pricing_plan_id":"cebpf4jnsgd1na2vs0mg"},{"bike_id":"180e10a7-ba2a-44a0-95b4-4567b94c2920","system_id":"levelo_inurba_marseille","lat":43.21752,"lon":5.34601,"is_reserved":false,"is_disabled":false,"rental_uris":{"android":"levelo://app?vid=180e10a7-ba2a-44a0-95b4-4567b94c2920","ios":"levelo://app?vid=180e10a7-ba2a-44a0-95b4-4567b94c2920"},"vehicle_type_id":"4","last_reported":1747303907,"current_range_meters":20000,"station_id":"st_cvj6r9ubvosntc0bgbag","pricing_plan_id":"cebpf4jnsgd1na2vs0mg"},{"bike_id":"54c80718-1468-47f9-9877-bc44f5940722","system_id":"levelo_inurba_marseille","lat":43.21199,"lon":5.35043,"is_reserved":false,"is_disabled":false,"rental_uris":{"android":"levelo://app?vid=54c80718-1468-47f9-9877-bc44f5940722","ios":"levelo://app?vid=54c80718-1468-47f9-9877-bc44f5940722"},"vehicle_type_id":"4","last_reported":1747303907,"current_range_meters":20000,"station_id":"st_cvj6sg6p6f1abm77japg","pricing_plan_id":"cebpf4jnsgd1na2vs0mg"},{"bike_id":"1d96b846-3f98-4789-9f4e-718c7a5c2479","system_id":"levelo_inurba_marseille","lat":43.31337,"lon":5.36743,"is_reserved":false,"is_disabled":false,"rental_uris":{"android":"levelo://app?vid=1d96b846-3f98-4789-9f4e-718c7a5c2479","ios":"levelo://app?vid=1d96b846-3f98-4789-9f4e-718c7a5c2479"},"vehicle_type_id":"4","last_reported":1747303907,"current_range_meters":20400,"station_id":"ce4bgr92rcd13ifvqc6g","pricing_plan_id":"cebpf4jnsgd1na2vs0mg"},{"bike_id":"69adc5b2-d802-49c4-a8ec-a7c6eeda7260","system_id":"levelo_inurba_marseille","lat":43.30546,"lon":5.36718,"is_reserved":false,"is_disabled":false,"rental_uris":{"android":"levelo://app?vid=69adc5b2-d802-49c4-a8ec-a7c6eeda7260","ios":"levelo://app?vid=69adc5b2-d802-49c4-a8ec-a7c6eeda7260"},"vehicle_type_id":"4","last_reported":1747303907,"current_range_meters":20400,"station_id":"ce4bgrp2rcd13ifvqc9g","pricing_plan_id":"cebpf4jnsgd1na2vs0mg"},{"bike_id":"3d9408eb-6ddb-44f1-8e42-5f03fe63ceb6","system_id":"levelo_inurba_marseille","lat":43.30559,"lon":5.3654,"is_reserved":false,"is_disabled":false,"rental_uris":{"android":"levelo://app?vid=3d9408eb-6ddb-44f1-8e42-5f03fe63ceb6","ios":"levelo://app?vid=3d9408eb-6ddb-44f1-8e42-5f03fe63ceb6"},"vehicle_type_id":"4","last_reported":1747303907,"current_range_meters":20400,"station_id":"ce4bgs12rcd13ifvqcag","pricing_plan_id":"cebpf4jnsgd1na2vs0mg"},{"bike_id":"444a83ab-8534-4782-ba69-20c25ccaa8b0","system_id":"levelo_inurba_marseille","lat":43.26544,"lon":5.37306,"is_reserved":false,"is_disabled":false,"rental_uris":{"android":"levelo://app?vid=444a83ab-8534-4782-ba69-20c25ccaa8b0","ios":"levelo://app?vid=444a83ab-8534-4782-ba69-20c25ccaa8b0"},"vehicle_type_id":"4","last_reported":1747303907,"current_range_meters":20400,"station_id":"ce4bhg12rcd13ifvqf70","pricing_plan_id":"cebpf4jnsgd1na2vs0mg"},{"bike_id":"3d46183d-e421-4498-8767-0e257c53394b","system_id":"levelo_inurba_marseille","lat":43.325479,"lon":5.414357,"is_reserved":false,"is_disabled":false,"rental_uris":{"android":"levelo://app?vid=3d46183d-e421-4498-8767-0e257c53394b","ios":"levelo://app?vid=3d46183d-e421-4498-8767-0e257c53394b"},"vehicle_type_id":"4","last_reported":1747303907,"current_range_meters":20400,"station_id":"ce4bhq12rcd13ifvqhhg","pricing_plan_id":"cebpf4jnsgd1na2vs0mg"},{"bike_id":"c355cf0d-cf69-4d62-a72a-2e55a35b8973","system_id":"levelo_inurba_marseille","lat":43.29623,"lon":5.37154,"is_reserved":false,"is_disabled":false,"rental_uris":{"android":"levelo://app?vid=c355cf0d-cf69-4d62-a72a-2e55a35b8973","ios":"levelo://app?vid=c355cf0d-cf69-4d62-a72a-2e55a35b8973"},"vehicle_type_id":"4","last_reported":1747303907,"current_range_meters":20800,"station_id":"ce4bgnh2rcd13ifvqc0g","pricing_plan_id":"cebpf4jnsgd1na2vs0mg"},{"bike_id":"13fb7c0c-f7ea-4d7b-bdcd-c94492777a0b","system_id":"levelo_inurba_marseille","lat":43.30529,"lon":5.36562,"is_reserved":false,"is_disabled":false,"rental_uris":{"android":"levelo://app?vid=13fb7c0c-f7ea-4d7b-bdcd-c94492777a0b","ios":"levelo://app?vid=13fb7c0c-f7ea-4d7b-bdcd-c94492777a0b"},"vehicle_type_id":"4","last_reported":1747303907,"current_range_meters":20800,"station_id":"ce4bgs12rcd13ifvqcag","pricing_plan_id":"cebpf4jnsgd1na2vs0mg"},{"bike_id":"a0f19088-fa50-4835-b5a2-53a73a863305","system_id":"levelo_inurba_marseille","lat":43.30544,"lon":5.36569,"is_reserved":false,"is_disabled":false,"rental_uris":{"android":"levelo://app?vid=a0f19088-fa50-4835-b5a2-53a73a863305","ios":"levelo://app?vid=a0f19088-fa50-4835-b5a2-53a73a863305"},"vehicle_type_id":"4","last_reported":1747303907,"current_range_meters":20800,"station_id":"ce4bgs12rcd13ifvqcag","pricing_plan_id":"cebpf4jnsgd1na2vs0mg"},{"bike_id":"2fb17671-1502-4ebe-807d-28c259a83b5a","system_id":"levelo_inurba_marseille","lat":43.27963,"lon":5.38747,"is_reserved":false,"is_disabled":false,"rental_uris":{"android":"levelo://app?vid=2fb17671-1502-4ebe-807d-28c259a83b5a","ios":"levelo://app?vid=2fb17671-1502-4ebe-807d-28c259a83b5a"},"vehicle_type_id":"4","last_reported":1747303907,"current_range_meters":20800,"station_id":"ce4bhg12rcd13ifvqf80","pricing_plan_id":"cebpf4jnsgd1na2vs0mg"},{"bike_id":"7a1e24bf-f094-478d-b71f-a4c869554757","system_id":"levelo_inurba_marseille","lat":43.27572,"lon":5.38423,"is_reserved":false,"is_disabled":false,"rental_uris":{"android":"levelo://app?vid=7a1e24bf-f094-478d-b71f-a4c869554757","ios":"levelo://app?vid=7a1e24bf-f094-478d-b71f-a4c869554757"},"vehicle_type_id":"4","last_reported":1747303907,"current_range_meters":20800,"station_id":"ce4bhh92rcd13ifvqfi0","pricing_plan_id":"cebpf4jnsgd1na2vs0mg"},{"bike_id":"d36c43d6-fb4d-4c8e-b04c-47920efe44fa","system_id":"levelo_inurba_marseille","lat":43.270617,"lon":5.402553,"is_reserved":false,"is_disabled":false,"rental_uris":{"android":"levelo://app?vid=d36c43d6-fb4d-4c8e-b04c-47920efe44fa","ios":"levelo://app?vid=d36c43d6-fb4d-4c8e-b04c-47920efe44fa"},"vehicle_type_id":"4","last_reported":1747303907,"current_range_meters":20800,"station_id":"ce4bhk92rcd13ifvqgc0","pricing_plan_id":"cebpf4jnsgd1na2vs0mg"},{"bike_id":"bc997f5b-ce07-476e-841c-3f5b79bd98e0","system_id":"levelo_inurba_marseille","lat":43.23141,"lon":5.43712,"is_reserved":false,"is_disabled":false,"rental_uris":{"android":"levelo://app?vid=bc997f5b-ce07-476e-841c-3f5b79bd98e0","ios":"levelo://app?vid=bc997f5b-ce07-476e-841c-3f5b79bd98e0"},"vehicle_type_id":"4","last_reported":1747303907,"current_range_meters":20800,"station_id":"ce4bhmp2rcd13ifvqgog","pricing_plan_id":"cebpf4jnsgd1na2vs0mg"},{"bike_id":"c41abff9-2506-47e6-9902-a67c3ce73da3","system_id":"levelo_inurba_marseille","lat":43.24177,"lon":5.39699,"is_reserved":false,"is_disabled":false,"rental_uris":{"android":"levelo://app?vid=c41abff9-2506-47e6-9902-a67c3ce73da3","ios":"levelo://app?vid=c41abff9-2506-47e6-9902-a67c3ce73da3"},"vehicle_type_id":"4","last_reported":1747303907,"current_range_meters":20800,"station_id":"ce4bhn12rcd13ifvqgpg","pricing_plan_id":"cebpf4jnsgd1na2vs0mg"},{"bike_id":"a34ddf06-f408-45e6-b36a-87dffb977914","system_id":"levelo_inurba_marseille","lat":43.272003,"lon":5.39188,"is_reserved":false,"is_disabled":false,"rental_uris":{"android":"levelo://app?vid=a34ddf06-f408-45e6-b36a-87dffb977914","ios":"levelo://app?vid=a34ddf06-f408-45e6-b36a-87dffb977914"},"vehicle_type_id":"4","last_reported":1747303907,"current_range_meters":21600,"station_id":"","pricing_plan_id":"cebpf4jnsgd1na2vs0mg"},{"bike_id":"7b8c29d2-9aa6-4e74-97af-cfc443bf2226","system_id":"levelo_inurba_marseille","lat":43.30554,"lon":5.36557,"is_reserved":false,"is_disabled":false,"rental_uris":{"android":"levelo://app?vid=7b8c29d2-9aa6-4e74-97af-cfc443bf2226","ios":"levelo://app?vid=7b8c29d2-9aa6-4e74-97af-cfc443bf2226"},"vehicle_type_id":"4","last_reported":1747303907,"current_range_meters":21600,"station_id":"ce4bgs12rcd13ifvqcag","pricing_plan_id":"cebpf4jnsgd1na2vs0mg"},{"bike_id":"f9f3d72e-85fc-4f6f-9267-8ebbd98e1a23","system_id":"levelo_inurba_marseille","lat":43.28269,"lon":5.35082,"is_reserved":false,"is_disabled":false,"rental_uris":{"android":"levelo://app?vid=f9f3d72e-85fc-4f6f-9267-8ebbd98e1a23","ios":"levelo://app?vid=f9f3d72e-85fc-4f6f-9267-8ebbd98e1a23"},"vehicle_type_id":"4","last_reported":1747303907,"current_range_meters":21600,"station_id":"ce4bhbp2rcd13ifvqerg","pricing_plan_id":"cebpf4jnsgd1na2vs0mg"},{"bike_id":"89b5cae7-2b03-41a8-9dda-4ea4d717f0e4","system_id":"levelo_inurba_marseille","lat":43.25825,"lon":5.39443,"is_reserved":false,"is_disabled":false,"rental_uris":{"android":"levelo://app?vid=89b5cae7-2b03-41a8-9dda-4ea4d717f0e4","ios":"levelo://app?vid=89b5cae7-2b03-41a8-9dda-4ea4d717f0e4"},"vehicle_type_id":"4","last_reported":1747303907,"current_range_meters":21600,"station_id":"ce4bhip2rcd13ifvqft0","pricing_plan_id":"cebpf4jnsgd1na2vs0mg"},{"bike_id":"dff8c6a1-13d1-4167-a2cc-2614f7472670","system_id":"levelo_inurba_marseille","lat":43.26222,"lon":5.40447,"is_reserved":false,"is_disabled":false,"rental_uris":{"android":"levelo://app?vid=dff8c6a1-13d1-4167-a2cc-2614f7472670","ios":"levelo://app?vid=dff8c6a1-13d1-4167-a2cc-2614f7472670"},"vehicle_type_id":"4","last_reported":1747303907,"current_range_meters":21600,"station_id":"ce4bhmh2rcd13ifvqgmg","pricing_plan_id":"cebpf4jnsgd1na2vs0mg"},{"bike_id":"d2b358fa-3af4-4c03-a2ca-467ddd00ddbc","system_id":"levelo_inurba_marseille","lat":43.32496,"lon":5.36528,"is_reserved":false,"is_disabled":false,"rental_uris":{"android":"levelo://app?vid=d2b358fa-3af4-4c03-a2ca-467ddd00ddbc","ios":"levelo://app?vid=d2b358fa-3af4-4c03-a2ca-467ddd00ddbc"},"vehicle_type_id":"4","last_reported":1747303907,"current_range_meters":21600,"station_id":"ce4bhs12rcd13ifvqhvg","pricing_plan_id":"cebpf4jnsgd1na2vs0mg"},{"bike_id":"87ffd854-f95b-4ac1-a151-b8179d95860e","system_id":"levelo_inurba_marseille","lat":43.262232,"lon":5.404516,"is_reserved":false,"is_disabled":false,"rental_uris":{"android":"levelo://app?vid=87ffd854-f95b-4ac1-a151-b8179d95860e","ios":"levelo://app?vid=87ffd854-f95b-4ac1-a151-b8179d95860e"},"vehicle_type_id":"4","last_reported":1747303907,"current_range_meters":22000,"station_id":"","pricing_plan_id":"cebpf4jnsgd1na2vs0mg"},{"bike_id":"2902e499-46d9-467e-9ff6-a65ab5b25c9e","system_id":"levelo_inurba_marseille","lat":43.29303,"lon":5.37178,"is_reserved":false,"is_disabled":false,"rental_uris":{"android":"levelo://app?vid=2902e499-46d9-467e-9ff6-a65ab5b25c9e","ios":"levelo://app?vid=2902e499-46d9-467e-9ff6-a65ab5b25c9e"},"vehicle_type_id":"4","last_reported":1747303907,"current_range_meters":22000,"station_id":"ce4bgh92rcd13ifvqb40","pricing_plan_id":"cebpf4jnsgd1na2vs0mg"},{"bike_id":"0934cb3f-1cb2-4e34-9efb-abd0c06d8272","system_id":"levelo_inurba_marseille","lat":43.30547,"lon":5.36692,"is_reserved":false,"is_disabled":false,"rental_uris":{"android":"levelo://app?vid=0934cb3f-1cb2-4e34-9efb-abd0c06d8272","ios":"levelo://app?vid=0934cb3f-1cb2-4e34-9efb-abd0c06d8272"},"vehicle_type_id":"4","last_reported":1747303907,"current_range_meters":22000,"station_id":"ce4bgrp2rcd13ifvqc9g","pricing_plan_id":"cebpf4jnsgd1na2vs0mg"},{"bike_id":"772df99d-5b98-4421-be71-30b5b382957b","system_id":"levelo_inurba_marseille","lat":43.308903,"lon":5.372022,"is_reserved":false,"is_disabled":false,"rental_uris":{"android":"levelo://app?vid=772df99d-5b98-4421-be71-30b5b382957b","ios":"levelo://app?vid=772df99d-5b98-4421-be71-30b5b382957b"},"vehicle_type_id":"4","last_reported":1747303907,"current_range_meters":22000,"station_id":"ce4bguh2rcd13ifvqckg","pricing_plan_id":"cebpf4jnsgd1na2vs0mg"},{"bike_id":"81407e15-1077-42b5-a855-1767be1f1aec","system_id":"levelo_inurba_marseille","lat":43.29868,"lon":5.39726,"is_reserved":false,"is_disabled":false,"rental_uris":{"android":"levelo://app?vid=81407e15-1077-42b5-a855-1767be1f1aec","ios":"levelo://app?vid=81407e15-1077-42b5-a855-1767be1f1aec"},"vehicle_type_id":"4","last_reported":1747303907,"current_range_meters":22000,"station_id":"ce4bh0h2rcd13ifvqd50","pricing_plan_id":"cebpf4jnsgd1na2vs0mg"},{"bike_id":"e13f1440-cf5c-4ed5-918d-b2cdb880a8f9","system_id":"levelo_inurba_marseille","lat":43.25834,"lon":5.39444,"is_reserved":false,"is_disabled":false,"rental_uris":{"android":"levelo://app?vid=e13f1440-cf5c-4ed5-918d-b2cdb880a8f9","ios":"levelo://app?vid=e13f1440-cf5c-4ed5-918d-b2cdb880a8f9"},"vehicle_type_id":"4","last_reported":1747303907,"current_range_meters":22000,"station_id":"ce4bhip2rcd13ifvqft0","pricing_plan_id":"cebpf4jnsgd1na2vs0mg"},{"bike_id":"56b281eb-56cb-460f-8b8f-cf004e7b133c","system_id":"levelo_inurba_marseille","lat":43.26198,"lon":5.40461,"is_reserved":false,"is_disabled":false,"rental_uris":{"android":"levelo://app?vid=56b281eb-56cb-460f-8b8f-cf004e7b133c","ios":"levelo://app?vid=56b281eb-56cb-460f-8b8f-cf004e7b133c"},"vehicle_type_id":"4","last_reported":1747303907,"current_range_meters":22000,"station_id":"ce4bhmh2rcd13ifvqgmg","pricing_plan_id":"cebpf4jnsgd1na2vs0mg"},{"bike_id":"e7acce4d-9309-438b-9bdd-36e79af46564","system_id":"levelo_inurba_marseille","lat":43.24177,"lon":5.39729,"is_reserved":false,"is_disabled":false,"rental_uris":{"android":"levelo://app?vid=e7acce4d-9309-438b-9bdd-36e79af46564","ios":"levelo://app?vid=e7acce4d-9309-438b-9bdd-36e79af46564"},"vehicle_type_id":"4","last_reported":1747303907,"current_range_meters":22000,"station_id":"ce4bhn12rcd13ifvqgpg","pricing_plan_id":"cebpf4jnsgd1na2vs0mg"},{"bike_id":"7a7034de-c056-4c21-bf6b-fc13ba07c413","system_id":"levelo_inurba_marseille","lat":43.2318,"lon":5.35585,"is_reserved":false,"is_disabled":false,"rental_uris":{"android":"levelo://app?vid=7a7034de-c056-4c21-bf6b-fc13ba07c413","ios":"levelo://app?vid=7a7034de-c056-4c21-bf6b-fc13ba07c413"},"vehicle_type_id":"4","last_reported":1747303907,"current_range_meters":22000,"station_id":"ce4bhu92rcd13ifvqi70","pricing_plan_id":"cebpf4jnsgd1na2vs0mg"},{"bike_id":"2c511460-bc69-4192-ae4d-20f65777a559","system_id":"levelo_inurba_marseille","lat":43.21747,"lon":5.34601,"is_reserved":false,"is_disabled":false,"rental_uris":{"android":"levelo://app?vid=2c511460-bc69-4192-ae4d-20f65777a559","ios":"levelo://app?vid=2c511460-bc69-4192-ae4d-20f65777a559"},"vehicle_type_id":"4","last_reported":1747303907,"current_range_meters":22000,"station_id":"st_cvj6r9ubvosntc0bgbag","pricing_plan_id":"cebpf4jnsgd1na2vs0mg"},{"bike_id":"222e640d-4309-4e36-a781-2dad2f594c15","system_id":"levelo_inurba_marseille","lat":43.337444,"lon":5.374475,"is_reserved":false,"is_disabled":false,"rental_uris":{"android":"levelo://app?vid=222e640d-4309-4e36-a781-2dad2f594c15","ios":"levelo://app?vid=222e640d-4309-4e36-a781-2dad2f594c15"},"vehicle_type_id":"4","last_reported":1747303907,"current_range_meters":22400,"station_id":"","pricing_plan_id":"cebpf4jnsgd1na2vs0mg"},{"bike_id":"ba1bc2b8-3f46-4624-b968-ed76766a0973","system_id":"levelo_inurba_marseille","lat":43.297932,"lon":5.381008,"is_reserved":false,"is_disabled":false,"rental_uris":{"android":"levelo://app?vid=ba1bc2b8-3f46-4624-b968-ed76766a0973","ios":"levelo://app?vid=ba1bc2b8-3f46-4624-b968-ed76766a0973"},"vehicle_type_id":"4","last_reported":1747303907,"current_range_meters":22400,"station_id":"ce4bgip2rcd13ifvqbb0","pricing_plan_id":"cebpf4jnsgd1na2vs0mg"},{"bike_id":"f63c7ce3-a5ed-4412-b8e1-cb546cfd7df4","system_id":"levelo_inurba_marseille","lat":43.29682,"lon":5.37269,"is_reserved":false,"is_disabled":false,"rental_uris":{"android":"levelo://app?vid=f63c7ce3-a5ed-4412-b8e1-cb546cfd7df4","ios":"levelo://app?vid=f63c7ce3-a5ed-4412-b8e1-cb546cfd7df4"},"vehicle_type_id":"4","last_reported":1747303907,"current_range_meters":22400,"station_id":"ce4bgk12rcd13ifvqbj0","pricing_plan_id":"cebpf4jnsgd1na2vs0mg"},{"bike_id":"81a2b9d2-e55e-4cbc-ad41-936b4009b82a","system_id":"levelo_inurba_marseille","lat":43.298478,"lon":5.36287,"is_reserved":false,"is_disabled":false,"rental_uris":{"android":"levelo://app?vid=81a2b9d2-e55e-4cbc-ad41-936b4009b82a","ios":"levelo://app?vid=81a2b9d2-e55e-4cbc-ad41-936b4009b82a"},"vehicle_type_id":"4","last_reported":1747303907,"current_range_meters":22400,"station_id":"ce4bgpp2rcd13ifvqc3g","pricing_plan_id":"cebpf4jnsgd1na2vs0mg"},{"bike_id":"c7471968-c94c-405b-a9b2-3e7373cc064f","system_id":"levelo_inurba_marseille","lat":43.28462,"lon":5.38434,"is_reserved":false,"is_disabled":false,"rental_uris":{"android":"levelo://app?vid=c7471968-c94c-405b-a9b2-3e7373cc064f","ios":"levelo://app?vid=c7471968-c94c-405b-a9b2-3e7373cc064f"},"vehicle_type_id":"4","last_reported":1747303907,"current_range_meters":22400,"station_id":"ce4bh512rcd13ifvqe3g","pricing_plan_id":"cebpf4jnsgd1na2vs0mg"},{"bike_id":"51e4e34b-413f-472a-9d21-c2c414963e3e","system_id":"levelo_inurba_marseille","lat":43.23969,"lon":5.3663,"is_reserved":false,"is_disabled":false,"rental_uris":{"android":"levelo://app?vid=51e4e34b-413f-472a-9d21-c2c414963e3e","ios":"levelo://app?vid=51e4e34b-413f-472a-9d21-c2c414963e3e"},"vehicle_type_id":"4","last_reported":1747303907,"current_range_meters":22400,"station_id":"ce4bhi12rcd13ifvqfp0","pricing_plan_id":"cebpf4jnsgd1na2vs0mg"},{"bike_id":"b68c6ff7-1f1c-4f7d-9041-9d51ea43e3d5","system_id":"levelo_inurba_marseille","lat":43.32484,"lon":5.36584,"is_reserved":false,"is_disabled":false,"rental_uris":{"android":"levelo://app?vid=b68c6ff7-1f1c-4f7d-9041-9d51ea43e3d5","ios":"levelo://app?vid=b68c6ff7-1f1c-4f7d-9041-9d51ea43e3d5"},"vehicle_type_id":"4","last_reported":1747303907,"current_range_meters":22400,"station_id":"ce4bhs12rcd13ifvqhvg","pricing_plan_id":"cebpf4jnsgd1na2vs0mg"},{"bike_id":"7bfe3070-8935-4c63-9e5f-e953d5dfb638","system_id":"levelo_inurba_marseille","lat":43.31249,"lon":5.36889,"is_reserved":false,"is_disabled":false,"rental_uris":{"android":"levelo://app?vid=7bfe3070-8935-4c63-9e5f-e953d5dfb638","ios":"levelo://app?vid=7bfe3070-8935-4c63-9e5f-e953d5dfb638"},"vehicle_type_id":"4","last_reported":1747303907,"current_range_meters":22800,"station_id":"ce4bgl92rcd13ifvqbq0","pricing_plan_id":"cebpf4jnsgd1na2vs0mg"},{"bike_id":"30739857-c22e-4292-938e-e25f1ce44afb","system_id":"levelo_inurba_marseille","lat":43.30924,"lon":5.36849,"is_reserved":false,"is_disabled":false,"rental_uris":{"android":"levelo://app?vid=30739857-c22e-4292-938e-e25f1ce44afb","ios":"levelo://app?vid=30739857-c22e-4292-938e-e25f1ce44afb"},"vehicle_type_id":"4","last_reported":1747303907,"current_range_meters":22800,"station_id":"ce4bgn92rcd13ifvqbvg","pricing_plan_id":"cebpf4jnsgd1na2vs0mg"},{"bike_id":"d4074802-7c83-42b1-95a9-a3124905a656","system_id":"levelo_inurba_marseille","lat":43.33791,"lon":5.37428,"is_reserved":false,"is_disabled":false,"rental_uris":{"android":"levelo://app?vid=d4074802-7c83-42b1-95a9-a3124905a656","ios":"levelo://app?vid=d4074802-7c83-42b1-95a9-a3124905a656"},"vehicle_type_id":"4","last_reported":1747303907,"current_range_meters":23200,"station_id":"","pricing_plan_id":"cebpf4jnsgd1na2vs0mg"},{"bike_id":"ee28c772-d18b-470d-b465-6f7795d56d71","system_id":"levelo_inurba_marseille","lat":43.29836,"lon":5.36267,"is_reserved":false,"is_disabled":false,"rental_uris":{"android":"levelo://app?vid=ee28c772-d18b-470d-b465-6f7795d56d71","ios":"levelo://app?vid=ee28c772-d18b-470d-b465-6f7795d56d71"},"vehicle_type_id":"4","last_reported":1747303907,"current_range_meters":23200,"station_id":"ce4bgpp2rcd13ifvqc3g","pricing_plan_id":"cebpf4jnsgd1na2vs0mg"},{"bike_id":"29f31b6e-00bf-43cf-b902-125abe593de5","system_id":"levelo_inurba_marseille","lat":43.30526,"lon":5.36686,"is_reserved":false,"is_disabled":false,"rental_uris":{"android":"levelo://app?vid=29f31b6e-00bf-43cf-b902-125abe593de5","ios":"levelo://app?vid=29f31b6e-00bf-43cf-b902-125abe593de5"},"vehicle_type_id":"4","last_reported":1747303907,"current_range_meters":23200,"station_id":"ce4bgrp2rcd13ifvqc9g","pricing_plan_id":"cebpf4jnsgd1na2vs0mg"},{"bike_id":"602851f4-bbed-435a-b60e-0d62ddc6dc54","system_id":"levelo_inurba_marseille","lat":43.30537,"lon":5.36689,"is_reserved":false,"is_disabled":false,"rental_uris":{"android":"levelo://app?vid=602851f4-bbed-435a-b60e-0d62ddc6dc54","ios":"levelo://app?vid=602851f4-bbed-435a-b60e-0d62ddc6dc54"},"vehicle_type_id":"4","last_reported":1747303907,"current_range_meters":23200,"station_id":"ce4bgrp2rcd13ifvqc9g","pricing_plan_id":"cebpf4jnsgd1na2vs0mg"},{"bike_id":"54dc8f7d-a581-4fb0-88b7-9e414e29044f","system_id":"levelo_inurba_marseille","lat":43.2827,"lon":5.3507,"is_reserved":false,"is_disabled":false,"rental_uris":{"android":"levelo://app?vid=54dc8f7d-a581-4fb0-88b7-9e414e29044f","ios":"levelo://app?vid=54dc8f7d-a581-4fb0-88b7-9e414e29044f"},"vehicle_type_id":"4","last_reported":1747303907,"current_range_meters":23200,"station_id":"ce4bhbp2rcd13ifvqerg","pricing_plan_id":"cebpf4jnsgd1na2vs0mg"},{"bike_id":"75142846-3d1a-4222-9dd7-54b526f23523","system_id":"levelo_inurba_marseille","lat":43.28615,"lon":5.35106,"is_reserved":false,"is_disabled":false,"rental_uris":{"android":"levelo://app?vid=75142846-3d1a-4222-9dd7-54b526f23523","ios":"levelo://app?vid=75142846-3d1a-4222-9dd7-54b526f23523"},"vehicle_type_id":"4","last_reported":1747303907,"current_range_meters":23200,"station_id":"ce4bhch2rcd13ifvqeug","pricing_plan_id":"cebpf4jnsgd1na2vs0mg"},{"bike_id":"6cd1bb71-8471-4909-8bae-4df09bab1535","system_id":"levelo_inurba_marseille","lat":43.27837,"lon":5.3921,"is_reserved":false,"is_disabled":false,"rental_uris":{"android":"levelo://app?vid=6cd1bb71-8471-4909-8bae-4df09bab1535","ios":"levelo://app?vid=6cd1bb71-8471-4909-8bae-4df09bab1535"},"vehicle_type_id":"4","last_reported":1747303907,"current_range_meters":23200,"station_id":"ce4bhjp2rcd13ifvqga0","pricing_plan_id":"cebpf4jnsgd1na2vs0mg"},{"bike_id":"97569b03-450c-4eca-8164-213662a967eb","system_id":"levelo_inurba_marseille","lat":43.27996,"lon":5.40024,"is_reserved":false,"is_disabled":false,"rental_uris":{"android":"levelo://app?vid=97569b03-450c-4eca-8164-213662a967eb","ios":"levelo://app?vid=97569b03-450c-4eca-8164-213662a967eb"},"vehicle_type_id":"4","last_reported":1747303907,"current_range_meters":23200,"station_id":"ce4bho92rcd13ifvqh4g","pricing_plan_id":"cebpf4jnsgd1na2vs0mg"},{"bike_id":"64bd598c-dd43-4a46-9d6c-5633d6873e63","system_id":"levelo_inurba_marseille","lat":43.30896,"lon":5.36867,"is_reserved":false,"is_disabled":false,"rental_uris":{"android":"levelo://app?vid=64bd598c-dd43-4a46-9d6c-5633d6873e63","ios":"levelo://app?vid=64bd598c-dd43-4a46-9d6c-5633d6873e63"},"vehicle_type_id":"4","last_reported":1747303907,"current_range_meters":24000,"station_id":"ce4bgn92rcd13ifvqbvg","pricing_plan_id":"cebpf4jnsgd1na2vs0mg"},{"bike_id":"e4afc50c-68f6-4a60-945a-8b86305650f5","system_id":"levelo_inurba_marseille","lat":43.29629,"lon":5.37164,"is_reserved":false,"is_disabled":false,"rental_uris":{"android":"levelo://app?vid=e4afc50c-68f6-4a60-945a-8b86305650f5","ios":"levelo://app?vid=e4afc50c-68f6-4a60-945a-8b86305650f5"},"vehicle_type_id":"4","last_reported":1747303907,"current_range_meters":24000,"station_id":"ce4bgnh2rcd13ifvqc0g","pricing_plan_id":"cebpf4jnsgd1na2vs0mg"},{"bike_id":"16d70f81-0b13-4336-a999-3cb842b32f1a","system_id":"levelo_inurba_marseille","lat":43.30547,"lon":5.36569,"is_reserved":false,"is_disabled":false,"rental_uris":{"android":"levelo://app?vid=16d70f81-0b13-4336-a999-3cb842b32f1a","ios":"levelo://app?vid=16d70f81-0b13-4336-a999-3cb842b32f1a"},"vehicle_type_id":"4","last_reported":1747303907,"current_range_meters":24000,"station_id":"ce4bgs12rcd13ifvqcag","pricing_plan_id":"cebpf4jnsgd1na2vs0mg"},{"bike_id":"8e2e4da3-9d32-4ac1-9917-7bb32403fc65","system_id":"levelo_inurba_marseille","lat":43.26556,"lon":5.37286,"is_reserved":false,"is_disabled":false,"rental_uris":{"android":"levelo://app?vid=8e2e4da3-9d32-4ac1-9917-7bb32403fc65","ios":"levelo://app?vid=8e2e4da3-9d32-4ac1-9917-7bb32403fc65"},"vehicle_type_id":"4","last_reported":1747303907,"current_range_meters":24000,"station_id":"ce4bhg12rcd13ifvqf70","pricing_plan_id":"cebpf4jnsgd1na2vs0mg"},{"bike_id":"1d8ee952-3d0a-4ed4-8f64-15d2b8eca7e5","system_id":"levelo_inurba_marseille","lat":43.23955,"lon":5.36631,"is_reserved":false,"is_disabled":false,"rental_uris":{"android":"levelo://app?vid=1d8ee952-3d0a-4ed4-8f64-15d2b8eca7e5","ios":"levelo://app?vid=1d8ee952-3d0a-4ed4-8f64-15d2b8eca7e5"},"vehicle_type_id":"4","last_reported":1747303907,"current_range_meters":24000,"station_id":"ce4bhi12rcd13ifvqfp0","pricing_plan_id":"cebpf4jnsgd1na2vs0mg"},{"bike_id":"16c04f0e-1469-4484-a2bf-6839c25190d2","system_id":"levelo_inurba_marseille","lat":43.2315,"lon":5.43719,"is_reserved":false,"is_disabled":false,"rental_uris":{"android":"levelo://app?vid=16c04f0e-1469-4484-a2bf-6839c25190d2","ios":"levelo://app?vid=16c04f0e-1469-4484-a2bf-6839c25190d2"},"vehicle_type_id":"4","last_reported":1747303907,"current_range_meters":24000,"station_id":"ce4bhmp2rcd13ifvqgog","pricing_plan_id":"cebpf4jnsgd1na2vs0mg"},{"bike_id":"857ae28a-aa1b-472c-81f4-a021793ae76f","system_id":"levelo_inurba_marseille","lat":43.286119,"lon":5.37064,"is_reserved":false,"is_disabled":false,"rental_uris":{"android":"levelo://app?vid=857ae28a-aa1b-472c-81f4-a021793ae76f","ios":"levelo://app?vid=857ae28a-aa1b-472c-81f4-a021793ae76f"},"vehicle_type_id":"4","last_reported":1747303907,"current_range_meters":24000,"station_id":"ce4bht12rcd13ifvqi60","pricing_plan_id":"cebpf4jnsgd1na2vs0mg"},{"bike_id":"a919f79a-913b-4e9d-a302-8bdba33f8115","system_id":"levelo_inurba_marseille","lat":43.3077,"lon":5.37754,"is_reserved":false,"is_disabled":false,"rental_uris":{"android":"levelo://app?vid=a919f79a-913b-4e9d-a302-8bdba33f8115","ios":"levelo://app?vid=a919f79a-913b-4e9d-a302-8bdba33f8115"},"vehicle_type_id":"4","last_reported":1747303907,"current_range_meters":24400,"station_id":"","pricing_plan_id":"cebpf4jnsgd1na2vs0mg"},{"bike_id":"e2aa09dd-847e-4cbb-92d3-bd1a2d70d0b1","system_id":"levelo_inurba_marseille","lat":43.30914,"lon":5.3683,"is_reserved":false,"is_disabled":false,"rental_uris":{"android":"levelo://app?vid=e2aa09dd-847e-4cbb-92d3-bd1a2d70d0b1","ios":"levelo://app?vid=e2aa09dd-847e-4cbb-92d3-bd1a2d70d0b1"},"vehicle_type_id":"4","last_reported":1747303907,"current_range_meters":24400,"station_id":"ce4bgn92rcd13ifvqbvg","pricing_plan_id":"cebpf4jnsgd1na2vs0mg"},{"bike_id":"84cd0203-db28-4442-aa53-e940f2408e14","system_id":"levelo_inurba_marseille","lat":43.3061,"lon":5.37237,"is_reserved":false,"is_disabled":false,"rental_uris":{"android":"levelo://app?vid=84cd0203-db28-4442-aa53-e940f2408e14","ios":"levelo://app?vid=84cd0203-db28-4442-aa53-e940f2408e14"},"vehicle_type_id":"4","last_reported":1747303907,"current_range_meters":24400,"station_id":"ce4bgqh2rcd13ifvqc4g","pricing_plan_id":"cebpf4jnsgd1na2vs0mg"},{"bike_id":"bbf80e58-9837-4022-9a1a-2ee7ee39f997","system_id":"levelo_inurba_marseille","lat":43.30789,"lon":5.37644,"is_reserved":false,"is_disabled":false,"rental_uris":{"android":"levelo://app?vid=bbf80e58-9837-4022-9a1a-2ee7ee39f997","ios":"levelo://app?vid=bbf80e58-9837-4022-9a1a-2ee7ee39f997"},"vehicle_type_id":"4","last_reported":1747303907,"current_range_meters":24400,"station_id":"ce4bgv92rcd13ifvqcq0","pricing_plan_id":"cebpf4jnsgd1na2vs0mg"},{"bike_id":"f6172157-75d1-4943-aac0-52313b3ebebc","system_id":"levelo_inurba_marseille","lat":43.26192,"lon":5.37452,"is_reserved":false,"is_disabled":false,"rental_uris":{"android":"levelo://app?vid=f6172157-75d1-4943-aac0-52313b3ebebc","ios":"levelo://app?vid=f6172157-75d1-4943-aac0-52313b3ebebc"},"vehicle_type_id":"4","last_reported":1747303907,"current_range_meters":24400,"station_id":"ce4bhgp2rcd13ifvqfc0","pricing_plan_id":"cebpf4jnsgd1na2vs0mg"},{"bike_id":"b7935cb3-9ee8-4e9e-9a50-278a88cc5c39","system_id":"levelo_inurba_marseille","lat":43.255,"lon":5.37645,"is_reserved":false,"is_disabled":false,"rental_uris":{"android":"levelo://app?vid=b7935cb3-9ee8-4e9e-9a50-278a88cc5c39","ios":"levelo://app?vid=b7935cb3-9ee8-4e9e-9a50-278a88cc5c39"},"vehicle_type_id":"4","last_reported":1747303907,"current_range_meters":24400,"station_id":"ce4bhh12rcd13ifvqff0","pricing_plan_id":"cebpf4jnsgd1na2vs0mg"},{"bike_id":"ac729dfd-ec6d-49be-95ad-287b503b8a77","system_id":"levelo_inurba_marseille","lat":43.336002,"lon":5.410102,"is_reserved":false,"is_disabled":false,"rental_uris":{"android":"levelo://app?vid=ac729dfd-ec6d-49be-95ad-287b503b8a77","ios":"levelo://app?vid=ac729dfd-ec6d-49be-95ad-287b503b8a77"},"vehicle_type_id":"4","last_reported":1747303907,"current_range_meters":24400,"station_id":"ce4bhqh2rcd13ifvqhmg","pricing_plan_id":"cebpf4jnsgd1na2vs0mg"},{"bike_id":"6f448576-cb7a-467b-9582-3c3c618da3ac","system_id":"levelo_inurba_marseille","lat":43.241648,"lon":5.363975,"is_reserved":false,"is_disabled":false,"rental_uris":{"android":"levelo://app?vid=6f448576-cb7a-467b-9582-3c3c618da3ac","ios":"levelo://app?vid=6f448576-cb7a-467b-9582-3c3c618da3ac"},"vehicle_type_id":"4","last_reported":1747303907,"current_range_meters":24400,"station_id":"cpo36qri1sfpv3e86is0","pricing_plan_id":"cebpf4jnsgd1na2vs0mg"},{"bike_id":"e794eff9-9406-4b23-a55f-232f1c9723f5","system_id":"levelo_inurba_marseille","lat":43.30148,"lon":5.39856,"is_reserved":false,"is_disabled":false,"rental_uris":{"android":"levelo://app?vid=e794eff9-9406-4b23-a55f-232f1c9723f5","ios":"levelo://app?vid=e794eff9-9406-4b23-a55f-232f1c9723f5"},"vehicle_type_id":"4","last_reported":1747303907,"current_range_meters":24800,"station_id":"ce4bh0h2rcd13ifvqd40","pricing_plan_id":"cebpf4jnsgd1na2vs0mg"},{"bike_id":"8b28e8e2-6f1e-4c6a-898a-31c5b20cdfae","system_id":"levelo_inurba_marseille","lat":43.28621,"lon":5.35113,"is_reserved":false,"is_disabled":false,"rental_uris":{"android":"levelo://app?vid=8b28e8e2-6f1e-4c6a-898a-31c5b20cdfae","ios":"levelo://app?vid=8b28e8e2-6f1e-4c6a-898a-31c5b20cdfae"},"vehicle_type_id":"4","last_reported":1747303907,"current_range_meters":24800,"station_id":"ce4bhch2rcd13ifvqeug","pricing_plan_id":"cebpf4jnsgd1na2vs0mg"},{"bike_id":"d6c41549-24a9-472e-a394-d586d6bbbe08","system_id":"levelo_inurba_marseille","lat":43.26557,"lon":5.37286,"is_reserved":false,"is_disabled":false,"rental_uris":{"android":"levelo://app?vid=d6c41549-24a9-472e-a394-d586d6bbbe08","ios":"levelo://app?vid=d6c41549-24a9-472e-a394-d586d6bbbe08"},"vehicle_type_id":"4","last_reported":1747303907,"current_range_meters":24800,"station_id":"ce4bhg12rcd13ifvqf70","pricing_plan_id":"cebpf4jnsgd1na2vs0mg"},{"bike_id":"125a112c-7ddb-456b-b539-e595758e1496","system_id":"levelo_inurba_marseille","lat":43.27978,"lon":5.38753,"is_reserved":false,"is_disabled":false,"rental_uris":{"android":"levelo://app?vid=125a112c-7ddb-456b-b539-e595758e1496","ios":"levelo://app?vid=125a112c-7ddb-456b-b539-e595758e1496"},"vehicle_type_id":"4","last_reported":1747303907,"current_range_meters":24800,"station_id":"ce4bhg12rcd13ifvqf80","pricing_plan_id":"cebpf4jnsgd1na2vs0mg"},{"bike_id":"600ba6c1-7560-45cb-95ed-24074707e296","system_id":"levelo_inurba_marseille","lat":43.2396,"lon":5.36646,"is_reserved":false,"is_disabled":false,"rental_uris":{"android":"levelo://app?vid=600ba6c1-7560-45cb-95ed-24074707e296","ios":"levelo://app?vid=600ba6c1-7560-45cb-95ed-24074707e296"},"vehicle_type_id":"4","last_reported":1747303907,"current_range_meters":24800,"station_id":"ce4bhi12rcd13ifvqfp0","pricing_plan_id":"cebpf4jnsgd1na2vs0mg"},{"bike_id":"01f4bb24-b0c7-430e-8712-02c22eda0808","system_id":"levelo_inurba_marseille","lat":43.32527,"lon":5.41459,"is_reserved":false,"is_disabled":false,"rental_uris":{"android":"levelo://app?vid=01f4bb24-b0c7-430e-8712-02c22eda0808","ios":"levelo://app?vid=01f4bb24-b0c7-430e-8712-02c22eda0808"},"vehicle_type_id":"4","last_reported":1747303907,"current_range_meters":24800,"station_id":"ce4bhq12rcd13ifvqhhg","pricing_plan_id":"cebpf4jnsgd1na2vs0mg"},{"bike_id":"e7307312-b719-4932-9ccd-5bb1b4e08543","system_id":"levelo_inurba_marseille","lat":43.32289,"lon":5.38273,"is_reserved":false,"is_disabled":false,"rental_uris":{"android":"levelo://app?vid=e7307312-b719-4932-9ccd-5bb1b4e08543","ios":"levelo://app?vid=e7307312-b719-4932-9ccd-5bb1b4e08543"},"vehicle_type_id":"4","last_reported":1747303907,"current_range_meters":24800,"station_id":"ce4bhr12rcd13ifvqhqg","pricing_plan_id":"cebpf4jnsgd1na2vs0mg"},{"bike_id":"15953fc0-ff69-48c6-9789-f52f907c8bbb","system_id":"levelo_inurba_marseille","lat":43.26805,"lon":5.402625,"is_reserved":false,"is_disabled":false,"rental_uris":{"android":"levelo://app?vid=15953fc0-ff69-48c6-9789-f52f907c8bbb","ios":"levelo://app?vid=15953fc0-ff69-48c6-9789-f52f907c8bbb"},"vehicle_type_id":"4","last_reported":1747303907,"current_range_meters":24800,"station_id":"ce501612rcd8frsf0b60","pricing_plan_id":"cebpf4jnsgd1na2vs0mg"},{"bike_id":"1455b7f8-b43b-4d8f-9b74-76748cdd1e89","system_id":"levelo_inurba_marseille","lat":43.22495,"lon":5.34782,"is_reserved":false,"is_disabled":false,"rental_uris":{"android":"levelo://app?vid=1455b7f8-b43b-4d8f-9b74-76748cdd1e89","ios":"levelo://app?vid=1455b7f8-b43b-4d8f-9b74-76748cdd1e89"},"vehicle_type_id":"4","last_reported":1747303907,"current_range_meters":24800,"station_id":"st_cvj5dfep6f1abm77gieg","pricing_plan_id":"cebpf4jnsgd1na2vs0mg"},{"bike_id":"ec65d316-bce9-4821-953e-7a4b3958d9e3","system_id":"levelo_inurba_marseille","lat":43.29578,"lon":5.37531,"is_reserved":false,"is_disabled":false,"rental_uris":{"android":"levelo://app?vid=ec65d316-bce9-4821-953e-7a4b3958d9e3","ios":"levelo://app?vid=ec65d316-bce9-4821-953e-7a4b3958d9e3"},"vehicle_type_id":"4","last_reported":1747303907,"current_range_meters":25200,"station_id":"ce4bgh92rcd13ifvqb50","pricing_plan_id":"cebpf4jnsgd1na2vs0mg"},{"bike_id":"5358c8ca-8a4d-4f2a-ba91-bcd000fca19b","system_id":"levelo_inurba_marseille","lat":43.29596,"lon":5.381,"is_reserved":false,"is_disabled":false,"rental_uris":{"android":"levelo://app?vid=5358c8ca-8a4d-4f2a-ba91-bcd000fca19b","ios":"levelo://app?vid=5358c8ca-8a4d-4f2a-ba91-bcd000fca19b"},"vehicle_type_id":"4","last_reported":1747303907,"current_range_meters":25200,"station_id":"ce4bgl12rcd13ifvqbo0","pricing_plan_id":"cebpf4jnsgd1na2vs0mg"},{"bike_id":"f783595d-225a-4807-bdf7-f6b22b15674f","system_id":"levelo_inurba_marseille","lat":43.31221,"lon":5.368413,"is_reserved":false,"is_disabled":false,"rental_uris":{"android":"levelo://app?vid=f783595d-225a-4807-bdf7-f6b22b15674f","ios":"levelo://app?vid=f783595d-225a-4807-bdf7-f6b22b15674f"},"vehicle_type_id":"4","last_reported":1747303907,"current_range_meters":25200,"station_id":"ce4bgl92rcd13ifvqbq0","pricing_plan_id":"cebpf4jnsgd1na2vs0mg"},{"bike_id":"df6b5553-0b33-465c-a2e3-1751817014e6","system_id":"levelo_inurba_marseille","lat":43.30904,"lon":5.36862,"is_reserved":false,"is_disabled":false,"rental_uris":{"android":"levelo://app?vid=df6b5553-0b33-465c-a2e3-1751817014e6","ios":"levelo://app?vid=df6b5553-0b33-465c-a2e3-1751817014e6"},"vehicle_type_id":"4","last_reported":1747303907,"current_range_meters":25200,"station_id":"ce4bgn92rcd13ifvqbvg","pricing_plan_id":"cebpf4jnsgd1na2vs0mg"},{"bike_id":"5ba1f236-3fe3-431d-8e02-d6e0d7c2c7a7","system_id":"levelo_inurba_marseille","lat":43.314797,"lon":5.373009,"is_reserved":false,"is_disabled":false,"rental_uris":{"android":"levelo://app?vid=5ba1f236-3fe3-431d-8e02-d6e0d7c2c7a7","ios":"levelo://app?vid=5ba1f236-3fe3-431d-8e02-d6e0d7c2c7a7"},"vehicle_type_id":"4","last_reported":1747303907,"current_range_meters":25200,"station_id":"ce4bgt12rcd13ifvqcd0","pricing_plan_id":"cebpf4jnsgd1na2vs0mg"},{"bike_id":"e4736139-c70d-4ba9-927e-612bff64cee4","system_id":"levelo_inurba_marseille","lat":43.314857,"lon":5.37282,"is_reserved":false,"is_disabled":false,"rental_uris":{"android":"levelo://app?vid=e4736139-c70d-4ba9-927e-612bff64cee4","ios":"levelo://app?vid=e4736139-c70d-4ba9-927e-612bff64cee4"},"vehicle_type_id":"4","last_reported":1747303907,"current_range_meters":25200,"station_id":"ce4bgt12rcd13ifvqcd0","pricing_plan_id":"cebpf4jnsgd1na2vs0mg"},{"bike_id":"e359197f-c7bb-4384-b07c-613f92509173","system_id":"levelo_inurba_marseille","lat":43.29203,"lon":5.35822,"is_reserved":false,"is_disabled":false,"rental_uris":{"android":"levelo://app?vid=e359197f-c7bb-4384-b07c-613f92509173","ios":"levelo://app?vid=e359197f-c7bb-4384-b07c-613f92509173"},"vehicle_type_id":"4","last_reported":1747303907,"current_range_meters":25200,"station_id":"ce4bhb12rcd13ifvqel0","pricing_plan_id":"cebpf4jnsgd1na2vs0mg"},{"bike_id":"6c971ff9-c3a0-48da-9f6b-6ee1d7185c15","system_id":"levelo_inurba_marseille","lat":43.26681,"lon":5.38275,"is_reserved":false,"is_disabled":false,"rental_uris":{"android":"levelo://app?vid=6c971ff9-c3a0-48da-9f6b-6ee1d7185c15","ios":"levelo://app?vid=6c971ff9-c3a0-48da-9f6b-6ee1d7185c15"},"vehicle_type_id":"4","last_reported":1747303907,"current_range_meters":25200,"station_id":"ce4bhg92rcd13ifvqf90","pricing_plan_id":"cebpf4jnsgd1na2vs0mg"},{"bike_id":"1e02bf56-9ddb-4cb5-959e-4aa28907e12f","system_id":"levelo_inurba_marseille","lat":43.2439,"lon":5.37066,"is_reserved":false,"is_disabled":false,"rental_uris":{"android":"levelo://app?vid=1e02bf56-9ddb-4cb5-959e-4aa28907e12f","ios":"levelo://app?vid=1e02bf56-9ddb-4cb5-959e-4aa28907e12f"},"vehicle_type_id":"4","last_reported":1747303907,"current_range_meters":25200,"station_id":"ce4bhhh2rcd13ifvqfk0","pricing_plan_id":"cebpf4jnsgd1na2vs0mg"},{"bike_id":"c8b5b4ef-2f15-48ae-8cc2-3d50428d91ef","system_id":"levelo_inurba_marseille","lat":43.23966,"lon":5.36634,"is_reserved":false,"is_disabled":false,"rental_uris":{"android":"levelo://app?vid=c8b5b4ef-2f15-48ae-8cc2-3d50428d91ef","ios":"levelo://app?vid=c8b5b4ef-2f15-48ae-8cc2-3d50428d91ef"},"vehicle_type_id":"4","last_reported":1747303907,"current_range_meters":25600,"station_id":"","pricing_plan_id":"cebpf4jnsgd1na2vs0mg"},{"bike_id":"3fc6b9c5-c0df-4e56-9da2-d7ad7d996318","system_id":"levelo_inurba_marseille","lat":43.312269,"lon":5.368551,"is_reserved":false,"is_disabled":false,"rental_uris":{"android":"levelo://app?vid=3fc6b9c5-c0df-4e56-9da2-d7ad7d996318","ios":"levelo://app?vid=3fc6b9c5-c0df-4e56-9da2-d7ad7d996318"},"vehicle_type_id":"4","last_reported":1747303907,"current_range_meters":25600,"station_id":"ce4bgl92rcd13ifvqbq0","pricing_plan_id":"cebpf4jnsgd1na2vs0mg"},{"bike_id":"984dc333-6e04-41bd-9c86-55b78705bd32","system_id":"levelo_inurba_marseille","lat":43.29704,"lon":5.36613,"is_reserved":false,"is_disabled":false,"rental_uris":{"android":"levelo://app?vid=984dc333-6e04-41bd-9c86-55b78705bd32","ios":"levelo://app?vid=984dc333-6e04-41bd-9c86-55b78705bd32"},"vehicle_type_id":"4","last_reported":1747303907,"current_range_meters":25600,"station_id":"ce4bgn12rcd13ifvqbt0","pricing_plan_id":"cebpf4jnsgd1na2vs0mg"},{"bike_id":"fba90038-cbe8-412c-ad2d-053d55c477c2","system_id":"levelo_inurba_marseille","lat":43.30527,"lon":5.36529,"is_reserved":false,"is_disabled":false,"rental_uris":{"android":"levelo://app?vid=fba90038-cbe8-412c-ad2d-053d55c477c2","ios":"levelo://app?vid=fba90038-cbe8-412c-ad2d-053d55c477c2"},"vehicle_type_id":"4","last_reported":1747303907,"current_range_meters":25600,"station_id":"ce4bgs12rcd13ifvqcag","pricing_plan_id":"cebpf4jnsgd1na2vs0mg"},{"bike_id":"fe95910c-4b7b-449a-bf53-1b3a1b52fcf7","system_id":"levelo_inurba_marseille","lat":43.29197,"lon":5.35802,"is_reserved":false,"is_disabled":false,"rental_uris":{"android":"levelo://app?vid=fe95910c-4b7b-449a-bf53-1b3a1b52fcf7","ios":"levelo://app?vid=fe95910c-4b7b-449a-bf53-1b3a1b52fcf7"},"vehicle_type_id":"4","last_reported":1747303907,"current_range_meters":25600,"station_id":"ce4bhb12rcd13ifvqel0","pricing_plan_id":"cebpf4jnsgd1na2vs0mg"},{"bike_id":"1b677375-e6f0-4f3b-9445-6e9434193a74","system_id":"levelo_inurba_marseille","lat":43.25494,"lon":5.37651,"is_reserved":false,"is_disabled":false,"rental_uris":{"android":"levelo://app?vid=1b677375-e6f0-4f3b-9445-6e9434193a74","ios":"levelo://app?vid=1b677375-e6f0-4f3b-9445-6e9434193a74"},"vehicle_type_id":"4","last_reported":1747303907,"current_range_meters":25600,"station_id":"ce4bhh12rcd13ifvqff0","pricing_plan_id":"cebpf4jnsgd1na2vs0mg"},{"bike_id":"28ba858e-9907-48ee-9c14-1241d4ce9861","system_id":"levelo_inurba_marseille","lat":43.27939,"lon":5.41048,"is_reserved":false,"is_disabled":false,"rental_uris":{"android":"levelo://app?vid=28ba858e-9907-48ee-9c14-1241d4ce9861","ios":"levelo://app?vid=28ba858e-9907-48ee-9c14-1241d4ce9861"},"vehicle_type_id":"4","last_reported":1747303907,"current_range_meters":25600,"station_id":"ce4bhnp2rcd13ifvqh0g","pricing_plan_id":"cebpf4jnsgd1na2vs0mg"},