{"last_updated":1761668032,"ttl":60,"version":"2.2","data":{"bikes":[{"bike_id":"a588a3f4-71ad-4a9e-89bb-364d0e77117c","system_id":"levelo_inurba_marseille","lat":43.288637,"lon":5.393312,"is_reserved":false,"is_disabled":false,"rental_uris":{"android":"levelo://app?vid=a588a3f4-71ad-4a9e-89bb-364d0e77117c","ios":"levelo://app?vid=a588a3f4-71ad-4a9e-89bb-364d0e77117c"},"vehicle_type_id":"4","last_reported":1761668032,"current_range_meters":2800,"station_id":"ce4bh2p2rcd13ifvqdi0","pricing_plan_id":"cebpf4jnsgd1na2vs0mg"},{"bike_id":"fe382773-a365-4949-92eb-b7e751e51bef","system_id":"levelo_inurba_marseille","lat":43.28409,"lon":5.37512,"is_reserved":false,"is_disabled":true,"rental_uris":{"android":"levelo://app?vid=fe382773-a365-4949-92eb-b7e751e51bef","ios":"levelo://app?vid=fe382773-a365-4949-92eb-b7e751e51bef"},"vehicle_type_id":"4","last_reported":1761668032,"current_range_meters":2800,"station_id":"ce4bh412rcd13ifvqds0","pricing_plan_id":"cebpf4jnsgd1na2vs0mg"},{"bike_id":"58c3053d-6926-4a50-98c5-e45482f25cc6","system_id":"levelo_inurba_marseille","lat":43.24075,"lon":5.37765,"is_reserved":false,"is_disabled":false,"rental_uris":{"android":"levelo://app?vid=58c3053d-6926-4a50-98c5-e45482f25cc6","ios":"levelo://app?vid=58c3053d-6926-4a50-98c5-e45482f25cc6"},"vehicle_type_id":"4","last_reported":1761668032,"current_range_meters":2800,"station_id":"ce4bhnp2rcd13ifvqgvg","pricing_plan_id":"cebpf4jnsgd1na2vs0mg"},{"bike_id":"ff75a1d7-bfbb-4403-aa3f-ee4c884eb6af","system_id":"levelo_inurba_marseille","lat":43.24808,"lon":5.37457,"is_reserved":false,"is_disabled":false,"rental_uris":{"android":"levelo://app?vid=ff75a1d7-bfbb-4403-aa3f-ee4c884eb6af","ios":"levelo://app?vid=ff75a1d7-bfbb-4403-aa3f-ee4c884eb6af"},"vehicle_type_id":"4","last_reported":1761668032,"current_range_meters":2800,"station_id":"ce4bhgh2rcd13ifvqfb0","pricing_plan_id":"cebpf4jnsgd1na2vs0mg"},{"bike_id":"2f1de0d7-7659-4982-97c7-88d42102c0fe","system_id":"levelo_inurba_marseille","lat":43.28832,"lon":5.35274,"is_reserved":false,"is_disabled":false,"rental_uris":{"android":"levelo://app?vid=2f1de0d7-7659-4982-97c7-88d42102c0fe","ios":"levelo://app?vid=2f1de0d7-7659-4982-97c7-88d42102c0fe"},"vehicle_type_id":"4","last_reported":1761668032,"current_range_meters":2800,"station_id":"","pricing_plan_id":"cebpf4jnsgd1na2vs0mg"},{"bike_id":"7c5a6fd3-8582-44c1-acbd-f0bba86c128e","system_id":"levelo_inurba_marseille","lat":43.26215,"lon":5.37449,"is_reserved":false,"is_disabled":false,"rental_uris":{"android":"levelo://app?vid=7c5a6fd3-8582-44c1-acbd-f0bba86c128e","ios":"levelo://app?vid=7c5a6fd3-8582-44c1-acbd-f0bba86c128e"},"vehicle_type_id":"4","last_reported":1761668032,"current_range_meters":2800,"station_id":"ce4bhgp2rcd13ifvqfc0","pricing_plan_id":"cebpf4jnsgd1na2vs0mg"},{"bike_id":"7d0b679e-6c0a-4a17-8257-73108bdd752c","system_id":"levelo_inurba_marseille","lat":43.2656,"lon":5.37287,"is_reserved":false,"is_disabled":false,"rental_uris":{"android":"levelo://app?vid=7d0b679e-6c0a-4a17-8257-73108bdd752c","ios":"levelo://app?vid=7d0b679e-6c0a-4a17-8257-73108bdd752c"},"vehicle_type_id":"4","last_reported":1761668032,"current_range_meters":3200,"station_id":"ce4bhg12rcd13ifvqf70","pricing_plan_id":"cebpf4jnsgd1na2vs0mg"},{"bike_id":"58247845-73b7-40a7-8a96-2cb2dd72a169","system_id":"levelo_inurba_marseille","lat":43.28721,"lon":5.37943,"is_reserved":false,"is_disabled":false,"rental_uris":{"android":"levelo://app?vid=58247845-73b7-40a7-8a96-2cb2dd72a169","ios":"levelo://app?vid=58247845-73b7-40a7-8a96-2cb2dd72a169"},"vehicle_type_id":"4","last_reported":1761668032,"current_range_meters":3200,"station_id":"ce4bh9p2rcd13ifvqec0","pricing_plan_id":"cebpf4jnsgd1na2vs0mg"},{"bike_id":"c5670090-28e4-4a30-8b52-6f97e9f95071","system_id":"levelo_inurba_marseille","lat":43.296406,"lon":5.39175,"is_reserved":false,"is_disabled":false,"rental_uris":{"android":"levelo://app?vid=c5670090-28e4-4a30-8b52-6f97e9f95071","ios":"levelo://app?vid=c5670090-28e4-4a30-8b52-6f97e9f95071"},"vehicle_type_id":"4","last_reported":1761668032,"current_range_meters":3200,"station_id":"","pricing_plan_id":"cebpf4jnsgd1na2vs0mg"},{"bike_id":"638893d8-86e4-4c04-802b-af9f07c518f7","system_id":"levelo_inurba_marseille","lat":43.31999,"lon":5.38165,"is_reserved":false,"is_disabled":false,"rental_uris":{"android":"levelo://app?vid=638893d8-86e4-4c04-802b-af9f07c518f7","ios":"levelo://app?vid=638893d8-86e4-4c04-802b-af9f07c518f7"},"vehicle_type_id":"4","last_reported":1761668032,"current_range_meters":3200,"station_id":"ce4bhr12rcd13ifvqhpg","pricing_plan_id":"cebpf4jnsgd1na2vs0mg"},{"bike_id":"dbc0e999-85bd-4a1d-a4d4-696c0adb85db","system_id":"levelo_inurba_marseille","lat":43.29845,"lon":5.36302,"is_reserved":false,"is_disabled":true,"rental_uris":{"android":"levelo://app?vid=dbc0e999-85bd-4a1d-a4d4-696c0adb85db","ios":"levelo://app?vid=dbc0e999-85bd-4a1d-a4d4-696c0adb85db"},"vehicle_type_id":"4","last_reported":1761668032,"current_range_meters":3600,"station_id":"ce4bgpp2rcd13ifvqc3g","pricing_plan_id":"cebpf4jnsgd1na2vs0mg"},{"bike_id":"41d45b45-3a52-4b5a-b2b3-1e62d5490ada","system_id":"levelo_inurba_marseille","lat":43.28531,"lon":5.44111,"is_reserved":false,"is_disabled":false,"rental_uris":{"android":"levelo://app?vid=41d45b45-3a52-4b5a-b2b3-1e62d5490ada","ios":"levelo://app?vid=41d45b45-3a52-4b5a-b2b3-1e62d5490ada"},"vehicle_type_id":"4","last_reported":1761668032,"current_range_meters":3600,"station_id":"st_d3j3df2ikq2c7380ej80","pricing_plan_id":"cebpf4jnsgd1na2vs0mg"},{"bike_id":"526893fe-e003-4e0b-8558-1052d9ab3355","system_id":"levelo_inurba_marseille","lat":43.30242,"lon":5.4004,"is_reserved":false,"is_disabled":false,"rental_uris":{"android":"levelo://app?vid=526893fe-e003-4e0b-8558-1052d9ab3355","ios":"levelo://app?vid=526893fe-e003-4e0b-8558-1052d9ab3355"},"vehicle_type_id":"4","last_reported":1761668032,"current_range_meters":4000,"station_id":"ce4bgvh2rcd13ifvqcs0","pricing_plan_id":"cebpf4jnsgd1na2vs0mg"},{"bike_id":"f27ff263-9f71-4aaf-877f-50a73cba7a9b","system_id":"levelo_inurba_marseille","lat":43.3021,"lon":5.36598,"is_reserved":false,"is_disabled":true,"rental_uris":{"android":"levelo://app?vid=f27ff263-9f71-4aaf-877f-50a73cba7a9b","ios":"levelo://app?vid=f27ff263-9f71-4aaf-877f-50a73cba7a9b"},"vehicle_type_id":"4","last_reported":1761668032,"current_range_meters":4000,"station_id":"ce4bgrh2rcd13ifvqc8g","pricing_plan_id":"cebpf4jnsgd1na2vs0mg"},{"bike_id":"64b75b4a-3497-4861-8cc2-90dd62cd9f5e","system_id":"levelo_inurba_marseille","lat":43.293049,"lon":5.434504,"is_reserved":false,"is_disabled":false,"rental_uris":{"android":"levelo://app?vid=64b75b4a-3497-4861-8cc2-90dd62cd9f5e","ios":"levelo://app?vid=64b75b4a-3497-4861-8cc2-90dd62cd9f5e"},"vehicle_type_id":"4","last_reported":1761668032,"current_range_meters":4000,"station_id":"","pricing_plan_id":"cebpf4jnsgd1na2vs0mg"},{"bike_id":"1b8b63ec-7548-4816-b198-44e2162337ac","system_id":"levelo_inurba_marseille","lat":43.306438,"lon":5.400786,"is_reserved":false,"is_disabled":true,"rental_uris":{"android":"levelo://app?vid=1b8b63ec-7548-4816-b198-44e2162337ac","ios":"levelo://app?vid=1b8b63ec-7548-4816-b198-44e2162337ac"},"vehicle_type_id":"4","last_reported":1761668032,"current_range_meters":4000,"station_id":"ce4bh112rcd13ifvqda0","pricing_plan_id":"cebpf4jnsgd1na2vs0mg"},{"bike_id":"99a4e831-1d81-42fa-aae8-d30d9526c4fa","system_id":"levelo_inurba_marseille","lat":43.25126,"lon":5.40316,"is_reserved":false,"is_disabled":false,"rental_uris":{"android":"levelo://app?vid=99a4e831-1d81-42fa-aae8-d30d9526c4fa","ios":"levelo://app?vid=99a4e831-1d81-42fa-aae8-d30d9526c4fa"},"vehicle_type_id":"4","last_reported":1761668032,"current_range_meters":4000,"station_id":"ce4bhlh2rcd13ifvqgig","pricing_plan_id":"cebpf4jnsgd1na2vs0mg"},{"bike_id":"3ea13603-c9ad-4550-9948-b83f47812af6","system_id":"levelo_inurba_marseille","lat":43.29094,"lon":5.36623,"is_reserved":false,"is_disabled":false,"rental_uris":{"android":"levelo://app?vid=3ea13603-c9ad-4550-9948-b83f47812af6","ios":"levelo://app?vid=3ea13603-c9ad-4550-9948-b83f47812af6"},"vehicle_type_id":"4","last_reported":1761668032,"current_range_meters":4400,"station_id":"","pricing_plan_id":"cebpf4jnsgd1na2vs0mg"},{"bike_id":"de5cece4-6186-4ccb-b70e-a25e8bd3fc86","system_id":"levelo_inurba_marseille","lat":43.337444,"lon":5.374475,"is_reserved":false,"is_disabled":false,"rental_uris":{"android":"levelo://app?vid=de5cece4-6186-4ccb-b70e-a25e8bd3fc86","ios":"levelo://app?vid=de5cece4-6186-4ccb-b70e-a25e8bd3fc86"},"vehicle_type_id":"4","last_reported":1761668032,"current_range_meters":4400,"station_id":"","pricing_plan_id":"cebpf4jnsgd1na2vs0mg"},{"bike_id":"e4ccce50-4824-4895-aa8c-033835526f23","system_id":"levelo_inurba_marseille","lat":43.31961,"lon":5.39969,"is_reserved":false,"is_disabled":false,"rental_uris":{"android":"levelo://app?vid=e4ccce50-4824-4895-aa8c-033835526f23","ios":"levelo://app?vid=e4ccce50-4824-4895-aa8c-033835526f23"},"vehicle_type_id":"4","last_reported":1761668032,"current_range_meters":4800,"station_id":"","pricing_plan_id":"cebpf4jnsgd1na2vs0mg"},{"bike_id":"d86cc8d0-90be-48c1-9e62-9947408f82bd","system_id":"levelo_inurba_marseille","lat":43.25123,"lon":5.40304,"is_reserved":false,"is_disabled":false,"rental_uris":{"android":"levelo://app?vid=d86cc8d0-90be-48c1-9e62-9947408f82bd","ios":"levelo://app?vid=d86cc8d0-90be-48c1-9e62-9947408f82bd"},"vehicle_type_id":"4","last_reported":1761668032,"current_range_meters":5600,"station_id":"ce4bhlh2rcd13ifvqgig","pricing_plan_id":"cebpf4jnsgd1na2vs0mg"},{"bike_id":"4c2a2778-4e1a-4c27-b9d6-7a76d719c638","system_id":"levelo_inurba_marseille","lat":43.29047,"lon":5.38142,"is_reserved":false,"is_disabled":false,"rental_uris":{"android":"levelo://app?vid=4c2a2778-4e1a-4c27-b9d6-7a76d719c638","ios":"levelo://app?vid=4c2a2778-4e1a-4c27-b9d6-7a76d719c638"},"vehicle_type_id":"4","last_reported":1761668032,"current_range_meters":5600,"station_id":"ce4bh4p2rcd13ifvqe1g","pricing_plan_id":"cebpf4jnsgd1na2vs0mg"},{"bike_id":"f98fcc1f-45e5-4a56-b920-8d66c51b3e9b","system_id":"levelo_inurba_marseille","lat":43.296051,"lon":5.381059,"is_reserved":false,"is_disabled":false,"rental_uris":{"android":"levelo://app?vid=f98fcc1f-45e5-4a56-b920-8d66c51b3e9b","ios":"levelo://app?vid=f98fcc1f-45e5-4a56-b920-8d66c51b3e9b"},"vehicle_type_id":"4","last_reported":1761668032,"current_range_meters":5600,"station_id":"ce4bgl12rcd13ifvqbo0","pricing_plan_id":"cebpf4jnsgd1na2vs0mg"},{"bike_id":"1de4f8dd-f47f-4dc8-8300-d1aa628f5e07","system_id":"levelo_inurba_marseille","lat":43.28696,"lon":5.37937,"is_reserved":false,"is_disabled":false,"rental_uris":{"android":"levelo://app?vid=1de4f8dd-f47f-4dc8-8300-d1aa628f5e07","ios":"levelo://app?vid=1de4f8dd-f47f-4dc8-8300-d1aa628f5e07"},"vehicle_type_id":"4","last_reported":1761668032,"current_range_meters":6000,"station_id":"","pricing_plan_id":"cebpf4jnsgd1na2vs0mg"},{"bike_id":"c75377b4-4c58-41c1-8ab1-03efda46f007","system_id":"levelo_inurba_marseille","lat":43.27964,"lon":5.38717,"is_reserved":false,"is_disabled":false,"rental_uris":{"android":"levelo://app?vid=c75377b4-4c58-41c1-8ab1-03efda46f007","ios":"levelo://app?vid=c75377b4-4c58-41c1-8ab1-03efda46f007"},"vehicle_type_id":"4","last_reported":1761668032,"current_range_meters":6000,"station_id":"ce4bhg12rcd13ifvqf80","pricing_plan_id":"cebpf4jnsgd1na2vs0mg"},{"bike_id":"314079d6-ef9f-41e2-87c2-6e020f36d09c","system_id":"levelo_inurba_marseille","lat":43.21192,"lon":5.35082,"is_reserved":false,"is_disabled":false,"rental_uris":{"android":"levelo://app?vid=314079d6-ef9f-41e2-87c2-6e020f36d09c","ios":"levelo://app?vid=314079d6-ef9f-41e2-87c2-6e020f36d09c"},"vehicle_type_id":"4","last_reported":1761668032,"current_range_meters":6000,"station_id":"","pricing_plan_id":"cebpf4jnsgd1na2vs0mg"},{"bike_id":"5ba6aae0-5ed8-4fcf-b731-e692a96b24f5","system_id":"levelo_inurba_marseille","lat":43.25337,"lon":5.42177,"is_reserved":false,"is_disabled":false,"rental_uris":{"android":"levelo://app?vid=5ba6aae0-5ed8-4fcf-b731-e692a96b24f5","ios":"levelo://app?vid=5ba6aae0-5ed8-4fcf-b731-e692a96b24f5"},"vehicle_type_id":"4","last_reported":1761668032,"current_range_meters":6000,"station_id":"st_d2m65c5bi1j21697t3ng","pricing_plan_id":"cebpf4jnsgd1na2vs0mg"},{"bike_id":"6373b384-d8e7-424b-8f5a-60e1b83cd429","system_id":"levelo_inurba_marseille","lat":43.27186,"lon":5.40999,"is_reserved":false,"is_disabled":false,"rental_uris":{"android":"levelo://app?vid=6373b384-d8e7-424b-8f5a-60e1b83cd429","ios":"levelo://app?vid=6373b384-d8e7-424b-8f5a-60e1b83cd429"},"vehicle_type_id":"4","last_reported":1761668032,"current_range_meters":6400,"station_id":"ce4bhl12rcd13ifvqgf0","pricing_plan_id":"cebpf4jnsgd1na2vs0mg"},{"bike_id":"4624c6e4-12ce-44b9-bb48-ad42587dad99","system_id":"levelo_inurba_marseille","lat":43.24974,"lon":5.40497,"is_reserved":false,"is_disabled":false,"rental_uris":{"android":"levelo://app?vid=4624c6e4-12ce-44b9-bb48-ad42587dad99","ios":"levelo://app?vid=4624c6e4-12ce-44b9-bb48-ad42587dad99"},"vehicle_type_id":"4","last_reported":1761668032,"current_range_meters":6400,"station_id":"st_d2ngiaodas8pm72gd1h0","pricing_plan_id":"cebpf4jnsgd1na2vs0mg"},{"bike_id":"aba6b563-5093-4f2c-abdc-45b501f05388","system_id":"levelo_inurba_marseille","lat":43.27081,"lon":5.38303,"is_reserved":false,"is_disabled":true,"rental_uris":{"android":"levelo://app?vid=aba6b563-5093-4f2c-abdc-45b501f05388","ios":"levelo://app?vid=aba6b563-5093-4f2c-abdc-45b501f05388"},"vehicle_type_id":"4","last_reported":1761668032,"current_range_meters":6400,"station_id":"st_d3n2fo6cfp8s73cte1j0","pricing_plan_id":"cebpf4jnsgd1na2vs0mg"},{"bike_id":"fc6f8eb6-d0c9-4d5a-805c-d2e93e1639f8","system_id":"levelo_inurba_marseille","lat":43.25104,"lon":5.40326,"is_reserved":false,"is_disabled":false,"rental_uris":{"android":"levelo://app?vid=fc6f8eb6-d0c9-4d5a-805c-d2e93e1639f8","ios":"levelo://app?vid=fc6f8eb6-d0c9-4d5a-805c-d2e93e1639f8"},"vehicle_type_id":"4","last_reported":1761668032,"current_range_meters":6400,"station_id":"ce4bhlh2rcd13ifvqgig","pricing_plan_id":"cebpf4jnsgd1na2vs0mg"},{"bike_id":"b40fdaed-3006-46b7-99ca-1a6d0a359162","system_id":"levelo_inurba_marseille","lat":43.2804,"lon":5.36935,"is_reserved":false,"is_disabled":false,"rental_uris":{"android":"levelo://app?vid=b40fdaed-3006-46b7-99ca-1a6d0a359162","ios":"levelo://app?vid=b40fdaed-3006-46b7-99ca-1a6d0a359162"},"vehicle_type_id":"4","last_reported":1761668032,"current_range_meters":6400,"station_id":"ce4bha12rcd13ifvqef0","pricing_plan_id":"cebpf4jnsgd1na2vs0mg"},{"bike_id":"f205e7d2-48bf-463d-917f-5e3a02003509","system_id":"levelo_inurba_marseille","lat":43.286171,"lon":5.351095,"is_reserved":false,"is_disabled":false,"rental_uris":{"android":"levelo://app?vid=f205e7d2-48bf-463d-917f-5e3a02003509","ios":"levelo://app?vid=f205e7d2-48bf-463d-917f-5e3a02003509"},"vehicle_type_id":"4","last_reported":1761668032,"current_range_meters":6800,"station_id":"ce4bh692rcd13ifvqea0","pricing_plan_id":"cebpf4jnsgd1na2vs0mg"},{"bike_id":"cd46a75a-74e0-465c-a607-291da216b60b","system_id":"levelo_inurba_marseille","lat":43.29583,"lon":5.36744,"is_reserved":false,"is_disabled":false,"rental_uris":{"android":"levelo://app?vid=cd46a75a-74e0-465c-a607-291da216b60b","ios":"levelo://app?vid=cd46a75a-74e0-465c-a607-291da216b60b"},"vehicle_type_id":"4","last_reported":1761668032,"current_range_meters":6800,"station_id":"ce4bgph2rcd13ifvqc2g","pricing_plan_id":"cebpf4jnsgd1na2vs0mg"},{"bike_id":"4601da7f-ff5a-4fbd-bf6e-554a6e818c42","system_id":"levelo_inurba_marseille","lat":43.28858,"lon":5.39321,"is_reserved":false,"is_disabled":false,"rental_uris":{"android":"levelo://app?vid=4601da7f-ff5a-4fbd-bf6e-554a6e818c42","ios":"levelo://app?vid=4601da7f-ff5a-4fbd-bf6e-554a6e818c42"},"vehicle_type_id":"4","last_reported":1761668032,"current_range_meters":6800,"station_id":"ce4bh2p2rcd13ifvqdi0","pricing_plan_id":"cebpf4jnsgd1na2vs0mg"},{"bike_id":"fc6b9fbd-03f4-4794-a751-53d4890c6fc1","system_id":"levelo_inurba_marseille","lat":43.30142,"lon":5.39867,"is_reserved":false,"is_disabled":false,"rental_uris":{"android":"levelo://app?vid=fc6b9fbd-03f4-4794-a751-53d4890c6fc1","ios":"levelo://app?vid=fc6b9fbd-03f4-4794-a751-53d4890c6fc1"},"vehicle_type_id":"4","last_reported":1761668032,"current_range_meters":6800,"station_id":"ce4bh0h2rcd13ifvqd40","pricing_plan_id":"cebpf4jnsgd1na2vs0mg"},{"bike_id":"8958f7a1-687a-4276-b91c-47cd836e2b9c","system_id":"levelo_inurba_marseille","lat":43.30356,"lon":5.41875,"is_reserved":false,"is_disabled":false,"rental_uris":{"android":"levelo://app?vid=8958f7a1-687a-4276-b91c-47cd836e2b9c","ios":"levelo://app?vid=8958f7a1-687a-4276-b91c-47cd836e2b9c"},"vehicle_type_id":"4","last_reported":1761668032,"current_range_meters":6800,"station_id":"ce4bhop2rcd13ifvqh7g","pricing_plan_id":"cebpf4jnsgd1na2vs0mg"},{"bike_id":"c4a6a5ab-f472-4bff-80e2-092ca4fca1a0","system_id":"levelo_inurba_marseille","lat":43.29536,"lon":5.39037,"is_reserved":false,"is_disabled":true,"rental_uris":{"android":"levelo://app?vid=c4a6a5ab-f472-4bff-80e2-092ca4fca1a0","ios":"levelo://app?vid=c4a6a5ab-f472-4bff-80e2-092ca4fca1a0"},"vehicle_type_id":"4","last_reported":1761668032,"current_range_meters":6800,"station_id":"ce4bh3p2rcd13ifvqdp0","pricing_plan_id":"cebpf4jnsgd1na2vs0mg"},{"bike_id":"445788d0-001c-4e64-a12d-c60f443d96cb","system_id":"levelo_inurba_marseille","lat":43.26572,"lon":5.40328,"is_reserved":false,"is_disabled":false,"rental_uris":{"android":"levelo://app?vid=445788d0-001c-4e64-a12d-c60f443d96cb","ios":"levelo://app?vid=445788d0-001c-4e64-a12d-c60f443d96cb"},"vehicle_type_id":"4","last_reported":1761668032,"current_range_meters":6800,"station_id":"ce4bhmp2rcd13ifvqgng","pricing_plan_id":"cebpf4jnsgd1na2vs0mg"},{"bike_id":"e90887e7-b428-4098-bb2c-4e010652e0eb","system_id":"levelo_inurba_marseille","lat":43.31366,"lon":5.38495,"is_reserved":false,"is_disabled":false,"rental_uris":{"android":"levelo://app?vid=e90887e7-b428-4098-bb2c-4e010652e0eb","ios":"levelo://app?vid=e90887e7-b428-4098-bb2c-4e010652e0eb"},"vehicle_type_id":"4","last_reported":1761668032,"current_range_meters":6800,"station_id":"ce4bgt92rcd13ifvqcf0","pricing_plan_id":"cebpf4jnsgd1na2vs0mg"},{"bike_id":"7f87acc3-32f3-4880-8c79-1ac01dbe75d6","system_id":"levelo_inurba_marseille","lat":43.29584,"lon":5.37506,"is_reserved":false,"is_disabled":false,"rental_uris":{"android":"levelo://app?vid=7f87acc3-32f3-4880-8c79-1ac01dbe75d6","ios":"levelo://app?vid=7f87acc3-32f3-4880-8c79-1ac01dbe75d6"},"vehicle_type_id":"4","last_reported":1761668032,"current_range_meters":7200,"station_id":"ce4bgh92rcd13ifvqb50","pricing_plan_id":"cebpf4jnsgd1na2vs0mg"},{"bike_id":"a940482c-93bd-4fe1-8812-d567e9e10336","system_id":"levelo_inurba_marseille","lat":43.29261,"lon":5.38423,"is_reserved":false,"is_disabled":true,"rental_uris":{"android":"levelo://app?vid=a940482c-93bd-4fe1-8812-d567e9e10336","ios":"levelo://app?vid=a940482c-93bd-4fe1-8812-d567e9e10336"},"vehicle_type_id":"4","last_reported":1761668032,"current_range_meters":7200,"station_id":"ce4bh692rcd13ifvqea0","pricing_plan_id":"cebpf4jnsgd1na2vs0mg"},{"bike_id":"aa97b0ef-db05-497a-8f63-1134e3862a8b","system_id":"levelo_inurba_marseille","lat":43.30528,"lon":5.36538,"is_reserved":false,"is_disabled":false,"rental_uris":{"android":"levelo://app?vid=aa97b0ef-db05-497a-8f63-1134e3862a8b","ios":"levelo://app?vid=aa97b0ef-db05-497a-8f63-1134e3862a8b"},"vehicle_type_id":"4","last_reported":1761668032,"current_range_meters":7200,"station_id":"ce4bgs12rcd13ifvqcag","pricing_plan_id":"cebpf4jnsgd1na2vs0mg"},{"bike_id":"604e1f42-0b99-4106-bb2f-8e43f5c1ecea","system_id":"levelo_inurba_marseille","lat":43.25735,"lon":5.41093,"is_reserved":false,"is_disabled":false,"rental_uris":{"android":"levelo://app?vid=604e1f42-0b99-4106-bb2f-8e43f5c1ecea","ios":"levelo://app?vid=604e1f42-0b99-4106-bb2f-8e43f5c1ecea"},"vehicle_type_id":"4","last_reported":1761668032,"current_range_meters":7200,"station_id":"ce4bhkp2rcd13ifvqgd0","pricing_plan_id":"cebpf4jnsgd1na2vs0mg"},{"bike_id":"18619ea4-1d14-4ba8-9170-8189de5d4da4","system_id":"levelo_inurba_marseille","lat":43.29238,"lon":5.37729,"is_reserved":false,"is_disabled":false,"rental_uris":{"android":"levelo://app?vid=18619ea4-1d14-4ba8-9170-8189de5d4da4","ios":"levelo://app?vid=18619ea4-1d14-4ba8-9170-8189de5d4da4"},"vehicle_type_id":"4","last_reported":1761668032,"current_range_meters":7200,"station_id":"","pricing_plan_id":"cebpf4jnsgd1na2vs0mg"},{"bike_id":"d945fabf-7a75-4bf2-bc9d-0e871f54fe9c","system_id":"levelo_inurba_marseille","lat":43.2557,"lon":5.38245,"is_reserved":false,"is_disabled":false,"rental_uris":{"android":"levelo://app?vid=d945fabf-7a75-4bf2-bc9d-0e871f54fe9c","ios":"levelo://app?vid=d945fabf-7a75-4bf2-bc9d-0e871f54fe9c"},"vehicle_type_id":"4","last_reported":1761668032,"current_range_meters":8000,"station_id":"ce4bhih2rcd13ifvqfs0","pricing_plan_id":"cebpf4jnsgd1na2vs0mg"},{"bike_id":"fd09dbe7-0bec-431b-9705-875a0c7a7829","system_id":"levelo_inurba_marseille","lat":43.23048,"lon":5.35489,"is_reserved":false,"is_disabled":true,"rental_uris":{"android":"levelo://app?vid=fd09dbe7-0bec-431b-9705-875a0c7a7829","ios":"levelo://app?vid=fd09dbe7-0bec-431b-9705-875a0c7a7829"},"vehicle_type_id":"4","last_reported":1761668032,"current_range_meters":8400,"station_id":"cpo3342slgdg3j2ifvpg","pricing_plan_id":"cebpf4jnsgd1na2vs0mg"},{"bike_id":"d8a51cdc-47fb-4241-a931-51c4739072db","system_id":"levelo_inurba_marseille","lat":43.29432,"lon":5.39755,"is_reserved":false,"is_disabled":false,"rental_uris":{"android":"levelo://app?vid=d8a51cdc-47fb-4241-a931-51c4739072db","ios":"levelo://app?vid=d8a51cdc-47fb-4241-a931-51c4739072db"},"vehicle_type_id":"4","last_reported":1761668032,"current_range_meters":8400,"station_id":"ce4bh3h2rcd13ifvqdo0","pricing_plan_id":"cebpf4jnsgd1na2vs0mg"},{"bike_id":"95560b5f-8ea8-4033-94ba-80ee0a78620c","system_id":"levelo_inurba_marseille","lat":43.30372,"lon":5.42486,"is_reserved":false,"is_disabled":false,"rental_uris":{"android":"levelo://app?vid=95560b5f-8ea8-4033-94ba-80ee0a78620c","ios":"levelo://app?vid=95560b5f-8ea8-4033-94ba-80ee0a78620c"},"vehicle_type_id":"4","last_reported":1761668032,"current_range_meters":8400,"station_id":"ce4bhoh2rcd13ifvqh6g","pricing_plan_id":"cebpf4jnsgd1na2vs0mg"},{"bike_id":"eea3c3c3-734f-4fd3-8061-ed84cfe47b38","system_id":"levelo_inurba_marseille","lat":43.3255,"lon":5.39186,"is_reserved":false,"is_disabled":false,"rental_uris":{"android":"levelo://app?vid=eea3c3c3-734f-4fd3-8061-ed84cfe47b38","ios":"levelo://app?vid=eea3c3c3-734f-4fd3-8061-ed84cfe47b38"},"vehicle_type_id":"4","last_reported":1761668032,"current_range_meters":8400,"station_id":"","pricing_plan_id":"cebpf4jnsgd1na2vs0mg"},{"bike_id":"09fe1a82-e54b-4c55-b77f-5796c1e7f2cc","system_id":"levelo_inurba_marseille","lat":43.29841,"lon":5.36286,"is_reserved":false,"is_disabled":false,"rental_uris":{"android":"levelo://app?vid=09fe1a82-e54b-4c55-b77f-5796c1e7f2cc","ios":"levelo://app?vid=09fe1a82-e54b-4c55-b77f-5796c1e7f2cc"},"vehicle_type_id":"4","last_reported":1761668032,"current_range_meters":8400,"station_id":"ce4bgpp2rcd13ifvqc3g","pricing_plan_id":"cebpf4jnsgd1na2vs0mg"},{"bike_id":"d5ed4b65-e523-4b0a-80b3-ce20c36757de","system_id":"levelo_inurba_marseille","lat":43.21188,"lon":5.35078,"is_reserved":false,"is_disabled":false,"rental_uris":{"android":"levelo://app?vid=d5ed4b65-e523-4b0a-80b3-ce20c36757de","ios":"levelo://app?vid=d5ed4b65-e523-4b0a-80b3-ce20c36757de"},"vehicle_type_id":"4","last_reported":1761668032,"current_range_meters":8400,"station_id":"st_cvj6sg6p6f1abm77japg","pricing_plan_id":"cebpf4jnsgd1na2vs0mg"},{"bike_id":"9bae3277-9c02-45a9-a0da-2db9509f22ba","system_id":"levelo_inurba_marseille","lat":43.239564,"lon":5.366304,"is_reserved":false,"is_disabled":false,"rental_uris":{"android":"levelo://app?vid=9bae3277-9c02-45a9-a0da-2db9509f22ba","ios":"levelo://app?vid=9bae3277-9c02-45a9-a0da-2db9509f22ba"},"vehicle_type_id":"4","last_reported":1761668032,"current_range_meters":8400,"station_id":"ce4bhi12rcd13ifvqfp0","pricing_plan_id":"cebpf4jnsgd1na2vs0mg"},{"bike_id":"1b8561b4-3fa0-4d39-8c28-9c8e0ce02660","system_id":"levelo_inurba_marseille","lat":43.28936,"lon":5.36402,"is_reserved":false,"is_disabled":false,"rental_uris":{"android":"levelo://app?vid=1b8561b4-3fa0-4d39-8c28-9c8e0ce02660","ios":"levelo://app?vid=1b8561b4-3fa0-4d39-8c28-9c8e0ce02660"},"vehicle_type_id":"4","last_reported":1761668032,"current_range_meters":8800,"station_id":"ce4bhc92rcd13ifvqetg","pricing_plan_id":"cebpf4jnsgd1na2vs0mg"},{"bike_id":"7fccdbcb-3fd4-4f11-aa42-e70c3c87438c","system_id":"levelo_inurba_marseille","lat":43.2804,"lon":5.36941,"is_reserved":false,"is_disabled":false,"rental_uris":{"android":"levelo://app?vid=7fccdbcb-3fd4-4f11-aa42-e70c3c87438c","ios":"levelo://app?vid=7fccdbcb-3fd4-4f11-aa42-e70c3c87438c"},"vehicle_type_id":"4","last_reported":1761668032,"current_range_meters":8800,"station_id":"ce4bha12rcd13ifvqef0","pricing_plan_id":"cebpf4jnsgd1na2vs0mg"},{"bike_id":"70c7bb91-7616-48f7-be2e-e5b9b41631aa","system_id":"levelo_inurba_marseille","lat":43.25336,"lon":5.42177,"is_reserved":false,"is_disabled":false,"rental_uris":{"android":"levelo://app?vid=70c7bb91-7616-48f7-be2e-e5b9b41631aa","ios":"levelo://app?vid=70c7bb91-7616-48f7-be2e-e5b9b41631aa"},"vehicle_type_id":"4","last_reported":1761668032,"current_range_meters":8800,"station_id":"st_d2m65c5bi1j21697t3ng","pricing_plan_id":"cebpf4jnsgd1na2vs0mg"},{"bike_id":"78619aec-fe0d-4236-9330-238a824b279a","system_id":"levelo_inurba_marseille","lat":43.30937,"lon":5.40146,"is_reserved":false,"is_disabled":false,"rental_uris":{"android":"levelo://app?vid=78619aec-fe0d-4236-9330-238a824b279a","ios":"levelo://app?vid=78619aec-fe0d-4236-9330-238a824b279a"},"vehicle_type_id":"4","last_reported":1761668032,"current_range_meters":8800,"station_id":"ce4bgvp2rcd13ifvqct0","pricing_plan_id":"cebpf4jnsgd1na2vs0mg"},{"bike_id":"eb699c30-0727-4db2-a700-12ce1e9db847","system_id":"levelo_inurba_marseille","lat":43.28029,"lon":5.36958,"is_reserved":false,"is_disabled":false,"rental_uris":{"android":"levelo://app?vid=eb699c30-0727-4db2-a700-12ce1e9db847","ios":"levelo://app?vid=eb699c30-0727-4db2-a700-12ce1e9db847"},"vehicle_type_id":"4","last_reported":1761668032,"current_range_meters":9200,"station_id":"ce4bha12rcd13ifvqef0","pricing_plan_id":"cebpf4jnsgd1na2vs0mg"},{"bike_id":"c3b22754-87c1-4bed-825c-5bae2add8bfe","system_id":"levelo_inurba_marseille","lat":43.30426,"lon":5.41282,"is_reserved":false,"is_disabled":false,"rental_uris":{"android":"levelo://app?vid=c3b22754-87c1-4bed-825c-5bae2add8bfe","ios":"levelo://app?vid=c3b22754-87c1-4bed-825c-5bae2add8bfe"},"vehicle_type_id":"4","last_reported":1761668032,"current_range_meters":9200,"station_id":"ce4bhop2rcd13ifvqh8g","pricing_plan_id":"cebpf4jnsgd1na2vs0mg"},{"bike_id":"208a1fa9-c371-4a9e-bc97-d54ccd03a0b4","system_id":"levelo_inurba_marseille","lat":43.326,"lon":5.39082,"is_reserved":false,"is_disabled":false,"rental_uris":{"android":"levelo://app?vid=208a1fa9-c371-4a9e-bc97-d54ccd03a0b4","ios":"levelo://app?vid=208a1fa9-c371-4a9e-bc97-d54ccd03a0b4"},"vehicle_type_id":"4","last_reported":1761668032,"current_range_meters":9200,"station_id":"","pricing_plan_id":"cebpf4jnsgd1na2vs0mg"},{"bike_id":"40822fea-b5df-4b45-8f67-4dadafa2ae81","system_id":"levelo_inurba_marseille","lat":43.27169,"lon":5.41015,"is_reserved":false,"is_disabled":false,"rental_uris":{"android":"levelo://app?vid=40822fea-b5df-4b45-8f67-4dadafa2ae81","ios":"levelo://app?vid=40822fea-b5df-4b45-8f67-4dadafa2ae81"},"vehicle_type_id":"4","last_reported":1761668032,"current_range_meters":9200,"station_id":"ce4bhl12rcd13ifvqgf0","pricing_plan_id":"cebpf4jnsgd1na2vs0mg"},{"bike_id":"6107bc2f-025a-4d51-9749-da51d8981181","system_id":"levelo_inurba_marseille","lat":43.292631,"lon":5.40905,"is_reserved":false,"is_disabled":false,"rental_uris":{"android":"levelo://app?vid=6107bc2f-025a-4d51-9749-da51d8981181","ios":"levelo://app?vid=6107bc2f-025a-4d51-9749-da51d8981181"},"vehicle_type_id":"4","last_reported":1761668032,"current_range_meters":9600,"station_id":"","pricing_plan_id":"cebpf4jnsgd1na2vs0mg"},{"bike_id":"c8f51553-37e6-437f-ae47-3a6f0674c4b8","system_id":"levelo_inurba_marseille","lat":43.30936,"lon":5.40137,"is_reserved":false,"is_disabled":false,"rental_uris":{"android":"levelo://app?vid=c8f51553-37e6-437f-ae47-3a6f0674c4b8","ios":"levelo://app?vid=c8f51553-37e6-437f-ae47-3a6f0674c4b8"},"vehicle_type_id":"4","last_reported":1761668032,"current_range_meters":9600,"station_id":"ce4bgvp2rcd13ifvqct0","pricing_plan_id":"cebpf4jnsgd1na2vs0mg"},{"bike_id":"c896b697-d7c3-47ea-81cb-50811f76c96f","system_id":"levelo_inurba_marseille","lat":43.25084,"lon":5.39517,"is_reserved":false,"is_disabled":false,"rental_uris":{"android":"levelo://app?vid=c896b697-d7c3-47ea-81cb-50811f76c96f","ios":"levelo://app?vid=c896b697-d7c3-47ea-81cb-50811f76c96f"},"vehicle_type_id":"4","last_reported":1761668032,"current_range_meters":9600,"station_id":"ce4bhm12rcd13ifvqgkg","pricing_plan_id":"cebpf4jnsgd1na2vs0mg"},{"bike_id":"9eb7a5ad-df68-479c-8af4-95e1e6164dd2","system_id":"levelo_inurba_marseille","lat":43.31281,"lon":5.40164,"is_reserved":false,"is_disabled":false,"rental_uris":{"android":"levelo://app?vid=9eb7a5ad-df68-479c-8af4-95e1e6164dd2","ios":"levelo://app?vid=9eb7a5ad-df68-479c-8af4-95e1e6164dd2"},"vehicle_type_id":"4","last_reported":1761668032,"current_range_meters":9600,"station_id":"ce4bh092rcd13ifvqd30","pricing_plan_id":"cebpf4jnsgd1na2vs0mg"},{"bike_id":"cf10977a-1282-4ec5-81c4-a8fd91d5962b","system_id":"levelo_inurba_marseille","lat":43.29639,"lon":5.40598,"is_reserved":false,"is_disabled":false,"rental_uris":{"android":"levelo://app?vid=cf10977a-1282-4ec5-81c4-a8fd91d5962b","ios":"levelo://app?vid=cf10977a-1282-4ec5-81c4-a8fd91d5962b"},"vehicle_type_id":"4","last_reported":1761668032,"current_range_meters":9600,"station_id":"ce4bh0h2rcd13ifvqd60","pricing_plan_id":"cebpf4jnsgd1na2vs0mg"},{"bike_id":"b0e8c834-156d-420a-a2e9-e92b5bf5a715","system_id":"levelo_inurba_marseille","lat":43.27376,"lon":5.36267,"is_reserved":false,"is_disabled":false,"rental_uris":{"android":"levelo://app?vid=b0e8c834-156d-420a-a2e9-e92b5bf5a715","ios":"levelo://app?vid=b0e8c834-156d-420a-a2e9-e92b5bf5a715"},"vehicle_type_id":"4","last_reported":1761668032,"current_range_meters":9600,"station_id":"ce4bhbh2rcd13ifvqeo0","pricing_plan_id":"cebpf4jnsgd1na2vs0mg"},{"bike_id":"f28488ef-6cc0-4b19-bfa5-30bdf86e6344","system_id":"levelo_inurba_marseille","lat":43.28165,"lon":5.42643,"is_reserved":false,"is_disabled":false,"rental_uris":{"android":"levelo://app?vid=f28488ef-6cc0-4b19-bfa5-30bdf86e6344","ios":"levelo://app?vid=f28488ef-6cc0-4b19-bfa5-30bdf86e6344"},"vehicle_type_id":"4","last_reported":1761668032,"current_range_meters":9600,"station_id":"ce4bhnh2rcd13ifvqgug","pricing_plan_id":"cebpf4jnsgd1na2vs0mg"},{"bike_id":"1880ebb9-7edb-463e-976b-226e958b9ebe","system_id":"levelo_inurba_marseille","lat":43.31097,"lon":5.37487,"is_reserved":false,"is_disabled":false,"rental_uris":{"android":"levelo://app?vid=1880ebb9-7edb-463e-976b-226e958b9ebe","ios":"levelo://app?vid=1880ebb9-7edb-463e-976b-226e958b9ebe"},"vehicle_type_id":"4","last_reported":1761668032,"current_range_meters":10000,"station_id":"ce4bgt12rcd13ifvqce0","pricing_plan_id":"cebpf4jnsgd1na2vs0mg"},{"bike_id":"422699a4-04bc-4737-9abd-ec12ad6ab354","system_id":"levelo_inurba_marseille","lat":43.25515,"lon":5.37654,"is_reserved":false,"is_disabled":false,"rental_uris":{"android":"levelo://app?vid=422699a4-04bc-4737-9abd-ec12ad6ab354","ios":"levelo://app?vid=422699a4-04bc-4737-9abd-ec12ad6ab354"},"vehicle_type_id":"4","last_reported":1761668032,"current_range_meters":10000,"station_id":"ce4bhh12rcd13ifvqff0","pricing_plan_id":"cebpf4jnsgd1na2vs0mg"},{"bike_id":"f9484733-c07f-4293-8628-46871c65b913","system_id":"levelo_inurba_marseille","lat":43.25456,"lon":5.38104,"is_reserved":false,"is_disabled":false,"rental_uris":{"android":"levelo://app?vid=f9484733-c07f-4293-8628-46871c65b913","ios":"levelo://app?vid=f9484733-c07f-4293-8628-46871c65b913"},"vehicle_type_id":"4","last_reported":1761668032,"current_range_meters":10000,"station_id":"","pricing_plan_id":"cebpf4jnsgd1na2vs0mg"},{"bike_id":"3b82aff6-7cb9-43aa-944c-0f02fe4ef9fa","system_id":"levelo_inurba_marseille","lat":43.27969,"lon":5.38701,"is_reserved":false,"is_disabled":true,"rental_uris":{"android":"levelo://app?vid=3b82aff6-7cb9-43aa-944c-0f02fe4ef9fa","ios":"levelo://app?vid=3b82aff6-7cb9-43aa-944c-0f02fe4ef9fa"},"vehicle_type_id":"4","last_reported":1761668032,"current_range_meters":10000,"station_id":"ce4bhg12rcd13ifvqf80","pricing_plan_id":"cebpf4jnsgd1na2vs0mg"},{"bike_id":"d9f0a042-7d84-45ea-9237-4ab9e4b3ba85","system_id":"levelo_inurba_marseille","lat":43.287125,"lon":5.37947,"is_reserved":false,"is_disabled":false,"rental_uris":{"android":"levelo://app?vid=d9f0a042-7d84-45ea-9237-4ab9e4b3ba85","ios":"levelo://app?vid=d9f0a042-7d84-45ea-9237-4ab9e4b3ba85"},"vehicle_type_id":"4","last_reported":1761668032,"current_range_meters":10000,"station_id":"ce4bh9p2rcd13ifvqec0","pricing_plan_id":"cebpf4jnsgd1na2vs0mg"},{"bike_id":"f8cfe608-c7cc-4152-b9c3-a5dfc1a9319a","system_id":"levelo_inurba_marseille","lat":43.30524,"lon":5.3671,"is_reserved":false,"is_disabled":false,"rental_uris":{"android":"levelo://app?vid=f8cfe608-c7cc-4152-b9c3-a5dfc1a9319a","ios":"levelo://app?vid=f8cfe608-c7cc-4152-b9c3-a5dfc1a9319a"},"vehicle_type_id":"4","last_reported":1761668032,"current_range_meters":10000,"station_id":"ce4bgrp2rcd13ifvqc9g","pricing_plan_id":"cebpf4jnsgd1na2vs0mg"},{"bike_id":"aae2869b-900b-4e16-b51e-3b91a63279e4","system_id":"levelo_inurba_marseille","lat":43.323646,"lon":5.388863,"is_reserved":false,"is_disabled":false,"rental_uris":{"android":"levelo://app?vid=aae2869b-900b-4e16-b51e-3b91a63279e4","ios":"levelo://app?vid=aae2869b-900b-4e16-b51e-3b91a63279e4"},"vehicle_type_id":"4","last_reported":1761668032,"current_range_meters":10000,"station_id":"ce4bhqp2rcd13ifvqhog","pricing_plan_id":"cebpf4jnsgd1na2vs0mg"},{"bike_id":"18454ff8-fde4-4b33-97af-fb6f0499acc8","system_id":"levelo_inurba_marseille","lat":43.29307,"lon":5.37168,"is_reserved":false,"is_disabled":false,"rental_uris":{"android":"levelo://app?vid=18454ff8-fde4-4b33-97af-fb6f0499acc8","ios":"levelo://app?vid=18454ff8-fde4-4b33-97af-fb6f0499acc8"},"vehicle_type_id":"4","last_reported":1761668032,"current_range_meters":10000,"station_id":"ce4bgh92rcd13ifvqb40","pricing_plan_id":"cebpf4jnsgd1na2vs0mg"},{"bike_id":"4b362e1d-451a-4f97-b2f0-2662c5b1b4e0","system_id":"levelo_inurba_marseille","lat":43.29764,"lon":5.42779,"is_reserved":false,"is_disabled":false,"rental_uris":{"android":"levelo://app?vid=4b362e1d-451a-4f97-b2f0-2662c5b1b4e0","ios":"levelo://app?vid=4b362e1d-451a-4f97-b2f0-2662c5b1b4e0"},"vehicle_type_id":"4","last_reported":1761668032,"current_range_meters":10800,"station_id":"st_d3md5207bmas73dh9klg","pricing_plan_id":"cebpf4jnsgd1na2vs0mg"},{"bike_id":"03f69965-e800-4265-a5ac-408926016ad7","system_id":"levelo_inurba_marseille","lat":43.26223,"lon":5.40449,"is_reserved":false,"is_disabled":false,"rental_uris":{"android":"levelo://app?vid=03f69965-e800-4265-a5ac-408926016ad7","ios":"levelo://app?vid=03f69965-e800-4265-a5ac-408926016ad7"},"vehicle_type_id":"4","last_reported":1761668032,"current_range_meters":10800,"station_id":"ce4bhmh2rcd13ifvqgmg","pricing_plan_id":"cebpf4jnsgd1na2vs0mg"},{"bike_id":"3481d2cb-d54f-4b7b-a56d-b0125a8c07a5","system_id":"levelo_inurba_marseille","lat":43.30305,"lon":5.36898,"is_reserved":false,"is_disabled":false,"rental_uris":{"android":"levelo://app?vid=3481d2cb-d54f-4b7b-a56d-b0125a8c07a5","ios":"levelo://app?vid=3481d2cb-d54f-4b7b-a56d-b0125a8c07a5"},"vehicle_type_id":"4","last_reported":1761668032,"current_range_meters":10800,"station_id":"ce4bgqh2rcd13ifvqc5g","pricing_plan_id":"cebpf4jnsgd1na2vs0mg"},{"bike_id":"dbcbcef0-4b5f-446e-9d2e-80d991993c2b","system_id":"levelo_inurba_marseille","lat":43.29529,"lon":5.40228,"is_reserved":false,"is_disabled":false,"rental_uris":{"android":"levelo://app?vid=dbcbcef0-4b5f-446e-9d2e-80d991993c2b","ios":"levelo://app?vid=dbcbcef0-4b5f-446e-9d2e-80d991993c2b"},"vehicle_type_id":"4","last_reported":1761668032,"current_range_meters":10800,"station_id":"","pricing_plan_id":"cebpf4jnsgd1na2vs0mg"},{"bike_id":"1975be38-f301-42ba-a022-50bba37a3dac","system_id":"levelo_inurba_marseille","lat":43.2841,"lon":5.37511,"is_reserved":false,"is_disabled":false,"rental_uris":{"android":"levelo://app?vid=1975be38-f301-42ba-a022-50bba37a3dac","ios":"levelo://app?vid=1975be38-f301-42ba-a022-50bba37a3dac"},"vehicle_type_id":"4","last_reported":1761668032,"current_range_meters":10800,"station_id":"ce4bh412rcd13ifvqds0","pricing_plan_id":"cebpf4jnsgd1na2vs0mg"},{"bike_id":"ae12af0e-215e-4e08-8044-864a2edd7583","system_id":"levelo_inurba_marseille","lat":43.30946,"lon":5.40139,"is_reserved":false,"is_disabled":false,"rental_uris":{"android":"levelo://app?vid=ae12af0e-215e-4e08-8044-864a2edd7583","ios":"levelo://app?vid=ae12af0e-215e-4e08-8044-864a2edd7583"},"vehicle_type_id":"4","last_reported":1761668032,"current_range_meters":10800,"station_id":"ce4bgvp2rcd13ifvqct0","pricing_plan_id":"cebpf4jnsgd1na2vs0mg"},{"bike_id":"f0c3acc6-26c7-47b6-9d05-a4c92422da78","system_id":"levelo_inurba_marseille","lat":43.28933,"lon":5.38421,"is_reserved":false,"is_disabled":false,"rental_uris":{"android":"levelo://app?vid=f0c3acc6-26c7-47b6-9d05-a4c92422da78","ios":"levelo://app?vid=f0c3acc6-26c7-47b6-9d05-a4c92422da78"},"vehicle_type_id":"4","last_reported":1761668032,"current_range_meters":11200,"station_id":"ce4bh612rcd13ifvqe6g","pricing_plan_id":"cebpf4jnsgd1na2vs0mg"},{"bike_id":"a61f2e4a-e94e-4f9e-b09a-7f723ecb1d95","system_id":"levelo_inurba_marseille","lat":43.30474,"lon":5.37899,"is_reserved":false,"is_disabled":true,"rental_uris":{"android":"levelo://app?vid=a61f2e4a-e94e-4f9e-b09a-7f723ecb1d95","ios":"levelo://app?vid=a61f2e4a-e94e-4f9e-b09a-7f723ecb1d95"},"vehicle_type_id":"4","last_reported":1761668032,"current_range_meters":11200,"station_id":"ce4bgup2rcd13ifvqcn0","pricing_plan_id":"cebpf4jnsgd1na2vs0mg"},{"bike_id":"e809b2e8-3405-4fa4-abe8-65e4a296b1cd","system_id":"levelo_inurba_marseille","lat":43.21198,"lon":5.35074,"is_reserved":false,"is_disabled":false,"rental_uris":{"android":"levelo://app?vid=e809b2e8-3405-4fa4-abe8-65e4a296b1cd","ios":"levelo://app?vid=e809b2e8-3405-4fa4-abe8-65e4a296b1cd"},"vehicle_type_id":"4","last_reported":1761668032,"current_range_meters":11600,"station_id":"","pricing_plan_id":"cebpf4jnsgd1na2vs0mg"},{"bike_id":"756eaea7-5ee7-431b-aca4-5ae891bda802","system_id":"levelo_inurba_marseille","lat":43.21195,"lon":5.35072,"is_reserved":false,"is_disabled":false,"rental_uris":{"android":"levelo://app?vid=756eaea7-5ee7-431b-aca4-5ae891bda802","ios":"levelo://app?vid=756eaea7-5ee7-431b-aca4-5ae891bda802"},"vehicle_type_id":"4","last_reported":1761668032,"current_range_meters":11600,"station_id":"","pricing_plan_id":"cebpf4jnsgd1na2vs0mg"},{"bike_id":"6abb9e09-33f3-43f3-9417-8cc0cf0144f6","system_id":"levelo_inurba_marseille","lat":43.29919,"lon":5.37445,"is_reserved":false,"is_disabled":true,"rental_uris":{"android":"levelo://app?vid=6abb9e09-33f3-43f3-9417-8cc0cf0144f6","ios":"levelo://app?vid=6abb9e09-33f3-43f3-9417-8cc0cf0144f6"},"vehicle_type_id":"4","last_reported":1761668032,"current_range_meters":11600,"station_id":"ce4bgjh2rcd13ifvqbg0","pricing_plan_id":"cebpf4jnsgd1na2vs0mg"},{"bike_id":"f5746e36-b4b0-40d3-9bca-c360b311a317","system_id":"levelo_inurba_marseille","lat":43.31364,"lon":5.39692,"is_reserved":false,"is_disabled":false,"rental_uris":{"android":"levelo://app?vid=f5746e36-b4b0-40d3-9bca-c360b311a317","ios":"levelo://app?vid=f5746e36-b4b0-40d3-9bca-c360b311a317"},"vehicle_type_id":"4","last_reported":1761668032,"current_range_meters":11600,"station_id":"ce4bgvp2rcd13ifvqcu0","pricing_plan_id":"cebpf4jnsgd1na2vs0mg"},{"bike_id":"c9004226-a3ea-426e-8334-57543e359f1e","system_id":"levelo_inurba_marseille","lat":43.21179,"lon":5.351156,"is_reserved":false,"is_disabled":false,"rental_uris":{"android":"levelo://app?vid=c9004226-a3ea-426e-8334-57543e359f1e","ios":"levelo://app?vid=c9004226-a3ea-426e-8334-57543e359f1e"},"vehicle_type_id":"4","last_reported":1761668032,"current_range_meters":12000,"station_id":"","pricing_plan_id":"cebpf4jnsgd1na2vs0mg"},{"bike_id":"8c0bf3cc-67c2-4542-b500-903b4b4d0db4","system_id":"levelo_inurba_marseille","lat":43.25001,"lon":5.3894,"is_reserved":false,"is_disabled":false,"rental_uris":{"android":"levelo://app?vid=8c0bf3cc-67c2-4542-b500-903b4b4d0db4","ios":"levelo://app?vid=8c0bf3cc-67c2-4542-b500-903b4b4d0db4"},"vehicle_type_id":"4","last_reported":1761668032,"current_range_meters":12000,"station_id":"ce4bhgp2rcd13ifvqfd0","pricing_plan_id":"cebpf4jnsgd1na2vs0mg"},{"bike_id":"d90ece79-92ac-497b-bf31-b3da6d836925","system_id":"levelo_inurba_marseille","lat":43.27432,"lon":5.39426,"is_reserved":false,"is_disabled":false,"rental_uris":{"android":"levelo://app?vid=d90ece79-92ac-497b-bf31-b3da6d836925","ios":"levelo://app?vid=d90ece79-92ac-497b-bf31-b3da6d836925"},"vehicle_type_id":"4","last_reported":1761668032,"current_range_meters":12000,"station_id":"ce4bhdp2rcd13ifvqf20","pricing_plan_id":"cebpf4jnsgd1na2vs0mg"},{"bike_id":"e1ca1064-3ac1-495e-b8d2-df8047d11b2e","system_id":"levelo_inurba_marseille","lat":43.28482,"lon":5.48399,"is_reserved":false,"is_disabled":false,"rental_uris":{"android":"levelo://app?vid=e1ca1064-3ac1-495e-b8d2-df8047d11b2e","ios":"levelo://app?vid=e1ca1064-3ac1-495e-b8d2-df8047d11b2e"},"vehicle_type_id":"4","last_reported":1761668032,"current_range_meters":12000,"station_id":"st_d3svhcjqgbts73a3dn0g","pricing_plan_id":"cebpf4jnsgd1na2vs0mg"},{"bike_id":"ce00e885-a781-4efe-acd7-bb2e5665d1e7","system_id":"levelo_inurba_marseille","lat":43.28409,"lon":5.37512,"is_reserved":false,"is_disabled":false,"rental_uris":{"android":"levelo://app?vid=ce00e885-a781-4efe-acd7-bb2e5665d1e7","ios":"levelo://app?vid=ce00e885-a781-4efe-acd7-bb2e5665d1e7"},"vehicle_type_id":"4","last_reported":1761668032,"current_range_meters":12400,"station_id":"ce4bh412rcd13ifvqds0","pricing_plan_id":"cebpf4jnsgd1na2vs0mg"},{"bike_id":"282bff4e-0a5b-4f3b-86ff-b2fb6d636ea9","system_id":"levelo_inurba_marseille","lat":43.31064,"lon":5.38358,"is_reserved":false,"is_disabled":false,"rental_uris":{"android":"levelo://app?vid=282bff4e-0a5b-4f3b-86ff-b2fb6d636ea9","ios":"levelo://app?vid=282bff4e-0a5b-4f3b-86ff-b2fb6d636ea9"},"vehicle_type_id":"4","last_reported":1761668032,"current_range_meters":12400,"station_id":"ce4bgv92rcd13ifvqcr0","pricing_plan_id":"cebpf4jnsgd1na2vs0mg"},{"bike_id":"d5ca831f-8041-403e-ada8-7b4196c3d5be","system_id":"levelo_inurba_marseille","lat":43.293714,"lon":5.379385,"is_reserved":false,"is_disabled":false,"rental_uris":{"android":"levelo://app?vid=d5ca831f-8041-403e-ada8-7b4196c3d5be","ios":"levelo://app?vid=d5ca831f-8041-403e-ada8-7b4196c3d5be"},"vehicle_type_id":"4","last_reported":1761668032,"current_range_meters":12400,"station_id":"","pricing_plan_id":"cebpf4jnsgd1na2vs0mg"},{"bike_id":"897d1025-cdde-48ec-9b73-6418bafdbbc5","system_id":"levelo_inurba_marseille","lat":43.28079,"lon":5.34765,"is_reserved":false,"is_disabled":false,"rental_uris":{"android":"levelo://app?vid=897d1025-cdde-48ec-9b73-6418bafdbbc5","ios":"levelo://app?vid=897d1025-cdde-48ec-9b73-6418bafdbbc5"},"vehicle_type_id":"4","last_reported":1761668032,"current_range_meters":12400,"station_id":"","pricing_plan_id":"cebpf4jnsgd1na2vs0mg"},{"bike_id":"dccef0b1-edb3-49b5-866c-43e10e5763cc","system_id":"levelo_inurba_marseille","lat":43.28835,"lon":5.43806,"is_reserved":false,"is_disabled":false,"rental_uris":{"android":"levelo://app?vid=dccef0b1-edb3-49b5-866c-43e10e5763cc","ios":"levelo://app?vid=dccef0b1-edb3-49b5-866c-43e10e5763cc"},"vehicle_type_id":"4","last_reported":1761668032,"current_range_meters":12800,"station_id":"","pricing_plan_id":"cebpf4jnsgd1na2vs0mg"},{"bike_id":"a60cb070-d57c-4cd2-8d5d-f1d4b549ff3a","system_id":"levelo_inurba_marseille","lat":43.32364,"lon":5.36751,"is_reserved":false,"is_disabled":false,"rental_uris":{"android":"levelo://app?vid=a60cb070-d57c-4cd2-8d5d-f1d4b549ff3a","ios":"levelo://app?vid=a60cb070-d57c-4cd2-8d5d-f1d4b549ff3a"},"vehicle_type_id":"4","last_reported":1761668032,"current_range_meters":12800,"station_id":"ce4bhsh2rcd13ifvqi2g","pricing_plan_id":"cebpf4jnsgd1na2vs0mg"},{"bike_id":"7cb76adc-4973-4342-82f8-781bafffa1d0","system_id":"levelo_inurba_marseille","lat":43.341416,"lon":5.409218,"is_reserved":false,"is_disabled":false,"rental_uris":{"android":"levelo://app?vid=7cb76adc-4973-4342-82f8-781bafffa1d0","ios":"levelo://app?vid=7cb76adc-4973-4342-82f8-781bafffa1d0"},"vehicle_type_id":"4","last_reported":1761668032,"current_range_meters":12800,"station_id":"ce4bhqh2rcd13ifvqhlg","pricing_plan_id":"cebpf4jnsgd1na2vs0mg"},{"bike_id":"1fd266e2-e6c9-4a7e-8908-3af2fd2d0233","system_id":"levelo_inurba_marseille","lat":43.23795,"lon":5.36409,"is_reserved":false,"is_disabled":false,"rental_uris":{"android":"levelo://app?vid=1fd266e2-e6c9-4a7e-8908-3af2fd2d0233","ios":"levelo://app?vid=1fd266e2-e6c9-4a7e-8908-3af2fd2d0233"},"vehicle_type_id":"4","last_reported":1761668032,"current_range_meters":12800,"station_id":"","pricing_plan_id":"cebpf4jnsgd1na2vs0mg"},{"bike_id":"33b740fd-d5ed-475e-bba1-89ecbd834e66","system_id":"levelo_inurba_marseille","lat":43.28497,"lon":5.38578,"is_reserved":false,"is_disabled":false,"rental_uris":{"android":"levelo://app?vid=33b740fd-d5ed-475e-bba1-89ecbd834e66","ios":"levelo://app?vid=33b740fd-d5ed-475e-bba1-89ecbd834e66"},"vehicle_type_id":"4","last_reported":1761668032,"current_range_meters":12800,"station_id":"ce4bh8p2rcd13ifvqeb0","pricing_plan_id":"cebpf4jnsgd1na2vs0mg"},{"bike_id":"68d872fa-8fcd-427e-a81c-cfb7044b72ae","system_id":"levelo_inurba_marseille","lat":43.27373,"lon":5.36262,"is_reserved":false,"is_disabled":false,"rental_uris":{"android":"levelo://app?vid=68d872fa-8fcd-427e-a81c-cfb7044b72ae","ios":"levelo://app?vid=68d872fa-8fcd-427e-a81c-cfb7044b72ae"},"vehicle_type_id":"4","last_reported":1761668032,"current_range_meters":13600,"station_id":"ce4bhbh2rcd13ifvqeo0","pricing_plan_id":"cebpf4jnsgd1na2vs0mg"},{"bike_id":"ccb70ea4-5e24-46b2-8aff-e9b7c8d79f84","system_id":"levelo_inurba_marseille","lat":43.24668,"lon":5.38168,"is_reserved":false,"is_disabled":false,"rental_uris":{"android":"levelo://app?vid=ccb70ea4-5e24-46b2-8aff-e9b7c8d79f84","ios":"levelo://app?vid=ccb70ea4-5e24-46b2-8aff-e9b7c8d79f84"},"vehicle_type_id":"4","last_reported":1761668032,"current_range_meters":13600,"station_id":"ce4bhih2rcd13ifvqfr0","pricing_plan_id":"cebpf4jnsgd1na2vs0mg"},{"bike_id":"db88a8a5-5637-4384-a6d7-41d8f099747a","system_id":"levelo_inurba_marseille","lat":43.312379,"lon":5.368484,"is_reserved":false,"is_disabled":false,"rental_uris":{"android":"levelo://app?vid=db88a8a5-5637-4384-a6d7-41d8f099747a","ios":"levelo://app?vid=db88a8a5-5637-4384-a6d7-41d8f099747a"},"vehicle_type_id":"4","last_reported":1761668032,"current_range_meters":13600,"station_id":"ce4bgr92rcd13ifvqc6g","pricing_plan_id":"cebpf4jnsgd1na2vs0mg"},{"bike_id":"dced2bcc-e95f-44ce-b7d8-7bb47def612a","system_id":"levelo_inurba_marseille","lat":43.230506,"lon":5.355481,"is_reserved":false,"is_disabled":false,"rental_uris":{"android":"levelo://app?vid=dced2bcc-e95f-44ce-b7d8-7bb47def612a","ios":"levelo://app?vid=dced2bcc-e95f-44ce-b7d8-7bb47def612a"},"vehicle_type_id":"4","last_reported":1761668032,"current_range_meters":13600,"station_id":"cpo3342slgdg3j2ifvpg","pricing_plan_id":"cebpf4jnsgd1na2vs0mg"},{"bike_id":"1a74c364-87c0-44f0-8acc-1f1a0e9adec5","system_id":"levelo_inurba_marseille","lat":43.24384,"lon":5.37052,"is_reserved":false,"is_disabled":false,"rental_uris":{"android":"levelo://app?vid=1a74c364-87c0-44f0-8acc-1f1a0e9adec5","ios":"levelo://app?vid=1a74c364-87c0-44f0-8acc-1f1a0e9adec5"},"vehicle_type_id":"4","last_reported":1761668032,"current_range_meters":13600,"station_id":"ce4bhhh2rcd13ifvqfk0","pricing_plan_id":"cebpf4jnsgd1na2vs0mg"},{"bike_id":"49ed0d39-51fe-4cd4-8527-50556baa8749","system_id":"levelo_inurba_marseille","lat":43.22531,"lon":5.348321,"is_reserved":false,"is_disabled":false,"rental_uris":{"android":"levelo://app?vid=49ed0d39-51fe-4cd4-8527-50556baa8749","ios":"levelo://app?vid=49ed0d39-51fe-4cd4-8527-50556baa8749"},"vehicle_type_id":"4","last_reported":1761668032,"current_range_meters":13600,"station_id":"","pricing_plan_id":"cebpf4jnsgd1na2vs0mg"},{"bike_id":"78fe263c-84db-4b4e-b9ac-b068d054132d","system_id":"levelo_inurba_marseille","lat":43.24555,"lon":5.39526,"is_reserved":false,"is_disabled":false,"rental_uris":{"android":"levelo://app?vid=78fe263c-84db-4b4e-b9ac-b068d054132d","ios":"levelo://app?vid=78fe263c-84db-4b4e-b9ac-b068d054132d"},"vehicle_type_id":"4","last_reported":1761668032,"current_range_meters":13600,"station_id":"ce4bhlp2rcd13ifvqgjg","pricing_plan_id":"cebpf4jnsgd1na2vs0mg"},{"bike_id":"d2ce14a1-e9f5-407b-a0c3-2e69d0a16a79","system_id":"levelo_inurba_marseille","lat":43.28228,"lon":5.39051,"is_reserved":false,"is_disabled":true,"rental_uris":{"android":"levelo://app?vid=d2ce14a1-e9f5-407b-a0c3-2e69d0a16a79","ios":"levelo://app?vid=d2ce14a1-e9f5-407b-a0c3-2e69d0a16a79"},"vehicle_type_id":"4","last_reported":1761668032,"current_range_meters":14000,"station_id":"ce4bhn92rcd13ifvqgsg","pricing_plan_id":"cebpf4jnsgd1na2vs0mg"},{"bike_id":"e68f19ec-6316-4a47-919b-a01164633315","system_id":"levelo_inurba_marseille","lat":43.2509,"lon":5.39511,"is_reserved":false,"is_disabled":true,"rental_uris":{"android":"levelo://app?vid=e68f19ec-6316-4a47-919b-a01164633315","ios":"levelo://app?vid=e68f19ec-6316-4a47-919b-a01164633315"},"vehicle_type_id":"4","last_reported":1761668032,"current_range_meters":14000,"station_id":"ce4bhm12rcd13ifvqgkg","pricing_plan_id":"cebpf4jnsgd1na2vs0mg"},{"bike_id":"dc876b98-b7f0-44a2-9af0-32de42f1cfba","system_id":"levelo_inurba_marseille","lat":43.29548,"lon":5.38537,"is_reserved":false,"is_disabled":false,"rental_uris":{"android":"levelo://app?vid=dc876b98-b7f0-44a2-9af0-32de42f1cfba","ios":"levelo://app?vid=dc876b98-b7f0-44a2-9af0-32de42f1cfba"},"vehicle_type_id":"4","last_reported":1761668032,"current_range_meters":14000,"station_id":"ce4bgih2rcd13ifvqba0","pricing_plan_id":"cebpf4jnsgd1na2vs0mg"},{"bike_id":"94e6b0aa-f8c9-477e-8091-c3a189e0f238","system_id":"levelo_inurba_marseille","lat":43.29666,"lon":5.38129,"is_reserved":false,"is_disabled":false,"rental_uris":{"android":"levelo://app?vid=94e6b0aa-f8c9-477e-8091-c3a189e0f238","ios":"levelo://app?vid=94e6b0aa-f8c9-477e-8091-c3a189e0f238"},"vehicle_type_id":"4","last_reported":1761668032,"current_range_meters":14400,"station_id":"","pricing_plan_id":"cebpf4jnsgd1na2vs0mg"},{"bike_id":"f68a18ee-6e48-48c5-9f27-936e422ff9c4","system_id":"levelo_inurba_marseille","lat":43.3073,"lon":5.42452,"is_reserved":false,"is_disabled":false,"rental_uris":{"android":"levelo://app?vid=f68a18ee-6e48-48c5-9f27-936e422ff9c4","ios":"levelo://app?vid=f68a18ee-6e48-48c5-9f27-936e422ff9c4"},"vehicle_type_id":"4","last_reported":1761668032,"current_range_meters":14400,"station_id":"st_cvj6ca6bvosntc0bfgr0","pricing_plan_id":"cebpf4jnsgd1na2vs0mg"},{"bike_id":"80849f5e-5bcb-4d08-a490-5c661f42fd1a","system_id":"levelo_inurba_marseille","lat":43.30417,"lon":5.41283,"is_reserved":false,"is_disabled":false,"rental_uris":{"android":"levelo://app?vid=80849f5e-5bcb-4d08-a490-5c661f42fd1a","ios":"levelo://app?vid=80849f5e-5bcb-4d08-a490-5c661f42fd1a"},"vehicle_type_id":"4","last_reported":1761668032,"current_range_meters":14400,"station_id":"ce4bhop2rcd13ifvqh8g","pricing_plan_id":"cebpf4jnsgd1na2vs0mg"},{"bike_id":"2be3bf9b-39f4-4c37-8c01-9e9bcabe1c53","system_id":"levelo_inurba_marseille","lat":43.33741,"lon":5.37444,"is_reserved":false,"is_disabled":false,"rental_uris":{"android":"levelo://app?vid=2be3bf9b-39f4-4c37-8c01-9e9bcabe1c53","ios":"levelo://app?vid=2be3bf9b-39f4-4c37-8c01-9e9bcabe1c53"},"vehicle_type_id":"4","last_reported":1761668032,"current_range_meters":14400,"station_id":"","pricing_plan_id":"cebpf4jnsgd1na2vs0mg"},{"bike_id":"38f4ce6c-8abc-473a-8637-1d421f83c89c","system_id":"levelo_inurba_marseille","lat":43.30554,"lon":5.36543,"is_reserved":false,"is_disabled":false,"rental_uris":{"android":"levelo://app?vid=38f4ce6c-8abc-473a-8637-1d421f83c89c","ios":"levelo://app?vid=38f4ce6c-8abc-473a-8637-1d421f83c89c"},"vehicle_type_id":"4","last_reported":1761668032,"current_range_meters":14400,"station_id":"ce4bgs12rcd13ifvqcag","pricing_plan_id":"cebpf4jnsgd1na2vs0mg"},{"bike_id":"80346aa0-5c04-4722-83b8-d65c82a4fba5","system_id":"levelo_inurba_marseille","lat":43.26561,"lon":5.37284,"is_reserved":false,"is_disabled":false,"rental_uris":{"android":"levelo://app?vid=80346aa0-5c04-4722-83b8-d65c82a4fba5","ios":"levelo://app?vid=80346aa0-5c04-4722-83b8-d65c82a4fba5"},"vehicle_type_id":"4","last_reported":1761668032,"current_range_meters":14400,"station_id":"ce4bhg12rcd13ifvqf70","pricing_plan_id":"cebpf4jnsgd1na2vs0mg"},{"bike_id":"441ed056-5f8f-4613-8ac7-89f49c1aae14","system_id":"levelo_inurba_marseille","lat":43.29304,"lon":5.37166,"is_reserved":false,"is_disabled":false,"rental_uris":{"android":"levelo://app?vid=441ed056-5f8f-4613-8ac7-89f49c1aae14","ios":"levelo://app?vid=441ed056-5f8f-4613-8ac7-89f49c1aae14"},"vehicle_type_id":"4","last_reported":1761668032,"current_range_meters":14800,"station_id":"ce4bgh92rcd13ifvqb40","pricing_plan_id":"cebpf4jnsgd1na2vs0mg"},{"bike_id":"f202aef9-db9c-4b5f-b19b-62f40b9a9dba","system_id":"levelo_inurba_marseille","lat":43.24064,"lon":5.37767,"is_reserved":false,"is_disabled":false,"rental_uris":{"android":"levelo://app?vid=f202aef9-db9c-4b5f-b19b-62f40b9a9dba","ios":"levelo://app?vid=f202aef9-db9c-4b5f-b19b-62f40b9a9dba"},"vehicle_type_id":"4","last_reported":1761668032,"current_range_meters":14800,"station_id":"ce4bhnp2rcd13ifvqgvg","pricing_plan_id":"cebpf4jnsgd1na2vs0mg"},{"bike_id":"ae8ebe94-fc0f-4409-8f77-39eb5c613a67","system_id":"levelo_inurba_marseille","lat":43.337444,"lon":5.374475,"is_reserved":false,"is_disabled":false,"rental_uris":{"android":"levelo://app?vid=ae8ebe94-fc0f-4409-8f77-39eb5c613a67","ios":"levelo://app?vid=ae8ebe94-fc0f-4409-8f77-39eb5c613a67"},"vehicle_type_id":"4","last_reported":1761668032,"current_range_meters":15200,"station_id":"","pricing_plan_id":"cebpf4jnsgd1na2vs0mg"},{"bike_id":"5d74be5f-47fb-4947-ae9c-35eb68c73515","system_id":"levelo_inurba_marseille","lat":43.27308,"lon":5.39061,"is_reserved":false,"is_disabled":false,"rental_uris":{"android":"levelo://app?vid=5d74be5f-47fb-4947-ae9c-35eb68c73515","ios":"levelo://app?vid=5d74be5f-47fb-4947-ae9c-35eb68c73515"},"vehicle_type_id":"4","last_reported":1761668032,"current_range_meters":15200,"station_id":"ce4bhgp2rcd13ifvqfe0","pricing_plan_id":"cebpf4jnsgd1na2vs0mg"},{"bike_id":"8d4b1e4f-d40a-4cd5-9e2d-a04eedf91831","system_id":"levelo_inurba_marseille","lat":43.30788,"lon":5.37656,"is_reserved":false,"is_disabled":false,"rental_uris":{"android":"levelo://app?vid=8d4b1e4f-d40a-4cd5-9e2d-a04eedf91831","ios":"levelo://app?vid=8d4b1e4f-d40a-4cd5-9e2d-a04eedf91831"},"vehicle_type_id":"4","last_reported":1761668032,"current_range_meters":15200,"station_id":"ce4bgv92rcd13ifvqcq0","pricing_plan_id":"cebpf4jnsgd1na2vs0mg"},{"bike_id":"32d7653e-b033-4183-b4c0-f44169bb9067","system_id":"levelo_inurba_marseille","lat":43.32743,"lon":5.39213,"is_reserved":false,"is_disabled":false,"rental_uris":{"android":"levelo://app?vid=32d7653e-b033-4183-b4c0-f44169bb9067","ios":"levelo://app?vid=32d7653e-b033-4183-b4c0-f44169bb9067"},"vehicle_type_id":"4","last_reported":1761668032,"current_range_meters":15200,"station_id":"","pricing_plan_id":"cebpf4jnsgd1na2vs0mg"},{"bike_id":"452e8e6e-6805-4d8b-9b13-79df7a637126","system_id":"levelo_inurba_marseille","lat":43.24406,"lon":5.3706,"is_reserved":false,"is_disabled":false,"rental_uris":{"android":"levelo://app?vid=452e8e6e-6805-4d8b-9b13-79df7a637126","ios":"levelo://app?vid=452e8e6e-6805-4d8b-9b13-79df7a637126"},"vehicle_type_id":"4","last_reported":1761668032,"current_range_meters":15200,"station_id":"ce4bhhh2rcd13ifvqfk0","pricing_plan_id":"cebpf4jnsgd1na2vs0mg"},{"bike_id":"d2c083a8-9738-465f-b58d-99b565c32cef","system_id":"levelo_inurba_marseille","lat":43.26061,"lon":5.39399,"is_reserved":false,"is_disabled":false,"rental_uris":{"android":"levelo://app?vid=d2c083a8-9738-465f-b58d-99b565c32cef","ios":"levelo://app?vid=d2c083a8-9738-465f-b58d-99b565c32cef"},"vehicle_type_id":"4","last_reported":1761668032,"current_range_meters":15200,"station_id":"ce4bhh92rcd13ifvqfj0","pricing_plan_id":"cebpf4jnsgd1na2vs0mg"},{"bike_id":"6858b7db-609a-4270-bc2d-a1aeaedf6cb2","system_id":"levelo_inurba_marseille","lat":43.25016,"lon":5.38931,"is_reserved":false,"is_disabled":false,"rental_uris":{"android":"levelo://app?vid=6858b7db-609a-4270-bc2d-a1aeaedf6cb2","ios":"levelo://app?vid=6858b7db-609a-4270-bc2d-a1aeaedf6cb2"},"vehicle_type_id":"4","last_reported":1761668032,"current_range_meters":16000,"station_id":"ce4bhgp2rcd13ifvqfd0","pricing_plan_id":"cebpf4jnsgd1na2vs0mg"},{"bike_id":"cd0c84ba-521c-4dab-84db-462f9bd1c17f","system_id":"levelo_inurba_marseille","lat":43.28418,"lon":5.349821,"is_reserved":false,"is_disabled":false,"rental_uris":{"android":"levelo://app?vid=cd0c84ba-521c-4dab-84db-462f9bd1c17f","ios":"levelo://app?vid=cd0c84ba-521c-4dab-84db-462f9bd1c17f"},"vehicle_type_id":"4","last_reported":1761668032,"current_range_meters":16000,"station_id":"ce4bhbh2rcd13ifvqepg","pricing_plan_id":"cebpf4jnsgd1na2vs0mg"},{"bike_id":"a2c44ae7-52cc-4b80-a772-211a26fa85b1","system_id":"levelo_inurba_marseille","lat":43.30209,"lon":5.36598,"is_reserved":false,"is_disabled":true,"rental_uris":{"android":"levelo://app?vid=a2c44ae7-52cc-4b80-a772-211a26fa85b1","ios":"levelo://app?vid=a2c44ae7-52cc-4b80-a772-211a26fa85b1"},"vehicle_type_id":"4","last_reported":1761668032,"current_range_meters":16400,"station_id":"ce4bgrh2rcd13ifvqc8g","pricing_plan_id":"cebpf4jnsgd1na2vs0mg"},{"bike_id":"386a05c6-8be0-494d-b022-0d5fb7a107e7","system_id":"levelo_inurba_marseille","lat":43.29051,"lon":5.37568,"is_reserved":false,"is_disabled":false,"rental_uris":{"android":"levelo://app?vid=386a05c6-8be0-494d-b022-0d5fb7a107e7","ios":"levelo://app?vid=386a05c6-8be0-494d-b022-0d5fb7a107e7"},"vehicle_type_id":"4","last_reported":1761668032,"current_range_meters":16400,"station_id":"ce4bh692rcd13ifvqe90","pricing_plan_id":"cebpf4jnsgd1na2vs0mg"},{"bike_id":"52a383e0-9cb7-46e8-b717-9e8c22e6edcb","system_id":"levelo_inurba_marseille","lat":43.23965,"lon":5.36627,"is_reserved":false,"is_disabled":false,"rental_uris":{"android":"levelo://app?vid=52a383e0-9cb7-46e8-b717-9e8c22e6edcb","ios":"levelo://app?vid=52a383e0-9cb7-46e8-b717-9e8c22e6edcb"},"vehicle_type_id":"4","last_reported":1761668032,"current_range_meters":16400,"station_id":"ce4bhi12rcd13ifvqfp0","pricing_plan_id":"cebpf4jnsgd1na2vs0mg"},{"bike_id":"fc1e6b3b-55f5-4a86-8af8-887497ea581d","system_id":"levelo_inurba_marseille","lat":43.314858,"lon":5.373145,"is_reserved":false,"is_disabled":false,"rental_uris":{"android":"levelo://app?vid=fc1e6b3b-55f5-4a86-8af8-887497ea581d","ios":"levelo://app?vid=fc1e6b3b-55f5-4a86-8af8-887497ea581d"},"vehicle_type_id":"4","last_reported":1761668032,"current_range_meters":16400,"station_id":"ce4bgv12rcd13ifvqcp0","pricing_plan_id":"cebpf4jnsgd1na2vs0mg"},{"bike_id":"02dd205b-e97c-4104-9683-066d2523fd3f","system_id":"levelo_inurba_marseille","lat":43.23072,"lon":5.3552,"is_reserved":false,"is_disabled":false,"rental_uris":{"android":"levelo://app?vid=02dd205b-e97c-4104-9683-066d2523fd3f","ios":"levelo://app?vid=02dd205b-e97c-4104-9683-066d2523fd3f"},"vehicle_type_id":"4","last_reported":1761668032,"current_range_meters":16400,"station_id":"cpo3342slgdg3j2ifvpg","pricing_plan_id":"cebpf4jnsgd1na2vs0mg"},{"bike_id":"cc7385f8-6b09-464f-8b35-f3131dac1f5c","system_id":"levelo_inurba_marseille","lat":43.31279,"lon":5.40166,"is_reserved":false,"is_disabled":false,"rental_uris":{"android":"levelo://app?vid=cc7385f8-6b09-464f-8b35-f3131dac1f5c","ios":"levelo://app?vid=cc7385f8-6b09-464f-8b35-f3131dac1f5c"},"vehicle_type_id":"4","last_reported":1761668032,"current_range_meters":16800,"station_id":"ce4bh092rcd13ifvqd30","pricing_plan_id":"cebpf4jnsgd1na2vs0mg"},{"bike_id":"aa0e7e4b-f890-4f53-a40a-615d9f77115a","system_id":"levelo_inurba_marseille","lat":43.321,"lon":5.36787,"is_reserved":false,"is_disabled":false,"rental_uris":{"android":"levelo://app?vid=aa0e7e4b-f890-4f53-a40a-615d9f77115a","ios":"levelo://app?vid=aa0e7e4b-f890-4f53-a40a-615d9f77115a"},"vehicle_type_id":"4","last_reported":1761668032,"current_range_meters":16800,"station_id":"ce4bhrh2rcd13ifvqhug","pricing_plan_id":"cebpf4jnsgd1na2vs0mg"},{"bike_id":"7e148845-67f2-4d8d-9309-5cef2783847a","system_id":"levelo_inurba_marseille","lat":43.29036,"lon":5.37562,"is_reserved":false,"is_disabled":false,"rental_uris":{"android":"levelo://app?vid=7e148845-67f2-4d8d-9309-5cef2783847a","ios":"levelo://app?vid=7e148845-67f2-4d8d-9309-5cef2783847a"},"vehicle_type_id":"4","last_reported":1761668032,"current_range_meters":16800,"station_id":"ce4bh692rcd13ifvqe90","pricing_plan_id":"cebpf4jnsgd1na2vs0mg"},{"bike_id":"6ef3f85c-a0aa-4e6e-a3a9-7cf377862446","system_id":"levelo_inurba_marseille","lat":43.30546,"lon":5.36536,"is_reserved":false,"is_disabled":false,"rental_uris":{"android":"levelo://app?vid=6ef3f85c-a0aa-4e6e-a3a9-7cf377862446","ios":"levelo://app?vid=6ef3f85c-a0aa-4e6e-a3a9-7cf377862446"},"vehicle_type_id":"4","last_reported":1761668032,"current_range_meters":16800,"station_id":"ce4bgs12rcd13ifvqcag","pricing_plan_id":"cebpf4jnsgd1na2vs0mg"},{"bike_id":"fc221976-0fe3-439a-a4a3-95efbc314c67","system_id":"levelo_inurba_marseille","lat":43.257304,"lon":5.410505,"is_reserved":false,"is_disabled":false,"rental_uris":{"android":"levelo://app?vid=fc221976-0fe3-439a-a4a3-95efbc314c67","ios":"levelo://app?vid=fc221976-0fe3-439a-a4a3-95efbc314c67"},"vehicle_type_id":"4","last_reported":1761668032,"current_range_meters":16800,"station_id":"ce4bhkp2rcd13ifvqgd0","pricing_plan_id":"cebpf4jnsgd1na2vs0mg"},{"bike_id":"33666d8d-4099-459b-a852-a2825831cca3","system_id":"levelo_inurba_marseille","lat":43.28615,"lon":5.37064,"is_reserved":false,"is_disabled":false,"rental_uris":{"android":"levelo://app?vid=33666d8d-4099-459b-a852-a2825831cca3","ios":"levelo://app?vid=33666d8d-4099-459b-a852-a2825831cca3"},"vehicle_type_id":"4","last_reported":1761668032,"current_range_meters":16800,"station_id":"ce4bht12rcd13ifvqi60","pricing_plan_id":"cebpf4jnsgd1na2vs0mg"},{"bike_id":"99373ff4-c6ad-47a3-8ec0-acdae6a78daf","system_id":"levelo_inurba_marseille","lat":43.30552,"lon":5.3653,"is_reserved":false,"is_disabled":false,"rental_uris":{"android":"levelo://app?vid=99373ff4-c6ad-47a3-8ec0-acdae6a78daf","ios":"levelo://app?vid=99373ff4-c6ad-47a3-8ec0-acdae6a78daf"},"vehicle_type_id":"4","last_reported":1761668032,"current_range_meters":16800,"station_id":"ce4bgs12rcd13ifvqcag","pricing_plan_id":"cebpf4jnsgd1na2vs0mg"},{"bike_id":"81a1b6fb-1f88-4713-82cd-8758a38cffd9","system_id":"levelo_inurba_marseille","lat":43.23057,"lon":5.35503,"is_reserved":false,"is_disabled":false,"rental_uris":{"android":"levelo://app?vid=81a1b6fb-1f88-4713-82cd-8758a38cffd9","ios":"levelo://app?vid=81a1b6fb-1f88-4713-82cd-8758a38cffd9"},"vehicle_type_id":"4","last_reported":1761668032,"current_range_meters":16800,"station_id":"cpo3342slgdg3j2ifvpg","pricing_plan_id":"cebpf4jnsgd1na2vs0mg"},{"bike_id":"d44bf987-57bb-4c17-b21d-17eaf7a1c144","system_id":"levelo_inurba_marseille","lat":43.280811,"lon":5.396641,"is_reserved":false,"is_disabled":false,"rental_uris":{"android":"levelo://app?vid=d44bf987-57bb-4c17-b21d-17eaf7a1c144","ios":"levelo://app?vid=d44bf987-57bb-4c17-b21d-17eaf7a1c144"},"vehicle_type_id":"4","last_reported":1761668032,"current_range_meters":17200,"station_id":"ce4bho12rcd13ifvqh2g","pricing_plan_id":"cebpf4jnsgd1na2vs0mg"},{"bike_id":"1ff14011-1bb3-49a1-9941-97d38a0c81be","system_id":"levelo_inurba_marseille","lat":43.25088,"lon":5.3954,"is_reserved":false,"is_disabled":false,"rental_uris":{"android":"levelo://app?vid=1ff14011-1bb3-49a1-9941-97d38a0c81be","ios":"levelo://app?vid=1ff14011-1bb3-49a1-9941-97d38a0c81be"},"vehicle_type_id":"4","last_reported":1761668032,"current_range_meters":17200,"station_id":"ce4bhm12rcd13ifvqgkg","pricing_plan_id":"cebpf4jnsgd1na2vs0mg"},{"bike_id":"881fd72b-4460-442b-9a56-7650599e27b5","system_id":"levelo_inurba_marseille","lat":43.32079,"lon":5.36858,"is_reserved":false,"is_disabled":false,"rental_uris":{"android":"levelo://app?vid=881fd72b-4460-442b-9a56-7650599e27b5","ios":"levelo://app?vid=881fd72b-4460-442b-9a56-7650599e27b5"},"vehicle_type_id":"4","last_reported":1761668032,"current_range_meters":17200,"station_id":"","pricing_plan_id":"cebpf4jnsgd1na2vs0mg"},{"bike_id":"8743deb1-3e1b-4fe6-ab63-b75dc0a57f17","system_id":"levelo_inurba_marseille","lat":43.230626,"lon":5.35504,"is_reserved":false,"is_disabled":false,"rental_uris":{"android":"levelo://app?vid=8743deb1-3e1b-4fe6-ab63-b75dc0a57f17","ios":"levelo://app?vid=8743deb1-3e1b-4fe6-ab63-b75dc0a57f17"},"vehicle_type_id":"4","last_reported":1761668032,"current_range_meters":17200,"station_id":"cpo3342slgdg3j2ifvpg","pricing_plan_id":"cebpf4jnsgd1na2vs0mg"},{"bike_id":"facb2444-b910-4eae-bdfa-be231ba2cd33","system_id":"levelo_inurba_marseille","lat":43.22926,"lon":5.35384,"is_reserved":false,"is_disabled":false,"rental_uris":{"android":"levelo://app?vid=facb2444-b910-4eae-bdfa-be231ba2cd33","ios":"levelo://app?vid=facb2444-b910-4eae-bdfa-be231ba2cd33"},"vehicle_type_id":"4","last_reported":1761668032,"current_range_meters":17600,"station_id":"cpo3532slgdg3j2ikp40","pricing_plan_id":"cebpf4jnsgd1na2vs0mg"},{"bike_id":"f8775847-5677-43f2-bba9-2bd36276a734","system_id":"levelo_inurba_marseille","lat":43.2583,"lon":5.39434,"is_reserved":false,"is_disabled":false,"rental_uris":{"android":"levelo://app?vid=f8775847-5677-43f2-bba9-2bd36276a734","ios":"levelo://app?vid=f8775847-5677-43f2-bba9-2bd36276a734"},"vehicle_type_id":"4","last_reported":1761668032,"current_range_meters":17600,"station_id":"ce4bhip2rcd13ifvqft0","pricing_plan_id":"cebpf4jnsgd1na2vs0mg"},{"bike_id":"94c522a1-d7f5-467e-b78c-76f81390d32b","system_id":"levelo_inurba_marseille","lat":43.27374,"lon":5.36268,"is_reserved":false,"is_disabled":false,"rental_uris":{"android":"levelo://app?vid=94c522a1-d7f5-467e-b78c-76f81390d32b","ios":"levelo://app?vid=94c522a1-d7f5-467e-b78c-76f81390d32b"},"vehicle_type_id":"4","last_reported":1761668032,"current_range_meters":17600,"station_id":"ce4bhbh2rcd13ifvqeo0","pricing_plan_id":"cebpf4jnsgd1na2vs0mg"},{"bike_id":"b5000056-7468-48ff-9c8a-5eaccd07efc4","system_id":"levelo_inurba_marseille","lat":43.21193,"lon":5.35085,"is_reserved":false,"is_disabled":false,"rental_uris":{"android":"levelo://app?vid=b5000056-7468-48ff-9c8a-5eaccd07efc4","ios":"levelo://app?vid=b5000056-7468-48ff-9c8a-5eaccd07efc4"},"vehicle_type_id":"4","last_reported":1761668032,"current_range_meters":17600,"station_id":"st_cvj6sg6p6f1abm77japg","pricing_plan_id":"cebpf4jnsgd1na2vs0mg"},{"bike_id":"6ce8387a-7217-4885-b90c-41215d188545","system_id":"levelo_inurba_marseille","lat":43.28863,"lon":5.40916,"is_reserved":false,"is_disabled":false,"rental_uris":{"android":"levelo://app?vid=6ce8387a-7217-4885-b90c-41215d188545","ios":"levelo://app?vid=6ce8387a-7217-4885-b90c-41215d188545"},"vehicle_type_id":"4","last_reported":1761668032,"current_range_meters":17600,"station_id":"","pricing_plan_id":"cebpf4jnsgd1na2vs0mg"},{"bike_id":"86f7dfa3-57ce-4d83-9aa7-c8e40dd053a1","system_id":"levelo_inurba_marseille","lat":43.28604,"lon":5.35144,"is_reserved":false,"is_disabled":false,"rental_uris":{"android":"levelo://app?vid=86f7dfa3-57ce-4d83-9aa7-c8e40dd053a1","ios":"levelo://app?vid=86f7dfa3-57ce-4d83-9aa7-c8e40dd053a1"},"vehicle_type_id":"4","last_reported":1761668032,"current_range_meters":18000,"station_id":"ce4bhch2rcd13ifvqeug","pricing_plan_id":"cebpf4jnsgd1na2vs0mg"},{"bike_id":"82c3d2c8-f0bf-446e-b125-018f07998329","system_id":"levelo_inurba_marseille","lat":43.32748,"lon":5.40101,"is_reserved":false,"is_disabled":false,"rental_uris":{"android":"levelo://app?vid=82c3d2c8-f0bf-446e-b125-018f07998329","ios":"levelo://app?vid=82c3d2c8-f0bf-446e-b125-018f07998329"},"vehicle_type_id":"4","last_reported":1761668032,"current_range_meters":18000,"station_id":"","pricing_plan_id":"cebpf4jnsgd1na2vs0mg"},{"bike_id":"36a59c95-7ce2-492a-b601-d8cca88bf75d","system_id":"levelo_inurba_marseille","lat":43.28614,"lon":5.35101,"is_reserved":false,"is_disabled":false,"rental_uris":{"android":"levelo://app?vid=36a59c95-7ce2-492a-b601-d8cca88bf75d","ios":"levelo://app?vid=36a59c95-7ce2-492a-b601-d8cca88bf75d"},"vehicle_type_id":"4","last_reported":1761668032,"current_range_meters":18000,"station_id":"ce4bhch2rcd13ifvqeug","pricing_plan_id":"cebpf4jnsgd1na2vs0mg"},{"bike_id":"6d6fb0ea-dbcf-4b2c-a400-75becde17aa4","system_id":"levelo_inurba_marseille","lat":43.21744,"lon":5.34613,"is_reserved":false,"is_disabled":false,"rental_uris":{"android":"levelo://app?vid=6d6fb0ea-dbcf-4b2c-a400-75becde17aa4","ios":"levelo://app?vid=6d6fb0ea-dbcf-4b2c-a400-75becde17aa4"},"vehicle_type_id":"4","last_reported":1761668032,"current_range_meters":18000,"station_id":"st_cvj6r9ubvosntc0bgbag","pricing_plan_id":"cebpf4jnsgd1na2vs0mg"},{"bike_id":"7fef89e4-5290-4736-9233-ce52ef4dc06e","system_id":"levelo_inurba_marseille","lat":43.27383,"lon":5.36263,"is_reserved":false,"is_disabled":false,"rental_uris":{"android":"levelo://app?vid=7fef89e4-5290-4736-9233-ce52ef4dc06e","ios":"levelo://app?vid=7fef89e4-5290-4736-9233-ce52ef4dc06e"},"vehicle_type_id":"4","last_reported":1761668032,"current_range_meters":18000,"station_id":"ce4bhbh2rcd13ifvqeo0","pricing_plan_id":"cebpf4jnsgd1na2vs0mg"},{"bike_id":"96b93a83-82f2-4d31-acb8-139fbce4500d","system_id":"levelo_inurba_marseille","lat":43.229281,"lon":5.353914,"is_reserved":false,"is_disabled":false,"rental_uris":{"android":"levelo://app?vid=96b93a83-82f2-4d31-acb8-139fbce4500d","ios":"levelo://app?vid=96b93a83-82f2-4d31-acb8-139fbce4500d"},"vehicle_type_id":"4","last_reported":1761668032,"current_range_meters":18000,"station_id":"cpo3532slgdg3j2ikp40","pricing_plan_id":"cebpf4jnsgd1na2vs0mg"},{"bike_id":"09884e49-b43c-4ec9-85a5-6243e16f6787","system_id":"levelo_inurba_marseille","lat":43.30524,"lon":5.3654,"is_reserved":false,"is_disabled":false,"rental_uris":{"android":"levelo://app?vid=09884e49-b43c-4ec9-85a5-6243e16f6787","ios":"levelo://app?vid=09884e49-b43c-4ec9-85a5-6243e16f6787"},"vehicle_type_id":"4","last_reported":1761668032,"current_range_meters":18800,"station_id":"ce4bgs12rcd13ifvqcag","pricing_plan_id":"cebpf4jnsgd1na2vs0mg"},{"bike_id":"941eca81-61b6-4376-acbb-773a2fc9f625","system_id":"levelo_inurba_marseille","lat":43.320936,"lon":5.367755,"is_reserved":false,"is_disabled":false,"rental_uris":{"android":"levelo://app?vid=941eca81-61b6-4376-acbb-773a2fc9f625","ios":"levelo://app?vid=941eca81-61b6-4376-acbb-773a2fc9f625"},"vehicle_type_id":"4","last_reported":1761668032,"current_range_meters":18800,"station_id":"ce4bhrh2rcd13ifvqhug","pricing_plan_id":"cebpf4jnsgd1na2vs0mg"},{"bike_id":"8e2dcd31-6a9c-4b7f-a366-5e2640173d3c","system_id":"levelo_inurba_marseille","lat":43.22928,"lon":5.35391,"is_reserved":false,"is_disabled":false,"rental_uris":{"android":"levelo://app?vid=8e2dcd31-6a9c-4b7f-a366-5e2640173d3c","ios":"levelo://app?vid=8e2dcd31-6a9c-4b7f-a366-5e2640173d3c"},"vehicle_type_id":"4","last_reported":1761668032,"current_range_meters":18800,"station_id":"cpo3532slgdg3j2ikp40","pricing_plan_id":"cebpf4jnsgd1na2vs0mg"},{"bike_id":"5f514316-2d25-4808-85d4-09d01d18f7c4","system_id":"levelo_inurba_marseille","lat":43.24808,"lon":5.37461,"is_reserved":false,"is_disabled":false,"rental_uris":{"android":"levelo://app?vid=5f514316-2d25-4808-85d4-09d01d18f7c4","ios":"levelo://app?vid=5f514316-2d25-4808-85d4-09d01d18f7c4"},"vehicle_type_id":"4","last_reported":1761668032,"current_range_meters":18800,"station_id":"ce4bhgh2rcd13ifvqfb0","pricing_plan_id":"cebpf4jnsgd1na2vs0mg"},{"bike_id":"68fb8eb8-a4bc-4ad1-8fdc-7879d671900c","system_id":"levelo_inurba_marseille","lat":43.28425,"lon":5.35004,"is_reserved":false,"is_disabled":false,"rental_uris":{"android":"levelo://app?vid=68fb8eb8-a4bc-4ad1-8fdc-7879d671900c","ios":"levelo://app?vid=68fb8eb8-a4bc-4ad1-8fdc-7879d671900c"},"vehicle_type_id":"4","last_reported":1761668032,"current_range_meters":18800,"station_id":"ce4bhbh2rcd13ifvqepg","pricing_plan_id":"cebpf4jnsgd1na2vs0mg"},{"bike_id":"b98bbba9-f45f-40d2-a555-0a19da3ec561","system_id":"levelo_inurba_marseille","lat":43.29058,"lon":5.3716,"is_reserved":false,"is_disabled":false,"rental_uris":{"android":"levelo://app?vid=b98bbba9-f45f-40d2-a555-0a19da3ec561","ios":"levelo://app?vid=b98bbba9-f45f-40d2-a555-0a19da3ec561"},"vehicle_type_id":"4","last_reported":1761668032,"current_range_meters":18800,"station_id":"ce4bh5p2rcd13ifvqe4g","pricing_plan_id":"cebpf4jnsgd1na2vs0mg"},{"bike_id":"34cfbbfb-7fcd-4e0b-a511-b666cf091d8e","system_id":"levelo_inurba_marseille","lat":43.25088,"lon":5.39513,"is_reserved":false,"is_disabled":true,"rental_uris":{"android":"levelo://app?vid=34cfbbfb-7fcd-4e0b-a511-b666cf091d8e","ios":"levelo://app?vid=34cfbbfb-7fcd-4e0b-a511-b666cf091d8e"},"vehicle_type_id":"4","last_reported":1761668032,"current_range_meters":18800,"station_id":"ce4bhm12rcd13ifvqgkg","pricing_plan_id":"cebpf4jnsgd1na2vs0mg"},{"bike_id":"faee4aed-34d1-4e59-9f3e-bc2337688920","system_id":"levelo_inurba_marseille","lat":43.31705,"lon":5.43708,"is_reserved":false,"is_disabled":true,"rental_uris":{"android":"levelo://app?vid=faee4aed-34d1-4e59-9f3e-bc2337688920","ios":"levelo://app?vid=faee4aed-34d1-4e59-9f3e-bc2337688920"},"vehicle_type_id":"4","last_reported":1761668032,"current_range_meters":18800,"station_id":"ce4bhp92rcd13ifvqhcg","pricing_plan_id":"cebpf4jnsgd1na2vs0mg"},{"bike_id":"f6adb9c1-4a78-4322-baec-aa5f6f5d93b6","system_id":"levelo_inurba_marseille","lat":43.225321,"lon":5.348302,"is_reserved":false,"is_disabled":false,"rental_uris":{"android":"levelo://app?vid=f6adb9c1-4a78-4322-baec-aa5f6f5d93b6","ios":"levelo://app?vid=f6adb9c1-4a78-4322-baec-aa5f6f5d93b6"},"vehicle_type_id":"4","last_reported":1761668032,"current_range_meters":18800,"station_id":"","pricing_plan_id":"cebpf4jnsgd1na2vs0mg"},{"bike_id":"3188a492-1896-4dd8-9834-1e9cf739316a","system_id":"levelo_inurba_marseille","lat":43.289966,"lon":5.35635,"is_reserved":false,"is_disabled":false,"rental_uris":{"android":"levelo://app?vid=3188a492-1896-4dd8-9834-1e9cf739316a","ios":"levelo://app?vid=3188a492-1896-4dd8-9834-1e9cf739316a"},"vehicle_type_id":"4","last_reported":1761668032,"current_range_meters":18800,"station_id":"ce4bhb92rcd13ifvqen0","pricing_plan_id":"cebpf4jnsgd1na2vs0mg"},{"bike_id":"96874538-e338-47dd-8158-7284ae5bb7a5","system_id":"levelo_inurba_marseille","lat":43.2906,"lon":5.39421,"is_reserved":false,"is_disabled":false,"rental_uris":{"android":"levelo://app?vid=96874538-e338-47dd-8158-7284ae5bb7a5","ios":"levelo://app?vid=96874538-e338-47dd-8158-7284ae5bb7a5"},"vehicle_type_id":"4","last_reported":1761668032,"current_range_meters":19200,"station_id":"","pricing_plan_id":"cebpf4jnsgd1na2vs0mg"},{"bike_id":"e3260d53-1f31-4048-a6b1-57d9b1375877","system_id":"levelo_inurba_marseille","lat":43.285241,"lon":5.441271,"is_reserved":false,"is_disabled":false,"rental_uris":{"android":"levelo://app?vid=e3260d53-1f31-4048-a6b1-57d9b1375877","ios":"levelo://app?vid=e3260d53-1f31-4048-a6b1-57d9b1375877"},"vehicle_type_id":"4","last_reported":1761668032,"current_range_meters":19200,"station_id":"st_d3j3df2ikq2c7380ej80","pricing_plan_id":"cebpf4jnsgd1na2vs0mg"},{"bike_id":"3d00cf23-a66b-47a1-8eb3-f05af16b09a1","system_id":"levelo_inurba_marseille","lat":43.24397,"lon":5.37078,"is_reserved":false,"is_disabled":false,"rental_uris":{"android":"levelo://app?vid=3d00cf23-a66b-47a1-8eb3-f05af16b09a1","ios":"levelo://app?vid=3d00cf23-a66b-47a1-8eb3-f05af16b09a1"},"vehicle_type_id":"4","last_reported":1761668032,"current_range_meters":19200,"station_id":"ce4bhhh2rcd13ifvqfk0","pricing_plan_id":"cebpf4jnsgd1na2vs0mg"},{"bike_id":"d619cabc-0264-436c-89f1-fd6796734426","system_id":"levelo_inurba_marseille","lat":43.246535,"lon":5.388898,"is_reserved":false,"is_disabled":false,"rental_uris":{"android":"levelo://app?vid=d619cabc-0264-436c-89f1-fd6796734426","ios":"levelo://app?vid=d619cabc-0264-436c-89f1-fd6796734426"},"vehicle_type_id":"4","last_reported":1761668032,"current_range_meters":19200,"station_id":"ce4bhg12rcd13ifvqf60","pricing_plan_id":"cebpf4jnsgd1na2vs0mg"},{"bike_id":"f51c09f0-46b3-458e-b0eb-32370bc688ca","system_id":"levelo_inurba_marseille","lat":43.23958,"lon":5.36643,"is_reserved":false,"is_disabled":false,"rental_uris":{"android":"levelo://app?vid=f51c09f0-46b3-458e-b0eb-32370bc688ca","ios":"levelo://app?vid=f51c09f0-46b3-458e-b0eb-32370bc688ca"},"vehicle_type_id":"4","last_reported":1761668032,"current_range_meters":19200,"station_id":"ce4bhi12rcd13ifvqfp0","pricing_plan_id":"cebpf4jnsgd1na2vs0mg"},{"bike_id":"7dadf09d-637b-4168-9565-faf64f3eb916","system_id":"levelo_inurba_marseille","lat":43.23148,"lon":5.43776,"is_reserved":false,"is_disabled":false,"rental_uris":{"android":"levelo://app?vid=7dadf09d-637b-4168-9565-faf64f3eb916","ios":"levelo://app?vid=7dadf09d-637b-4168-9565-faf64f3eb916"},"vehicle_type_id":"4","last_reported":1761668032,"current_range_meters":19200,"station_id":"","pricing_plan_id":"cebpf4jnsgd1na2vs0mg"},{"bike_id":"3be6387f-9356-4d22-96e9-26a716368262","system_id":"levelo_inurba_marseille","lat":43.29635,"lon":5.40601,"is_reserved":false,"is_disabled":true,"rental_uris":{"android":"levelo://app?vid=3be6387f-9356-4d22-96e9-26a716368262","ios":"levelo://app?vid=3be6387f-9356-4d22-96e9-26a716368262"},"vehicle_type_id":"4","last_reported":1761668032,"current_range_meters":19200,"station_id":"ce4bh0h2rcd13ifvqd60","pricing_plan_id":"cebpf4jnsgd1na2vs0mg"},{"bike_id":"aef18226-b002-45d5-ba0c-5d465a2c460e","system_id":"levelo_inurba_marseille","lat":43.22531,"lon":5.34836,"is_reserved":false,"is_disabled":false,"rental_uris":{"android":"levelo://app?vid=aef18226-b002-45d5-ba0c-5d465a2c460e","ios":"levelo://app?vid=aef18226-b002-45d5-ba0c-5d465a2c460e"},"vehicle_type_id":"4","last_reported":1761668032,"current_range_meters":19200,"station_id":"","pricing_plan_id":"cebpf4jnsgd1na2vs0mg"},{"bike_id":"7dc1792b-b36b-46cf-b631-7f56958f81de","system_id":"levelo_inurba_marseille","lat":43.283543,"lon":5.381059,"is_reserved":false,"is_disabled":false,"rental_uris":{"android":"levelo://app?vid=7dc1792b-b36b-46cf-b631-7f56958f81de","ios":"levelo://app?vid=7dc1792b-b36b-46cf-b631-7f56958f81de"},"vehicle_type_id":"4","last_reported":1761668032,"current_range_meters":19200,"station_id":"ce4bh412rcd13ifvqdr0","pricing_plan_id":"cebpf4jnsgd1na2vs0mg"},{"bike_id":"75dc66b3-0d26-400d-85b7-e985f64e2136","system_id":"levelo_inurba_marseille","lat":43.28999,"lon":5.43711,"is_reserved":false,"is_disabled":false,"rental_uris":{"android":"levelo://app?vid=75dc66b3-0d26-400d-85b7-e985f64e2136","ios":"levelo://app?vid=75dc66b3-0d26-400d-85b7-e985f64e2136"},"vehicle_type_id":"4","last_reported":1761668032,"current_range_meters":19600,"station_id":"","pricing_plan_id":"cebpf4jnsgd1na2vs0mg"},{"bike_id":"1a34b5a4-3c1e-479b-b6f5-76f97d5c5c52","system_id":"levelo_inurba_marseille","lat":43.28527,"lon":5.44106,"is_reserved":false,"is_disabled":false,"rental_uris":{"android":"levelo://app?vid=1a34b5a4-3c1e-479b-b6f5-76f97d5c5c52","ios":"levelo://app?vid=1a34b5a4-3c1e-479b-b6f5-76f97d5c5c52"},"vehicle_type_id":"4","last_reported":1761668032,"current_range_meters":19600,"station_id":"st_d3j3df2ikq2c7380ej80","pricing_plan_id":"cebpf4jnsgd1na2vs0mg"},{"bike_id":"2633cb55-1574-4603-a9ca-1c742af39a71","system_id":"levelo_inurba_marseille","lat":43.29622,"lon":5.37728,"is_reserved":false,"is_disabled":false,"rental_uris":{"android":"levelo://app?vid=2633cb55-1574-4603-a9ca-1c742af39a71","ios":"levelo://app?vid=2633cb55-1574-4603-a9ca-1c742af39a71"},"vehicle_type_id":"4","last_reported":1761668032,"current_range_meters":19600,"station_id":"ce4bgi92rcd13ifvqb90","pricing_plan_id":"cebpf4jnsgd1na2vs0mg"},{"bike_id":"9d1ff302-4cbe-45b1-97bb-0088657f28c7","system_id":"levelo_inurba_marseille","lat":43.27378,"lon":5.36258,"is_reserved":false,"is_disabled":false,"rental_uris":{"android":"levelo://app?vid=9d1ff302-4cbe-45b1-97bb-0088657f28c7","ios":"levelo://app?vid=9d1ff302-4cbe-45b1-97bb-0088657f28c7"},"vehicle_type_id":"4","last_reported":1761668032,"current_range_meters":19600,"station_id":"ce4bhbh2rcd13ifvqeo0","pricing_plan_id":"cebpf4jnsgd1na2vs0mg"},{"bike_id":"a50f33a9-51f5-49fa-9b01-ee85eb3d8e89","system_id":"levelo_inurba_marseille","lat":43.2319,"lon":5.35535,"is_reserved":false,"is_disabled":false,"rental_uris":{"android":"levelo://app?vid=a50f33a9-51f5-49fa-9b01-ee85eb3d8e89","ios":"levelo://app?vid=a50f33a9-51f5-49fa-9b01-ee85eb3d8e89"},"vehicle_type_id":"4","last_reported":1761668032,"current_range_meters":19600,"station_id":"ce4bhu92rcd13ifvqi70","pricing_plan_id":"cebpf4jnsgd1na2vs0mg"},{"bike_id":"12cdd90f-b5e7-4ab7-a2ed-97626ea385bf","system_id":"levelo_inurba_marseille","lat":43.32113,"lon":5.36764,"is_reserved":false,"is_disabled":false,"rental_uris":{"android":"levelo://app?vid=12cdd90f-b5e7-4ab7-a2ed-97626ea385bf","ios":"levelo://app?vid=12cdd90f-b5e7-4ab7-a2ed-97626ea385bf"},"vehicle_type_id":"4","last_reported":1761668032,"current_range_meters":20000,"station_id":"ce4bhrh2rcd13ifvqhug","pricing_plan_id":"cebpf4jnsgd1na2vs0mg"},{"bike_id":"c1233a9f-65a1-4058-a4c0-1464c0d2055e","system_id":"levelo_inurba_marseille","lat":43.2901,"lon":5.35614,"is_reserved":false,"is_disabled":false,"rental_uris":{"android":"levelo://app?vid=c1233a9f-65a1-4058-a4c0-1464c0d2055e","ios":"levelo://app?vid=c1233a9f-65a1-4058-a4c0-1464c0d2055e"},"vehicle_type_id":"4","last_reported":1761668032,"current_range_meters":20000,"station_id":"ce4bhb92rcd13ifvqen0","pricing_plan_id":"cebpf4jnsgd1na2vs0mg"},{"bike_id":"66f35c71-7548-4c33-9bb7-97e77983d5f2","system_id":"levelo_inurba_marseille","lat":43.30246,"lon":5.40077,"is_reserved":false,"is_disabled":true,"rental_uris":{"android":"levelo://app?vid=66f35c71-7548-4c33-9bb7-97e77983d5f2","ios":"levelo://app?vid=66f35c71-7548-4c33-9bb7-97e77983d5f2"},"vehicle_type_id":"4","last_reported":1761668032,"current_range_meters":20000,"station_id":"ce4bgvh2rcd13ifvqcs0","pricing_plan_id":"cebpf4jnsgd1na2vs0mg"},{"bike_id":"723a003b-69e7-40c1-8770-b8861d0b490a","system_id":"levelo_inurba_marseille","lat":43.2293,"lon":5.35408,"is_reserved":false,"is_disabled":false,"rental_uris":{"android":"levelo://app?vid=723a003b-69e7-40c1-8770-b8861d0b490a","ios":"levelo://app?vid=723a003b-69e7-40c1-8770-b8861d0b490a"},"vehicle_type_id":"4","last_reported":1761668032,"current_range_meters":20000,"station_id":"cpo3532slgdg3j2ikp40","pricing_plan_id":"cebpf4jnsgd1na2vs0mg"},{"bike_id":"54b14a5b-1cb9-4119-885b-796c26f33979","system_id":"levelo_inurba_marseille","lat":43.33023,"lon":5.39039,"is_reserved":false,"is_disabled":false,"rental_uris":{"android":"levelo://app?vid=54b14a5b-1cb9-4119-885b-796c26f33979","ios":"levelo://app?vid=54b14a5b-1cb9-4119-885b-796c26f33979"},"vehicle_type_id":"4","last_reported":1761668032,"current_range_meters":20000,"station_id":"ce4bhr92rcd13ifvqhrg","pricing_plan_id":"cebpf4jnsgd1na2vs0mg"},{"bike_id":"0a052c97-8589-4b6c-bd9c-512587c69317","system_id":"levelo_inurba_marseille","lat":43.28029,"lon":5.3695,"is_reserved":false,"is_disabled":false,"rental_uris":{"android":"levelo://app?vid=0a052c97-8589-4b6c-bd9c-512587c69317","ios":"levelo://app?vid=0a052c97-8589-4b6c-bd9c-512587c69317"},"vehicle_type_id":"4","last_reported":1761668032,"current_range_meters":20000,"station_id":"ce4bha12rcd13ifvqef0","pricing_plan_id":"cebpf4jnsgd1na2vs0mg"},{"bike_id":"5ae39c5d-5e24-440b-8fa6-9d63bbfbae68","system_id":"levelo_inurba_marseille","lat":43.291966,"lon":5.393231,"is_reserved":false,"is_disabled":false,"rental_uris":{"android":"levelo://app?vid=5ae39c5d-5e24-440b-8fa6-9d63bbfbae68","ios":"levelo://app?vid=5ae39c5d-5e24-440b-8fa6-9d63bbfbae68"},"vehicle_type_id":"4","last_reported":1761668032,"current_range_meters":20000,"station_id":"ce4bh692rcd13ifvqea0","pricing_plan_id":"cebpf4jnsgd1na2vs0mg"},{"bike_id":"96181dea-d684-4c54-b319-57070ae31524","system_id":"levelo_inurba_marseille","lat":43.305229,"lon":5.36727,"is_reserved":false,"is_disabled":false,"rental_uris":{"android":"levelo://app?vid=96181dea-d684-4c54-b319-57070ae31524","ios":"levelo://app?vid=96181dea-d684-4c54-b319-57070ae31524"},"vehicle_type_id":"4","last_reported":1761668032,"current_range_meters":20400,"station_id":"ce4bgrp2rcd13ifvqc9g","pricing_plan_id":"cebpf4jnsgd1na2vs0mg"},{"bike_id":"26a67edc-0d94-4087-9277-5eabcf2926c3","system_id":"levelo_inurba_marseille","lat":43.29631,"lon":5.40605,"is_reserved":false,"is_disabled":false,"rental_uris":{"android":"levelo://app?vid=26a67edc-0d94-4087-9277-5eabcf2926c3","ios":"levelo://app?vid=26a67edc-0d94-4087-9277-5eabcf2926c3"},"vehicle_type_id":"4","last_reported":1761668032,"current_range_meters":20400,"station_id":"ce4bh0h2rcd13ifvqd60","pricing_plan_id":"cebpf4jnsgd1na2vs0mg"},{"bike_id":"97a5c960-2d7a-4cea-95a2-456026a11192","system_id":"levelo_inurba_marseille","lat":43.25494,"lon":5.37654,"is_reserved":false,"is_disabled":false,"rental_uris":{"android":"levelo://app?vid=97a5c960-2d7a-4cea-95a2-456026a11192","ios":"levelo://app?vid=97a5c960-2d7a-4cea-95a2-456026a11192"},"vehicle_type_id":"4","last_reported":1761668032,"current_range_meters":20400,"station_id":"ce4bhh12rcd13ifvqff0","pricing_plan_id":"cebpf4jnsgd1na2vs0mg"},{"bike_id":"556c95c4-e39d-4a50-b32b-6e1b11658636","system_id":"levelo_inurba_marseille","lat":43.241679,"lon":5.364007,"is_reserved":false,"is_disabled":false,"rental_uris":{"android":"levelo://app?vid=556c95c4-e39d-4a50-b32b-6e1b11658636","ios":"levelo://app?vid=556c95c4-e39d-4a50-b32b-6e1b11658636"},"vehicle_type_id":"4","last_reported":1761668032,"current_range_meters":20400,"station_id":"cpo36qri1sfpv3e86is0","pricing_plan_id":"cebpf4jnsgd1na2vs0mg"},{"bike_id":"d2d72e51-88f6-4aa1-98f4-2200aab614df","system_id":"levelo_inurba_marseille","lat":43.30108,"lon":5.39857,"is_reserved":false,"is_disabled":false,"rental_uris":{"android":"levelo://app?vid=d2d72e51-88f6-4aa1-98f4-2200aab614df","ios":"levelo://app?vid=d2d72e51-88f6-4aa1-98f4-2200aab614df"},"vehicle_type_id":"4","last_reported":1761668032,"current_range_meters":20400,"station_id":"ce4bh0h2rcd13ifvqd40","pricing_plan_id":"cebpf4jnsgd1na2vs0mg"},{"bike_id":"0320dc14-5222-40a3-b833-18c5819cb98a","system_id":"levelo_inurba_marseille","lat":43.28409,"lon":5.37509,"is_reserved":false,"is_disabled":false,"rental_uris":{"android":"levelo://app?vid=0320dc14-5222-40a3-b833-18c5819cb98a","ios":"levelo://app?vid=0320dc14-5222-40a3-b833-18c5819cb98a"},"vehicle_type_id":"4","last_reported":1761668032,"current_range_meters":20400,"station_id":"ce4bh412rcd13ifvqds0","pricing_plan_id":"cebpf4jnsgd1na2vs0mg"},{"bike_id":"63d15b05-8fc5-490d-8aaf-fc76fd1c8383","system_id":"levelo_inurba_marseille","lat":43.30422,"lon":5.41289,"is_reserved":false,"is_disabled":false,"rental_uris":{"android":"levelo://app?vid=63d15b05-8fc5-490d-8aaf-fc76fd1c8383","ios":"levelo://app?vid=63d15b05-8fc5-490d-8aaf-fc76fd1c8383"},"vehicle_type_id":"4","last_reported":1761668032,"current_range_meters":20400,"station_id":"ce4bhop2rcd13ifvqh8g","pricing_plan_id":"cebpf4jnsgd1na2vs0mg"},{"bike_id":"5030b069-2f20-41e8-9940-b7872a99596f","system_id":"levelo_inurba_marseille","lat":43.25492,"lon":5.37654,"is_reserved":false,"is_disabled":false,"rental_uris":{"android":"levelo://app?vid=5030b069-2f20-41e8-9940-b7872a99596f","ios":"levelo://app?vid=5030b069-2f20-41e8-9940-b7872a99596f"},"vehicle_type_id":"4","last_reported":1761668032,"current_range_meters":20800,"station_id":"ce4bhh12rcd13ifvqff0","pricing_plan_id":"cebpf4jnsgd1na2vs0mg"},{"bike_id":"d9a6a1f6-ad3e-4d83-b3dd-5f0ef903b947","system_id":"levelo_inurba_marseille","lat":43.230866,"lon":5.354803,"is_reserved":false,"is_disabled":false,"rental_uris":{"android":"levelo://app?vid=d9a6a1f6-ad3e-4d83-b3dd-5f0ef903b947","ios":"levelo://app?vid=d9a6a1f6-ad3e-4d83-b3dd-5f0ef903b947"},"vehicle_type_id":"4","last_reported":1761668032,"current_range_meters":20800,"station_id":"","pricing_plan_id":"cebpf4jnsgd1na2vs0mg"},{"bike_id":"9547544c-4e39-4e41-ae20-4b283855fcc0","system_id":"levelo_inurba_marseille","lat":43.31338,"lon":5.39685,"is_reserved":false,"is_disabled":false,"rental_uris":{"android":"levelo://app?vid=9547544c-4e39-4e41-ae20-4b283855fcc0","ios":"levelo://app?vid=9547544c-4e39-4e41-ae20-4b283855fcc0"},"vehicle_type_id":"4","last_reported":1761668032,"current_range_meters":20800,"station_id":"ce4bgvp2rcd13ifvqcu0","pricing_plan_id":"cebpf4jnsgd1na2vs0mg"},{"bike_id":"6fa77929-e505-416b-9afd-2bfca1b80818","system_id":"levelo_inurba_marseille","lat":43.30889,"lon":5.36862,"is_reserved":false,"is_disabled":false,"rental_uris":{"android":"levelo://app?vid=6fa77929-e505-416b-9afd-2bfca1b80818","ios":"levelo://app?vid=6fa77929-e505-416b-9afd-2bfca1b80818"},"vehicle_type_id":"4","last_reported":1761668032,"current_range_meters":21600,"station_id":"ce4bgn92rcd13ifvqbvg","pricing_plan_id":"cebpf4jnsgd1na2vs0mg"},{"bike_id":"51f5d3a4-5ca4-428d-8c3a-6dc58c961bd7","system_id":"levelo_inurba_marseille","lat":43.31273,"lon":5.3684,"is_reserved":false,"is_disabled":false,"rental_uris":{"android":"levelo://app?vid=51f5d3a4-5ca4-428d-8c3a-6dc58c961bd7","ios":"levelo://app?vid=51f5d3a4-5ca4-428d-8c3a-6dc58c961bd7"},"vehicle_type_id":"4","last_reported":1761668032,"current_range_meters":21600,"station_id":"","pricing_plan_id":"cebpf4jnsgd1na2vs0mg"},{"bike_id":"617528e4-8095-4e2a-ab16-b03dd586ae9f","system_id":"levelo_inurba_marseille","lat":43.28619,"lon":5.35105,"is_reserved":false,"is_disabled":false,"rental_uris":{"android":"levelo://app?vid=617528e4-8095-4e2a-ab16-b03dd586ae9f","ios":"levelo://app?vid=617528e4-8095-4e2a-ab16-b03dd586ae9f"},"vehicle_type_id":"4","last_reported":1761668032,"current_range_meters":21600,"station_id":"ce4bhch2rcd13ifvqeug","pricing_plan_id":"cebpf4jnsgd1na2vs0mg"},{"bike_id":"9d19aa12-f7d8-4182-8cd0-6d800ec08c05","system_id":"levelo_inurba_marseille","lat":43.276166,"lon":5.360981,"is_reserved":false,"is_disabled":true,"rental_uris":{"android":"levelo://app?vid=9d19aa12-f7d8-4182-8cd0-6d800ec08c05","ios":"levelo://app?vid=9d19aa12-f7d8-4182-8cd0-6d800ec08c05"},"vehicle_type_id":"4","last_reported":1761668032,"current_range_meters":21600,"station_id":"ce4bgj92rcd13ifvqbe0","pricing_plan_id":"cebpf4jnsgd1na2vs0mg"},{"bike_id":"10c52d42-7721-4046-9ed0-4999d9a4a633","system_id":"levelo_inurba_marseille","lat":43.30542,"lon":5.36534,"is_reserved":false,"is_disabled":false,"rental_uris":{"android":"levelo://app?vid=10c52d42-7721-4046-9ed0-4999d9a4a633","ios":"levelo://app?vid=10c52d42-7721-4046-9ed0-4999d9a4a633"},"vehicle_type_id":"4","last_reported":1761668032,"current_range_meters":22000,"station_id":"ce4bgs12rcd13ifvqcag","pricing_plan_id":"cebpf4jnsgd1na2vs0mg"},{"bike_id":"f1fd0721-ff1a-4bd5-988e-a77e52cf7919","system_id":"levelo_inurba_marseille","lat":43.32099,"lon":5.3681,"is_reserved":false,"is_disabled":false,"rental_uris":{"android":"levelo://app?vid=f1fd0721-ff1a-4bd5-988e-a77e52cf7919","ios":"levelo://app?vid=f1fd0721-ff1a-4bd5-988e-a77e52cf7919"},"vehicle_type_id":"4","last_reported":1761668032,"current_range_meters":22000,"station_id":"ce4bhrh2rcd13ifvqhug","pricing_plan_id":"cebpf4jnsgd1na2vs0mg"},{"bike_id":"a0257cb7-6e09-4e57-9074-9166ca511388","system_id":"levelo_inurba_marseille","lat":43.22565,"lon":5.41628,"is_reserved":false,"is_disabled":false,"rental_uris":{"android":"levelo://app?vid=a0257cb7-6e09-4e57-9074-9166ca511388","ios":"levelo://app?vid=a0257cb7-6e09-4e57-9074-9166ca511388"},"vehicle_type_id":"4","last_reported":1761668032,"current_range_meters":22000,"station_id":"st_d2o4gvlbi1j2169b742g","pricing_plan_id":"cebpf4jnsgd1na2vs0mg"},{"bike_id":"36e90822-427d-406a-9fb8-7bb82e362278","system_id":"levelo_inurba_marseille","lat":43.243824,"lon":5.370534,"is_reserved":false,"is_disabled":false,"rental_uris":{"android":"levelo://app?vid=36e90822-427d-406a-9fb8-7bb82e362278","ios":"levelo://app?vid=36e90822-427d-406a-9fb8-7bb82e362278"},"vehicle_type_id":"4","last_reported":1761668032,"current_range_meters":22000,"station_id":"ce4bhhh2rcd13ifvqfk0","pricing_plan_id":"cebpf4jnsgd1na2vs0mg"},{"bike_id":"bcf17cd5-2fdf-4965-92aa-6df52e8ecdb0","system_id":"levelo_inurba_marseille","lat":43.290634,"lon":5.371621,"is_reserved":false,"is_disabled":true,"rental_uris":{"android":"levelo://app?vid=bcf17cd5-2fdf-4965-92aa-6df52e8ecdb0","ios":"levelo://app?vid=bcf17cd5-2fdf-4965-92aa-6df52e8ecdb0"},"vehicle_type_id":"4","last_reported":1761668032,"current_range_meters":22000,"station_id":"ce4bh5p2rcd13ifvqe4g","pricing_plan_id":"cebpf4jnsgd1na2vs0mg"},{"bike_id":"1c3fcfc8-1d41-453e-a80c-77758ea9e916","system_id":"levelo_inurba_marseille","lat":43.28477,"lon":5.48407,"is_reserved":false,"is_disabled":false,"rental_uris":{"android":"levelo://app?vid=1c3fcfc8-1d41-453e-a80c-77758ea9e916","ios":"levelo://app?vid=1c3fcfc8-1d41-453e-a80c-77758ea9e916"},"vehicle_type_id":"4","last_reported":1761668032,"current_range_meters":22000,"station_id":"st_d3svhcjqgbts73a3dn0g","pricing_plan_id":"cebpf4jnsgd1na2vs0mg"},{"bike_id":"6c6af7cb-8f8e-49f6-998f-9194d2cc6dfb","system_id":"levelo_inurba_marseille","lat":43.33025,"lon":5.3904,"is_reserved":false,"is_disabled":false,"rental_uris":{"android":"levelo://app?vid=6c6af7cb-8f8e-49f6-998f-9194d2cc6dfb","ios":"levelo://app?vid=6c6af7cb-8f8e-49f6-998f-9194d2cc6dfb"},"vehicle_type_id":"4","last_reported":1761668032,"current_range_meters":22000,"station_id":"ce4bhr92rcd13ifvqhrg","pricing_plan_id":"cebpf4jnsgd1na2vs0mg"},{"bike_id":"dd598633-b342-4f2e-abdc-e443fb3c3bf8","system_id":"levelo_inurba_marseille","lat":43.30263,"lon":5.40084,"is_reserved":false,"is_disabled":false,"rental_uris":{"android":"levelo://app?vid=dd598633-b342-4f2e-abdc-e443fb3c3bf8","ios":"levelo://app?vid=dd598633-b342-4f2e-abdc-e443fb3c3bf8"},"vehicle_type_id":"4","last_reported":1761668032,"current_range_meters":22000,"station_id":"ce4bgvh2rcd13ifvqcs0","pricing_plan_id":"cebpf4jnsgd1na2vs0mg"},{"bike_id":"eaf1e104-60d7-4e0f-8f80-f208226c4fc9","system_id":"levelo_inurba_marseille","lat":43.28666,"lon":5.36351,"is_reserved":false,"is_disabled":false,"rental_uris":{"android":"levelo://app?vid=eaf1e104-60d7-4e0f-8f80-f208226c4fc9","ios":"levelo://app?vid=eaf1e104-60d7-4e0f-8f80-f208226c4fc9"},"vehicle_type_id":"4","last_reported":1761668032,"current_range_meters":22000,"station_id":"ce4bhah2rcd13ifvqej0","pricing_plan_id":"cebpf4jnsgd1na2vs0mg"},{"bike_id":"2e292311-91b9-4dcd-a48d-3fe7467e07c6","system_id":"levelo_inurba_marseille","lat":43.24156,"lon":5.36417,"is_reserved":false,"is_disabled":false,"rental_uris":{"android":"levelo://app?vid=2e292311-91b9-4dcd-a48d-3fe7467e07c6","ios":"levelo://app?vid=2e292311-91b9-4dcd-a48d-3fe7467e07c6"},"vehicle_type_id":"4","last_reported":1761668032,"current_range_meters":22000,"station_id":"cpo36qri1sfpv3e86is0","pricing_plan_id":"cebpf4jnsgd1na2vs0mg"},{"bike_id":"36cbd418-0790-40a1-bf23-531792630d7c","system_id":"levelo_inurba_marseille","lat":43.28362,"lon":5.38113,"is_reserved":false,"is_disabled":false,"rental_uris":{"android":"levelo://app?vid=36cbd418-0790-40a1-bf23-531792630d7c","ios":"levelo://app?vid=36cbd418-0790-40a1-bf23-531792630d7c"},"vehicle_type_id":"4","last_reported":1761668032,"current_range_meters":22000,"station_id":"ce4bh412rcd13ifvqdr0","pricing_plan_id":"cebpf4jnsgd1na2vs0mg"},{"bike_id":"e7648629-0488-45b6-9788-6dcb1c23e80a","system_id":"levelo_inurba_marseille","lat":43.30904,"lon":5.36864,"is_reserved":false,"is_disabled":false,"rental_uris":{"android":"levelo://app?vid=e7648629-0488-45b6-9788-6dcb1c23e80a","ios":"levelo://app?vid=e7648629-0488-45b6-9788-6dcb1c23e80a"},"vehicle_type_id":"4","last_reported":1761668032,"current_range_meters":22000,"station_id":"ce4bgn92rcd13ifvqbvg","pricing_plan_id":"cebpf4jnsgd1na2vs0mg"},{"bike_id":"d6284839-dfb7-4007-b387-dc09666a1382","system_id":"levelo_inurba_marseille","lat":43.29541,"lon":5.38547,"is_reserved":false,"is_disabled":false,"rental_uris":{"android":"levelo://app?vid=d6284839-dfb7-4007-b387-dc09666a1382","ios":"levelo://app?vid=d6284839-dfb7-4007-b387-dc09666a1382"},"vehicle_type_id":"4","last_reported":1761668032,"current_range_meters":22000,"station_id":"ce4bgih2rcd13ifvqba0","pricing_plan_id":"cebpf4jnsgd1na2vs0mg"},{"bike_id":"48a10761-c8e4-4754-bd36-dda7626a0acc","system_id":"levelo_inurba_marseille","lat":43.30551,"lon":5.36519,"is_reserved":false,"is_disabled":false,"rental_uris":{"android":"levelo://app?vid=48a10761-c8e4-4754-bd36-dda7626a0acc","ios":"levelo://app?vid=48a10761-c8e4-4754-bd36-dda7626a0acc"},"vehicle_type_id":"4","last_reported":1761668032,"current_range_meters":22000,"station_id":"ce4bgs12rcd13ifvqcag","pricing_plan_id":"cebpf4jnsgd1na2vs0mg"},{"bike_id":"47e1e78b-045c-462a-97bf-cd3a9dfd847d","system_id":"levelo_inurba_marseille","lat":43.29864,"lon":5.36299,"is_reserved":false,"is_disabled":false,"rental_uris":{"android":"levelo://app?vid=47e1e78b-045c-462a-97bf-cd3a9dfd847d","ios":"levelo://app?vid=47e1e78b-045c-462a-97bf-cd3a9dfd847d"},"vehicle_type_id":"4","last_reported":1761668032,"current_range_meters":22400,"station_id":"ce4bgpp2rcd13ifvqc3g","pricing_plan_id":"cebpf4jnsgd1na2vs0mg"},{"bike_id":"eeb57791-0e0b-4d35-97f4-a353ff5c674c","system_id":"levelo_inurba_marseille","lat":43.241714,"lon":5.363949,"is_reserved":false,"is_disabled":false,"rental_uris":{"android":"levelo://app?vid=eeb57791-0e0b-4d35-97f4-a353ff5c674c","ios":"levelo://app?vid=eeb57791-0e0b-4d35-97f4-a353ff5c674c"},"vehicle_type_id":"4","last_reported":1761668032,"current_range_meters":22400,"station_id":"cpo36qri1sfpv3e86is0","pricing_plan_id":"cebpf4jnsgd1na2vs0mg"},{"bike_id":"5d6dab70-76c7-420b-ad97-bb518b3696b2","system_id":"levelo_inurba_marseille","lat":43.30477,"lon":5.36687,"is_reserved":false,"is_disabled":false,"rental_uris":{"android":"levelo://app?vid=5d6dab70-76c7-420b-ad97-bb518b3696b2","ios":"levelo://app?vid=5d6dab70-76c7-420b-ad97-bb518b3696b2"},"vehicle_type_id":"4","last_reported":1761668032,"current_range_meters":22400,"station_id":"","pricing_plan_id":"cebpf4jnsgd1na2vs0mg"},{"bike_id":"34b77029-c330-4485-829a-8da1efe68f0c","system_id":"levelo_inurba_marseille","lat":43.25,"lon":5.38937,"is_reserved":false,"is_disabled":false,"rental_uris":{"android":"levelo://app?vid=34b77029-c330-4485-829a-8da1efe68f0c","ios":"levelo://app?vid=34b77029-c330-4485-829a-8da1efe68f0c"},"vehicle_type_id":"4","last_reported":1761668032,"current_range_meters":22400,"station_id":"ce4bhgp2rcd13ifvqfd0","pricing_plan_id":"cebpf4jnsgd1na2vs0mg"},{"bike_id":"7e9aa6b6-19eb-40fc-91b6-efeadb07cc6a","system_id":"levelo_inurba_marseille","lat":43.30729,"lon":5.42442,"is_reserved":false,"is_disabled":false,"rental_uris":{"android":"levelo://app?vid=7e9aa6b6-19eb-40fc-91b6-efeadb07cc6a","ios":"levelo://app?vid=7e9aa6b6-19eb-40fc-91b6-efeadb07cc6a"},"vehicle_type_id":"4","last_reported":1761668032,"current_range_meters":22400,"station_id":"st_cvj6ca6bvosntc0bfgr0","pricing_plan_id":"cebpf4jnsgd1na2vs0mg"},{"bike_id":"e7e727c2-a137-4f94-8828-adcc43b80462","system_id":"levelo_inurba_marseille","lat":43.313557,"lon":5.367371,"is_reserved":false,"is_disabled":false,"rental_uris":{"android":"levelo://app?vid=e7e727c2-a137-4f94-8828-adcc43b80462","ios":"levelo://app?vid=e7e727c2-a137-4f94-8828-adcc43b80462"},"vehicle_type_id":"4","last_reported":1761668032,"current_range_meters":22400,"station_id":"ce4bgr92rcd13ifvqc6g","pricing_plan_id":"cebpf4jnsgd1na2vs0mg"},