{"last_updated":1744992711,"ttl":60,"version":"2.2","data":{"bikes":[{"bike_id":"475e5085-b4e3-4135-be1f-b915b785972e","system_id":"levelo_inurba_marseille","lat":43.28446,"lon":5.39191,"is_reserved":false,"is_disabled":false,"rental_uris":{"android":"levelo://app?vid=475e5085-b4e3-4135-be1f-b915b785972e","ios":"levelo://app?vid=475e5085-b4e3-4135-be1f-b915b785972e"},"vehicle_type_id":"4","last_reported":1744992711,"current_range_meters":2800,"station_id":"ce4bhoh2rcd13ifvqh5g","pricing_plan_id":"cebpf4jnsgd1na2vs0mg"},{"bike_id":"f460776e-6743-4208-93f7-32fb054acf1b","system_id":"levelo_inurba_marseille","lat":43.28079,"lon":5.39659,"is_reserved":false,"is_disabled":false,"rental_uris":{"android":"levelo://app?vid=f460776e-6743-4208-93f7-32fb054acf1b","ios":"levelo://app?vid=f460776e-6743-4208-93f7-32fb054acf1b"},"vehicle_type_id":"4","last_reported":1744992711,"current_range_meters":2800,"station_id":"ce4bho12rcd13ifvqh2g","pricing_plan_id":"cebpf4jnsgd1na2vs0mg"},{"bike_id":"8e952715-8acb-43b3-87f9-775f80478d33","system_id":"levelo_inurba_marseille","lat":43.28939,"lon":5.39623,"is_reserved":false,"is_disabled":false,"rental_uris":{"android":"levelo://app?vid=8e952715-8acb-43b3-87f9-775f80478d33","ios":"levelo://app?vid=8e952715-8acb-43b3-87f9-775f80478d33"},"vehicle_type_id":"4","last_reported":1744992711,"current_range_meters":2800,"station_id":"ce4bh3h2rcd13ifvqdn0","pricing_plan_id":"cebpf4jnsgd1na2vs0mg"},{"bike_id":"0f0040b2-34e7-47e8-8898-d71c827e5dfe","system_id":"levelo_inurba_marseille","lat":43.29487,"lon":5.38372,"is_reserved":false,"is_disabled":false,"rental_uris":{"android":"levelo://app?vid=0f0040b2-34e7-47e8-8898-d71c827e5dfe","ios":"levelo://app?vid=0f0040b2-34e7-47e8-8898-d71c827e5dfe"},"vehicle_type_id":"4","last_reported":1744992711,"current_range_meters":2800,"station_id":"","pricing_plan_id":"cebpf4jnsgd1na2vs0mg"},{"bike_id":"4b7c9b58-52e0-4c03-bf88-34c363a149cf","system_id":"levelo_inurba_marseille","lat":43.27383,"lon":5.3625,"is_reserved":false,"is_disabled":false,"rental_uris":{"android":"levelo://app?vid=4b7c9b58-52e0-4c03-bf88-34c363a149cf","ios":"levelo://app?vid=4b7c9b58-52e0-4c03-bf88-34c363a149cf"},"vehicle_type_id":"4","last_reported":1744992711,"current_range_meters":2800,"station_id":"ce4bhbh2rcd13ifvqeo0","pricing_plan_id":"cebpf4jnsgd1na2vs0mg"},{"bike_id":"72a76336-c7fe-467b-ad51-03f89a3d41df","system_id":"levelo_inurba_marseille","lat":43.27827,"lon":5.40761,"is_reserved":false,"is_disabled":false,"rental_uris":{"android":"levelo://app?vid=72a76336-c7fe-467b-ad51-03f89a3d41df","ios":"levelo://app?vid=72a76336-c7fe-467b-ad51-03f89a3d41df"},"vehicle_type_id":"4","last_reported":1744992711,"current_range_meters":2800,"station_id":"ce4bhnh2rcd13ifvqgtg","pricing_plan_id":"cebpf4jnsgd1na2vs0mg"},{"bike_id":"24be1e65-c667-455c-8e2a-677ada888377","system_id":"levelo_inurba_marseille","lat":43.25878,"lon":5.39906,"is_reserved":false,"is_disabled":false,"rental_uris":{"android":"levelo://app?vid=24be1e65-c667-455c-8e2a-677ada888377","ios":"levelo://app?vid=24be1e65-c667-455c-8e2a-677ada888377"},"vehicle_type_id":"4","last_reported":1744992711,"current_range_meters":2800,"station_id":"ce4bhl92rcd13ifvqghg","pricing_plan_id":"cebpf4jnsgd1na2vs0mg"},{"bike_id":"fcf74b45-7c8a-43f2-94b1-c8b37c591bb6","system_id":"levelo_inurba_marseille","lat":43.28838,"lon":5.3845,"is_reserved":false,"is_disabled":false,"rental_uris":{"android":"levelo://app?vid=fcf74b45-7c8a-43f2-94b1-c8b37c591bb6","ios":"levelo://app?vid=fcf74b45-7c8a-43f2-94b1-c8b37c591bb6"},"vehicle_type_id":"4","last_reported":1744992711,"current_range_meters":2800,"station_id":"","pricing_plan_id":"cebpf4jnsgd1na2vs0mg"},{"bike_id":"da447677-9e6a-4b84-a773-c788269af177","system_id":"levelo_inurba_marseille","lat":43.29317,"lon":5.37165,"is_reserved":false,"is_disabled":false,"rental_uris":{"android":"levelo://app?vid=da447677-9e6a-4b84-a773-c788269af177","ios":"levelo://app?vid=da447677-9e6a-4b84-a773-c788269af177"},"vehicle_type_id":"4","last_reported":1744992711,"current_range_meters":2800,"station_id":"ce4bgh92rcd13ifvqb40","pricing_plan_id":"cebpf4jnsgd1na2vs0mg"},{"bike_id":"18958433-d379-4e4e-aaff-15d647b979e1","system_id":"levelo_inurba_marseille","lat":43.29521,"lon":5.37501,"is_reserved":false,"is_disabled":false,"rental_uris":{"android":"levelo://app?vid=18958433-d379-4e4e-aaff-15d647b979e1","ios":"levelo://app?vid=18958433-d379-4e4e-aaff-15d647b979e1"},"vehicle_type_id":"4","last_reported":1744992711,"current_range_meters":2800,"station_id":"ce4bgkp2rcd13ifvqbmg","pricing_plan_id":"cebpf4jnsgd1na2vs0mg"},{"bike_id":"29483b9d-c8c6-4f2e-8fb4-a4664a04fb53","system_id":"levelo_inurba_marseille","lat":43.28725,"lon":5.3609,"is_reserved":false,"is_disabled":false,"rental_uris":{"android":"levelo://app?vid=29483b9d-c8c6-4f2e-8fb4-a4664a04fb53","ios":"levelo://app?vid=29483b9d-c8c6-4f2e-8fb4-a4664a04fb53"},"vehicle_type_id":"4","last_reported":1744992711,"current_range_meters":2800,"station_id":"cki0cbj6b192h4jlfktg","pricing_plan_id":"cebpf4jnsgd1na2vs0mg"},{"bike_id":"5b7f6d17-41fd-4871-8e93-5f60162d0560","system_id":"levelo_inurba_marseille","lat":43.28998,"lon":5.3553,"is_reserved":false,"is_disabled":true,"rental_uris":{"android":"levelo://app?vid=5b7f6d17-41fd-4871-8e93-5f60162d0560","ios":"levelo://app?vid=5b7f6d17-41fd-4871-8e93-5f60162d0560"},"vehicle_type_id":"4","last_reported":1744992711,"current_range_meters":3200,"station_id":"ce4bhb92rcd13ifvqen0","pricing_plan_id":"cebpf4jnsgd1na2vs0mg"},{"bike_id":"4e22e6db-a3d5-4e01-9e1a-034d336903a2","system_id":"levelo_inurba_marseille","lat":43.24809,"lon":5.37458,"is_reserved":false,"is_disabled":false,"rental_uris":{"android":"levelo://app?vid=4e22e6db-a3d5-4e01-9e1a-034d336903a2","ios":"levelo://app?vid=4e22e6db-a3d5-4e01-9e1a-034d336903a2"},"vehicle_type_id":"4","last_reported":1744992711,"current_range_meters":3200,"station_id":"ce4bhgh2rcd13ifvqfb0","pricing_plan_id":"cebpf4jnsgd1na2vs0mg"},{"bike_id":"8c4c681a-adca-4ac1-adc7-af2ce0d01270","system_id":"levelo_inurba_marseille","lat":43.27323,"lon":5.39079,"is_reserved":false,"is_disabled":false,"rental_uris":{"android":"levelo://app?vid=8c4c681a-adca-4ac1-adc7-af2ce0d01270","ios":"levelo://app?vid=8c4c681a-adca-4ac1-adc7-af2ce0d01270"},"vehicle_type_id":"4","last_reported":1744992711,"current_range_meters":2800,"station_id":"ce4bhgp2rcd13ifvqfe0","pricing_plan_id":"cebpf4jnsgd1na2vs0mg"},{"bike_id":"3849469d-7b64-4391-86c6-700a097c3069","system_id":"levelo_inurba_marseille","lat":43.28033,"lon":5.36945,"is_reserved":false,"is_disabled":false,"rental_uris":{"android":"levelo://app?vid=3849469d-7b64-4391-86c6-700a097c3069","ios":"levelo://app?vid=3849469d-7b64-4391-86c6-700a097c3069"},"vehicle_type_id":"4","last_reported":1744992711,"current_range_meters":3200,"station_id":"ce4bha12rcd13ifvqef0","pricing_plan_id":"cebpf4jnsgd1na2vs0mg"},{"bike_id":"593f200f-acc6-4515-9b2c-377663e6c433","system_id":"levelo_inurba_marseille","lat":43.22923,"lon":5.35371,"is_reserved":false,"is_disabled":true,"rental_uris":{"android":"levelo://app?vid=593f200f-acc6-4515-9b2c-377663e6c433","ios":"levelo://app?vid=593f200f-acc6-4515-9b2c-377663e6c433"},"vehicle_type_id":"4","last_reported":1744992711,"current_range_meters":3200,"station_id":"cpo3532slgdg3j2ikp40","pricing_plan_id":"cebpf4jnsgd1na2vs0mg"},{"bike_id":"4a4db7cd-a0dc-4339-beb2-81ce8df63cd9","system_id":"levelo_inurba_marseille","lat":43.28455,"lon":5.359,"is_reserved":false,"is_disabled":false,"rental_uris":{"android":"levelo://app?vid=4a4db7cd-a0dc-4339-beb2-81ce8df63cd9","ios":"levelo://app?vid=4a4db7cd-a0dc-4339-beb2-81ce8df63cd9"},"vehicle_type_id":"4","last_reported":1744992711,"current_range_meters":3200,"station_id":"ce4bhah2rcd13ifvqei0","pricing_plan_id":"cebpf4jnsgd1na2vs0mg"},{"bike_id":"ba72fc0e-63ff-457f-a8c9-eb73abf0a7b0","system_id":"levelo_inurba_marseille","lat":43.288483,"lon":5.39321,"is_reserved":false,"is_disabled":false,"rental_uris":{"android":"levelo://app?vid=ba72fc0e-63ff-457f-a8c9-eb73abf0a7b0","ios":"levelo://app?vid=ba72fc0e-63ff-457f-a8c9-eb73abf0a7b0"},"vehicle_type_id":"4","last_reported":1744992711,"current_range_meters":3200,"station_id":"ce4bh2p2rcd13ifvqdi0","pricing_plan_id":"cebpf4jnsgd1na2vs0mg"},{"bike_id":"206e6eed-90ee-4177-ab5a-4bcb1810ce02","system_id":"levelo_inurba_marseille","lat":43.323571,"lon":5.367694,"is_reserved":false,"is_disabled":false,"rental_uris":{"android":"levelo://app?vid=206e6eed-90ee-4177-ab5a-4bcb1810ce02","ios":"levelo://app?vid=206e6eed-90ee-4177-ab5a-4bcb1810ce02"},"vehicle_type_id":"4","last_reported":1744992711,"current_range_meters":3600,"station_id":"ce4bhsh2rcd13ifvqi2g","pricing_plan_id":"cebpf4jnsgd1na2vs0mg"},{"bike_id":"7f61b9e1-4515-4492-8c05-9af9f6863a0a","system_id":"levelo_inurba_marseille","lat":43.24549,"lon":5.39524,"is_reserved":false,"is_disabled":false,"rental_uris":{"android":"levelo://app?vid=7f61b9e1-4515-4492-8c05-9af9f6863a0a","ios":"levelo://app?vid=7f61b9e1-4515-4492-8c05-9af9f6863a0a"},"vehicle_type_id":"4","last_reported":1744992711,"current_range_meters":3600,"station_id":"ce4bhlp2rcd13ifvqgjg","pricing_plan_id":"cebpf4jnsgd1na2vs0mg"},{"bike_id":"c0e34dfa-9858-4fce-9bde-78097a759167","system_id":"levelo_inurba_marseille","lat":43.25585,"lon":5.38227,"is_reserved":false,"is_disabled":false,"rental_uris":{"android":"levelo://app?vid=c0e34dfa-9858-4fce-9bde-78097a759167","ios":"levelo://app?vid=c0e34dfa-9858-4fce-9bde-78097a759167"},"vehicle_type_id":"4","last_reported":1744992711,"current_range_meters":3600,"station_id":"ce4bhih2rcd13ifvqfs0","pricing_plan_id":"cebpf4jnsgd1na2vs0mg"},{"bike_id":"c41a3a7d-fde3-495f-b06e-90779fcb88bd","system_id":"levelo_inurba_marseille","lat":43.2841,"lon":5.37511,"is_reserved":false,"is_disabled":false,"rental_uris":{"android":"levelo://app?vid=c41a3a7d-fde3-495f-b06e-90779fcb88bd","ios":"levelo://app?vid=c41a3a7d-fde3-495f-b06e-90779fcb88bd"},"vehicle_type_id":"4","last_reported":1744992711,"current_range_meters":4000,"station_id":"ce4bh412rcd13ifvqds0","pricing_plan_id":"cebpf4jnsgd1na2vs0mg"},{"bike_id":"e38def55-3caa-4b66-a17e-a58393eedb8a","system_id":"levelo_inurba_marseille","lat":43.31335,"lon":5.3969,"is_reserved":false,"is_disabled":false,"rental_uris":{"android":"levelo://app?vid=e38def55-3caa-4b66-a17e-a58393eedb8a","ios":"levelo://app?vid=e38def55-3caa-4b66-a17e-a58393eedb8a"},"vehicle_type_id":"4","last_reported":1744992711,"current_range_meters":4000,"station_id":"ce4bgvp2rcd13ifvqcu0","pricing_plan_id":"cebpf4jnsgd1na2vs0mg"},{"bike_id":"68e2eac3-499e-4837-afe5-bfadc82a8ec9","system_id":"levelo_inurba_marseille","lat":43.290023,"lon":5.356161,"is_reserved":false,"is_disabled":false,"rental_uris":{"android":"levelo://app?vid=68e2eac3-499e-4837-afe5-bfadc82a8ec9","ios":"levelo://app?vid=68e2eac3-499e-4837-afe5-bfadc82a8ec9"},"vehicle_type_id":"4","last_reported":1744992711,"current_range_meters":4000,"station_id":"ce4bhb92rcd13ifvqen0","pricing_plan_id":"cebpf4jnsgd1na2vs0mg"},{"bike_id":"0cd7448c-170a-48be-bc79-f10bcaf69806","system_id":"levelo_inurba_marseille","lat":43.23057,"lon":5.3549,"is_reserved":false,"is_disabled":true,"rental_uris":{"android":"levelo://app?vid=0cd7448c-170a-48be-bc79-f10bcaf69806","ios":"levelo://app?vid=0cd7448c-170a-48be-bc79-f10bcaf69806"},"vehicle_type_id":"4","last_reported":1744992711,"current_range_meters":4000,"station_id":"cpo3342slgdg3j2ifvpg","pricing_plan_id":"cebpf4jnsgd1na2vs0mg"},{"bike_id":"84e0c7f4-d718-4227-af26-a4cfd6e290e7","system_id":"levelo_inurba_marseille","lat":43.29605,"lon":5.38101,"is_reserved":false,"is_disabled":false,"rental_uris":{"android":"levelo://app?vid=84e0c7f4-d718-4227-af26-a4cfd6e290e7","ios":"levelo://app?vid=84e0c7f4-d718-4227-af26-a4cfd6e290e7"},"vehicle_type_id":"4","last_reported":1744992711,"current_range_meters":3600,"station_id":"ce4bgl12rcd13ifvqbo0","pricing_plan_id":"cebpf4jnsgd1na2vs0mg"},{"bike_id":"563dcd84-8a90-489e-ad74-eae8bfff9f37","system_id":"levelo_inurba_marseille","lat":43.286995,"lon":5.373789,"is_reserved":false,"is_disabled":false,"rental_uris":{"android":"levelo://app?vid=563dcd84-8a90-489e-ad74-eae8bfff9f37","ios":"levelo://app?vid=563dcd84-8a90-489e-ad74-eae8bfff9f37"},"vehicle_type_id":"4","last_reported":1744992711,"current_range_meters":4000,"station_id":"ce4bh3p2rcd13ifvqdq0","pricing_plan_id":"cebpf4jnsgd1na2vs0mg"},{"bike_id":"b0f4df64-ad09-4909-b45f-23e503b6253b","system_id":"levelo_inurba_marseille","lat":43.284111,"lon":5.349906,"is_reserved":false,"is_disabled":false,"rental_uris":{"android":"levelo://app?vid=b0f4df64-ad09-4909-b45f-23e503b6253b","ios":"levelo://app?vid=b0f4df64-ad09-4909-b45f-23e503b6253b"},"vehicle_type_id":"4","last_reported":1744992711,"current_range_meters":4000,"station_id":"ce4bhbh2rcd13ifvqeqg","pricing_plan_id":"cebpf4jnsgd1na2vs0mg"},{"bike_id":"f59b213b-d955-4d53-8216-67e2df3d8fe6","system_id":"levelo_inurba_marseille","lat":43.28104,"lon":5.37831,"is_reserved":false,"is_disabled":false,"rental_uris":{"android":"levelo://app?vid=f59b213b-d955-4d53-8216-67e2df3d8fe6","ios":"levelo://app?vid=f59b213b-d955-4d53-8216-67e2df3d8fe6"},"vehicle_type_id":"4","last_reported":1744992711,"current_range_meters":4000,"station_id":"ce4bha12rcd13ifvqee0","pricing_plan_id":"cebpf4jnsgd1na2vs0mg"},{"bike_id":"50dc23ed-5e19-46ee-92cf-f2ca4c445852","system_id":"levelo_inurba_marseille","lat":43.33729,"lon":5.39175,"is_reserved":false,"is_disabled":false,"rental_uris":{"android":"levelo://app?vid=50dc23ed-5e19-46ee-92cf-f2ca4c445852","ios":"levelo://app?vid=50dc23ed-5e19-46ee-92cf-f2ca4c445852"},"vehicle_type_id":"4","last_reported":1744992711,"current_range_meters":4000,"station_id":"ce4bhr92rcd13ifvqhsg","pricing_plan_id":"cebpf4jnsgd1na2vs0mg"},{"bike_id":"29392566-b565-4e25-9292-8eab03e5fe76","system_id":"levelo_inurba_marseille","lat":43.282722,"lon":5.350621,"is_reserved":false,"is_disabled":false,"rental_uris":{"android":"levelo://app?vid=29392566-b565-4e25-9292-8eab03e5fe76","ios":"levelo://app?vid=29392566-b565-4e25-9292-8eab03e5fe76"},"vehicle_type_id":"4","last_reported":1744992711,"current_range_meters":4000,"station_id":"ce4bhbp2rcd13ifvqerg","pricing_plan_id":"cebpf4jnsgd1na2vs0mg"},{"bike_id":"d20d8a45-77af-4013-b6bd-28f67ac38f4f","system_id":"levelo_inurba_marseille","lat":43.29882,"lon":5.38907,"is_reserved":false,"is_disabled":false,"rental_uris":{"android":"levelo://app?vid=d20d8a45-77af-4013-b6bd-28f67ac38f4f","ios":"levelo://app?vid=d20d8a45-77af-4013-b6bd-28f67ac38f4f"},"vehicle_type_id":"4","last_reported":1744992711,"current_range_meters":4400,"station_id":"ce4bh392rcd13ifvqdl0","pricing_plan_id":"cebpf4jnsgd1na2vs0mg"},{"bike_id":"896d9fee-b089-4bf5-a065-4357c1691577","system_id":"levelo_inurba_marseille","lat":43.31263,"lon":5.40173,"is_reserved":false,"is_disabled":false,"rental_uris":{"android":"levelo://app?vid=896d9fee-b089-4bf5-a065-4357c1691577","ios":"levelo://app?vid=896d9fee-b089-4bf5-a065-4357c1691577"},"vehicle_type_id":"4","last_reported":1744992711,"current_range_meters":4400,"station_id":"ce4bh092rcd13ifvqd30","pricing_plan_id":"cebpf4jnsgd1na2vs0mg"},{"bike_id":"c232e7ac-e3ec-4f1c-948d-0d6c63b288e3","system_id":"levelo_inurba_marseille","lat":43.26208,"lon":5.3793,"is_reserved":false,"is_disabled":false,"rental_uris":{"android":"levelo://app?vid=c232e7ac-e3ec-4f1c-948d-0d6c63b288e3","ios":"levelo://app?vid=c232e7ac-e3ec-4f1c-948d-0d6c63b288e3"},"vehicle_type_id":"4","last_reported":1744992711,"current_range_meters":4400,"station_id":"ce4bhjp2rcd13ifvqg90","pricing_plan_id":"cebpf4jnsgd1na2vs0mg"},{"bike_id":"82048b0a-c03d-4574-a9e0-94fbb4d4a0f6","system_id":"levelo_inurba_marseille","lat":43.29199,"lon":5.39322,"is_reserved":false,"is_disabled":false,"rental_uris":{"android":"levelo://app?vid=82048b0a-c03d-4574-a9e0-94fbb4d4a0f6","ios":"levelo://app?vid=82048b0a-c03d-4574-a9e0-94fbb4d4a0f6"},"vehicle_type_id":"4","last_reported":1744992711,"current_range_meters":4400,"station_id":"ce4bh192rcd13ifvqdd0","pricing_plan_id":"cebpf4jnsgd1na2vs0mg"},{"bike_id":"822cb734-614e-452b-82b3-e2bd9e0dd401","system_id":"levelo_inurba_marseille","lat":43.30403,"lon":5.42462,"is_reserved":false,"is_disabled":false,"rental_uris":{"android":"levelo://app?vid=822cb734-614e-452b-82b3-e2bd9e0dd401","ios":"levelo://app?vid=822cb734-614e-452b-82b3-e2bd9e0dd401"},"vehicle_type_id":"4","last_reported":1744992711,"current_range_meters":4400,"station_id":"ce4bhoh2rcd13ifvqh6g","pricing_plan_id":"cebpf4jnsgd1na2vs0mg"},{"bike_id":"58efe84f-4cbe-4964-8f32-f218f4cd387f","system_id":"levelo_inurba_marseille","lat":43.29065,"lon":5.37157,"is_reserved":false,"is_disabled":false,"rental_uris":{"android":"levelo://app?vid=58efe84f-4cbe-4964-8f32-f218f4cd387f","ios":"levelo://app?vid=58efe84f-4cbe-4964-8f32-f218f4cd387f"},"vehicle_type_id":"4","last_reported":1744992711,"current_range_meters":4400,"station_id":"ce4bh5p2rcd13ifvqe4g","pricing_plan_id":"cebpf4jnsgd1na2vs0mg"},{"bike_id":"5b748d04-17aa-483f-abb8-97223ca86de3","system_id":"levelo_inurba_marseille","lat":43.29304,"lon":5.37168,"is_reserved":false,"is_disabled":false,"rental_uris":{"android":"levelo://app?vid=5b748d04-17aa-483f-abb8-97223ca86de3","ios":"levelo://app?vid=5b748d04-17aa-483f-abb8-97223ca86de3"},"vehicle_type_id":"4","last_reported":1744992711,"current_range_meters":4400,"station_id":"ce4bgh92rcd13ifvqb40","pricing_plan_id":"cebpf4jnsgd1na2vs0mg"},{"bike_id":"8a500e6a-3cd5-470c-97b9-6cce864c76c3","system_id":"levelo_inurba_marseille","lat":43.29568,"lon":5.36784,"is_reserved":false,"is_disabled":false,"rental_uris":{"android":"levelo://app?vid=8a500e6a-3cd5-470c-97b9-6cce864c76c3","ios":"levelo://app?vid=8a500e6a-3cd5-470c-97b9-6cce864c76c3"},"vehicle_type_id":"4","last_reported":1744992711,"current_range_meters":4800,"station_id":"ce4bgph2rcd13ifvqc2g","pricing_plan_id":"cebpf4jnsgd1na2vs0mg"},{"bike_id":"d7af332c-dc05-4fca-8aad-ebb2b399cbd7","system_id":"levelo_inurba_marseille","lat":43.2842,"lon":5.34989,"is_reserved":false,"is_disabled":false,"rental_uris":{"android":"levelo://app?vid=d7af332c-dc05-4fca-8aad-ebb2b399cbd7","ios":"levelo://app?vid=d7af332c-dc05-4fca-8aad-ebb2b399cbd7"},"vehicle_type_id":"4","last_reported":1744992711,"current_range_meters":4800,"station_id":"ce4bhbh2rcd13ifvqepg","pricing_plan_id":"cebpf4jnsgd1na2vs0mg"},{"bike_id":"210d3669-e710-4cfb-bac4-2059f4fa7eea","system_id":"levelo_inurba_marseille","lat":43.29034,"lon":5.38646,"is_reserved":false,"is_disabled":false,"rental_uris":{"android":"levelo://app?vid=210d3669-e710-4cfb-bac4-2059f4fa7eea","ios":"levelo://app?vid=210d3669-e710-4cfb-bac4-2059f4fa7eea"},"vehicle_type_id":"4","last_reported":1744992711,"current_range_meters":4800,"station_id":"ce4bh2h2rcd13ifvqdh0","pricing_plan_id":"cebpf4jnsgd1na2vs0mg"},{"bike_id":"639b7627-7afc-4da4-8920-b8c1d4071a7c","system_id":"levelo_inurba_marseille","lat":43.29626,"lon":5.40592,"is_reserved":false,"is_disabled":false,"rental_uris":{"android":"levelo://app?vid=639b7627-7afc-4da4-8920-b8c1d4071a7c","ios":"levelo://app?vid=639b7627-7afc-4da4-8920-b8c1d4071a7c"},"vehicle_type_id":"4","last_reported":1744992711,"current_range_meters":5600,"station_id":"ce4bh0h2rcd13ifvqd60","pricing_plan_id":"cebpf4jnsgd1na2vs0mg"},{"bike_id":"129468cd-65fe-4ffe-afda-af654bc2017b","system_id":"levelo_inurba_marseille","lat":43.31072,"lon":5.38353,"is_reserved":false,"is_disabled":false,"rental_uris":{"android":"levelo://app?vid=129468cd-65fe-4ffe-afda-af654bc2017b","ios":"levelo://app?vid=129468cd-65fe-4ffe-afda-af654bc2017b"},"vehicle_type_id":"4","last_reported":1744992711,"current_range_meters":5600,"station_id":"ce4bgv92rcd13ifvqcr0","pricing_plan_id":"cebpf4jnsgd1na2vs0mg"},{"bike_id":"2df22311-bac1-4b8f-abff-11893969de63","system_id":"levelo_inurba_marseille","lat":43.31079,"lon":5.37856,"is_reserved":false,"is_disabled":false,"rental_uris":{"android":"levelo://app?vid=2df22311-bac1-4b8f-abff-11893969de63","ios":"levelo://app?vid=2df22311-bac1-4b8f-abff-11893969de63"},"vehicle_type_id":"4","last_reported":1744992711,"current_range_meters":5600,"station_id":"","pricing_plan_id":"cebpf4jnsgd1na2vs0mg"},{"bike_id":"11e28225-94fa-449d-be03-77aea4b7b809","system_id":"levelo_inurba_marseille","lat":43.29881,"lon":5.38907,"is_reserved":false,"is_disabled":false,"rental_uris":{"android":"levelo://app?vid=11e28225-94fa-449d-be03-77aea4b7b809","ios":"levelo://app?vid=11e28225-94fa-449d-be03-77aea4b7b809"},"vehicle_type_id":"4","last_reported":1744992711,"current_range_meters":5600,"station_id":"ce4bh392rcd13ifvqdl0","pricing_plan_id":"cebpf4jnsgd1na2vs0mg"},{"bike_id":"0c3f7aad-e615-45e1-9a93-bbd9da9b3210","system_id":"levelo_inurba_marseille","lat":43.27619,"lon":5.36117,"is_reserved":false,"is_disabled":false,"rental_uris":{"android":"levelo://app?vid=0c3f7aad-e615-45e1-9a93-bbd9da9b3210","ios":"levelo://app?vid=0c3f7aad-e615-45e1-9a93-bbd9da9b3210"},"vehicle_type_id":"4","last_reported":1744992711,"current_range_meters":5600,"station_id":"ce4bgj92rcd13ifvqbe0","pricing_plan_id":"cebpf4jnsgd1na2vs0mg"},{"bike_id":"d6f57100-4d8f-4dd5-8cbf-99cba74f6fd5","system_id":"levelo_inurba_marseille","lat":43.299435,"lon":5.365431,"is_reserved":false,"is_disabled":false,"rental_uris":{"android":"levelo://app?vid=d6f57100-4d8f-4dd5-8cbf-99cba74f6fd5","ios":"levelo://app?vid=d6f57100-4d8f-4dd5-8cbf-99cba74f6fd5"},"vehicle_type_id":"4","last_reported":1744992711,"current_range_meters":6000,"station_id":"","pricing_plan_id":"cebpf4jnsgd1na2vs0mg"},{"bike_id":"55f92618-92a2-4bef-9d65-3a1a9fa8a1ed","system_id":"levelo_inurba_marseille","lat":43.2455,"lon":5.395,"is_reserved":false,"is_disabled":false,"rental_uris":{"android":"levelo://app?vid=55f92618-92a2-4bef-9d65-3a1a9fa8a1ed","ios":"levelo://app?vid=55f92618-92a2-4bef-9d65-3a1a9fa8a1ed"},"vehicle_type_id":"4","last_reported":1744992711,"current_range_meters":6000,"station_id":"ce4bhlp2rcd13ifvqgjg","pricing_plan_id":"cebpf4jnsgd1na2vs0mg"},{"bike_id":"ce522bcb-c327-4a4d-9d8b-328bc986a9da","system_id":"levelo_inurba_marseille","lat":43.256006,"lon":5.393895,"is_reserved":false,"is_disabled":false,"rental_uris":{"android":"levelo://app?vid=ce522bcb-c327-4a4d-9d8b-328bc986a9da","ios":"levelo://app?vid=ce522bcb-c327-4a4d-9d8b-328bc986a9da"},"vehicle_type_id":"4","last_reported":1744992711,"current_range_meters":6000,"station_id":"ce4bhip2rcd13ifvqft0","pricing_plan_id":"cebpf4jnsgd1na2vs0mg"},{"bike_id":"954833f9-f1ad-4a04-9c16-fd2c116e5d39","system_id":"levelo_inurba_marseille","lat":43.312093,"lon":5.401304,"is_reserved":false,"is_disabled":false,"rental_uris":{"android":"levelo://app?vid=954833f9-f1ad-4a04-9c16-fd2c116e5d39","ios":"levelo://app?vid=954833f9-f1ad-4a04-9c16-fd2c116e5d39"},"vehicle_type_id":"4","last_reported":1744992711,"current_range_meters":5600,"station_id":"ce4bh092rcd13ifvqd30","pricing_plan_id":"cebpf4jnsgd1na2vs0mg"},{"bike_id":"2a297b53-e6c9-4a44-8832-a1535085da75","system_id":"levelo_inurba_marseille","lat":43.32011,"lon":5.38186,"is_reserved":false,"is_disabled":true,"rental_uris":{"android":"levelo://app?vid=2a297b53-e6c9-4a44-8832-a1535085da75","ios":"levelo://app?vid=2a297b53-e6c9-4a44-8832-a1535085da75"},"vehicle_type_id":"4","last_reported":1744992711,"current_range_meters":6000,"station_id":"ce4bhr12rcd13ifvqhpg","pricing_plan_id":"cebpf4jnsgd1na2vs0mg"},{"bike_id":"7b6fd8ac-1086-40c6-bd01-9c13865549f5","system_id":"levelo_inurba_marseille","lat":43.29261,"lon":5.37623,"is_reserved":false,"is_disabled":false,"rental_uris":{"android":"levelo://app?vid=7b6fd8ac-1086-40c6-bd01-9c13865549f5","ios":"levelo://app?vid=7b6fd8ac-1086-40c6-bd01-9c13865549f5"},"vehicle_type_id":"4","last_reported":1744992711,"current_range_meters":6000,"station_id":"ce4bgi12rcd13ifvqb80","pricing_plan_id":"cebpf4jnsgd1na2vs0mg"},{"bike_id":"fb7d6f52-8119-4c44-8446-53d968e8457e","system_id":"levelo_inurba_marseille","lat":43.30139,"lon":5.37419,"is_reserved":false,"is_disabled":false,"rental_uris":{"android":"levelo://app?vid=fb7d6f52-8119-4c44-8446-53d968e8457e","ios":"levelo://app?vid=fb7d6f52-8119-4c44-8446-53d968e8457e"},"vehicle_type_id":"4","last_reported":1744992711,"current_range_meters":6000,"station_id":"ce4bgs92rcd13ifvqcc0","pricing_plan_id":"cebpf4jnsgd1na2vs0mg"},{"bike_id":"093bc4a9-284e-4e6a-8866-b88db14ca044","system_id":"levelo_inurba_marseille","lat":43.28408,"lon":5.34984,"is_reserved":false,"is_disabled":false,"rental_uris":{"android":"levelo://app?vid=093bc4a9-284e-4e6a-8866-b88db14ca044","ios":"levelo://app?vid=093bc4a9-284e-4e6a-8866-b88db14ca044"},"vehicle_type_id":"4","last_reported":1744992711,"current_range_meters":6000,"station_id":"ce4bhbh2rcd13ifvqepg","pricing_plan_id":"cebpf4jnsgd1na2vs0mg"},{"bike_id":"06695fdd-5379-43b7-ae6c-be893e45ef2f","system_id":"levelo_inurba_marseille","lat":43.295604,"lon":5.395937,"is_reserved":false,"is_disabled":false,"rental_uris":{"android":"levelo://app?vid=06695fdd-5379-43b7-ae6c-be893e45ef2f","ios":"levelo://app?vid=06695fdd-5379-43b7-ae6c-be893e45ef2f"},"vehicle_type_id":"4","last_reported":1744992711,"current_range_meters":6000,"station_id":"ce4bh512rcd13ifvqe2g","pricing_plan_id":"cebpf4jnsgd1na2vs0mg"},{"bike_id":"fb42af72-5240-446a-ae0b-c3eb3e7640eb","system_id":"levelo_inurba_marseille","lat":43.29036,"lon":5.38641,"is_reserved":false,"is_disabled":false,"rental_uris":{"android":"levelo://app?vid=fb42af72-5240-446a-ae0b-c3eb3e7640eb","ios":"levelo://app?vid=fb42af72-5240-446a-ae0b-c3eb3e7640eb"},"vehicle_type_id":"4","last_reported":1744992711,"current_range_meters":6000,"station_id":"ce4bh4p2rcd13ifvqe0g","pricing_plan_id":"cebpf4jnsgd1na2vs0mg"},{"bike_id":"a2780d85-3639-40d5-8e43-6363258d42ba","system_id":"levelo_inurba_marseille","lat":43.307931,"lon":5.376424,"is_reserved":false,"is_disabled":false,"rental_uris":{"android":"levelo://app?vid=a2780d85-3639-40d5-8e43-6363258d42ba","ios":"levelo://app?vid=a2780d85-3639-40d5-8e43-6363258d42ba"},"vehicle_type_id":"4","last_reported":1744992711,"current_range_meters":5600,"station_id":"ce4bgv92rcd13ifvqcq0","pricing_plan_id":"cebpf4jnsgd1na2vs0mg"},{"bike_id":"ebba7850-34be-49b7-b8ce-ffa8c9c18c28","system_id":"levelo_inurba_marseille","lat":43.23954,"lon":5.3666,"is_reserved":false,"is_disabled":false,"rental_uris":{"android":"levelo://app?vid=ebba7850-34be-49b7-b8ce-ffa8c9c18c28","ios":"levelo://app?vid=ebba7850-34be-49b7-b8ce-ffa8c9c18c28"},"vehicle_type_id":"4","last_reported":1744992711,"current_range_meters":6000,"station_id":"ce4bhi12rcd13ifvqfp0","pricing_plan_id":"cebpf4jnsgd1na2vs0mg"},{"bike_id":"683727aa-af5c-4a30-b620-923da0da034b","system_id":"levelo_inurba_marseille","lat":43.26848,"lon":5.40452,"is_reserved":false,"is_disabled":false,"rental_uris":{"android":"levelo://app?vid=683727aa-af5c-4a30-b620-923da0da034b","ios":"levelo://app?vid=683727aa-af5c-4a30-b620-923da0da034b"},"vehicle_type_id":"4","last_reported":1744992711,"current_range_meters":6000,"station_id":"cjm6bp8fraef2m0cb0m0","pricing_plan_id":"cebpf4jnsgd1na2vs0mg"},{"bike_id":"a35dd694-91c0-4a0b-ac71-4d8ed211d85b","system_id":"levelo_inurba_marseille","lat":43.28459,"lon":5.3588,"is_reserved":false,"is_disabled":false,"rental_uris":{"android":"levelo://app?vid=a35dd694-91c0-4a0b-ac71-4d8ed211d85b","ios":"levelo://app?vid=a35dd694-91c0-4a0b-ac71-4d8ed211d85b"},"vehicle_type_id":"4","last_reported":1744992711,"current_range_meters":6000,"station_id":"ce4bhah2rcd13ifvqei0","pricing_plan_id":"cebpf4jnsgd1na2vs0mg"},{"bike_id":"d63eb847-3810-4a2e-aa46-9be62b06b6a5","system_id":"levelo_inurba_marseille","lat":43.29298,"lon":5.37443,"is_reserved":false,"is_disabled":true,"rental_uris":{"android":"levelo://app?vid=d63eb847-3810-4a2e-aa46-9be62b06b6a5","ios":"levelo://app?vid=d63eb847-3810-4a2e-aa46-9be62b06b6a5"},"vehicle_type_id":"4","last_reported":1744992711,"current_range_meters":6000,"station_id":"ce4bgi12rcd13ifvqb70","pricing_plan_id":"cebpf4jnsgd1na2vs0mg"},{"bike_id":"7a8b1c6b-eb41-48ab-ac72-489a8ffec04c","system_id":"levelo_inurba_marseille","lat":43.30142,"lon":5.37415,"is_reserved":false,"is_disabled":false,"rental_uris":{"android":"levelo://app?vid=7a8b1c6b-eb41-48ab-ac72-489a8ffec04c","ios":"levelo://app?vid=7a8b1c6b-eb41-48ab-ac72-489a8ffec04c"},"vehicle_type_id":"4","last_reported":1744992711,"current_range_meters":6000,"station_id":"ce4bgs92rcd13ifvqcc0","pricing_plan_id":"cebpf4jnsgd1na2vs0mg"},{"bike_id":"79afeaa0-5278-484c-aa56-dbd0db2525b0","system_id":"levelo_inurba_marseille","lat":43.26209,"lon":5.37443,"is_reserved":false,"is_disabled":false,"rental_uris":{"android":"levelo://app?vid=79afeaa0-5278-484c-aa56-dbd0db2525b0","ios":"levelo://app?vid=79afeaa0-5278-484c-aa56-dbd0db2525b0"},"vehicle_type_id":"4","last_reported":1744992711,"current_range_meters":6000,"station_id":"ce4bhgp2rcd13ifvqfc0","pricing_plan_id":"cebpf4jnsgd1na2vs0mg"},{"bike_id":"d73db4ca-69f9-41fa-96bd-ffad3fac819c","system_id":"levelo_inurba_marseille","lat":43.23195,"lon":5.35551,"is_reserved":false,"is_disabled":false,"rental_uris":{"android":"levelo://app?vid=d73db4ca-69f9-41fa-96bd-ffad3fac819c","ios":"levelo://app?vid=d73db4ca-69f9-41fa-96bd-ffad3fac819c"},"vehicle_type_id":"4","last_reported":1744992711,"current_range_meters":6000,"station_id":"ce4bhu92rcd13ifvqi70","pricing_plan_id":"cebpf4jnsgd1na2vs0mg"},{"bike_id":"f88a0323-ca30-4f83-ad11-a1dc0239a7cb","system_id":"levelo_inurba_marseille","lat":43.27942,"lon":5.41047,"is_reserved":false,"is_disabled":false,"rental_uris":{"android":"levelo://app?vid=f88a0323-ca30-4f83-ad11-a1dc0239a7cb","ios":"levelo://app?vid=f88a0323-ca30-4f83-ad11-a1dc0239a7cb"},"vehicle_type_id":"4","last_reported":1744992711,"current_range_meters":6400,"station_id":"ce4bhnp2rcd13ifvqh0g","pricing_plan_id":"cebpf4jnsgd1na2vs0mg"},{"bike_id":"31eeec4e-f9d8-4b87-a7dd-97810e4924ae","system_id":"levelo_inurba_marseille","lat":43.295607,"lon":5.399761,"is_reserved":false,"is_disabled":false,"rental_uris":{"android":"levelo://app?vid=31eeec4e-f9d8-4b87-a7dd-97810e4924ae","ios":"levelo://app?vid=31eeec4e-f9d8-4b87-a7dd-97810e4924ae"},"vehicle_type_id":"4","last_reported":1744992711,"current_range_meters":6400,"station_id":"ce4bh312rcd13ifvqdj0","pricing_plan_id":"cebpf4jnsgd1na2vs0mg"},{"bike_id":"c1e29fb9-b9c2-44c6-b07f-80ff322f37b5","system_id":"levelo_inurba_marseille","lat":43.25584,"lon":5.38229,"is_reserved":false,"is_disabled":false,"rental_uris":{"android":"levelo://app?vid=c1e29fb9-b9c2-44c6-b07f-80ff322f37b5","ios":"levelo://app?vid=c1e29fb9-b9c2-44c6-b07f-80ff322f37b5"},"vehicle_type_id":"4","last_reported":1744992711,"current_range_meters":6400,"station_id":"ce4bhih2rcd13ifvqfs0","pricing_plan_id":"cebpf4jnsgd1na2vs0mg"},{"bike_id":"a22ade45-7f33-42ca-bc22-aa2935de7057","system_id":"levelo_inurba_marseille","lat":43.26952,"lon":5.38631,"is_reserved":false,"is_disabled":false,"rental_uris":{"android":"levelo://app?vid=a22ade45-7f33-42ca-bc22-aa2935de7057","ios":"levelo://app?vid=a22ade45-7f33-42ca-bc22-aa2935de7057"},"vehicle_type_id":"4","last_reported":1744992711,"current_range_meters":6800,"station_id":"ce4bhh92rcd13ifvqfh0","pricing_plan_id":"cebpf4jnsgd1na2vs0mg"},{"bike_id":"e9248dea-dceb-4473-96b3-bb3f045f9fa8","system_id":"levelo_inurba_marseille","lat":43.2926,"lon":5.38449,"is_reserved":false,"is_disabled":false,"rental_uris":{"android":"levelo://app?vid=e9248dea-dceb-4473-96b3-bb3f045f9fa8","ios":"levelo://app?vid=e9248dea-dceb-4473-96b3-bb3f045f9fa8"},"vehicle_type_id":"4","last_reported":1744992711,"current_range_meters":6800,"station_id":"ce4bh692rcd13ifvqea0","pricing_plan_id":"cebpf4jnsgd1na2vs0mg"},{"bike_id":"46e31ba3-959b-474a-ae7a-137da1c70b69","system_id":"levelo_inurba_marseille","lat":43.2842,"lon":5.34982,"is_reserved":false,"is_disabled":false,"rental_uris":{"android":"levelo://app?vid=46e31ba3-959b-474a-ae7a-137da1c70b69","ios":"levelo://app?vid=46e31ba3-959b-474a-ae7a-137da1c70b69"},"vehicle_type_id":"4","last_reported":1744992711,"current_range_meters":6800,"station_id":"ce4bhbh2rcd13ifvqepg","pricing_plan_id":"cebpf4jnsgd1na2vs0mg"},{"bike_id":"b710fbb1-b765-492e-8cff-58a86822a607","system_id":"levelo_inurba_marseille","lat":43.23192,"lon":5.35565,"is_reserved":false,"is_disabled":true,"rental_uris":{"android":"levelo://app?vid=b710fbb1-b765-492e-8cff-58a86822a607","ios":"levelo://app?vid=b710fbb1-b765-492e-8cff-58a86822a607"},"vehicle_type_id":"4","last_reported":1744992711,"current_range_meters":6800,"station_id":"ce4bhu92rcd13ifvqi70","pricing_plan_id":"cebpf4jnsgd1na2vs0mg"},{"bike_id":"37f0c739-1aed-4b50-b5d2-d5f96dd3f30f","system_id":"levelo_inurba_marseille","lat":43.31356,"lon":5.38493,"is_reserved":false,"is_disabled":false,"rental_uris":{"android":"levelo://app?vid=37f0c739-1aed-4b50-b5d2-d5f96dd3f30f","ios":"levelo://app?vid=37f0c739-1aed-4b50-b5d2-d5f96dd3f30f"},"vehicle_type_id":"4","last_reported":1744992711,"current_range_meters":6800,"station_id":"ce4bgt92rcd13ifvqcf0","pricing_plan_id":"cebpf4jnsgd1na2vs0mg"},{"bike_id":"f886eed6-0878-482e-99e7-55025f278839","system_id":"levelo_inurba_marseille","lat":43.28927,"lon":5.38392,"is_reserved":false,"is_disabled":false,"rental_uris":{"android":"levelo://app?vid=f886eed6-0878-482e-99e7-55025f278839","ios":"levelo://app?vid=f886eed6-0878-482e-99e7-55025f278839"},"vehicle_type_id":"4","last_reported":1744992711,"current_range_meters":6800,"station_id":"ce4bh612rcd13ifvqe6g","pricing_plan_id":"cebpf4jnsgd1na2vs0mg"},{"bike_id":"17268665-b31b-4a11-9667-55bf32aae335","system_id":"levelo_inurba_marseille","lat":43.26064,"lon":5.39397,"is_reserved":false,"is_disabled":false,"rental_uris":{"android":"levelo://app?vid=17268665-b31b-4a11-9667-55bf32aae335","ios":"levelo://app?vid=17268665-b31b-4a11-9667-55bf32aae335"},"vehicle_type_id":"4","last_reported":1744992711,"current_range_meters":7200,"station_id":"ce4bhh92rcd13ifvqfj0","pricing_plan_id":"cebpf4jnsgd1na2vs0mg"},{"bike_id":"3845ea18-52f8-4448-916d-51189bae031b","system_id":"levelo_inurba_marseille","lat":43.29006,"lon":5.35608,"is_reserved":false,"is_disabled":false,"rental_uris":{"android":"levelo://app?vid=3845ea18-52f8-4448-916d-51189bae031b","ios":"levelo://app?vid=3845ea18-52f8-4448-916d-51189bae031b"},"vehicle_type_id":"4","last_reported":1744992711,"current_range_meters":7200,"station_id":"ce4bhb92rcd13ifvqen0","pricing_plan_id":"cebpf4jnsgd1na2vs0mg"},{"bike_id":"fd7830ed-a9e9-438c-82bd-575d58598c89","system_id":"levelo_inurba_marseille","lat":43.26504,"lon":5.39556,"is_reserved":false,"is_disabled":false,"rental_uris":{"android":"levelo://app?vid=fd7830ed-a9e9-438c-82bd-575d58598c89","ios":"levelo://app?vid=fd7830ed-a9e9-438c-82bd-575d58598c89"},"vehicle_type_id":"4","last_reported":1744992711,"current_range_meters":7200,"station_id":"ce4bhi12rcd13ifvqfq0","pricing_plan_id":"cebpf4jnsgd1na2vs0mg"},{"bike_id":"8596df4e-6400-4f36-aad3-769842a5fd42","system_id":"levelo_inurba_marseille","lat":43.284657,"lon":5.35886,"is_reserved":false,"is_disabled":false,"rental_uris":{"android":"levelo://app?vid=8596df4e-6400-4f36-aad3-769842a5fd42","ios":"levelo://app?vid=8596df4e-6400-4f36-aad3-769842a5fd42"},"vehicle_type_id":"4","last_reported":1744992711,"current_range_meters":7200,"station_id":"ce4bhah2rcd13ifvqei0","pricing_plan_id":"cebpf4jnsgd1na2vs0mg"},{"bike_id":"fafbc126-9ff2-4d92-b0d8-a131448d3834","system_id":"levelo_inurba_marseille","lat":43.32364,"lon":5.38888,"is_reserved":false,"is_disabled":false,"rental_uris":{"android":"levelo://app?vid=fafbc126-9ff2-4d92-b0d8-a131448d3834","ios":"levelo://app?vid=fafbc126-9ff2-4d92-b0d8-a131448d3834"},"vehicle_type_id":"4","last_reported":1744992711,"current_range_meters":7200,"station_id":"ce4bhqp2rcd13ifvqhog","pricing_plan_id":"cebpf4jnsgd1na2vs0mg"},{"bike_id":"aee50bad-d357-4cc6-a41c-9b9606bc64b6","system_id":"levelo_inurba_marseille","lat":43.29183,"lon":5.3583,"is_reserved":false,"is_disabled":false,"rental_uris":{"android":"levelo://app?vid=aee50bad-d357-4cc6-a41c-9b9606bc64b6","ios":"levelo://app?vid=aee50bad-d357-4cc6-a41c-9b9606bc64b6"},"vehicle_type_id":"4","last_reported":1744992711,"current_range_meters":7200,"station_id":"ce4bhb12rcd13ifvqel0","pricing_plan_id":"cebpf4jnsgd1na2vs0mg"},{"bike_id":"4c6a69f1-e8d2-4480-b911-c17fc48f32e1","system_id":"levelo_inurba_marseille","lat":43.29973,"lon":5.38489,"is_reserved":false,"is_disabled":false,"rental_uris":{"android":"levelo://app?vid=4c6a69f1-e8d2-4480-b911-c17fc48f32e1","ios":"levelo://app?vid=4c6a69f1-e8d2-4480-b911-c17fc48f32e1"},"vehicle_type_id":"4","last_reported":1744992711,"current_range_meters":7200,"station_id":"ce4bgj92rcd13ifvqbd0","pricing_plan_id":"cebpf4jnsgd1na2vs0mg"},{"bike_id":"fc87fba7-0b88-4982-8b06-75a41551e10c","system_id":"levelo_inurba_marseille","lat":43.26622,"lon":5.39407,"is_reserved":false,"is_disabled":false,"rental_uris":{"android":"levelo://app?vid=fc87fba7-0b88-4982-8b06-75a41551e10c","ios":"levelo://app?vid=fc87fba7-0b88-4982-8b06-75a41551e10c"},"vehicle_type_id":"4","last_reported":1744992711,"current_range_meters":7200,"station_id":"","pricing_plan_id":"cebpf4jnsgd1na2vs0mg"},{"bike_id":"5e9c0323-2536-4b89-80c1-a261b6abee84","system_id":"levelo_inurba_marseille","lat":43.25868,"lon":5.39895,"is_reserved":false,"is_disabled":false,"rental_uris":{"android":"levelo://app?vid=5e9c0323-2536-4b89-80c1-a261b6abee84","ios":"levelo://app?vid=5e9c0323-2536-4b89-80c1-a261b6abee84"},"vehicle_type_id":"4","last_reported":1744992711,"current_range_meters":7200,"station_id":"ce4bhl92rcd13ifvqghg","pricing_plan_id":"cebpf4jnsgd1na2vs0mg"},{"bike_id":"5916c32c-64ac-4b7a-9497-ec28d11f36b9","system_id":"levelo_inurba_marseille","lat":43.27385,"lon":5.36276,"is_reserved":false,"is_disabled":false,"rental_uris":{"android":"levelo://app?vid=5916c32c-64ac-4b7a-9497-ec28d11f36b9","ios":"levelo://app?vid=5916c32c-64ac-4b7a-9497-ec28d11f36b9"},"vehicle_type_id":"4","last_reported":1744992711,"current_range_meters":7200,"station_id":"ce4bhbh2rcd13ifvqeo0","pricing_plan_id":"cebpf4jnsgd1na2vs0mg"},{"bike_id":"9d9e0fca-a098-4833-b086-d5e4261fc6f7","system_id":"levelo_inurba_marseille","lat":43.29256,"lon":5.40905,"is_reserved":false,"is_disabled":false,"rental_uris":{"android":"levelo://app?vid=9d9e0fca-a098-4833-b086-d5e4261fc6f7","ios":"levelo://app?vid=9d9e0fca-a098-4833-b086-d5e4261fc6f7"},"vehicle_type_id":"4","last_reported":1744992711,"current_range_meters":7200,"station_id":"ce4bh192rcd13ifvqdc0","pricing_plan_id":"cebpf4jnsgd1na2vs0mg"},{"bike_id":"cef17f4c-cdd8-45a0-be5d-e91c01911beb","system_id":"levelo_inurba_marseille","lat":43.28155,"lon":5.42648,"is_reserved":false,"is_disabled":false,"rental_uris":{"android":"levelo://app?vid=cef17f4c-cdd8-45a0-be5d-e91c01911beb","ios":"levelo://app?vid=cef17f4c-cdd8-45a0-be5d-e91c01911beb"},"vehicle_type_id":"4","last_reported":1744992711,"current_range_meters":8000,"station_id":"ce4bhnh2rcd13ifvqgug","pricing_plan_id":"cebpf4jnsgd1na2vs0mg"},{"bike_id":"91dd5c43-1279-4e13-baee-53a25a14fc62","system_id":"levelo_inurba_marseille","lat":43.29003,"lon":5.35613,"is_reserved":false,"is_disabled":false,"rental_uris":{"android":"levelo://app?vid=91dd5c43-1279-4e13-baee-53a25a14fc62","ios":"levelo://app?vid=91dd5c43-1279-4e13-baee-53a25a14fc62"},"vehicle_type_id":"4","last_reported":1744992711,"current_range_meters":7200,"station_id":"ce4bhb92rcd13ifvqen0","pricing_plan_id":"cebpf4jnsgd1na2vs0mg"},{"bike_id":"d156fa4c-7703-4b6d-9048-848b2ea748ac","system_id":"levelo_inurba_marseille","lat":43.32363,"lon":5.36756,"is_reserved":false,"is_disabled":false,"rental_uris":{"android":"levelo://app?vid=d156fa4c-7703-4b6d-9048-848b2ea748ac","ios":"levelo://app?vid=d156fa4c-7703-4b6d-9048-848b2ea748ac"},"vehicle_type_id":"4","last_reported":1744992711,"current_range_meters":8000,"station_id":"ce4bhsh2rcd13ifvqi2g","pricing_plan_id":"cebpf4jnsgd1na2vs0mg"},{"bike_id":"12a89574-fa15-484d-82ba-170fba7d3cdf","system_id":"levelo_inurba_marseille","lat":43.24805,"lon":5.37453,"is_reserved":false,"is_disabled":false,"rental_uris":{"android":"levelo://app?vid=12a89574-fa15-484d-82ba-170fba7d3cdf","ios":"levelo://app?vid=12a89574-fa15-484d-82ba-170fba7d3cdf"},"vehicle_type_id":"4","last_reported":1744992711,"current_range_meters":8000,"station_id":"ce4bhgh2rcd13ifvqfb0","pricing_plan_id":"cebpf4jnsgd1na2vs0mg"},{"bike_id":"d3221fe4-b593-4e64-a99f-40b3d77c7e03","system_id":"levelo_inurba_marseille","lat":43.29369,"lon":5.37852,"is_reserved":false,"is_disabled":false,"rental_uris":{"android":"levelo://app?vid=d3221fe4-b593-4e64-a99f-40b3d77c7e03","ios":"levelo://app?vid=d3221fe4-b593-4e64-a99f-40b3d77c7e03"},"vehicle_type_id":"4","last_reported":1744992711,"current_range_meters":8000,"station_id":"ce4bgjh2rcd13ifvqbf0","pricing_plan_id":"cebpf4jnsgd1na2vs0mg"},{"bike_id":"25232a45-3ba2-4fa4-a07f-7cead0c765a5","system_id":"levelo_inurba_marseille","lat":43.2846,"lon":5.35883,"is_reserved":false,"is_disabled":false,"rental_uris":{"android":"levelo://app?vid=25232a45-3ba2-4fa4-a07f-7cead0c765a5","ios":"levelo://app?vid=25232a45-3ba2-4fa4-a07f-7cead0c765a5"},"vehicle_type_id":"4","last_reported":1744992711,"current_range_meters":8000,"station_id":"ce4bhah2rcd13ifvqei0","pricing_plan_id":"cebpf4jnsgd1na2vs0mg"},{"bike_id":"9bafbb23-c7cd-4ae6-905a-424e6e86382b","system_id":"levelo_inurba_marseille","lat":43.29004,"lon":5.35611,"is_reserved":false,"is_disabled":false,"rental_uris":{"android":"levelo://app?vid=9bafbb23-c7cd-4ae6-905a-424e6e86382b","ios":"levelo://app?vid=9bafbb23-c7cd-4ae6-905a-424e6e86382b"},"vehicle_type_id":"4","last_reported":1744992711,"current_range_meters":8000,"station_id":"ce4bhb92rcd13ifvqen0","pricing_plan_id":"cebpf4jnsgd1na2vs0mg"},{"bike_id":"36edb3fd-3796-4ba1-a4a5-e5f81c52e929","system_id":"levelo_inurba_marseille","lat":43.29908,"lon":5.43671,"is_reserved":false,"is_disabled":false,"rental_uris":{"android":"levelo://app?vid=36edb3fd-3796-4ba1-a4a5-e5f81c52e929","ios":"levelo://app?vid=36edb3fd-3796-4ba1-a4a5-e5f81c52e929"},"vehicle_type_id":"4","last_reported":1744992711,"current_range_meters":8000,"station_id":"ce4bhpp2rcd13ifvqhfg","pricing_plan_id":"cebpf4jnsgd1na2vs0mg"},{"bike_id":"5583a1cb-ef8e-4930-b38d-8d47fac1b289","system_id":"levelo_inurba_marseille","lat":43.27813,"lon":5.40705,"is_reserved":false,"is_disabled":true,"rental_uris":{"android":"levelo://app?vid=5583a1cb-ef8e-4930-b38d-8d47fac1b289","ios":"levelo://app?vid=5583a1cb-ef8e-4930-b38d-8d47fac1b289"},"vehicle_type_id":"4","last_reported":1744992711,"current_range_meters":8000,"station_id":"ce4bhnh2rcd13ifvqgtg","pricing_plan_id":"cebpf4jnsgd1na2vs0mg"},{"bike_id":"fb8fd231-ca1b-4c68-bb74-a1c293cfbbd3","system_id":"levelo_inurba_marseille","lat":43.29264,"lon":5.38482,"is_reserved":false,"is_disabled":false,"rental_uris":{"android":"levelo://app?vid=fb8fd231-ca1b-4c68-bb74-a1c293cfbbd3","ios":"levelo://app?vid=fb8fd231-ca1b-4c68-bb74-a1c293cfbbd3"},"vehicle_type_id":"4","last_reported":1744992711,"current_range_meters":8400,"station_id":"ce4bh692rcd13ifvqea0","pricing_plan_id":"cebpf4jnsgd1na2vs0mg"},{"bike_id":"7ce6502f-fb4f-4d02-8978-5a2282a54310","system_id":"levelo_inurba_marseille","lat":43.26926,"lon":5.38929,"is_reserved":false,"is_disabled":false,"rental_uris":{"android":"levelo://app?vid=7ce6502f-fb4f-4d02-8978-5a2282a54310","ios":"levelo://app?vid=7ce6502f-fb4f-4d02-8978-5a2282a54310"},"vehicle_type_id":"4","last_reported":1744992711,"current_range_meters":8400,"station_id":"ce4bhhh2rcd13ifvqfl0","pricing_plan_id":"cebpf4jnsgd1na2vs0mg"},{"bike_id":"bc69b216-2034-40ea-9ebd-a66899229783","system_id":"levelo_inurba_marseille","lat":43.29263,"lon":5.37626,"is_reserved":false,"is_disabled":false,"rental_uris":{"android":"levelo://app?vid=bc69b216-2034-40ea-9ebd-a66899229783","ios":"levelo://app?vid=bc69b216-2034-40ea-9ebd-a66899229783"},"vehicle_type_id":"4","last_reported":1744992711,"current_range_meters":8400,"station_id":"ce4bgi12rcd13ifvqb80","pricing_plan_id":"cebpf4jnsgd1na2vs0mg"},{"bike_id":"2892a5ea-1d26-4dc3-8430-25469b81f95f","system_id":"levelo_inurba_marseille","lat":43.24167,"lon":5.36391,"is_reserved":false,"is_disabled":false,"rental_uris":{"android":"levelo://app?vid=2892a5ea-1d26-4dc3-8430-25469b81f95f","ios":"levelo://app?vid=2892a5ea-1d26-4dc3-8430-25469b81f95f"},"vehicle_type_id":"4","last_reported":1744992711,"current_range_meters":8400,"station_id":"cpo36qri1sfpv3e86is0","pricing_plan_id":"cebpf4jnsgd1na2vs0mg"},{"bike_id":"c04edf20-204d-47bd-9535-c95a09b2317b","system_id":"levelo_inurba_marseille","lat":43.27943,"lon":5.41052,"is_reserved":false,"is_disabled":false,"rental_uris":{"android":"levelo://app?vid=c04edf20-204d-47bd-9535-c95a09b2317b","ios":"levelo://app?vid=c04edf20-204d-47bd-9535-c95a09b2317b"},"vehicle_type_id":"4","last_reported":1744992711,"current_range_meters":8400,"station_id":"ce4bhnp2rcd13ifvqh0g","pricing_plan_id":"cebpf4jnsgd1na2vs0mg"},{"bike_id":"0c256c25-3f9b-4c52-bad3-5cea3393cc08","system_id":"levelo_inurba_marseille","lat":43.29231,"lon":5.36076,"is_reserved":false,"is_disabled":false,"rental_uris":{"android":"levelo://app?vid=0c256c25-3f9b-4c52-bad3-5cea3393cc08","ios":"levelo://app?vid=0c256c25-3f9b-4c52-bad3-5cea3393cc08"},"vehicle_type_id":"4","last_reported":1744992711,"current_range_meters":8400,"station_id":"ce4bhbh2rcd13ifvqeqg","pricing_plan_id":"cebpf4jnsgd1na2vs0mg"},{"bike_id":"60a5fac0-87aa-467f-ad76-c63e25f2f93f","system_id":"levelo_inurba_marseille","lat":43.29579,"lon":5.40022,"is_reserved":false,"is_disabled":false,"rental_uris":{"android":"levelo://app?vid=60a5fac0-87aa-467f-ad76-c63e25f2f93f","ios":"levelo://app?vid=60a5fac0-87aa-467f-ad76-c63e25f2f93f"},"vehicle_type_id":"4","last_reported":1744992711,"current_range_meters":8800,"station_id":"ce4bh312rcd13ifvqdj0","pricing_plan_id":"cebpf4jnsgd1na2vs0mg"},{"bike_id":"8f3d2b8b-3600-42c4-8880-6f0a205ab7fb","system_id":"levelo_inurba_marseille","lat":43.25814,"lon":5.39439,"is_reserved":false,"is_disabled":false,"rental_uris":{"android":"levelo://app?vid=8f3d2b8b-3600-42c4-8880-6f0a205ab7fb","ios":"levelo://app?vid=8f3d2b8b-3600-42c4-8880-6f0a205ab7fb"},"vehicle_type_id":"4","last_reported":1744992711,"current_range_meters":8400,"station_id":"ce4bhip2rcd13ifvqft0","pricing_plan_id":"cebpf4jnsgd1na2vs0mg"},{"bike_id":"36028acb-1986-4460-84fe-b2aca491647c","system_id":"levelo_inurba_marseille","lat":43.26779,"lon":5.39406,"is_reserved":false,"is_disabled":true,"rental_uris":{"android":"levelo://app?vid=36028acb-1986-4460-84fe-b2aca491647c","ios":"levelo://app?vid=36028acb-1986-4460-84fe-b2aca491647c"},"vehicle_type_id":"4","last_reported":1744992711,"current_range_meters":8800,"station_id":"ce4bhh12rcd13ifvqfg0","pricing_plan_id":"cebpf4jnsgd1na2vs0mg"},{"bike_id":"64f81d6d-7619-4cb0-a904-3a5509c775a3","system_id":"levelo_inurba_marseille","lat":43.28948,"lon":5.36395,"is_reserved":false,"is_disabled":false,"rental_uris":{"android":"levelo://app?vid=64f81d6d-7619-4cb0-a904-3a5509c775a3","ios":"levelo://app?vid=64f81d6d-7619-4cb0-a904-3a5509c775a3"},"vehicle_type_id":"4","last_reported":1744992711,"current_range_meters":8800,"station_id":"ce4bhc92rcd13ifvqetg","pricing_plan_id":"cebpf4jnsgd1na2vs0mg"},{"bike_id":"665856b9-403b-49ac-9c92-840e7ab4b1cc","system_id":"levelo_inurba_marseille","lat":43.28845,"lon":5.35851,"is_reserved":false,"is_disabled":false,"rental_uris":{"android":"levelo://app?vid=665856b9-403b-49ac-9c92-840e7ab4b1cc","ios":"levelo://app?vid=665856b9-403b-49ac-9c92-840e7ab4b1cc"},"vehicle_type_id":"4","last_reported":1744992711,"current_range_meters":8800,"station_id":"ce4bhb12rcd13ifvqem0","pricing_plan_id":"cebpf4jnsgd1na2vs0mg"},{"bike_id":"22209dda-afa5-4a31-9c25-a5d94a331926","system_id":"levelo_inurba_marseille","lat":43.24046,"lon":5.37655,"is_reserved":false,"is_disabled":true,"rental_uris":{"android":"levelo://app?vid=22209dda-afa5-4a31-9c25-a5d94a331926","ios":"levelo://app?vid=22209dda-afa5-4a31-9c25-a5d94a331926"},"vehicle_type_id":"4","last_reported":1744992711,"current_range_meters":8800,"station_id":"ce4bhnp2rcd13ifvqgvg","pricing_plan_id":"cebpf4jnsgd1na2vs0mg"},{"bike_id":"38af0e5b-33a1-43ff-a333-767e91e1096a","system_id":"levelo_inurba_marseille","lat":43.29272,"lon":5.38437,"is_reserved":false,"is_disabled":false,"rental_uris":{"android":"levelo://app?vid=38af0e5b-33a1-43ff-a333-767e91e1096a","ios":"levelo://app?vid=38af0e5b-33a1-43ff-a333-767e91e1096a"},"vehicle_type_id":"4","last_reported":1744992711,"current_range_meters":8800,"station_id":"ce4bh692rcd13ifvqea0","pricing_plan_id":"cebpf4jnsgd1na2vs0mg"},{"bike_id":"2d8eb9c8-64e6-4389-9bbb-e5b998b7bf18","system_id":"levelo_inurba_marseille","lat":43.28041,"lon":5.36941,"is_reserved":false,"is_disabled":false,"rental_uris":{"android":"levelo://app?vid=2d8eb9c8-64e6-4389-9bbb-e5b998b7bf18","ios":"levelo://app?vid=2d8eb9c8-64e6-4389-9bbb-e5b998b7bf18"},"vehicle_type_id":"4","last_reported":1744992711,"current_range_meters":8800,"station_id":"ce4bha12rcd13ifvqef0","pricing_plan_id":"cebpf4jnsgd1na2vs0mg"},{"bike_id":"1d5a29a1-b998-42fa-918a-d98d41fd02bd","system_id":"levelo_inurba_marseille","lat":43.28996,"lon":5.35602,"is_reserved":false,"is_disabled":false,"rental_uris":{"android":"levelo://app?vid=1d5a29a1-b998-42fa-918a-d98d41fd02bd","ios":"levelo://app?vid=1d5a29a1-b998-42fa-918a-d98d41fd02bd"},"vehicle_type_id":"4","last_reported":1744992711,"current_range_meters":8800,"station_id":"ce4bhb92rcd13ifvqen0","pricing_plan_id":"cebpf4jnsgd1na2vs0mg"},{"bike_id":"a836461e-46f5-444f-889b-59666986b6a7","system_id":"levelo_inurba_marseille","lat":43.323663,"lon":5.367638,"is_reserved":false,"is_disabled":false,"rental_uris":{"android":"levelo://app?vid=a836461e-46f5-444f-889b-59666986b6a7","ios":"levelo://app?vid=a836461e-46f5-444f-889b-59666986b6a7"},"vehicle_type_id":"4","last_reported":1744992711,"current_range_meters":8800,"station_id":"ce4bhsh2rcd13ifvqi2g","pricing_plan_id":"cebpf4jnsgd1na2vs0mg"},{"bike_id":"a6f2dbc4-19d7-4988-a380-4959b0429a3d","system_id":"levelo_inurba_marseille","lat":43.30135,"lon":5.38763,"is_reserved":false,"is_disabled":false,"rental_uris":{"android":"levelo://app?vid=a6f2dbc4-19d7-4988-a380-4959b0429a3d","ios":"levelo://app?vid=a6f2dbc4-19d7-4988-a380-4959b0429a3d"},"vehicle_type_id":"4","last_reported":1744992711,"current_range_meters":8800,"station_id":"ce4bghh2rcd13ifvqb60","pricing_plan_id":"cebpf4jnsgd1na2vs0mg"},{"bike_id":"ba781fe9-3818-4ee0-b437-d17a24323823","system_id":"levelo_inurba_marseille","lat":43.2866,"lon":5.36357,"is_reserved":false,"is_disabled":false,"rental_uris":{"android":"levelo://app?vid=ba781fe9-3818-4ee0-b437-d17a24323823","ios":"levelo://app?vid=ba781fe9-3818-4ee0-b437-d17a24323823"},"vehicle_type_id":"4","last_reported":1744992711,"current_range_meters":8400,"station_id":"ce4bhah2rcd13ifvqej0","pricing_plan_id":"cebpf4jnsgd1na2vs0mg"},{"bike_id":"ec8c9ac7-1e95-4171-97f3-226ce1e3c951","system_id":"levelo_inurba_marseille","lat":43.321053,"lon":5.367801,"is_reserved":false,"is_disabled":false,"rental_uris":{"android":"levelo://app?vid=ec8c9ac7-1e95-4171-97f3-226ce1e3c951","ios":"levelo://app?vid=ec8c9ac7-1e95-4171-97f3-226ce1e3c951"},"vehicle_type_id":"4","last_reported":1744992711,"current_range_meters":9200,"station_id":"ce4bhrh2rcd13ifvqhug","pricing_plan_id":"cebpf4jnsgd1na2vs0mg"},{"bike_id":"28ef4b6f-6bbf-49ef-a956-35bec43976d8","system_id":"levelo_inurba_marseille","lat":43.31275,"lon":5.40171,"is_reserved":false,"is_disabled":false,"rental_uris":{"android":"levelo://app?vid=28ef4b6f-6bbf-49ef-a956-35bec43976d8","ios":"levelo://app?vid=28ef4b6f-6bbf-49ef-a956-35bec43976d8"},"vehicle_type_id":"4","last_reported":1744992711,"current_range_meters":9200,"station_id":"ce4bh092rcd13ifvqd30","pricing_plan_id":"cebpf4jnsgd1na2vs0mg"},{"bike_id":"83063ddc-15b6-4e65-8af1-e3bbd4db2e11","system_id":"levelo_inurba_marseille","lat":43.29419,"lon":5.38609,"is_reserved":false,"is_disabled":false,"rental_uris":{"android":"levelo://app?vid=83063ddc-15b6-4e65-8af1-e3bbd4db2e11","ios":"levelo://app?vid=83063ddc-15b6-4e65-8af1-e3bbd4db2e11"},"vehicle_type_id":"4","last_reported":1744992711,"current_range_meters":9200,"station_id":"ce4bh2h2rcd13ifvqdh0","pricing_plan_id":"cebpf4jnsgd1na2vs0mg"},{"bike_id":"bf72347d-2547-4664-8b8c-c353bf167289","system_id":"levelo_inurba_marseille","lat":43.23063,"lon":5.35482,"is_reserved":false,"is_disabled":false,"rental_uris":{"android":"levelo://app?vid=bf72347d-2547-4664-8b8c-c353bf167289","ios":"levelo://app?vid=bf72347d-2547-4664-8b8c-c353bf167289"},"vehicle_type_id":"4","last_reported":1744992711,"current_range_meters":9200,"station_id":"cpo3342slgdg3j2ifvpg","pricing_plan_id":"cebpf4jnsgd1na2vs0mg"},{"bike_id":"70b6b133-6705-4dfd-b4a7-6e88067904e8","system_id":"levelo_inurba_marseille","lat":43.24167,"lon":5.36407,"is_reserved":false,"is_disabled":false,"rental_uris":{"android":"levelo://app?vid=70b6b133-6705-4dfd-b4a7-6e88067904e8","ios":"levelo://app?vid=70b6b133-6705-4dfd-b4a7-6e88067904e8"},"vehicle_type_id":"4","last_reported":1744992711,"current_range_meters":9200,"station_id":"cpo36qri1sfpv3e86is0","pricing_plan_id":"cebpf4jnsgd1na2vs0mg"},{"bike_id":"fc68d93f-fd2e-4c8f-b58e-35fcbd7f515d","system_id":"levelo_inurba_marseille","lat":43.24398,"lon":5.37051,"is_reserved":false,"is_disabled":false,"rental_uris":{"android":"levelo://app?vid=fc68d93f-fd2e-4c8f-b58e-35fcbd7f515d","ios":"levelo://app?vid=fc68d93f-fd2e-4c8f-b58e-35fcbd7f515d"},"vehicle_type_id":"4","last_reported":1744992711,"current_range_meters":9200,"station_id":"ce4bhhh2rcd13ifvqfk0","pricing_plan_id":"cebpf4jnsgd1na2vs0mg"},{"bike_id":"420c6ca2-b84c-4a0d-8167-b9be2ff734f7","system_id":"levelo_inurba_marseille","lat":43.28634,"lon":5.35114,"is_reserved":false,"is_disabled":false,"rental_uris":{"android":"levelo://app?vid=420c6ca2-b84c-4a0d-8167-b9be2ff734f7","ios":"levelo://app?vid=420c6ca2-b84c-4a0d-8167-b9be2ff734f7"},"vehicle_type_id":"4","last_reported":1744992711,"current_range_meters":9200,"station_id":"ce4bhch2rcd13ifvqeug","pricing_plan_id":"cebpf4jnsgd1na2vs0mg"},{"bike_id":"f551b29a-b973-4a54-84a0-d09862d71b71","system_id":"levelo_inurba_marseille","lat":43.29987,"lon":5.37168,"is_reserved":false,"is_disabled":false,"rental_uris":{"android":"levelo://app?vid=f551b29a-b973-4a54-84a0-d09862d71b71","ios":"levelo://app?vid=f551b29a-b973-4a54-84a0-d09862d71b71"},"vehicle_type_id":"4","last_reported":1744992711,"current_range_meters":9200,"station_id":"ce4bgr92rcd13ifvqc7g","pricing_plan_id":"cebpf4jnsgd1na2vs0mg"},{"bike_id":"6ebf6aad-20b4-4e96-9e31-de14a23101cc","system_id":"levelo_inurba_marseille","lat":43.2826,"lon":5.35068,"is_reserved":false,"is_disabled":false,"rental_uris":{"android":"levelo://app?vid=6ebf6aad-20b4-4e96-9e31-de14a23101cc","ios":"levelo://app?vid=6ebf6aad-20b4-4e96-9e31-de14a23101cc"},"vehicle_type_id":"4","last_reported":1744992711,"current_range_meters":9200,"station_id":"ce4bhbp2rcd13ifvqerg","pricing_plan_id":"cebpf4jnsgd1na2vs0mg"},{"bike_id":"c6cfc8b2-108a-425a-b744-573be0897f43","system_id":"levelo_inurba_marseille","lat":43.28853,"lon":5.3584,"is_reserved":false,"is_disabled":false,"rental_uris":{"android":"levelo://app?vid=c6cfc8b2-108a-425a-b744-573be0897f43","ios":"levelo://app?vid=c6cfc8b2-108a-425a-b744-573be0897f43"},"vehicle_type_id":"4","last_reported":1744992711,"current_range_meters":9200,"station_id":"ce4bhb12rcd13ifvqem0","pricing_plan_id":"cebpf4jnsgd1na2vs0mg"},{"bike_id":"b2cf7293-2f5b-4680-b5a3-ea0014cc8051","system_id":"levelo_inurba_marseille","lat":43.29983,"lon":5.37167,"is_reserved":false,"is_disabled":false,"rental_uris":{"android":"levelo://app?vid=b2cf7293-2f5b-4680-b5a3-ea0014cc8051","ios":"levelo://app?vid=b2cf7293-2f5b-4680-b5a3-ea0014cc8051"},"vehicle_type_id":"4","last_reported":1744992711,"current_range_meters":9200,"station_id":"ce4bgr92rcd13ifvqc7g","pricing_plan_id":"cebpf4jnsgd1na2vs0mg"},{"bike_id":"bcf9cfab-3deb-41af-aae0-ef42c20ee8b4","system_id":"levelo_inurba_marseille","lat":43.25101,"lon":5.40335,"is_reserved":false,"is_disabled":false,"rental_uris":{"android":"levelo://app?vid=bcf9cfab-3deb-41af-aae0-ef42c20ee8b4","ios":"levelo://app?vid=bcf9cfab-3deb-41af-aae0-ef42c20ee8b4"},"vehicle_type_id":"4","last_reported":1744992711,"current_range_meters":14800,"station_id":"ce4bhlh2rcd13ifvqgig","pricing_plan_id":"cebpf4jnsgd1na2vs0mg"},{"bike_id":"271c8c79-7ca6-4367-80fb-8a0efc84181c","system_id":"levelo_inurba_marseille","lat":43.23195,"lon":5.35571,"is_reserved":false,"is_disabled":false,"rental_uris":{"android":"levelo://app?vid=271c8c79-7ca6-4367-80fb-8a0efc84181c","ios":"levelo://app?vid=271c8c79-7ca6-4367-80fb-8a0efc84181c"},"vehicle_type_id":"4","last_reported":1744992711,"current_range_meters":9200,"station_id":"ce4bhu92rcd13ifvqi70","pricing_plan_id":"cebpf4jnsgd1na2vs0mg"},{"bike_id":"f56756c9-b1af-4d1c-958a-2d9e1efa6e95","system_id":"levelo_inurba_marseille","lat":43.28152,"lon":5.42647,"is_reserved":false,"is_disabled":false,"rental_uris":{"android":"levelo://app?vid=f56756c9-b1af-4d1c-958a-2d9e1efa6e95","ios":"levelo://app?vid=f56756c9-b1af-4d1c-958a-2d9e1efa6e95"},"vehicle_type_id":"4","last_reported":1744992711,"current_range_meters":9600,"station_id":"ce4bhnh2rcd13ifvqgug","pricing_plan_id":"cebpf4jnsgd1na2vs0mg"},{"bike_id":"da699b82-1cb2-4408-88b3-3d3a7459d445","system_id":"levelo_inurba_marseille","lat":43.29912,"lon":5.38145,"is_reserved":false,"is_disabled":false,"rental_uris":{"android":"levelo://app?vid=da699b82-1cb2-4408-88b3-3d3a7459d445","ios":"levelo://app?vid=da699b82-1cb2-4408-88b3-3d3a7459d445"},"vehicle_type_id":"4","last_reported":1744992711,"current_range_meters":9600,"station_id":"ce4bgj12rcd13ifvqbc0","pricing_plan_id":"cebpf4jnsgd1na2vs0mg"},{"bike_id":"0f0c2c9d-c11a-480f-8137-c5315e4ded3a","system_id":"levelo_inurba_marseille","lat":43.23188,"lon":5.35566,"is_reserved":false,"is_disabled":false,"rental_uris":{"android":"levelo://app?vid=0f0c2c9d-c11a-480f-8137-c5315e4ded3a","ios":"levelo://app?vid=0f0c2c9d-c11a-480f-8137-c5315e4ded3a"},"vehicle_type_id":"4","last_reported":1744992711,"current_range_meters":9600,"station_id":"ce4bhu92rcd13ifvqi70","pricing_plan_id":"cebpf4jnsgd1na2vs0mg"},{"bike_id":"3c2888bc-7cf7-46fd-b7fd-9194629fdd78","system_id":"levelo_inurba_marseille","lat":43.27992,"lon":5.41656,"is_reserved":false,"is_disabled":false,"rental_uris":{"android":"levelo://app?vid=3c2888bc-7cf7-46fd-b7fd-9194629fdd78","ios":"levelo://app?vid=3c2888bc-7cf7-46fd-b7fd-9194629fdd78"},"vehicle_type_id":"4","last_reported":1744992711,"current_range_meters":9600,"station_id":"ce4bho12rcd13ifvqh1g","pricing_plan_id":"cebpf4jnsgd1na2vs0mg"},{"bike_id":"9eb24d4a-fe0f-4318-9e22-1c676fab59a4","system_id":"levelo_inurba_marseille","lat":43.293702,"lon":5.378411,"is_reserved":false,"is_disabled":false,"rental_uris":{"android":"levelo://app?vid=9eb24d4a-fe0f-4318-9e22-1c676fab59a4","ios":"levelo://app?vid=9eb24d4a-fe0f-4318-9e22-1c676fab59a4"},"vehicle_type_id":"4","last_reported":1744992711,"current_range_meters":9600,"station_id":"ce4bgjh2rcd13ifvqbf0","pricing_plan_id":"cebpf4jnsgd1na2vs0mg"},{"bike_id":"1e0e100f-41f7-4724-9b71-03634cc3b5fd","system_id":"levelo_inurba_marseille","lat":43.23201,"lon":5.35546,"is_reserved":false,"is_disabled":false,"rental_uris":{"android":"levelo://app?vid=1e0e100f-41f7-4724-9b71-03634cc3b5fd","ios":"levelo://app?vid=1e0e100f-41f7-4724-9b71-03634cc3b5fd"},"vehicle_type_id":"4","last_reported":1744992711,"current_range_meters":9600,"station_id":"ce4bhu92rcd13ifvqi70","pricing_plan_id":"cebpf4jnsgd1na2vs0mg"},{"bike_id":"376e1387-0a1b-404a-abd5-0671da6d23fb","system_id":"levelo_inurba_marseille","lat":43.25496,"lon":5.37643,"is_reserved":false,"is_disabled":false,"rental_uris":{"android":"levelo://app?vid=376e1387-0a1b-404a-abd5-0671da6d23fb","ios":"levelo://app?vid=376e1387-0a1b-404a-abd5-0671da6d23fb"},"vehicle_type_id":"4","last_reported":1744992711,"current_range_meters":9600,"station_id":"ce4bhh12rcd13ifvqff0","pricing_plan_id":"cebpf4jnsgd1na2vs0mg"},{"bike_id":"38d71541-39fa-44bc-b9fa-dad7cbdc7434","system_id":"levelo_inurba_marseille","lat":43.28748,"lon":5.38658,"is_reserved":false,"is_disabled":false,"rental_uris":{"android":"levelo://app?vid=38d71541-39fa-44bc-b9fa-dad7cbdc7434","ios":"levelo://app?vid=38d71541-39fa-44bc-b9fa-dad7cbdc7434"},"vehicle_type_id":"4","last_reported":1744992711,"current_range_meters":9600,"station_id":"","pricing_plan_id":"cebpf4jnsgd1na2vs0mg"},{"bike_id":"6edae6e8-68d1-447b-bc9a-f33f449be267","system_id":"levelo_inurba_marseille","lat":43.23967,"lon":5.36628,"is_reserved":false,"is_disabled":false,"rental_uris":{"android":"levelo://app?vid=6edae6e8-68d1-447b-bc9a-f33f449be267","ios":"levelo://app?vid=6edae6e8-68d1-447b-bc9a-f33f449be267"},"vehicle_type_id":"4","last_reported":1744992711,"current_range_meters":9600,"station_id":"ce4bhi12rcd13ifvqfp0","pricing_plan_id":"cebpf4jnsgd1na2vs0mg"},{"bike_id":"3737cb74-761b-429f-9d2d-1c31624faab3","system_id":"levelo_inurba_marseille","lat":43.22924,"lon":5.35389,"is_reserved":false,"is_disabled":false,"rental_uris":{"android":"levelo://app?vid=3737cb74-761b-429f-9d2d-1c31624faab3","ios":"levelo://app?vid=3737cb74-761b-429f-9d2d-1c31624faab3"},"vehicle_type_id":"4","last_reported":1744992711,"current_range_meters":10000,"station_id":"cpo3532slgdg3j2ikp40","pricing_plan_id":"cebpf4jnsgd1na2vs0mg"},{"bike_id":"7ad52a4a-921d-4d04-98ee-abb01f12ed42","system_id":"levelo_inurba_marseille","lat":43.243347,"lon":5.396649,"is_reserved":false,"is_disabled":false,"rental_uris":{"android":"levelo://app?vid=7ad52a4a-921d-4d04-98ee-abb01f12ed42","ios":"levelo://app?vid=7ad52a4a-921d-4d04-98ee-abb01f12ed42"},"vehicle_type_id":"4","last_reported":1744992711,"current_range_meters":10000,"station_id":"cjm6bp8fraef2m0cb0m0","pricing_plan_id":"cebpf4jnsgd1na2vs0mg"},{"bike_id":"1210dc72-37b8-49f7-b249-6faa54daba28","system_id":"levelo_inurba_marseille","lat":43.32366,"lon":5.36766,"is_reserved":false,"is_disabled":false,"rental_uris":{"android":"levelo://app?vid=1210dc72-37b8-49f7-b249-6faa54daba28","ios":"levelo://app?vid=1210dc72-37b8-49f7-b249-6faa54daba28"},"vehicle_type_id":"4","last_reported":1744992711,"current_range_meters":10000,"station_id":"ce4bhsh2rcd13ifvqi2g","pricing_plan_id":"cebpf4jnsgd1na2vs0mg"},{"bike_id":"cf4db056-d3f7-4001-aa54-c43d57090a49","system_id":"levelo_inurba_marseille","lat":43.23191,"lon":5.35562,"is_reserved":false,"is_disabled":false,"rental_uris":{"android":"levelo://app?vid=cf4db056-d3f7-4001-aa54-c43d57090a49","ios":"levelo://app?vid=cf4db056-d3f7-4001-aa54-c43d57090a49"},"vehicle_type_id":"4","last_reported":1744992711,"current_range_meters":10000,"station_id":"ce4bhu92rcd13ifvqi70","pricing_plan_id":"cebpf4jnsgd1na2vs0mg"},{"bike_id":"6941b90b-7907-44ac-a207-2906242afa3d","system_id":"levelo_inurba_marseille","lat":43.29924,"lon":5.36537,"is_reserved":false,"is_disabled":false,"rental_uris":{"android":"levelo://app?vid=6941b90b-7907-44ac-a207-2906242afa3d","ios":"levelo://app?vid=6941b90b-7907-44ac-a207-2906242afa3d"},"vehicle_type_id":"4","last_reported":1744992711,"current_range_meters":10000,"station_id":"ce4bgm92rcd13ifvqbr0","pricing_plan_id":"cebpf4jnsgd1na2vs0mg"},{"bike_id":"aeeeba7f-5c1b-4664-8ce1-91f23b183381","system_id":"levelo_inurba_marseille","lat":43.29013,"lon":5.38138,"is_reserved":false,"is_disabled":false,"rental_uris":{"android":"levelo://app?vid=aeeeba7f-5c1b-4664-8ce1-91f23b183381","ios":"levelo://app?vid=aeeeba7f-5c1b-4664-8ce1-91f23b183381"},"vehicle_type_id":"4","last_reported":1744992711,"current_range_meters":10000,"station_id":"ce4bh4p2rcd13ifvqe1g","pricing_plan_id":"cebpf4jnsgd1na2vs0mg"},{"bike_id":"1b6d5f7f-aa79-40c7-8d38-c025f37bd92a","system_id":"levelo_inurba_marseille","lat":43.29881,"lon":5.38906,"is_reserved":false,"is_disabled":false,"rental_uris":{"android":"levelo://app?vid=1b6d5f7f-aa79-40c7-8d38-c025f37bd92a","ios":"levelo://app?vid=1b6d5f7f-aa79-40c7-8d38-c025f37bd92a"},"vehicle_type_id":"4","last_reported":1744992711,"current_range_meters":9600,"station_id":"ce4bh392rcd13ifvqdl0","pricing_plan_id":"cebpf4jnsgd1na2vs0mg"},{"bike_id":"19297c6a-18b8-4494-9a71-b5b482305f89","system_id":"levelo_inurba_marseille","lat":43.28269,"lon":5.35062,"is_reserved":false,"is_disabled":false,"rental_uris":{"android":"levelo://app?vid=19297c6a-18b8-4494-9a71-b5b482305f89","ios":"levelo://app?vid=19297c6a-18b8-4494-9a71-b5b482305f89"},"vehicle_type_id":"4","last_reported":1744992711,"current_range_meters":10000,"station_id":"ce4bhbp2rcd13ifvqerg","pricing_plan_id":"cebpf4jnsgd1na2vs0mg"},{"bike_id":"fd85fd14-f8eb-4942-8bb5-03f3a4522ed3","system_id":"levelo_inurba_marseille","lat":43.29033,"lon":5.38644,"is_reserved":false,"is_disabled":false,"rental_uris":{"android":"levelo://app?vid=fd85fd14-f8eb-4942-8bb5-03f3a4522ed3","ios":"levelo://app?vid=fd85fd14-f8eb-4942-8bb5-03f3a4522ed3"},"vehicle_type_id":"4","last_reported":1744992711,"current_range_meters":9600,"station_id":"ce4bh4p2rcd13ifvqe0g","pricing_plan_id":"cebpf4jnsgd1na2vs0mg"},{"bike_id":"e75fa06b-7702-4b00-b4a5-f1555ab7dabb","system_id":"levelo_inurba_marseille","lat":43.27918,"lon":5.39584,"is_reserved":false,"is_disabled":false,"rental_uris":{"android":"levelo://app?vid=e75fa06b-7702-4b00-b4a5-f1555ab7dabb","ios":"levelo://app?vid=e75fa06b-7702-4b00-b4a5-f1555ab7dabb"},"vehicle_type_id":"4","last_reported":1744992711,"current_range_meters":10000,"station_id":"ce4bhf92rcd13ifvqf40","pricing_plan_id":"cebpf4jnsgd1na2vs0mg"},{"bike_id":"91b0f96d-1a6e-4e28-98b9-2c86f2485aee","system_id":"levelo_inurba_marseille","lat":43.32416,"lon":5.39048,"is_reserved":false,"is_disabled":false,"rental_uris":{"android":"levelo://app?vid=91b0f96d-1a6e-4e28-98b9-2c86f2485aee","ios":"levelo://app?vid=91b0f96d-1a6e-4e28-98b9-2c86f2485aee"},"vehicle_type_id":"4","last_reported":1744992711,"current_range_meters":10800,"station_id":"","pricing_plan_id":"cebpf4jnsgd1na2vs0mg"},{"bike_id":"722b751e-9674-4f4b-977e-a455cca23443","system_id":"levelo_inurba_marseille","lat":43.29531,"lon":5.38545,"is_reserved":false,"is_disabled":false,"rental_uris":{"android":"levelo://app?vid=722b751e-9674-4f4b-977e-a455cca23443","ios":"levelo://app?vid=722b751e-9674-4f4b-977e-a455cca23443"},"vehicle_type_id":"4","last_reported":1744992711,"current_range_meters":10800,"station_id":"ce4bgih2rcd13ifvqba0","pricing_plan_id":"cebpf4jnsgd1na2vs0mg"},{"bike_id":"ca3d436d-04ed-4430-9a14-ff94f49afbd5","system_id":"levelo_inurba_marseille","lat":43.27384,"lon":5.36253,"is_reserved":false,"is_disabled":false,"rental_uris":{"android":"levelo://app?vid=ca3d436d-04ed-4430-9a14-ff94f49afbd5","ios":"levelo://app?vid=ca3d436d-04ed-4430-9a14-ff94f49afbd5"},"vehicle_type_id":"4","last_reported":1744992711,"current_range_meters":10800,"station_id":"ce4bhbh2rcd13ifvqeo0","pricing_plan_id":"cebpf4jnsgd1na2vs0mg"},{"bike_id":"c55e8328-e94c-4b05-bb62-7859133de99f","system_id":"levelo_inurba_marseille","lat":43.26556,"lon":5.373,"is_reserved":false,"is_disabled":false,"rental_uris":{"android":"levelo://app?vid=c55e8328-e94c-4b05-bb62-7859133de99f","ios":"levelo://app?vid=c55e8328-e94c-4b05-bb62-7859133de99f"},"vehicle_type_id":"4","last_reported":1744992711,"current_range_meters":10800,"station_id":"ce4bhg12rcd13ifvqf70","pricing_plan_id":"cebpf4jnsgd1na2vs0mg"},{"bike_id":"952fd1c4-0a7d-45da-b69d-d908a97f86b2","system_id":"levelo_inurba_marseille","lat":43.27992,"lon":5.41665,"is_reserved":false,"is_disabled":false,"rental_uris":{"android":"levelo://app?vid=952fd1c4-0a7d-45da-b69d-d908a97f86b2","ios":"levelo://app?vid=952fd1c4-0a7d-45da-b69d-d908a97f86b2"},"vehicle_type_id":"4","last_reported":1744992711,"current_range_meters":10800,"station_id":"ce4bho12rcd13ifvqh1g","pricing_plan_id":"cebpf4jnsgd1na2vs0mg"},{"bike_id":"3acf2f6d-f070-415f-834b-dd334255c2d1","system_id":"levelo_inurba_marseille","lat":43.269398,"lon":5.402595,"is_reserved":false,"is_disabled":false,"rental_uris":{"android":"levelo://app?vid=3acf2f6d-f070-415f-834b-dd334255c2d1","ios":"levelo://app?vid=3acf2f6d-f070-415f-834b-dd334255c2d1"},"vehicle_type_id":"4","last_reported":1744992711,"current_range_meters":10800,"station_id":"ce4bhbh2rcd13ifvqeo0","pricing_plan_id":"cebpf4jnsgd1na2vs0mg"},{"bike_id":"33af4efb-9b67-4d2e-84d6-91b7fb174157","system_id":"levelo_inurba_marseille","lat":43.28664,"lon":5.36346,"is_reserved":false,"is_disabled":false,"rental_uris":{"android":"levelo://app?vid=33af4efb-9b67-4d2e-84d6-91b7fb174157","ios":"levelo://app?vid=33af4efb-9b67-4d2e-84d6-91b7fb174157"},"vehicle_type_id":"4","last_reported":1744992711,"current_range_meters":10800,"station_id":"ce4bhah2rcd13ifvqej0","pricing_plan_id":"cebpf4jnsgd1na2vs0mg"},{"bike_id":"a1fa238d-16fa-46be-ad42-b06cc2622250","system_id":"levelo_inurba_marseille","lat":43.28927,"lon":5.38406,"is_reserved":false,"is_disabled":false,"rental_uris":{"android":"levelo://app?vid=a1fa238d-16fa-46be-ad42-b06cc2622250","ios":"levelo://app?vid=a1fa238d-16fa-46be-ad42-b06cc2622250"},"vehicle_type_id":"4","last_reported":1744992711,"current_range_meters":11200,"station_id":"ce4bh612rcd13ifvqe6g","pricing_plan_id":"cebpf4jnsgd1na2vs0mg"},{"bike_id":"7ed91d22-3d5b-4254-83bf-64eb2a7d5481","system_id":"levelo_inurba_marseille","lat":43.22499,"lon":5.34781,"is_reserved":false,"is_disabled":false,"rental_uris":{"android":"levelo://app?vid=7ed91d22-3d5b-4254-83bf-64eb2a7d5481","ios":"levelo://app?vid=7ed91d22-3d5b-4254-83bf-64eb2a7d5481"},"vehicle_type_id":"4","last_reported":1744992711,"current_range_meters":11200,"station_id":"","pricing_plan_id":"cebpf4jnsgd1na2vs0mg"},{"bike_id":"8dc70eaf-0be9-4b06-8c63-1b50e7b3586e","system_id":"levelo_inurba_marseille","lat":43.23964,"lon":5.36649,"is_reserved":false,"is_disabled":false,"rental_uris":{"android":"levelo://app?vid=8dc70eaf-0be9-4b06-8c63-1b50e7b3586e","ios":"levelo://app?vid=8dc70eaf-0be9-4b06-8c63-1b50e7b3586e"},"vehicle_type_id":"4","last_reported":1744992711,"current_range_meters":11200,"station_id":"ce4bhi12rcd13ifvqfp0","pricing_plan_id":"cebpf4jnsgd1na2vs0mg"},{"bike_id":"9ccc1250-0ff6-4acc-bd2f-67431ef76582","system_id":"levelo_inurba_marseille","lat":43.28448,"lon":5.34964,"is_reserved":false,"is_disabled":false,"rental_uris":{"android":"levelo://app?vid=9ccc1250-0ff6-4acc-bd2f-67431ef76582","ios":"levelo://app?vid=9ccc1250-0ff6-4acc-bd2f-67431ef76582"},"vehicle_type_id":"4","last_reported":1744992711,"current_range_meters":11200,"station_id":"ce4bhbh2rcd13ifvqepg","pricing_plan_id":"cebpf4jnsgd1na2vs0mg"},{"bike_id":"3e0de77b-da5f-4cad-8b0c-722c0bb6ea8c","system_id":"levelo_inurba_marseille","lat":43.31532,"lon":5.38027,"is_reserved":false,"is_disabled":false,"rental_uris":{"android":"levelo://app?vid=3e0de77b-da5f-4cad-8b0c-722c0bb6ea8c","ios":"levelo://app?vid=3e0de77b-da5f-4cad-8b0c-722c0bb6ea8c"},"vehicle_type_id":"4","last_reported":1744992711,"current_range_meters":11200,"station_id":"ce4bhsp2rcd13ifvqi50","pricing_plan_id":"cebpf4jnsgd1na2vs0mg"},{"bike_id":"397aa98a-9e95-44d5-b872-9acc43faf340","system_id":"levelo_inurba_marseille","lat":43.2859,"lon":5.35108,"is_reserved":false,"is_disabled":false,"rental_uris":{"android":"levelo://app?vid=397aa98a-9e95-44d5-b872-9acc43faf340","ios":"levelo://app?vid=397aa98a-9e95-44d5-b872-9acc43faf340"},"vehicle_type_id":"4","last_reported":1744992711,"current_range_meters":11200,"station_id":"ce4bhch2rcd13ifvqeug","pricing_plan_id":"cebpf4jnsgd1na2vs0mg"},{"bike_id":"3fc22ce7-8d82-48cd-b1c6-a5b6e809fb51","system_id":"levelo_inurba_marseille","lat":43.28724,"lon":5.36082,"is_reserved":false,"is_disabled":false,"rental_uris":{"android":"levelo://app?vid=3fc22ce7-8d82-48cd-b1c6-a5b6e809fb51","ios":"levelo://app?vid=3fc22ce7-8d82-48cd-b1c6-a5b6e809fb51"},"vehicle_type_id":"4","last_reported":1744992711,"current_range_meters":11600,"station_id":"cki0cbj6b192h4jlfktg","pricing_plan_id":"cebpf4jnsgd1na2vs0mg"},{"bike_id":"edd86df3-8049-4258-873c-02dfeb139a1b","system_id":"levelo_inurba_marseille","lat":43.2931,"lon":5.37188,"is_reserved":false,"is_disabled":false,"rental_uris":{"android":"levelo://app?vid=edd86df3-8049-4258-873c-02dfeb139a1b","ios":"levelo://app?vid=edd86df3-8049-4258-873c-02dfeb139a1b"},"vehicle_type_id":"4","last_reported":1744992711,"current_range_meters":11600,"station_id":"ce4bgh92rcd13ifvqb40","pricing_plan_id":"cebpf4jnsgd1na2vs0mg"},{"bike_id":"d92a4c16-19a8-405e-8094-ed363d97e43c","system_id":"levelo_inurba_marseille","lat":43.2738,"lon":5.36253,"is_reserved":false,"is_disabled":false,"rental_uris":{"android":"levelo://app?vid=d92a4c16-19a8-405e-8094-ed363d97e43c","ios":"levelo://app?vid=d92a4c16-19a8-405e-8094-ed363d97e43c"},"vehicle_type_id":"4","last_reported":1744992711,"current_range_meters":11600,"station_id":"ce4bhbh2rcd13ifvqeo0","pricing_plan_id":"cebpf4jnsgd1na2vs0mg"},{"bike_id":"e5abd047-5654-4355-841b-30f15e709a63","system_id":"levelo_inurba_marseille","lat":43.29006,"lon":5.3561,"is_reserved":false,"is_disabled":false,"rental_uris":{"android":"levelo://app?vid=e5abd047-5654-4355-841b-30f15e709a63","ios":"levelo://app?vid=e5abd047-5654-4355-841b-30f15e709a63"},"vehicle_type_id":"4","last_reported":1744992711,"current_range_meters":11200,"station_id":"ce4bhb92rcd13ifvqen0","pricing_plan_id":"cebpf4jnsgd1na2vs0mg"},{"bike_id":"8e0a9712-099c-452e-84f0-3f0227c620fc","system_id":"levelo_inurba_marseille","lat":43.28936,"lon":5.38376,"is_reserved":false,"is_disabled":false,"rental_uris":{"android":"levelo://app?vid=8e0a9712-099c-452e-84f0-3f0227c620fc","ios":"levelo://app?vid=8e0a9712-099c-452e-84f0-3f0227c620fc"},"vehicle_type_id":"4","last_reported":1744992711,"current_range_meters":11600,"station_id":"ce4bh612rcd13ifvqe6g","pricing_plan_id":"cebpf4jnsgd1na2vs0mg"},{"bike_id":"b6821e5f-2b42-4cde-8784-0fb0fe3fb2be","system_id":"levelo_inurba_marseille","lat":43.24661,"lon":5.38165,"is_reserved":false,"is_disabled":false,"rental_uris":{"android":"levelo://app?vid=b6821e5f-2b42-4cde-8784-0fb0fe3fb2be","ios":"levelo://app?vid=b6821e5f-2b42-4cde-8784-0fb0fe3fb2be"},"vehicle_type_id":"4","last_reported":1744992711,"current_range_meters":12000,"station_id":"ce4bhih2rcd13ifvqfr0","pricing_plan_id":"cebpf4jnsgd1na2vs0mg"},{"bike_id":"0da3e4a6-9d07-450f-aecf-24a3e0d337ce","system_id":"levelo_inurba_marseille","lat":43.24808,"lon":5.37466,"is_reserved":false,"is_disabled":false,"rental_uris":{"android":"levelo://app?vid=0da3e4a6-9d07-450f-aecf-24a3e0d337ce","ios":"levelo://app?vid=0da3e4a6-9d07-450f-aecf-24a3e0d337ce"},"vehicle_type_id":"4","last_reported":1744992711,"current_range_meters":12000,"station_id":"ce4bhgh2rcd13ifvqfb0","pricing_plan_id":"cebpf4jnsgd1na2vs0mg"},{"bike_id":"effb955a-fc18-4ef6-a97e-9417186c15b9","system_id":"levelo_inurba_marseille","lat":43.22935,"lon":5.35381,"is_reserved":false,"is_disabled":false,"rental_uris":{"android":"levelo://app?vid=effb955a-fc18-4ef6-a97e-9417186c15b9","ios":"levelo://app?vid=effb955a-fc18-4ef6-a97e-9417186c15b9"},"vehicle_type_id":"4","last_reported":1744992711,"current_range_meters":12000,"station_id":"cpo3532slgdg3j2ikp40","pricing_plan_id":"cebpf4jnsgd1na2vs0mg"},{"bike_id":"f191e01d-d704-41a7-a0d7-ff9612723a55","system_id":"levelo_inurba_marseille","lat":43.29524,"lon":5.394,"is_reserved":false,"is_disabled":false,"rental_uris":{"android":"levelo://app?vid=f191e01d-d704-41a7-a0d7-ff9612723a55","ios":"levelo://app?vid=f191e01d-d704-41a7-a0d7-ff9612723a55"},"vehicle_type_id":"4","last_reported":1744992711,"current_range_meters":12000,"station_id":"ce4bh292rcd13ifvqdf0","pricing_plan_id":"cebpf4jnsgd1na2vs0mg"},{"bike_id":"934a8fc0-98f8-4aaf-a145-d485dee937c7","system_id":"levelo_inurba_marseille","lat":43.32376,"lon":5.36787,"is_reserved":false,"is_disabled":false,"rental_uris":{"android":"levelo://app?vid=934a8fc0-98f8-4aaf-a145-d485dee937c7","ios":"levelo://app?vid=934a8fc0-98f8-4aaf-a145-d485dee937c7"},"vehicle_type_id":"4","last_reported":1744992711,"current_range_meters":12000,"station_id":"ce4bhsh2rcd13ifvqi2g","pricing_plan_id":"cebpf4jnsgd1na2vs0mg"},{"bike_id":"e4e3b38d-6a05-4651-9b02-52c7201e11e2","system_id":"levelo_inurba_marseille","lat":43.273795,"lon":5.362483,"is_reserved":false,"is_disabled":false,"rental_uris":{"android":"levelo://app?vid=e4e3b38d-6a05-4651-9b02-52c7201e11e2","ios":"levelo://app?vid=e4e3b38d-6a05-4651-9b02-52c7201e11e2"},"vehicle_type_id":"4","last_reported":1744992711,"current_range_meters":12000,"station_id":"ce4bhbh2rcd13ifvqeo0","pricing_plan_id":"cebpf4jnsgd1na2vs0mg"},{"bike_id":"d90f1740-ac3e-4975-b42b-0c5f4f55b4c8","system_id":"levelo_inurba_marseille","lat":43.2737,"lon":5.36237,"is_reserved":false,"is_disabled":false,"rental_uris":{"android":"levelo://app?vid=d90f1740-ac3e-4975-b42b-0c5f4f55b4c8","ios":"levelo://app?vid=d90f1740-ac3e-4975-b42b-0c5f4f55b4c8"},"vehicle_type_id":"4","last_reported":1744992711,"current_range_meters":12800,"station_id":"ce4bhbh2rcd13ifvqeo0","pricing_plan_id":"cebpf4jnsgd1na2vs0mg"},{"bike_id":"c09b1ff6-1e1f-4cd6-9ee9-4e1b23955bbc","system_id":"levelo_inurba_marseille","lat":43.231965,"lon":5.355517,"is_reserved":false,"is_disabled":true,"rental_uris":{"android":"levelo://app?vid=c09b1ff6-1e1f-4cd6-9ee9-4e1b23955bbc","ios":"levelo://app?vid=c09b1ff6-1e1f-4cd6-9ee9-4e1b23955bbc"},"vehicle_type_id":"4","last_reported":1744992711,"current_range_meters":12400,"station_id":"ce4bhu92rcd13ifvqi70","pricing_plan_id":"cebpf4jnsgd1na2vs0mg"},{"bike_id":"1eaca8f5-0017-418a-9bfc-52185bf67513","system_id":"levelo_inurba_marseille","lat":43.337275,"lon":5.391847,"is_reserved":false,"is_disabled":false,"rental_uris":{"android":"levelo://app?vid=1eaca8f5-0017-418a-9bfc-52185bf67513","ios":"levelo://app?vid=1eaca8f5-0017-418a-9bfc-52185bf67513"},"vehicle_type_id":"4","last_reported":1744992711,"current_range_meters":12400,"station_id":"ce4bhr92rcd13ifvqhsg","pricing_plan_id":"cebpf4jnsgd1na2vs0mg"},{"bike_id":"d05f67fa-2273-41b9-83ef-de27a8dc4492","system_id":"levelo_inurba_marseille","lat":43.29626,"lon":5.37708,"is_reserved":false,"is_disabled":false,"rental_uris":{"android":"levelo://app?vid=d05f67fa-2273-41b9-83ef-de27a8dc4492","ios":"levelo://app?vid=d05f67fa-2273-41b9-83ef-de27a8dc4492"},"vehicle_type_id":"4","last_reported":1744992711,"current_range_meters":12400,"station_id":"ce4bgi92rcd13ifvqb90","pricing_plan_id":"cebpf4jnsgd1na2vs0mg"},{"bike_id":"543765fe-3067-4e1f-8d52-4b498dd352f6","system_id":"levelo_inurba_marseille","lat":43.28661,"lon":5.36378,"is_reserved":false,"is_disabled":false,"rental_uris":{"android":"levelo://app?vid=543765fe-3067-4e1f-8d52-4b498dd352f6","ios":"levelo://app?vid=543765fe-3067-4e1f-8d52-4b498dd352f6"},"vehicle_type_id":"4","last_reported":1744992711,"current_range_meters":12400,"station_id":"ce4bhah2rcd13ifvqej0","pricing_plan_id":"cebpf4jnsgd1na2vs0mg"},{"bike_id":"0412a1ca-4def-4ac7-bfaa-effc8cbb5510","system_id":"levelo_inurba_marseille","lat":43.22958,"lon":5.3534,"is_reserved":false,"is_disabled":false,"rental_uris":{"android":"levelo://app?vid=0412a1ca-4def-4ac7-bfaa-effc8cbb5510","ios":"levelo://app?vid=0412a1ca-4def-4ac7-bfaa-effc8cbb5510"},"vehicle_type_id":"4","last_reported":1744992711,"current_range_meters":12400,"station_id":"cpo3532slgdg3j2ikp40","pricing_plan_id":"cebpf4jnsgd1na2vs0mg"},{"bike_id":"a0ddb0a5-f7f0-4281-aa27-9e82747cc573","system_id":"levelo_inurba_marseille","lat":43.33754,"lon":5.37491,"is_reserved":false,"is_disabled":false,"rental_uris":{"android":"levelo://app?vid=a0ddb0a5-f7f0-4281-aa27-9e82747cc573","ios":"levelo://app?vid=a0ddb0a5-f7f0-4281-aa27-9e82747cc573"},"vehicle_type_id":"4","last_reported":1744992711,"current_range_meters":12400,"station_id":"","pricing_plan_id":"cebpf4jnsgd1na2vs0mg"},{"bike_id":"4bcaca61-be58-49cf-89c9-274b98e3c699","system_id":"levelo_inurba_marseille","lat":43.31998,"lon":5.38156,"is_reserved":false,"is_disabled":true,"rental_uris":{"android":"levelo://app?vid=4bcaca61-be58-49cf-89c9-274b98e3c699","ios":"levelo://app?vid=4bcaca61-be58-49cf-89c9-274b98e3c699"},"vehicle_type_id":"4","last_reported":1744992711,"current_range_meters":12800,"station_id":"ce4bhr12rcd13ifvqhpg","pricing_plan_id":"cebpf4jnsgd1na2vs0mg"},{"bike_id":"882cc1db-385e-463f-bdef-42fbb594df5d","system_id":"levelo_inurba_marseille","lat":43.290753,"lon":5.371678,"is_reserved":false,"is_disabled":false,"rental_uris":{"android":"levelo://app?vid=882cc1db-385e-463f-bdef-42fbb594df5d","ios":"levelo://app?vid=882cc1db-385e-463f-bdef-42fbb594df5d"},"vehicle_type_id":"4","last_reported":1744992711,"current_range_meters":12800,"station_id":"ce4bh5p2rcd13ifvqe4g","pricing_plan_id":"cebpf4jnsgd1na2vs0mg"},{"bike_id":"fcce0a81-7f01-4677-8fbf-7d1beeacd038","system_id":"levelo_inurba_marseille","lat":43.26943,"lon":5.4025,"is_reserved":false,"is_disabled":false,"rental_uris":{"android":"levelo://app?vid=fcce0a81-7f01-4677-8fbf-7d1beeacd038","ios":"levelo://app?vid=fcce0a81-7f01-4677-8fbf-7d1beeacd038"},"vehicle_type_id":"4","last_reported":1744992711,"current_range_meters":12800,"station_id":"cjm6bp8fraef2m0cb0m0","pricing_plan_id":"cebpf4jnsgd1na2vs0mg"},{"bike_id":"ef8fb4f9-db30-4d05-a429-74f6463be2df","system_id":"levelo_inurba_marseille","lat":43.27998,"lon":5.40018,"is_reserved":false,"is_disabled":false,"rental_uris":{"android":"levelo://app?vid=ef8fb4f9-db30-4d05-a429-74f6463be2df","ios":"levelo://app?vid=ef8fb4f9-db30-4d05-a429-74f6463be2df"},"vehicle_type_id":"4","last_reported":1744992711,"current_range_meters":12800,"station_id":"ce4bho92rcd13ifvqh4g","pricing_plan_id":"cebpf4jnsgd1na2vs0mg"},{"bike_id":"3c187f0f-0abf-4d06-861f-e85aadce3532","system_id":"levelo_inurba_marseille","lat":43.28975,"lon":5.37818,"is_reserved":false,"is_disabled":false,"rental_uris":{"android":"levelo://app?vid=3c187f0f-0abf-4d06-861f-e85aadce3532","ios":"levelo://app?vid=3c187f0f-0abf-4d06-861f-e85aadce3532"},"vehicle_type_id":"4","last_reported":1744992711,"current_range_meters":13600,"station_id":"ce4bh9p2rcd13ifvqed0","pricing_plan_id":"cebpf4jnsgd1na2vs0mg"},{"bike_id":"33efbe4e-e642-4271-be29-4926b421ca5b","system_id":"levelo_inurba_marseille","lat":43.24164,"lon":5.36413,"is_reserved":false,"is_disabled":false,"rental_uris":{"android":"levelo://app?vid=33efbe4e-e642-4271-be29-4926b421ca5b","ios":"levelo://app?vid=33efbe4e-e642-4271-be29-4926b421ca5b"},"vehicle_type_id":"4","last_reported":1744992711,"current_range_meters":13600,"station_id":"cpo36qri1sfpv3e86is0","pricing_plan_id":"cebpf4jnsgd1na2vs0mg"},{"bike_id":"485d6e01-51b5-4179-87a9-d8f138a35415","system_id":"levelo_inurba_marseille","lat":43.21749,"lon":5.34617,"is_reserved":false,"is_disabled":false,"rental_uris":{"android":"levelo://app?vid=485d6e01-51b5-4179-87a9-d8f138a35415","ios":"levelo://app?vid=485d6e01-51b5-4179-87a9-d8f138a35415"},"vehicle_type_id":"4","last_reported":1744992711,"current_range_meters":13600,"station_id":"st_cvj6r9ubvosntc0bgbag","pricing_plan_id":"cebpf4jnsgd1na2vs0mg"},{"bike_id":"20a3019a-e2d7-4280-97fa-8a6577182f5e","system_id":"levelo_inurba_marseille","lat":43.28415,"lon":5.34976,"is_reserved":false,"is_disabled":false,"rental_uris":{"android":"levelo://app?vid=20a3019a-e2d7-4280-97fa-8a6577182f5e","ios":"levelo://app?vid=20a3019a-e2d7-4280-97fa-8a6577182f5e"},"vehicle_type_id":"4","last_reported":1744992711,"current_range_meters":13600,"station_id":"ce4bhbh2rcd13ifvqepg","pricing_plan_id":"cebpf4jnsgd1na2vs0mg"},{"bike_id":"bd4145fa-d2f8-466e-84b9-bb6b37ee0985","system_id":"levelo_inurba_marseille","lat":43.27906,"lon":5.3801,"is_reserved":false,"is_disabled":false,"rental_uris":{"android":"levelo://app?vid=bd4145fa-d2f8-466e-84b9-bb6b37ee0985","ios":"levelo://app?vid=bd4145fa-d2f8-466e-84b9-bb6b37ee0985"},"vehicle_type_id":"4","last_reported":1744992711,"current_range_meters":14000,"station_id":"ce4bhf92rcd13ifvqf50","pricing_plan_id":"cebpf4jnsgd1na2vs0mg"},{"bike_id":"36ab45f2-4fe6-46ca-be07-c254b02b64ef","system_id":"levelo_inurba_marseille","lat":43.28418,"lon":5.34999,"is_reserved":false,"is_disabled":false,"rental_uris":{"android":"levelo://app?vid=36ab45f2-4fe6-46ca-be07-c254b02b64ef","ios":"levelo://app?vid=36ab45f2-4fe6-46ca-be07-c254b02b64ef"},"vehicle_type_id":"4","last_reported":1744992711,"current_range_meters":14000,"station_id":"ce4bhbh2rcd13ifvqepg","pricing_plan_id":"cebpf4jnsgd1na2vs0mg"},{"bike_id":"a84c6798-87cc-40f6-ac43-3a8c436bfb21","system_id":"levelo_inurba_marseille","lat":43.28459,"lon":5.35887,"is_reserved":false,"is_disabled":false,"rental_uris":{"android":"levelo://app?vid=a84c6798-87cc-40f6-ac43-3a8c436bfb21","ios":"levelo://app?vid=a84c6798-87cc-40f6-ac43-3a8c436bfb21"},"vehicle_type_id":"4","last_reported":1744992711,"current_range_meters":14000,"station_id":"ce4bhah2rcd13ifvqei0","pricing_plan_id":"cebpf4jnsgd1na2vs0mg"},{"bike_id":"0acc6573-c1a2-40dc-ab0b-bd40d5690dc4","system_id":"levelo_inurba_marseille","lat":43.2971,"lon":5.36602,"is_reserved":false,"is_disabled":false,"rental_uris":{"android":"levelo://app?vid=0acc6573-c1a2-40dc-ab0b-bd40d5690dc4","ios":"levelo://app?vid=0acc6573-c1a2-40dc-ab0b-bd40d5690dc4"},"vehicle_type_id":"4","last_reported":1744992711,"current_range_meters":14000,"station_id":"ce4bgn12rcd13ifvqbt0","pricing_plan_id":"cebpf4jnsgd1na2vs0mg"},{"bike_id":"942a15f6-93c9-4a32-8445-d7ec86497fba","system_id":"levelo_inurba_marseille","lat":43.27943,"lon":5.41038,"is_reserved":false,"is_disabled":false,"rental_uris":{"android":"levelo://app?vid=942a15f6-93c9-4a32-8445-d7ec86497fba","ios":"levelo://app?vid=942a15f6-93c9-4a32-8445-d7ec86497fba"},"vehicle_type_id":"4","last_reported":1744992711,"current_range_meters":14000,"station_id":"ce4bhnp2rcd13ifvqh0g","pricing_plan_id":"cebpf4jnsgd1na2vs0mg"},{"bike_id":"e5e95889-517f-4ad3-96f1-4500e0ea80bd","system_id":"levelo_inurba_marseille","lat":43.26021,"lon":5.41741,"is_reserved":false,"is_disabled":false,"rental_uris":{"android":"levelo://app?vid=e5e95889-517f-4ad3-96f1-4500e0ea80bd","ios":"levelo://app?vid=e5e95889-517f-4ad3-96f1-4500e0ea80bd"},"vehicle_type_id":"4","last_reported":1744992711,"current_range_meters":14000,"station_id":"","pricing_plan_id":"cebpf4jnsgd1na2vs0mg"},{"bike_id":"e3b3d965-16ac-444b-9646-69baa029951a","system_id":"levelo_inurba_marseille","lat":43.3148,"lon":5.37315,"is_reserved":false,"is_disabled":false,"rental_uris":{"android":"levelo://app?vid=e3b3d965-16ac-444b-9646-69baa029951a","ios":"levelo://app?vid=e3b3d965-16ac-444b-9646-69baa029951a"},"vehicle_type_id":"4","last_reported":1744992711,"current_range_meters":14000,"station_id":"ce4bgt12rcd13ifvqcd0","pricing_plan_id":"cebpf4jnsgd1na2vs0mg"},{"bike_id":"4ad235a7-1f55-40c3-8463-9fbf6d3314cb","system_id":"levelo_inurba_marseille","lat":43.23967,"lon":5.36631,"is_reserved":false,"is_disabled":false,"rental_uris":{"android":"levelo://app?vid=4ad235a7-1f55-40c3-8463-9fbf6d3314cb","ios":"levelo://app?vid=4ad235a7-1f55-40c3-8463-9fbf6d3314cb"},"vehicle_type_id":"4","last_reported":1744992711,"current_range_meters":14000,"station_id":"ce4bhi12rcd13ifvqfp0","pricing_plan_id":"cebpf4jnsgd1na2vs0mg"},{"bike_id":"49b38885-dfe3-470d-8940-75407a3e58e7","system_id":"levelo_inurba_marseille","lat":43.31717,"lon":5.43708,"is_reserved":false,"is_disabled":false,"rental_uris":{"android":"levelo://app?vid=49b38885-dfe3-470d-8940-75407a3e58e7","ios":"levelo://app?vid=49b38885-dfe3-470d-8940-75407a3e58e7"},"vehicle_type_id":"4","last_reported":1744992711,"current_range_meters":14000,"station_id":"ce4bhp92rcd13ifvqhcg","pricing_plan_id":"cebpf4jnsgd1na2vs0mg"},{"bike_id":"ef6e9c6f-8f69-4fcf-9727-b556a001e5bc","system_id":"levelo_inurba_marseille","lat":43.29562,"lon":5.42289,"is_reserved":false,"is_disabled":false,"rental_uris":{"android":"levelo://app?vid=ef6e9c6f-8f69-4fcf-9727-b556a001e5bc","ios":"levelo://app?vid=ef6e9c6f-8f69-4fcf-9727-b556a001e5bc"},"vehicle_type_id":"4","last_reported":1744992711,"current_range_meters":14000,"station_id":"ce4bhph2rcd13ifvqhdg","pricing_plan_id":"cebpf4jnsgd1na2vs0mg"},{"bike_id":"ebc49b44-712f-4eac-9925-b4c8247e2824","system_id":"levelo_inurba_marseille","lat":43.29046,"lon":5.35919,"is_reserved":false,"is_disabled":false,"rental_uris":{"android":"levelo://app?vid=ebc49b44-712f-4eac-9925-b4c8247e2824","ios":"levelo://app?vid=ebc49b44-712f-4eac-9925-b4c8247e2824"},"vehicle_type_id":"4","last_reported":1744992711,"current_range_meters":14000,"station_id":"ce4bha92rcd13ifvqeg0","pricing_plan_id":"cebpf4jnsgd1na2vs0mg"},{"bike_id":"68342d9f-f0b6-47e7-b690-b27078e67a77","system_id":"levelo_inurba_marseille","lat":43.24161,"lon":5.36415,"is_reserved":false,"is_disabled":false,"rental_uris":{"android":"levelo://app?vid=68342d9f-f0b6-47e7-b690-b27078e67a77","ios":"levelo://app?vid=68342d9f-f0b6-47e7-b690-b27078e67a77"},"vehicle_type_id":"4","last_reported":1744992711,"current_range_meters":14400,"station_id":"cpo36qri1sfpv3e86is0","pricing_plan_id":"cebpf4jnsgd1na2vs0mg"},{"bike_id":"e6c4419c-3a6a-4da0-b1a2-0e428fb4aae3","system_id":"levelo_inurba_marseille","lat":43.29937,"lon":5.36519,"is_reserved":false,"is_disabled":false,"rental_uris":{"android":"levelo://app?vid=e6c4419c-3a6a-4da0-b1a2-0e428fb4aae3","ios":"levelo://app?vid=e6c4419c-3a6a-4da0-b1a2-0e428fb4aae3"},"vehicle_type_id":"4","last_reported":1744992711,"current_range_meters":14400,"station_id":"ce4bgm92rcd13ifvqbr0","pricing_plan_id":"cebpf4jnsgd1na2vs0mg"},{"bike_id":"c28deadd-d8c1-421e-b64f-1e6676395fa6","system_id":"levelo_inurba_marseille","lat":43.29066,"lon":5.37159,"is_reserved":false,"is_disabled":false,"rental_uris":{"android":"levelo://app?vid=c28deadd-d8c1-421e-b64f-1e6676395fa6","ios":"levelo://app?vid=c28deadd-d8c1-421e-b64f-1e6676395fa6"},"vehicle_type_id":"4","last_reported":1744992711,"current_range_meters":14400,"station_id":"ce4bh5p2rcd13ifvqe4g","pricing_plan_id":"cebpf4jnsgd1na2vs0mg"},{"bike_id":"6f523da1-5f60-475c-93df-7a5b709bcac9","system_id":"levelo_inurba_marseille","lat":43.23191,"lon":5.35546,"is_reserved":false,"is_disabled":false,"rental_uris":{"android":"levelo://app?vid=6f523da1-5f60-475c-93df-7a5b709bcac9","ios":"levelo://app?vid=6f523da1-5f60-475c-93df-7a5b709bcac9"},"vehicle_type_id":"4","last_reported":1744992711,"current_range_meters":14400,"station_id":"ce4bhu92rcd13ifvqi70","pricing_plan_id":"cebpf4jnsgd1na2vs0mg"},{"bike_id":"d295217d-2c7d-4eb3-8664-5fc187f43dc1","system_id":"levelo_inurba_marseille","lat":43.29431,"lon":5.39759,"is_reserved":false,"is_disabled":false,"rental_uris":{"android":"levelo://app?vid=d295217d-2c7d-4eb3-8664-5fc187f43dc1","ios":"levelo://app?vid=d295217d-2c7d-4eb3-8664-5fc187f43dc1"},"vehicle_type_id":"4","last_reported":1744992711,"current_range_meters":14400,"station_id":"ce4bh3h2rcd13ifvqdo0","pricing_plan_id":"cebpf4jnsgd1na2vs0mg"},{"bike_id":"0d1643ba-13c4-44b3-a763-bfb3ae6b874c","system_id":"levelo_inurba_marseille","lat":43.27987,"lon":5.41661,"is_reserved":false,"is_disabled":false,"rental_uris":{"android":"levelo://app?vid=0d1643ba-13c4-44b3-a763-bfb3ae6b874c","ios":"levelo://app?vid=0d1643ba-13c4-44b3-a763-bfb3ae6b874c"},"vehicle_type_id":"4","last_reported":1744992711,"current_range_meters":14000,"station_id":"ce4bho12rcd13ifvqh1g","pricing_plan_id":"cebpf4jnsgd1na2vs0mg"},{"bike_id":"7eb8853e-3665-40f5-8308-1299f0674652","system_id":"levelo_inurba_marseille","lat":43.30373,"lon":5.42483,"is_reserved":false,"is_disabled":false,"rental_uris":{"android":"levelo://app?vid=7eb8853e-3665-40f5-8308-1299f0674652","ios":"levelo://app?vid=7eb8853e-3665-40f5-8308-1299f0674652"},"vehicle_type_id":"4","last_reported":1744992711,"current_range_meters":14400,"station_id":"ce4bhoh2rcd13ifvqh6g","pricing_plan_id":"cebpf4jnsgd1na2vs0mg"},{"bike_id":"45d3a127-db90-42a8-ae04-34a544c52a79","system_id":"levelo_inurba_marseille","lat":43.22943,"lon":5.3538,"is_reserved":false,"is_disabled":false,"rental_uris":{"android":"levelo://app?vid=45d3a127-db90-42a8-ae04-34a544c52a79","ios":"levelo://app?vid=45d3a127-db90-42a8-ae04-34a544c52a79"},"vehicle_type_id":"4","last_reported":1744992711,"current_range_meters":14400,"station_id":"cpo3532slgdg3j2ikp40","pricing_plan_id":"cebpf4jnsgd1na2vs0mg"},{"bike_id":"36bd0b25-8ba2-44c6-b39e-9ac1c783047b","system_id":"levelo_inurba_marseille","lat":43.26808,"lon":5.40268,"is_reserved":false,"is_disabled":false,"rental_uris":{"android":"levelo://app?vid=36bd0b25-8ba2-44c6-b39e-9ac1c783047b","ios":"levelo://app?vid=36bd0b25-8ba2-44c6-b39e-9ac1c783047b"},"vehicle_type_id":"4","last_reported":1744992711,"current_range_meters":14800,"station_id":"ce501612rcd8frsf0b60","pricing_plan_id":"cebpf4jnsgd1na2vs0mg"},{"bike_id":"ef871c8e-2013-4622-a683-0ab17a74d870","system_id":"levelo_inurba_marseille","lat":43.23194,"lon":5.35553,"is_reserved":false,"is_disabled":true,"rental_uris":{"android":"levelo://app?vid=ef871c8e-2013-4622-a683-0ab17a74d870","ios":"levelo://app?vid=ef871c8e-2013-4622-a683-0ab17a74d870"},"vehicle_type_id":"4","last_reported":1744992711,"current_range_meters":14800,"station_id":"ce4bhu92rcd13ifvqi70","pricing_plan_id":"cebpf4jnsgd1na2vs0mg"},{"bike_id":"110c4abb-ffb8-4fd0-ba35-0e68e73379e5","system_id":"levelo_inurba_marseille","lat":43.22941,"lon":5.35386,"is_reserved":false,"is_disabled":false,"rental_uris":{"android":"levelo://app?vid=110c4abb-ffb8-4fd0-ba35-0e68e73379e5","ios":"levelo://app?vid=110c4abb-ffb8-4fd0-ba35-0e68e73379e5"},"vehicle_type_id":"4","last_reported":1744992711,"current_range_meters":14800,"station_id":"cpo3532slgdg3j2ikp40","pricing_plan_id":"cebpf4jnsgd1na2vs0mg"},{"bike_id":"34a551de-afb8-48c0-8dc0-61c4ea2eebdb","system_id":"levelo_inurba_marseille","lat":43.28668,"lon":5.3635,"is_reserved":false,"is_disabled":false,"rental_uris":{"android":"levelo://app?vid=34a551de-afb8-48c0-8dc0-61c4ea2eebdb","ios":"levelo://app?vid=34a551de-afb8-48c0-8dc0-61c4ea2eebdb"},"vehicle_type_id":"4","last_reported":1744992711,"current_range_meters":14800,"station_id":"ce4bhah2rcd13ifvqej0","pricing_plan_id":"cebpf4jnsgd1na2vs0mg"},{"bike_id":"eff3f5a8-93f2-4adb-9e21-522b574e8178","system_id":"levelo_inurba_marseille","lat":43.30139,"lon":5.38785,"is_reserved":false,"is_disabled":false,"rental_uris":{"android":"levelo://app?vid=eff3f5a8-93f2-4adb-9e21-522b574e8178","ios":"levelo://app?vid=eff3f5a8-93f2-4adb-9e21-522b574e8178"},"vehicle_type_id":"4","last_reported":1744992711,"current_range_meters":15200,"station_id":"ce4bghh2rcd13ifvqb60","pricing_plan_id":"cebpf4jnsgd1na2vs0mg"},{"bike_id":"186380b9-3dab-457b-b648-71d123fa0368","system_id":"levelo_inurba_marseille","lat":43.25118,"lon":5.40325,"is_reserved":false,"is_disabled":true,"rental_uris":{"android":"levelo://app?vid=186380b9-3dab-457b-b648-71d123fa0368","ios":"levelo://app?vid=186380b9-3dab-457b-b648-71d123fa0368"},"vehicle_type_id":"4","last_reported":1744992711,"current_range_meters":15200,"station_id":"ce4bhlh2rcd13ifvqgig","pricing_plan_id":"cebpf4jnsgd1na2vs0mg"},{"bike_id":"81d07084-66a1-44dc-ae08-3b708e7b5eb3","system_id":"levelo_inurba_marseille","lat":43.25016,"lon":5.3892,"is_reserved":false,"is_disabled":false,"rental_uris":{"android":"levelo://app?vid=81d07084-66a1-44dc-ae08-3b708e7b5eb3","ios":"levelo://app?vid=81d07084-66a1-44dc-ae08-3b708e7b5eb3"},"vehicle_type_id":"4","last_reported":1744992711,"current_range_meters":16000,"station_id":"ce4bhgp2rcd13ifvqfd0","pricing_plan_id":"cebpf4jnsgd1na2vs0mg"},{"bike_id":"91aa591a-3e56-4092-a295-ecb6aebe69eb","system_id":"levelo_inurba_marseille","lat":43.22502,"lon":5.34775,"is_reserved":false,"is_disabled":false,"rental_uris":{"android":"levelo://app?vid=91aa591a-3e56-4092-a295-ecb6aebe69eb","ios":"levelo://app?vid=91aa591a-3e56-4092-a295-ecb6aebe69eb"},"vehicle_type_id":"4","last_reported":1744992711,"current_range_meters":16000,"station_id":"st_cvj5dfep6f1abm77gieg","pricing_plan_id":"cebpf4jnsgd1na2vs0mg"},{"bike_id":"9c606edd-1a9d-4c8a-b1c9-941230c96f86","system_id":"levelo_inurba_marseille","lat":43.28423,"lon":5.35011,"is_reserved":false,"is_disabled":false,"rental_uris":{"android":"levelo://app?vid=9c606edd-1a9d-4c8a-b1c9-941230c96f86","ios":"levelo://app?vid=9c606edd-1a9d-4c8a-b1c9-941230c96f86"},"vehicle_type_id":"4","last_reported":1744992711,"current_range_meters":16000,"station_id":"ce4bhbh2rcd13ifvqepg","pricing_plan_id":"cebpf4jnsgd1na2vs0mg"},{"bike_id":"9beecbd5-192e-436b-972f-422a9542399c","system_id":"levelo_inurba_marseille","lat":43.28657,"lon":5.36356,"is_reserved":false,"is_disabled":false,"rental_uris":{"android":"levelo://app?vid=9beecbd5-192e-436b-972f-422a9542399c","ios":"levelo://app?vid=9beecbd5-192e-436b-972f-422a9542399c"},"vehicle_type_id":"4","last_reported":1744992711,"current_range_meters":16000,"station_id":"ce4bhah2rcd13ifvqej0","pricing_plan_id":"cebpf4jnsgd1na2vs0mg"},{"bike_id":"53c0ab15-bc7a-463b-bcb3-6be07b649e66","system_id":"levelo_inurba_marseille","lat":43.301453,"lon":5.380854,"is_reserved":false,"is_disabled":false,"rental_uris":{"android":"levelo://app?vid=53c0ab15-bc7a-463b-bcb3-6be07b649e66","ios":"levelo://app?vid=53c0ab15-bc7a-463b-bcb3-6be07b649e66"},"vehicle_type_id":"4","last_reported":1744992711,"current_range_meters":16000,"station_id":"ce4bgjp2rcd13ifvqbh0","pricing_plan_id":"cebpf4jnsgd1na2vs0mg"},{"bike_id":"789c3822-56ca-4769-bcd4-8845bdea2fda","system_id":"levelo_inurba_marseille","lat":43.24163,"lon":5.36414,"is_reserved":false,"is_disabled":false,"rental_uris":{"android":"levelo://app?vid=789c3822-56ca-4769-bcd4-8845bdea2fda","ios":"levelo://app?vid=789c3822-56ca-4769-bcd4-8845bdea2fda"},"vehicle_type_id":"4","last_reported":1744992711,"current_range_meters":16000,"station_id":"cpo36qri1sfpv3e86is0","pricing_plan_id":"cebpf4jnsgd1na2vs0mg"},{"bike_id":"1c1c931f-8118-4920-9373-71d9ffcaa39b","system_id":"levelo_inurba_marseille","lat":43.28418,"lon":5.34972,"is_reserved":false,"is_disabled":false,"rental_uris":{"android":"levelo://app?vid=1c1c931f-8118-4920-9373-71d9ffcaa39b","ios":"levelo://app?vid=1c1c931f-8118-4920-9373-71d9ffcaa39b"},"vehicle_type_id":"4","last_reported":1744992711,"current_range_meters":16000,"station_id":"ce4bhbh2rcd13ifvqepg","pricing_plan_id":"cebpf4jnsgd1na2vs0mg"},{"bike_id":"ad50f2be-7022-4332-b96f-5eb417f08c6c","system_id":"levelo_inurba_marseille","lat":43.25584,"lon":5.38224,"is_reserved":false,"is_disabled":false,"rental_uris":{"android":"levelo://app?vid=ad50f2be-7022-4332-b96f-5eb417f08c6c","ios":"levelo://app?vid=ad50f2be-7022-4332-b96f-5eb417f08c6c"},"vehicle_type_id":"4","last_reported":1744992711,"current_range_meters":16000,"station_id":"ce4bhih2rcd13ifvqfs0","pricing_plan_id":"cebpf4jnsgd1na2vs0mg"},{"bike_id":"427388d4-7b9b-4230-bba2-a16af7c8d5e0","system_id":"levelo_inurba_marseille","lat":43.29193,"lon":5.35799,"is_reserved":false,"is_disabled":false,"rental_uris":{"android":"levelo://app?vid=427388d4-7b9b-4230-bba2-a16af7c8d5e0","ios":"levelo://app?vid=427388d4-7b9b-4230-bba2-a16af7c8d5e0"},"vehicle_type_id":"4","last_reported":1744992711,"current_range_meters":16000,"station_id":"ce4bhb12rcd13ifvqel0","pricing_plan_id":"cebpf4jnsgd1na2vs0mg"},{"bike_id":"2c23df79-4ee3-488c-b35b-ad8c2672cd48","system_id":"levelo_inurba_marseille","lat":43.259793,"lon":5.408645,"is_reserved":false,"is_disabled":false,"rental_uris":{"android":"levelo://app?vid=2c23df79-4ee3-488c-b35b-ad8c2672cd48","ios":"levelo://app?vid=2c23df79-4ee3-488c-b35b-ad8c2672cd48"},"vehicle_type_id":"4","last_reported":1744992711,"current_range_meters":16000,"station_id":"cjm6bp8fraef2m0cb0m0","pricing_plan_id":"cebpf4jnsgd1na2vs0mg"},{"bike_id":"685e4a87-aaeb-427b-b02b-30c72d8fabc5","system_id":"levelo_inurba_marseille","lat":43.32479,"lon":5.36576,"is_reserved":false,"is_disabled":false,"rental_uris":{"android":"levelo://app?vid=685e4a87-aaeb-427b-b02b-30c72d8fabc5","ios":"levelo://app?vid=685e4a87-aaeb-427b-b02b-30c72d8fabc5"},"vehicle_type_id":"4","last_reported":1744992711,"current_range_meters":15200,"station_id":"ce4bhs12rcd13ifvqhvg","pricing_plan_id":"cebpf4jnsgd1na2vs0mg"},{"bike_id":"895b4cd9-6f14-4784-8473-a7cff979f279","system_id":"levelo_inurba_marseille","lat":43.29199,"lon":5.35798,"is_reserved":false,"is_disabled":false,"rental_uris":{"android":"levelo://app?vid=895b4cd9-6f14-4784-8473-a7cff979f279","ios":"levelo://app?vid=895b4cd9-6f14-4784-8473-a7cff979f279"},"vehicle_type_id":"4","last_reported":1744992711,"current_range_meters":15200,"station_id":"ce4bhb12rcd13ifvqel0","pricing_plan_id":"cebpf4jnsgd1na2vs0mg"},