{"last_updated":1737616093,"ttl":60,"version":"2.2","data":{"bikes":[{"bike_id":"7d3af6dd-db31-4922-9ff0-b44716cb80a3","system_id":"levelo_inurba_marseille","lat":43.25578,"lon":5.38227,"is_reserved":false,"is_disabled":false,"rental_uris":{"android":"levelo://app?vid=7d3af6dd-db31-4922-9ff0-b44716cb80a3","ios":"levelo://app?vid=7d3af6dd-db31-4922-9ff0-b44716cb80a3"},"vehicle_type_id":"4","last_reported":1737616093,"current_range_meters":22800,"station_id":"ce4bhih2rcd13ifvqfs0","pricing_plan_id":"cebpf4jnsgd1na2vs0mg"},{"bike_id":"bc87ebb9-79d8-48ae-98f1-73024abdc038","system_id":"levelo_inurba_marseille","lat":43.29215,"lon":5.36043,"is_reserved":false,"is_disabled":true,"rental_uris":{"android":"levelo://app?vid=bc87ebb9-79d8-48ae-98f1-73024abdc038","ios":"levelo://app?vid=bc87ebb9-79d8-48ae-98f1-73024abdc038"},"vehicle_type_id":"4","last_reported":1737616093,"current_range_meters":0,"station_id":"ce4bhbh2rcd13ifvqeqg","pricing_plan_id":"cebpf4jnsgd1na2vs0mg"},{"bike_id":"ec1f4643-15ab-4265-9664-42af5b0f443e","system_id":"levelo_inurba_marseille","lat":43.30604,"lon":5.39374,"is_reserved":false,"is_disabled":false,"rental_uris":{"android":"levelo://app?vid=ec1f4643-15ab-4265-9664-42af5b0f443e","ios":"levelo://app?vid=ec1f4643-15ab-4265-9664-42af5b0f443e"},"vehicle_type_id":"4","last_reported":1737616093,"current_range_meters":22000,"station_id":"ce4bh0p2rcd13ifvqd80","pricing_plan_id":"cebpf4jnsgd1na2vs0mg"},{"bike_id":"20362929-6f62-4546-bd14-cd122c4c8132","system_id":"levelo_inurba_marseille","lat":43.29014,"lon":5.38639,"is_reserved":false,"is_disabled":false,"rental_uris":{"android":"levelo://app?vid=20362929-6f62-4546-bd14-cd122c4c8132","ios":"levelo://app?vid=20362929-6f62-4546-bd14-cd122c4c8132"},"vehicle_type_id":"4","last_reported":1737616093,"current_range_meters":20800,"station_id":"ce4bh4p2rcd13ifvqe0g","pricing_plan_id":"cebpf4jnsgd1na2vs0mg"},{"bike_id":"b4515517-c8a5-4347-9a75-b80759d8b378","system_id":"levelo_inurba_marseille","lat":43.297131,"lon":5.366145,"is_reserved":false,"is_disabled":false,"rental_uris":{"android":"levelo://app?vid=b4515517-c8a5-4347-9a75-b80759d8b378","ios":"levelo://app?vid=b4515517-c8a5-4347-9a75-b80759d8b378"},"vehicle_type_id":"4","last_reported":1737616093,"current_range_meters":38800,"station_id":"ce4bgn12rcd13ifvqbt0","pricing_plan_id":"cebpf4jnsgd1na2vs0mg"},{"bike_id":"d6d899e0-c54c-4add-9b8f-c5faac2bf75e","system_id":"levelo_inurba_marseille","lat":43.2861,"lon":5.35084,"is_reserved":false,"is_disabled":false,"rental_uris":{"android":"levelo://app?vid=d6d899e0-c54c-4add-9b8f-c5faac2bf75e","ios":"levelo://app?vid=d6d899e0-c54c-4add-9b8f-c5faac2bf75e"},"vehicle_type_id":"4","last_reported":1737616093,"current_range_meters":32400,"station_id":"ce4bhch2rcd13ifvqeug","pricing_plan_id":"cebpf4jnsgd1na2vs0mg"},{"bike_id":"26328479-63ef-41c0-a448-bee13cb44c95","system_id":"levelo_inurba_marseille","lat":43.28714,"lon":5.36084,"is_reserved":false,"is_disabled":false,"rental_uris":{"android":"levelo://app?vid=26328479-63ef-41c0-a448-bee13cb44c95","ios":"levelo://app?vid=26328479-63ef-41c0-a448-bee13cb44c95"},"vehicle_type_id":"4","last_reported":1737616093,"current_range_meters":24800,"station_id":"cki0cbj6b192h4jlfktg","pricing_plan_id":"cebpf4jnsgd1na2vs0mg"},{"bike_id":"5b74ddfe-8892-46b5-8064-fcc9f1188889","system_id":"levelo_inurba_marseille","lat":43.30475,"lon":5.37907,"is_reserved":false,"is_disabled":false,"rental_uris":{"android":"levelo://app?vid=5b74ddfe-8892-46b5-8064-fcc9f1188889","ios":"levelo://app?vid=5b74ddfe-8892-46b5-8064-fcc9f1188889"},"vehicle_type_id":"4","last_reported":1737616093,"current_range_meters":25200,"station_id":"ce4bgup2rcd13ifvqcn0","pricing_plan_id":"cebpf4jnsgd1na2vs0mg"},{"bike_id":"fd2f941c-3ecb-4add-92f7-a9fba35a53f1","system_id":"levelo_inurba_marseille","lat":43.30802,"lon":5.38115,"is_reserved":false,"is_disabled":false,"rental_uris":{"android":"levelo://app?vid=fd2f941c-3ecb-4add-92f7-a9fba35a53f1","ios":"levelo://app?vid=fd2f941c-3ecb-4add-92f7-a9fba35a53f1"},"vehicle_type_id":"4","last_reported":1737616093,"current_range_meters":16800,"station_id":"ce4bgt12rcd13ifvqce0","pricing_plan_id":"cebpf4jnsgd1na2vs0mg"},{"bike_id":"cc01a69d-a58e-43ce-8178-1c56f048940e","system_id":"levelo_inurba_marseille","lat":43.231541,"lon":5.437134,"is_reserved":false,"is_disabled":false,"rental_uris":{"android":"levelo://app?vid=cc01a69d-a58e-43ce-8178-1c56f048940e","ios":"levelo://app?vid=cc01a69d-a58e-43ce-8178-1c56f048940e"},"vehicle_type_id":"4","last_reported":1737616093,"current_range_meters":4000,"station_id":"ce4bhmp2rcd13ifvqgog","pricing_plan_id":"cebpf4jnsgd1na2vs0mg"},{"bike_id":"9d3a46e0-8be9-4564-b938-0cf12747b06b","system_id":"levelo_inurba_marseille","lat":43.30582,"lon":5.39346,"is_reserved":false,"is_disabled":false,"rental_uris":{"android":"levelo://app?vid=9d3a46e0-8be9-4564-b938-0cf12747b06b","ios":"levelo://app?vid=9d3a46e0-8be9-4564-b938-0cf12747b06b"},"vehicle_type_id":"4","last_reported":1737616093,"current_range_meters":32000,"station_id":"ce4bh0p2rcd13ifvqd80","pricing_plan_id":"cebpf4jnsgd1na2vs0mg"},{"bike_id":"52bfe84c-e6b2-45c9-a02c-0a086a3b4c79","system_id":"levelo_inurba_marseille","lat":43.32472,"lon":5.36571,"is_reserved":false,"is_disabled":false,"rental_uris":{"android":"levelo://app?vid=52bfe84c-e6b2-45c9-a02c-0a086a3b4c79","ios":"levelo://app?vid=52bfe84c-e6b2-45c9-a02c-0a086a3b4c79"},"vehicle_type_id":"4","last_reported":1737616093,"current_range_meters":10000,"station_id":"ce4bhs12rcd13ifvqhvg","pricing_plan_id":"cebpf4jnsgd1na2vs0mg"},{"bike_id":"f9509cf3-61c9-4e98-a3dc-ab6e052fedb5","system_id":"levelo_inurba_marseille","lat":43.24073,"lon":5.37756,"is_reserved":false,"is_disabled":false,"rental_uris":{"android":"levelo://app?vid=f9509cf3-61c9-4e98-a3dc-ab6e052fedb5","ios":"levelo://app?vid=f9509cf3-61c9-4e98-a3dc-ab6e052fedb5"},"vehicle_type_id":"4","last_reported":1737616093,"current_range_meters":38800,"station_id":"ce4bhnp2rcd13ifvqgvg","pricing_plan_id":"cebpf4jnsgd1na2vs0mg"},{"bike_id":"a506d7ba-7893-4d7f-a468-571ec6a560e4","system_id":"levelo_inurba_marseille","lat":43.30536,"lon":5.36711,"is_reserved":false,"is_disabled":false,"rental_uris":{"android":"levelo://app?vid=a506d7ba-7893-4d7f-a468-571ec6a560e4","ios":"levelo://app?vid=a506d7ba-7893-4d7f-a468-571ec6a560e4"},"vehicle_type_id":"4","last_reported":1737616093,"current_range_meters":9600,"station_id":"ce4bgrp2rcd13ifvqc9g","pricing_plan_id":"cebpf4jnsgd1na2vs0mg"},{"bike_id":"60cbe3d7-e4b4-4986-afa1-ce2c48a0013d","system_id":"levelo_inurba_marseille","lat":43.30157,"lon":5.38083,"is_reserved":false,"is_disabled":false,"rental_uris":{"android":"levelo://app?vid=60cbe3d7-e4b4-4986-afa1-ce2c48a0013d","ios":"levelo://app?vid=60cbe3d7-e4b4-4986-afa1-ce2c48a0013d"},"vehicle_type_id":"4","last_reported":1737616093,"current_range_meters":31200,"station_id":"ce4bgjp2rcd13ifvqbh0","pricing_plan_id":"cebpf4jnsgd1na2vs0mg"},{"bike_id":"4be13bc4-0114-482d-8116-e8f7683c4a6a","system_id":"levelo_inurba_marseille","lat":43.33017,"lon":5.3903,"is_reserved":false,"is_disabled":false,"rental_uris":{"android":"levelo://app?vid=4be13bc4-0114-482d-8116-e8f7683c4a6a","ios":"levelo://app?vid=4be13bc4-0114-482d-8116-e8f7683c4a6a"},"vehicle_type_id":"4","last_reported":1737616093,"current_range_meters":37600,"station_id":"ce4bhr92rcd13ifvqhrg","pricing_plan_id":"cebpf4jnsgd1na2vs0mg"},{"bike_id":"bc745567-2617-4234-9825-5c11a74bb56b","system_id":"levelo_inurba_marseille","lat":43.28436,"lon":5.39197,"is_reserved":false,"is_disabled":false,"rental_uris":{"android":"levelo://app?vid=bc745567-2617-4234-9825-5c11a74bb56b","ios":"levelo://app?vid=bc745567-2617-4234-9825-5c11a74bb56b"},"vehicle_type_id":"4","last_reported":1737616093,"current_range_meters":36400,"station_id":"ce4bhoh2rcd13ifvqh5g","pricing_plan_id":"cebpf4jnsgd1na2vs0mg"},{"bike_id":"fbdc4a56-ecfa-49a3-9f96-c2d9f2b72d7f","system_id":"levelo_inurba_marseille","lat":43.274245,"lon":5.394069,"is_reserved":false,"is_disabled":false,"rental_uris":{"android":"levelo://app?vid=fbdc4a56-ecfa-49a3-9f96-c2d9f2b72d7f","ios":"levelo://app?vid=fbdc4a56-ecfa-49a3-9f96-c2d9f2b72d7f"},"vehicle_type_id":"4","last_reported":1737616093,"current_range_meters":38800,"station_id":"ce4bhdp2rcd13ifvqf20","pricing_plan_id":"cebpf4jnsgd1na2vs0mg"},{"bike_id":"47a5c903-d960-4eec-b908-6451b150f9f7","system_id":"levelo_inurba_marseille","lat":43.240651,"lon":5.377703,"is_reserved":false,"is_disabled":false,"rental_uris":{"android":"levelo://app?vid=47a5c903-d960-4eec-b908-6451b150f9f7","ios":"levelo://app?vid=47a5c903-d960-4eec-b908-6451b150f9f7"},"vehicle_type_id":"4","last_reported":1737616093,"current_range_meters":38800,"station_id":"ce4bhnp2rcd13ifvqgvg","pricing_plan_id":"cebpf4jnsgd1na2vs0mg"},{"bike_id":"92073bf7-0c5a-4193-9c82-a9d932e7871e","system_id":"levelo_inurba_marseille","lat":43.30776,"lon":5.37639,"is_reserved":false,"is_disabled":false,"rental_uris":{"android":"levelo://app?vid=92073bf7-0c5a-4193-9c82-a9d932e7871e","ios":"levelo://app?vid=92073bf7-0c5a-4193-9c82-a9d932e7871e"},"vehicle_type_id":"4","last_reported":1737616093,"current_range_meters":38800,"station_id":"ce4bgv92rcd13ifvqcq0","pricing_plan_id":"cebpf4jnsgd1na2vs0mg"},{"bike_id":"6da968e3-bb3d-40e9-93c2-3ff51db0e13f","system_id":"levelo_inurba_marseille","lat":43.29813,"lon":5.38104,"is_reserved":false,"is_disabled":false,"rental_uris":{"android":"levelo://app?vid=6da968e3-bb3d-40e9-93c2-3ff51db0e13f","ios":"levelo://app?vid=6da968e3-bb3d-40e9-93c2-3ff51db0e13f"},"vehicle_type_id":"4","last_reported":1737616093,"current_range_meters":38800,"station_id":"ce4bgip2rcd13ifvqbb0","pricing_plan_id":"cebpf4jnsgd1na2vs0mg"},{"bike_id":"f995326b-d5c2-405d-ac8d-466d6a8fcf4b","system_id":"levelo_inurba_marseille","lat":43.3009,"lon":5.39092,"is_reserved":false,"is_disabled":false,"rental_uris":{"android":"levelo://app?vid=f995326b-d5c2-405d-ac8d-466d6a8fcf4b","ios":"levelo://app?vid=f995326b-d5c2-405d-ac8d-466d6a8fcf4b"},"vehicle_type_id":"4","last_reported":1737616093,"current_range_meters":14400,"station_id":"ce4bh192rcd13ifvqdb0","pricing_plan_id":"cebpf4jnsgd1na2vs0mg"},{"bike_id":"c8b7aed7-c47b-4197-99ca-6b34bfddf40f","system_id":"levelo_inurba_marseille","lat":43.24069,"lon":5.37746,"is_reserved":false,"is_disabled":false,"rental_uris":{"android":"levelo://app?vid=c8b7aed7-c47b-4197-99ca-6b34bfddf40f","ios":"levelo://app?vid=c8b7aed7-c47b-4197-99ca-6b34bfddf40f"},"vehicle_type_id":"4","last_reported":1737616093,"current_range_meters":34000,"station_id":"ce4bhnp2rcd13ifvqgvg","pricing_plan_id":"cebpf4jnsgd1na2vs0mg"},{"bike_id":"2a80df51-a758-43ec-8377-7504eaafab77","system_id":"levelo_inurba_marseille","lat":43.25929,"lon":5.40907,"is_reserved":false,"is_disabled":false,"rental_uris":{"android":"levelo://app?vid=2a80df51-a758-43ec-8377-7504eaafab77","ios":"levelo://app?vid=2a80df51-a758-43ec-8377-7504eaafab77"},"vehicle_type_id":"4","last_reported":1737616093,"current_range_meters":11200,"station_id":"ce4bhm92rcd13ifvqglg","pricing_plan_id":"cebpf4jnsgd1na2vs0mg"},{"bike_id":"3472a396-f149-40f7-a86d-66f1d7a02d70","system_id":"levelo_inurba_marseille","lat":43.28661,"lon":5.36358,"is_reserved":false,"is_disabled":false,"rental_uris":{"android":"levelo://app?vid=3472a396-f149-40f7-a86d-66f1d7a02d70","ios":"levelo://app?vid=3472a396-f149-40f7-a86d-66f1d7a02d70"},"vehicle_type_id":"4","last_reported":1737616093,"current_range_meters":38000,"station_id":"ce4bhah2rcd13ifvqej0","pricing_plan_id":"cebpf4jnsgd1na2vs0mg"},{"bike_id":"a89b44a2-edc7-493b-82a3-159c10ec3bc5","system_id":"levelo_inurba_marseille","lat":43.30598,"lon":5.39365,"is_reserved":false,"is_disabled":false,"rental_uris":{"android":"levelo://app?vid=a89b44a2-edc7-493b-82a3-159c10ec3bc5","ios":"levelo://app?vid=a89b44a2-edc7-493b-82a3-159c10ec3bc5"},"vehicle_type_id":"4","last_reported":1737616093,"current_range_meters":34800,"station_id":"ce4bh0p2rcd13ifvqd80","pricing_plan_id":"cebpf4jnsgd1na2vs0mg"},{"bike_id":"af46b5f9-4c3b-4703-b88d-9c5b12186437","system_id":"levelo_inurba_marseille","lat":43.30592,"lon":5.39353,"is_reserved":false,"is_disabled":false,"rental_uris":{"android":"levelo://app?vid=af46b5f9-4c3b-4703-b88d-9c5b12186437","ios":"levelo://app?vid=af46b5f9-4c3b-4703-b88d-9c5b12186437"},"vehicle_type_id":"4","last_reported":1737616093,"current_range_meters":4800,"station_id":"ce4bh0p2rcd13ifvqd80","pricing_plan_id":"cebpf4jnsgd1na2vs0mg"},{"bike_id":"d558efa3-0468-430b-a0f1-01100ffa09d3","system_id":"levelo_inurba_marseille","lat":43.28923,"lon":5.36388,"is_reserved":false,"is_disabled":false,"rental_uris":{"android":"levelo://app?vid=d558efa3-0468-430b-a0f1-01100ffa09d3","ios":"levelo://app?vid=d558efa3-0468-430b-a0f1-01100ffa09d3"},"vehicle_type_id":"4","last_reported":1737616093,"current_range_meters":25200,"station_id":"ce4bhc92rcd13ifvqetg","pricing_plan_id":"cebpf4jnsgd1na2vs0mg"},{"bike_id":"b1a23fdc-d5dc-4da4-b93e-333f44af7310","system_id":"levelo_inurba_marseille","lat":43.30963,"lon":5.39029,"is_reserved":false,"is_disabled":false,"rental_uris":{"android":"levelo://app?vid=b1a23fdc-d5dc-4da4-b93e-333f44af7310","ios":"levelo://app?vid=b1a23fdc-d5dc-4da4-b93e-333f44af7310"},"vehicle_type_id":"4","last_reported":1737616093,"current_range_meters":36400,"station_id":"ce4bgup2rcd13ifvqco0","pricing_plan_id":"cebpf4jnsgd1na2vs0mg"},{"bike_id":"419d3cfc-a356-4468-9b09-73b3e176daf0","system_id":"levelo_inurba_marseille","lat":43.27899,"lon":5.38012,"is_reserved":false,"is_disabled":false,"rental_uris":{"android":"levelo://app?vid=419d3cfc-a356-4468-9b09-73b3e176daf0","ios":"levelo://app?vid=419d3cfc-a356-4468-9b09-73b3e176daf0"},"vehicle_type_id":"4","last_reported":1737616093,"current_range_meters":14000,"station_id":"ce4bhf92rcd13ifvqf50","pricing_plan_id":"cebpf4jnsgd1na2vs0mg"},{"bike_id":"06fed433-fa4c-4b21-a76e-5da03c994735","system_id":"levelo_inurba_marseille","lat":43.28486,"lon":5.38535,"is_reserved":false,"is_disabled":false,"rental_uris":{"android":"levelo://app?vid=06fed433-fa4c-4b21-a76e-5da03c994735","ios":"levelo://app?vid=06fed433-fa4c-4b21-a76e-5da03c994735"},"vehicle_type_id":"4","last_reported":1737616093,"current_range_meters":29600,"station_id":"ce4bh8p2rcd13ifvqeb0","pricing_plan_id":"cebpf4jnsgd1na2vs0mg"},{"bike_id":"5a874f97-e53a-486b-bf03-022b93e71acd","system_id":"levelo_inurba_marseille","lat":43.25498,"lon":5.37642,"is_reserved":false,"is_disabled":false,"rental_uris":{"android":"levelo://app?vid=5a874f97-e53a-486b-bf03-022b93e71acd","ios":"levelo://app?vid=5a874f97-e53a-486b-bf03-022b93e71acd"},"vehicle_type_id":"4","last_reported":1737616093,"current_range_meters":24400,"station_id":"ce4bhh12rcd13ifvqff0","pricing_plan_id":"cebpf4jnsgd1na2vs0mg"},{"bike_id":"143be6c7-efad-4491-92ee-bf3f01173a41","system_id":"levelo_inurba_marseille","lat":43.31175,"lon":5.3871,"is_reserved":false,"is_disabled":false,"rental_uris":{"android":"levelo://app?vid=143be6c7-efad-4491-92ee-bf3f01173a41","ios":"levelo://app?vid=143be6c7-efad-4491-92ee-bf3f01173a41"},"vehicle_type_id":"4","last_reported":1737616093,"current_range_meters":34000,"station_id":"ce4bgup2rcd13ifvqcn0","pricing_plan_id":"cebpf4jnsgd1na2vs0mg"},{"bike_id":"54c1bb4e-0a49-4c10-8516-145dc4b9921e","system_id":"levelo_inurba_marseille","lat":43.30541,"lon":5.36549,"is_reserved":false,"is_disabled":false,"rental_uris":{"android":"levelo://app?vid=54c1bb4e-0a49-4c10-8516-145dc4b9921e","ios":"levelo://app?vid=54c1bb4e-0a49-4c10-8516-145dc4b9921e"},"vehicle_type_id":"4","last_reported":1737616093,"current_range_meters":30400,"station_id":"ce4bgs12rcd13ifvqcag","pricing_plan_id":"cebpf4jnsgd1na2vs0mg"},{"bike_id":"2928fad2-c5e8-4dcf-8e29-3200817aa51d","system_id":"levelo_inurba_marseille","lat":43.30425,"lon":5.38892,"is_reserved":false,"is_disabled":false,"rental_uris":{"android":"levelo://app?vid=2928fad2-c5e8-4dcf-8e29-3200817aa51d","ios":"levelo://app?vid=2928fad2-c5e8-4dcf-8e29-3200817aa51d"},"vehicle_type_id":"4","last_reported":1737616093,"current_range_meters":36000,"station_id":"ce4bgk12rcd13ifvqbi0","pricing_plan_id":"cebpf4jnsgd1na2vs0mg"},{"bike_id":"1a7ae9b9-108c-498f-8bac-48904d23f7bc","system_id":"levelo_inurba_marseille","lat":43.28488,"lon":5.38428,"is_reserved":false,"is_disabled":true,"rental_uris":{"android":"levelo://app?vid=1a7ae9b9-108c-498f-8bac-48904d23f7bc","ios":"levelo://app?vid=1a7ae9b9-108c-498f-8bac-48904d23f7bc"},"vehicle_type_id":"4","last_reported":1737616093,"current_range_meters":34800,"station_id":"ce4bh512rcd13ifvqe3g","pricing_plan_id":"cebpf4jnsgd1na2vs0mg"},{"bike_id":"64256b04-b789-4708-9332-ac1125bd3a09","system_id":"levelo_inurba_marseille","lat":43.27613,"lon":5.36114,"is_reserved":false,"is_disabled":false,"rental_uris":{"android":"levelo://app?vid=64256b04-b789-4708-9332-ac1125bd3a09","ios":"levelo://app?vid=64256b04-b789-4708-9332-ac1125bd3a09"},"vehicle_type_id":"4","last_reported":1737616093,"current_range_meters":38800,"station_id":"ce4bgj92rcd13ifvqbe0","pricing_plan_id":"cebpf4jnsgd1na2vs0mg"},{"bike_id":"9885c3b6-bcd1-4482-97df-d738948a9fd6","system_id":"levelo_inurba_marseille","lat":43.32544,"lon":5.41469,"is_reserved":false,"is_disabled":false,"rental_uris":{"android":"levelo://app?vid=9885c3b6-bcd1-4482-97df-d738948a9fd6","ios":"levelo://app?vid=9885c3b6-bcd1-4482-97df-d738948a9fd6"},"vehicle_type_id":"4","last_reported":1737616093,"current_range_meters":24000,"station_id":"ce4bhq12rcd13ifvqhhg","pricing_plan_id":"cebpf4jnsgd1na2vs0mg"},{"bike_id":"fbc6b901-293c-4cc3-8495-b0d71e091198","system_id":"levelo_inurba_marseille","lat":43.27901,"lon":5.38001,"is_reserved":false,"is_disabled":false,"rental_uris":{"android":"levelo://app?vid=fbc6b901-293c-4cc3-8495-b0d71e091198","ios":"levelo://app?vid=fbc6b901-293c-4cc3-8495-b0d71e091198"},"vehicle_type_id":"4","last_reported":1737616093,"current_range_meters":38800,"station_id":"ce4bhf92rcd13ifvqf50","pricing_plan_id":"cebpf4jnsgd1na2vs0mg"},{"bike_id":"4a1877ac-0eba-4d1d-a5b6-5c57a0d326b7","system_id":"levelo_inurba_marseille","lat":43.31083,"lon":5.42397,"is_reserved":false,"is_disabled":false,"rental_uris":{"android":"levelo://app?vid=4a1877ac-0eba-4d1d-a5b6-5c57a0d326b7","ios":"levelo://app?vid=4a1877ac-0eba-4d1d-a5b6-5c57a0d326b7"},"vehicle_type_id":"4","last_reported":1737616093,"current_range_meters":13600,"station_id":"ce4bhp92rcd13ifvqhag","pricing_plan_id":"cebpf4jnsgd1na2vs0mg"},{"bike_id":"6b16ad5d-43c1-448a-8d07-0d202aea95e0","system_id":"levelo_inurba_marseille","lat":43.33606,"lon":5.41032,"is_reserved":false,"is_disabled":false,"rental_uris":{"android":"levelo://app?vid=6b16ad5d-43c1-448a-8d07-0d202aea95e0","ios":"levelo://app?vid=6b16ad5d-43c1-448a-8d07-0d202aea95e0"},"vehicle_type_id":"4","last_reported":1737616093,"current_range_meters":6400,"station_id":"ce4bhqh2rcd13ifvqhmg","pricing_plan_id":"cebpf4jnsgd1na2vs0mg"},{"bike_id":"4c1d4395-6419-47a8-91b4-52df02329e29","system_id":"levelo_inurba_marseille","lat":43.30473,"lon":5.37897,"is_reserved":false,"is_disabled":false,"rental_uris":{"android":"levelo://app?vid=4c1d4395-6419-47a8-91b4-52df02329e29","ios":"levelo://app?vid=4c1d4395-6419-47a8-91b4-52df02329e29"},"vehicle_type_id":"4","last_reported":1737616093,"current_range_meters":16800,"station_id":"ce4bgup2rcd13ifvqcn0","pricing_plan_id":"cebpf4jnsgd1na2vs0mg"},{"bike_id":"a2705dfc-ca49-4ba6-93b9-21c539c5625d","system_id":"levelo_inurba_marseille","lat":43.28364,"lon":5.38089,"is_reserved":false,"is_disabled":false,"rental_uris":{"android":"levelo://app?vid=a2705dfc-ca49-4ba6-93b9-21c539c5625d","ios":"levelo://app?vid=a2705dfc-ca49-4ba6-93b9-21c539c5625d"},"vehicle_type_id":"4","last_reported":1737616093,"current_range_meters":17200,"station_id":"ce4bh412rcd13ifvqdr0","pricing_plan_id":"cebpf4jnsgd1na2vs0mg"},{"bike_id":"eb97aa7a-ec00-4450-a6d4-a7306576b27c","system_id":"levelo_inurba_marseille","lat":43.2937,"lon":5.37829,"is_reserved":false,"is_disabled":false,"rental_uris":{"android":"levelo://app?vid=eb97aa7a-ec00-4450-a6d4-a7306576b27c","ios":"levelo://app?vid=eb97aa7a-ec00-4450-a6d4-a7306576b27c"},"vehicle_type_id":"4","last_reported":1737616093,"current_range_meters":14000,"station_id":"ce4bgjh2rcd13ifvqbf0","pricing_plan_id":"cebpf4jnsgd1na2vs0mg"},{"bike_id":"7ace546e-9c67-4124-8420-9ed07a575e5a","system_id":"levelo_inurba_marseille","lat":43.31559,"lon":5.40535,"is_reserved":false,"is_disabled":true,"rental_uris":{"android":"levelo://app?vid=7ace546e-9c67-4124-8420-9ed07a575e5a","ios":"levelo://app?vid=7ace546e-9c67-4124-8420-9ed07a575e5a"},"vehicle_type_id":"4","last_reported":1737616093,"current_range_meters":0,"station_id":"","pricing_plan_id":"cebpf4jnsgd1na2vs0mg"},{"bike_id":"f4064b91-d50f-4faa-b80a-c4b38df2d08b","system_id":"levelo_inurba_marseille","lat":43.22929,"lon":5.35373,"is_reserved":false,"is_disabled":false,"rental_uris":{"android":"levelo://app?vid=f4064b91-d50f-4faa-b80a-c4b38df2d08b","ios":"levelo://app?vid=f4064b91-d50f-4faa-b80a-c4b38df2d08b"},"vehicle_type_id":"4","last_reported":1737616093,"current_range_meters":38800,"station_id":"cpo3532slgdg3j2ikp40","pricing_plan_id":"cebpf4jnsgd1na2vs0mg"},{"bike_id":"79fbb389-20e4-4ca1-95d0-d5c308573137","system_id":"levelo_inurba_marseille","lat":43.24072,"lon":5.37764,"is_reserved":false,"is_disabled":false,"rental_uris":{"android":"levelo://app?vid=79fbb389-20e4-4ca1-95d0-d5c308573137","ios":"levelo://app?vid=79fbb389-20e4-4ca1-95d0-d5c308573137"},"vehicle_type_id":"4","last_reported":1737616093,"current_range_meters":22000,"station_id":"ce4bhnp2rcd13ifvqgvg","pricing_plan_id":"cebpf4jnsgd1na2vs0mg"},{"bike_id":"010d7af0-1cdd-4754-9cac-a1dc0f27c72d","system_id":"levelo_inurba_marseille","lat":43.33107,"lon":5.38204,"is_reserved":false,"is_disabled":false,"rental_uris":{"android":"levelo://app?vid=010d7af0-1cdd-4754-9cac-a1dc0f27c72d","ios":"levelo://app?vid=010d7af0-1cdd-4754-9cac-a1dc0f27c72d"},"vehicle_type_id":"4","last_reported":1737616093,"current_range_meters":27200,"station_id":"","pricing_plan_id":"cebpf4jnsgd1na2vs0mg"},{"bike_id":"5e75dd30-ab3b-44d3-8dcb-cb5fd4a0eb65","system_id":"levelo_inurba_marseille","lat":43.246334,"lon":5.388993,"is_reserved":false,"is_disabled":false,"rental_uris":{"android":"levelo://app?vid=5e75dd30-ab3b-44d3-8dcb-cb5fd4a0eb65","ios":"levelo://app?vid=5e75dd30-ab3b-44d3-8dcb-cb5fd4a0eb65"},"vehicle_type_id":"4","last_reported":1737616093,"current_range_meters":38400,"station_id":"ce4bhg12rcd13ifvqf60","pricing_plan_id":"cebpf4jnsgd1na2vs0mg"},{"bike_id":"825cb1d7-630a-4202-a548-5bc5c85aeb78","system_id":"levelo_inurba_marseille","lat":43.2835,"lon":5.38103,"is_reserved":false,"is_disabled":false,"rental_uris":{"android":"levelo://app?vid=825cb1d7-630a-4202-a548-5bc5c85aeb78","ios":"levelo://app?vid=825cb1d7-630a-4202-a548-5bc5c85aeb78"},"vehicle_type_id":"4","last_reported":1737616093,"current_range_meters":8000,"station_id":"ce4bh412rcd13ifvqdr0","pricing_plan_id":"cebpf4jnsgd1na2vs0mg"},{"bike_id":"4e08a359-a7ac-4ac7-8da0-47cf117f974f","system_id":"levelo_inurba_marseille","lat":43.28778,"lon":5.35853,"is_reserved":false,"is_disabled":false,"rental_uris":{"android":"levelo://app?vid=4e08a359-a7ac-4ac7-8da0-47cf117f974f","ios":"levelo://app?vid=4e08a359-a7ac-4ac7-8da0-47cf117f974f"},"vehicle_type_id":"4","last_reported":1737616093,"current_range_meters":38800,"station_id":"ce4bhb12rcd13ifvqem0","pricing_plan_id":"cebpf4jnsgd1na2vs0mg"},{"bike_id":"95686d4b-aec0-40de-b18e-cbe8599dc121","system_id":"levelo_inurba_marseille","lat":43.29721,"lon":5.36612,"is_reserved":false,"is_disabled":false,"rental_uris":{"android":"levelo://app?vid=95686d4b-aec0-40de-b18e-cbe8599dc121","ios":"levelo://app?vid=95686d4b-aec0-40de-b18e-cbe8599dc121"},"vehicle_type_id":"4","last_reported":1737616093,"current_range_meters":17200,"station_id":"ce4bgn12rcd13ifvqbt0","pricing_plan_id":"cebpf4jnsgd1na2vs0mg"},{"bike_id":"65094a7f-b962-43c6-b0af-b51087b9f16f","system_id":"levelo_inurba_marseille","lat":43.28945,"lon":5.36619,"is_reserved":false,"is_disabled":false,"rental_uris":{"android":"levelo://app?vid=65094a7f-b962-43c6-b0af-b51087b9f16f","ios":"levelo://app?vid=65094a7f-b962-43c6-b0af-b51087b9f16f"},"vehicle_type_id":"4","last_reported":1737616093,"current_range_meters":30400,"station_id":"ce4bhap2rcd13ifvqek0","pricing_plan_id":"cebpf4jnsgd1na2vs0mg"},{"bike_id":"9838cc78-2b53-49d3-ae13-82df62c4fd64","system_id":"levelo_inurba_marseille","lat":43.28402,"lon":5.40944,"is_reserved":false,"is_disabled":false,"rental_uris":{"android":"levelo://app?vid=9838cc78-2b53-49d3-ae13-82df62c4fd64","ios":"levelo://app?vid=9838cc78-2b53-49d3-ae13-82df62c4fd64"},"vehicle_type_id":"4","last_reported":1737616093,"current_range_meters":6800,"station_id":"","pricing_plan_id":"cebpf4jnsgd1na2vs0mg"},{"bike_id":"29e3f1cb-5060-4875-9579-f1181b05d497","system_id":"levelo_inurba_marseille","lat":43.30301,"lon":5.39215,"is_reserved":false,"is_disabled":false,"rental_uris":{"android":"levelo://app?vid=29e3f1cb-5060-4875-9579-f1181b05d497","ios":"levelo://app?vid=29e3f1cb-5060-4875-9579-f1181b05d497"},"vehicle_type_id":"4","last_reported":1737616093,"current_range_meters":3600,"station_id":"ce4bgkh2rcd13ifvqbk0","pricing_plan_id":"cebpf4jnsgd1na2vs0mg"},{"bike_id":"19b8198b-0b8b-41c2-8c4a-a703ec5c010b","system_id":"levelo_inurba_marseille","lat":43.30158,"lon":5.38093,"is_reserved":false,"is_disabled":false,"rental_uris":{"android":"levelo://app?vid=19b8198b-0b8b-41c2-8c4a-a703ec5c010b","ios":"levelo://app?vid=19b8198b-0b8b-41c2-8c4a-a703ec5c010b"},"vehicle_type_id":"4","last_reported":1737616093,"current_range_meters":38800,"station_id":"ce4bgjp2rcd13ifvqbh0","pricing_plan_id":"cebpf4jnsgd1na2vs0mg"},{"bike_id":"b15a91c0-7c93-4278-9be2-c5e0789ac33f","system_id":"levelo_inurba_marseille","lat":43.31883,"lon":5.40739,"is_reserved":false,"is_disabled":false,"rental_uris":{"android":"levelo://app?vid=b15a91c0-7c93-4278-9be2-c5e0789ac33f","ios":"levelo://app?vid=b15a91c0-7c93-4278-9be2-c5e0789ac33f"},"vehicle_type_id":"4","last_reported":1737616093,"current_range_meters":37600,"station_id":"ce4bhq12rcd13ifvqhig","pricing_plan_id":"cebpf4jnsgd1na2vs0mg"},{"bike_id":"89d74705-7f42-45f3-bdbc-e8e63c7486d0","system_id":"levelo_inurba_marseille","lat":43.30929,"lon":5.40135,"is_reserved":false,"is_disabled":true,"rental_uris":{"android":"levelo://app?vid=89d74705-7f42-45f3-bdbc-e8e63c7486d0","ios":"levelo://app?vid=89d74705-7f42-45f3-bdbc-e8e63c7486d0"},"vehicle_type_id":"4","last_reported":1737616093,"current_range_meters":19200,"station_id":"ce4bgvp2rcd13ifvqct0","pricing_plan_id":"cebpf4jnsgd1na2vs0mg"},{"bike_id":"9f96de60-ba44-4c93-9707-a282028a4274","system_id":"levelo_inurba_marseille","lat":43.24192,"lon":5.39748,"is_reserved":false,"is_disabled":false,"rental_uris":{"android":"levelo://app?vid=9f96de60-ba44-4c93-9707-a282028a4274","ios":"levelo://app?vid=9f96de60-ba44-4c93-9707-a282028a4274"},"vehicle_type_id":"4","last_reported":1737616093,"current_range_meters":38000,"station_id":"ce4bhn12rcd13ifvqgpg","pricing_plan_id":"cebpf4jnsgd1na2vs0mg"},{"bike_id":"8811a88f-5edb-48e9-9e86-c44c46150d11","system_id":"levelo_inurba_marseille","lat":43.30418,"lon":5.41282,"is_reserved":false,"is_disabled":false,"rental_uris":{"android":"levelo://app?vid=8811a88f-5edb-48e9-9e86-c44c46150d11","ios":"levelo://app?vid=8811a88f-5edb-48e9-9e86-c44c46150d11"},"vehicle_type_id":"4","last_reported":1737616093,"current_range_meters":30000,"station_id":"ce4bhop2rcd13ifvqh8g","pricing_plan_id":"cebpf4jnsgd1na2vs0mg"},{"bike_id":"d08c37a7-7fe0-4179-ac80-eb214b053de8","system_id":"levelo_inurba_marseille","lat":43.32559,"lon":5.41429,"is_reserved":false,"is_disabled":false,"rental_uris":{"android":"levelo://app?vid=d08c37a7-7fe0-4179-ac80-eb214b053de8","ios":"levelo://app?vid=d08c37a7-7fe0-4179-ac80-eb214b053de8"},"vehicle_type_id":"4","last_reported":1737616093,"current_range_meters":36800,"station_id":"ce4bhq12rcd13ifvqhhg","pricing_plan_id":"cebpf4jnsgd1na2vs0mg"},{"bike_id":"dc020e30-7be2-4fc6-bf0f-e6dedb64c2ce","system_id":"levelo_inurba_marseille","lat":43.305928,"lon":5.393537,"is_reserved":false,"is_disabled":false,"rental_uris":{"android":"levelo://app?vid=dc020e30-7be2-4fc6-bf0f-e6dedb64c2ce","ios":"levelo://app?vid=dc020e30-7be2-4fc6-bf0f-e6dedb64c2ce"},"vehicle_type_id":"4","last_reported":1737616093,"current_range_meters":27200,"station_id":"ce4bh0p2rcd13ifvqd80","pricing_plan_id":"cebpf4jnsgd1na2vs0mg"},{"bike_id":"9724f0c0-8848-4c50-936a-376fa11c171e","system_id":"levelo_inurba_marseille","lat":43.29597,"lon":5.38098,"is_reserved":false,"is_disabled":false,"rental_uris":{"android":"levelo://app?vid=9724f0c0-8848-4c50-936a-376fa11c171e","ios":"levelo://app?vid=9724f0c0-8848-4c50-936a-376fa11c171e"},"vehicle_type_id":"4","last_reported":1737616093,"current_range_meters":36400,"station_id":"ce4bgl12rcd13ifvqbo0","pricing_plan_id":"cebpf4jnsgd1na2vs0mg"},{"bike_id":"e6e8646a-47fe-42a2-b78a-21530b7ebe2d","system_id":"levelo_inurba_marseille","lat":43.317016,"lon":5.404547,"is_reserved":false,"is_disabled":false,"rental_uris":{"android":"levelo://app?vid=e6e8646a-47fe-42a2-b78a-21530b7ebe2d","ios":"levelo://app?vid=e6e8646a-47fe-42a2-b78a-21530b7ebe2d"},"vehicle_type_id":"4","last_reported":1737616093,"current_range_meters":28800,"station_id":"ce4bh012rcd13ifvqd00","pricing_plan_id":"cebpf4jnsgd1na2vs0mg"},{"bike_id":"110f4d36-27c9-49b8-86bf-d85558408b80","system_id":"levelo_inurba_marseille","lat":43.323627,"lon":5.388755,"is_reserved":false,"is_disabled":false,"rental_uris":{"android":"levelo://app?vid=110f4d36-27c9-49b8-86bf-d85558408b80","ios":"levelo://app?vid=110f4d36-27c9-49b8-86bf-d85558408b80"},"vehicle_type_id":"4","last_reported":1737616093,"current_range_meters":20400,"station_id":"ce4bhqp2rcd13ifvqhog","pricing_plan_id":"cebpf4jnsgd1na2vs0mg"},{"bike_id":"e2151eb3-314b-404c-b259-cf12a3a3e0c6","system_id":"levelo_inurba_marseille","lat":43.31619,"lon":5.40274,"is_reserved":false,"is_disabled":false,"rental_uris":{"android":"levelo://app?vid=e2151eb3-314b-404c-b259-cf12a3a3e0c6","ios":"levelo://app?vid=e2151eb3-314b-404c-b259-cf12a3a3e0c6"},"vehicle_type_id":"4","last_reported":1737616093,"current_range_meters":24000,"station_id":"","pricing_plan_id":"cebpf4jnsgd1na2vs0mg"},{"bike_id":"8af34738-1005-41d3-9a03-fb3cbeb3f15f","system_id":"levelo_inurba_marseille","lat":43.31707,"lon":5.37759,"is_reserved":false,"is_disabled":false,"rental_uris":{"android":"levelo://app?vid=8af34738-1005-41d3-9a03-fb3cbeb3f15f","ios":"levelo://app?vid=8af34738-1005-41d3-9a03-fb3cbeb3f15f"},"vehicle_type_id":"4","last_reported":1737616093,"current_range_meters":38800,"station_id":"ce4bgth2rcd13ifvqch0","pricing_plan_id":"cebpf4jnsgd1na2vs0mg"},{"bike_id":"6c2f9954-7810-4822-8960-06af679717da","system_id":"levelo_inurba_marseille","lat":43.30585,"lon":5.39353,"is_reserved":false,"is_disabled":false,"rental_uris":{"android":"levelo://app?vid=6c2f9954-7810-4822-8960-06af679717da","ios":"levelo://app?vid=6c2f9954-7810-4822-8960-06af679717da"},"vehicle_type_id":"4","last_reported":1737616093,"current_range_meters":30000,"station_id":"ce4bh0p2rcd13ifvqd80","pricing_plan_id":"cebpf4jnsgd1na2vs0mg"},{"bike_id":"3bcd921d-810c-4845-87ab-d96c2ac5451e","system_id":"levelo_inurba_marseille","lat":43.278209,"lon":5.407136,"is_reserved":false,"is_disabled":false,"rental_uris":{"android":"levelo://app?vid=3bcd921d-810c-4845-87ab-d96c2ac5451e","ios":"levelo://app?vid=3bcd921d-810c-4845-87ab-d96c2ac5451e"},"vehicle_type_id":"4","last_reported":1737616093,"current_range_meters":9600,"station_id":"ce4bhnh2rcd13ifvqgtg","pricing_plan_id":"cebpf4jnsgd1na2vs0mg"},{"bike_id":"2d8bba10-7cfc-4e6a-8209-a931393afdbd","system_id":"levelo_inurba_marseille","lat":43.30205,"lon":5.39454,"is_reserved":false,"is_disabled":false,"rental_uris":{"android":"levelo://app?vid=2d8bba10-7cfc-4e6a-8209-a931393afdbd","ios":"levelo://app?vid=2d8bba10-7cfc-4e6a-8209-a931393afdbd"},"vehicle_type_id":"4","last_reported":1737616093,"current_range_meters":30400,"station_id":"ce4bh0p2rcd13ifvqd70","pricing_plan_id":"cebpf4jnsgd1na2vs0mg"},{"bike_id":"a7f558e6-2644-4e09-8641-9747f8e32080","system_id":"levelo_inurba_marseille","lat":43.29294,"lon":5.40118,"is_reserved":false,"is_disabled":false,"rental_uris":{"android":"levelo://app?vid=a7f558e6-2644-4e09-8641-9747f8e32080","ios":"levelo://app?vid=a7f558e6-2644-4e09-8641-9747f8e32080"},"vehicle_type_id":"4","last_reported":1737616093,"current_range_meters":38400,"station_id":"ce4bh312rcd13ifvqdk0","pricing_plan_id":"cebpf4jnsgd1na2vs0mg"},{"bike_id":"967db3ab-a128-4911-b1b5-231f702f917e","system_id":"levelo_inurba_marseille","lat":43.304775,"lon":5.37914,"is_reserved":false,"is_disabled":false,"rental_uris":{"android":"levelo://app?vid=967db3ab-a128-4911-b1b5-231f702f917e","ios":"levelo://app?vid=967db3ab-a128-4911-b1b5-231f702f917e"},"vehicle_type_id":"4","last_reported":1737616093,"current_range_meters":30800,"station_id":"ce4bgup2rcd13ifvqcn0","pricing_plan_id":"cebpf4jnsgd1na2vs0mg"},{"bike_id":"35ba0dfc-6951-499d-b497-45ecff53ae7e","system_id":"levelo_inurba_marseille","lat":43.24393,"lon":5.370641,"is_reserved":false,"is_disabled":false,"rental_uris":{"android":"levelo://app?vid=35ba0dfc-6951-499d-b497-45ecff53ae7e","ios":"levelo://app?vid=35ba0dfc-6951-499d-b497-45ecff53ae7e"},"vehicle_type_id":"4","last_reported":1737616093,"current_range_meters":24000,"station_id":"ce4bhhh2rcd13ifvqfk0","pricing_plan_id":"cebpf4jnsgd1na2vs0mg"},{"bike_id":"373c4bcc-0095-4393-8f96-1dc4190b9df1","system_id":"levelo_inurba_marseille","lat":43.29244,"lon":5.38437,"is_reserved":false,"is_disabled":true,"rental_uris":{"android":"levelo://app?vid=373c4bcc-0095-4393-8f96-1dc4190b9df1","ios":"levelo://app?vid=373c4bcc-0095-4393-8f96-1dc4190b9df1"},"vehicle_type_id":"4","last_reported":1737616093,"current_range_meters":15200,"station_id":"ce4bh692rcd13ifvqea0","pricing_plan_id":"cebpf4jnsgd1na2vs0mg"},{"bike_id":"6440f376-b0ac-4979-8b74-813c76d7599b","system_id":"levelo_inurba_marseille","lat":43.24143,"lon":5.39727,"is_reserved":false,"is_disabled":false,"rental_uris":{"android":"levelo://app?vid=6440f376-b0ac-4979-8b74-813c76d7599b","ios":"levelo://app?vid=6440f376-b0ac-4979-8b74-813c76d7599b"},"vehicle_type_id":"4","last_reported":1737616093,"current_range_meters":26000,"station_id":"ce4bhn12rcd13ifvqgpg","pricing_plan_id":"cebpf4jnsgd1na2vs0mg"},{"bike_id":"ec552ae0-d609-4465-a745-8238997e6cae","system_id":"levelo_inurba_marseille","lat":43.29038,"lon":5.39971,"is_reserved":false,"is_disabled":false,"rental_uris":{"android":"levelo://app?vid=ec552ae0-d609-4465-a745-8238997e6cae","ios":"levelo://app?vid=ec552ae0-d609-4465-a745-8238997e6cae"},"vehicle_type_id":"4","last_reported":1737616093,"current_range_meters":36800,"station_id":"ce4bh392rcd13ifvqdm0","pricing_plan_id":"cebpf4jnsgd1na2vs0mg"},{"bike_id":"53608539-8cd0-47e7-9cfb-d1161556d6fb","system_id":"levelo_inurba_marseille","lat":43.25498,"lon":5.37667,"is_reserved":false,"is_disabled":false,"rental_uris":{"android":"levelo://app?vid=53608539-8cd0-47e7-9cfb-d1161556d6fb","ios":"levelo://app?vid=53608539-8cd0-47e7-9cfb-d1161556d6fb"},"vehicle_type_id":"4","last_reported":1737616093,"current_range_meters":23200,"station_id":"ce4bhh12rcd13ifvqff0","pricing_plan_id":"cebpf4jnsgd1na2vs0mg"},{"bike_id":"f98a7ee0-f9fe-4556-933e-ecf6827038e5","system_id":"levelo_inurba_marseille","lat":43.291872,"lon":5.357159,"is_reserved":false,"is_disabled":false,"rental_uris":{"android":"levelo://app?vid=f98a7ee0-f9fe-4556-933e-ecf6827038e5","ios":"levelo://app?vid=f98a7ee0-f9fe-4556-933e-ecf6827038e5"},"vehicle_type_id":"4","last_reported":1737616093,"current_range_meters":15200,"station_id":"","pricing_plan_id":"cebpf4jnsgd1na2vs0mg"},{"bike_id":"a1b03443-2d26-4e0d-b3f6-f1aa3614554d","system_id":"levelo_inurba_marseille","lat":43.29256,"lon":5.40906,"is_reserved":false,"is_disabled":false,"rental_uris":{"android":"levelo://app?vid=a1b03443-2d26-4e0d-b3f6-f1aa3614554d","ios":"levelo://app?vid=a1b03443-2d26-4e0d-b3f6-f1aa3614554d"},"vehicle_type_id":"4","last_reported":1737616093,"current_range_meters":6400,"station_id":"ce4bh192rcd13ifvqdc0","pricing_plan_id":"cebpf4jnsgd1na2vs0mg"},{"bike_id":"5bcaa165-3855-4961-b7f5-0a96e04dc71c","system_id":"levelo_inurba_marseille","lat":43.2407,"lon":5.37746,"is_reserved":false,"is_disabled":false,"rental_uris":{"android":"levelo://app?vid=5bcaa165-3855-4961-b7f5-0a96e04dc71c","ios":"levelo://app?vid=5bcaa165-3855-4961-b7f5-0a96e04dc71c"},"vehicle_type_id":"4","last_reported":1737616093,"current_range_meters":25600,"station_id":"ce4bhnp2rcd13ifvqgvg","pricing_plan_id":"cebpf4jnsgd1na2vs0mg"},{"bike_id":"582e8754-15b7-4502-adec-5b8a77d5b5e9","system_id":"levelo_inurba_marseille","lat":43.317,"lon":5.40476,"is_reserved":false,"is_disabled":false,"rental_uris":{"android":"levelo://app?vid=582e8754-15b7-4502-adec-5b8a77d5b5e9","ios":"levelo://app?vid=582e8754-15b7-4502-adec-5b8a77d5b5e9"},"vehicle_type_id":"4","last_reported":1737616093,"current_range_meters":6000,"station_id":"ce4bh012rcd13ifvqd00","pricing_plan_id":"cebpf4jnsgd1na2vs0mg"},{"bike_id":"1ab99849-5128-4f53-b466-88c684c848de","system_id":"levelo_inurba_marseille","lat":43.294315,"lon":5.394145,"is_reserved":false,"is_disabled":true,"rental_uris":{"android":"levelo://app?vid=1ab99849-5128-4f53-b466-88c684c848de","ios":"levelo://app?vid=1ab99849-5128-4f53-b466-88c684c848de"},"vehicle_type_id":"4","last_reported":1737616093,"current_range_meters":1600,"station_id":"ce4bh292rcd13ifvqdf0","pricing_plan_id":"cebpf4jnsgd1na2vs0mg"},{"bike_id":"91f957bd-7ae6-4841-8ac4-1ecdcd0c697e","system_id":"levelo_inurba_marseille","lat":43.31554,"lon":5.40186,"is_reserved":false,"is_disabled":false,"rental_uris":{"android":"levelo://app?vid=91f957bd-7ae6-4841-8ac4-1ecdcd0c697e","ios":"levelo://app?vid=91f957bd-7ae6-4841-8ac4-1ecdcd0c697e"},"vehicle_type_id":"4","last_reported":1737616093,"current_range_meters":26800,"station_id":"","pricing_plan_id":"cebpf4jnsgd1na2vs0mg"},{"bike_id":"8eb2fff1-c521-443e-96d7-373c8de3d2ee","system_id":"levelo_inurba_marseille","lat":43.30889,"lon":5.39614,"is_reserved":false,"is_disabled":false,"rental_uris":{"android":"levelo://app?vid=8eb2fff1-c521-443e-96d7-373c8de3d2ee","ios":"levelo://app?vid=8eb2fff1-c521-443e-96d7-373c8de3d2ee"},"vehicle_type_id":"4","last_reported":1737616093,"current_range_meters":24000,"station_id":"ce4bh012rcd13ifvqcv0","pricing_plan_id":"cebpf4jnsgd1na2vs0mg"},{"bike_id":"96663138-92b9-4343-9a11-314ee4531fc0","system_id":"levelo_inurba_marseille","lat":43.30784,"lon":5.37651,"is_reserved":false,"is_disabled":true,"rental_uris":{"android":"levelo://app?vid=96663138-92b9-4343-9a11-314ee4531fc0","ios":"levelo://app?vid=96663138-92b9-4343-9a11-314ee4531fc0"},"vehicle_type_id":"4","last_reported":1737616093,"current_range_meters":16000,"station_id":"ce4bgv92rcd13ifvqcq0","pricing_plan_id":"cebpf4jnsgd1na2vs0mg"},{"bike_id":"a9d08443-71b6-4ab7-93ae-f8d5b6602792","system_id":"levelo_inurba_marseille","lat":43.308025,"lon":5.435224,"is_reserved":false,"is_disabled":false,"rental_uris":{"android":"levelo://app?vid=a9d08443-71b6-4ab7-93ae-f8d5b6602792","ios":"levelo://app?vid=a9d08443-71b6-4ab7-93ae-f8d5b6602792"},"vehicle_type_id":"4","last_reported":1737616093,"current_range_meters":11200,"station_id":"ce4bhph2rcd13ifvqheg","pricing_plan_id":"cebpf4jnsgd1na2vs0mg"},{"bike_id":"2e2e8490-b92e-4c4b-8457-33e124143e07","system_id":"levelo_inurba_marseille","lat":43.3361,"lon":5.41033,"is_reserved":false,"is_disabled":false,"rental_uris":{"android":"levelo://app?vid=2e2e8490-b92e-4c4b-8457-33e124143e07","ios":"levelo://app?vid=2e2e8490-b92e-4c4b-8457-33e124143e07"},"vehicle_type_id":"4","last_reported":1737616093,"current_range_meters":3600,"station_id":"ce4bhqh2rcd13ifvqhmg","pricing_plan_id":"cebpf4jnsgd1na2vs0mg"},{"bike_id":"6a54c5b1-be36-4ae2-bc29-177bd38ec82c","system_id":"levelo_inurba_marseille","lat":43.28931,"lon":5.36392,"is_reserved":false,"is_disabled":false,"rental_uris":{"android":"levelo://app?vid=6a54c5b1-be36-4ae2-bc29-177bd38ec82c","ios":"levelo://app?vid=6a54c5b1-be36-4ae2-bc29-177bd38ec82c"},"vehicle_type_id":"4","last_reported":1737616093,"current_range_meters":28400,"station_id":"ce4bhc92rcd13ifvqetg","pricing_plan_id":"cebpf4jnsgd1na2vs0mg"},{"bike_id":"ce90fea6-ff2a-4d0b-bd4f-45ced0acf4c0","system_id":"levelo_inurba_marseille","lat":43.32361,"lon":5.36755,"is_reserved":false,"is_disabled":false,"rental_uris":{"android":"levelo://app?vid=ce90fea6-ff2a-4d0b-bd4f-45ced0acf4c0","ios":"levelo://app?vid=ce90fea6-ff2a-4d0b-bd4f-45ced0acf4c0"},"vehicle_type_id":"4","last_reported":1737616093,"current_range_meters":12400,"station_id":"ce4bhsh2rcd13ifvqi2g","pricing_plan_id":"cebpf4jnsgd1na2vs0mg"},{"bike_id":"49b38f9d-e000-43fc-838f-0644e6b9d9ec","system_id":"levelo_inurba_marseille","lat":43.27492,"lon":5.42451,"is_reserved":false,"is_disabled":false,"rental_uris":{"android":"levelo://app?vid=49b38f9d-e000-43fc-838f-0644e6b9d9ec","ios":"levelo://app?vid=49b38f9d-e000-43fc-838f-0644e6b9d9ec"},"vehicle_type_id":"4","last_reported":1737616093,"current_range_meters":34000,"station_id":"ce4bhn92rcd13ifvqgrg","pricing_plan_id":"cebpf4jnsgd1na2vs0mg"},{"bike_id":"ab13439f-1c4b-4b83-ac72-9f4e6d1f64cb","system_id":"levelo_inurba_marseille","lat":43.31254,"lon":5.37972,"is_reserved":false,"is_disabled":true,"rental_uris":{"android":"levelo://app?vid=ab13439f-1c4b-4b83-ac72-9f4e6d1f64cb","ios":"levelo://app?vid=ab13439f-1c4b-4b83-ac72-9f4e6d1f64cb"},"vehicle_type_id":"4","last_reported":1737616093,"current_range_meters":11600,"station_id":"","pricing_plan_id":"cebpf4jnsgd1na2vs0mg"},{"bike_id":"d36470d5-a7db-4e78-9869-b88f93fd7f4d","system_id":"levelo_inurba_marseille","lat":43.30494,"lon":5.37887,"is_reserved":false,"is_disabled":false,"rental_uris":{"android":"levelo://app?vid=d36470d5-a7db-4e78-9869-b88f93fd7f4d","ios":"levelo://app?vid=d36470d5-a7db-4e78-9869-b88f93fd7f4d"},"vehicle_type_id":"4","last_reported":1737616093,"current_range_meters":38800,"station_id":"ce4bgup2rcd13ifvqcn0","pricing_plan_id":"cebpf4jnsgd1na2vs0mg"},{"bike_id":"ae61e9fb-77e2-453d-8f80-29ea9c2b14f4","system_id":"levelo_inurba_marseille","lat":43.29711,"lon":5.36611,"is_reserved":false,"is_disabled":false,"rental_uris":{"android":"levelo://app?vid=ae61e9fb-77e2-453d-8f80-29ea9c2b14f4","ios":"levelo://app?vid=ae61e9fb-77e2-453d-8f80-29ea9c2b14f4"},"vehicle_type_id":"4","last_reported":1737616093,"current_range_meters":38400,"station_id":"ce4bgn12rcd13ifvqbt0","pricing_plan_id":"cebpf4jnsgd1na2vs0mg"},{"bike_id":"fe9a0b6e-6d5f-461c-816f-df565a992bdf","system_id":"levelo_inurba_marseille","lat":43.2815,"lon":5.42635,"is_reserved":false,"is_disabled":false,"rental_uris":{"android":"levelo://app?vid=fe9a0b6e-6d5f-461c-816f-df565a992bdf","ios":"levelo://app?vid=fe9a0b6e-6d5f-461c-816f-df565a992bdf"},"vehicle_type_id":"4","last_reported":1737616093,"current_range_meters":28800,"station_id":"ce4bhnh2rcd13ifvqgug","pricing_plan_id":"cebpf4jnsgd1na2vs0mg"},{"bike_id":"23dfe851-455a-46dd-9b74-8c5804f31f1f","system_id":"levelo_inurba_marseille","lat":43.29963,"lon":5.38485,"is_reserved":false,"is_disabled":false,"rental_uris":{"android":"levelo://app?vid=23dfe851-455a-46dd-9b74-8c5804f31f1f","ios":"levelo://app?vid=23dfe851-455a-46dd-9b74-8c5804f31f1f"},"vehicle_type_id":"4","last_reported":1737616093,"current_range_meters":16000,"station_id":"ce4bgj92rcd13ifvqbd0","pricing_plan_id":"cebpf4jnsgd1na2vs0mg"},{"bike_id":"29a7c8d0-2bbf-445f-937a-58827db7cda7","system_id":"levelo_inurba_marseille","lat":43.34137,"lon":5.40896,"is_reserved":false,"is_disabled":false,"rental_uris":{"android":"levelo://app?vid=29a7c8d0-2bbf-445f-937a-58827db7cda7","ios":"levelo://app?vid=29a7c8d0-2bbf-445f-937a-58827db7cda7"},"vehicle_type_id":"4","last_reported":1737616093,"current_range_meters":38800,"station_id":"ce4bhqh2rcd13ifvqhlg","pricing_plan_id":"cebpf4jnsgd1na2vs0mg"},{"bike_id":"46df303c-af7b-4bd6-88dd-7d9758a3ac21","system_id":"levelo_inurba_marseille","lat":43.304445,"lon":5.388956,"is_reserved":false,"is_disabled":true,"rental_uris":{"android":"levelo://app?vid=46df303c-af7b-4bd6-88dd-7d9758a3ac21","ios":"levelo://app?vid=46df303c-af7b-4bd6-88dd-7d9758a3ac21"},"vehicle_type_id":"4","last_reported":1737616093,"current_range_meters":22000,"station_id":"ce4bgk12rcd13ifvqbi0","pricing_plan_id":"cebpf4jnsgd1na2vs0mg"},{"bike_id":"dc25515f-2516-4d8e-8ff7-eaa9f571f705","system_id":"levelo_inurba_marseille","lat":43.30097,"lon":5.39078,"is_reserved":false,"is_disabled":true,"rental_uris":{"android":"levelo://app?vid=dc25515f-2516-4d8e-8ff7-eaa9f571f705","ios":"levelo://app?vid=dc25515f-2516-4d8e-8ff7-eaa9f571f705"},"vehicle_type_id":"4","last_reported":1737616093,"current_range_meters":0,"station_id":"ce4bh192rcd13ifvqdb0","pricing_plan_id":"cebpf4jnsgd1na2vs0mg"},{"bike_id":"99b7852f-381d-426f-ad7f-b78a9330825f","system_id":"levelo_inurba_marseille","lat":43.30442,"lon":5.39746,"is_reserved":false,"is_disabled":false,"rental_uris":{"android":"levelo://app?vid=99b7852f-381d-426f-ad7f-b78a9330825f","ios":"levelo://app?vid=99b7852f-381d-426f-ad7f-b78a9330825f"},"vehicle_type_id":"4","last_reported":1737616093,"current_range_meters":38800,"station_id":"ce4bh092rcd13ifvqd20","pricing_plan_id":"cebpf4jnsgd1na2vs0mg"},{"bike_id":"219132d0-be19-453e-a72d-906c42eab0a6","system_id":"levelo_inurba_marseille","lat":43.28369,"lon":5.38618,"is_reserved":false,"is_disabled":false,"rental_uris":{"android":"levelo://app?vid=219132d0-be19-453e-a72d-906c42eab0a6","ios":"levelo://app?vid=219132d0-be19-453e-a72d-906c42eab0a6"},"vehicle_type_id":"4","last_reported":1737616093,"current_range_meters":38800,"station_id":"ce4bh492rcd13ifvqdvg","pricing_plan_id":"cebpf4jnsgd1na2vs0mg"},{"bike_id":"c4db15ea-eb22-409d-a92c-518ac96d96dd","system_id":"levelo_inurba_marseille","lat":43.29558,"lon":5.42276,"is_reserved":false,"is_disabled":false,"rental_uris":{"android":"levelo://app?vid=c4db15ea-eb22-409d-a92c-518ac96d96dd","ios":"levelo://app?vid=c4db15ea-eb22-409d-a92c-518ac96d96dd"},"vehicle_type_id":"4","last_reported":1737616093,"current_range_meters":38000,"station_id":"ce4bhph2rcd13ifvqhdg","pricing_plan_id":"cebpf4jnsgd1na2vs0mg"},{"bike_id":"73cd5b24-83a6-4c30-8520-98c021e86103","system_id":"levelo_inurba_marseille","lat":43.27897,"lon":5.38016,"is_reserved":false,"is_disabled":false,"rental_uris":{"android":"levelo://app?vid=73cd5b24-83a6-4c30-8520-98c021e86103","ios":"levelo://app?vid=73cd5b24-83a6-4c30-8520-98c021e86103"},"vehicle_type_id":"4","last_reported":1737616093,"current_range_meters":19200,"station_id":"ce4bhf92rcd13ifvqf50","pricing_plan_id":"cebpf4jnsgd1na2vs0mg"},{"bike_id":"c9f2114a-bb29-4c42-a94e-e744cbb0ee9b","system_id":"levelo_inurba_marseille","lat":43.28397,"lon":5.37512,"is_reserved":false,"is_disabled":false,"rental_uris":{"android":"levelo://app?vid=c9f2114a-bb29-4c42-a94e-e744cbb0ee9b","ios":"levelo://app?vid=c9f2114a-bb29-4c42-a94e-e744cbb0ee9b"},"vehicle_type_id":"4","last_reported":1737616093,"current_range_meters":16800,"station_id":"ce4bh412rcd13ifvqds0","pricing_plan_id":"cebpf4jnsgd1na2vs0mg"},{"bike_id":"dbcd9953-74e7-43ae-8d29-dcca7214827f","system_id":"levelo_inurba_marseille","lat":43.27492,"lon":5.42445,"is_reserved":false,"is_disabled":false,"rental_uris":{"android":"levelo://app?vid=dbcd9953-74e7-43ae-8d29-dcca7214827f","ios":"levelo://app?vid=dbcd9953-74e7-43ae-8d29-dcca7214827f"},"vehicle_type_id":"4","last_reported":1737616093,"current_range_meters":9600,"station_id":"ce4bhn92rcd13ifvqgrg","pricing_plan_id":"cebpf4jnsgd1na2vs0mg"},{"bike_id":"a74613b0-0632-4e74-90d6-f057fde31b01","system_id":"levelo_inurba_marseille","lat":43.30884,"lon":5.3964,"is_reserved":false,"is_disabled":false,"rental_uris":{"android":"levelo://app?vid=a74613b0-0632-4e74-90d6-f057fde31b01","ios":"levelo://app?vid=a74613b0-0632-4e74-90d6-f057fde31b01"},"vehicle_type_id":"4","last_reported":1737616093,"current_range_meters":36800,"station_id":"ce4bh012rcd13ifvqcv0","pricing_plan_id":"cebpf4jnsgd1na2vs0mg"},{"bike_id":"f2c81127-eb63-4c1f-8e2f-9a2254fbb814","system_id":"levelo_inurba_marseille","lat":43.24074,"lon":5.37764,"is_reserved":false,"is_disabled":false,"rental_uris":{"android":"levelo://app?vid=f2c81127-eb63-4c1f-8e2f-9a2254fbb814","ios":"levelo://app?vid=f2c81127-eb63-4c1f-8e2f-9a2254fbb814"},"vehicle_type_id":"4","last_reported":1737616093,"current_range_meters":5600,"station_id":"ce4bhnp2rcd13ifvqgvg","pricing_plan_id":"cebpf4jnsgd1na2vs0mg"},{"bike_id":"08b8a018-3736-4f47-9103-a54bdb9310c3","system_id":"levelo_inurba_marseille","lat":43.26056,"lon":5.39397,"is_reserved":false,"is_disabled":false,"rental_uris":{"android":"levelo://app?vid=08b8a018-3736-4f47-9103-a54bdb9310c3","ios":"levelo://app?vid=08b8a018-3736-4f47-9103-a54bdb9310c3"},"vehicle_type_id":"4","last_reported":1737616093,"current_range_meters":37600,"station_id":"ce4bhh92rcd13ifvqfj0","pricing_plan_id":"cebpf4jnsgd1na2vs0mg"},{"bike_id":"f8aa956a-8cae-4e6e-bae9-e7d6d45f1b1a","system_id":"levelo_inurba_marseille","lat":43.30777,"lon":5.37661,"is_reserved":false,"is_disabled":false,"rental_uris":{"android":"levelo://app?vid=f8aa956a-8cae-4e6e-bae9-e7d6d45f1b1a","ios":"levelo://app?vid=f8aa956a-8cae-4e6e-bae9-e7d6d45f1b1a"},"vehicle_type_id":"4","last_reported":1737616093,"current_range_meters":16800,"station_id":"ce4bgv92rcd13ifvqcq0","pricing_plan_id":"cebpf4jnsgd1na2vs0mg"},{"bike_id":"5ef7e318-8bef-4454-b39f-f2278c4d3a34","system_id":"levelo_inurba_marseille","lat":43.27494,"lon":5.42451,"is_reserved":false,"is_disabled":false,"rental_uris":{"android":"levelo://app?vid=5ef7e318-8bef-4454-b39f-f2278c4d3a34","ios":"levelo://app?vid=5ef7e318-8bef-4454-b39f-f2278c4d3a34"},"vehicle_type_id":"4","last_reported":1737616093,"current_range_meters":25200,"station_id":"ce4bhn92rcd13ifvqgrg","pricing_plan_id":"cebpf4jnsgd1na2vs0mg"},{"bike_id":"7b5d1211-0b39-45a6-ab33-9a78120c0bed","system_id":"levelo_inurba_marseille","lat":43.25719,"lon":5.41113,"is_reserved":false,"is_disabled":false,"rental_uris":{"android":"levelo://app?vid=7b5d1211-0b39-45a6-ab33-9a78120c0bed","ios":"levelo://app?vid=7b5d1211-0b39-45a6-ab33-9a78120c0bed"},"vehicle_type_id":"4","last_reported":1737616093,"current_range_meters":38000,"station_id":"ce4bhkp2rcd13ifvqgd0","pricing_plan_id":"cebpf4jnsgd1na2vs0mg"},{"bike_id":"829a73aa-a8bc-45e5-b4cd-22689311b6c7","system_id":"levelo_inurba_marseille","lat":43.30439,"lon":5.38891,"is_reserved":false,"is_disabled":true,"rental_uris":{"android":"levelo://app?vid=829a73aa-a8bc-45e5-b4cd-22689311b6c7","ios":"levelo://app?vid=829a73aa-a8bc-45e5-b4cd-22689311b6c7"},"vehicle_type_id":"4","last_reported":1737616093,"current_range_meters":36000,"station_id":"ce4bgk12rcd13ifvqbi0","pricing_plan_id":"cebpf4jnsgd1na2vs0mg"},{"bike_id":"036ef21a-cd0f-4d78-a9a9-bcbf43217439","system_id":"levelo_inurba_marseille","lat":43.27489,"lon":5.42459,"is_reserved":false,"is_disabled":false,"rental_uris":{"android":"levelo://app?vid=036ef21a-cd0f-4d78-a9a9-bcbf43217439","ios":"levelo://app?vid=036ef21a-cd0f-4d78-a9a9-bcbf43217439"},"vehicle_type_id":"4","last_reported":1737616093,"current_range_meters":33200,"station_id":"ce4bhn92rcd13ifvqgrg","pricing_plan_id":"cebpf4jnsgd1na2vs0mg"},{"bike_id":"95289c82-6911-43c4-a49c-6e7f2290b672","system_id":"levelo_inurba_marseille","lat":43.30409,"lon":5.41298,"is_reserved":false,"is_disabled":false,"rental_uris":{"android":"levelo://app?vid=95289c82-6911-43c4-a49c-6e7f2290b672","ios":"levelo://app?vid=95289c82-6911-43c4-a49c-6e7f2290b672"},"vehicle_type_id":"4","last_reported":1737616093,"current_range_meters":38800,"station_id":"ce4bhop2rcd13ifvqh8g","pricing_plan_id":"cebpf4jnsgd1na2vs0mg"},{"bike_id":"95ae68b4-a418-4752-86a9-953b61192012","system_id":"levelo_inurba_marseille","lat":43.2781,"lon":5.40704,"is_reserved":false,"is_disabled":false,"rental_uris":{"android":"levelo://app?vid=95ae68b4-a418-4752-86a9-953b61192012","ios":"levelo://app?vid=95ae68b4-a418-4752-86a9-953b61192012"},"vehicle_type_id":"4","last_reported":1737616093,"current_range_meters":18800,"station_id":"ce4bhnh2rcd13ifvqgtg","pricing_plan_id":"cebpf4jnsgd1na2vs0mg"},{"bike_id":"dcb048dc-cdc9-4384-89c0-8b2fb6c6a910","system_id":"levelo_inurba_marseille","lat":43.28936,"lon":5.36402,"is_reserved":false,"is_disabled":false,"rental_uris":{"android":"levelo://app?vid=dcb048dc-cdc9-4384-89c0-8b2fb6c6a910","ios":"levelo://app?vid=dcb048dc-cdc9-4384-89c0-8b2fb6c6a910"},"vehicle_type_id":"4","last_reported":1737616093,"current_range_meters":15200,"station_id":"ce4bhc92rcd13ifvqetg","pricing_plan_id":"cebpf4jnsgd1na2vs0mg"},{"bike_id":"107a43c2-eb2d-492d-b015-02b42bf10f88","system_id":"levelo_inurba_marseille","lat":43.3204,"lon":5.41535,"is_reserved":false,"is_disabled":false,"rental_uris":{"android":"levelo://app?vid=107a43c2-eb2d-492d-b015-02b42bf10f88","ios":"levelo://app?vid=107a43c2-eb2d-492d-b015-02b42bf10f88"},"vehicle_type_id":"4","last_reported":1737616093,"current_range_meters":14000,"station_id":"ce4bhq92rcd13ifvqhkg","pricing_plan_id":"cebpf4jnsgd1na2vs0mg"},{"bike_id":"96e0558c-cec8-47c4-89d3-1aa21c4b0119","system_id":"levelo_inurba_marseille","lat":43.25703,"lon":5.41813,"is_reserved":false,"is_disabled":false,"rental_uris":{"android":"levelo://app?vid=96e0558c-cec8-47c4-89d3-1aa21c4b0119","ios":"levelo://app?vid=96e0558c-cec8-47c4-89d3-1aa21c4b0119"},"vehicle_type_id":"4","last_reported":1737616093,"current_range_meters":17200,"station_id":"","pricing_plan_id":"cebpf4jnsgd1na2vs0mg"},{"bike_id":"f214401a-dba5-4f6f-8c9a-9bc928023425","system_id":"levelo_inurba_marseille","lat":43.2905,"lon":5.39958,"is_reserved":false,"is_disabled":false,"rental_uris":{"android":"levelo://app?vid=f214401a-dba5-4f6f-8c9a-9bc928023425","ios":"levelo://app?vid=f214401a-dba5-4f6f-8c9a-9bc928023425"},"vehicle_type_id":"4","last_reported":1737616093,"current_range_meters":38800,"station_id":"ce4bh392rcd13ifvqdm0","pricing_plan_id":"cebpf4jnsgd1na2vs0mg"},{"bike_id":"ffed11c9-eb08-4082-8d11-4dd09bc6ad00","system_id":"levelo_inurba_marseille","lat":43.29249,"lon":5.40904,"is_reserved":false,"is_disabled":false,"rental_uris":{"android":"levelo://app?vid=ffed11c9-eb08-4082-8d11-4dd09bc6ad00","ios":"levelo://app?vid=ffed11c9-eb08-4082-8d11-4dd09bc6ad00"},"vehicle_type_id":"4","last_reported":1737616093,"current_range_meters":37600,"station_id":"ce4bh192rcd13ifvqdc0","pricing_plan_id":"cebpf4jnsgd1na2vs0mg"},{"bike_id":"755fbef0-a8d1-445d-a38a-9354fdc36d67","system_id":"levelo_inurba_marseille","lat":43.24082,"lon":5.37749,"is_reserved":false,"is_disabled":false,"rental_uris":{"android":"levelo://app?vid=755fbef0-a8d1-445d-a38a-9354fdc36d67","ios":"levelo://app?vid=755fbef0-a8d1-445d-a38a-9354fdc36d67"},"vehicle_type_id":"4","last_reported":1737616093,"current_range_meters":17600,"station_id":"ce4bhnp2rcd13ifvqgvg","pricing_plan_id":"cebpf4jnsgd1na2vs0mg"},{"bike_id":"0ecfe1c5-789b-4188-8070-fcdf62f8ec57","system_id":"levelo_inurba_marseille","lat":43.30799,"lon":5.38149,"is_reserved":false,"is_disabled":false,"rental_uris":{"android":"levelo://app?vid=0ecfe1c5-789b-4188-8070-fcdf62f8ec57","ios":"levelo://app?vid=0ecfe1c5-789b-4188-8070-fcdf62f8ec57"},"vehicle_type_id":"4","last_reported":1737616093,"current_range_meters":34000,"station_id":"ce4bgt12rcd13ifvqce0","pricing_plan_id":"cebpf4jnsgd1na2vs0mg"},{"bike_id":"00bbdd8f-e74c-42a6-ad19-9b6fcaedf73b","system_id":"levelo_inurba_marseille","lat":43.3094,"lon":5.39019,"is_reserved":false,"is_disabled":false,"rental_uris":{"android":"levelo://app?vid=00bbdd8f-e74c-42a6-ad19-9b6fcaedf73b","ios":"levelo://app?vid=00bbdd8f-e74c-42a6-ad19-9b6fcaedf73b"},"vehicle_type_id":"4","last_reported":1737616093,"current_range_meters":39200,"station_id":"ce4bgup2rcd13ifvqco0","pricing_plan_id":"cebpf4jnsgd1na2vs0mg"},{"bike_id":"13a64475-e4c7-493c-900a-0bcfe86942ca","system_id":"levelo_inurba_marseille","lat":43.308,"lon":5.43518,"is_reserved":false,"is_disabled":false,"rental_uris":{"android":"levelo://app?vid=13a64475-e4c7-493c-900a-0bcfe86942ca","ios":"levelo://app?vid=13a64475-e4c7-493c-900a-0bcfe86942ca"},"vehicle_type_id":"4","last_reported":1737616093,"current_range_meters":12400,"station_id":"ce4bhph2rcd13ifvqheg","pricing_plan_id":"cebpf4jnsgd1na2vs0mg"},{"bike_id":"ac3fa518-fef3-4a6f-9e1e-03befa6efc87","system_id":"levelo_inurba_marseille","lat":43.27954,"lon":5.41039,"is_reserved":false,"is_disabled":false,"rental_uris":{"android":"levelo://app?vid=ac3fa518-fef3-4a6f-9e1e-03befa6efc87","ios":"levelo://app?vid=ac3fa518-fef3-4a6f-9e1e-03befa6efc87"},"vehicle_type_id":"4","last_reported":1737616093,"current_range_meters":8800,"station_id":"ce4bhnp2rcd13ifvqh0g","pricing_plan_id":"cebpf4jnsgd1na2vs0mg"},{"bike_id":"366618e5-58e4-49a2-b359-c5654fbadc2c","system_id":"levelo_inurba_marseille","lat":43.24083,"lon":5.37754,"is_reserved":false,"is_disabled":false,"rental_uris":{"android":"levelo://app?vid=366618e5-58e4-49a2-b359-c5654fbadc2c","ios":"levelo://app?vid=366618e5-58e4-49a2-b359-c5654fbadc2c"},"vehicle_type_id":"4","last_reported":1737616093,"current_range_meters":18800,"station_id":"ce4bhnp2rcd13ifvqgvg","pricing_plan_id":"cebpf4jnsgd1na2vs0mg"},{"bike_id":"aaa0c41b-3b4f-4f38-bba2-425d19b5f467","system_id":"levelo_inurba_marseille","lat":43.25712,"lon":5.41769,"is_reserved":false,"is_disabled":false,"rental_uris":{"android":"levelo://app?vid=aaa0c41b-3b4f-4f38-bba2-425d19b5f467","ios":"levelo://app?vid=aaa0c41b-3b4f-4f38-bba2-425d19b5f467"},"vehicle_type_id":"4","last_reported":1737616093,"current_range_meters":29600,"station_id":"","pricing_plan_id":"cebpf4jnsgd1na2vs0mg"},{"bike_id":"b0ee3244-b915-4f05-8704-8eb07d0c50b6","system_id":"levelo_inurba_marseille","lat":43.31658,"lon":5.3779,"is_reserved":false,"is_disabled":false,"rental_uris":{"android":"levelo://app?vid=b0ee3244-b915-4f05-8704-8eb07d0c50b6","ios":"levelo://app?vid=b0ee3244-b915-4f05-8704-8eb07d0c50b6"},"vehicle_type_id":"4","last_reported":1737616093,"current_range_meters":38800,"station_id":"ce4bgth2rcd13ifvqch0","pricing_plan_id":"cebpf4jnsgd1na2vs0mg"},{"bike_id":"8b5b2ad9-2aec-4c41-a14f-2627ba9e143b","system_id":"levelo_inurba_marseille","lat":43.24077,"lon":5.37757,"is_reserved":false,"is_disabled":false,"rental_uris":{"android":"levelo://app?vid=8b5b2ad9-2aec-4c41-a14f-2627ba9e143b","ios":"levelo://app?vid=8b5b2ad9-2aec-4c41-a14f-2627ba9e143b"},"vehicle_type_id":"4","last_reported":1737616093,"current_range_meters":6800,"station_id":"ce4bhnp2rcd13ifvqgvg","pricing_plan_id":"cebpf4jnsgd1na2vs0mg"},{"bike_id":"96260513-3235-425b-b454-db083e6fc601","system_id":"levelo_inurba_marseille","lat":43.254964,"lon":5.376507,"is_reserved":false,"is_disabled":false,"rental_uris":{"android":"levelo://app?vid=96260513-3235-425b-b454-db083e6fc601","ios":"levelo://app?vid=96260513-3235-425b-b454-db083e6fc601"},"vehicle_type_id":"4","last_reported":1737616093,"current_range_meters":38400,"station_id":"ce4bhh12rcd13ifvqff0","pricing_plan_id":"cebpf4jnsgd1na2vs0mg"},{"bike_id":"58bd67b2-eea0-4ad2-8092-8cb589d6733b","system_id":"levelo_inurba_marseille","lat":43.308,"lon":5.43526,"is_reserved":false,"is_disabled":false,"rental_uris":{"android":"levelo://app?vid=58bd67b2-eea0-4ad2-8092-8cb589d6733b","ios":"levelo://app?vid=58bd67b2-eea0-4ad2-8092-8cb589d6733b"},"vehicle_type_id":"4","last_reported":1737616093,"current_range_meters":6400,"station_id":"ce4bhph2rcd13ifvqheg","pricing_plan_id":"cebpf4jnsgd1na2vs0mg"},{"bike_id":"f8216a2b-e7c5-4eea-8c3d-912daef0d729","system_id":"levelo_inurba_marseille","lat":43.298994,"lon":5.436675,"is_reserved":false,"is_disabled":false,"rental_uris":{"android":"levelo://app?vid=f8216a2b-e7c5-4eea-8c3d-912daef0d729","ios":"levelo://app?vid=f8216a2b-e7c5-4eea-8c3d-912daef0d729"},"vehicle_type_id":"4","last_reported":1737616093,"current_range_meters":20400,"station_id":"ce4bhpp2rcd13ifvqhfg","pricing_plan_id":"cebpf4jnsgd1na2vs0mg"},{"bike_id":"7d9fee46-d4e0-45ce-abae-5cecff49ef4e","system_id":"levelo_inurba_marseille","lat":43.24067,"lon":5.377568,"is_reserved":false,"is_disabled":false,"rental_uris":{"android":"levelo://app?vid=7d9fee46-d4e0-45ce-abae-5cecff49ef4e","ios":"levelo://app?vid=7d9fee46-d4e0-45ce-abae-5cecff49ef4e"},"vehicle_type_id":"4","last_reported":1737616093,"current_range_meters":19200,"station_id":"ce4bhnp2rcd13ifvqgvg","pricing_plan_id":"cebpf4jnsgd1na2vs0mg"},{"bike_id":"f69be3dd-5c08-41a5-a494-c4d2892249c1","system_id":"levelo_inurba_marseille","lat":43.33736,"lon":5.39169,"is_reserved":false,"is_disabled":false,"rental_uris":{"android":"levelo://app?vid=f69be3dd-5c08-41a5-a494-c4d2892249c1","ios":"levelo://app?vid=f69be3dd-5c08-41a5-a494-c4d2892249c1"},"vehicle_type_id":"4","last_reported":1737616093,"current_range_meters":38800,"station_id":"ce4bhr92rcd13ifvqhsg","pricing_plan_id":"cebpf4jnsgd1na2vs0mg"},{"bike_id":"549b1928-e1cf-4e8f-979d-82ddd1e2f667","system_id":"levelo_inurba_marseille","lat":43.31939,"lon":5.40512,"is_reserved":false,"is_disabled":false,"rental_uris":{"android":"levelo://app?vid=549b1928-e1cf-4e8f-979d-82ddd1e2f667","ios":"levelo://app?vid=549b1928-e1cf-4e8f-979d-82ddd1e2f667"},"vehicle_type_id":"4","last_reported":1737616093,"current_range_meters":33200,"station_id":"ce4bhq12rcd13ifvqhig","pricing_plan_id":"cebpf4jnsgd1na2vs0mg"},{"bike_id":"644e564a-b6d7-4979-bce0-aa921b3ef4f9","system_id":"levelo_inurba_marseille","lat":43.30593,"lon":5.39354,"is_reserved":false,"is_disabled":false,"rental_uris":{"android":"levelo://app?vid=644e564a-b6d7-4979-bce0-aa921b3ef4f9","ios":"levelo://app?vid=644e564a-b6d7-4979-bce0-aa921b3ef4f9"},"vehicle_type_id":"4","last_reported":1737616093,"current_range_meters":22800,"station_id":"ce4bh0p2rcd13ifvqd80","pricing_plan_id":"cebpf4jnsgd1na2vs0mg"},{"bike_id":"b30740f3-53de-4190-a431-351e48b71e56","system_id":"levelo_inurba_marseille","lat":43.326556,"lon":5.409933,"is_reserved":false,"is_disabled":false,"rental_uris":{"android":"levelo://app?vid=b30740f3-53de-4190-a431-351e48b71e56","ios":"levelo://app?vid=b30740f3-53de-4190-a431-351e48b71e56"},"vehicle_type_id":"4","last_reported":1737616093,"current_range_meters":29600,"station_id":"ce4bhpp2rcd13ifvqhgg","pricing_plan_id":"cebpf4jnsgd1na2vs0mg"},{"bike_id":"10556ce6-d0fd-42a3-a01a-5ff53ae55a97","system_id":"levelo_inurba_marseille","lat":43.30205,"lon":5.39461,"is_reserved":false,"is_disabled":false,"rental_uris":{"android":"levelo://app?vid=10556ce6-d0fd-42a3-a01a-5ff53ae55a97","ios":"levelo://app?vid=10556ce6-d0fd-42a3-a01a-5ff53ae55a97"},"vehicle_type_id":"4","last_reported":1737616093,"current_range_meters":26000,"station_id":"ce4bh0p2rcd13ifvqd70","pricing_plan_id":"cebpf4jnsgd1na2vs0mg"},{"bike_id":"104d2b0a-20ef-4b97-96c3-5231651d9405","system_id":"levelo_inurba_marseille","lat":43.30484,"lon":5.37917,"is_reserved":false,"is_disabled":false,"rental_uris":{"android":"levelo://app?vid=104d2b0a-20ef-4b97-96c3-5231651d9405","ios":"levelo://app?vid=104d2b0a-20ef-4b97-96c3-5231651d9405"},"vehicle_type_id":"4","last_reported":1737616093,"current_range_meters":33200,"station_id":"ce4bgup2rcd13ifvqcn0","pricing_plan_id":"cebpf4jnsgd1na2vs0mg"},{"bike_id":"9863b7f9-4316-4322-9f6c-3cc66b0448e2","system_id":"levelo_inurba_marseille","lat":43.279439,"lon":5.389008,"is_reserved":false,"is_disabled":true,"rental_uris":{"android":"levelo://app?vid=9863b7f9-4316-4322-9f6c-3cc66b0448e2","ios":"levelo://app?vid=9863b7f9-4316-4322-9f6c-3cc66b0448e2"},"vehicle_type_id":"4","last_reported":1737616093,"current_range_meters":25600,"station_id":"","pricing_plan_id":"cebpf4jnsgd1na2vs0mg"},{"bike_id":"8741379d-312c-4f8a-874b-6f14433f6a99","system_id":"levelo_inurba_marseille","lat":43.30532,"lon":5.36524,"is_reserved":false,"is_disabled":false,"rental_uris":{"android":"levelo://app?vid=8741379d-312c-4f8a-874b-6f14433f6a99","ios":"levelo://app?vid=8741379d-312c-4f8a-874b-6f14433f6a99"},"vehicle_type_id":"4","last_reported":1737616093,"current_range_meters":36400,"station_id":"ce4bgs12rcd13ifvqcag","pricing_plan_id":"cebpf4jnsgd1na2vs0mg"},{"bike_id":"c072e3af-4d17-488d-8fb7-d9317a7547d1","system_id":"levelo_inurba_marseille","lat":43.282904,"lon":5.432282,"is_reserved":false,"is_disabled":false,"rental_uris":{"android":"levelo://app?vid=c072e3af-4d17-488d-8fb7-d9317a7547d1","ios":"levelo://app?vid=c072e3af-4d17-488d-8fb7-d9317a7547d1"},"vehicle_type_id":"4","last_reported":1737616093,"current_range_meters":27600,"station_id":"","pricing_plan_id":"cebpf4jnsgd1na2vs0mg"},{"bike_id":"8321d96b-90be-4414-a696-09a6390b760d","system_id":"levelo_inurba_marseille","lat":43.30459,"lon":5.37902,"is_reserved":false,"is_disabled":false,"rental_uris":{"android":"levelo://app?vid=8321d96b-90be-4414-a696-09a6390b760d","ios":"levelo://app?vid=8321d96b-90be-4414-a696-09a6390b760d"},"vehicle_type_id":"4","last_reported":1737616093,"current_range_meters":34800,"station_id":"ce4bgup2rcd13ifvqcn0","pricing_plan_id":"cebpf4jnsgd1na2vs0mg"},{"bike_id":"eddb6b89-082b-479c-b34f-44c352a03897","system_id":"levelo_inurba_marseille","lat":43.25502,"lon":5.37657,"is_reserved":false,"is_disabled":false,"rental_uris":{"android":"levelo://app?vid=eddb6b89-082b-479c-b34f-44c352a03897","ios":"levelo://app?vid=eddb6b89-082b-479c-b34f-44c352a03897"},"vehicle_type_id":"4","last_reported":1737616093,"current_range_meters":38400,"station_id":"ce4bhh12rcd13ifvqff0","pricing_plan_id":"cebpf4jnsgd1na2vs0mg"},{"bike_id":"795016d8-3d99-4697-be28-e44e10ed86a8","system_id":"levelo_inurba_marseille","lat":43.27911,"lon":5.38014,"is_reserved":false,"is_disabled":false,"rental_uris":{"android":"levelo://app?vid=795016d8-3d99-4697-be28-e44e10ed86a8","ios":"levelo://app?vid=795016d8-3d99-4697-be28-e44e10ed86a8"},"vehicle_type_id":"4","last_reported":1737616093,"current_range_meters":38000,"station_id":"ce4bhf92rcd13ifvqf50","pricing_plan_id":"cebpf4jnsgd1na2vs0mg"},{"bike_id":"4cbc6001-4859-491c-8f7b-7c4cb757c724","system_id":"levelo_inurba_marseille","lat":43.30261,"lon":5.37742,"is_reserved":false,"is_disabled":false,"rental_uris":{"android":"levelo://app?vid=4cbc6001-4859-491c-8f7b-7c4cb757c724","ios":"levelo://app?vid=4cbc6001-4859-491c-8f7b-7c4cb757c724"},"vehicle_type_id":"4","last_reported":1737616093,"current_range_meters":22800,"station_id":"ce4bguh2rcd13ifvqcj0","pricing_plan_id":"cebpf4jnsgd1na2vs0mg"},{"bike_id":"66298199-3847-478a-aaf4-8eeb6eae21ba","system_id":"levelo_inurba_marseille","lat":43.29036,"lon":5.39975,"is_reserved":false,"is_disabled":false,"rental_uris":{"android":"levelo://app?vid=66298199-3847-478a-aaf4-8eeb6eae21ba","ios":"levelo://app?vid=66298199-3847-478a-aaf4-8eeb6eae21ba"},"vehicle_type_id":"4","last_reported":1737616093,"current_range_meters":38800,"station_id":"ce4bh392rcd13ifvqdm0","pricing_plan_id":"cebpf4jnsgd1na2vs0mg"},{"bike_id":"2b8eb6aa-82c8-45b2-80a5-e15fd8b8ca3a","system_id":"levelo_inurba_marseille","lat":43.30468,"lon":5.37902,"is_reserved":false,"is_disabled":false,"rental_uris":{"android":"levelo://app?vid=2b8eb6aa-82c8-45b2-80a5-e15fd8b8ca3a","ios":"levelo://app?vid=2b8eb6aa-82c8-45b2-80a5-e15fd8b8ca3a"},"vehicle_type_id":"4","last_reported":1737616093,"current_range_meters":24800,"station_id":"ce4bgup2rcd13ifvqcn0","pricing_plan_id":"cebpf4jnsgd1na2vs0mg"},{"bike_id":"dfbd27e7-12bf-4812-80d1-488dbaf230dc","system_id":"levelo_inurba_marseille","lat":43.324747,"lon":5.365603,"is_reserved":false,"is_disabled":false,"rental_uris":{"android":"levelo://app?vid=dfbd27e7-12bf-4812-80d1-488dbaf230dc","ios":"levelo://app?vid=dfbd27e7-12bf-4812-80d1-488dbaf230dc"},"vehicle_type_id":"4","last_reported":1737616093,"current_range_meters":23200,"station_id":"ce4bhs12rcd13ifvqhvg","pricing_plan_id":"cebpf4jnsgd1na2vs0mg"},{"bike_id":"28f51610-2ace-4ef5-8acd-b95cf52e90cb","system_id":"levelo_inurba_marseille","lat":43.30594,"lon":5.39353,"is_reserved":false,"is_disabled":false,"rental_uris":{"android":"levelo://app?vid=28f51610-2ace-4ef5-8acd-b95cf52e90cb","ios":"levelo://app?vid=28f51610-2ace-4ef5-8acd-b95cf52e90cb"},"vehicle_type_id":"4","last_reported":1737616093,"current_range_meters":7200,"station_id":"ce4bh0p2rcd13ifvqd80","pricing_plan_id":"cebpf4jnsgd1na2vs0mg"},{"bike_id":"ed243c87-44de-4900-9e4e-84b0cd096871","system_id":"levelo_inurba_marseille","lat":43.2903,"lon":5.39973,"is_reserved":false,"is_disabled":false,"rental_uris":{"android":"levelo://app?vid=ed243c87-44de-4900-9e4e-84b0cd096871","ios":"levelo://app?vid=ed243c87-44de-4900-9e4e-84b0cd096871"},"vehicle_type_id":"4","last_reported":1737616093,"current_range_meters":20000,"station_id":"ce4bh392rcd13ifvqdm0","pricing_plan_id":"cebpf4jnsgd1na2vs0mg"},{"bike_id":"de4f57cf-3a99-44e1-aa51-2308b92464c2","system_id":"levelo_inurba_marseille","lat":43.29298,"lon":5.37451,"is_reserved":false,"is_disabled":false,"rental_uris":{"android":"levelo://app?vid=de4f57cf-3a99-44e1-aa51-2308b92464c2","ios":"levelo://app?vid=de4f57cf-3a99-44e1-aa51-2308b92464c2"},"vehicle_type_id":"4","last_reported":1737616093,"current_range_meters":19600,"station_id":"ce4bgi12rcd13ifvqb70","pricing_plan_id":"cebpf4jnsgd1na2vs0mg"},{"bike_id":"f764154e-1d1f-4399-8789-83394b127327","system_id":"levelo_inurba_marseille","lat":43.30585,"lon":5.39357,"is_reserved":false,"is_disabled":false,"rental_uris":{"android":"levelo://app?vid=f764154e-1d1f-4399-8789-83394b127327","ios":"levelo://app?vid=f764154e-1d1f-4399-8789-83394b127327"},"vehicle_type_id":"4","last_reported":1737616093,"current_range_meters":3200,"station_id":"ce4bh0p2rcd13ifvqd80","pricing_plan_id":"cebpf4jnsgd1na2vs0mg"},{"bike_id":"a353073b-3453-490f-bdfe-01f1c076898b","system_id":"levelo_inurba_marseille","lat":43.31342,"lon":5.36719,"is_reserved":false,"is_disabled":false,"rental_uris":{"android":"levelo://app?vid=a353073b-3453-490f-bdfe-01f1c076898b","ios":"levelo://app?vid=a353073b-3453-490f-bdfe-01f1c076898b"},"vehicle_type_id":"4","last_reported":1737616093,"current_range_meters":24800,"station_id":"ce4bgr92rcd13ifvqc6g","pricing_plan_id":"cebpf4jnsgd1na2vs0mg"},{"bike_id":"49052dc3-4d8a-4007-89e4-6a2b13d47195","system_id":"levelo_inurba_marseille","lat":43.24411,"lon":5.37042,"is_reserved":false,"is_disabled":true,"rental_uris":{"android":"levelo://app?vid=49052dc3-4d8a-4007-89e4-6a2b13d47195","ios":"levelo://app?vid=49052dc3-4d8a-4007-89e4-6a2b13d47195"},"vehicle_type_id":"4","last_reported":1737616093,"current_range_meters":10800,"station_id":"ce4bhhh2rcd13ifvqfk0","pricing_plan_id":"cebpf4jnsgd1na2vs0mg"},{"bike_id":"8145e230-ae7d-453f-b24b-fc74f7fdfbc0","system_id":"levelo_inurba_marseille","lat":43.29709,"lon":5.37716,"is_reserved":false,"is_disabled":false,"rental_uris":{"android":"levelo://app?vid=8145e230-ae7d-453f-b24b-fc74f7fdfbc0","ios":"levelo://app?vid=8145e230-ae7d-453f-b24b-fc74f7fdfbc0"},"vehicle_type_id":"4","last_reported":1737616093,"current_range_meters":37600,"station_id":"ce4bgkh2rcd13ifvqbl0","pricing_plan_id":"cebpf4jnsgd1na2vs0mg"},{"bike_id":"c7dff3cc-e6b8-4ad0-901d-d6dc0a57d7a5","system_id":"levelo_inurba_marseille","lat":43.29258,"lon":5.38456,"is_reserved":false,"is_disabled":true,"rental_uris":{"android":"levelo://app?vid=c7dff3cc-e6b8-4ad0-901d-d6dc0a57d7a5","ios":"levelo://app?vid=c7dff3cc-e6b8-4ad0-901d-d6dc0a57d7a5"},"vehicle_type_id":"4","last_reported":1737616093,"current_range_meters":6400,"station_id":"ce4bh692rcd13ifvqea0","pricing_plan_id":"cebpf4jnsgd1na2vs0mg"},{"bike_id":"822a291d-a22f-4b8c-b69f-9054c94a6d57","system_id":"levelo_inurba_marseille","lat":43.32367,"lon":5.38889,"is_reserved":false,"is_disabled":false,"rental_uris":{"android":"levelo://app?vid=822a291d-a22f-4b8c-b69f-9054c94a6d57","ios":"levelo://app?vid=822a291d-a22f-4b8c-b69f-9054c94a6d57"},"vehicle_type_id":"4","last_reported":1737616093,"current_range_meters":37600,"station_id":"ce4bhqp2rcd13ifvqhog","pricing_plan_id":"cebpf4jnsgd1na2vs0mg"},{"bike_id":"e6d69e77-2426-40e6-8b56-caff4d581c0e","system_id":"levelo_inurba_marseille","lat":43.29553,"lon":5.42283,"is_reserved":false,"is_disabled":false,"rental_uris":{"android":"levelo://app?vid=e6d69e77-2426-40e6-8b56-caff4d581c0e","ios":"levelo://app?vid=e6d69e77-2426-40e6-8b56-caff4d581c0e"},"vehicle_type_id":"4","last_reported":1737616093,"current_range_meters":38800,"station_id":"ce4bhph2rcd13ifvqhdg","pricing_plan_id":"cebpf4jnsgd1na2vs0mg"},{"bike_id":"1a95f77a-8a20-47bb-a81e-a2ebe6ac26fe","system_id":"levelo_inurba_marseille","lat":43.30802,"lon":5.38145,"is_reserved":false,"is_disabled":false,"rental_uris":{"android":"levelo://app?vid=1a95f77a-8a20-47bb-a81e-a2ebe6ac26fe","ios":"levelo://app?vid=1a95f77a-8a20-47bb-a81e-a2ebe6ac26fe"},"vehicle_type_id":"4","last_reported":1737616093,"current_range_meters":37600,"station_id":"ce4bgt12rcd13ifvqce0","pricing_plan_id":"cebpf4jnsgd1na2vs0mg"},{"bike_id":"fcd4837f-6e09-4786-bcf5-c3a686cbcfef","system_id":"levelo_inurba_marseille","lat":43.29909,"lon":5.43665,"is_reserved":false,"is_disabled":false,"rental_uris":{"android":"levelo://app?vid=fcd4837f-6e09-4786-bcf5-c3a686cbcfef","ios":"levelo://app?vid=fcd4837f-6e09-4786-bcf5-c3a686cbcfef"},"vehicle_type_id":"4","last_reported":1737616093,"current_range_meters":28800,"station_id":"ce4bhpp2rcd13ifvqhfg","pricing_plan_id":"cebpf4jnsgd1na2vs0mg"},{"bike_id":"d561329e-e53f-4714-85a9-2ace5d8e89b2","system_id":"levelo_inurba_marseille","lat":43.28107,"lon":5.37835,"is_reserved":false,"is_disabled":false,"rental_uris":{"android":"levelo://app?vid=d561329e-e53f-4714-85a9-2ace5d8e89b2","ios":"levelo://app?vid=d561329e-e53f-4714-85a9-2ace5d8e89b2"},"vehicle_type_id":"4","last_reported":1737616093,"current_range_meters":30400,"station_id":"ce4bha12rcd13ifvqee0","pricing_plan_id":"cebpf4jnsgd1na2vs0mg"},{"bike_id":"4ddcf32b-48a9-4e94-a823-76f5b33beae8","system_id":"levelo_inurba_marseille","lat":43.27491,"lon":5.42457,"is_reserved":false,"is_disabled":false,"rental_uris":{"android":"levelo://app?vid=4ddcf32b-48a9-4e94-a823-76f5b33beae8","ios":"levelo://app?vid=4ddcf32b-48a9-4e94-a823-76f5b33beae8"},"vehicle_type_id":"4","last_reported":1737616093,"current_range_meters":24000,"station_id":"ce4bhn92rcd13ifvqgrg","pricing_plan_id":"cebpf4jnsgd1na2vs0mg"},{"bike_id":"d46a74b4-d575-4284-b10d-520ab1619e29","system_id":"levelo_inurba_marseille","lat":43.24669,"lon":5.38145,"is_reserved":false,"is_disabled":false,"rental_uris":{"android":"levelo://app?vid=d46a74b4-d575-4284-b10d-520ab1619e29","ios":"levelo://app?vid=d46a74b4-d575-4284-b10d-520ab1619e29"},"vehicle_type_id":"4","last_reported":1737616093,"current_range_meters":9600,"station_id":"ce4bhih2rcd13ifvqfr0","pricing_plan_id":"cebpf4jnsgd1na2vs0mg"},{"bike_id":"76504d78-f57a-4865-877c-4fc094403cdd","system_id":"levelo_inurba_marseille","lat":43.29917,"lon":5.37486,"is_reserved":false,"is_disabled":false,"rental_uris":{"android":"levelo://app?vid=76504d78-f57a-4865-877c-4fc094403cdd","ios":"levelo://app?vid=76504d78-f57a-4865-877c-4fc094403cdd"},"vehicle_type_id":"4","last_reported":1737616093,"current_range_meters":37600,"station_id":"ce4bgjh2rcd13ifvqbg0","pricing_plan_id":"cebpf4jnsgd1na2vs0mg"},{"bike_id":"f7923ad2-f1c4-4f5c-a5e5-189abf850b05","system_id":"levelo_inurba_marseille","lat":43.29013,"lon":5.39989,"is_reserved":false,"is_disabled":false,"rental_uris":{"android":"levelo://app?vid=f7923ad2-f1c4-4f5c-a5e5-189abf850b05","ios":"levelo://app?vid=f7923ad2-f1c4-4f5c-a5e5-189abf850b05"},"vehicle_type_id":"4","last_reported":1737616093,"current_range_meters":16000,"station_id":"ce4bh392rcd13ifvqdm0","pricing_plan_id":"cebpf4jnsgd1na2vs0mg"},{"bike_id":"16f0e6b5-d946-47d2-a97c-ad19d0c1e9a1","system_id":"levelo_inurba_marseille","lat":43.30901,"lon":5.36843,"is_reserved":false,"is_disabled":false,"rental_uris":{"android":"levelo://app?vid=16f0e6b5-d946-47d2-a97c-ad19d0c1e9a1","ios":"levelo://app?vid=16f0e6b5-d946-47d2-a97c-ad19d0c1e9a1"},"vehicle_type_id":"4","last_reported":1737616093,"current_range_meters":29600,"station_id":"ce4bgn92rcd13ifvqbvg","pricing_plan_id":"cebpf4jnsgd1na2vs0mg"},{"bike_id":"1a334645-d660-4e24-9208-a267bb4515a7","system_id":"levelo_inurba_marseille","lat":43.29605,"lon":5.38107,"is_reserved":false,"is_disabled":false,"rental_uris":{"android":"levelo://app?vid=1a334645-d660-4e24-9208-a267bb4515a7","ios":"levelo://app?vid=1a334645-d660-4e24-9208-a267bb4515a7"},"vehicle_type_id":"4","last_reported":1737616093,"current_range_meters":11200,"station_id":"ce4bgl12rcd13ifvqbo0","pricing_plan_id":"cebpf4jnsgd1na2vs0mg"},{"bike_id":"eda1391d-595e-4a9f-bee1-6c3298f84c99","system_id":"levelo_inurba_marseille","lat":43.24667,"lon":5.38893,"is_reserved":false,"is_disabled":false,"rental_uris":{"android":"levelo://app?vid=eda1391d-595e-4a9f-bee1-6c3298f84c99","ios":"levelo://app?vid=eda1391d-595e-4a9f-bee1-6c3298f84c99"},"vehicle_type_id":"4","last_reported":1737616093,"current_range_meters":36400,"station_id":"ce4bhg12rcd13ifvqf60","pricing_plan_id":"cebpf4jnsgd1na2vs0mg"},{"bike_id":"e4758cb0-0367-4c65-b523-571a72650646","system_id":"levelo_inurba_marseille","lat":43.30543,"lon":5.36526,"is_reserved":false,"is_disabled":false,"rental_uris":{"android":"levelo://app?vid=e4758cb0-0367-4c65-b523-571a72650646","ios":"levelo://app?vid=e4758cb0-0367-4c65-b523-571a72650646"},"vehicle_type_id":"4","last_reported":1737616093,"current_range_meters":38000,"station_id":"ce4bgs12rcd13ifvqcag","pricing_plan_id":"cebpf4jnsgd1na2vs0mg"},{"bike_id":"b7be8741-0f51-40f7-af2a-9a0868bd551d","system_id":"levelo_inurba_marseille","lat":43.30206,"lon":5.39482,"is_reserved":false,"is_disabled":false,"rental_uris":{"android":"levelo://app?vid=b7be8741-0f51-40f7-af2a-9a0868bd551d","ios":"levelo://app?vid=b7be8741-0f51-40f7-af2a-9a0868bd551d"},"vehicle_type_id":"4","last_reported":1737616093,"current_range_meters":20800,"station_id":"ce4bh0p2rcd13ifvqd70","pricing_plan_id":"cebpf4jnsgd1na2vs0mg"},{"bike_id":"57330205-51d8-4b67-897b-949dd9c90066","system_id":"levelo_inurba_marseille","lat":43.30803,"lon":5.38168,"is_reserved":false,"is_disabled":false,"rental_uris":{"android":"levelo://app?vid=57330205-51d8-4b67-897b-949dd9c90066","ios":"levelo://app?vid=57330205-51d8-4b67-897b-949dd9c90066"},"vehicle_type_id":"4","last_reported":1737616093,"current_range_meters":38800,"station_id":"ce4bgt12rcd13ifvqce0","pricing_plan_id":"cebpf4jnsgd1na2vs0mg"},{"bike_id":"310700a7-7a53-4a1a-acaa-562ce9a4c393","system_id":"levelo_inurba_marseille","lat":43.30246,"lon":5.40085,"is_reserved":false,"is_disabled":false,"rental_uris":{"android":"levelo://app?vid=310700a7-7a53-4a1a-acaa-562ce9a4c393","ios":"levelo://app?vid=310700a7-7a53-4a1a-acaa-562ce9a4c393"},"vehicle_type_id":"4","last_reported":1737616093,"current_range_meters":30400,"station_id":"ce4bgvh2rcd13ifvqcs0","pricing_plan_id":"cebpf4jnsgd1na2vs0mg"},{"bike_id":"13087333-89a3-4958-b2d7-e7367ddabdff","system_id":"levelo_inurba_marseille","lat":43.29545,"lon":5.37505,"is_reserved":false,"is_disabled":false,"rental_uris":{"android":"levelo://app?vid=13087333-89a3-4958-b2d7-e7367ddabdff","ios":"levelo://app?vid=13087333-89a3-4958-b2d7-e7367ddabdff"},"vehicle_type_id":"4","last_reported":1737616093,"current_range_meters":4800,"station_id":"ce4bgkp2rcd13ifvqbmg","pricing_plan_id":"cebpf4jnsgd1na2vs0mg"},{"bike_id":"740ca7dc-7fcb-49cd-8b20-28b6f7632f45","system_id":"levelo_inurba_marseille","lat":43.30204,"lon":5.39465,"is_reserved":false,"is_disabled":true,"rental_uris":{"android":"levelo://app?vid=740ca7dc-7fcb-49cd-8b20-28b6f7632f45","ios":"levelo://app?vid=740ca7dc-7fcb-49cd-8b20-28b6f7632f45"},"vehicle_type_id":"4","last_reported":1737616093,"current_range_meters":800,"station_id":"ce4bh0p2rcd13ifvqd70","pricing_plan_id":"cebpf4jnsgd1na2vs0mg"},{"bike_id":"51a36b3c-6a3c-4a10-8421-cf3855c7a215","system_id":"levelo_inurba_marseille","lat":43.25581,"lon":5.38228,"is_reserved":false,"is_disabled":false,"rental_uris":{"android":"levelo://app?vid=51a36b3c-6a3c-4a10-8421-cf3855c7a215","ios":"levelo://app?vid=51a36b3c-6a3c-4a10-8421-cf3855c7a215"},"vehicle_type_id":"4","last_reported":1737616093,"current_range_meters":8400,"station_id":"ce4bhih2rcd13ifvqfs0","pricing_plan_id":"cebpf4jnsgd1na2vs0mg"},{"bike_id":"cb178e5a-1ad9-444a-b8c0-eb9de8b38599","system_id":"levelo_inurba_marseille","lat":43.30177,"lon":5.36605,"is_reserved":false,"is_disabled":false,"rental_uris":{"android":"levelo://app?vid=cb178e5a-1ad9-444a-b8c0-eb9de8b38599","ios":"levelo://app?vid=cb178e5a-1ad9-444a-b8c0-eb9de8b38599"},"vehicle_type_id":"4","last_reported":1737616093,"current_range_meters":17600,"station_id":"ce4bgrh2rcd13ifvqc8g","pricing_plan_id":"cebpf4jnsgd1na2vs0mg"},{"bike_id":"8ec8e0b3-70b1-4209-b9f4-f93ff330704d","system_id":"levelo_inurba_marseille","lat":43.307999,"lon":5.381464,"is_reserved":false,"is_disabled":false,"rental_uris":{"android":"levelo://app?vid=8ec8e0b3-70b1-4209-b9f4-f93ff330704d","ios":"levelo://app?vid=8ec8e0b3-70b1-4209-b9f4-f93ff330704d"},"vehicle_type_id":"4","last_reported":1737616093,"current_range_meters":38800,"station_id":"ce4bgt12rcd13ifvqce0","pricing_plan_id":"cebpf4jnsgd1na2vs0mg"},{"bike_id":"612e82f7-10fc-4a4a-9e67-aa82ed05c11f","system_id":"levelo_inurba_marseille","lat":43.24665,"lon":5.38153,"is_reserved":false,"is_disabled":false,"rental_uris":{"android":"levelo://app?vid=612e82f7-10fc-4a4a-9e67-aa82ed05c11f","ios":"levelo://app?vid=612e82f7-10fc-4a4a-9e67-aa82ed05c11f"},"vehicle_type_id":"4","last_reported":1737616093,"current_range_meters":27600,"station_id":"ce4bhih2rcd13ifvqfr0","pricing_plan_id":"cebpf4jnsgd1na2vs0mg"},{"bike_id":"13ff516e-16cf-4543-8540-9030b8b296b4","system_id":"levelo_inurba_marseille","lat":43.23193,"lon":5.35549,"is_reserved":false,"is_disabled":false,"rental_uris":{"android":"levelo://app?vid=13ff516e-16cf-4543-8540-9030b8b296b4","ios":"levelo://app?vid=13ff516e-16cf-4543-8540-9030b8b296b4"},"vehicle_type_id":"4","last_reported":1737616093,"current_range_meters":30000,"station_id":"ce4bhu92rcd13ifvqi70","pricing_plan_id":"cebpf4jnsgd1na2vs0mg"},{"bike_id":"a256bffb-9dbb-4017-a5f0-659980004adb","system_id":"levelo_inurba_marseille","lat":43.26931,"lon":5.38931,"is_reserved":false,"is_disabled":false,"rental_uris":{"android":"levelo://app?vid=a256bffb-9dbb-4017-a5f0-659980004adb","ios":"levelo://app?vid=a256bffb-9dbb-4017-a5f0-659980004adb"},"vehicle_type_id":"4","last_reported":1737616093,"current_range_meters":38800,"station_id":"ce4bhhh2rcd13ifvqfl0","pricing_plan_id":"cebpf4jnsgd1na2vs0mg"},{"bike_id":"dc9afc0d-d533-431b-a32f-6f6423d7880b","system_id":"levelo_inurba_marseille","lat":43.317327,"lon":5.423914,"is_reserved":false,"is_disabled":false,"rental_uris":{"android":"levelo://app?vid=dc9afc0d-d533-431b-a32f-6f6423d7880b","ios":"levelo://app?vid=dc9afc0d-d533-431b-a32f-6f6423d7880b"},"vehicle_type_id":"4","last_reported":1737616093,"current_range_meters":32000,"station_id":"ce4bhp92rcd13ifvqhbg","pricing_plan_id":"cebpf4jnsgd1na2vs0mg"},{"bike_id":"888038f9-044f-4ded-824f-b22d803d5b12","system_id":"levelo_inurba_marseille","lat":43.29574,"lon":5.3749,"is_reserved":false,"is_disabled":true,"rental_uris":{"android":"levelo://app?vid=888038f9-044f-4ded-824f-b22d803d5b12","ios":"levelo://app?vid=888038f9-044f-4ded-824f-b22d803d5b12"},"vehicle_type_id":"4","last_reported":1737616093,"current_range_meters":16400,"station_id":"ce4bgh92rcd13ifvqb50","pricing_plan_id":"cebpf4jnsgd1na2vs0mg"},{"bike_id":"2efe9e39-8249-4782-be46-093a8b218e44","system_id":"levelo_inurba_marseille","lat":43.31726,"lon":5.42385,"is_reserved":false,"is_disabled":false,"rental_uris":{"android":"levelo://app?vid=2efe9e39-8249-4782-be46-093a8b218e44","ios":"levelo://app?vid=2efe9e39-8249-4782-be46-093a8b218e44"},"vehicle_type_id":"4","last_reported":1737616093,"current_range_meters":38800,"station_id":"ce4bhp92rcd13ifvqhbg","pricing_plan_id":"cebpf4jnsgd1na2vs0mg"},{"bike_id":"1876537c-c9d8-4160-b31c-e17d644f44c6","system_id":"levelo_inurba_marseille","lat":43.32448,"lon":5.36584,"is_reserved":false,"is_disabled":false,"rental_uris":{"android":"levelo://app?vid=1876537c-c9d8-4160-b31c-e17d644f44c6","ios":"levelo://app?vid=1876537c-c9d8-4160-b31c-e17d644f44c6"},"vehicle_type_id":"4","last_reported":1737616093,"current_range_meters":34000,"station_id":"ce4bhs12rcd13ifvqhvg","pricing_plan_id":"cebpf4jnsgd1na2vs0mg"},{"bike_id":"3ca427d4-897d-4f96-8e6b-de1063edad3d","system_id":"levelo_inurba_marseille","lat":43.28454,"lon":5.35886,"is_reserved":false,"is_disabled":false,"rental_uris":{"android":"levelo://app?vid=3ca427d4-897d-4f96-8e6b-de1063edad3d","ios":"levelo://app?vid=3ca427d4-897d-4f96-8e6b-de1063edad3d"},"vehicle_type_id":"4","last_reported":1737616093,"current_range_meters":38000,"station_id":"ce4bhah2rcd13ifvqei0","pricing_plan_id":"cebpf4jnsgd1na2vs0mg"},{"bike_id":"611133e7-a43f-49f9-8721-729d8dacce5c","system_id":"levelo_inurba_marseille","lat":43.29522,"lon":5.3904,"is_reserved":false,"is_disabled":false,"rental_uris":{"android":"levelo://app?vid=611133e7-a43f-49f9-8721-729d8dacce5c","ios":"levelo://app?vid=611133e7-a43f-49f9-8721-729d8dacce5c"},"vehicle_type_id":"4","last_reported":1737616093,"current_range_meters":4400,"station_id":"ce4bh3p2rcd13ifvqdp0","pricing_plan_id":"cebpf4jnsgd1na2vs0mg"},{"bike_id":"f9fa6336-d0c6-41cd-aea9-792ce7de4de4","system_id":"levelo_inurba_marseille","lat":43.24784,"lon":5.37436,"is_reserved":false,"is_disabled":false,"rental_uris":{"android":"levelo://app?vid=f9fa6336-d0c6-41cd-aea9-792ce7de4de4","ios":"levelo://app?vid=f9fa6336-d0c6-41cd-aea9-792ce7de4de4"},"vehicle_type_id":"4","last_reported":1737616093,"current_range_meters":31200,"station_id":"ce4bhgh2rcd13ifvqfb0","pricing_plan_id":"cebpf4jnsgd1na2vs0mg"},{"bike_id":"02a6b0b4-402d-4137-8c19-2255a9d33595","system_id":"levelo_inurba_marseille","lat":43.30144,"lon":5.38086,"is_reserved":false,"is_disabled":false,"rental_uris":{"android":"levelo://app?vid=02a6b0b4-402d-4137-8c19-2255a9d33595","ios":"levelo://app?vid=02a6b0b4-402d-4137-8c19-2255a9d33595"},"vehicle_type_id":"4","last_reported":1737616093,"current_range_meters":38800,"station_id":"ce4bgjp2rcd13ifvqbh0","pricing_plan_id":"cebpf4jnsgd1na2vs0mg"},{"bike_id":"427ec049-7bdc-415e-93a1-e025c8b36d89","system_id":"levelo_inurba_marseille","lat":43.27989,"lon":5.40009,"is_reserved":false,"is_disabled":false,"rental_uris":{"android":"levelo://app?vid=427ec049-7bdc-415e-93a1-e025c8b36d89","ios":"levelo://app?vid=427ec049-7bdc-415e-93a1-e025c8b36d89"},"vehicle_type_id":"4","last_reported":1737616093,"current_range_meters":38400,"station_id":"ce4bho92rcd13ifvqh4g","pricing_plan_id":"cebpf4jnsgd1na2vs0mg"},{"bike_id":"2acd47f4-c469-4337-9bf8-15f7df3a4cc9","system_id":"levelo_inurba_marseille","lat":43.286817,"lon":5.373593,"is_reserved":false,"is_disabled":true,"rental_uris":{"android":"levelo://app?vid=2acd47f4-c469-4337-9bf8-15f7df3a4cc9","ios":"levelo://app?vid=2acd47f4-c469-4337-9bf8-15f7df3a4cc9"},"vehicle_type_id":"4","last_reported":1737616093,"current_range_meters":24400,"station_id":"ce4bh3p2rcd13ifvqdq0","pricing_plan_id":"cebpf4jnsgd1na2vs0mg"},{"bike_id":"5b5d4d96-8df1-499e-a530-eead026d912a","system_id":"levelo_inurba_marseille","lat":43.27374,"lon":5.36249,"is_reserved":false,"is_disabled":false,"rental_uris":{"android":"levelo://app?vid=5b5d4d96-8df1-499e-a530-eead026d912a","ios":"levelo://app?vid=5b5d4d96-8df1-499e-a530-eead026d912a"},"vehicle_type_id":"4","last_reported":1737616093,"current_range_meters":38000,"station_id":"ce4bhbh2rcd13ifvqeo0","pricing_plan_id":"cebpf4jnsgd1na2vs0mg"},{"bike_id":"834a79a8-58e7-4799-b6b3-70c8e57708f4","system_id":"levelo_inurba_marseille","lat":43.28283,"lon":5.35075,"is_reserved":false,"is_disabled":false,"rental_uris":{"android":"levelo://app?vid=834a79a8-58e7-4799-b6b3-70c8e57708f4","ios":"levelo://app?vid=834a79a8-58e7-4799-b6b3-70c8e57708f4"},"vehicle_type_id":"4","last_reported":1737616093,"current_range_meters":38800,"station_id":"ce4bhbp2rcd13ifvqerg","pricing_plan_id":"cebpf4jnsgd1na2vs0mg"},{"bike_id":"68e9c31c-ad3e-43bf-9dd6-a2db62b95ef7","system_id":"levelo_inurba_marseille","lat":43.32461,"lon":5.36566,"is_reserved":false,"is_disabled":false,"rental_uris":{"android":"levelo://app?vid=68e9c31c-ad3e-43bf-9dd6-a2db62b95ef7","ios":"levelo://app?vid=68e9c31c-ad3e-43bf-9dd6-a2db62b95ef7"},"vehicle_type_id":"4","last_reported":1737616093,"current_range_meters":24000,"station_id":"ce4bhs12rcd13ifvqhvg","pricing_plan_id":"cebpf4jnsgd1na2vs0mg"},{"bike_id":"c57a4656-9914-4691-8920-de942ac8d52d","system_id":"levelo_inurba_marseille","lat":43.249528,"lon":5.389447,"is_reserved":false,"is_disabled":false,"rental_uris":{"android":"levelo://app?vid=c57a4656-9914-4691-8920-de942ac8d52d","ios":"levelo://app?vid=c57a4656-9914-4691-8920-de942ac8d52d"},"vehicle_type_id":"4","last_reported":1737616093,"current_range_meters":27600,"station_id":"ce4bhgp2rcd13ifvqfd0","pricing_plan_id":"cebpf4jnsgd1na2vs0mg"},{"bike_id":"b9893f2d-0f3c-4baf-a4aa-e74039623695","system_id":"levelo_inurba_marseille","lat":43.2828,"lon":5.35073,"is_reserved":false,"is_disabled":false,"rental_uris":{"android":"levelo://app?vid=b9893f2d-0f3c-4baf-a4aa-e74039623695","ios":"levelo://app?vid=b9893f2d-0f3c-4baf-a4aa-e74039623695"},"vehicle_type_id":"4","last_reported":1737616093,"current_range_meters":19200,"station_id":"ce4bhbp2rcd13ifvqerg","pricing_plan_id":"cebpf4jnsgd1na2vs0mg"},{"bike_id":"de62bd88-f03b-41c3-ae0c-4e8a3570dac6","system_id":"levelo_inurba_marseille","lat":43.30134,"lon":5.38767,"is_reserved":false,"is_disabled":false,"rental_uris":{"android":"levelo://app?vid=de62bd88-f03b-41c3-ae0c-4e8a3570dac6","ios":"levelo://app?vid=de62bd88-f03b-41c3-ae0c-4e8a3570dac6"},"vehicle_type_id":"4","last_reported":1737616093,"current_range_meters":3600,"station_id":"ce4bghh2rcd13ifvqb60","pricing_plan_id":"cebpf4jnsgd1na2vs0mg"},{"bike_id":"d44e0181-8fda-48f6-8535-2fda924ce2fd","system_id":"levelo_inurba_marseille","lat":43.29892,"lon":5.43651,"is_reserved":false,"is_disabled":false,"rental_uris":{"android":"levelo://app?vid=d44e0181-8fda-48f6-8535-2fda924ce2fd","ios":"levelo://app?vid=d44e0181-8fda-48f6-8535-2fda924ce2fd"},"vehicle_type_id":"4","last_reported":1737616093,"current_range_meters":4800,"station_id":"ce4bhpp2rcd13ifvqhfg","pricing_plan_id":"cebpf4jnsgd1na2vs0mg"},{"bike_id":"bd771a8e-666c-4f89-bb31-e000a937060f","system_id":"levelo_inurba_marseille","lat":43.28404,"lon":5.37484,"is_reserved":false,"is_disabled":true,"rental_uris":{"android":"levelo://app?vid=bd771a8e-666c-4f89-bb31-e000a937060f","ios":"levelo://app?vid=bd771a8e-666c-4f89-bb31-e000a937060f"},"vehicle_type_id":"4","last_reported":1737616093,"current_range_meters":6000,"station_id":"ce4bh412rcd13ifvqds0","pricing_plan_id":"cebpf4jnsgd1na2vs0mg"},{"bike_id":"d8ce4ac7-3548-4c99-80c2-54448a2f2a6a","system_id":"levelo_inurba_marseille","lat":43.2927,"lon":5.36843,"is_reserved":false,"is_disabled":true,"rental_uris":{"android":"levelo://app?vid=d8ce4ac7-3548-4c99-80c2-54448a2f2a6a","ios":"levelo://app?vid=d8ce4ac7-3548-4c99-80c2-54448a2f2a6a"},"vehicle_type_id":"4","last_reported":1737616093,"current_range_meters":28400,"station_id":"ce4bhbp2rcd13ifvqesg","pricing_plan_id":"cebpf4jnsgd1na2vs0mg"},{"bike_id":"03ba7d4a-0d2a-45a4-b38b-69522f68c3d2","system_id":"levelo_inurba_marseille","lat":43.30154,"lon":5.3808,"is_reserved":false,"is_disabled":false,"rental_uris":{"android":"levelo://app?vid=03ba7d4a-0d2a-45a4-b38b-69522f68c3d2","ios":"levelo://app?vid=03ba7d4a-0d2a-45a4-b38b-69522f68c3d2"},"vehicle_type_id":"4","last_reported":1737616093,"current_range_meters":38800,"station_id":"ce4bgjp2rcd13ifvqbh0","pricing_plan_id":"cebpf4jnsgd1na2vs0mg"},{"bike_id":"fc982849-a602-41e2-bf55-903d4818214b","system_id":"levelo_inurba_marseille","lat":43.2943,"lon":5.3976,"is_reserved":false,"is_disabled":false,"rental_uris":{"android":"levelo://app?vid=fc982849-a602-41e2-bf55-903d4818214b","ios":"levelo://app?vid=fc982849-a602-41e2-bf55-903d4818214b"},"vehicle_type_id":"4","last_reported":1737616093,"current_range_meters":6400,"station_id":"ce4bh3h2rcd13ifvqdo0","pricing_plan_id":"cebpf4jnsgd1na2vs0mg"},{"bike_id":"18d2f652-c61d-46b3-92ad-c9557ed28dd1","system_id":"levelo_inurba_marseille","lat":43.2904,"lon":5.39972,"is_reserved":false,"is_disabled":false,"rental_uris":{"android":"levelo://app?vid=18d2f652-c61d-46b3-92ad-c9557ed28dd1","ios":"levelo://app?vid=18d2f652-c61d-46b3-92ad-c9557ed28dd1"},"vehicle_type_id":"4","last_reported":1737616093,"current_range_meters":33200,"station_id":"ce4bh392rcd13ifvqdm0","pricing_plan_id":"cebpf4jnsgd1na2vs0mg"},{"bike_id":"79806346-ef00-40e4-a531-9c56ff9a9c76","system_id":"levelo_inurba_marseille","lat":43.30465,"lon":5.37906,"is_reserved":false,"is_disabled":false,"rental_uris":{"android":"levelo://app?vid=79806346-ef00-40e4-a531-9c56ff9a9c76","ios":"levelo://app?vid=79806346-ef00-40e4-a531-9c56ff9a9c76"},"vehicle_type_id":"4","last_reported":1737616093,"current_range_meters":36800,"station_id":"ce4bgup2rcd13ifvqcn0","pricing_plan_id":"cebpf4jnsgd1na2vs0mg"},{"bike_id":"f5b52696-dada-4db8-ac63-486420d431ea","system_id":"levelo_inurba_marseille","lat":43.24654,"lon":5.38896,"is_reserved":false,"is_disabled":false,"rental_uris":{"android":"levelo://app?vid=f5b52696-dada-4db8-ac63-486420d431ea","ios":"levelo://app?vid=f5b52696-dada-4db8-ac63-486420d431ea"},"vehicle_type_id":"4","last_reported":1737616093,"current_range_meters":38800,"station_id":"ce4bhg12rcd13ifvqf60","pricing_plan_id":"cebpf4jnsgd1na2vs0mg"},{"bike_id":"ff525654-da70-4f30-9f4b-7720845385ef","system_id":"levelo_inurba_marseille","lat":43.30482,"lon":5.37916,"is_reserved":false,"is_disabled":false,"rental_uris":{"android":"levelo://app?vid=ff525654-da70-4f30-9f4b-7720845385ef","ios":"levelo://app?vid=ff525654-da70-4f30-9f4b-7720845385ef"},"vehicle_type_id":"4","last_reported":1737616093,"current_range_meters":38800,"station_id":"ce4bgup2rcd13ifvqcn0","pricing_plan_id":"cebpf4jnsgd1na2vs0mg"},{"bike_id":"4c43a9c4-bfa7-45b0-9298-d49c582c365e","system_id":"levelo_inurba_marseille","lat":43.2695,"lon":5.3863,"is_reserved":false,"is_disabled":false,"rental_uris":{"android":"levelo://app?vid=4c43a9c4-bfa7-45b0-9298-d49c582c365e","ios":"levelo://app?vid=4c43a9c4-bfa7-45b0-9298-d49c582c365e"},"vehicle_type_id":"4","last_reported":1737616093,"current_range_meters":6000,"station_id":"ce4bhh92rcd13ifvqfh0","pricing_plan_id":"cebpf4jnsgd1na2vs0mg"},{"bike_id":"22194593-f787-46d9-8429-b9675a290fcf","system_id":"levelo_inurba_marseille","lat":43.33605,"lon":5.41031,"is_reserved":false,"is_disabled":false,"rental_uris":{"android":"levelo://app?vid=22194593-f787-46d9-8429-b9675a290fcf","ios":"levelo://app?vid=22194593-f787-46d9-8429-b9675a290fcf"},"vehicle_type_id":"4","last_reported":1737616093,"current_range_meters":28400,"station_id":"ce4bhqh2rcd13ifvqhmg","pricing_plan_id":"cebpf4jnsgd1na2vs0mg"},{"bike_id":"f9771542-7fe0-4eb2-93b5-eb7394d7369a","system_id":"levelo_inurba_marseille","lat":43.29045,"lon":5.39947,"is_reserved":false,"is_disabled":false,"rental_uris":{"android":"levelo://app?vid=f9771542-7fe0-4eb2-93b5-eb7394d7369a","ios":"levelo://app?vid=f9771542-7fe0-4eb2-93b5-eb7394d7369a"},"vehicle_type_id":"4","last_reported":1737616093,"current_range_meters":36400,"station_id":"ce4bh392rcd13ifvqdm0","pricing_plan_id":"cebpf4jnsgd1na2vs0mg"},{"bike_id":"b41d9351-23ce-4ab9-92c2-ed0e3bb7639b","system_id":"levelo_inurba_marseille","lat":43.2991,"lon":5.38152,"is_reserved":false,"is_disabled":false,"rental_uris":{"android":"levelo://app?vid=b41d9351-23ce-4ab9-92c2-ed0e3bb7639b","ios":"levelo://app?vid=b41d9351-23ce-4ab9-92c2-ed0e3bb7639b"},"vehicle_type_id":"4","last_reported":1737616093,"current_range_meters":37600,"station_id":"ce4bgj12rcd13ifvqbc0","pricing_plan_id":"cebpf4jnsgd1na2vs0mg"},{"bike_id":"891d5e3b-8f30-4595-b578-03c5a2603f84","system_id":"levelo_inurba_marseille","lat":43.30524,"lon":5.36709,"is_reserved":false,"is_disabled":false,"rental_uris":{"android":"levelo://app?vid=891d5e3b-8f30-4595-b578-03c5a2603f84","ios":"levelo://app?vid=891d5e3b-8f30-4595-b578-03c5a2603f84"},"vehicle_type_id":"4","last_reported":1737616093,"current_range_meters":23200,"station_id":"ce4bgrp2rcd13ifvqc9g","pricing_plan_id":"cebpf4jnsgd1na2vs0mg"},{"bike_id":"1ed025e5-092a-4cd1-97b6-b0f5fc6191bc","system_id":"levelo_inurba_marseille","lat":43.29047,"lon":5.39945,"is_reserved":false,"is_disabled":false,"rental_uris":{"android":"levelo://app?vid=1ed025e5-092a-4cd1-97b6-b0f5fc6191bc","ios":"levelo://app?vid=1ed025e5-092a-4cd1-97b6-b0f5fc6191bc"},"vehicle_type_id":"4","last_reported":1737616093,"current_range_meters":38400,"station_id":"ce4bh392rcd13ifvqdm0","pricing_plan_id":"cebpf4jnsgd1na2vs0mg"},{"bike_id":"b245832f-bfc3-4c8f-8c4d-9c0e394b1af5","system_id":"levelo_inurba_marseille","lat":43.246665,"lon":5.381768,"is_reserved":false,"is_disabled":false,"rental_uris":{"android":"levelo://app?vid=b245832f-bfc3-4c8f-8c4d-9c0e394b1af5","ios":"levelo://app?vid=b245832f-bfc3-4c8f-8c4d-9c0e394b1af5"},"vehicle_type_id":"4","last_reported":1737616093,"current_range_meters":6800,"station_id":"ce4bhih2rcd13ifvqfr0","pricing_plan_id":"cebpf4jnsgd1na2vs0mg"},{"bike_id":"d9f61072-56ca-4686-8c8a-eb2ab4964fad","system_id":"levelo_inurba_marseille","lat":43.29466,"lon":5.43842,"is_reserved":false,"is_disabled":true,"rental_uris":{"android":"levelo://app?vid=d9f61072-56ca-4686-8c8a-eb2ab4964fad","ios":"levelo://app?vid=d9f61072-56ca-4686-8c8a-eb2ab4964fad"},"vehicle_type_id":"4","last_reported":1737616093,"current_range_meters":0,"station_id":"","pricing_plan_id":"cebpf4jnsgd1na2vs0mg"},{"bike_id":"7bc6841b-0bf8-4093-8d9d-b0e41dfd2d4c","system_id":"levelo_inurba_marseille","lat":43.29813,"lon":5.38093,"is_reserved":false,"is_disabled":false,"rental_uris":{"android":"levelo://app?vid=7bc6841b-0bf8-4093-8d9d-b0e41dfd2d4c","ios":"levelo://app?vid=7bc6841b-0bf8-4093-8d9d-b0e41dfd2d4c"},"vehicle_type_id":"4","last_reported":1737616093,"current_range_meters":12800,"station_id":"ce4bgip2rcd13ifvqbb0","pricing_plan_id":"cebpf4jnsgd1na2vs0mg"},{"bike_id":"2210897f-5c1c-4cde-9ef4-7d66d65ace48","system_id":"levelo_inurba_marseille","lat":43.283476,"lon":5.381106,"is_reserved":false,"is_disabled":false,"rental_uris":{"android":"levelo://app?vid=2210897f-5c1c-4cde-9ef4-7d66d65ace48","ios":"levelo://app?vid=2210897f-5c1c-4cde-9ef4-7d66d65ace48"},"vehicle_type_id":"4","last_reported":1737616093,"current_range_meters":11600,"station_id":"ce4bh412rcd13ifvqdr0","pricing_plan_id":"cebpf4jnsgd1na2vs0mg"},{"bike_id":"38a62f0f-5642-4b4d-ab65-8ce22514d290","system_id":"levelo_inurba_marseille","lat":43.246525,"lon":5.389031,"is_reserved":false,"is_disabled":false,"rental_uris":{"android":"levelo://app?vid=38a62f0f-5642-4b4d-ab65-8ce22514d290","ios":"levelo://app?vid=38a62f0f-5642-4b4d-ab65-8ce22514d290"},"vehicle_type_id":"4","last_reported":1737616093,"current_range_meters":38000,"station_id":"ce4bhg12rcd13ifvqf60","pricing_plan_id":"cebpf4jnsgd1na2vs0mg"},{"bike_id":"cd0f5df4-81bf-48ab-9a3f-9c2989d90769","system_id":"levelo_inurba_marseille","lat":43.29044,"lon":5.39952,"is_reserved":false,"is_disabled":false,"rental_uris":{"android":"levelo://app?vid=cd0f5df4-81bf-48ab-9a3f-9c2989d90769","ios":"levelo://app?vid=cd0f5df4-81bf-48ab-9a3f-9c2989d90769"},"vehicle_type_id":"4","last_reported":1737616093,"current_range_meters":17200,"station_id":"ce4bh392rcd13ifvqdm0","pricing_plan_id":"cebpf4jnsgd1na2vs0mg"},{"bike_id":"c992f582-2ac1-4de6-9366-59e4903c211f","system_id":"levelo_inurba_marseille","lat":43.24666,"lon":5.3817,"is_reserved":false,"is_disabled":false,"rental_uris":{"android":"levelo://app?vid=c992f582-2ac1-4de6-9366-59e4903c211f","ios":"levelo://app?vid=c992f582-2ac1-4de6-9366-59e4903c211f"},"vehicle_type_id":"4","last_reported":1737616093,"current_range_meters":18800,"station_id":"ce4bhih2rcd13ifvqfr0","pricing_plan_id":"cebpf4jnsgd1na2vs0mg"},{"bike_id":"0da03c1f-8fbf-44e2-a859-27e414c42c52","system_id":"levelo_inurba_marseille","lat":43.27499,"lon":5.4245,"is_reserved":false,"is_disabled":false,"rental_uris":{"android":"levelo://app?vid=0da03c1f-8fbf-44e2-a859-27e414c42c52","ios":"levelo://app?vid=0da03c1f-8fbf-44e2-a859-27e414c42c52"},"vehicle_type_id":"4","last_reported":1737616093,"current_range_meters":6400,"station_id":"ce4bhn92rcd13ifvqgrg","pricing_plan_id":"cebpf4jnsgd1na2vs0mg"},