{"last_updated":1686589551,"ttl":30,"version":"2.2","data":{"bikes":[{"bike_id":"96cc64eb-8636-4fea-963f-4b787492d892","system_id":"levelo_inurba_marseille","lat":43.31341,"lon":5.367098,"is_reserved":false,"is_disabled":false,"rental_uris":{"android":"levelo://app?vid=96cc64eb-8636-4fea-963f-4b787492d892","ios":"levelo://app?vid=96cc64eb-8636-4fea-963f-4b787492d892"},"vehicle_type_id":"4","last_reported":1686589552,"current_range_meters":28400,"station_id":"ce4bgr92rcd13ifvqc6g","pricing_plan_id":"free"},{"bike_id":"4abed49c-79a0-4780-ac6e-3754ea7a05db","system_id":"levelo_inurba_marseille","lat":43.31349,"lon":5.36676,"is_reserved":false,"is_disabled":false,"rental_uris":{"android":"levelo://app?vid=4abed49c-79a0-4780-ac6e-3754ea7a05db","ios":"levelo://app?vid=4abed49c-79a0-4780-ac6e-3754ea7a05db"},"vehicle_type_id":"4","last_reported":1686589552,"current_range_meters":26000,"station_id":"","pricing_plan_id":"free"},{"bike_id":"f9887c16-fc45-404c-beab-6111cecf3dd6","system_id":"levelo_inurba_marseille","lat":43.31341,"lon":5.367098,"is_reserved":false,"is_disabled":false,"rental_uris":{"android":"levelo://app?vid=f9887c16-fc45-404c-beab-6111cecf3dd6","ios":"levelo://app?vid=f9887c16-fc45-404c-beab-6111cecf3dd6"},"vehicle_type_id":"4","last_reported":1686589552,"current_range_meters":31200,"station_id":"ce4bgr92rcd13ifvqc6g","pricing_plan_id":"free"},{"bike_id":"92a85bdd-c903-41c3-911b-21f0da751ece","system_id":"levelo_inurba_marseille","lat":43.31341,"lon":5.367098,"is_reserved":false,"is_disabled":false,"rental_uris":{"android":"levelo://app?vid=92a85bdd-c903-41c3-911b-21f0da751ece","ios":"levelo://app?vid=92a85bdd-c903-41c3-911b-21f0da751ece"},"vehicle_type_id":"4","last_reported":1686589552,"current_range_meters":28800,"station_id":"ce4bgr92rcd13ifvqc6g","pricing_plan_id":"free"},{"bike_id":"1862b49a-48ba-4415-a906-8265a2da2cdc","system_id":"levelo_inurba_marseille","lat":43.31341,"lon":5.367098,"is_reserved":false,"is_disabled":false,"rental_uris":{"android":"levelo://app?vid=1862b49a-48ba-4415-a906-8265a2da2cdc","ios":"levelo://app?vid=1862b49a-48ba-4415-a906-8265a2da2cdc"},"vehicle_type_id":"4","last_reported":1686589552,"current_range_meters":30000,"station_id":"ce4bgr92rcd13ifvqc6g","pricing_plan_id":"free"},{"bike_id":"938a665b-db32-4a75-a735-85f1dce2a08c","system_id":"levelo_inurba_marseille","lat":43.31341,"lon":5.367098,"is_reserved":false,"is_disabled":false,"rental_uris":{"android":"levelo://app?vid=938a665b-db32-4a75-a735-85f1dce2a08c","ios":"levelo://app?vid=938a665b-db32-4a75-a735-85f1dce2a08c"},"vehicle_type_id":"4","last_reported":1686589552,"current_range_meters":26400,"station_id":"ce4bgr92rcd13ifvqc6g","pricing_plan_id":"free"},{"bike_id":"0dfa993b-b877-472c-99f6-e6512e42f9df","system_id":"levelo_inurba_marseille","lat":43.31341,"lon":5.367098,"is_reserved":false,"is_disabled":false,"rental_uris":{"android":"levelo://app?vid=0dfa993b-b877-472c-99f6-e6512e42f9df","ios":"levelo://app?vid=0dfa993b-b877-472c-99f6-e6512e42f9df"},"vehicle_type_id":"4","last_reported":1686589552,"current_range_meters":24800,"station_id":"ce4bgr92rcd13ifvqc6g","pricing_plan_id":"free"},{"bike_id":"46b5868e-e705-49f4-be5c-73bb7e92264c","system_id":"levelo_inurba_marseille","lat":43.312239,"lon":5.368562,"is_reserved":false,"is_disabled":false,"rental_uris":{"android":"levelo://app?vid=46b5868e-e705-49f4-be5c-73bb7e92264c","ios":"levelo://app?vid=46b5868e-e705-49f4-be5c-73bb7e92264c"},"vehicle_type_id":"4","last_reported":1686589552,"current_range_meters":11200,"station_id":"ce4bgl92rcd13ifvqbq0","pricing_plan_id":"free"},{"bike_id":"4792b473-85e2-4fdd-83a4-302c95f6ac67","system_id":"levelo_inurba_marseille","lat":43.31401,"lon":5.36877,"is_reserved":false,"is_disabled":false,"rental_uris":{"android":"levelo://app?vid=4792b473-85e2-4fdd-83a4-302c95f6ac67","ios":"levelo://app?vid=4792b473-85e2-4fdd-83a4-302c95f6ac67"},"vehicle_type_id":"4","last_reported":1686589552,"current_range_meters":29600,"station_id":"","pricing_plan_id":"free"},{"bike_id":"2236174f-9b48-4e77-bc47-17f9275c2cb6","system_id":"levelo_inurba_marseille","lat":43.309076,"lon":5.368465,"is_reserved":false,"is_disabled":false,"rental_uris":{"android":"levelo://app?vid=2236174f-9b48-4e77-bc47-17f9275c2cb6","ios":"levelo://app?vid=2236174f-9b48-4e77-bc47-17f9275c2cb6"},"vehicle_type_id":"4","last_reported":1686589552,"current_range_meters":5200,"station_id":"ce4bgn92rcd13ifvqbvg","pricing_plan_id":"free"},{"bike_id":"6b1980e2-6dc7-469e-a375-3de5fbb582c9","system_id":"levelo_inurba_marseille","lat":43.309076,"lon":5.368465,"is_reserved":false,"is_disabled":false,"rental_uris":{"android":"levelo://app?vid=6b1980e2-6dc7-469e-a375-3de5fbb582c9","ios":"levelo://app?vid=6b1980e2-6dc7-469e-a375-3de5fbb582c9"},"vehicle_type_id":"4","last_reported":1686589552,"current_range_meters":23200,"station_id":"ce4bgn92rcd13ifvqbvg","pricing_plan_id":"free"},{"bike_id":"212ce616-7976-4531-92b1-69cefe6e3f6a","system_id":"levelo_inurba_marseille","lat":43.31516,"lon":5.37311,"is_reserved":false,"is_disabled":false,"rental_uris":{"android":"levelo://app?vid=212ce616-7976-4531-92b1-69cefe6e3f6a","ios":"levelo://app?vid=212ce616-7976-4531-92b1-69cefe6e3f6a"},"vehicle_type_id":"4","last_reported":1686589552,"current_range_meters":29200,"station_id":"","pricing_plan_id":"free"},{"bike_id":"c1fb032f-fb08-4a02-aedc-39d3c7c6c011","system_id":"levelo_inurba_marseille","lat":43.306,"lon":5.36574,"is_reserved":false,"is_disabled":false,"rental_uris":{"android":"levelo://app?vid=c1fb032f-fb08-4a02-aedc-39d3c7c6c011","ios":"levelo://app?vid=c1fb032f-fb08-4a02-aedc-39d3c7c6c011"},"vehicle_type_id":"4","last_reported":1686589552,"current_range_meters":0,"station_id":"","pricing_plan_id":"free"},{"bike_id":"ee72fd66-a203-4b9a-b56f-0c6f1ba7b5dc","system_id":"levelo_inurba_marseille","lat":43.311104,"lon":5.377535,"is_reserved":false,"is_disabled":false,"rental_uris":{"android":"levelo://app?vid=ee72fd66-a203-4b9a-b56f-0c6f1ba7b5dc","ios":"levelo://app?vid=ee72fd66-a203-4b9a-b56f-0c6f1ba7b5dc"},"vehicle_type_id":"4","last_reported":1686589552,"current_range_meters":7200,"station_id":"","pricing_plan_id":"free"},{"bike_id":"77954850-4265-4ec2-ae60-e1d92acc94f2","system_id":"levelo_inurba_marseille","lat":43.311131,"lon":5.377651,"is_reserved":false,"is_disabled":false,"rental_uris":{"android":"levelo://app?vid=77954850-4265-4ec2-ae60-e1d92acc94f2","ios":"levelo://app?vid=77954850-4265-4ec2-ae60-e1d92acc94f2"},"vehicle_type_id":"4","last_reported":1686589552,"current_range_meters":22400,"station_id":"ce4bgt92rcd13ifvqcg0","pricing_plan_id":"free"},{"bike_id":"dff1b0e2-7c5c-414a-846b-2ef60e70ea3e","system_id":"levelo_inurba_marseille","lat":43.31931,"lon":5.37438,"is_reserved":false,"is_disabled":false,"rental_uris":{"android":"levelo://app?vid=dff1b0e2-7c5c-414a-846b-2ef60e70ea3e","ios":"levelo://app?vid=dff1b0e2-7c5c-414a-846b-2ef60e70ea3e"},"vehicle_type_id":"4","last_reported":1686589552,"current_range_meters":23600,"station_id":"","pricing_plan_id":"free"},{"bike_id":"af5d81c5-7d02-4e07-a76e-6bafc5832316","system_id":"levelo_inurba_marseille","lat":43.317075,"lon":5.377367,"is_reserved":false,"is_disabled":false,"rental_uris":{"android":"levelo://app?vid=af5d81c5-7d02-4e07-a76e-6bafc5832316","ios":"levelo://app?vid=af5d81c5-7d02-4e07-a76e-6bafc5832316"},"vehicle_type_id":"4","last_reported":1686589552,"current_range_meters":25200,"station_id":"ce4bgth2rcd13ifvqch0","pricing_plan_id":"free"},{"bike_id":"ce27853c-3346-473e-99fb-e121615e6d3f","system_id":"levelo_inurba_marseille","lat":43.315293,"lon":5.380349,"is_reserved":false,"is_disabled":false,"rental_uris":{"android":"levelo://app?vid=ce27853c-3346-473e-99fb-e121615e6d3f","ios":"levelo://app?vid=ce27853c-3346-473e-99fb-e121615e6d3f"},"vehicle_type_id":"4","last_reported":1686589552,"current_range_meters":6000,"station_id":"ce4bhsp2rcd13ifvqi50","pricing_plan_id":"free"},{"bike_id":"bda3044c-f4af-4dac-957a-6ac1f4d3e8d3","system_id":"levelo_inurba_marseille","lat":43.301939,"lon":5.366286,"is_reserved":false,"is_disabled":false,"rental_uris":{"android":"levelo://app?vid=bda3044c-f4af-4dac-957a-6ac1f4d3e8d3","ios":"levelo://app?vid=bda3044c-f4af-4dac-957a-6ac1f4d3e8d3"},"vehicle_type_id":"4","last_reported":1686589552,"current_range_meters":1600,"station_id":"ce4bgrh2rcd13ifvqc8g","pricing_plan_id":"free"},{"bike_id":"67505cfe-4499-4f55-8d6c-d7e78042403e","system_id":"levelo_inurba_marseille","lat":43.301939,"lon":5.366286,"is_reserved":false,"is_disabled":false,"rental_uris":{"android":"levelo://app?vid=67505cfe-4499-4f55-8d6c-d7e78042403e","ios":"levelo://app?vid=67505cfe-4499-4f55-8d6c-d7e78042403e"},"vehicle_type_id":"4","last_reported":1686589552,"current_range_meters":26800,"station_id":"ce4bgrh2rcd13ifvqc8g","pricing_plan_id":"free"},{"bike_id":"a9a9728e-4cd6-4c29-b4f6-10b451bdcd1d","system_id":"levelo_inurba_marseille","lat":43.308012,"lon":5.381511,"is_reserved":false,"is_disabled":false,"rental_uris":{"android":"levelo://app?vid=a9a9728e-4cd6-4c29-b4f6-10b451bdcd1d","ios":"levelo://app?vid=a9a9728e-4cd6-4c29-b4f6-10b451bdcd1d"},"vehicle_type_id":"4","last_reported":1686589552,"current_range_meters":2800,"station_id":"ce4bgt12rcd13ifvqce0","pricing_plan_id":"free"},{"bike_id":"e9556d91-6189-4203-8f01-ccae0efe1551","system_id":"levelo_inurba_marseille","lat":43.308012,"lon":5.381511,"is_reserved":false,"is_disabled":false,"rental_uris":{"android":"levelo://app?vid=e9556d91-6189-4203-8f01-ccae0efe1551","ios":"levelo://app?vid=e9556d91-6189-4203-8f01-ccae0efe1551"},"vehicle_type_id":"4","last_reported":1686589552,"current_range_meters":9200,"station_id":"ce4bgt12rcd13ifvqce0","pricing_plan_id":"free"},{"bike_id":"27160b52-281b-4c34-9e85-38b0eddc0f9b","system_id":"levelo_inurba_marseille","lat":43.30141,"lon":5.37415,"is_reserved":false,"is_disabled":false,"rental_uris":{"android":"levelo://app?vid=27160b52-281b-4c34-9e85-38b0eddc0f9b","ios":"levelo://app?vid=27160b52-281b-4c34-9e85-38b0eddc0f9b"},"vehicle_type_id":"4","last_reported":1686589552,"current_range_meters":1600,"station_id":"ce4bgs92rcd13ifvqcc0","pricing_plan_id":"free"},{"bike_id":"b37322d9-58a1-4ee4-98a5-6ae126acd70b","system_id":"levelo_inurba_marseille","lat":43.30138,"lon":5.37416,"is_reserved":false,"is_disabled":false,"rental_uris":{"android":"levelo://app?vid=b37322d9-58a1-4ee4-98a5-6ae126acd70b","ios":"levelo://app?vid=b37322d9-58a1-4ee4-98a5-6ae126acd70b"},"vehicle_type_id":"4","last_reported":1686589552,"current_range_meters":0,"station_id":"ce4bgs92rcd13ifvqcc0","pricing_plan_id":"free"},{"bike_id":"9f8e1115-07bf-44b6-9425-a57c3f1294b5","system_id":"levelo_inurba_marseille","lat":43.301429,"lon":5.37413,"is_reserved":false,"is_disabled":false,"rental_uris":{"android":"levelo://app?vid=9f8e1115-07bf-44b6-9425-a57c3f1294b5","ios":"levelo://app?vid=9f8e1115-07bf-44b6-9425-a57c3f1294b5"},"vehicle_type_id":"4","last_reported":1686589552,"current_range_meters":6800,"station_id":"ce4bgs92rcd13ifvqcc0","pricing_plan_id":"free"},{"bike_id":"241479bc-85d3-4b05-8f6f-1c276f5686ac","system_id":"levelo_inurba_marseille","lat":43.319935,"lon":5.381699,"is_reserved":false,"is_disabled":false,"rental_uris":{"android":"levelo://app?vid=241479bc-85d3-4b05-8f6f-1c276f5686ac","ios":"levelo://app?vid=241479bc-85d3-4b05-8f6f-1c276f5686ac"},"vehicle_type_id":"4","last_reported":1686589552,"current_range_meters":800,"station_id":"ce4bhr12rcd13ifvqhpg","pricing_plan_id":"free"},{"bike_id":"88d0330c-5bb0-4a19-9b65-d4683b42e015","system_id":"levelo_inurba_marseille","lat":43.29683,"lon":5.36046,"is_reserved":false,"is_disabled":false,"rental_uris":{"android":"levelo://app?vid=88d0330c-5bb0-4a19-9b65-d4683b42e015","ios":"levelo://app?vid=88d0330c-5bb0-4a19-9b65-d4683b42e015"},"vehicle_type_id":"4","last_reported":1686589552,"current_range_meters":25200,"station_id":"ce4bgpp2rcd13ifvqc3g","pricing_plan_id":"free"},{"bike_id":"a4079a5e-f6aa-4cc9-bf7c-07611e4f3659","system_id":"levelo_inurba_marseille","lat":43.304157,"lon":5.387982,"is_reserved":false,"is_disabled":false,"rental_uris":{"android":"levelo://app?vid=a4079a5e-f6aa-4cc9-bf7c-07611e4f3659","ios":"levelo://app?vid=a4079a5e-f6aa-4cc9-bf7c-07611e4f3659"},"vehicle_type_id":"4","last_reported":1686589552,"current_range_meters":10000,"station_id":"ce4bgk12rcd13ifvqbi0","pricing_plan_id":"free"},{"bike_id":"1936a62d-e3b7-4723-9c24-19b5c04caefc","system_id":"levelo_inurba_marseille","lat":43.298037,"lon":5.381066,"is_reserved":false,"is_disabled":false,"rental_uris":{"android":"levelo://app?vid=1936a62d-e3b7-4723-9c24-19b5c04caefc","ios":"levelo://app?vid=1936a62d-e3b7-4723-9c24-19b5c04caefc"},"vehicle_type_id":"4","last_reported":1686589552,"current_range_meters":15600,"station_id":"ce4bgip2rcd13ifvqbb0","pricing_plan_id":"free"},{"bike_id":"ee66f8d8-9e23-426f-aaa2-1931cc2c515c","system_id":"levelo_inurba_marseille","lat":43.298037,"lon":5.381066,"is_reserved":false,"is_disabled":false,"rental_uris":{"android":"levelo://app?vid=ee66f8d8-9e23-426f-aaa2-1931cc2c515c","ios":"levelo://app?vid=ee66f8d8-9e23-426f-aaa2-1931cc2c515c"},"vehicle_type_id":"4","last_reported":1686589552,"current_range_meters":0,"station_id":"ce4bgip2rcd13ifvqbb0","pricing_plan_id":"free"},{"bike_id":"876d1b6d-7b27-492f-9b1a-505ad277ffaa","system_id":"levelo_inurba_marseille","lat":43.304278,"lon":5.388868,"is_reserved":false,"is_disabled":false,"rental_uris":{"android":"levelo://app?vid=876d1b6d-7b27-492f-9b1a-505ad277ffaa","ios":"levelo://app?vid=876d1b6d-7b27-492f-9b1a-505ad277ffaa"},"vehicle_type_id":"4","last_reported":1686589552,"current_range_meters":0,"station_id":"ce4bgk12rcd13ifvqbi0","pricing_plan_id":"free"},{"bike_id":"a6497e2a-c508-4bcf-8d09-e2a1130a5c73","system_id":"levelo_inurba_marseille","lat":43.304278,"lon":5.388868,"is_reserved":false,"is_disabled":false,"rental_uris":{"android":"levelo://app?vid=a6497e2a-c508-4bcf-8d09-e2a1130a5c73","ios":"levelo://app?vid=a6497e2a-c508-4bcf-8d09-e2a1130a5c73"},"vehicle_type_id":"4","last_reported":1686589552,"current_range_meters":0,"station_id":"ce4bgk12rcd13ifvqbi0","pricing_plan_id":"free"},{"bike_id":"2ed93fa7-a7e1-4aa8-836a-e13d75bc50cc","system_id":"levelo_inurba_marseille","lat":43.298037,"lon":5.381066,"is_reserved":false,"is_disabled":false,"rental_uris":{"android":"levelo://app?vid=2ed93fa7-a7e1-4aa8-836a-e13d75bc50cc","ios":"levelo://app?vid=2ed93fa7-a7e1-4aa8-836a-e13d75bc50cc"},"vehicle_type_id":"4","last_reported":1686589552,"current_range_meters":0,"station_id":"ce4bgip2rcd13ifvqbb0","pricing_plan_id":"free"},{"bike_id":"0b902d37-6fa7-403d-b843-57f03926d26f","system_id":"levelo_inurba_marseille","lat":43.29535,"lon":5.37442,"is_reserved":false,"is_disabled":false,"rental_uris":{"android":"levelo://app?vid=0b902d37-6fa7-403d-b843-57f03926d26f","ios":"levelo://app?vid=0b902d37-6fa7-403d-b843-57f03926d26f"},"vehicle_type_id":"4","last_reported":1686589552,"current_range_meters":25600,"station_id":"","pricing_plan_id":"free"},{"bike_id":"6987dd49-262d-4da8-b404-79c12e4f6f74","system_id":"levelo_inurba_marseille","lat":43.29334,"lon":5.36362,"is_reserved":false,"is_disabled":false,"rental_uris":{"android":"levelo://app?vid=6987dd49-262d-4da8-b404-79c12e4f6f74","ios":"levelo://app?vid=6987dd49-262d-4da8-b404-79c12e4f6f74"},"vehicle_type_id":"4","last_reported":1686589552,"current_range_meters":25200,"station_id":"","pricing_plan_id":"free"},{"bike_id":"4147bdcb-9c0b-48a9-8131-aa9c0c93c2ee","system_id":"levelo_inurba_marseille","lat":43.305994,"lon":5.393687,"is_reserved":false,"is_disabled":false,"rental_uris":{"android":"levelo://app?vid=4147bdcb-9c0b-48a9-8131-aa9c0c93c2ee","ios":"levelo://app?vid=4147bdcb-9c0b-48a9-8131-aa9c0c93c2ee"},"vehicle_type_id":"4","last_reported":1686589552,"current_range_meters":18800,"station_id":"ce4bh0p2rcd13ifvqd80","pricing_plan_id":"free"},{"bike_id":"78ce3b39-1daa-4348-ba74-8f94eff555b8","system_id":"levelo_inurba_marseille","lat":43.298764,"lon":5.388973,"is_reserved":false,"is_disabled":false,"rental_uris":{"android":"levelo://app?vid=78ce3b39-1daa-4348-ba74-8f94eff555b8","ios":"levelo://app?vid=78ce3b39-1daa-4348-ba74-8f94eff555b8"},"vehicle_type_id":"4","last_reported":1686589552,"current_range_meters":800,"station_id":"ce4bh392rcd13ifvqdl0","pricing_plan_id":"free"},{"bike_id":"fd3fbda9-3289-457f-bb33-54a3b49deb90","system_id":"levelo_inurba_marseille","lat":43.298764,"lon":5.388973,"is_reserved":false,"is_disabled":false,"rental_uris":{"android":"levelo://app?vid=fd3fbda9-3289-457f-bb33-54a3b49deb90","ios":"levelo://app?vid=fd3fbda9-3289-457f-bb33-54a3b49deb90"},"vehicle_type_id":"4","last_reported":1686589552,"current_range_meters":800,"station_id":"ce4bh392rcd13ifvqdl0","pricing_plan_id":"free"},{"bike_id":"f4352d60-2dea-4111-b176-5e5615c234d0","system_id":"levelo_inurba_marseille","lat":43.298764,"lon":5.388973,"is_reserved":false,"is_disabled":false,"rental_uris":{"android":"levelo://app?vid=f4352d60-2dea-4111-b176-5e5615c234d0","ios":"levelo://app?vid=f4352d60-2dea-4111-b176-5e5615c234d0"},"vehicle_type_id":"4","last_reported":1686589552,"current_range_meters":28000,"station_id":"ce4bh392rcd13ifvqdl0","pricing_plan_id":"free"},{"bike_id":"bbd6318e-d6c0-470a-8744-7ec14ad01c08","system_id":"levelo_inurba_marseille","lat":43.273613,"lon":5.362705,"is_reserved":false,"is_disabled":false,"rental_uris":{"android":"levelo://app?vid=bbd6318e-d6c0-470a-8744-7ec14ad01c08","ios":"levelo://app?vid=bbd6318e-d6c0-470a-8744-7ec14ad01c08"},"vehicle_type_id":"4","last_reported":1686589552,"current_range_meters":16400,"station_id":"ce4bhbh2rcd13ifvqeo0","pricing_plan_id":"free"},{"bike_id":"8195f237-addb-41cf-b8dd-1131fd36fd63","system_id":"levelo_inurba_marseille","lat":43.304274,"lon":5.397513,"is_reserved":false,"is_disabled":false,"rental_uris":{"android":"levelo://app?vid=8195f237-addb-41cf-b8dd-1131fd36fd63","ios":"levelo://app?vid=8195f237-addb-41cf-b8dd-1131fd36fd63"},"vehicle_type_id":"4","last_reported":1686589552,"current_range_meters":2000,"station_id":"ce4bh092rcd13ifvqd20","pricing_plan_id":"free"},{"bike_id":"4ba566a6-2c19-43f6-afad-e85c1bd9d42d","system_id":"levelo_inurba_marseille","lat":43.290103,"lon":5.356114,"is_reserved":false,"is_disabled":false,"rental_uris":{"android":"levelo://app?vid=4ba566a6-2c19-43f6-afad-e85c1bd9d42d","ios":"levelo://app?vid=4ba566a6-2c19-43f6-afad-e85c1bd9d42d"},"vehicle_type_id":"4","last_reported":1686589552,"current_range_meters":5600,"station_id":"ce4bhb92rcd13ifvqen0","pricing_plan_id":"free"},{"bike_id":"810b4ff8-f907-47c0-8ca3-87eac8af2757","system_id":"levelo_inurba_marseille","lat":43.291994,"lon":5.392907,"is_reserved":false,"is_disabled":false,"rental_uris":{"android":"levelo://app?vid=810b4ff8-f907-47c0-8ca3-87eac8af2757","ios":"levelo://app?vid=810b4ff8-f907-47c0-8ca3-87eac8af2757"},"vehicle_type_id":"4","last_reported":1686589552,"current_range_meters":12800,"station_id":"ce4bh192rcd13ifvqdd0","pricing_plan_id":"free"},{"bike_id":"eb2ea940-5afc-49ad-9beb-e2c4093e5851","system_id":"levelo_inurba_marseille","lat":43.290779,"lon":5.371482,"is_reserved":false,"is_disabled":false,"rental_uris":{"android":"levelo://app?vid=eb2ea940-5afc-49ad-9beb-e2c4093e5851","ios":"levelo://app?vid=eb2ea940-5afc-49ad-9beb-e2c4093e5851"},"vehicle_type_id":"4","last_reported":1686589552,"current_range_meters":25200,"station_id":"ce4bh5p2rcd13ifvqe4g","pricing_plan_id":"free"},{"bike_id":"c2b05c31-a4fa-4bae-b230-da54a69e3339","system_id":"levelo_inurba_marseille","lat":43.290624,"lon":5.359245,"is_reserved":false,"is_disabled":false,"rental_uris":{"android":"levelo://app?vid=c2b05c31-a4fa-4bae-b230-da54a69e3339","ios":"levelo://app?vid=c2b05c31-a4fa-4bae-b230-da54a69e3339"},"vehicle_type_id":"4","last_reported":1686589552,"current_range_meters":15200,"station_id":"ce4bha92rcd13ifvqeg0","pricing_plan_id":"free"},{"bike_id":"60091a88-dd71-42df-b472-2c0c018299fb","system_id":"levelo_inurba_marseille","lat":43.290631,"lon":5.359244,"is_reserved":false,"is_disabled":false,"rental_uris":{"android":"levelo://app?vid=60091a88-dd71-42df-b472-2c0c018299fb","ios":"levelo://app?vid=60091a88-dd71-42df-b472-2c0c018299fb"},"vehicle_type_id":"4","last_reported":1686589552,"current_range_meters":0,"station_id":"ce4bha92rcd13ifvqeg0","pricing_plan_id":"free"},{"bike_id":"48a499c1-a341-408c-8bde-8caf70e578c0","system_id":"levelo_inurba_marseille","lat":43.289184,"lon":5.366408,"is_reserved":false,"is_disabled":false,"rental_uris":{"android":"levelo://app?vid=48a499c1-a341-408c-8bde-8caf70e578c0","ios":"levelo://app?vid=48a499c1-a341-408c-8bde-8caf70e578c0"},"vehicle_type_id":"4","last_reported":1686589552,"current_range_meters":400,"station_id":"ce4bhap2rcd13ifvqek0","pricing_plan_id":"free"},{"bike_id":"75cb2685-a9f9-4200-b8fd-dfbe85ad7820","system_id":"levelo_inurba_marseille","lat":43.290327,"lon":5.375711,"is_reserved":false,"is_disabled":false,"rental_uris":{"android":"levelo://app?vid=75cb2685-a9f9-4200-b8fd-dfbe85ad7820","ios":"levelo://app?vid=75cb2685-a9f9-4200-b8fd-dfbe85ad7820"},"vehicle_type_id":"4","last_reported":1686589552,"current_range_meters":0,"station_id":"ce4bh692rcd13ifvqe90","pricing_plan_id":"free"},{"bike_id":"8f71f87c-a4e9-4c60-8c97-bb616096f357","system_id":"levelo_inurba_marseille","lat":43.289184,"lon":5.366408,"is_reserved":false,"is_disabled":false,"rental_uris":{"android":"levelo://app?vid=8f71f87c-a4e9-4c60-8c97-bb616096f357","ios":"levelo://app?vid=8f71f87c-a4e9-4c60-8c97-bb616096f357"},"vehicle_type_id":"4","last_reported":1686589552,"current_range_meters":0,"station_id":"ce4bhap2rcd13ifvqek0","pricing_plan_id":"free"},{"bike_id":"0f2e08bf-71a1-498a-a63f-6bb2d74cf514","system_id":"levelo_inurba_marseille","lat":43.289184,"lon":5.366408,"is_reserved":false,"is_disabled":false,"rental_uris":{"android":"levelo://app?vid=0f2e08bf-71a1-498a-a63f-6bb2d74cf514","ios":"levelo://app?vid=0f2e08bf-71a1-498a-a63f-6bb2d74cf514"},"vehicle_type_id":"4","last_reported":1686589552,"current_range_meters":28800,"station_id":"ce4bhap2rcd13ifvqek0","pricing_plan_id":"free"},{"bike_id":"d391d8ac-12a3-4a59-88e0-da2d294c269c","system_id":"levelo_inurba_marseille","lat":43.289468,"lon":5.363719,"is_reserved":false,"is_disabled":false,"rental_uris":{"android":"levelo://app?vid=d391d8ac-12a3-4a59-88e0-da2d294c269c","ios":"levelo://app?vid=d391d8ac-12a3-4a59-88e0-da2d294c269c"},"vehicle_type_id":"4","last_reported":1686589552,"current_range_meters":1600,"station_id":"ce4bhc92rcd13ifvqetg","pricing_plan_id":"free"},{"bike_id":"2b88be89-8018-4728-a9ac-08ac01bb7f6a","system_id":"levelo_inurba_marseille","lat":43.289184,"lon":5.366408,"is_reserved":false,"is_disabled":false,"rental_uris":{"android":"levelo://app?vid=2b88be89-8018-4728-a9ac-08ac01bb7f6a","ios":"levelo://app?vid=2b88be89-8018-4728-a9ac-08ac01bb7f6a"},"vehicle_type_id":"4","last_reported":1686589552,"current_range_meters":800,"station_id":"ce4bhap2rcd13ifvqek0","pricing_plan_id":"free"},{"bike_id":"5b1ad9f7-a075-4802-9824-a6ad53e0a73c","system_id":"levelo_inurba_marseille","lat":43.289468,"lon":5.363719,"is_reserved":false,"is_disabled":false,"rental_uris":{"android":"levelo://app?vid=5b1ad9f7-a075-4802-9824-a6ad53e0a73c","ios":"levelo://app?vid=5b1ad9f7-a075-4802-9824-a6ad53e0a73c"},"vehicle_type_id":"4","last_reported":1686589552,"current_range_meters":13200,"station_id":"ce4bhc92rcd13ifvqetg","pricing_plan_id":"free"},{"bike_id":"ebab7a58-22df-40a8-8994-598d76a230e1","system_id":"levelo_inurba_marseille","lat":43.289184,"lon":5.366408,"is_reserved":false,"is_disabled":false,"rental_uris":{"android":"levelo://app?vid=ebab7a58-22df-40a8-8994-598d76a230e1","ios":"levelo://app?vid=ebab7a58-22df-40a8-8994-598d76a230e1"},"vehicle_type_id":"4","last_reported":1686589552,"current_range_meters":16400,"station_id":"ce4bhap2rcd13ifvqek0","pricing_plan_id":"free"},{"bike_id":"0a4beee8-1d0b-40b6-a628-dd56857f4693","system_id":"levelo_inurba_marseille","lat":43.294032,"lon":5.386342,"is_reserved":false,"is_disabled":false,"rental_uris":{"android":"levelo://app?vid=0a4beee8-1d0b-40b6-a628-dd56857f4693","ios":"levelo://app?vid=0a4beee8-1d0b-40b6-a628-dd56857f4693"},"vehicle_type_id":"4","last_reported":1686589552,"current_range_meters":15600,"station_id":"","pricing_plan_id":"free"},{"bike_id":"16500c10-612f-4894-82b8-8523d9634767","system_id":"levelo_inurba_marseille","lat":43.292644,"lon":5.384257,"is_reserved":false,"is_disabled":false,"rental_uris":{"android":"levelo://app?vid=16500c10-612f-4894-82b8-8523d9634767","ios":"levelo://app?vid=16500c10-612f-4894-82b8-8523d9634767"},"vehicle_type_id":"4","last_reported":1686589552,"current_range_meters":29200,"station_id":"ce4bh692rcd13ifvqea0","pricing_plan_id":"free"},{"bike_id":"d58ca526-2efe-4982-aee0-6d63c4684b10","system_id":"levelo_inurba_marseille","lat":43.290103,"lon":5.356114,"is_reserved":false,"is_disabled":false,"rental_uris":{"android":"levelo://app?vid=d58ca526-2efe-4982-aee0-6d63c4684b10","ios":"levelo://app?vid=d58ca526-2efe-4982-aee0-6d63c4684b10"},"vehicle_type_id":"4","last_reported":1686589552,"current_range_meters":14000,"station_id":"ce4bhb92rcd13ifvqen0","pricing_plan_id":"free"},{"bike_id":"76ba4b73-8960-47a1-9a39-5a8e2f276fcc","system_id":"levelo_inurba_marseille","lat":43.29008,"lon":5.35622,"is_reserved":false,"is_disabled":false,"rental_uris":{"android":"levelo://app?vid=76ba4b73-8960-47a1-9a39-5a8e2f276fcc","ios":"levelo://app?vid=76ba4b73-8960-47a1-9a39-5a8e2f276fcc"},"vehicle_type_id":"4","last_reported":1686589552,"current_range_meters":13600,"station_id":"ce4bhb92rcd13ifvqen0","pricing_plan_id":"free"},{"bike_id":"d411c1be-10b4-4838-a93f-35add8fed384","system_id":"levelo_inurba_marseille","lat":43.330442,"lon":5.389148,"is_reserved":false,"is_disabled":false,"rental_uris":{"android":"levelo://app?vid=d411c1be-10b4-4838-a93f-35add8fed384","ios":"levelo://app?vid=d411c1be-10b4-4838-a93f-35add8fed384"},"vehicle_type_id":"4","last_reported":1686589552,"current_range_meters":9600,"station_id":"ce4bhr92rcd13ifvqhrg","pricing_plan_id":"free"},{"bike_id":"7f5c982d-aa4a-4059-9db2-8fc47748f32b","system_id":"levelo_inurba_marseille","lat":43.330442,"lon":5.389148,"is_reserved":false,"is_disabled":false,"rental_uris":{"android":"levelo://app?vid=7f5c982d-aa4a-4059-9db2-8fc47748f32b","ios":"levelo://app?vid=7f5c982d-aa4a-4059-9db2-8fc47748f32b"},"vehicle_type_id":"4","last_reported":1686589552,"current_range_meters":23200,"station_id":"ce4bhr92rcd13ifvqhrg","pricing_plan_id":"free"},{"bike_id":"5615f1a6-387b-4b67-b4fd-0fe7641fb7cc","system_id":"levelo_inurba_marseille","lat":43.290104,"lon":5.356111,"is_reserved":false,"is_disabled":false,"rental_uris":{"android":"levelo://app?vid=5615f1a6-387b-4b67-b4fd-0fe7641fb7cc","ios":"levelo://app?vid=5615f1a6-387b-4b67-b4fd-0fe7641fb7cc"},"vehicle_type_id":"4","last_reported":1686589552,"current_range_meters":29200,"station_id":"ce4bhb92rcd13ifvqen0","pricing_plan_id":"free"},{"bike_id":"c7144b96-590c-4835-9006-8499ebaea09d","system_id":"levelo_inurba_marseille","lat":43.290104,"lon":5.356111,"is_reserved":false,"is_disabled":false,"rental_uris":{"android":"levelo://app?vid=c7144b96-590c-4835-9006-8499ebaea09d","ios":"levelo://app?vid=c7144b96-590c-4835-9006-8499ebaea09d"},"vehicle_type_id":"4","last_reported":1686589552,"current_range_meters":24400,"station_id":"ce4bhb92rcd13ifvqen0","pricing_plan_id":"free"},{"bike_id":"c1b16225-87c9-486c-83ee-54f93ee653ff","system_id":"levelo_inurba_marseille","lat":43.290103,"lon":5.356114,"is_reserved":false,"is_disabled":false,"rental_uris":{"android":"levelo://app?vid=c1b16225-87c9-486c-83ee-54f93ee653ff","ios":"levelo://app?vid=c1b16225-87c9-486c-83ee-54f93ee653ff"},"vehicle_type_id":"4","last_reported":1686589552,"current_range_meters":18800,"station_id":"ce4bhb92rcd13ifvqen0","pricing_plan_id":"free"},{"bike_id":"052f9c60-0a33-41b4-9867-d6e1214b6a70","system_id":"levelo_inurba_marseille","lat":43.290103,"lon":5.356114,"is_reserved":false,"is_disabled":false,"rental_uris":{"android":"levelo://app?vid=052f9c60-0a33-41b4-9867-d6e1214b6a70","ios":"levelo://app?vid=052f9c60-0a33-41b4-9867-d6e1214b6a70"},"vehicle_type_id":"4","last_reported":1686589552,"current_range_meters":20400,"station_id":"ce4bhb92rcd13ifvqen0","pricing_plan_id":"free"},{"bike_id":"632c4feb-0eab-4005-8d8c-5e590547647f","system_id":"levelo_inurba_marseille","lat":43.290104,"lon":5.356111,"is_reserved":false,"is_disabled":false,"rental_uris":{"android":"levelo://app?vid=632c4feb-0eab-4005-8d8c-5e590547647f","ios":"levelo://app?vid=632c4feb-0eab-4005-8d8c-5e590547647f"},"vehicle_type_id":"4","last_reported":1686589552,"current_range_meters":20800,"station_id":"ce4bhb92rcd13ifvqen0","pricing_plan_id":"free"},{"bike_id":"a4624e5a-a97f-4b8d-85d4-20739a49fc2f","system_id":"levelo_inurba_marseille","lat":43.290104,"lon":5.356111,"is_reserved":false,"is_disabled":false,"rental_uris":{"android":"levelo://app?vid=a4624e5a-a97f-4b8d-85d4-20739a49fc2f","ios":"levelo://app?vid=a4624e5a-a97f-4b8d-85d4-20739a49fc2f"},"vehicle_type_id":"4","last_reported":1686589552,"current_range_meters":5600,"station_id":"ce4bhb92rcd13ifvqen0","pricing_plan_id":"free"},{"bike_id":"20331969-6edf-4fa5-943c-91d180ed6ce4","system_id":"levelo_inurba_marseille","lat":43.290104,"lon":5.356111,"is_reserved":false,"is_disabled":false,"rental_uris":{"android":"levelo://app?vid=20331969-6edf-4fa5-943c-91d180ed6ce4","ios":"levelo://app?vid=20331969-6edf-4fa5-943c-91d180ed6ce4"},"vehicle_type_id":"4","last_reported":1686589552,"current_range_meters":6800,"station_id":"ce4bhb92rcd13ifvqen0","pricing_plan_id":"free"},{"bike_id":"3647437f-de01-4948-8414-bce757820564","system_id":"levelo_inurba_marseille","lat":43.290104,"lon":5.356111,"is_reserved":false,"is_disabled":false,"rental_uris":{"android":"levelo://app?vid=3647437f-de01-4948-8414-bce757820564","ios":"levelo://app?vid=3647437f-de01-4948-8414-bce757820564"},"vehicle_type_id":"4","last_reported":1686589552,"current_range_meters":0,"station_id":"ce4bhb92rcd13ifvqen0","pricing_plan_id":"free"},{"bike_id":"a1ccf2c7-ae1e-41a0-8c72-fa303293081c","system_id":"levelo_inurba_marseille","lat":43.295169,"lon":5.390426,"is_reserved":false,"is_disabled":false,"rental_uris":{"android":"levelo://app?vid=a1ccf2c7-ae1e-41a0-8c72-fa303293081c","ios":"levelo://app?vid=a1ccf2c7-ae1e-41a0-8c72-fa303293081c"},"vehicle_type_id":"4","last_reported":1686589552,"current_range_meters":800,"station_id":"ce4bh3p2rcd13ifvqdp0","pricing_plan_id":"free"},{"bike_id":"202a6437-72a3-4ed5-888c-a10d98f69695","system_id":"levelo_inurba_marseille","lat":43.289741,"lon":5.378306,"is_reserved":false,"is_disabled":false,"rental_uris":{"android":"levelo://app?vid=202a6437-72a3-4ed5-888c-a10d98f69695","ios":"levelo://app?vid=202a6437-72a3-4ed5-888c-a10d98f69695"},"vehicle_type_id":"4","last_reported":1686589552,"current_range_meters":0,"station_id":"ce4bh9p2rcd13ifvqed0","pricing_plan_id":"free"},{"bike_id":"94391251-bdf2-41d6-87f2-1acee731c3c1","system_id":"levelo_inurba_marseille","lat":43.28856,"lon":5.358371,"is_reserved":false,"is_disabled":false,"rental_uris":{"android":"levelo://app?vid=94391251-bdf2-41d6-87f2-1acee731c3c1","ios":"levelo://app?vid=94391251-bdf2-41d6-87f2-1acee731c3c1"},"vehicle_type_id":"4","last_reported":1686589552,"current_range_meters":13600,"station_id":"ce4bhb12rcd13ifvqem0","pricing_plan_id":"free"},{"bike_id":"678b9d19-1898-47fc-b514-cef80de92d62","system_id":"levelo_inurba_marseille","lat":43.2901,"lon":5.381269,"is_reserved":false,"is_disabled":false,"rental_uris":{"android":"levelo://app?vid=678b9d19-1898-47fc-b514-cef80de92d62","ios":"levelo://app?vid=678b9d19-1898-47fc-b514-cef80de92d62"},"vehicle_type_id":"4","last_reported":1686589552,"current_range_meters":4800,"station_id":"ce4bh4p2rcd13ifvqe1g","pricing_plan_id":"free"},{"bike_id":"3a950806-4f07-4130-b0ea-3c7429a93d6f","system_id":"levelo_inurba_marseille","lat":43.28856,"lon":5.358371,"is_reserved":false,"is_disabled":false,"rental_uris":{"android":"levelo://app?vid=3a950806-4f07-4130-b0ea-3c7429a93d6f","ios":"levelo://app?vid=3a950806-4f07-4130-b0ea-3c7429a93d6f"},"vehicle_type_id":"4","last_reported":1686589552,"current_range_meters":26400,"station_id":"ce4bhb12rcd13ifvqem0","pricing_plan_id":"free"},{"bike_id":"0c0f0245-4766-4624-8cd4-180f443cebc7","system_id":"levelo_inurba_marseille","lat":43.2901,"lon":5.381269,"is_reserved":false,"is_disabled":false,"rental_uris":{"android":"levelo://app?vid=0c0f0245-4766-4624-8cd4-180f443cebc7","ios":"levelo://app?vid=0c0f0245-4766-4624-8cd4-180f443cebc7"},"vehicle_type_id":"4","last_reported":1686589552,"current_range_meters":0,"station_id":"ce4bh4p2rcd13ifvqe1g","pricing_plan_id":"free"},{"bike_id":"c0fb8083-e02d-4dec-b1b9-fa095e6c5b75","system_id":"levelo_inurba_marseille","lat":43.337396,"lon":5.374526,"is_reserved":false,"is_disabled":false,"rental_uris":{"android":"levelo://app?vid=c0fb8083-e02d-4dec-b1b9-fa095e6c5b75","ios":"levelo://app?vid=c0fb8083-e02d-4dec-b1b9-fa095e6c5b75"},"vehicle_type_id":"4","last_reported":1686589552,"current_range_meters":16000,"station_id":"ce4bhp92rcd13ifvqhag","pricing_plan_id":"free"},{"bike_id":"56ed545a-f38a-4468-98be-334848e24cc1","system_id":"levelo_inurba_marseille","lat":43.30642,"lon":5.401031,"is_reserved":false,"is_disabled":false,"rental_uris":{"android":"levelo://app?vid=56ed545a-f38a-4468-98be-334848e24cc1","ios":"levelo://app?vid=56ed545a-f38a-4468-98be-334848e24cc1"},"vehicle_type_id":"4","last_reported":1686589552,"current_range_meters":12800,"station_id":"ce4bh112rcd13ifvqda0","pricing_plan_id":"free"},{"bike_id":"f81999ac-57d9-4bb9-b9d2-41d5e062ae4a","system_id":"levelo_inurba_marseille","lat":43.31174,"lon":5.40254,"is_reserved":false,"is_disabled":false,"rental_uris":{"android":"levelo://app?vid=f81999ac-57d9-4bb9-b9d2-41d5e062ae4a","ios":"levelo://app?vid=f81999ac-57d9-4bb9-b9d2-41d5e062ae4a"},"vehicle_type_id":"4","last_reported":1686589552,"current_range_meters":24400,"station_id":"","pricing_plan_id":"free"},{"bike_id":"e308896f-13f0-4de1-8039-0cfd14ded282","system_id":"levelo_inurba_marseille","lat":43.286591,"lon":5.363346,"is_reserved":false,"is_disabled":false,"rental_uris":{"android":"levelo://app?vid=e308896f-13f0-4de1-8039-0cfd14ded282","ios":"levelo://app?vid=e308896f-13f0-4de1-8039-0cfd14ded282"},"vehicle_type_id":"4","last_reported":1686589552,"current_range_meters":24400,"station_id":"ce4bhah2rcd13ifvqej0","pricing_plan_id":"free"},{"bike_id":"12dc0d56-9317-4cd2-95d9-51df66429231","system_id":"levelo_inurba_marseille","lat":43.287048,"lon":5.37382,"is_reserved":false,"is_disabled":false,"rental_uris":{"android":"levelo://app?vid=12dc0d56-9317-4cd2-95d9-51df66429231","ios":"levelo://app?vid=12dc0d56-9317-4cd2-95d9-51df66429231"},"vehicle_type_id":"4","last_reported":1686589552,"current_range_meters":4800,"station_id":"","pricing_plan_id":"free"},{"bike_id":"56958d85-50df-486d-a009-88f3986a7f2d","system_id":"levelo_inurba_marseille","lat":43.286591,"lon":5.363346,"is_reserved":false,"is_disabled":false,"rental_uris":{"android":"levelo://app?vid=56958d85-50df-486d-a009-88f3986a7f2d","ios":"levelo://app?vid=56958d85-50df-486d-a009-88f3986a7f2d"},"vehicle_type_id":"4","last_reported":1686589552,"current_range_meters":24000,"station_id":"ce4bhah2rcd13ifvqej0","pricing_plan_id":"free"},{"bike_id":"7175acc7-0225-4710-9b6f-ecfd184ee8bf","system_id":"levelo_inurba_marseille","lat":43.298681,"lon":5.397225,"is_reserved":false,"is_disabled":false,"rental_uris":{"android":"levelo://app?vid=7175acc7-0225-4710-9b6f-ecfd184ee8bf","ios":"levelo://app?vid=7175acc7-0225-4710-9b6f-ecfd184ee8bf"},"vehicle_type_id":"4","last_reported":1686589552,"current_range_meters":13200,"station_id":"ce4bh0h2rcd13ifvqd50","pricing_plan_id":"free"},{"bike_id":"80bc739a-9b6a-41cc-83b7-6ba44a310f21","system_id":"levelo_inurba_marseille","lat":43.28663,"lon":5.36357,"is_reserved":false,"is_disabled":false,"rental_uris":{"android":"levelo://app?vid=80bc739a-9b6a-41cc-83b7-6ba44a310f21","ios":"levelo://app?vid=80bc739a-9b6a-41cc-83b7-6ba44a310f21"},"vehicle_type_id":"4","last_reported":1686589552,"current_range_meters":27600,"station_id":"ce4bhah2rcd13ifvqej0","pricing_plan_id":"free"},{"bike_id":"af17827f-99ef-430a-aa42-4028060c2630","system_id":"levelo_inurba_marseille","lat":43.28701,"lon":5.37395,"is_reserved":false,"is_disabled":false,"rental_uris":{"android":"levelo://app?vid=af17827f-99ef-430a-aa42-4028060c2630","ios":"levelo://app?vid=af17827f-99ef-430a-aa42-4028060c2630"},"vehicle_type_id":"4","last_reported":1686589552,"current_range_meters":10800,"station_id":"","pricing_plan_id":"free"},{"bike_id":"5338c7fd-449f-4b79-afeb-6dc8ac046ed1","system_id":"levelo_inurba_marseille","lat":43.28686,"lon":5.37398,"is_reserved":false,"is_disabled":false,"rental_uris":{"android":"levelo://app?vid=5338c7fd-449f-4b79-afeb-6dc8ac046ed1","ios":"levelo://app?vid=5338c7fd-449f-4b79-afeb-6dc8ac046ed1"},"vehicle_type_id":"4","last_reported":1686589552,"current_range_meters":24000,"station_id":"","pricing_plan_id":"free"},{"bike_id":"a25d1025-022c-4385-811a-ec4dd8e18e05","system_id":"levelo_inurba_marseille","lat":43.286039,"lon":5.370679,"is_reserved":false,"is_disabled":false,"rental_uris":{"android":"levelo://app?vid=a25d1025-022c-4385-811a-ec4dd8e18e05","ios":"levelo://app?vid=a25d1025-022c-4385-811a-ec4dd8e18e05"},"vehicle_type_id":"4","last_reported":1686589552,"current_range_meters":5600,"station_id":"ce4bht12rcd13ifvqi60","pricing_plan_id":"free"},{"bike_id":"b21eb4ed-ac7c-4639-b30f-300cf3a7b53d","system_id":"levelo_inurba_marseille","lat":43.287185,"lon":5.379373,"is_reserved":false,"is_disabled":false,"rental_uris":{"android":"levelo://app?vid=b21eb4ed-ac7c-4639-b30f-300cf3a7b53d","ios":"levelo://app?vid=b21eb4ed-ac7c-4639-b30f-300cf3a7b53d"},"vehicle_type_id":"4","last_reported":1686589552,"current_range_meters":26000,"station_id":"ce4bh9p2rcd13ifvqec0","pricing_plan_id":"free"},{"bike_id":"71a4d2a6-95dc-4686-9772-e5dd8b36f1aa","system_id":"levelo_inurba_marseille","lat":43.287184,"lon":5.37937,"is_reserved":false,"is_disabled":false,"rental_uris":{"android":"levelo://app?vid=71a4d2a6-95dc-4686-9772-e5dd8b36f1aa","ios":"levelo://app?vid=71a4d2a6-95dc-4686-9772-e5dd8b36f1aa"},"vehicle_type_id":"4","last_reported":1686589552,"current_range_meters":1600,"station_id":"ce4bh9p2rcd13ifvqec0","pricing_plan_id":"free"},{"bike_id":"c29de0bb-7987-47ca-8ea2-83c9c704dd17","system_id":"levelo_inurba_marseille","lat":43.28721,"lon":5.37944,"is_reserved":false,"is_disabled":false,"rental_uris":{"android":"levelo://app?vid=c29de0bb-7987-47ca-8ea2-83c9c704dd17","ios":"levelo://app?vid=c29de0bb-7987-47ca-8ea2-83c9c704dd17"},"vehicle_type_id":"4","last_reported":1686589552,"current_range_meters":22800,"station_id":"ce4bh9p2rcd13ifvqec0","pricing_plan_id":"free"},{"bike_id":"99538815-8a76-4a9d-9490-84807da21e74","system_id":"levelo_inurba_marseille","lat":43.31642,"lon":5.40435,"is_reserved":false,"is_disabled":false,"rental_uris":{"android":"levelo://app?vid=99538815-8a76-4a9d-9490-84807da21e74","ios":"levelo://app?vid=99538815-8a76-4a9d-9490-84807da21e74"},"vehicle_type_id":"4","last_reported":1686589552,"current_range_meters":0,"station_id":"ce4bh012rcd13ifvqd00","pricing_plan_id":"free"},{"bike_id":"37a0d44f-a758-4ad2-9a67-96922c31a353","system_id":"levelo_inurba_marseille","lat":43.291994,"lon":5.392907,"is_reserved":false,"is_disabled":false,"rental_uris":{"android":"levelo://app?vid=37a0d44f-a758-4ad2-9a67-96922c31a353","ios":"levelo://app?vid=37a0d44f-a758-4ad2-9a67-96922c31a353"},"vehicle_type_id":"4","last_reported":1686589552,"current_range_meters":2800,"station_id":"ce4bh192rcd13ifvqdd0","pricing_plan_id":"free"},{"bike_id":"2dce2578-490b-4727-b580-5fb062aafcb4","system_id":"levelo_inurba_marseille","lat":43.291994,"lon":5.392907,"is_reserved":false,"is_disabled":false,"rental_uris":{"android":"levelo://app?vid=2dce2578-490b-4727-b580-5fb062aafcb4","ios":"levelo://app?vid=2dce2578-490b-4727-b580-5fb062aafcb4"},"vehicle_type_id":"4","last_reported":1686589552,"current_range_meters":10000,"station_id":"ce4bh192rcd13ifvqdd0","pricing_plan_id":"free"},{"bike_id":"b0ad82a8-5ec4-4193-b8ea-580c59eb7935","system_id":"levelo_inurba_marseille","lat":43.30713,"lon":5.40515,"is_reserved":false,"is_disabled":false,"rental_uris":{"android":"levelo://app?vid=b0ad82a8-5ec4-4193-b8ea-580c59eb7935","ios":"levelo://app?vid=b0ad82a8-5ec4-4193-b8ea-580c59eb7935"},"vehicle_type_id":"4","last_reported":1686589552,"current_range_meters":4000,"station_id":"","pricing_plan_id":"free"},{"bike_id":"e6a46dff-5a34-4911-aa0f-fdf82cf552fc","system_id":"levelo_inurba_marseille","lat":43.284534,"lon":5.358662,"is_reserved":false,"is_disabled":false,"rental_uris":{"android":"levelo://app?vid=e6a46dff-5a34-4911-aa0f-fdf82cf552fc","ios":"levelo://app?vid=e6a46dff-5a34-4911-aa0f-fdf82cf552fc"},"vehicle_type_id":"4","last_reported":1686589552,"current_range_meters":23600,"station_id":"ce4bhah2rcd13ifvqei0","pricing_plan_id":"free"},{"bike_id":"d80af149-8193-4092-8756-78df62fd3b1f","system_id":"levelo_inurba_marseille","lat":43.284534,"lon":5.358662,"is_reserved":false,"is_disabled":false,"rental_uris":{"android":"levelo://app?vid=d80af149-8193-4092-8756-78df62fd3b1f","ios":"levelo://app?vid=d80af149-8193-4092-8756-78df62fd3b1f"},"vehicle_type_id":"4","last_reported":1686589552,"current_range_meters":28400,"station_id":"ce4bhah2rcd13ifvqei0","pricing_plan_id":"free"},{"bike_id":"546cd94b-6a09-41b1-b86d-18d1e41fb2c8","system_id":"levelo_inurba_marseille","lat":43.284534,"lon":5.358662,"is_reserved":false,"is_disabled":false,"rental_uris":{"android":"levelo://app?vid=546cd94b-6a09-41b1-b86d-18d1e41fb2c8","ios":"levelo://app?vid=546cd94b-6a09-41b1-b86d-18d1e41fb2c8"},"vehicle_type_id":"4","last_reported":1686589552,"current_range_meters":22000,"station_id":"ce4bhah2rcd13ifvqei0","pricing_plan_id":"free"},{"bike_id":"2dc3b8fc-44e5-4c06-abe5-a4ce6a51dac1","system_id":"levelo_inurba_marseille","lat":43.285856,"lon":5.350771,"is_reserved":false,"is_disabled":false,"rental_uris":{"android":"levelo://app?vid=2dc3b8fc-44e5-4c06-abe5-a4ce6a51dac1","ios":"levelo://app?vid=2dc3b8fc-44e5-4c06-abe5-a4ce6a51dac1"},"vehicle_type_id":"4","last_reported":1686589552,"current_range_meters":14800,"station_id":"ce4bhch2rcd13ifvqeug","pricing_plan_id":"free"},{"bike_id":"843c6544-b85b-47e9-b499-4efde0dded2b","system_id":"levelo_inurba_marseille","lat":43.285856,"lon":5.350771,"is_reserved":false,"is_disabled":false,"rental_uris":{"android":"levelo://app?vid=843c6544-b85b-47e9-b499-4efde0dded2b","ios":"levelo://app?vid=843c6544-b85b-47e9-b499-4efde0dded2b"},"vehicle_type_id":"4","last_reported":1686589552,"current_range_meters":10000,"station_id":"ce4bhch2rcd13ifvqeug","pricing_plan_id":"free"},{"bike_id":"76a0096a-fa62-427b-9f0f-a0e1ad560e20","system_id":"levelo_inurba_marseille","lat":43.285856,"lon":5.350771,"is_reserved":false,"is_disabled":false,"rental_uris":{"android":"levelo://app?vid=76a0096a-fa62-427b-9f0f-a0e1ad560e20","ios":"levelo://app?vid=76a0096a-fa62-427b-9f0f-a0e1ad560e20"},"vehicle_type_id":"4","last_reported":1686589552,"current_range_meters":13200,"station_id":"ce4bhch2rcd13ifvqeug","pricing_plan_id":"free"},{"bike_id":"5fc8293f-7100-4c17-9023-981b82c610d1","system_id":"levelo_inurba_marseille","lat":43.28532,"lon":5.35033,"is_reserved":false,"is_disabled":false,"rental_uris":{"android":"levelo://app?vid=5fc8293f-7100-4c17-9023-981b82c610d1","ios":"levelo://app?vid=5fc8293f-7100-4c17-9023-981b82c610d1"},"vehicle_type_id":"4","last_reported":1686589552,"current_range_meters":4000,"station_id":"ce4bhbh2rcd13ifvqepg","pricing_plan_id":"free"},{"bike_id":"78ca187b-bc81-4336-9d3c-21508239d677","system_id":"levelo_inurba_marseille","lat":43.32333,"lon":5.40619,"is_reserved":false,"is_disabled":false,"rental_uris":{"android":"levelo://app?vid=78ca187b-bc81-4336-9d3c-21508239d677","ios":"levelo://app?vid=78ca187b-bc81-4336-9d3c-21508239d677"},"vehicle_type_id":"4","last_reported":1686589552,"current_range_meters":18400,"station_id":"ce4bhq92rcd13ifvqhjg","pricing_plan_id":"free"},{"bike_id":"f07b1990-f4df-4ca5-823e-301a1513869e","system_id":"levelo_inurba_marseille","lat":43.32344,"lon":5.40623,"is_reserved":false,"is_disabled":false,"rental_uris":{"android":"levelo://app?vid=f07b1990-f4df-4ca5-823e-301a1513869e","ios":"levelo://app?vid=f07b1990-f4df-4ca5-823e-301a1513869e"},"vehicle_type_id":"4","last_reported":1686589552,"current_range_meters":7600,"station_id":"ce4bhq92rcd13ifvqhjg","pricing_plan_id":"free"},{"bike_id":"d64b7006-3ab2-424e-882f-f54d5cfa3875","system_id":"levelo_inurba_marseille","lat":43.32349,"lon":5.40629,"is_reserved":false,"is_disabled":false,"rental_uris":{"android":"levelo://app?vid=d64b7006-3ab2-424e-882f-f54d5cfa3875","ios":"levelo://app?vid=d64b7006-3ab2-424e-882f-f54d5cfa3875"},"vehicle_type_id":"4","last_reported":1686589552,"current_range_meters":19600,"station_id":"ce4bhq92rcd13ifvqhjg","pricing_plan_id":"free"},{"bike_id":"d8cb9cb3-7b6f-4503-98fa-e2a97ccafe6d","system_id":"levelo_inurba_marseille","lat":43.288497,"lon":5.393089,"is_reserved":false,"is_disabled":false,"rental_uris":{"android":"levelo://app?vid=d8cb9cb3-7b6f-4503-98fa-e2a97ccafe6d","ios":"levelo://app?vid=d8cb9cb3-7b6f-4503-98fa-e2a97ccafe6d"},"vehicle_type_id":"4","last_reported":1686589552,"current_range_meters":13600,"station_id":"ce4bh2p2rcd13ifvqdi0","pricing_plan_id":"free"},{"bike_id":"e4a4a532-2ca4-40c2-9233-141706bfa493","system_id":"levelo_inurba_marseille","lat":43.283494,"lon":5.380945,"is_reserved":false,"is_disabled":false,"rental_uris":{"android":"levelo://app?vid=e4a4a532-2ca4-40c2-9233-141706bfa493","ios":"levelo://app?vid=e4a4a532-2ca4-40c2-9233-141706bfa493"},"vehicle_type_id":"4","last_reported":1686589552,"current_range_meters":20800,"station_id":"ce4bh412rcd13ifvqdr0","pricing_plan_id":"free"},{"bike_id":"735a0ab2-712a-4514-87a0-2cc1fa56a498","system_id":"levelo_inurba_marseille","lat":43.283494,"lon":5.380945,"is_reserved":false,"is_disabled":false,"rental_uris":{"android":"levelo://app?vid=735a0ab2-712a-4514-87a0-2cc1fa56a498","ios":"levelo://app?vid=735a0ab2-712a-4514-87a0-2cc1fa56a498"},"vehicle_type_id":"4","last_reported":1686589552,"current_range_meters":20400,"station_id":"ce4bh412rcd13ifvqdr0","pricing_plan_id":"free"},{"bike_id":"d344cb76-2929-47df-a4cb-1f14dea33c81","system_id":"levelo_inurba_marseille","lat":43.284219,"lon":5.3497,"is_reserved":false,"is_disabled":false,"rental_uris":{"android":"levelo://app?vid=d344cb76-2929-47df-a4cb-1f14dea33c81","ios":"levelo://app?vid=d344cb76-2929-47df-a4cb-1f14dea33c81"},"vehicle_type_id":"4","last_reported":1686589552,"current_range_meters":8400,"station_id":"ce4bhbh2rcd13ifvqepg","pricing_plan_id":"free"},{"bike_id":"d60ac6ae-5d86-4328-b807-b646547666f0","system_id":"levelo_inurba_marseille","lat":43.28415,"lon":5.34996,"is_reserved":false,"is_disabled":false,"rental_uris":{"android":"levelo://app?vid=d60ac6ae-5d86-4328-b807-b646547666f0","ios":"levelo://app?vid=d60ac6ae-5d86-4328-b807-b646547666f0"},"vehicle_type_id":"4","last_reported":1686589552,"current_range_meters":0,"station_id":"ce4bhbh2rcd13ifvqepg","pricing_plan_id":"free"},{"bike_id":"bbef1d6b-b8e6-4459-bc87-17ecc11ab8b3","system_id":"levelo_inurba_marseille","lat":43.284217,"lon":5.349697,"is_reserved":false,"is_disabled":false,"rental_uris":{"android":"levelo://app?vid=bbef1d6b-b8e6-4459-bc87-17ecc11ab8b3","ios":"levelo://app?vid=bbef1d6b-b8e6-4459-bc87-17ecc11ab8b3"},"vehicle_type_id":"4","last_reported":1686589552,"current_range_meters":2000,"station_id":"ce4bhbh2rcd13ifvqepg","pricing_plan_id":"free"},{"bike_id":"6d7da077-8d5d-4a21-a4ac-de7e1174d3bc","system_id":"levelo_inurba_marseille","lat":43.284219,"lon":5.3497,"is_reserved":false,"is_disabled":false,"rental_uris":{"android":"levelo://app?vid=6d7da077-8d5d-4a21-a4ac-de7e1174d3bc","ios":"levelo://app?vid=6d7da077-8d5d-4a21-a4ac-de7e1174d3bc"},"vehicle_type_id":"4","last_reported":1686589552,"current_range_meters":10000,"station_id":"ce4bhbh2rcd13ifvqepg","pricing_plan_id":"free"},{"bike_id":"4fe99303-df5c-4ada-9f22-4b82e31a0f59","system_id":"levelo_inurba_marseille","lat":43.28276,"lon":5.38119,"is_reserved":false,"is_disabled":false,"rental_uris":{"android":"levelo://app?vid=4fe99303-df5c-4ada-9f22-4b82e31a0f59","ios":"levelo://app?vid=4fe99303-df5c-4ada-9f22-4b82e31a0f59"},"vehicle_type_id":"4","last_reported":1686589552,"current_range_meters":30000,"station_id":"","pricing_plan_id":"free"},{"bike_id":"02ea6747-dd23-4918-8f40-773434c3653b","system_id":"levelo_inurba_marseille","lat":43.292724,"lon":5.401131,"is_reserved":false,"is_disabled":false,"rental_uris":{"android":"levelo://app?vid=02ea6747-dd23-4918-8f40-773434c3653b","ios":"levelo://app?vid=02ea6747-dd23-4918-8f40-773434c3653b"},"vehicle_type_id":"4","last_reported":1686589552,"current_range_meters":24800,"station_id":"ce4bh312rcd13ifvqdk0","pricing_plan_id":"free"},{"bike_id":"43495500-efb8-48b4-b690-a31026557c83","system_id":"levelo_inurba_marseille","lat":43.28274,"lon":5.35072,"is_reserved":false,"is_disabled":false,"rental_uris":{"android":"levelo://app?vid=43495500-efb8-48b4-b690-a31026557c83","ios":"levelo://app?vid=43495500-efb8-48b4-b690-a31026557c83"},"vehicle_type_id":"4","last_reported":1686589552,"current_range_meters":20800,"station_id":"ce4bhbp2rcd13ifvqerg","pricing_plan_id":"free"},{"bike_id":"3313d6fc-2b51-4d1a-91b7-e53d4ea20ef6","system_id":"levelo_inurba_marseille","lat":43.282606,"lon":5.350623,"is_reserved":false,"is_disabled":false,"rental_uris":{"android":"levelo://app?vid=3313d6fc-2b51-4d1a-91b7-e53d4ea20ef6","ios":"levelo://app?vid=3313d6fc-2b51-4d1a-91b7-e53d4ea20ef6"},"vehicle_type_id":"4","last_reported":1686589552,"current_range_meters":17600,"station_id":"","pricing_plan_id":"free"},{"bike_id":"d769a1c7-2be0-46f7-8ff3-2d280fe7f3cb","system_id":"levelo_inurba_marseille","lat":43.29041,"lon":5.399634,"is_reserved":false,"is_disabled":false,"rental_uris":{"android":"levelo://app?vid=d769a1c7-2be0-46f7-8ff3-2d280fe7f3cb","ios":"levelo://app?vid=d769a1c7-2be0-46f7-8ff3-2d280fe7f3cb"},"vehicle_type_id":"4","last_reported":1686589552,"current_range_meters":8400,"station_id":"ce4bh392rcd13ifvqdm0","pricing_plan_id":"free"},{"bike_id":"3adfa59d-c0ba-488c-a57c-f6b97c7f85b4","system_id":"levelo_inurba_marseille","lat":43.281044,"lon":5.378308,"is_reserved":false,"is_disabled":false,"rental_uris":{"android":"levelo://app?vid=3adfa59d-c0ba-488c-a57c-f6b97c7f85b4","ios":"levelo://app?vid=3adfa59d-c0ba-488c-a57c-f6b97c7f85b4"},"vehicle_type_id":"4","last_reported":1686589552,"current_range_meters":14000,"station_id":"ce4bha12rcd13ifvqee0","pricing_plan_id":"free"},{"bike_id":"5c31419c-d291-4be8-b47c-363c335d14cf","system_id":"levelo_inurba_marseille","lat":43.296263,"lon":5.40601,"is_reserved":false,"is_disabled":false,"rental_uris":{"android":"levelo://app?vid=5c31419c-d291-4be8-b47c-363c335d14cf","ios":"levelo://app?vid=5c31419c-d291-4be8-b47c-363c335d14cf"},"vehicle_type_id":"4","last_reported":1686589552,"current_range_meters":7600,"station_id":"ce4bh0h2rcd13ifvqd60","pricing_plan_id":"free"},{"bike_id":"7413ac94-8996-4c98-8ecd-c36b5a9b95a2","system_id":"levelo_inurba_marseille","lat":43.281044,"lon":5.378308,"is_reserved":false,"is_disabled":false,"rental_uris":{"android":"levelo://app?vid=7413ac94-8996-4c98-8ecd-c36b5a9b95a2","ios":"levelo://app?vid=7413ac94-8996-4c98-8ecd-c36b5a9b95a2"},"vehicle_type_id":"4","last_reported":1686589552,"current_range_meters":31200,"station_id":"ce4bha12rcd13ifvqee0","pricing_plan_id":"free"},{"bike_id":"c902e3b5-5d7d-436c-b1c6-055a6d690ac0","system_id":"levelo_inurba_marseille","lat":43.296263,"lon":5.40601,"is_reserved":false,"is_disabled":false,"rental_uris":{"android":"levelo://app?vid=c902e3b5-5d7d-436c-b1c6-055a6d690ac0","ios":"levelo://app?vid=c902e3b5-5d7d-436c-b1c6-055a6d690ac0"},"vehicle_type_id":"4","last_reported":1686589552,"current_range_meters":1200,"station_id":"ce4bh0h2rcd13ifvqd60","pricing_plan_id":"free"},{"bike_id":"9b99a186-4925-4991-8fb5-c87b4e175e5f","system_id":"levelo_inurba_marseille","lat":43.284462,"lon":5.392121,"is_reserved":false,"is_disabled":false,"rental_uris":{"android":"levelo://app?vid=9b99a186-4925-4991-8fb5-c87b4e175e5f","ios":"levelo://app?vid=9b99a186-4925-4991-8fb5-c87b4e175e5f"},"vehicle_type_id":"4","last_reported":1686589552,"current_range_meters":28400,"station_id":"ce4bhoh2rcd13ifvqh5g","pricing_plan_id":"free"},{"bike_id":"e03686b2-24de-47ad-abcb-933a7e1717da","system_id":"levelo_inurba_marseille","lat":43.287154,"lon":5.399979,"is_reserved":false,"is_disabled":false,"rental_uris":{"android":"levelo://app?vid=e03686b2-24de-47ad-abcb-933a7e1717da","ios":"levelo://app?vid=e03686b2-24de-47ad-abcb-933a7e1717da"},"vehicle_type_id":"4","last_reported":1686589552,"current_range_meters":28400,"station_id":"ce4bho92rcd13ifvqh3g","pricing_plan_id":"free"},{"bike_id":"af56e4c4-226a-4312-846f-d7cdefc76d71","system_id":"levelo_inurba_marseille","lat":43.32043,"lon":5.41563,"is_reserved":false,"is_disabled":false,"rental_uris":{"android":"levelo://app?vid=af56e4c4-226a-4312-846f-d7cdefc76d71","ios":"levelo://app?vid=af56e4c4-226a-4312-846f-d7cdefc76d71"},"vehicle_type_id":"4","last_reported":1686589552,"current_range_meters":18400,"station_id":"","pricing_plan_id":"free"},{"bike_id":"d2245adc-4c58-4d0c-b6b2-a07a54e08c27","system_id":"levelo_inurba_marseille","lat":43.292571,"lon":5.409107,"is_reserved":false,"is_disabled":false,"rental_uris":{"android":"levelo://app?vid=d2245adc-4c58-4d0c-b6b2-a07a54e08c27","ios":"levelo://app?vid=d2245adc-4c58-4d0c-b6b2-a07a54e08c27"},"vehicle_type_id":"4","last_reported":1686589552,"current_range_meters":31200,"station_id":"ce4bh192rcd13ifvqdc0","pricing_plan_id":"free"},{"bike_id":"5c71c309-4644-459b-9b6a-0713ac61129e","system_id":"levelo_inurba_marseille","lat":43.27614,"lon":5.36097,"is_reserved":false,"is_disabled":false,"rental_uris":{"android":"levelo://app?vid=5c71c309-4644-459b-9b6a-0713ac61129e","ios":"levelo://app?vid=5c71c309-4644-459b-9b6a-0713ac61129e"},"vehicle_type_id":"4","last_reported":1686589552,"current_range_meters":1200,"station_id":"ce4bgj92rcd13ifvqbe0","pricing_plan_id":"free"},{"bike_id":"55accba4-f58b-4b16-ae57-ac7b9f815649","system_id":"levelo_inurba_marseille","lat":43.280784,"lon":5.396622,"is_reserved":false,"is_disabled":false,"rental_uris":{"android":"levelo://app?vid=55accba4-f58b-4b16-ae57-ac7b9f815649","ios":"levelo://app?vid=55accba4-f58b-4b16-ae57-ac7b9f815649"},"vehicle_type_id":"4","last_reported":1686589552,"current_range_meters":5200,"station_id":"ce4bho12rcd13ifvqh2g","pricing_plan_id":"free"},{"bike_id":"4a125f3a-b4e5-4265-a0c9-b17b3cc4a256","system_id":"levelo_inurba_marseille","lat":43.278399,"lon":5.392139,"is_reserved":false,"is_disabled":false,"rental_uris":{"android":"levelo://app?vid=4a125f3a-b4e5-4265-a0c9-b17b3cc4a256","ios":"levelo://app?vid=4a125f3a-b4e5-4265-a0c9-b17b3cc4a256"},"vehicle_type_id":"4","last_reported":1686589552,"current_range_meters":7600,"station_id":"ce4bhjp2rcd13ifvqga0","pricing_plan_id":"free"},{"bike_id":"cf1574b1-8fa5-48ff-880d-1978dee8493e","system_id":"levelo_inurba_marseille","lat":43.273613,"lon":5.362705,"is_reserved":false,"is_disabled":false,"rental_uris":{"android":"levelo://app?vid=cf1574b1-8fa5-48ff-880d-1978dee8493e","ios":"levelo://app?vid=cf1574b1-8fa5-48ff-880d-1978dee8493e"},"vehicle_type_id":"4","last_reported":1686589552,"current_range_meters":6800,"station_id":"ce4bhbh2rcd13ifvqeo0","pricing_plan_id":"free"},{"bike_id":"0254011c-1ef7-4969-9ec2-2d2cd9ecec8d","system_id":"levelo_inurba_marseille","lat":43.273609,"lon":5.362708,"is_reserved":false,"is_disabled":false,"rental_uris":{"android":"levelo://app?vid=0254011c-1ef7-4969-9ec2-2d2cd9ecec8d","ios":"levelo://app?vid=0254011c-1ef7-4969-9ec2-2d2cd9ecec8d"},"vehicle_type_id":"4","last_reported":1686589552,"current_range_meters":21600,"station_id":"ce4bhbh2rcd13ifvqeo0","pricing_plan_id":"free"},{"bike_id":"eed40ba7-266d-4f33-8e7a-28c30fbfc424","system_id":"levelo_inurba_marseille","lat":43.33591,"lon":5.41036,"is_reserved":false,"is_disabled":false,"rental_uris":{"android":"levelo://app?vid=eed40ba7-266d-4f33-8e7a-28c30fbfc424","ios":"levelo://app?vid=eed40ba7-266d-4f33-8e7a-28c30fbfc424"},"vehicle_type_id":"4","last_reported":1686589552,"current_range_meters":800,"station_id":"ce4bhqh2rcd13ifvqhmg","pricing_plan_id":"free"},{"bike_id":"ace336df-8127-4cb3-ad3e-60238c8bc7d7","system_id":"levelo_inurba_marseille","lat":43.33614,"lon":5.4102,"is_reserved":false,"is_disabled":false,"rental_uris":{"android":"levelo://app?vid=ace336df-8127-4cb3-ad3e-60238c8bc7d7","ios":"levelo://app?vid=ace336df-8127-4cb3-ad3e-60238c8bc7d7"},"vehicle_type_id":"4","last_reported":1686589552,"current_range_meters":30000,"station_id":"ce4bhqh2rcd13ifvqhmg","pricing_plan_id":"free"},{"bike_id":"fdf5f688-4ba6-4507-85a0-ea7db31eb18c","system_id":"levelo_inurba_marseille","lat":43.35148,"lon":5.37571,"is_reserved":false,"is_disabled":false,"rental_uris":{"android":"levelo://app?vid=fdf5f688-4ba6-4507-85a0-ea7db31eb18c","ios":"levelo://app?vid=fdf5f688-4ba6-4507-85a0-ea7db31eb18c"},"vehicle_type_id":"4","last_reported":1686589552,"current_range_meters":9200,"station_id":"","pricing_plan_id":"free"},{"bike_id":"60369bb0-0d71-43b9-a915-5d4c7e589c53","system_id":"levelo_inurba_marseille","lat":43.317121,"lon":5.423936,"is_reserved":false,"is_disabled":false,"rental_uris":{"android":"levelo://app?vid=60369bb0-0d71-43b9-a915-5d4c7e589c53","ios":"levelo://app?vid=60369bb0-0d71-43b9-a915-5d4c7e589c53"},"vehicle_type_id":"4","last_reported":1686589552,"current_range_meters":800,"station_id":"ce4bhp92rcd13ifvqhbg","pricing_plan_id":"free"},{"bike_id":"064486f3-0f0a-4257-b8ce-ccf828dcc0a8","system_id":"levelo_inurba_marseille","lat":43.310785,"lon":5.424305,"is_reserved":false,"is_disabled":false,"rental_uris":{"android":"levelo://app?vid=064486f3-0f0a-4257-b8ce-ccf828dcc0a8","ios":"levelo://app?vid=064486f3-0f0a-4257-b8ce-ccf828dcc0a8"},"vehicle_type_id":"4","last_reported":1686589552,"current_range_meters":15600,"station_id":"ce4bhp92rcd13ifvqhag","pricing_plan_id":"free"},{"bike_id":"418e3423-2149-4c70-8be2-b840df65a664","system_id":"levelo_inurba_marseille","lat":43.310785,"lon":5.424305,"is_reserved":false,"is_disabled":false,"rental_uris":{"android":"levelo://app?vid=418e3423-2149-4c70-8be2-b840df65a664","ios":"levelo://app?vid=418e3423-2149-4c70-8be2-b840df65a664"},"vehicle_type_id":"4","last_reported":1686589552,"current_range_meters":26400,"station_id":"ce4bhp92rcd13ifvqhag","pricing_plan_id":"free"},{"bike_id":"753c6b72-ca8a-45ae-bd9d-8eca801d7a1c","system_id":"levelo_inurba_marseille","lat":43.27614,"lon":5.39489,"is_reserved":false,"is_disabled":false,"rental_uris":{"android":"levelo://app?vid=753c6b72-ca8a-45ae-bd9d-8eca801d7a1c","ios":"levelo://app?vid=753c6b72-ca8a-45ae-bd9d-8eca801d7a1c"},"vehicle_type_id":"4","last_reported":1686589552,"current_range_meters":10800,"station_id":"","pricing_plan_id":"free"},{"bike_id":"0ad57b0c-4974-4d54-a187-78d183611933","system_id":"levelo_inurba_marseille","lat":43.278128,"lon":5.407195,"is_reserved":false,"is_disabled":false,"rental_uris":{"android":"levelo://app?vid=0ad57b0c-4974-4d54-a187-78d183611933","ios":"levelo://app?vid=0ad57b0c-4974-4d54-a187-78d183611933"},"vehicle_type_id":"4","last_reported":1686589552,"current_range_meters":5600,"station_id":"ce4bhnh2rcd13ifvqgtg","pricing_plan_id":"free"},{"bike_id":"76afbf1e-66b4-42a4-a69c-6b9de4cd567f","system_id":"levelo_inurba_marseille","lat":43.26961,"lon":5.38625,"is_reserved":false,"is_disabled":false,"rental_uris":{"android":"levelo://app?vid=76afbf1e-66b4-42a4-a69c-6b9de4cd567f","ios":"levelo://app?vid=76afbf1e-66b4-42a4-a69c-6b9de4cd567f"},"vehicle_type_id":"4","last_reported":1686589552,"current_range_meters":0,"station_id":"ce4bhh92rcd13ifvqfh0","pricing_plan_id":"free"},{"bike_id":"0035d56e-f975-4b3d-8fad-670d496742ce","system_id":"levelo_inurba_marseille","lat":43.278128,"lon":5.407195,"is_reserved":false,"is_disabled":false,"rental_uris":{"android":"levelo://app?vid=0035d56e-f975-4b3d-8fad-670d496742ce","ios":"levelo://app?vid=0035d56e-f975-4b3d-8fad-670d496742ce"},"vehicle_type_id":"4","last_reported":1686589552,"current_range_meters":5200,"station_id":"ce4bhnh2rcd13ifvqgtg","pricing_plan_id":"free"},{"bike_id":"e6536d6f-257b-434d-9177-8587a857f635","system_id":"levelo_inurba_marseille","lat":43.269467,"lon":5.386439,"is_reserved":false,"is_disabled":false,"rental_uris":{"android":"levelo://app?vid=e6536d6f-257b-434d-9177-8587a857f635","ios":"levelo://app?vid=e6536d6f-257b-434d-9177-8587a857f635"},"vehicle_type_id":"4","last_reported":1686589552,"current_range_meters":0,"station_id":"ce4bhh92rcd13ifvqfh0","pricing_plan_id":"free"},{"bike_id":"bbac2e1b-4f3e-4440-b0f6-6ef4ef269663","system_id":"levelo_inurba_marseille","lat":43.269467,"lon":5.386439,"is_reserved":false,"is_disabled":false,"rental_uris":{"android":"levelo://app?vid=bbac2e1b-4f3e-4440-b0f6-6ef4ef269663","ios":"levelo://app?vid=bbac2e1b-4f3e-4440-b0f6-6ef4ef269663"},"vehicle_type_id":"4","last_reported":1686589552,"current_range_meters":10400,"station_id":"ce4bhh92rcd13ifvqfh0","pricing_plan_id":"free"},{"bike_id":"8df6b4ef-6a21-4962-99b9-6c3df907d334","system_id":"levelo_inurba_marseille","lat":43.27996,"lon":5.416624,"is_reserved":false,"is_disabled":false,"rental_uris":{"android":"levelo://app?vid=8df6b4ef-6a21-4962-99b9-6c3df907d334","ios":"levelo://app?vid=8df6b4ef-6a21-4962-99b9-6c3df907d334"},"vehicle_type_id":"4","last_reported":1686589552,"current_range_meters":14000,"station_id":"ce4bho12rcd13ifvqh1g","pricing_plan_id":"free"},{"bike_id":"a2972263-5775-4b5b-acd0-322b454e8d89","system_id":"levelo_inurba_marseille","lat":43.27996,"lon":5.416624,"is_reserved":false,"is_disabled":false,"rental_uris":{"android":"levelo://app?vid=a2972263-5775-4b5b-acd0-322b454e8d89","ios":"levelo://app?vid=a2972263-5775-4b5b-acd0-322b454e8d89"},"vehicle_type_id":"4","last_reported":1686589552,"current_range_meters":17200,"station_id":"ce4bho12rcd13ifvqh1g","pricing_plan_id":"free"},{"bike_id":"f84f2515-de31-447a-8046-4a4a6bb95c8a","system_id":"levelo_inurba_marseille","lat":43.27991,"lon":5.41655,"is_reserved":false,"is_disabled":false,"rental_uris":{"android":"levelo://app?vid=f84f2515-de31-447a-8046-4a4a6bb95c8a","ios":"levelo://app?vid=f84f2515-de31-447a-8046-4a4a6bb95c8a"},"vehicle_type_id":"4","last_reported":1686589552,"current_range_meters":0,"station_id":"ce4bho12rcd13ifvqh1g","pricing_plan_id":"free"},{"bike_id":"21b8ac1b-1e4c-4a2a-966f-fb63d7b37fd7","system_id":"levelo_inurba_marseille","lat":43.27993,"lon":5.41661,"is_reserved":false,"is_disabled":false,"rental_uris":{"android":"levelo://app?vid=21b8ac1b-1e4c-4a2a-966f-fb63d7b37fd7","ios":"levelo://app?vid=21b8ac1b-1e4c-4a2a-966f-fb63d7b37fd7"},"vehicle_type_id":"4","last_reported":1686589552,"current_range_meters":17600,"station_id":"ce4bho12rcd13ifvqh1g","pricing_plan_id":"free"},{"bike_id":"d088919b-5f3e-449a-9a87-735389ab4ab7","system_id":"levelo_inurba_marseille","lat":43.27991,"lon":5.41662,"is_reserved":false,"is_disabled":false,"rental_uris":{"android":"levelo://app?vid=d088919b-5f3e-449a-9a87-735389ab4ab7","ios":"levelo://app?vid=d088919b-5f3e-449a-9a87-735389ab4ab7"},"vehicle_type_id":"4","last_reported":1686589552,"current_range_meters":4000,"station_id":"ce4bho12rcd13ifvqh1g","pricing_plan_id":"free"},{"bike_id":"c028772f-525f-460c-b6e1-ef39cab93090","system_id":"levelo_inurba_marseille","lat":43.2799,"lon":5.41665,"is_reserved":false,"is_disabled":false,"rental_uris":{"android":"levelo://app?vid=c028772f-525f-460c-b6e1-ef39cab93090","ios":"levelo://app?vid=c028772f-525f-460c-b6e1-ef39cab93090"},"vehicle_type_id":"4","last_reported":1686589552,"current_range_meters":0,"station_id":"ce4bho12rcd13ifvqh1g","pricing_plan_id":"free"},{"bike_id":"02b5533b-7317-4f9b-9a27-d3ab9c7e5e46","system_id":"levelo_inurba_marseille","lat":43.267966,"lon":5.393976,"is_reserved":false,"is_disabled":false,"rental_uris":{"android":"levelo://app?vid=02b5533b-7317-4f9b-9a27-d3ab9c7e5e46","ios":"levelo://app?vid=02b5533b-7317-4f9b-9a27-d3ab9c7e5e46"},"vehicle_type_id":"4","last_reported":1686589552,"current_range_meters":14400,"station_id":"ce4bhh12rcd13ifvqfg0","pricing_plan_id":"free"},{"bike_id":"e9737b7b-82ac-4061-a330-b92dce3cdf7c","system_id":"levelo_inurba_marseille","lat":43.265569,"lon":5.390047,"is_reserved":false,"is_disabled":false,"rental_uris":{"android":"levelo://app?vid=e9737b7b-82ac-4061-a330-b92dce3cdf7c","ios":"levelo://app?vid=e9737b7b-82ac-4061-a330-b92dce3cdf7c"},"vehicle_type_id":"4","last_reported":1686589552,"current_range_meters":23200,"station_id":"ce4bhe12rcd13ifvqf30","pricing_plan_id":"free"},{"bike_id":"b1b6bc0a-3c09-44e0-9f6d-357d4bfa3d8d","system_id":"levelo_inurba_marseille","lat":43.28001,"lon":5.41878,"is_reserved":false,"is_disabled":false,"rental_uris":{"android":"levelo://app?vid=b1b6bc0a-3c09-44e0-9f6d-357d4bfa3d8d","ios":"levelo://app?vid=b1b6bc0a-3c09-44e0-9f6d-357d4bfa3d8d"},"vehicle_type_id":"4","last_reported":1686589552,"current_range_meters":20400,"station_id":"","pricing_plan_id":"free"},{"bike_id":"ee5fce75-7fac-4cf7-80c2-7db6df33eab8","system_id":"levelo_inurba_marseille","lat":43.26189,"lon":5.37437,"is_reserved":false,"is_disabled":false,"rental_uris":{"android":"levelo://app?vid=ee5fce75-7fac-4cf7-80c2-7db6df33eab8","ios":"levelo://app?vid=ee5fce75-7fac-4cf7-80c2-7db6df33eab8"},"vehicle_type_id":"4","last_reported":1686589552,"current_range_meters":0,"station_id":"ce4bhgp2rcd13ifvqfc0","pricing_plan_id":"free"},{"bike_id":"bbd05d17-961d-4ef0-92b6-3bc85bbf3cea","system_id":"levelo_inurba_marseille","lat":43.261782,"lon":5.374515,"is_reserved":false,"is_disabled":false,"rental_uris":{"android":"levelo://app?vid=bbd05d17-961d-4ef0-92b6-3bc85bbf3cea","ios":"levelo://app?vid=bbd05d17-961d-4ef0-92b6-3bc85bbf3cea"},"vehicle_type_id":"4","last_reported":1686589552,"current_range_meters":400,"station_id":"ce4bhgp2rcd13ifvqfc0","pricing_plan_id":"free"},{"bike_id":"6b55a6df-e962-4e2c-a545-1b6714e43dac","system_id":"levelo_inurba_marseille","lat":43.261782,"lon":5.374515,"is_reserved":false,"is_disabled":false,"rental_uris":{"android":"levelo://app?vid=6b55a6df-e962-4e2c-a545-1b6714e43dac","ios":"levelo://app?vid=6b55a6df-e962-4e2c-a545-1b6714e43dac"},"vehicle_type_id":"4","last_reported":1686589552,"current_range_meters":20800,"station_id":"ce4bhgp2rcd13ifvqfc0","pricing_plan_id":"free"},{"bike_id":"fc603de6-10bc-460c-805a-3e45af213258","system_id":"levelo_inurba_marseille","lat":43.317104,"lon":5.436818,"is_reserved":false,"is_disabled":false,"rental_uris":{"android":"levelo://app?vid=fc603de6-10bc-460c-805a-3e45af213258","ios":"levelo://app?vid=fc603de6-10bc-460c-805a-3e45af213258"},"vehicle_type_id":"4","last_reported":1686589552,"current_range_meters":5200,"station_id":"ce4bhp92rcd13ifvqhcg","pricing_plan_id":"free"},{"bike_id":"9a6a731a-6d2b-4d09-bc62-0e4b11f47f9f","system_id":"levelo_inurba_marseille","lat":43.317104,"lon":5.436818,"is_reserved":false,"is_disabled":false,"rental_uris":{"android":"levelo://app?vid=9a6a731a-6d2b-4d09-bc62-0e4b11f47f9f","ios":"levelo://app?vid=9a6a731a-6d2b-4d09-bc62-0e4b11f47f9f"},"vehicle_type_id":"4","last_reported":1686589552,"current_range_meters":5200,"station_id":"ce4bhp92rcd13ifvqhcg","pricing_plan_id":"free"},{"bike_id":"0c8d9468-5ec1-4dc3-89e6-00b7b1646832","system_id":"levelo_inurba_marseille","lat":43.317104,"lon":5.436818,"is_reserved":false,"is_disabled":false,"rental_uris":{"android":"levelo://app?vid=0c8d9468-5ec1-4dc3-89e6-00b7b1646832","ios":"levelo://app?vid=0c8d9468-5ec1-4dc3-89e6-00b7b1646832"},"vehicle_type_id":"4","last_reported":1686589552,"current_range_meters":6400,"station_id":"ce4bhp92rcd13ifvqhcg","pricing_plan_id":"free"},{"bike_id":"7ce96ff6-920c-4e17-9d82-a1aae6b1d988","system_id":"levelo_inurba_marseille","lat":43.27189,"lon":5.40989,"is_reserved":false,"is_disabled":false,"rental_uris":{"android":"levelo://app?vid=7ce96ff6-920c-4e17-9d82-a1aae6b1d988","ios":"levelo://app?vid=7ce96ff6-920c-4e17-9d82-a1aae6b1d988"},"vehicle_type_id":"4","last_reported":1686589552,"current_range_meters":23600,"station_id":"","pricing_plan_id":"free"},{"bike_id":"3bf08bcc-97f8-4408-a924-31a03c59ee8a","system_id":"levelo_inurba_marseille","lat":43.271388,"lon":5.409269,"is_reserved":false,"is_disabled":false,"rental_uris":{"android":"levelo://app?vid=3bf08bcc-97f8-4408-a924-31a03c59ee8a","ios":"levelo://app?vid=3bf08bcc-97f8-4408-a924-31a03c59ee8a"},"vehicle_type_id":"4","last_reported":1686589552,"current_range_meters":28800,"station_id":"ce4bhl12rcd13ifvqgf0","pricing_plan_id":"free"},{"bike_id":"48546f0c-80bd-41ae-ae78-7012ef2c3443","system_id":"levelo_inurba_marseille","lat":43.271388,"lon":5.409269,"is_reserved":false,"is_disabled":false,"rental_uris":{"android":"levelo://app?vid=48546f0c-80bd-41ae-ae78-7012ef2c3443","ios":"levelo://app?vid=48546f0c-80bd-41ae-ae78-7012ef2c3443"},"vehicle_type_id":"4","last_reported":1686589552,"current_range_meters":31200,"station_id":"ce4bhl12rcd13ifvqgf0","pricing_plan_id":"free"},{"bike_id":"cc560c6b-bced-4852-9611-20ca059e5e9a","system_id":"levelo_inurba_marseille","lat":43.271368,"lon":5.40928,"is_reserved":false,"is_disabled":false,"rental_uris":{"android":"levelo://app?vid=cc560c6b-bced-4852-9611-20ca059e5e9a","ios":"levelo://app?vid=cc560c6b-bced-4852-9611-20ca059e5e9a"},"vehicle_type_id":"4","last_reported":1686589552,"current_range_meters":31600,"station_id":"ce4bhl12rcd13ifvqgf0","pricing_plan_id":"free"},{"bike_id":"b7b3070a-e5a9-4170-821b-8ae2f0aab055","system_id":"levelo_inurba_marseille","lat":43.271388,"lon":5.409269,"is_reserved":false,"is_disabled":false,"rental_uris":{"android":"levelo://app?vid=b7b3070a-e5a9-4170-821b-8ae2f0aab055","ios":"levelo://app?vid=b7b3070a-e5a9-4170-821b-8ae2f0aab055"},"vehicle_type_id":"4","last_reported":1686589552,"current_range_meters":22000,"station_id":"ce4bhl12rcd13ifvqgf0","pricing_plan_id":"free"},{"bike_id":"d22a8864-2146-4129-a239-f4923d18a83b","system_id":"levelo_inurba_marseille","lat":43.27315,"lon":5.41222,"is_reserved":false,"is_disabled":false,"rental_uris":{"android":"levelo://app?vid=d22a8864-2146-4129-a239-f4923d18a83b","ios":"levelo://app?vid=d22a8864-2146-4129-a239-f4923d18a83b"},"vehicle_type_id":"4","last_reported":1686589552,"current_range_meters":17600,"station_id":"","pricing_plan_id":"free"},{"bike_id":"d3dd3e31-f833-41e1-b9de-ad1eddf61ffd","system_id":"levelo_inurba_marseille","lat":43.271368,"lon":5.40928,"is_reserved":false,"is_disabled":false,"rental_uris":{"android":"levelo://app?vid=d3dd3e31-f833-41e1-b9de-ad1eddf61ffd","ios":"levelo://app?vid=d3dd3e31-f833-41e1-b9de-ad1eddf61ffd"},"vehicle_type_id":"4","last_reported":1686589552,"current_range_meters":26800,"station_id":"ce4bhl12rcd13ifvqgf0","pricing_plan_id":"free"},{"bike_id":"67710e6f-d0b2-4f47-8919-831c8783d5d5","system_id":"levelo_inurba_marseille","lat":43.271368,"lon":5.40928,"is_reserved":false,"is_disabled":false,"rental_uris":{"android":"levelo://app?vid=67710e6f-d0b2-4f47-8919-831c8783d5d5","ios":"levelo://app?vid=67710e6f-d0b2-4f47-8919-831c8783d5d5"},"vehicle_type_id":"4","last_reported":1686589552,"current_range_meters":15600,"station_id":"ce4bhl12rcd13ifvqgf0","pricing_plan_id":"free"},{"bike_id":"65787800-6282-46ca-9ec2-dd0ca79fa079","system_id":"levelo_inurba_marseille","lat":43.26319,"lon":5.40268,"is_reserved":false,"is_disabled":false,"rental_uris":{"android":"levelo://app?vid=65787800-6282-46ca-9ec2-dd0ca79fa079","ios":"levelo://app?vid=65787800-6282-46ca-9ec2-dd0ca79fa079"},"vehicle_type_id":"4","last_reported":1686589552,"current_range_meters":14400,"station_id":"","pricing_plan_id":"free"},{"bike_id":"608221f5-1d3a-4d6b-a493-c89ac30a0802","system_id":"levelo_inurba_marseille","lat":43.275028,"lon":5.424534,"is_reserved":false,"is_disabled":false,"rental_uris":{"android":"levelo://app?vid=608221f5-1d3a-4d6b-a493-c89ac30a0802","ios":"levelo://app?vid=608221f5-1d3a-4d6b-a493-c89ac30a0802"},"vehicle_type_id":"4","last_reported":1686589552,"current_range_meters":0,"station_id":"ce4bhn92rcd13ifvqgrg","pricing_plan_id":"free"},{"bike_id":"3620e3ed-0658-4776-8fa9-5a9e606878ec","system_id":"levelo_inurba_marseille","lat":43.255756,"lon":5.382303,"is_reserved":false,"is_disabled":false,"rental_uris":{"android":"levelo://app?vid=3620e3ed-0658-4776-8fa9-5a9e606878ec","ios":"levelo://app?vid=3620e3ed-0658-4776-8fa9-5a9e606878ec"},"vehicle_type_id":"4","last_reported":1686589552,"current_range_meters":30400,"station_id":"ce4bhih2rcd13ifvqfs0","pricing_plan_id":"free"},{"bike_id":"800b26b2-3f76-4bc5-8a58-d57dd827d9b6","system_id":"levelo_inurba_marseille","lat":43.255756,"lon":5.382303,"is_reserved":false,"is_disabled":false,"rental_uris":{"android":"levelo://app?vid=800b26b2-3f76-4bc5-8a58-d57dd827d9b6","ios":"levelo://app?vid=800b26b2-3f76-4bc5-8a58-d57dd827d9b6"},"vehicle_type_id":"4","last_reported":1686589552,"current_range_meters":31200,"station_id":"ce4bhih2rcd13ifvqfs0","pricing_plan_id":"free"},{"bike_id":"3cc3a831-4578-41cb-bfa8-b7eb15811d5c","system_id":"levelo_inurba_marseille","lat":43.255756,"lon":5.382303,"is_reserved":false,"is_disabled":false,"rental_uris":{"android":"levelo://app?vid=3cc3a831-4578-41cb-bfa8-b7eb15811d5c","ios":"levelo://app?vid=3cc3a831-4578-41cb-bfa8-b7eb15811d5c"},"vehicle_type_id":"4","last_reported":1686589552,"current_range_meters":26800,"station_id":"ce4bhih2rcd13ifvqfs0","pricing_plan_id":"free"},{"bike_id":"5c5e1bb2-4ae2-4bc1-8df9-43617628a7f2","system_id":"levelo_inurba_marseille","lat":43.255756,"lon":5.382303,"is_reserved":false,"is_disabled":false,"rental_uris":{"android":"levelo://app?vid=5c5e1bb2-4ae2-4bc1-8df9-43617628a7f2","ios":"levelo://app?vid=5c5e1bb2-4ae2-4bc1-8df9-43617628a7f2"},"vehicle_type_id":"4","last_reported":1686589552,"current_range_meters":31200,"station_id":"ce4bhih2rcd13ifvqfs0","pricing_plan_id":"free"},{"bike_id":"d0e44516-4c20-4f0e-8f55-1b09be6a2618","system_id":"levelo_inurba_marseille","lat":43.25579,"lon":5.38233,"is_reserved":false,"is_disabled":false,"rental_uris":{"android":"levelo://app?vid=d0e44516-4c20-4f0e-8f55-1b09be6a2618","ios":"levelo://app?vid=d0e44516-4c20-4f0e-8f55-1b09be6a2618"},"vehicle_type_id":"4","last_reported":1686589552,"current_range_meters":7200,"station_id":"ce4bhih2rcd13ifvqfs0","pricing_plan_id":"free"},{"bike_id":"396b22e7-988b-4383-b74c-910d538a489c","system_id":"levelo_inurba_marseille","lat":43.270721,"lon":5.422764,"is_reserved":false,"is_disabled":false,"rental_uris":{"android":"levelo://app?vid=396b22e7-988b-4383-b74c-910d538a489c","ios":"levelo://app?vid=396b22e7-988b-4383-b74c-910d538a489c"},"vehicle_type_id":"4","last_reported":1686589552,"current_range_meters":4400,"station_id":"ce4bhk92rcd13ifvqgb0","pricing_plan_id":"free"},{"bike_id":"7818be98-4337-4f49-8669-85dfe8f60c31","system_id":"levelo_inurba_marseille","lat":43.270721,"lon":5.422764,"is_reserved":false,"is_disabled":false,"rental_uris":{"android":"levelo://app?vid=7818be98-4337-4f49-8669-85dfe8f60c31","ios":"levelo://app?vid=7818be98-4337-4f49-8669-85dfe8f60c31"},"vehicle_type_id":"4","last_reported":1686589552,"current_range_meters":15600,"station_id":"ce4bhk92rcd13ifvqgb0","pricing_plan_id":"free"},{"bike_id":"a3377990-0813-459f-bdf7-3e4f30e52a04","system_id":"levelo_inurba_marseille","lat":43.28269,"lon":5.44314,"is_reserved":false,"is_disabled":false,"rental_uris":{"android":"levelo://app?vid=a3377990-0813-459f-bdf7-3e4f30e52a04","ios":"levelo://app?vid=a3377990-0813-459f-bdf7-3e4f30e52a04"},"vehicle_type_id":"4","last_reported":1686589552,"current_range_meters":18800,"station_id":"","pricing_plan_id":"free"},{"bike_id":"b096407c-20f9-436a-9232-79fbf4ae5ead","system_id":"levelo_inurba_marseille","lat":43.250966,"lon":5.395186,"is_reserved":false,"is_disabled":false,"rental_uris":{"android":"levelo://app?vid=b096407c-20f9-436a-9232-79fbf4ae5ead","ios":"levelo://app?vid=b096407c-20f9-436a-9232-79fbf4ae5ead"},"vehicle_type_id":"4","last_reported":1686589552,"current_range_meters":23200,"station_id":"ce4bhm12rcd13ifvqgkg","pricing_plan_id":"free"},{"bike_id":"d5f57bda-47c6-4bf0-adee-6b1aa71d49ef","system_id":"levelo_inurba_marseille","lat":43.25006,"lon":5.38915,"is_reserved":false,"is_disabled":false,"rental_uris":{"android":"levelo://app?vid=d5f57bda-47c6-4bf0-adee-6b1aa71d49ef","ios":"levelo://app?vid=d5f57bda-47c6-4bf0-adee-6b1aa71d49ef"},"vehicle_type_id":"4","last_reported":1686589552,"current_range_meters":31600,"station_id":"ce4bhgp2rcd13ifvqfd0","pricing_plan_id":"free"},{"bike_id":"eec861c7-57d5-4b4f-bc5f-99928c73927a","system_id":"levelo_inurba_marseille","lat":43.250037,"lon":5.389086,"is_reserved":false,"is_disabled":false,"rental_uris":{"android":"levelo://app?vid=eec861c7-57d5-4b4f-bc5f-99928c73927a","ios":"levelo://app?vid=eec861c7-57d5-4b4f-bc5f-99928c73927a"},"vehicle_type_id":"4","last_reported":1686589552,"current_range_meters":31200,"station_id":"ce4bhgp2rcd13ifvqfd0","pricing_plan_id":"free"},{"bike_id":"1b54894a-4e44-4c3f-b09d-9cf265760fc1","system_id":"levelo_inurba_marseille","lat":43.2479,"lon":5.374457,"is_reserved":false,"is_disabled":false,"rental_uris":{"android":"levelo://app?vid=1b54894a-4e44-4c3f-b09d-9cf265760fc1","ios":"levelo://app?vid=1b54894a-4e44-4c3f-b09d-9cf265760fc1"},"vehicle_type_id":"4","last_reported":1686589552,"current_range_meters":22000,"station_id":"ce4bhgh2rcd13ifvqfb0","pricing_plan_id":"free"},{"bike_id":"2c40a6dc-ae54-4403-b1ee-312d05723d4d","system_id":"levelo_inurba_marseille","lat":43.2479,"lon":5.374457,"is_reserved":false,"is_disabled":false,"rental_uris":{"android":"levelo://app?vid=2c40a6dc-ae54-4403-b1ee-312d05723d4d","ios":"levelo://app?vid=2c40a6dc-ae54-4403-b1ee-312d05723d4d"},"vehicle_type_id":"4","last_reported":1686589552,"current_range_meters":31200,"station_id":"ce4bhgh2rcd13ifvqfb0","pricing_plan_id":"free"},{"bike_id":"54571e6c-c1d4-45ba-b619-fb2c3800ba77","system_id":"levelo_inurba_marseille","lat":43.2479,"lon":5.374457,"is_reserved":false,"is_disabled":false,"rental_uris":{"android":"levelo://app?vid=54571e6c-c1d4-45ba-b619-fb2c3800ba77","ios":"levelo://app?vid=54571e6c-c1d4-45ba-b619-fb2c3800ba77"},"vehicle_type_id":"4","last_reported":1686589552,"current_range_meters":4000,"station_id":"ce4bhgh2rcd13ifvqfb0","pricing_plan_id":"free"},{"bike_id":"bbe94aa9-05fb-4b51-8cf5-7226fa424f07","system_id":"levelo_inurba_marseille","lat":43.2479,"lon":5.374457,"is_reserved":false,"is_disabled":false,"rental_uris":{"android":"levelo://app?vid=bbe94aa9-05fb-4b51-8cf5-7226fa424f07","ios":"levelo://app?vid=bbe94aa9-05fb-4b51-8cf5-7226fa424f07"},"vehicle_type_id":"4","last_reported":1686589552,"current_range_meters":400,"station_id":"ce4bhgh2rcd13ifvqfb0","pricing_plan_id":"free"},{"bike_id":"54ce6a96-d5f5-4b25-a368-53c0b3cd2a8c","system_id":"levelo_inurba_marseille","lat":43.2479,"lon":5.374457,"is_reserved":false,"is_disabled":false,"rental_uris":{"android":"levelo://app?vid=54ce6a96-d5f5-4b25-a368-53c0b3cd2a8c","ios":"levelo://app?vid=54ce6a96-d5f5-4b25-a368-53c0b3cd2a8c"},"vehicle_type_id":"4","last_reported":1686589552,"current_range_meters":0,"station_id":"ce4bhgh2rcd13ifvqfb0","pricing_plan_id":"free"},{"bike_id":"25f80d78-7e3d-41f6-841a-aeeeeaee10ea","system_id":"levelo_inurba_marseille","lat":43.24693,"lon":5.382096,"is_reserved":false,"is_disabled":false,"rental_uris":{"android":"levelo://app?vid=25f80d78-7e3d-41f6-841a-aeeeeaee10ea","ios":"levelo://app?vid=25f80d78-7e3d-41f6-841a-aeeeeaee10ea"},"vehicle_type_id":"4","last_reported":1686589552,"current_range_meters":4800,"station_id":"ce4bhih2rcd13ifvqfr0","pricing_plan_id":"free"},{"bike_id":"4ca33680-b213-4e6f-be4a-9ad68fc19e52","system_id":"levelo_inurba_marseille","lat":43.25102,"lon":5.403214,"is_reserved":false,"is_disabled":false,"rental_uris":{"android":"levelo://app?vid=4ca33680-b213-4e6f-be4a-9ad68fc19e52","ios":"levelo://app?vid=4ca33680-b213-4e6f-be4a-9ad68fc19e52"},"vehicle_type_id":"4","last_reported":1686589552,"current_range_meters":18000,"station_id":"ce4bhlh2rcd13ifvqgig","pricing_plan_id":"free"},{"bike_id":"8d13fa79-6873-46ed-a60f-7f989a10b117","system_id":"levelo_inurba_marseille","lat":43.25105,"lon":5.40326,"is_reserved":false,"is_disabled":false,"rental_uris":{"android":"levelo://app?vid=8d13fa79-6873-46ed-a60f-7f989a10b117","ios":"levelo://app?vid=8d13fa79-6873-46ed-a60f-7f989a10b117"},"vehicle_type_id":"4","last_reported":1686589552,"current_range_meters":31200,"station_id":"ce4bhlh2rcd13ifvqgig","pricing_plan_id":"free"},{"bike_id":"6cf77f71-a9e9-4fc9-bf2b-a37f44deb59a","system_id":"levelo_inurba_marseille","lat":43.24726,"lon":5.39277,"is_reserved":false,"is_disabled":false,"rental_uris":{"android":"levelo://app?vid=6cf77f71-a9e9-4fc9-bf2b-a37f44deb59a","ios":"levelo://app?vid=6cf77f71-a9e9-4fc9-bf2b-a37f44deb59a"},"vehicle_type_id":"4","last_reported":1686589552,"current_range_meters":3200,"station_id":"","pricing_plan_id":"free"},{"bike_id":"428f32ff-b59a-4b24-b60c-d5f978d7c303","system_id":"levelo_inurba_marseille","lat":43.24391,"lon":5.37056,"is_reserved":false,"is_disabled":false,"rental_uris":{"android":"levelo://app?vid=428f32ff-b59a-4b24-b60c-d5f978d7c303","ios":"levelo://app?vid=428f32ff-b59a-4b24-b60c-d5f978d7c303"},"vehicle_type_id":"4","last_reported":1686589552,"current_range_meters":0,"station_id":"ce4bhhh2rcd13ifvqfk0","pricing_plan_id":"free"},{"bike_id":"e776ae37-4668-4e31-acdd-02fd9299716e","system_id":"levelo_inurba_marseille","lat":43.243884,"lon":5.370736,"is_reserved":false,"is_disabled":false,"rental_uris":{"android":"levelo://app?vid=e776ae37-4668-4e31-acdd-02fd9299716e","ios":"levelo://app?vid=e776ae37-4668-4e31-acdd-02fd9299716e"},"vehicle_type_id":"4","last_reported":1686589552,"current_range_meters":24800,"station_id":"ce4bhhh2rcd13ifvqfk0","pricing_plan_id":"free"},{"bike_id":"dbdf5d06-3bcf-469f-a859-cbaf27c722ca","system_id":"levelo_inurba_marseille","lat":43.243884,"lon":5.370736,"is_reserved":false,"is_disabled":false,"rental_uris":{"android":"levelo://app?vid=dbdf5d06-3bcf-469f-a859-cbaf27c722ca","ios":"levelo://app?vid=dbdf5d06-3bcf-469f-a859-cbaf27c722ca"},"vehicle_type_id":"4","last_reported":1686589552,"current_range_meters":29600,"station_id":"ce4bhhh2rcd13ifvqfk0","pricing_plan_id":"free"},{"bike_id":"43673f5c-aaf2-435c-859a-43f3932fd153","system_id":"levelo_inurba_marseille","lat":43.243884,"lon":5.370736,"is_reserved":false,"is_disabled":false,"rental_uris":{"android":"levelo://app?vid=43673f5c-aaf2-435c-859a-43f3932fd153","ios":"levelo://app?vid=43673f5c-aaf2-435c-859a-43f3932fd153"},"vehicle_type_id":"4","last_reported":1686589552,"current_range_meters":13200,"station_id":"ce4bhhh2rcd13ifvqfk0","pricing_plan_id":"free"},{"bike_id":"5db68cc4-20d9-4dbc-a4c3-5c925aefb6c1","system_id":"levelo_inurba_marseille","lat":43.243884,"lon":5.370736,"is_reserved":false,"is_disabled":false,"rental_uris":{"android":"levelo://app?vid=5db68cc4-20d9-4dbc-a4c3-5c925aefb6c1","ios":"levelo://app?vid=5db68cc4-20d9-4dbc-a4c3-5c925aefb6c1"},"vehicle_type_id":"4","last_reported":1686589552,"current_range_meters":26000,"station_id":"ce4bhhh2rcd13ifvqfk0","pricing_plan_id":"free"},{"bike_id":"9aec4c27-43dc-4a49-a56d-a78c68ebd98a","system_id":"levelo_inurba_marseille","lat":43.34675,"lon":5.44953,"is_reserved":false,"is_disabled":false,"rental_uris":{"android":"levelo://app?vid=9aec4c27-43dc-4a49-a56d-a78c68ebd98a","ios":"levelo://app?vid=9aec4c27-43dc-4a49-a56d-a78c68ebd98a"},"vehicle_type_id":"4","last_reported":1686589552,"current_range_meters":2800,"station_id":"","pricing_plan_id":"free"},{"bike_id":"1e61593d-33a7-4911-93fe-0a3107f5d6d0","system_id":"levelo_inurba_marseille","lat":43.28886,"lon":5.45952,"is_reserved":false,"is_disabled":false,"rental_uris":{"android":"levelo://app?vid=1e61593d-33a7-4911-93fe-0a3107f5d6d0","ios":"levelo://app?vid=1e61593d-33a7-4911-93fe-0a3107f5d6d0"},"vehicle_type_id":"4","last_reported":1686589552,"current_range_meters":24000,"station_id":"","pricing_plan_id":"free"},{"bike_id":"a830ec82-8ef3-42b7-afbc-189bca6d41f3","system_id":"levelo_inurba_marseille","lat":43.24078,"lon":5.37754,"is_reserved":false,"is_disabled":false,"rental_uris":{"android":"levelo://app?vid=a830ec82-8ef3-42b7-afbc-189bca6d41f3","ios":"levelo://app?vid=a830ec82-8ef3-42b7-afbc-189bca6d41f3"},"vehicle_type_id":"4","last_reported":1686589552,"current_range_meters":20000,"station_id":"","pricing_plan_id":"free"},{"bike_id":"7da65411-222f-4c71-9e48-c10990fa5f59","system_id":"levelo_inurba_marseille","lat":43.239588,"lon":5.366238,"is_reserved":false,"is_disabled":false,"rental_uris":{"android":"levelo://app?vid=7da65411-222f-4c71-9e48-c10990fa5f59","ios":"levelo://app?vid=7da65411-222f-4c71-9e48-c10990fa5f59"},"vehicle_type_id":"4","last_reported":1686589552,"current_range_meters":23600,"station_id":"ce4bhi12rcd13ifvqfp0","pricing_plan_id":"free"},{"bike_id":"436f659e-db9f-478c-aa43-e2a3d460b14d","system_id":"levelo_inurba_marseille","lat":43.241782,"lon":5.397264,"is_reserved":false,"is_disabled":false,"rental_uris":{"android":"levelo://app?vid=436f659e-db9f-478c-aa43-e2a3d460b14d","ios":"levelo://app?vid=436f659e-db9f-478c-aa43-e2a3d460b14d"},"vehicle_type_id":"4","last_reported":1686589552,"current_range_meters":31200,"station_id":"ce4bhn12rcd13ifvqgpg","pricing_plan_id":"free"},{"bike_id":"0ad485c4-2117-441b-ab79-f2ba104baabe","system_id":"levelo_inurba_marseille","lat":43.241782,"lon":5.397264,"is_reserved":false,"is_disabled":false,"rental_uris":{"android":"levelo://app?vid=0ad485c4-2117-441b-ab79-f2ba104baabe","ios":"levelo://app?vid=0ad485c4-2117-441b-ab79-f2ba104baabe"},"vehicle_type_id":"4","last_reported":1686589552,"current_range_meters":19600,"station_id":"ce4bhn12rcd13ifvqgpg","pricing_plan_id":"free"},{"bike_id":"3b9c37bf-9efc-4073-adbc-b2b16e44d8a3","system_id":"levelo_inurba_marseille","lat":43.23547,"lon":5.36069,"is_reserved":false,"is_disabled":false,"rental_uris":{"android":"levelo://app?vid=3b9c37bf-9efc-4073-adbc-b2b16e44d8a3","ios":"levelo://app?vid=3b9c37bf-9efc-4073-adbc-b2b16e44d8a3"},"vehicle_type_id":"4","last_reported":1686589552,"current_range_meters":24000,"station_id":"","pricing_plan_id":"free"},{"bike_id":"5b0524c5-61f0-4f45-ab02-4179355a6b33","system_id":"levelo_inurba_marseille","lat":43.231919,"lon":5.355532,"is_reserved":false,"is_disabled":false,"rental_uris":{"android":"levelo://app?vid=5b0524c5-61f0-4f45-ab02-4179355a6b33","ios":"levelo://app?vid=5b0524c5-61f0-4f45-ab02-4179355a6b33"},"vehicle_type_id":"4","last_reported":1686589552,"current_range_meters":3200,"station_id":"ce4bhu92rcd13ifvqi70","pricing_plan_id":"free"},{"bike_id":"efce4c02-57c7-4d75-bdfe-7bc21fd08b77","system_id":"levelo_inurba_marseille","lat":43.23192,"lon":5.35551,"is_reserved":false,"is_disabled":false,"rental_uris":{"android":"levelo://app?vid=efce4c02-57c7-4d75-bdfe-7bc21fd08b77","ios":"levelo://app?vid=efce4c02-57c7-4d75-bdfe-7bc21fd08b77"},"vehicle_type_id":"4","last_reported":1686589552,"current_range_meters":22800,"station_id":"ce4bhu92rcd13ifvqi70","pricing_plan_id":"free"},{"bike_id":"f8df9aaa-b600-4040-9802-e4cf2937d7f0","system_id":"levelo_inurba_marseille","lat":43.23191,"lon":5.35561,"is_reserved":false,"is_disabled":false,"rental_uris":{"android":"levelo://app?vid=f8df9aaa-b600-4040-9802-e4cf2937d7f0","ios":"levelo://app?vid=f8df9aaa-b600-4040-9802-e4cf2937d7f0"},"vehicle_type_id":"4","last_reported":1686589552,"current_range_meters":9200,"station_id":"ce4bhu92rcd13ifvqi70","pricing_plan_id":"free"},{"bike_id":"8ee635d3-a7f3-469e-8963-97d928ce2b93","system_id":"levelo_inurba_marseille","lat":43.231923,"lon":5.355545,"is_reserved":false,"is_disabled":false,"rental_uris":{"android":"levelo://app?vid=8ee635d3-a7f3-469e-8963-97d928ce2b93","ios":"levelo://app?vid=8ee635d3-a7f3-469e-8963-97d928ce2b93"},"vehicle_type_id":"4","last_reported":1686589552,"current_range_meters":13600,"station_id":"ce4bhu92rcd13ifvqi70","pricing_plan_id":"free"},{"bike_id":"7fa51df0-bcd7-4132-8ddf-3360f4b21b5b","system_id":"levelo_inurba_marseille","lat":43.231919,"lon":5.355532,"is_reserved":false,"is_disabled":false,"rental_uris":{"android":"levelo://app?vid=7fa51df0-bcd7-4132-8ddf-3360f4b21b5b","ios":"levelo://app?vid=7fa51df0-bcd7-4132-8ddf-3360f4b21b5b"},"vehicle_type_id":"4","last_reported":1686589552,"current_range_meters":10400,"station_id":"ce4bhu92rcd13ifvqi70","pricing_plan_id":"free"},{"bike_id":"3ab7a0ed-6f1f-40dc-abfc-c8635562d3b1","system_id":"levelo_inurba_marseille","lat":43.23188,"lon":5.35563,"is_reserved":false,"is_disabled":false,"rental_uris":{"android":"levelo://app?vid=3ab7a0ed-6f1f-40dc-abfc-c8635562d3b1","ios":"levelo://app?vid=3ab7a0ed-6f1f-40dc-abfc-c8635562d3b1"},"vehicle_type_id":"4","last_reported":1686589552,"current_range_meters":23600,"station_id":"ce4bhu92rcd13ifvqi70","pricing_plan_id":"free"},{"bike_id":"4ed9c368-b4dd-4b41-b541-21f6e8b857b1","system_id":"levelo_inurba_marseille","lat":43.231923,"lon":5.355545,"is_reserved":false,"is_disabled":false,"rental_uris":{"android":"levelo://app?vid=4ed9c368-b4dd-4b41-b541-21f6e8b857b1","ios":"levelo://app?vid=4ed9c368-b4dd-4b41-b541-21f6e8b857b1"},"vehicle_type_id":"4","last_reported":1686589552,"current_range_meters":19600,"station_id":"ce4bhu92rcd13ifvqi70","pricing_plan_id":"free"},{"bike_id":"b92fb200-5308-4ff3-9cae-3f31dfd3856b","system_id":"levelo_inurba_marseille","lat":43.231923,"lon":5.355545,"is_reserved":false,"is_disabled":false,"rental_uris":{"android":"levelo://app?vid=b92fb200-5308-4ff3-9cae-3f31dfd3856b","ios":"levelo://app?vid=b92fb200-5308-4ff3-9cae-3f31dfd3856b"},"vehicle_type_id":"4","last_reported":1686589552,"current_range_meters":5200,"station_id":"ce4bhu92rcd13ifvqi70","pricing_plan_id":"free"},{"bike_id":"8dcf75e2-8422-4ce3-aa10-6ec03292f920","system_id":"levelo_inurba_marseille","lat":43.231794,"lon":5.400052,"is_reserved":false,"is_disabled":false,"rental_uris":{"android":"levelo://app?vid=8dcf75e2-8422-4ce3-aa10-6ec03292f920","ios":"levelo://app?vid=8dcf75e2-8422-4ce3-aa10-6ec03292f920"},"vehicle_type_id":"4","last_reported":1686589552,"current_range_meters":22800,"station_id":"ce4bhn12rcd13ifvqgqg","pricing_plan_id":"free"},{"bike_id":"63c78c8f-0f8d-4207-8d4b-abbefe8d0ad8","system_id":"levelo_inurba_marseille","lat":43.23187,"lon":5.3998,"is_reserved":false,"is_disabled":false,"rental_uris":{"android":"levelo://app?vid=63c78c8f-0f8d-4207-8d4b-abbefe8d0ad8","ios":"levelo://app?vid=63c78c8f-0f8d-4207-8d4b-abbefe8d0ad8"},"vehicle_type_id":"4","last_reported":1686589552,"current_range_meters":24400,"station_id":"ce4bhn12rcd13ifvqgqg","pricing_plan_id":"free"},{"bike_id":"fc8e0b4f-584b-48fd-885a-0f66b6e992b2","system_id":"levelo_inurba_marseille","lat":43.231794,"lon":5.400052,"is_reserved":false,"is_disabled":false,"rental_uris":{"android":"levelo://app?vid=fc8e0b4f-584b-48fd-885a-0f66b6e992b2","ios":"levelo://app?vid=fc8e0b4f-584b-48fd-885a-0f66b6e992b2"},"vehicle_type_id":"4","last_reported":1686589552,"current_range_meters":31200,"station_id":"ce4bhn12rcd13ifvqgqg","pricing_plan_id":"free"},{"bike_id":"bf454184-6346-4249-bf98-6218248df4a0","system_id":"levelo_inurba_marseille","lat":43.231793,"lon":5.400044,"is_reserved":false,"is_disabled":false,"rental_uris":{"android":"levelo://app?vid=bf454184-6346-4249-bf98-6218248df4a0","ios":"levelo://app?vid=bf454184-6346-4249-bf98-6218248df4a0"},"vehicle_type_id":"4","last_reported":1686589552,"current_range_meters":27200,"station_id":"ce4bhn12rcd13ifvqgqg","pricing_plan_id":"free"},{"bike_id":"81c29864-283f-4164-b362-97d2c309cf10","system_id":"levelo_inurba_marseille","lat":43.23173,"lon":5.40052,"is_reserved":false,"is_disabled":false,"rental_uris":{"android":"levelo://app?vid=81c29864-283f-4164-b362-97d2c309cf10","ios":"levelo://app?vid=81c29864-283f-4164-b362-97d2c309cf10"},"vehicle_type_id":"4","last_reported":1686589552,"current_range_meters":10000,"station_id":"","pricing_plan_id":"free"},{"bike_id":"d9068383-52b0-4f24-8305-fcd0fb16c612","system_id":"levelo_inurba_marseille","lat":43.28613,"lon":5.47744,"is_reserved":false,"is_disabled":false,"rental_uris":{"android":"levelo://app?vid=d9068383-52b0-4f24-8305-fcd0fb16c612","ios":"levelo://app?vid=d9068383-52b0-4f24-8305-fcd0fb16c612"},"vehicle_type_id":"4","last_reported":1686589552,"current_range_meters":17200,"station_id":"","pricing_plan_id":"free"}]}}