{"last_updated":1766085119,"ttl":60,"version":"2.2","data":{"bikes":[{"bike_id":"4f6d9b47-f477-488e-a762-1c24db0a3dfa","system_id":"levelo_inurba_marseille","lat":43.30209,"lon":5.39466,"is_reserved":false,"is_disabled":false,"rental_uris":{"android":"levelo://app?vid=4f6d9b47-f477-488e-a762-1c24db0a3dfa","ios":"levelo://app?vid=4f6d9b47-f477-488e-a762-1c24db0a3dfa"},"vehicle_type_id":"4","last_reported":1766085120,"current_range_meters":2800,"station_id":"ce4bh0p2rcd13ifvqd70","pricing_plan_id":"cebpf4jnsgd1na2vs0mg"},{"bike_id":"16cd7107-89cf-44b8-8eb2-fd6deaad3ed8","system_id":"levelo_inurba_marseille","lat":43.27634,"lon":5.36112,"is_reserved":false,"is_disabled":false,"rental_uris":{"android":"levelo://app?vid=16cd7107-89cf-44b8-8eb2-fd6deaad3ed8","ios":"levelo://app?vid=16cd7107-89cf-44b8-8eb2-fd6deaad3ed8"},"vehicle_type_id":"4","last_reported":1766085120,"current_range_meters":2800,"station_id":"ce4bgj92rcd13ifvqbe0","pricing_plan_id":"cebpf4jnsgd1na2vs0mg"},{"bike_id":"633f2591-3232-42e0-8f56-1337f71fc85c","system_id":"levelo_inurba_marseille","lat":43.29704,"lon":5.36616,"is_reserved":false,"is_disabled":false,"rental_uris":{"android":"levelo://app?vid=633f2591-3232-42e0-8f56-1337f71fc85c","ios":"levelo://app?vid=633f2591-3232-42e0-8f56-1337f71fc85c"},"vehicle_type_id":"4","last_reported":1766085120,"current_range_meters":2800,"station_id":"ce4bgn12rcd13ifvqbt0","pricing_plan_id":"cebpf4jnsgd1na2vs0mg"},{"bike_id":"d434fb61-aa30-49fb-943f-52e9494d3368","system_id":"levelo_inurba_marseille","lat":43.27372,"lon":5.36248,"is_reserved":false,"is_disabled":false,"rental_uris":{"android":"levelo://app?vid=d434fb61-aa30-49fb-943f-52e9494d3368","ios":"levelo://app?vid=d434fb61-aa30-49fb-943f-52e9494d3368"},"vehicle_type_id":"4","last_reported":1766085120,"current_range_meters":3200,"station_id":"ce4bhbh2rcd13ifvqeo0","pricing_plan_id":"cebpf4jnsgd1na2vs0mg"},{"bike_id":"075753f2-03fc-482d-992a-1a659c9f27f8","system_id":"levelo_inurba_marseille","lat":43.28218,"lon":5.34909,"is_reserved":false,"is_disabled":false,"rental_uris":{"android":"levelo://app?vid=075753f2-03fc-482d-992a-1a659c9f27f8","ios":"levelo://app?vid=075753f2-03fc-482d-992a-1a659c9f27f8"},"vehicle_type_id":"4","last_reported":1766085120,"current_range_meters":3200,"station_id":"","pricing_plan_id":"cebpf4jnsgd1na2vs0mg"},{"bike_id":"841d168f-3890-4dd8-a60a-0852ae3fc4a1","system_id":"levelo_inurba_marseille","lat":43.30275,"lon":5.37254,"is_reserved":false,"is_disabled":false,"rental_uris":{"android":"levelo://app?vid=841d168f-3890-4dd8-a60a-0852ae3fc4a1","ios":"levelo://app?vid=841d168f-3890-4dd8-a60a-0852ae3fc4a1"},"vehicle_type_id":"4","last_reported":1766085120,"current_range_meters":3200,"station_id":"","pricing_plan_id":"cebpf4jnsgd1na2vs0mg"},{"bike_id":"a2ed7ba0-f76f-437a-9801-2c7793b76dc7","system_id":"levelo_inurba_marseille","lat":43.295316,"lon":5.385496,"is_reserved":false,"is_disabled":false,"rental_uris":{"android":"levelo://app?vid=a2ed7ba0-f76f-437a-9801-2c7793b76dc7","ios":"levelo://app?vid=a2ed7ba0-f76f-437a-9801-2c7793b76dc7"},"vehicle_type_id":"4","last_reported":1766085120,"current_range_meters":3200,"station_id":"ce4bgih2rcd13ifvqba0","pricing_plan_id":"cebpf4jnsgd1na2vs0mg"},{"bike_id":"f923e1aa-ca69-420e-9100-60f458a37655","system_id":"levelo_inurba_marseille","lat":43.30302,"lon":5.39218,"is_reserved":false,"is_disabled":false,"rental_uris":{"android":"levelo://app?vid=f923e1aa-ca69-420e-9100-60f458a37655","ios":"levelo://app?vid=f923e1aa-ca69-420e-9100-60f458a37655"},"vehicle_type_id":"4","last_reported":1766085120,"current_range_meters":3200,"station_id":"ce4bgkh2rcd13ifvqbk0","pricing_plan_id":"cebpf4jnsgd1na2vs0mg"},{"bike_id":"2417ce7e-05f1-4a1e-819d-89e20690270c","system_id":"levelo_inurba_marseille","lat":43.29977,"lon":5.37174,"is_reserved":false,"is_disabled":false,"rental_uris":{"android":"levelo://app?vid=2417ce7e-05f1-4a1e-819d-89e20690270c","ios":"levelo://app?vid=2417ce7e-05f1-4a1e-819d-89e20690270c"},"vehicle_type_id":"4","last_reported":1766085120,"current_range_meters":3600,"station_id":"ce4bgr92rcd13ifvqc7g","pricing_plan_id":"cebpf4jnsgd1na2vs0mg"},{"bike_id":"068cf0db-8f7d-4246-b1f9-6f0b576e785b","system_id":"levelo_inurba_marseille","lat":43.29523,"lon":5.39405,"is_reserved":false,"is_disabled":false,"rental_uris":{"android":"levelo://app?vid=068cf0db-8f7d-4246-b1f9-6f0b576e785b","ios":"levelo://app?vid=068cf0db-8f7d-4246-b1f9-6f0b576e785b"},"vehicle_type_id":"4","last_reported":1766085120,"current_range_meters":3600,"station_id":"ce4bh292rcd13ifvqdf0","pricing_plan_id":"cebpf4jnsgd1na2vs0mg"},{"bike_id":"6b5bec9c-245e-48c3-8f38-5802442ede50","system_id":"levelo_inurba_marseille","lat":43.26562,"lon":5.39014,"is_reserved":false,"is_disabled":false,"rental_uris":{"android":"levelo://app?vid=6b5bec9c-245e-48c3-8f38-5802442ede50","ios":"levelo://app?vid=6b5bec9c-245e-48c3-8f38-5802442ede50"},"vehicle_type_id":"4","last_reported":1766085120,"current_range_meters":3600,"station_id":"ce4bhe12rcd13ifvqf30","pricing_plan_id":"cebpf4jnsgd1na2vs0mg"},{"bike_id":"c220c080-e1b8-42b1-930f-df7e555bd248","system_id":"levelo_inurba_marseille","lat":43.29508,"lon":5.38402,"is_reserved":false,"is_disabled":false,"rental_uris":{"android":"levelo://app?vid=c220c080-e1b8-42b1-930f-df7e555bd248","ios":"levelo://app?vid=c220c080-e1b8-42b1-930f-df7e555bd248"},"vehicle_type_id":"4","last_reported":1766085120,"current_range_meters":3600,"station_id":"","pricing_plan_id":"cebpf4jnsgd1na2vs0mg"},{"bike_id":"771a735b-eed8-445f-b117-03b76e1ac7a2","system_id":"levelo_inurba_marseille","lat":43.31711,"lon":5.43701,"is_reserved":false,"is_disabled":false,"rental_uris":{"android":"levelo://app?vid=771a735b-eed8-445f-b117-03b76e1ac7a2","ios":"levelo://app?vid=771a735b-eed8-445f-b117-03b76e1ac7a2"},"vehicle_type_id":"4","last_reported":1766085120,"current_range_meters":3600,"station_id":"ce4bhp92rcd13ifvqhcg","pricing_plan_id":"cebpf4jnsgd1na2vs0mg"},{"bike_id":"846ba82f-b80b-4118-ba94-f1f7e836af7f","system_id":"levelo_inurba_marseille","lat":43.33757,"lon":5.374367,"is_reserved":false,"is_disabled":false,"rental_uris":{"android":"levelo://app?vid=846ba82f-b80b-4118-ba94-f1f7e836af7f","ios":"levelo://app?vid=846ba82f-b80b-4118-ba94-f1f7e836af7f"},"vehicle_type_id":"4","last_reported":1766085120,"current_range_meters":4000,"station_id":"","pricing_plan_id":"cebpf4jnsgd1na2vs0mg"},{"bike_id":"a3aa9dd6-bb42-4ead-a40b-d784dc750ff7","system_id":"levelo_inurba_marseille","lat":43.29516,"lon":5.39403,"is_reserved":false,"is_disabled":false,"rental_uris":{"android":"levelo://app?vid=a3aa9dd6-bb42-4ead-a40b-d784dc750ff7","ios":"levelo://app?vid=a3aa9dd6-bb42-4ead-a40b-d784dc750ff7"},"vehicle_type_id":"4","last_reported":1766085120,"current_range_meters":4000,"station_id":"ce4bh292rcd13ifvqdf0","pricing_plan_id":"cebpf4jnsgd1na2vs0mg"},{"bike_id":"1f1de034-f3a7-4a3d-9c0b-3524d527f374","system_id":"levelo_inurba_marseille","lat":43.2952,"lon":5.39399,"is_reserved":false,"is_disabled":false,"rental_uris":{"android":"levelo://app?vid=1f1de034-f3a7-4a3d-9c0b-3524d527f374","ios":"levelo://app?vid=1f1de034-f3a7-4a3d-9c0b-3524d527f374"},"vehicle_type_id":"4","last_reported":1766085120,"current_range_meters":4000,"station_id":"ce4bh292rcd13ifvqdf0","pricing_plan_id":"cebpf4jnsgd1na2vs0mg"},{"bike_id":"d5c6fa74-6555-4e9a-b747-1273f1992163","system_id":"levelo_inurba_marseille","lat":43.30091,"lon":5.3652,"is_reserved":false,"is_disabled":false,"rental_uris":{"android":"levelo://app?vid=d5c6fa74-6555-4e9a-b747-1273f1992163","ios":"levelo://app?vid=d5c6fa74-6555-4e9a-b747-1273f1992163"},"vehicle_type_id":"4","last_reported":1766085120,"current_range_meters":4000,"station_id":"","pricing_plan_id":"cebpf4jnsgd1na2vs0mg"},{"bike_id":"037bfaf6-99de-442b-b274-1c93672a634a","system_id":"levelo_inurba_marseille","lat":43.28153,"lon":5.42648,"is_reserved":false,"is_disabled":false,"rental_uris":{"android":"levelo://app?vid=037bfaf6-99de-442b-b274-1c93672a634a","ios":"levelo://app?vid=037bfaf6-99de-442b-b274-1c93672a634a"},"vehicle_type_id":"4","last_reported":1766085120,"current_range_meters":4400,"station_id":"ce4bhnh2rcd13ifvqgug","pricing_plan_id":"cebpf4jnsgd1na2vs0mg"},{"bike_id":"3d413022-5eec-43ac-83de-89656b5276e5","system_id":"levelo_inurba_marseille","lat":43.30109,"lon":5.36546,"is_reserved":false,"is_disabled":false,"rental_uris":{"android":"levelo://app?vid=3d413022-5eec-43ac-83de-89656b5276e5","ios":"levelo://app?vid=3d413022-5eec-43ac-83de-89656b5276e5"},"vehicle_type_id":"4","last_reported":1766085120,"current_range_meters":4400,"station_id":"","pricing_plan_id":"cebpf4jnsgd1na2vs0mg"},{"bike_id":"8e7be121-07dd-489f-8e8a-9eb75f8564df","system_id":"levelo_inurba_marseille","lat":43.31891,"lon":5.40733,"is_reserved":false,"is_disabled":false,"rental_uris":{"android":"levelo://app?vid=8e7be121-07dd-489f-8e8a-9eb75f8564df","ios":"levelo://app?vid=8e7be121-07dd-489f-8e8a-9eb75f8564df"},"vehicle_type_id":"4","last_reported":1766085120,"current_range_meters":4400,"station_id":"ce4bhq12rcd13ifvqhig","pricing_plan_id":"cebpf4jnsgd1na2vs0mg"},{"bike_id":"b050e911-fa26-4cf1-8e22-f587575f05a4","system_id":"levelo_inurba_marseille","lat":43.29019,"lon":5.3813,"is_reserved":false,"is_disabled":false,"rental_uris":{"android":"levelo://app?vid=b050e911-fa26-4cf1-8e22-f587575f05a4","ios":"levelo://app?vid=b050e911-fa26-4cf1-8e22-f587575f05a4"},"vehicle_type_id":"4","last_reported":1766085120,"current_range_meters":4400,"station_id":"ce4bh4p2rcd13ifvqe1g","pricing_plan_id":"cebpf4jnsgd1na2vs0mg"},{"bike_id":"d120d806-66fe-49c5-82b9-f716c627110f","system_id":"levelo_inurba_marseille","lat":43.29556,"lon":5.42296,"is_reserved":false,"is_disabled":false,"rental_uris":{"android":"levelo://app?vid=d120d806-66fe-49c5-82b9-f716c627110f","ios":"levelo://app?vid=d120d806-66fe-49c5-82b9-f716c627110f"},"vehicle_type_id":"4","last_reported":1766085120,"current_range_meters":4400,"station_id":"ce4bhph2rcd13ifvqhdg","pricing_plan_id":"cebpf4jnsgd1na2vs0mg"},{"bike_id":"04aadaa9-8f9b-4247-ad57-f8dabd0adce7","system_id":"levelo_inurba_marseille","lat":43.29762,"lon":5.3813,"is_reserved":false,"is_disabled":false,"rental_uris":{"android":"levelo://app?vid=04aadaa9-8f9b-4247-ad57-f8dabd0adce7","ios":"levelo://app?vid=04aadaa9-8f9b-4247-ad57-f8dabd0adce7"},"vehicle_type_id":"4","last_reported":1766085120,"current_range_meters":4400,"station_id":"","pricing_plan_id":"cebpf4jnsgd1na2vs0mg"},{"bike_id":"5965dfe2-9d0d-4f2f-bce4-ed3ffb7e7920","system_id":"levelo_inurba_marseille","lat":43.25119,"lon":5.40315,"is_reserved":false,"is_disabled":false,"rental_uris":{"android":"levelo://app?vid=5965dfe2-9d0d-4f2f-bce4-ed3ffb7e7920","ios":"levelo://app?vid=5965dfe2-9d0d-4f2f-bce4-ed3ffb7e7920"},"vehicle_type_id":"4","last_reported":1766085120,"current_range_meters":4400,"station_id":"ce4bhlh2rcd13ifvqgig","pricing_plan_id":"cebpf4jnsgd1na2vs0mg"},{"bike_id":"4cd154f0-625c-4539-a2d1-dc387747a0b3","system_id":"levelo_inurba_marseille","lat":43.29442,"lon":5.39739,"is_reserved":false,"is_disabled":false,"rental_uris":{"android":"levelo://app?vid=4cd154f0-625c-4539-a2d1-dc387747a0b3","ios":"levelo://app?vid=4cd154f0-625c-4539-a2d1-dc387747a0b3"},"vehicle_type_id":"4","last_reported":1766085120,"current_range_meters":4800,"station_id":"ce4bh3h2rcd13ifvqdo0","pricing_plan_id":"cebpf4jnsgd1na2vs0mg"},{"bike_id":"215e5306-996b-4ba8-9ddb-7c88e0b93cf2","system_id":"levelo_inurba_marseille","lat":43.27967,"lon":5.38747,"is_reserved":false,"is_disabled":false,"rental_uris":{"android":"levelo://app?vid=215e5306-996b-4ba8-9ddb-7c88e0b93cf2","ios":"levelo://app?vid=215e5306-996b-4ba8-9ddb-7c88e0b93cf2"},"vehicle_type_id":"4","last_reported":1766085120,"current_range_meters":4800,"station_id":"ce4bhg12rcd13ifvqf80","pricing_plan_id":"cebpf4jnsgd1na2vs0mg"},{"bike_id":"421429dd-cc7d-47ec-9c23-d069c5b26c89","system_id":"levelo_inurba_marseille","lat":43.29743,"lon":5.37109,"is_reserved":false,"is_disabled":false,"rental_uris":{"android":"levelo://app?vid=421429dd-cc7d-47ec-9c23-d069c5b26c89","ios":"levelo://app?vid=421429dd-cc7d-47ec-9c23-d069c5b26c89"},"vehicle_type_id":"4","last_reported":1766085120,"current_range_meters":4800,"station_id":"ce4bgop2rcd13ifvqc1g","pricing_plan_id":"cebpf4jnsgd1na2vs0mg"},{"bike_id":"88031236-6a40-4d32-a503-adc00e8f1b31","system_id":"levelo_inurba_marseille","lat":43.33767,"lon":5.374479,"is_reserved":false,"is_disabled":false,"rental_uris":{"android":"levelo://app?vid=88031236-6a40-4d32-a503-adc00e8f1b31","ios":"levelo://app?vid=88031236-6a40-4d32-a503-adc00e8f1b31"},"vehicle_type_id":"4","last_reported":1766085120,"current_range_meters":5600,"station_id":"","pricing_plan_id":"cebpf4jnsgd1na2vs0mg"},{"bike_id":"ae41551a-3b5e-4d71-8a14-120506fefb36","system_id":"levelo_inurba_marseille","lat":43.297653,"lon":5.427696,"is_reserved":false,"is_disabled":false,"rental_uris":{"android":"levelo://app?vid=ae41551a-3b5e-4d71-8a14-120506fefb36","ios":"levelo://app?vid=ae41551a-3b5e-4d71-8a14-120506fefb36"},"vehicle_type_id":"4","last_reported":1766085120,"current_range_meters":5600,"station_id":"ce4bgih2rcd13ifvqba0","pricing_plan_id":"cebpf4jnsgd1na2vs0mg"},{"bike_id":"fbf8ed9e-d0e2-439c-b38a-269ff9082ebd","system_id":"levelo_inurba_marseille","lat":43.2998,"lon":5.37177,"is_reserved":false,"is_disabled":false,"rental_uris":{"android":"levelo://app?vid=fbf8ed9e-d0e2-439c-b38a-269ff9082ebd","ios":"levelo://app?vid=fbf8ed9e-d0e2-439c-b38a-269ff9082ebd"},"vehicle_type_id":"4","last_reported":1766085120,"current_range_meters":5600,"station_id":"ce4bgr92rcd13ifvqc7g","pricing_plan_id":"cebpf4jnsgd1na2vs0mg"},{"bike_id":"9b337c31-506d-45f7-821b-4d44e55cfe88","system_id":"levelo_inurba_marseille","lat":43.28487,"lon":5.38418,"is_reserved":false,"is_disabled":false,"rental_uris":{"android":"levelo://app?vid=9b337c31-506d-45f7-821b-4d44e55cfe88","ios":"levelo://app?vid=9b337c31-506d-45f7-821b-4d44e55cfe88"},"vehicle_type_id":"4","last_reported":1766085120,"current_range_meters":5600,"station_id":"ce4bh512rcd13ifvqe3g","pricing_plan_id":"cebpf4jnsgd1na2vs0mg"},{"bike_id":"796511e3-fd37-42ae-9343-7b4af3d23941","system_id":"levelo_inurba_marseille","lat":43.309418,"lon":5.390317,"is_reserved":false,"is_disabled":false,"rental_uris":{"android":"levelo://app?vid=796511e3-fd37-42ae-9343-7b4af3d23941","ios":"levelo://app?vid=796511e3-fd37-42ae-9343-7b4af3d23941"},"vehicle_type_id":"4","last_reported":1766085120,"current_range_meters":5600,"station_id":"ce4bgup2rcd13ifvqco0","pricing_plan_id":"cebpf4jnsgd1na2vs0mg"},{"bike_id":"6dd55d1a-884d-46bb-8601-e1514c550be1","system_id":"levelo_inurba_marseille","lat":43.24801,"lon":5.37452,"is_reserved":false,"is_disabled":false,"rental_uris":{"android":"levelo://app?vid=6dd55d1a-884d-46bb-8601-e1514c550be1","ios":"levelo://app?vid=6dd55d1a-884d-46bb-8601-e1514c550be1"},"vehicle_type_id":"4","last_reported":1766085120,"current_range_meters":6000,"station_id":"ce4bhgh2rcd13ifvqfb0","pricing_plan_id":"cebpf4jnsgd1na2vs0mg"},{"bike_id":"9080dc59-f94c-4d06-bf2c-c29988d85541","system_id":"levelo_inurba_marseille","lat":43.29574,"lon":5.39949,"is_reserved":false,"is_disabled":true,"rental_uris":{"android":"levelo://app?vid=9080dc59-f94c-4d06-bf2c-c29988d85541","ios":"levelo://app?vid=9080dc59-f94c-4d06-bf2c-c29988d85541"},"vehicle_type_id":"4","last_reported":1766085120,"current_range_meters":6000,"station_id":"ce4bh312rcd13ifvqdj0","pricing_plan_id":"cebpf4jnsgd1na2vs0mg"},{"bike_id":"b79ecfe2-2a72-47f9-9813-a9c60c121f2f","system_id":"levelo_inurba_marseille","lat":43.301145,"lon":5.398536,"is_reserved":false,"is_disabled":false,"rental_uris":{"android":"levelo://app?vid=b79ecfe2-2a72-47f9-9813-a9c60c121f2f","ios":"levelo://app?vid=b79ecfe2-2a72-47f9-9813-a9c60c121f2f"},"vehicle_type_id":"4","last_reported":1766085120,"current_range_meters":6000,"station_id":"ce4bh0h2rcd13ifvqd40","pricing_plan_id":"cebpf4jnsgd1na2vs0mg"},{"bike_id":"cc178787-4e27-477e-85ac-bb874f1df1de","system_id":"levelo_inurba_marseille","lat":43.2733,"lon":5.41054,"is_reserved":false,"is_disabled":false,"rental_uris":{"android":"levelo://app?vid=cc178787-4e27-477e-85ac-bb874f1df1de","ios":"levelo://app?vid=cc178787-4e27-477e-85ac-bb874f1df1de"},"vehicle_type_id":"4","last_reported":1766085120,"current_range_meters":6000,"station_id":"","pricing_plan_id":"cebpf4jnsgd1na2vs0mg"},{"bike_id":"0b8ed324-0846-4be1-8827-b5d8db7fa9ab","system_id":"levelo_inurba_marseille","lat":43.28536,"lon":5.4409,"is_reserved":false,"is_disabled":true,"rental_uris":{"android":"levelo://app?vid=0b8ed324-0846-4be1-8827-b5d8db7fa9ab","ios":"levelo://app?vid=0b8ed324-0846-4be1-8827-b5d8db7fa9ab"},"vehicle_type_id":"4","last_reported":1766085120,"current_range_meters":6000,"station_id":"st_d3j3df2ikq2c7380ej80","pricing_plan_id":"cebpf4jnsgd1na2vs0mg"},{"bike_id":"46846722-c465-4f46-ae62-1cb0fc602ab5","system_id":"levelo_inurba_marseille","lat":43.307953,"lon":5.381481,"is_reserved":false,"is_disabled":false,"rental_uris":{"android":"levelo://app?vid=46846722-c465-4f46-ae62-1cb0fc602ab5","ios":"levelo://app?vid=46846722-c465-4f46-ae62-1cb0fc602ab5"},"vehicle_type_id":"4","last_reported":1766085120,"current_range_meters":6000,"station_id":"","pricing_plan_id":"cebpf4jnsgd1na2vs0mg"},{"bike_id":"332619e6-98c8-42bf-8c25-454272c36bd1","system_id":"levelo_inurba_marseille","lat":43.30723,"lon":5.42435,"is_reserved":false,"is_disabled":false,"rental_uris":{"android":"levelo://app?vid=332619e6-98c8-42bf-8c25-454272c36bd1","ios":"levelo://app?vid=332619e6-98c8-42bf-8c25-454272c36bd1"},"vehicle_type_id":"4","last_reported":1766085120,"current_range_meters":6000,"station_id":"st_cvj6ca6bvosntc0bfgr0","pricing_plan_id":"cebpf4jnsgd1na2vs0mg"},{"bike_id":"b9e289e9-e1d8-4db9-8eeb-d4ae6610e1bb","system_id":"levelo_inurba_marseille","lat":43.28864,"lon":5.425169,"is_reserved":false,"is_disabled":false,"rental_uris":{"android":"levelo://app?vid=b9e289e9-e1d8-4db9-8eeb-d4ae6610e1bb","ios":"levelo://app?vid=b9e289e9-e1d8-4db9-8eeb-d4ae6610e1bb"},"vehicle_type_id":"4","last_reported":1766085120,"current_range_meters":6400,"station_id":"st_d3b462108ojc7389ooeg","pricing_plan_id":"cebpf4jnsgd1na2vs0mg"},{"bike_id":"1baa6163-2e06-4fa9-a7e4-27e4f1ff5c9b","system_id":"levelo_inurba_marseille","lat":43.29437,"lon":5.3974,"is_reserved":false,"is_disabled":false,"rental_uris":{"android":"levelo://app?vid=1baa6163-2e06-4fa9-a7e4-27e4f1ff5c9b","ios":"levelo://app?vid=1baa6163-2e06-4fa9-a7e4-27e4f1ff5c9b"},"vehicle_type_id":"4","last_reported":1766085120,"current_range_meters":6400,"station_id":"ce4bh3h2rcd13ifvqdo0","pricing_plan_id":"cebpf4jnsgd1na2vs0mg"},{"bike_id":"d36bcfff-de89-4549-aa0b-137f3ea9a637","system_id":"levelo_inurba_marseille","lat":43.28411,"lon":5.37509,"is_reserved":false,"is_disabled":false,"rental_uris":{"android":"levelo://app?vid=d36bcfff-de89-4549-aa0b-137f3ea9a637","ios":"levelo://app?vid=d36bcfff-de89-4549-aa0b-137f3ea9a637"},"vehicle_type_id":"4","last_reported":1766085120,"current_range_meters":6400,"station_id":"ce4bh412rcd13ifvqds0","pricing_plan_id":"cebpf4jnsgd1na2vs0mg"},{"bike_id":"50e6eefe-8aea-4054-ab8f-87d6e301ff34","system_id":"levelo_inurba_marseille","lat":43.242907,"lon":5.438459,"is_reserved":false,"is_disabled":false,"rental_uris":{"android":"levelo://app?vid=50e6eefe-8aea-4054-ab8f-87d6e301ff34","ios":"levelo://app?vid=50e6eefe-8aea-4054-ab8f-87d6e301ff34"},"vehicle_type_id":"4","last_reported":1766085120,"current_range_meters":6400,"station_id":"","pricing_plan_id":"cebpf4jnsgd1na2vs0mg"},{"bike_id":"a1ac0ba7-1483-464e-9caa-755fc64f46a4","system_id":"levelo_inurba_marseille","lat":43.24074,"lon":5.37794,"is_reserved":false,"is_disabled":false,"rental_uris":{"android":"levelo://app?vid=a1ac0ba7-1483-464e-9caa-755fc64f46a4","ios":"levelo://app?vid=a1ac0ba7-1483-464e-9caa-755fc64f46a4"},"vehicle_type_id":"4","last_reported":1766085120,"current_range_meters":6400,"station_id":"ce4bhnp2rcd13ifvqgvg","pricing_plan_id":"cebpf4jnsgd1na2vs0mg"},{"bike_id":"1bd72c1e-8c41-403d-9d03-84456e55c922","system_id":"levelo_inurba_marseille","lat":43.3053,"lon":5.36712,"is_reserved":false,"is_disabled":false,"rental_uris":{"android":"levelo://app?vid=1bd72c1e-8c41-403d-9d03-84456e55c922","ios":"levelo://app?vid=1bd72c1e-8c41-403d-9d03-84456e55c922"},"vehicle_type_id":"4","last_reported":1766085120,"current_range_meters":6800,"station_id":"ce4bgrp2rcd13ifvqc9g","pricing_plan_id":"cebpf4jnsgd1na2vs0mg"},{"bike_id":"4b071145-dbc9-4cae-a01a-028928598764","system_id":"levelo_inurba_marseille","lat":43.29029,"lon":5.38639,"is_reserved":false,"is_disabled":false,"rental_uris":{"android":"levelo://app?vid=4b071145-dbc9-4cae-a01a-028928598764","ios":"levelo://app?vid=4b071145-dbc9-4cae-a01a-028928598764"},"vehicle_type_id":"4","last_reported":1766085120,"current_range_meters":6800,"station_id":"ce4bh4p2rcd13ifvqe0g","pricing_plan_id":"cebpf4jnsgd1na2vs0mg"},{"bike_id":"65b7a7a1-4ed5-42c9-bc94-96218b4c666c","system_id":"levelo_inurba_marseille","lat":43.26057,"lon":5.39397,"is_reserved":false,"is_disabled":false,"rental_uris":{"android":"levelo://app?vid=65b7a7a1-4ed5-42c9-bc94-96218b4c666c","ios":"levelo://app?vid=65b7a7a1-4ed5-42c9-bc94-96218b4c666c"},"vehicle_type_id":"4","last_reported":1766085120,"current_range_meters":6800,"station_id":"ce4bhh92rcd13ifvqfj0","pricing_plan_id":"cebpf4jnsgd1na2vs0mg"},{"bike_id":"cf90682b-ebdc-45ba-8a34-248880a734d5","system_id":"levelo_inurba_marseille","lat":43.2767,"lon":5.3891,"is_reserved":false,"is_disabled":false,"rental_uris":{"android":"levelo://app?vid=cf90682b-ebdc-45ba-8a34-248880a734d5","ios":"levelo://app?vid=cf90682b-ebdc-45ba-8a34-248880a734d5"},"vehicle_type_id":"4","last_reported":1766085120,"current_range_meters":6800,"station_id":"ce4bhi12rcd13ifvqfo0","pricing_plan_id":"cebpf4jnsgd1na2vs0mg"},{"bike_id":"07102bbf-8e43-4cc8-abfb-b7bffaf00185","system_id":"levelo_inurba_marseille","lat":43.29367,"lon":5.36263,"is_reserved":false,"is_disabled":false,"rental_uris":{"android":"levelo://app?vid=07102bbf-8e43-4cc8-abfb-b7bffaf00185","ios":"levelo://app?vid=07102bbf-8e43-4cc8-abfb-b7bffaf00185"},"vehicle_type_id":"4","last_reported":1766085120,"current_range_meters":6800,"station_id":"","pricing_plan_id":"cebpf4jnsgd1na2vs0mg"},{"bike_id":"c7e5daf3-a6b0-4ffc-8e95-134c47362fa1","system_id":"levelo_inurba_marseille","lat":43.30049,"lon":5.36901,"is_reserved":false,"is_disabled":false,"rental_uris":{"android":"levelo://app?vid=c7e5daf3-a6b0-4ffc-8e95-134c47362fa1","ios":"levelo://app?vid=c7e5daf3-a6b0-4ffc-8e95-134c47362fa1"},"vehicle_type_id":"4","last_reported":1766085120,"current_range_meters":6800,"station_id":"","pricing_plan_id":"cebpf4jnsgd1na2vs0mg"},{"bike_id":"f1f74614-33ac-441f-af80-d784b5e55bd2","system_id":"levelo_inurba_marseille","lat":43.32972,"lon":5.39793,"is_reserved":false,"is_disabled":false,"rental_uris":{"android":"levelo://app?vid=f1f74614-33ac-441f-af80-d784b5e55bd2","ios":"levelo://app?vid=f1f74614-33ac-441f-af80-d784b5e55bd2"},"vehicle_type_id":"4","last_reported":1766085120,"current_range_meters":6800,"station_id":"","pricing_plan_id":"cebpf4jnsgd1na2vs0mg"},{"bike_id":"bc438b77-37cb-46ca-a9b1-8a8cc18a3199","system_id":"levelo_inurba_marseille","lat":43.3096,"lon":5.39023,"is_reserved":false,"is_disabled":false,"rental_uris":{"android":"levelo://app?vid=bc438b77-37cb-46ca-a9b1-8a8cc18a3199","ios":"levelo://app?vid=bc438b77-37cb-46ca-a9b1-8a8cc18a3199"},"vehicle_type_id":"4","last_reported":1766085120,"current_range_meters":6800,"station_id":"ce4bgup2rcd13ifvqco0","pricing_plan_id":"cebpf4jnsgd1na2vs0mg"},{"bike_id":"9e63ea01-4479-4447-9530-758d25bb123e","system_id":"levelo_inurba_marseille","lat":43.286743,"lon":5.38669,"is_reserved":false,"is_disabled":false,"rental_uris":{"android":"levelo://app?vid=9e63ea01-4479-4447-9530-758d25bb123e","ios":"levelo://app?vid=9e63ea01-4479-4447-9530-758d25bb123e"},"vehicle_type_id":"4","last_reported":1766085120,"current_range_meters":6800,"station_id":"","pricing_plan_id":"cebpf4jnsgd1na2vs0mg"},{"bike_id":"4faf66ea-c677-4f60-969b-fd8cbbb5eab2","system_id":"levelo_inurba_marseille","lat":43.25512,"lon":5.37655,"is_reserved":false,"is_disabled":false,"rental_uris":{"android":"levelo://app?vid=4faf66ea-c677-4f60-969b-fd8cbbb5eab2","ios":"levelo://app?vid=4faf66ea-c677-4f60-969b-fd8cbbb5eab2"},"vehicle_type_id":"4","last_reported":1766085120,"current_range_meters":7200,"station_id":"ce4bhh12rcd13ifvqff0","pricing_plan_id":"cebpf4jnsgd1na2vs0mg"},{"bike_id":"467517c8-ed87-4e02-bef8-4ed63963538d","system_id":"levelo_inurba_marseille","lat":43.27183,"lon":5.40998,"is_reserved":false,"is_disabled":true,"rental_uris":{"android":"levelo://app?vid=467517c8-ed87-4e02-bef8-4ed63963538d","ios":"levelo://app?vid=467517c8-ed87-4e02-bef8-4ed63963538d"},"vehicle_type_id":"4","last_reported":1766085120,"current_range_meters":7200,"station_id":"ce4bhl12rcd13ifvqgf0","pricing_plan_id":"cebpf4jnsgd1na2vs0mg"},{"bike_id":"eda35f4f-aa10-4f26-8ac1-bd61d51e3339","system_id":"levelo_inurba_marseille","lat":43.292603,"lon":5.384293,"is_reserved":false,"is_disabled":false,"rental_uris":{"android":"levelo://app?vid=eda35f4f-aa10-4f26-8ac1-bd61d51e3339","ios":"levelo://app?vid=eda35f4f-aa10-4f26-8ac1-bd61d51e3339"},"vehicle_type_id":"4","last_reported":1766085120,"current_range_meters":7200,"station_id":"ce4bh692rcd13ifvqea0","pricing_plan_id":"cebpf4jnsgd1na2vs0mg"},{"bike_id":"752fb379-e08f-4faa-b9da-fb84129a1cac","system_id":"levelo_inurba_marseille","lat":43.30932,"lon":5.40136,"is_reserved":false,"is_disabled":false,"rental_uris":{"android":"levelo://app?vid=752fb379-e08f-4faa-b9da-fb84129a1cac","ios":"levelo://app?vid=752fb379-e08f-4faa-b9da-fb84129a1cac"},"vehicle_type_id":"4","last_reported":1766085120,"current_range_meters":7200,"station_id":"ce4bgvp2rcd13ifvqct0","pricing_plan_id":"cebpf4jnsgd1na2vs0mg"},{"bike_id":"9cb52630-f8b4-4ff3-9ddb-fd021bf763e2","system_id":"levelo_inurba_marseille","lat":43.2987,"lon":5.37141,"is_reserved":false,"is_disabled":false,"rental_uris":{"android":"levelo://app?vid=9cb52630-f8b4-4ff3-9ddb-fd021bf763e2","ios":"levelo://app?vid=9cb52630-f8b4-4ff3-9ddb-fd021bf763e2"},"vehicle_type_id":"4","last_reported":1766085120,"current_range_meters":7200,"station_id":"","pricing_plan_id":"cebpf4jnsgd1na2vs0mg"},{"bike_id":"4e3be183-ed77-4e17-9420-24be7440fa2f","system_id":"levelo_inurba_marseille","lat":43.29295,"lon":5.37452,"is_reserved":false,"is_disabled":false,"rental_uris":{"android":"levelo://app?vid=4e3be183-ed77-4e17-9420-24be7440fa2f","ios":"levelo://app?vid=4e3be183-ed77-4e17-9420-24be7440fa2f"},"vehicle_type_id":"4","last_reported":1766085120,"current_range_meters":8000,"station_id":"ce4bgi12rcd13ifvqb70","pricing_plan_id":"cebpf4jnsgd1na2vs0mg"},{"bike_id":"00fd2dcb-6faf-4c7a-8c99-525909084655","system_id":"levelo_inurba_marseille","lat":43.28167,"lon":5.42631,"is_reserved":false,"is_disabled":true,"rental_uris":{"android":"levelo://app?vid=00fd2dcb-6faf-4c7a-8c99-525909084655","ios":"levelo://app?vid=00fd2dcb-6faf-4c7a-8c99-525909084655"},"vehicle_type_id":"4","last_reported":1766085120,"current_range_meters":8000,"station_id":"ce4bhnh2rcd13ifvqgug","pricing_plan_id":"cebpf4jnsgd1na2vs0mg"},{"bike_id":"db95ead4-0a8c-4816-8de0-12777ba2811c","system_id":"levelo_inurba_marseille","lat":43.28481,"lon":5.384189,"is_reserved":false,"is_disabled":false,"rental_uris":{"android":"levelo://app?vid=db95ead4-0a8c-4816-8de0-12777ba2811c","ios":"levelo://app?vid=db95ead4-0a8c-4816-8de0-12777ba2811c"},"vehicle_type_id":"4","last_reported":1766085120,"current_range_meters":8000,"station_id":"","pricing_plan_id":"cebpf4jnsgd1na2vs0mg"},{"bike_id":"d76b9a7a-e1a7-4c30-b0ba-ec4a944cdef2","system_id":"levelo_inurba_marseille","lat":43.3014,"lon":5.39856,"is_reserved":false,"is_disabled":false,"rental_uris":{"android":"levelo://app?vid=d76b9a7a-e1a7-4c30-b0ba-ec4a944cdef2","ios":"levelo://app?vid=d76b9a7a-e1a7-4c30-b0ba-ec4a944cdef2"},"vehicle_type_id":"4","last_reported":1766085120,"current_range_meters":8000,"station_id":"ce4bh0h2rcd13ifvqd40","pricing_plan_id":"cebpf4jnsgd1na2vs0mg"},{"bike_id":"a9adc8bf-52f1-4c31-a2de-42743dd086bf","system_id":"levelo_inurba_marseille","lat":43.33723,"lon":5.3748,"is_reserved":false,"is_disabled":false,"rental_uris":{"android":"levelo://app?vid=a9adc8bf-52f1-4c31-a2de-42743dd086bf","ios":"levelo://app?vid=a9adc8bf-52f1-4c31-a2de-42743dd086bf"},"vehicle_type_id":"4","last_reported":1766085120,"current_range_meters":8000,"station_id":"","pricing_plan_id":"cebpf4jnsgd1na2vs0mg"},{"bike_id":"bae564ee-2076-42df-8374-dc7ac77cb974","system_id":"levelo_inurba_marseille","lat":43.31274,"lon":5.3689,"is_reserved":false,"is_disabled":false,"rental_uris":{"android":"levelo://app?vid=bae564ee-2076-42df-8374-dc7ac77cb974","ios":"levelo://app?vid=bae564ee-2076-42df-8374-dc7ac77cb974"},"vehicle_type_id":"4","last_reported":1766085120,"current_range_meters":8000,"station_id":"ce4bgl92rcd13ifvqbq0","pricing_plan_id":"cebpf4jnsgd1na2vs0mg"},{"bike_id":"ca4a5d3e-7c80-4af0-b380-70f719236d4f","system_id":"levelo_inurba_marseille","lat":43.29615,"lon":5.37727,"is_reserved":false,"is_disabled":false,"rental_uris":{"android":"levelo://app?vid=ca4a5d3e-7c80-4af0-b380-70f719236d4f","ios":"levelo://app?vid=ca4a5d3e-7c80-4af0-b380-70f719236d4f"},"vehicle_type_id":"4","last_reported":1766085120,"current_range_meters":8400,"station_id":"ce4bgi92rcd13ifvqb90","pricing_plan_id":"cebpf4jnsgd1na2vs0mg"},{"bike_id":"3418b159-b86a-4a29-9eee-180d4aefe5dd","system_id":"levelo_inurba_marseille","lat":43.303252,"lon":5.404358,"is_reserved":false,"is_disabled":false,"rental_uris":{"android":"levelo://app?vid=3418b159-b86a-4a29-9eee-180d4aefe5dd","ios":"levelo://app?vid=3418b159-b86a-4a29-9eee-180d4aefe5dd"},"vehicle_type_id":"4","last_reported":1766085120,"current_range_meters":8400,"station_id":"ce4bh012rcd13ifvqd10","pricing_plan_id":"cebpf4jnsgd1na2vs0mg"},{"bike_id":"9cd0b5cd-982d-46c9-b94d-972458c0583a","system_id":"levelo_inurba_marseille","lat":43.30639,"lon":5.37356,"is_reserved":false,"is_disabled":false,"rental_uris":{"android":"levelo://app?vid=9cd0b5cd-982d-46c9-b94d-972458c0583a","ios":"levelo://app?vid=9cd0b5cd-982d-46c9-b94d-972458c0583a"},"vehicle_type_id":"4","last_reported":1766085120,"current_range_meters":8400,"station_id":"","pricing_plan_id":"cebpf4jnsgd1na2vs0mg"},{"bike_id":"da18a3b0-ce97-43eb-b181-936e440b40e5","system_id":"levelo_inurba_marseille","lat":43.31703,"lon":5.40385,"is_reserved":false,"is_disabled":false,"rental_uris":{"android":"levelo://app?vid=da18a3b0-ce97-43eb-b181-936e440b40e5","ios":"levelo://app?vid=da18a3b0-ce97-43eb-b181-936e440b40e5"},"vehicle_type_id":"4","last_reported":1766085120,"current_range_meters":8400,"station_id":"","pricing_plan_id":"cebpf4jnsgd1na2vs0mg"},{"bike_id":"b0ad9c74-efd9-4243-b59c-6db813239e72","system_id":"levelo_inurba_marseille","lat":43.31055,"lon":5.37162,"is_reserved":false,"is_disabled":false,"rental_uris":{"android":"levelo://app?vid=b0ad9c74-efd9-4243-b59c-6db813239e72","ios":"levelo://app?vid=b0ad9c74-efd9-4243-b59c-6db813239e72"},"vehicle_type_id":"4","last_reported":1766085120,"current_range_meters":8400,"station_id":"st_d4kl2rp97mjs73e7tdfg","pricing_plan_id":"cebpf4jnsgd1na2vs0mg"},{"bike_id":"453fae45-0294-43a2-b043-7e7789079a54","system_id":"levelo_inurba_marseille","lat":43.25719,"lon":5.41115,"is_reserved":false,"is_disabled":false,"rental_uris":{"android":"levelo://app?vid=453fae45-0294-43a2-b043-7e7789079a54","ios":"levelo://app?vid=453fae45-0294-43a2-b043-7e7789079a54"},"vehicle_type_id":"4","last_reported":1766085120,"current_range_meters":8400,"station_id":"ce4bhkp2rcd13ifvqgd0","pricing_plan_id":"cebpf4jnsgd1na2vs0mg"},{"bike_id":"3cde007c-a409-4597-91e7-ca2461274ad1","system_id":"levelo_inurba_marseille","lat":43.26579,"lon":5.40166,"is_reserved":false,"is_disabled":false,"rental_uris":{"android":"levelo://app?vid=3cde007c-a409-4597-91e7-ca2461274ad1","ios":"levelo://app?vid=3cde007c-a409-4597-91e7-ca2461274ad1"},"vehicle_type_id":"4","last_reported":1766085120,"current_range_meters":8800,"station_id":"","pricing_plan_id":"cebpf4jnsgd1na2vs0mg"},{"bike_id":"aa0bafa5-91ae-44cf-9e4a-d66aaa5afe34","system_id":"levelo_inurba_marseille","lat":43.28675,"lon":5.38663,"is_reserved":false,"is_disabled":false,"rental_uris":{"android":"levelo://app?vid=aa0bafa5-91ae-44cf-9e4a-d66aaa5afe34","ios":"levelo://app?vid=aa0bafa5-91ae-44cf-9e4a-d66aaa5afe34"},"vehicle_type_id":"4","last_reported":1766085120,"current_range_meters":8800,"station_id":"ce4bh492rcd13ifvqdug","pricing_plan_id":"cebpf4jnsgd1na2vs0mg"},{"bike_id":"7a4dda5c-d687-4861-9310-230905128690","system_id":"levelo_inurba_marseille","lat":43.30085,"lon":5.39074,"is_reserved":false,"is_disabled":false,"rental_uris":{"android":"levelo://app?vid=7a4dda5c-d687-4861-9310-230905128690","ios":"levelo://app?vid=7a4dda5c-d687-4861-9310-230905128690"},"vehicle_type_id":"4","last_reported":1766085120,"current_range_meters":8800,"station_id":"ce4bh192rcd13ifvqdb0","pricing_plan_id":"cebpf4jnsgd1na2vs0mg"},{"bike_id":"ebcd0d10-df3c-4e1d-91fb-3b7f9f34f179","system_id":"levelo_inurba_marseille","lat":43.298807,"lon":5.397287,"is_reserved":false,"is_disabled":false,"rental_uris":{"android":"levelo://app?vid=ebcd0d10-df3c-4e1d-91fb-3b7f9f34f179","ios":"levelo://app?vid=ebcd0d10-df3c-4e1d-91fb-3b7f9f34f179"},"vehicle_type_id":"4","last_reported":1766085120,"current_range_meters":8800,"station_id":"ce4bh0h2rcd13ifvqd50","pricing_plan_id":"cebpf4jnsgd1na2vs0mg"},{"bike_id":"507fb568-d4a3-4568-84f1-99df0751a0ce","system_id":"levelo_inurba_marseille","lat":43.2872,"lon":5.36098,"is_reserved":false,"is_disabled":false,"rental_uris":{"android":"levelo://app?vid=507fb568-d4a3-4568-84f1-99df0751a0ce","ios":"levelo://app?vid=507fb568-d4a3-4568-84f1-99df0751a0ce"},"vehicle_type_id":"4","last_reported":1766085120,"current_range_meters":8800,"station_id":"cki0cbj6b192h4jlfktg","pricing_plan_id":"cebpf4jnsgd1na2vs0mg"},{"bike_id":"f9902b54-359a-4a2d-9dab-8d982ebd9f4d","system_id":"levelo_inurba_marseille","lat":43.296198,"lon":5.377091,"is_reserved":false,"is_disabled":false,"rental_uris":{"android":"levelo://app?vid=f9902b54-359a-4a2d-9dab-8d982ebd9f4d","ios":"levelo://app?vid=f9902b54-359a-4a2d-9dab-8d982ebd9f4d"},"vehicle_type_id":"4","last_reported":1766085120,"current_range_meters":8800,"station_id":"","pricing_plan_id":"cebpf4jnsgd1na2vs0mg"},{"bike_id":"67ed24eb-4739-4e27-bdc7-ff3eaeb4e0aa","system_id":"levelo_inurba_marseille","lat":43.2949,"lon":5.43299,"is_reserved":false,"is_disabled":false,"rental_uris":{"android":"levelo://app?vid=67ed24eb-4739-4e27-bdc7-ff3eaeb4e0aa","ios":"levelo://app?vid=67ed24eb-4739-4e27-bdc7-ff3eaeb4e0aa"},"vehicle_type_id":"4","last_reported":1766085120,"current_range_meters":8800,"station_id":"st_d3j5ugp08ojc73fj9d10","pricing_plan_id":"cebpf4jnsgd1na2vs0mg"},{"bike_id":"7ba54602-568d-42aa-bd74-9550f527b3b9","system_id":"levelo_inurba_marseille","lat":43.28848,"lon":5.35843,"is_reserved":false,"is_disabled":false,"rental_uris":{"android":"levelo://app?vid=7ba54602-568d-42aa-bd74-9550f527b3b9","ios":"levelo://app?vid=7ba54602-568d-42aa-bd74-9550f527b3b9"},"vehicle_type_id":"4","last_reported":1766085120,"current_range_meters":8800,"station_id":"ce4bhb12rcd13ifvqem0","pricing_plan_id":"cebpf4jnsgd1na2vs0mg"},{"bike_id":"a6365b95-0c1f-4c94-a012-c0e22f4b2a20","system_id":"levelo_inurba_marseille","lat":43.31719,"lon":5.43712,"is_reserved":false,"is_disabled":false,"rental_uris":{"android":"levelo://app?vid=a6365b95-0c1f-4c94-a012-c0e22f4b2a20","ios":"levelo://app?vid=a6365b95-0c1f-4c94-a012-c0e22f4b2a20"},"vehicle_type_id":"4","last_reported":1766085120,"current_range_meters":8800,"station_id":"ce4bhp92rcd13ifvqhcg","pricing_plan_id":"cebpf4jnsgd1na2vs0mg"},{"bike_id":"3cf7648b-d253-4892-b391-ab35505ae7a3","system_id":"levelo_inurba_marseille","lat":43.26571,"lon":5.38993,"is_reserved":false,"is_disabled":false,"rental_uris":{"android":"levelo://app?vid=3cf7648b-d253-4892-b391-ab35505ae7a3","ios":"levelo://app?vid=3cf7648b-d253-4892-b391-ab35505ae7a3"},"vehicle_type_id":"4","last_reported":1766085120,"current_range_meters":8800,"station_id":"ce4bhe12rcd13ifvqf30","pricing_plan_id":"cebpf4jnsgd1na2vs0mg"},{"bike_id":"eb58e5f0-4941-4945-b5c2-9bf18330a049","system_id":"levelo_inurba_marseille","lat":43.29926,"lon":5.3747,"is_reserved":false,"is_disabled":false,"rental_uris":{"android":"levelo://app?vid=eb58e5f0-4941-4945-b5c2-9bf18330a049","ios":"levelo://app?vid=eb58e5f0-4941-4945-b5c2-9bf18330a049"},"vehicle_type_id":"4","last_reported":1766085120,"current_range_meters":9200,"station_id":"ce4bgjh2rcd13ifvqbg0","pricing_plan_id":"cebpf4jnsgd1na2vs0mg"},{"bike_id":"d7a24a10-f55f-49d9-b03f-d2cd6b962d10","system_id":"levelo_inurba_marseille","lat":43.28695,"lon":5.3741,"is_reserved":false,"is_disabled":false,"rental_uris":{"android":"levelo://app?vid=d7a24a10-f55f-49d9-b03f-d2cd6b962d10","ios":"levelo://app?vid=d7a24a10-f55f-49d9-b03f-d2cd6b962d10"},"vehicle_type_id":"4","last_reported":1766085120,"current_range_meters":9200,"station_id":"ce4bh3p2rcd13ifvqdq0","pricing_plan_id":"cebpf4jnsgd1na2vs0mg"},{"bike_id":"8070e6ef-07ff-4ab6-bcac-366200683af8","system_id":"levelo_inurba_marseille","lat":43.29606,"lon":5.38104,"is_reserved":false,"is_disabled":false,"rental_uris":{"android":"levelo://app?vid=8070e6ef-07ff-4ab6-bcac-366200683af8","ios":"levelo://app?vid=8070e6ef-07ff-4ab6-bcac-366200683af8"},"vehicle_type_id":"4","last_reported":1766085120,"current_range_meters":9200,"station_id":"ce4bgl12rcd13ifvqbo0","pricing_plan_id":"cebpf4jnsgd1na2vs0mg"},{"bike_id":"cf13c152-e4dd-4b85-ac0d-76fed9bd52f3","system_id":"levelo_inurba_marseille","lat":43.28615,"lon":5.35103,"is_reserved":false,"is_disabled":false,"rental_uris":{"android":"levelo://app?vid=cf13c152-e4dd-4b85-ac0d-76fed9bd52f3","ios":"levelo://app?vid=cf13c152-e4dd-4b85-ac0d-76fed9bd52f3"},"vehicle_type_id":"4","last_reported":1766085120,"current_range_meters":9200,"station_id":"ce4bhch2rcd13ifvqeug","pricing_plan_id":"cebpf4jnsgd1na2vs0mg"},{"bike_id":"f1923ea4-f55f-4c2c-b01a-d14712855a45","system_id":"levelo_inurba_marseille","lat":43.29266,"lon":5.38439,"is_reserved":false,"is_disabled":false,"rental_uris":{"android":"levelo://app?vid=f1923ea4-f55f-4c2c-b01a-d14712855a45","ios":"levelo://app?vid=f1923ea4-f55f-4c2c-b01a-d14712855a45"},"vehicle_type_id":"4","last_reported":1766085120,"current_range_meters":9200,"station_id":"ce4bh692rcd13ifvqea0","pricing_plan_id":"cebpf4jnsgd1na2vs0mg"},{"bike_id":"1d88944a-f283-44b4-9a36-9af559e58021","system_id":"levelo_inurba_marseille","lat":43.28672,"lon":5.38679,"is_reserved":false,"is_disabled":false,"rental_uris":{"android":"levelo://app?vid=1d88944a-f283-44b4-9a36-9af559e58021","ios":"levelo://app?vid=1d88944a-f283-44b4-9a36-9af559e58021"},"vehicle_type_id":"4","last_reported":1766085120,"current_range_meters":9200,"station_id":"ce4bh492rcd13ifvqdug","pricing_plan_id":"cebpf4jnsgd1na2vs0mg"},{"bike_id":"3ff94115-0007-4108-afda-4576fdcf1892","system_id":"levelo_inurba_marseille","lat":43.30327,"lon":5.40436,"is_reserved":false,"is_disabled":false,"rental_uris":{"android":"levelo://app?vid=3ff94115-0007-4108-afda-4576fdcf1892","ios":"levelo://app?vid=3ff94115-0007-4108-afda-4576fdcf1892"},"vehicle_type_id":"4","last_reported":1766085120,"current_range_meters":9600,"station_id":"ce4bh012rcd13ifvqd10","pricing_plan_id":"cebpf4jnsgd1na2vs0mg"},{"bike_id":"405614b9-410a-460b-bbef-e3df05f27ba3","system_id":"levelo_inurba_marseille","lat":43.29198,"lon":5.39322,"is_reserved":false,"is_disabled":false,"rental_uris":{"android":"levelo://app?vid=405614b9-410a-460b-bbef-e3df05f27ba3","ios":"levelo://app?vid=405614b9-410a-460b-bbef-e3df05f27ba3"},"vehicle_type_id":"4","last_reported":1766085120,"current_range_meters":9600,"station_id":"ce4bh192rcd13ifvqdd0","pricing_plan_id":"cebpf4jnsgd1na2vs0mg"},{"bike_id":"37acae82-d1d0-450a-bf9a-b56251eaf3bb","system_id":"levelo_inurba_marseille","lat":43.22936,"lon":5.35373,"is_reserved":false,"is_disabled":false,"rental_uris":{"android":"levelo://app?vid=37acae82-d1d0-450a-bf9a-b56251eaf3bb","ios":"levelo://app?vid=37acae82-d1d0-450a-bf9a-b56251eaf3bb"},"vehicle_type_id":"4","last_reported":1766085120,"current_range_meters":9600,"station_id":"cpo3532slgdg3j2ikp40","pricing_plan_id":"cebpf4jnsgd1na2vs0mg"},{"bike_id":"81508f0a-e327-4705-ae72-228165570b37","system_id":"levelo_inurba_marseille","lat":43.251,"lon":5.38964,"is_reserved":false,"is_disabled":false,"rental_uris":{"android":"levelo://app?vid=81508f0a-e327-4705-ae72-228165570b37","ios":"levelo://app?vid=81508f0a-e327-4705-ae72-228165570b37"},"vehicle_type_id":"4","last_reported":1766085120,"current_range_meters":9600,"station_id":"","pricing_plan_id":"cebpf4jnsgd1na2vs0mg"},{"bike_id":"72791d0f-8c58-4380-ad24-56fce68b1de9","system_id":"levelo_inurba_marseille","lat":43.27371,"lon":5.36248,"is_reserved":false,"is_disabled":false,"rental_uris":{"android":"levelo://app?vid=72791d0f-8c58-4380-ad24-56fce68b1de9","ios":"levelo://app?vid=72791d0f-8c58-4380-ad24-56fce68b1de9"},"vehicle_type_id":"4","last_reported":1766085120,"current_range_meters":9600,"station_id":"ce4bhbh2rcd13ifvqeo0","pricing_plan_id":"cebpf4jnsgd1na2vs0mg"},{"bike_id":"9a3d7d62-61d2-4eda-b573-080611517549","system_id":"levelo_inurba_marseille","lat":43.28611,"lon":5.35102,"is_reserved":false,"is_disabled":false,"rental_uris":{"android":"levelo://app?vid=9a3d7d62-61d2-4eda-b573-080611517549","ios":"levelo://app?vid=9a3d7d62-61d2-4eda-b573-080611517549"},"vehicle_type_id":"4","last_reported":1766085120,"current_range_meters":9600,"station_id":"ce4bhch2rcd13ifvqeug","pricing_plan_id":"cebpf4jnsgd1na2vs0mg"},{"bike_id":"c4017b15-6fa8-47d8-b7eb-b12a31bc1452","system_id":"levelo_inurba_marseille","lat":43.28675,"lon":5.38676,"is_reserved":false,"is_disabled":false,"rental_uris":{"android":"levelo://app?vid=c4017b15-6fa8-47d8-b7eb-b12a31bc1452","ios":"levelo://app?vid=c4017b15-6fa8-47d8-b7eb-b12a31bc1452"},"vehicle_type_id":"4","last_reported":1766085120,"current_range_meters":9600,"station_id":"ce4bh492rcd13ifvqdug","pricing_plan_id":"cebpf4jnsgd1na2vs0mg"},{"bike_id":"f87a7598-e6b9-4feb-a6e3-d98d4acd6941","system_id":"levelo_inurba_marseille","lat":43.24174,"lon":5.36407,"is_reserved":false,"is_disabled":false,"rental_uris":{"android":"levelo://app?vid=f87a7598-e6b9-4feb-a6e3-d98d4acd6941","ios":"levelo://app?vid=f87a7598-e6b9-4feb-a6e3-d98d4acd6941"},"vehicle_type_id":"4","last_reported":1766085120,"current_range_meters":9600,"station_id":"cpo36qri1sfpv3e86is0","pricing_plan_id":"cebpf4jnsgd1na2vs0mg"},{"bike_id":"ebfff937-a050-4469-a1e9-0c5f20e9e536","system_id":"levelo_inurba_marseille","lat":43.29196,"lon":5.3932,"is_reserved":false,"is_disabled":false,"rental_uris":{"android":"levelo://app?vid=ebfff937-a050-4469-a1e9-0c5f20e9e536","ios":"levelo://app?vid=ebfff937-a050-4469-a1e9-0c5f20e9e536"},"vehicle_type_id":"4","last_reported":1766085120,"current_range_meters":9600,"station_id":"ce4bh192rcd13ifvqdd0","pricing_plan_id":"cebpf4jnsgd1na2vs0mg"},{"bike_id":"09575982-d1ce-48f3-97ed-c290bec651a2","system_id":"levelo_inurba_marseille","lat":43.28538,"lon":5.44099,"is_reserved":false,"is_disabled":false,"rental_uris":{"android":"levelo://app?vid=09575982-d1ce-48f3-97ed-c290bec651a2","ios":"levelo://app?vid=09575982-d1ce-48f3-97ed-c290bec651a2"},"vehicle_type_id":"4","last_reported":1766085120,"current_range_meters":9600,"station_id":"st_d3j3df2ikq2c7380ej80","pricing_plan_id":"cebpf4jnsgd1na2vs0mg"},{"bike_id":"539241b1-d636-4581-87f5-003d72e485d3","system_id":"levelo_inurba_marseille","lat":43.30098,"lon":5.39073,"is_reserved":false,"is_disabled":false,"rental_uris":{"android":"levelo://app?vid=539241b1-d636-4581-87f5-003d72e485d3","ios":"levelo://app?vid=539241b1-d636-4581-87f5-003d72e485d3"},"vehicle_type_id":"4","last_reported":1766085120,"current_range_meters":9600,"station_id":"ce4bh192rcd13ifvqdb0","pricing_plan_id":"cebpf4jnsgd1na2vs0mg"},{"bike_id":"1c783e39-3092-489d-97e8-0a4c367392b3","system_id":"levelo_inurba_marseille","lat":43.30607,"lon":5.37217,"is_reserved":false,"is_disabled":false,"rental_uris":{"android":"levelo://app?vid=1c783e39-3092-489d-97e8-0a4c367392b3","ios":"levelo://app?vid=1c783e39-3092-489d-97e8-0a4c367392b3"},"vehicle_type_id":"4","last_reported":1766085120,"current_range_meters":10000,"station_id":"ce4bgqh2rcd13ifvqc4g","pricing_plan_id":"cebpf4jnsgd1na2vs0mg"},{"bike_id":"345527b9-e5b3-41dc-86fa-0725a99c666a","system_id":"levelo_inurba_marseille","lat":43.32536,"lon":5.36858,"is_reserved":false,"is_disabled":false,"rental_uris":{"android":"levelo://app?vid=345527b9-e5b3-41dc-86fa-0725a99c666a","ios":"levelo://app?vid=345527b9-e5b3-41dc-86fa-0725a99c666a"},"vehicle_type_id":"4","last_reported":1766085120,"current_range_meters":10000,"station_id":"","pricing_plan_id":"cebpf4jnsgd1na2vs0mg"},{"bike_id":"a24ee5b6-572d-4941-9ef3-a9d89c28bd82","system_id":"levelo_inurba_marseille","lat":43.305392,"lon":5.367061,"is_reserved":false,"is_disabled":false,"rental_uris":{"android":"levelo://app?vid=a24ee5b6-572d-4941-9ef3-a9d89c28bd82","ios":"levelo://app?vid=a24ee5b6-572d-4941-9ef3-a9d89c28bd82"},"vehicle_type_id":"4","last_reported":1766085120,"current_range_meters":10000,"station_id":"ce4bgrp2rcd13ifvqc9g","pricing_plan_id":"cebpf4jnsgd1na2vs0mg"},{"bike_id":"c8ae05dc-be68-4290-a207-222d34083f3e","system_id":"levelo_inurba_marseille","lat":43.28306,"lon":5.38919,"is_reserved":false,"is_disabled":false,"rental_uris":{"android":"levelo://app?vid=c8ae05dc-be68-4290-a207-222d34083f3e","ios":"levelo://app?vid=c8ae05dc-be68-4290-a207-222d34083f3e"},"vehicle_type_id":"4","last_reported":1766085120,"current_range_meters":10000,"station_id":"","pricing_plan_id":"cebpf4jnsgd1na2vs0mg"},{"bike_id":"51f43a5f-2a5a-4c8a-847c-1c5481be0271","system_id":"levelo_inurba_marseille","lat":43.30594,"lon":5.366927,"is_reserved":false,"is_disabled":true,"rental_uris":{"android":"levelo://app?vid=51f43a5f-2a5a-4c8a-847c-1c5481be0271","ios":"levelo://app?vid=51f43a5f-2a5a-4c8a-847c-1c5481be0271"},"vehicle_type_id":"4","last_reported":1766085120,"current_range_meters":10000,"station_id":"","pricing_plan_id":"cebpf4jnsgd1na2vs0mg"},{"bike_id":"cf0e2dfe-8751-4251-bbd3-3ad00be9f3ad","system_id":"levelo_inurba_marseille","lat":43.28471,"lon":5.48405,"is_reserved":false,"is_disabled":false,"rental_uris":{"android":"levelo://app?vid=cf0e2dfe-8751-4251-bbd3-3ad00be9f3ad","ios":"levelo://app?vid=cf0e2dfe-8751-4251-bbd3-3ad00be9f3ad"},"vehicle_type_id":"4","last_reported":1766085120,"current_range_meters":10000,"station_id":"","pricing_plan_id":"cebpf4jnsgd1na2vs0mg"},{"bike_id":"27b625ab-45ae-4be8-a756-5d51b67fa9cf","system_id":"levelo_inurba_marseille","lat":43.30134,"lon":5.38777,"is_reserved":false,"is_disabled":false,"rental_uris":{"android":"levelo://app?vid=27b625ab-45ae-4be8-a756-5d51b67fa9cf","ios":"levelo://app?vid=27b625ab-45ae-4be8-a756-5d51b67fa9cf"},"vehicle_type_id":"4","last_reported":1766085120,"current_range_meters":10000,"station_id":"ce4bghh2rcd13ifvqb60","pricing_plan_id":"cebpf4jnsgd1na2vs0mg"},{"bike_id":"b69c5b5e-ea9b-4e07-8b9b-f96eadb662b4","system_id":"levelo_inurba_marseille","lat":43.28461,"lon":5.3589,"is_reserved":false,"is_disabled":false,"rental_uris":{"android":"levelo://app?vid=b69c5b5e-ea9b-4e07-8b9b-f96eadb662b4","ios":"levelo://app?vid=b69c5b5e-ea9b-4e07-8b9b-f96eadb662b4"},"vehicle_type_id":"4","last_reported":1766085120,"current_range_meters":10000,"station_id":"ce4bhah2rcd13ifvqei0","pricing_plan_id":"cebpf4jnsgd1na2vs0mg"},{"bike_id":"14337976-0ae2-43fe-82de-8a24b608a97a","system_id":"levelo_inurba_marseille","lat":43.28464,"lon":5.359,"is_reserved":false,"is_disabled":false,"rental_uris":{"android":"levelo://app?vid=14337976-0ae2-43fe-82de-8a24b608a97a","ios":"levelo://app?vid=14337976-0ae2-43fe-82de-8a24b608a97a"},"vehicle_type_id":"4","last_reported":1766085120,"current_range_meters":10000,"station_id":"ce4bhah2rcd13ifvqei0","pricing_plan_id":"cebpf4jnsgd1na2vs0mg"},{"bike_id":"38cf53a6-ff03-4245-b99b-a3c30164292b","system_id":"levelo_inurba_marseille","lat":43.29598,"lon":5.380981,"is_reserved":false,"is_disabled":true,"rental_uris":{"android":"levelo://app?vid=38cf53a6-ff03-4245-b99b-a3c30164292b","ios":"levelo://app?vid=38cf53a6-ff03-4245-b99b-a3c30164292b"},"vehicle_type_id":"4","last_reported":1766085120,"current_range_meters":10800,"station_id":"ce4bgl12rcd13ifvqbo0","pricing_plan_id":"cebpf4jnsgd1na2vs0mg"},{"bike_id":"4a614ce4-d61c-499d-8955-0569e02f377b","system_id":"levelo_inurba_marseille","lat":43.275141,"lon":5.372692,"is_reserved":false,"is_disabled":false,"rental_uris":{"android":"levelo://app?vid=4a614ce4-d61c-499d-8955-0569e02f377b","ios":"levelo://app?vid=4a614ce4-d61c-499d-8955-0569e02f377b"},"vehicle_type_id":"4","last_reported":1766085120,"current_range_meters":10800,"station_id":"","pricing_plan_id":"cebpf4jnsgd1na2vs0mg"},{"bike_id":"6a1e1967-fdaf-4e65-ae26-1571d7f0290c","system_id":"levelo_inurba_marseille","lat":43.337605,"lon":5.374353,"is_reserved":false,"is_disabled":false,"rental_uris":{"android":"levelo://app?vid=6a1e1967-fdaf-4e65-ae26-1571d7f0290c","ios":"levelo://app?vid=6a1e1967-fdaf-4e65-ae26-1571d7f0290c"},"vehicle_type_id":"4","last_reported":1766085120,"current_range_meters":10800,"station_id":"","pricing_plan_id":"cebpf4jnsgd1na2vs0mg"},{"bike_id":"453f1184-f82d-4436-816a-2c45caf5ef82","system_id":"levelo_inurba_marseille","lat":43.301,"lon":5.39087,"is_reserved":false,"is_disabled":false,"rental_uris":{"android":"levelo://app?vid=453f1184-f82d-4436-816a-2c45caf5ef82","ios":"levelo://app?vid=453f1184-f82d-4436-816a-2c45caf5ef82"},"vehicle_type_id":"4","last_reported":1766085120,"current_range_meters":10800,"station_id":"ce4bh192rcd13ifvqdb0","pricing_plan_id":"cebpf4jnsgd1na2vs0mg"},{"bike_id":"ee6f7e5c-24b4-4046-a3ec-072080785116","system_id":"levelo_inurba_marseille","lat":43.21736,"lon":5.34567,"is_reserved":false,"is_disabled":true,"rental_uris":{"android":"levelo://app?vid=ee6f7e5c-24b4-4046-a3ec-072080785116","ios":"levelo://app?vid=ee6f7e5c-24b4-4046-a3ec-072080785116"},"vehicle_type_id":"4","last_reported":1766085120,"current_range_meters":10800,"station_id":"st_cvj6r9ubvosntc0bgbag","pricing_plan_id":"cebpf4jnsgd1na2vs0mg"},{"bike_id":"1b3c2c60-6ff2-4726-98a5-0e15725bfce9","system_id":"levelo_inurba_marseille","lat":43.29593,"lon":5.36758,"is_reserved":false,"is_disabled":false,"rental_uris":{"android":"levelo://app?vid=1b3c2c60-6ff2-4726-98a5-0e15725bfce9","ios":"levelo://app?vid=1b3c2c60-6ff2-4726-98a5-0e15725bfce9"},"vehicle_type_id":"4","last_reported":1766085120,"current_range_meters":10800,"station_id":"ce4bgph2rcd13ifvqc2g","pricing_plan_id":"cebpf4jnsgd1na2vs0mg"},{"bike_id":"bd47acfe-2f1c-4624-b949-7c14c9226394","system_id":"levelo_inurba_marseille","lat":43.30424,"lon":5.41269,"is_reserved":false,"is_disabled":false,"rental_uris":{"android":"levelo://app?vid=bd47acfe-2f1c-4624-b949-7c14c9226394","ios":"levelo://app?vid=bd47acfe-2f1c-4624-b949-7c14c9226394"},"vehicle_type_id":"4","last_reported":1766085120,"current_range_meters":10800,"station_id":"ce4bhop2rcd13ifvqh8g","pricing_plan_id":"cebpf4jnsgd1na2vs0mg"},{"bike_id":"3475609a-2e5d-412d-a2e5-147e14fbc833","system_id":"levelo_inurba_marseille","lat":43.28106,"lon":5.37835,"is_reserved":false,"is_disabled":false,"rental_uris":{"android":"levelo://app?vid=3475609a-2e5d-412d-a2e5-147e14fbc833","ios":"levelo://app?vid=3475609a-2e5d-412d-a2e5-147e14fbc833"},"vehicle_type_id":"4","last_reported":1766085120,"current_range_meters":10800,"station_id":"ce4bha12rcd13ifvqee0","pricing_plan_id":"cebpf4jnsgd1na2vs0mg"},{"bike_id":"09989b0f-21d1-46c5-86f8-520ee64c9802","system_id":"levelo_inurba_marseille","lat":43.30721,"lon":5.42436,"is_reserved":false,"is_disabled":false,"rental_uris":{"android":"levelo://app?vid=09989b0f-21d1-46c5-86f8-520ee64c9802","ios":"levelo://app?vid=09989b0f-21d1-46c5-86f8-520ee64c9802"},"vehicle_type_id":"4","last_reported":1766085120,"current_range_meters":10800,"station_id":"st_cvj6ca6bvosntc0bfgr0","pricing_plan_id":"cebpf4jnsgd1na2vs0mg"},{"bike_id":"39ca6217-71c2-4cee-834d-d178880be878","system_id":"levelo_inurba_marseille","lat":43.30893,"lon":5.37188,"is_reserved":false,"is_disabled":true,"rental_uris":{"android":"levelo://app?vid=39ca6217-71c2-4cee-834d-d178880be878","ios":"levelo://app?vid=39ca6217-71c2-4cee-834d-d178880be878"},"vehicle_type_id":"4","last_reported":1766085120,"current_range_meters":10800,"station_id":"ce4bguh2rcd13ifvqckg","pricing_plan_id":"cebpf4jnsgd1na2vs0mg"},{"bike_id":"f0552324-7f16-45f2-af53-7d50398c0e4b","system_id":"levelo_inurba_marseille","lat":43.2921,"lon":5.39352,"is_reserved":false,"is_disabled":true,"rental_uris":{"android":"levelo://app?vid=f0552324-7f16-45f2-af53-7d50398c0e4b","ios":"levelo://app?vid=f0552324-7f16-45f2-af53-7d50398c0e4b"},"vehicle_type_id":"4","last_reported":1766085120,"current_range_meters":10800,"station_id":"","pricing_plan_id":"cebpf4jnsgd1na2vs0mg"},{"bike_id":"e3545456-9ccd-47b9-9f35-1db0fbdf5c17","system_id":"levelo_inurba_marseille","lat":43.28527,"lon":5.44102,"is_reserved":false,"is_disabled":false,"rental_uris":{"android":"levelo://app?vid=e3545456-9ccd-47b9-9f35-1db0fbdf5c17","ios":"levelo://app?vid=e3545456-9ccd-47b9-9f35-1db0fbdf5c17"},"vehicle_type_id":"4","last_reported":1766085120,"current_range_meters":10800,"station_id":"st_d3j3df2ikq2c7380ej80","pricing_plan_id":"cebpf4jnsgd1na2vs0mg"},{"bike_id":"4b6c7f95-06c6-43e2-a689-61e0e40511db","system_id":"levelo_inurba_marseille","lat":43.28362,"lon":5.38636,"is_reserved":false,"is_disabled":false,"rental_uris":{"android":"levelo://app?vid=4b6c7f95-06c6-43e2-a689-61e0e40511db","ios":"levelo://app?vid=4b6c7f95-06c6-43e2-a689-61e0e40511db"},"vehicle_type_id":"4","last_reported":1766085120,"current_range_meters":10800,"station_id":"ce4bh492rcd13ifvqdvg","pricing_plan_id":"cebpf4jnsgd1na2vs0mg"},{"bike_id":"0e5605a0-8a9b-4110-930b-7d8a6198266d","system_id":"levelo_inurba_marseille","lat":43.32383,"lon":5.38498,"is_reserved":false,"is_disabled":false,"rental_uris":{"android":"levelo://app?vid=0e5605a0-8a9b-4110-930b-7d8a6198266d","ios":"levelo://app?vid=0e5605a0-8a9b-4110-930b-7d8a6198266d"},"vehicle_type_id":"4","last_reported":1766085120,"current_range_meters":10800,"station_id":"st_d45171o9ee8s73djdqug","pricing_plan_id":"cebpf4jnsgd1na2vs0mg"},{"bike_id":"9a4090b1-3af1-4620-96cb-2dd026585aca","system_id":"levelo_inurba_marseille","lat":43.32392,"lon":5.36595,"is_reserved":false,"is_disabled":false,"rental_uris":{"android":"levelo://app?vid=9a4090b1-3af1-4620-96cb-2dd026585aca","ios":"levelo://app?vid=9a4090b1-3af1-4620-96cb-2dd026585aca"},"vehicle_type_id":"4","last_reported":1766085120,"current_range_meters":10800,"station_id":"","pricing_plan_id":"cebpf4jnsgd1na2vs0mg"},{"bike_id":"a5796e24-e2b8-4ead-adc8-50f93c5077cd","system_id":"levelo_inurba_marseille","lat":43.28394,"lon":5.37534,"is_reserved":false,"is_disabled":false,"rental_uris":{"android":"levelo://app?vid=a5796e24-e2b8-4ead-adc8-50f93c5077cd","ios":"levelo://app?vid=a5796e24-e2b8-4ead-adc8-50f93c5077cd"},"vehicle_type_id":"4","last_reported":1766085120,"current_range_meters":10800,"station_id":"ce4bh412rcd13ifvqds0","pricing_plan_id":"cebpf4jnsgd1na2vs0mg"},{"bike_id":"b4b307c8-c6f1-41bc-a96b-8e09cb7938ac","system_id":"levelo_inurba_marseille","lat":43.27685,"lon":5.38891,"is_reserved":false,"is_disabled":false,"rental_uris":{"android":"levelo://app?vid=b4b307c8-c6f1-41bc-a96b-8e09cb7938ac","ios":"levelo://app?vid=b4b307c8-c6f1-41bc-a96b-8e09cb7938ac"},"vehicle_type_id":"4","last_reported":1766085120,"current_range_meters":10800,"station_id":"ce4bhi12rcd13ifvqfo0","pricing_plan_id":"cebpf4jnsgd1na2vs0mg"},{"bike_id":"436e467e-3ef8-4484-b12e-82fd46509f97","system_id":"levelo_inurba_marseille","lat":43.23302,"lon":5.44362,"is_reserved":false,"is_disabled":false,"rental_uris":{"android":"levelo://app?vid=436e467e-3ef8-4484-b12e-82fd46509f97","ios":"levelo://app?vid=436e467e-3ef8-4484-b12e-82fd46509f97"},"vehicle_type_id":"4","last_reported":1766085120,"current_range_meters":11200,"station_id":"","pricing_plan_id":"cebpf4jnsgd1na2vs0mg"},{"bike_id":"caa296d3-3cc5-4a69-b445-5ef39d3f3433","system_id":"levelo_inurba_marseille","lat":43.28575,"lon":5.39491,"is_reserved":false,"is_disabled":false,"rental_uris":{"android":"levelo://app?vid=caa296d3-3cc5-4a69-b445-5ef39d3f3433","ios":"levelo://app?vid=caa296d3-3cc5-4a69-b445-5ef39d3f3433"},"vehicle_type_id":"4","last_reported":1766085120,"current_range_meters":11200,"station_id":"ce4bh292rcd13ifvqdg0","pricing_plan_id":"cebpf4jnsgd1na2vs0mg"},{"bike_id":"b6521d11-99b8-43ca-a853-a51747d5db82","system_id":"levelo_inurba_marseille","lat":43.30134,"lon":5.43115,"is_reserved":false,"is_disabled":false,"rental_uris":{"android":"levelo://app?vid=b6521d11-99b8-43ca-a853-a51747d5db82","ios":"levelo://app?vid=b6521d11-99b8-43ca-a853-a51747d5db82"},"vehicle_type_id":"4","last_reported":1766085120,"current_range_meters":11200,"station_id":"st_d3js3co5814s73ftftug","pricing_plan_id":"cebpf4jnsgd1na2vs0mg"},{"bike_id":"7b6a762b-314d-45df-8493-3ed793cbcd5b","system_id":"levelo_inurba_marseille","lat":43.290057,"lon":5.356142,"is_reserved":false,"is_disabled":false,"rental_uris":{"android":"levelo://app?vid=7b6a762b-314d-45df-8493-3ed793cbcd5b","ios":"levelo://app?vid=7b6a762b-314d-45df-8493-3ed793cbcd5b"},"vehicle_type_id":"4","last_reported":1766085120,"current_range_meters":11200,"station_id":"ce4bhb92rcd13ifvqen0","pricing_plan_id":"cebpf4jnsgd1na2vs0mg"},{"bike_id":"bae3e885-687d-4c77-a2f1-c44cb1413f56","system_id":"levelo_inurba_marseille","lat":43.313389,"lon":5.396848,"is_reserved":false,"is_disabled":false,"rental_uris":{"android":"levelo://app?vid=bae3e885-687d-4c77-a2f1-c44cb1413f56","ios":"levelo://app?vid=bae3e885-687d-4c77-a2f1-c44cb1413f56"},"vehicle_type_id":"4","last_reported":1766085120,"current_range_meters":11200,"station_id":"ce4bgvp2rcd13ifvqcu0","pricing_plan_id":"cebpf4jnsgd1na2vs0mg"},{"bike_id":"228ed5e4-a793-4f90-a46f-1e70b2793524","system_id":"levelo_inurba_marseille","lat":43.28625,"lon":5.39871,"is_reserved":false,"is_disabled":true,"rental_uris":{"android":"levelo://app?vid=228ed5e4-a793-4f90-a46f-1e70b2793524","ios":"levelo://app?vid=228ed5e4-a793-4f90-a46f-1e70b2793524"},"vehicle_type_id":"4","last_reported":1766085120,"current_range_meters":11200,"station_id":"st_d4a7ka997mjs738ck50g","pricing_plan_id":"cebpf4jnsgd1na2vs0mg"},{"bike_id":"2f189998-90b6-43f2-96b8-366853f8c615","system_id":"levelo_inurba_marseille","lat":43.29295,"lon":5.37465,"is_reserved":false,"is_disabled":false,"rental_uris":{"android":"levelo://app?vid=2f189998-90b6-43f2-96b8-366853f8c615","ios":"levelo://app?vid=2f189998-90b6-43f2-96b8-366853f8c615"},"vehicle_type_id":"4","last_reported":1766085120,"current_range_meters":11200,"station_id":"ce4bgi12rcd13ifvqb70","pricing_plan_id":"cebpf4jnsgd1na2vs0mg"},{"bike_id":"406ef59a-d66f-41e7-baf6-b1e43a08b0b0","system_id":"levelo_inurba_marseille","lat":43.286865,"lon":5.373892,"is_reserved":false,"is_disabled":false,"rental_uris":{"android":"levelo://app?vid=406ef59a-d66f-41e7-baf6-b1e43a08b0b0","ios":"levelo://app?vid=406ef59a-d66f-41e7-baf6-b1e43a08b0b0"},"vehicle_type_id":"4","last_reported":1766085120,"current_range_meters":11200,"station_id":"ce4bh3p2rcd13ifvqdq0","pricing_plan_id":"cebpf4jnsgd1na2vs0mg"},{"bike_id":"ad628d57-452c-45f3-8595-c7184b2b27b7","system_id":"levelo_inurba_marseille","lat":43.28576,"lon":5.39506,"is_reserved":false,"is_disabled":false,"rental_uris":{"android":"levelo://app?vid=ad628d57-452c-45f3-8595-c7184b2b27b7","ios":"levelo://app?vid=ad628d57-452c-45f3-8595-c7184b2b27b7"},"vehicle_type_id":"4","last_reported":1766085120,"current_range_meters":11200,"station_id":"ce4bh292rcd13ifvqdg0","pricing_plan_id":"cebpf4jnsgd1na2vs0mg"},{"bike_id":"d824e173-e452-437a-aa07-2649c7e0a349","system_id":"levelo_inurba_marseille","lat":43.330231,"lon":5.390366,"is_reserved":false,"is_disabled":false,"rental_uris":{"android":"levelo://app?vid=d824e173-e452-437a-aa07-2649c7e0a349","ios":"levelo://app?vid=d824e173-e452-437a-aa07-2649c7e0a349"},"vehicle_type_id":"4","last_reported":1766085120,"current_range_meters":11200,"station_id":"ce4bhr92rcd13ifvqhrg","pricing_plan_id":"cebpf4jnsgd1na2vs0mg"},{"bike_id":"85f12ccf-5b46-4628-894a-c4095346a940","system_id":"levelo_inurba_marseille","lat":43.27952,"lon":5.41048,"is_reserved":false,"is_disabled":true,"rental_uris":{"android":"levelo://app?vid=85f12ccf-5b46-4628-894a-c4095346a940","ios":"levelo://app?vid=85f12ccf-5b46-4628-894a-c4095346a940"},"vehicle_type_id":"4","last_reported":1766085120,"current_range_meters":11600,"station_id":"ce4bhnp2rcd13ifvqh0g","pricing_plan_id":"cebpf4jnsgd1na2vs0mg"},{"bike_id":"d93a2eaf-abcb-4474-a4da-c69fd5e85e92","system_id":"levelo_inurba_marseille","lat":43.2894,"lon":5.3964,"is_reserved":false,"is_disabled":false,"rental_uris":{"android":"levelo://app?vid=d93a2eaf-abcb-4474-a4da-c69fd5e85e92","ios":"levelo://app?vid=d93a2eaf-abcb-4474-a4da-c69fd5e85e92"},"vehicle_type_id":"4","last_reported":1766085120,"current_range_meters":11600,"station_id":"ce4bh3h2rcd13ifvqdn0","pricing_plan_id":"cebpf4jnsgd1na2vs0mg"},{"bike_id":"7c5b45f0-7283-41de-aee0-d73fad7d098e","system_id":"levelo_inurba_marseille","lat":43.29015,"lon":5.38638,"is_reserved":false,"is_disabled":false,"rental_uris":{"android":"levelo://app?vid=7c5b45f0-7283-41de-aee0-d73fad7d098e","ios":"levelo://app?vid=7c5b45f0-7283-41de-aee0-d73fad7d098e"},"vehicle_type_id":"4","last_reported":1766085120,"current_range_meters":11600,"station_id":"ce4bh4p2rcd13ifvqe0g","pricing_plan_id":"cebpf4jnsgd1na2vs0mg"},{"bike_id":"b0bd22f1-b356-4890-84f7-66bacb27c26f","system_id":"levelo_inurba_marseille","lat":43.284048,"lon":5.375085,"is_reserved":false,"is_disabled":false,"rental_uris":{"android":"levelo://app?vid=b0bd22f1-b356-4890-84f7-66bacb27c26f","ios":"levelo://app?vid=b0bd22f1-b356-4890-84f7-66bacb27c26f"},"vehicle_type_id":"4","last_reported":1766085120,"current_range_meters":11600,"station_id":"ce4bh412rcd13ifvqds0","pricing_plan_id":"cebpf4jnsgd1na2vs0mg"},{"bike_id":"c5365846-c619-4f12-8c92-97c9f9725a15","system_id":"levelo_inurba_marseille","lat":43.29511,"lon":5.37934,"is_reserved":false,"is_disabled":false,"rental_uris":{"android":"levelo://app?vid=c5365846-c619-4f12-8c92-97c9f9725a15","ios":"levelo://app?vid=c5365846-c619-4f12-8c92-97c9f9725a15"},"vehicle_type_id":"4","last_reported":1766085120,"current_range_meters":11600,"station_id":"","pricing_plan_id":"cebpf4jnsgd1na2vs0mg"},{"bike_id":"92623e5b-52ee-402d-a529-e6dda8f91418","system_id":"levelo_inurba_marseille","lat":43.30741,"lon":5.36804,"is_reserved":false,"is_disabled":false,"rental_uris":{"android":"levelo://app?vid=92623e5b-52ee-402d-a529-e6dda8f91418","ios":"levelo://app?vid=92623e5b-52ee-402d-a529-e6dda8f91418"},"vehicle_type_id":"4","last_reported":1766085120,"current_range_meters":11600,"station_id":"","pricing_plan_id":"cebpf4jnsgd1na2vs0mg"},{"bike_id":"374a0371-4968-4fe9-88a9-ac5ffa94b236","system_id":"levelo_inurba_marseille","lat":43.314628,"lon":5.453825,"is_reserved":false,"is_disabled":false,"rental_uris":{"android":"levelo://app?vid=374a0371-4968-4fe9-88a9-ac5ffa94b236","ios":"levelo://app?vid=374a0371-4968-4fe9-88a9-ac5ffa94b236"},"vehicle_type_id":"4","last_reported":1766085120,"current_range_meters":11600,"station_id":"","pricing_plan_id":"cebpf4jnsgd1na2vs0mg"},{"bike_id":"a6bb7fde-2db0-447e-8cac-38a0c3844ce6","system_id":"levelo_inurba_marseille","lat":43.277688,"lon":5.388146,"is_reserved":false,"is_disabled":false,"rental_uris":{"android":"levelo://app?vid=a6bb7fde-2db0-447e-8cac-38a0c3844ce6","ios":"levelo://app?vid=a6bb7fde-2db0-447e-8cac-38a0c3844ce6"},"vehicle_type_id":"4","last_reported":1766085120,"current_range_meters":12000,"station_id":"","pricing_plan_id":"cebpf4jnsgd1na2vs0mg"},{"bike_id":"ce4f0ffd-da11-41ea-a5a8-33cb1134d63e","system_id":"levelo_inurba_marseille","lat":43.28,"lon":5.41668,"is_reserved":false,"is_disabled":false,"rental_uris":{"android":"levelo://app?vid=ce4f0ffd-da11-41ea-a5a8-33cb1134d63e","ios":"levelo://app?vid=ce4f0ffd-da11-41ea-a5a8-33cb1134d63e"},"vehicle_type_id":"4","last_reported":1766085120,"current_range_meters":12000,"station_id":"ce4bho12rcd13ifvqh1g","pricing_plan_id":"cebpf4jnsgd1na2vs0mg"},{"bike_id":"ca5ed2a8-266b-4c8a-8f73-5d90676ff8cc","system_id":"levelo_inurba_marseille","lat":43.27921,"lon":5.39581,"is_reserved":false,"is_disabled":false,"rental_uris":{"android":"levelo://app?vid=ca5ed2a8-266b-4c8a-8f73-5d90676ff8cc","ios":"levelo://app?vid=ca5ed2a8-266b-4c8a-8f73-5d90676ff8cc"},"vehicle_type_id":"4","last_reported":1766085120,"current_range_meters":12000,"station_id":"ce4bhf92rcd13ifvqf40","pricing_plan_id":"cebpf4jnsgd1na2vs0mg"},{"bike_id":"5493cdc5-7629-4540-a62c-ac6638c0d679","system_id":"levelo_inurba_marseille","lat":43.29585,"lon":5.375,"is_reserved":false,"is_disabled":false,"rental_uris":{"android":"levelo://app?vid=5493cdc5-7629-4540-a62c-ac6638c0d679","ios":"levelo://app?vid=5493cdc5-7629-4540-a62c-ac6638c0d679"},"vehicle_type_id":"4","last_reported":1766085120,"current_range_meters":12000,"station_id":"ce4bgh92rcd13ifvqb50","pricing_plan_id":"cebpf4jnsgd1na2vs0mg"},{"bike_id":"d50867a0-a974-4546-a28c-eba4c2e0b399","system_id":"levelo_inurba_marseille","lat":43.23196,"lon":5.35551,"is_reserved":false,"is_disabled":false,"rental_uris":{"android":"levelo://app?vid=d50867a0-a974-4546-a28c-eba4c2e0b399","ios":"levelo://app?vid=d50867a0-a974-4546-a28c-eba4c2e0b399"},"vehicle_type_id":"4","last_reported":1766085120,"current_range_meters":12000,"station_id":"ce4bhu92rcd13ifvqi70","pricing_plan_id":"cebpf4jnsgd1na2vs0mg"},{"bike_id":"52b61354-da80-471d-a0ef-682891b3f0eb","system_id":"levelo_inurba_marseille","lat":43.24394,"lon":5.371,"is_reserved":false,"is_disabled":true,"rental_uris":{"android":"levelo://app?vid=52b61354-da80-471d-a0ef-682891b3f0eb","ios":"levelo://app?vid=52b61354-da80-471d-a0ef-682891b3f0eb"},"vehicle_type_id":"4","last_reported":1766085120,"current_range_meters":12000,"station_id":"ce4bhhh2rcd13ifvqfk0","pricing_plan_id":"cebpf4jnsgd1na2vs0mg"},{"bike_id":"1f8bf9e3-c9bd-4c05-9201-34f9580d25af","system_id":"levelo_inurba_marseille","lat":43.21194,"lon":5.35084,"is_reserved":false,"is_disabled":false,"rental_uris":{"android":"levelo://app?vid=1f8bf9e3-c9bd-4c05-9201-34f9580d25af","ios":"levelo://app?vid=1f8bf9e3-c9bd-4c05-9201-34f9580d25af"},"vehicle_type_id":"4","last_reported":1766085120,"current_range_meters":12000,"station_id":"st_cvj6sg6p6f1abm77japg","pricing_plan_id":"cebpf4jnsgd1na2vs0mg"},{"bike_id":"0d76f9ec-36de-4311-a1ef-897de10e0d0d","system_id":"levelo_inurba_marseille","lat":43.29829,"lon":5.44062,"is_reserved":false,"is_disabled":false,"rental_uris":{"android":"levelo://app?vid=0d76f9ec-36de-4311-a1ef-897de10e0d0d","ios":"levelo://app?vid=0d76f9ec-36de-4311-a1ef-897de10e0d0d"},"vehicle_type_id":"4","last_reported":1766085120,"current_range_meters":12000,"station_id":"st_d3jp68qikq2c7381ktn0","pricing_plan_id":"cebpf4jnsgd1na2vs0mg"},{"bike_id":"da0c886d-bf9d-46c9-ba41-bfd5ae0eda24","system_id":"levelo_inurba_marseille","lat":43.24171,"lon":5.36392,"is_reserved":false,"is_disabled":false,"rental_uris":{"android":"levelo://app?vid=da0c886d-bf9d-46c9-ba41-bfd5ae0eda24","ios":"levelo://app?vid=da0c886d-bf9d-46c9-ba41-bfd5ae0eda24"},"vehicle_type_id":"4","last_reported":1766085120,"current_range_meters":12000,"station_id":"cpo36qri1sfpv3e86is0","pricing_plan_id":"cebpf4jnsgd1na2vs0mg"},{"bike_id":"46f58859-91de-4977-b019-914ead1c28ef","system_id":"levelo_inurba_marseille","lat":43.29267,"lon":5.38446,"is_reserved":false,"is_disabled":false,"rental_uris":{"android":"levelo://app?vid=46f58859-91de-4977-b019-914ead1c28ef","ios":"levelo://app?vid=46f58859-91de-4977-b019-914ead1c28ef"},"vehicle_type_id":"4","last_reported":1766085120,"current_range_meters":12000,"station_id":"ce4bh692rcd13ifvqea0","pricing_plan_id":"cebpf4jnsgd1na2vs0mg"},{"bike_id":"fade1f76-6248-43fe-aeb9-7f93aeff737b","system_id":"levelo_inurba_marseille","lat":43.279139,"lon":5.395666,"is_reserved":false,"is_disabled":true,"rental_uris":{"android":"levelo://app?vid=fade1f76-6248-43fe-aeb9-7f93aeff737b","ios":"levelo://app?vid=fade1f76-6248-43fe-aeb9-7f93aeff737b"},"vehicle_type_id":"4","last_reported":1766085120,"current_range_meters":12000,"station_id":"ce4bhf92rcd13ifvqf40","pricing_plan_id":"cebpf4jnsgd1na2vs0mg"},{"bike_id":"2703f0d3-bbfb-4856-9453-9ba632798534","system_id":"levelo_inurba_marseille","lat":43.305966,"lon":5.372281,"is_reserved":false,"is_disabled":false,"rental_uris":{"android":"levelo://app?vid=2703f0d3-bbfb-4856-9453-9ba632798534","ios":"levelo://app?vid=2703f0d3-bbfb-4856-9453-9ba632798534"},"vehicle_type_id":"4","last_reported":1766085120,"current_range_meters":12000,"station_id":"ce4bgqh2rcd13ifvqc4g","pricing_plan_id":"cebpf4jnsgd1na2vs0mg"},{"bike_id":"e79f34f4-a454-46bc-b7bd-c453550482db","system_id":"levelo_inurba_marseille","lat":43.30543,"lon":5.36707,"is_reserved":false,"is_disabled":false,"rental_uris":{"android":"levelo://app?vid=e79f34f4-a454-46bc-b7bd-c453550482db","ios":"levelo://app?vid=e79f34f4-a454-46bc-b7bd-c453550482db"},"vehicle_type_id":"4","last_reported":1766085120,"current_range_meters":12000,"station_id":"ce4bgrp2rcd13ifvqc9g","pricing_plan_id":"cebpf4jnsgd1na2vs0mg"},{"bike_id":"c9117eea-c0d4-4ccb-a9f6-4615a8776959","system_id":"levelo_inurba_marseille","lat":43.29629,"lon":5.37724,"is_reserved":false,"is_disabled":false,"rental_uris":{"android":"levelo://app?vid=c9117eea-c0d4-4ccb-a9f6-4615a8776959","ios":"levelo://app?vid=c9117eea-c0d4-4ccb-a9f6-4615a8776959"},"vehicle_type_id":"4","last_reported":1766085120,"current_range_meters":12400,"station_id":"ce4bgi92rcd13ifvqb90","pricing_plan_id":"cebpf4jnsgd1na2vs0mg"},{"bike_id":"7d44b5c8-0233-43ab-bd89-dcdb2fc43b56","system_id":"levelo_inurba_marseille","lat":43.240697,"lon":5.377675,"is_reserved":false,"is_disabled":false,"rental_uris":{"android":"levelo://app?vid=7d44b5c8-0233-43ab-bd89-dcdb2fc43b56","ios":"levelo://app?vid=7d44b5c8-0233-43ab-bd89-dcdb2fc43b56"},"vehicle_type_id":"4","last_reported":1766085120,"current_range_meters":12400,"station_id":"","pricing_plan_id":"cebpf4jnsgd1na2vs0mg"},{"bike_id":"08465472-f37b-4c85-82a0-ad3a002fc573","system_id":"levelo_inurba_marseille","lat":43.29088,"lon":5.38148,"is_reserved":false,"is_disabled":false,"rental_uris":{"android":"levelo://app?vid=08465472-f37b-4c85-82a0-ad3a002fc573","ios":"levelo://app?vid=08465472-f37b-4c85-82a0-ad3a002fc573"},"vehicle_type_id":"4","last_reported":1766085120,"current_range_meters":12400,"station_id":"ce4bh512rcd13ifvqe2g","pricing_plan_id":"cebpf4jnsgd1na2vs0mg"},{"bike_id":"baa604eb-f81e-4058-8ec1-399f425db9df","system_id":"levelo_inurba_marseille","lat":43.29261,"lon":5.38442,"is_reserved":false,"is_disabled":false,"rental_uris":{"android":"levelo://app?vid=baa604eb-f81e-4058-8ec1-399f425db9df","ios":"levelo://app?vid=baa604eb-f81e-4058-8ec1-399f425db9df"},"vehicle_type_id":"4","last_reported":1766085120,"current_range_meters":12400,"station_id":"ce4bh692rcd13ifvqea0","pricing_plan_id":"cebpf4jnsgd1na2vs0mg"},{"bike_id":"e8feb6f3-0ca1-419d-81b9-0c971b54d815","system_id":"levelo_inurba_marseille","lat":43.26029,"lon":5.37545,"is_reserved":false,"is_disabled":false,"rental_uris":{"android":"levelo://app?vid=e8feb6f3-0ca1-419d-81b9-0c971b54d815","ios":"levelo://app?vid=e8feb6f3-0ca1-419d-81b9-0c971b54d815"},"vehicle_type_id":"4","last_reported":1766085120,"current_range_meters":12400,"station_id":"ce4bhgh2rcd13ifvqfa0","pricing_plan_id":"cebpf4jnsgd1na2vs0mg"},{"bike_id":"7f302d8d-b36d-4ef0-af18-63860bd2422c","system_id":"levelo_inurba_marseille","lat":43.30141,"lon":5.37426,"is_reserved":false,"is_disabled":false,"rental_uris":{"android":"levelo://app?vid=7f302d8d-b36d-4ef0-af18-63860bd2422c","ios":"levelo://app?vid=7f302d8d-b36d-4ef0-af18-63860bd2422c"},"vehicle_type_id":"4","last_reported":1766085120,"current_range_meters":12400,"station_id":"ce4bgs92rcd13ifvqcc0","pricing_plan_id":"cebpf4jnsgd1na2vs0mg"},{"bike_id":"23e7c582-afa0-448e-a3de-9a27a71904ef","system_id":"levelo_inurba_marseille","lat":43.29534,"lon":5.38551,"is_reserved":false,"is_disabled":false,"rental_uris":{"android":"levelo://app?vid=23e7c582-afa0-448e-a3de-9a27a71904ef","ios":"levelo://app?vid=23e7c582-afa0-448e-a3de-9a27a71904ef"},"vehicle_type_id":"4","last_reported":1766085120,"current_range_meters":12400,"station_id":"ce4bgih2rcd13ifvqba0","pricing_plan_id":"cebpf4jnsgd1na2vs0mg"},{"bike_id":"3600545b-6af9-4527-916c-36a9c126b47e","system_id":"levelo_inurba_marseille","lat":43.30137,"lon":5.37416,"is_reserved":false,"is_disabled":false,"rental_uris":{"android":"levelo://app?vid=3600545b-6af9-4527-916c-36a9c126b47e","ios":"levelo://app?vid=3600545b-6af9-4527-916c-36a9c126b47e"},"vehicle_type_id":"4","last_reported":1766085120,"current_range_meters":12800,"station_id":"ce4bgs92rcd13ifvqcc0","pricing_plan_id":"cebpf4jnsgd1na2vs0mg"},{"bike_id":"9f6c9975-15d6-48de-a383-d85662191ef8","system_id":"levelo_inurba_marseille","lat":43.21215,"lon":5.35068,"is_reserved":false,"is_disabled":false,"rental_uris":{"android":"levelo://app?vid=9f6c9975-15d6-48de-a383-d85662191ef8","ios":"levelo://app?vid=9f6c9975-15d6-48de-a383-d85662191ef8"},"vehicle_type_id":"4","last_reported":1766085120,"current_range_meters":12800,"station_id":"st_cvj6sg6p6f1abm77japg","pricing_plan_id":"cebpf4jnsgd1na2vs0mg"},{"bike_id":"d235767a-3e44-44c9-893e-7ebda15e5a64","system_id":"levelo_inurba_marseille","lat":43.25432,"lon":5.38519,"is_reserved":false,"is_disabled":false,"rental_uris":{"android":"levelo://app?vid=d235767a-3e44-44c9-893e-7ebda15e5a64","ios":"levelo://app?vid=d235767a-3e44-44c9-893e-7ebda15e5a64"},"vehicle_type_id":"4","last_reported":1766085120,"current_range_meters":12800,"station_id":"","pricing_plan_id":"cebpf4jnsgd1na2vs0mg"},{"bike_id":"091989a8-e9c0-408e-9888-031d671b5cb0","system_id":"levelo_inurba_marseille","lat":43.31054,"lon":5.37156,"is_reserved":false,"is_disabled":false,"rental_uris":{"android":"levelo://app?vid=091989a8-e9c0-408e-9888-031d671b5cb0","ios":"levelo://app?vid=091989a8-e9c0-408e-9888-031d671b5cb0"},"vehicle_type_id":"4","last_reported":1766085120,"current_range_meters":12800,"station_id":"st_d4kl2rp97mjs73e7tdfg","pricing_plan_id":"cebpf4jnsgd1na2vs0mg"},{"bike_id":"31a8a530-d875-470f-bb82-c3f6f0a5a4e2","system_id":"levelo_inurba_marseille","lat":43.29494,"lon":5.4329,"is_reserved":false,"is_disabled":false,"rental_uris":{"android":"levelo://app?vid=31a8a530-d875-470f-bb82-c3f6f0a5a4e2","ios":"levelo://app?vid=31a8a530-d875-470f-bb82-c3f6f0a5a4e2"},"vehicle_type_id":"4","last_reported":1766085120,"current_range_meters":12800,"station_id":"st_d3j5ugp08ojc73fj9d10","pricing_plan_id":"cebpf4jnsgd1na2vs0mg"},{"bike_id":"21faa4df-3e9c-465a-828a-5460bd333292","system_id":"levelo_inurba_marseille","lat":43.29577,"lon":5.37499,"is_reserved":false,"is_disabled":false,"rental_uris":{"android":"levelo://app?vid=21faa4df-3e9c-465a-828a-5460bd333292","ios":"levelo://app?vid=21faa4df-3e9c-465a-828a-5460bd333292"},"vehicle_type_id":"4","last_reported":1766085120,"current_range_meters":12800,"station_id":"ce4bgh92rcd13ifvqb50","pricing_plan_id":"cebpf4jnsgd1na2vs0mg"},{"bike_id":"08422ad5-c1e2-40b9-98a0-e243f4bba2b7","system_id":"levelo_inurba_marseille","lat":43.29267,"lon":5.38448,"is_reserved":false,"is_disabled":false,"rental_uris":{"android":"levelo://app?vid=08422ad5-c1e2-40b9-98a0-e243f4bba2b7","ios":"levelo://app?vid=08422ad5-c1e2-40b9-98a0-e243f4bba2b7"},"vehicle_type_id":"4","last_reported":1766085120,"current_range_meters":12800,"station_id":"ce4bh692rcd13ifvqea0","pricing_plan_id":"cebpf4jnsgd1na2vs0mg"},{"bike_id":"1e07792f-4948-478a-b999-8908b21ab65f","system_id":"levelo_inurba_marseille","lat":43.3108,"lon":5.38353,"is_reserved":false,"is_disabled":false,"rental_uris":{"android":"levelo://app?vid=1e07792f-4948-478a-b999-8908b21ab65f","ios":"levelo://app?vid=1e07792f-4948-478a-b999-8908b21ab65f"},"vehicle_type_id":"4","last_reported":1766085120,"current_range_meters":12800,"station_id":"ce4bgv92rcd13ifvqcr0","pricing_plan_id":"cebpf4jnsgd1na2vs0mg"},{"bike_id":"11abda50-415f-4a2e-9ae0-fb120cc88eb6","system_id":"levelo_inurba_marseille","lat":43.30322,"lon":5.40431,"is_reserved":false,"is_disabled":false,"rental_uris":{"android":"levelo://app?vid=11abda50-415f-4a2e-9ae0-fb120cc88eb6","ios":"levelo://app?vid=11abda50-415f-4a2e-9ae0-fb120cc88eb6"},"vehicle_type_id":"4","last_reported":1766085120,"current_range_meters":12800,"station_id":"ce4bh012rcd13ifvqd10","pricing_plan_id":"cebpf4jnsgd1na2vs0mg"},{"bike_id":"9d060e63-4d7e-4e36-854f-af327ab0a4e9","system_id":"levelo_inurba_marseille","lat":43.24667,"lon":5.38171,"is_reserved":false,"is_disabled":false,"rental_uris":{"android":"levelo://app?vid=9d060e63-4d7e-4e36-854f-af327ab0a4e9","ios":"levelo://app?vid=9d060e63-4d7e-4e36-854f-af327ab0a4e9"},"vehicle_type_id":"4","last_reported":1766085120,"current_range_meters":12800,"station_id":"ce4bhih2rcd13ifvqfr0","pricing_plan_id":"cebpf4jnsgd1na2vs0mg"},{"bike_id":"772b3055-59d5-4e85-8c57-9a2aa745d7b1","system_id":"levelo_inurba_marseille","lat":43.29583,"lon":5.39977,"is_reserved":false,"is_disabled":false,"rental_uris":{"android":"levelo://app?vid=772b3055-59d5-4e85-8c57-9a2aa745d7b1","ios":"levelo://app?vid=772b3055-59d5-4e85-8c57-9a2aa745d7b1"},"vehicle_type_id":"4","last_reported":1766085120,"current_range_meters":12800,"station_id":"ce4bh312rcd13ifvqdj0","pricing_plan_id":"cebpf4jnsgd1na2vs0mg"},{"bike_id":"ddedb140-ab44-49b4-88fc-f6e9cbc01202","system_id":"levelo_inurba_marseille","lat":43.27838,"lon":5.39208,"is_reserved":false,"is_disabled":false,"rental_uris":{"android":"levelo://app?vid=ddedb140-ab44-49b4-88fc-f6e9cbc01202","ios":"levelo://app?vid=ddedb140-ab44-49b4-88fc-f6e9cbc01202"},"vehicle_type_id":"4","last_reported":1766085120,"current_range_meters":12800,"station_id":"ce4bhjp2rcd13ifvqga0","pricing_plan_id":"cebpf4jnsgd1na2vs0mg"},{"bike_id":"1f056b37-e3f2-4d39-81cb-848d585f8a47","system_id":"levelo_inurba_marseille","lat":43.241681,"lon":5.36404,"is_reserved":false,"is_disabled":false,"rental_uris":{"android":"levelo://app?vid=1f056b37-e3f2-4d39-81cb-848d585f8a47","ios":"levelo://app?vid=1f056b37-e3f2-4d39-81cb-848d585f8a47"},"vehicle_type_id":"4","last_reported":1766085120,"current_range_meters":12800,"station_id":"cpo36qri1sfpv3e86is0","pricing_plan_id":"cebpf4jnsgd1na2vs0mg"},{"bike_id":"b375d3a0-974b-4dc4-962f-50415bd26cd5","system_id":"levelo_inurba_marseille","lat":43.27424,"lon":5.39409,"is_reserved":false,"is_disabled":false,"rental_uris":{"android":"levelo://app?vid=b375d3a0-974b-4dc4-962f-50415bd26cd5","ios":"levelo://app?vid=b375d3a0-974b-4dc4-962f-50415bd26cd5"},"vehicle_type_id":"4","last_reported":1766085120,"current_range_meters":13600,"station_id":"ce4bhdp2rcd13ifvqf20","pricing_plan_id":"cebpf4jnsgd1na2vs0mg"},{"bike_id":"994f4f59-db0a-480a-9da1-c527753a9c6e","system_id":"levelo_inurba_marseille","lat":43.312265,"lon":5.36862,"is_reserved":false,"is_disabled":false,"rental_uris":{"android":"levelo://app?vid=994f4f59-db0a-480a-9da1-c527753a9c6e","ios":"levelo://app?vid=994f4f59-db0a-480a-9da1-c527753a9c6e"},"vehicle_type_id":"4","last_reported":1766085120,"current_range_meters":13600,"station_id":"ce4bgl92rcd13ifvqbq0","pricing_plan_id":"cebpf4jnsgd1na2vs0mg"},{"bike_id":"4218c3f6-4764-47cf-93fc-c76838aefb78","system_id":"levelo_inurba_marseille","lat":43.24164,"lon":5.36395,"is_reserved":false,"is_disabled":false,"rental_uris":{"android":"levelo://app?vid=4218c3f6-4764-47cf-93fc-c76838aefb78","ios":"levelo://app?vid=4218c3f6-4764-47cf-93fc-c76838aefb78"},"vehicle_type_id":"4","last_reported":1766085120,"current_range_meters":13600,"station_id":"cpo36qri1sfpv3e86is0","pricing_plan_id":"cebpf4jnsgd1na2vs0mg"},{"bike_id":"54b699d7-65f2-4a7a-9f83-f79492606b86","system_id":"levelo_inurba_marseille","lat":43.3055,"lon":5.36522,"is_reserved":false,"is_disabled":false,"rental_uris":{"android":"levelo://app?vid=54b699d7-65f2-4a7a-9f83-f79492606b86","ios":"levelo://app?vid=54b699d7-65f2-4a7a-9f83-f79492606b86"},"vehicle_type_id":"4","last_reported":1766085120,"current_range_meters":13600,"station_id":"ce4bgs12rcd13ifvqcag","pricing_plan_id":"cebpf4jnsgd1na2vs0mg"},{"bike_id":"d0dd282f-2c05-49dd-834d-6d93cee6c88a","system_id":"levelo_inurba_marseille","lat":43.30203,"lon":5.36624,"is_reserved":false,"is_disabled":true,"rental_uris":{"android":"levelo://app?vid=d0dd282f-2c05-49dd-834d-6d93cee6c88a","ios":"levelo://app?vid=d0dd282f-2c05-49dd-834d-6d93cee6c88a"},"vehicle_type_id":"4","last_reported":1766085120,"current_range_meters":13600,"station_id":"ce4bgrh2rcd13ifvqc8g","pricing_plan_id":"cebpf4jnsgd1na2vs0mg"},{"bike_id":"55e2666e-7fc1-4f40-a2e1-5f6eda32c223","system_id":"levelo_inurba_marseille","lat":43.2795,"lon":5.41056,"is_reserved":false,"is_disabled":false,"rental_uris":{"android":"levelo://app?vid=55e2666e-7fc1-4f40-a2e1-5f6eda32c223","ios":"levelo://app?vid=55e2666e-7fc1-4f40-a2e1-5f6eda32c223"},"vehicle_type_id":"4","last_reported":1766085120,"current_range_meters":13600,"station_id":"ce4bhnp2rcd13ifvqh0g","pricing_plan_id":"cebpf4jnsgd1na2vs0mg"},{"bike_id":"dd786294-b166-4a73-b42d-22e3724edb43","system_id":"levelo_inurba_marseille","lat":43.26571,"lon":5.38985,"is_reserved":false,"is_disabled":false,"rental_uris":{"android":"levelo://app?vid=dd786294-b166-4a73-b42d-22e3724edb43","ios":"levelo://app?vid=dd786294-b166-4a73-b42d-22e3724edb43"},"vehicle_type_id":"4","last_reported":1766085120,"current_range_meters":13600,"station_id":"ce4bhe12rcd13ifvqf30","pricing_plan_id":"cebpf4jnsgd1na2vs0mg"},{"bike_id":"f3a4c2fd-c27a-4ca6-bbe5-3949d2a88808","system_id":"levelo_inurba_marseille","lat":43.28579,"lon":5.42987,"is_reserved":false,"is_disabled":false,"rental_uris":{"android":"levelo://app?vid=f3a4c2fd-c27a-4ca6-bbe5-3949d2a88808","ios":"levelo://app?vid=f3a4c2fd-c27a-4ca6-bbe5-3949d2a88808"},"vehicle_type_id":"4","last_reported":1766085120,"current_range_meters":13600,"station_id":"","pricing_plan_id":"cebpf4jnsgd1na2vs0mg"},{"bike_id":"2eb2ea2c-5c1d-40d1-94a7-23f966d73fbf","system_id":"levelo_inurba_marseille","lat":43.28672,"lon":5.38679,"is_reserved":false,"is_disabled":false,"rental_uris":{"android":"levelo://app?vid=2eb2ea2c-5c1d-40d1-94a7-23f966d73fbf","ios":"levelo://app?vid=2eb2ea2c-5c1d-40d1-94a7-23f966d73fbf"},"vehicle_type_id":"4","last_reported":1766085120,"current_range_meters":13600,"station_id":"ce4bh492rcd13ifvqdug","pricing_plan_id":"cebpf4jnsgd1na2vs0mg"},{"bike_id":"2c75ad9d-3cc0-42db-9aed-ad7814b77759","system_id":"levelo_inurba_marseille","lat":43.29896,"lon":5.39736,"is_reserved":false,"is_disabled":false,"rental_uris":{"android":"levelo://app?vid=2c75ad9d-3cc0-42db-9aed-ad7814b77759","ios":"levelo://app?vid=2c75ad9d-3cc0-42db-9aed-ad7814b77759"},"vehicle_type_id":"4","last_reported":1766085120,"current_range_meters":13600,"station_id":"ce4bh0h2rcd13ifvqd50","pricing_plan_id":"cebpf4jnsgd1na2vs0mg"},{"bike_id":"2a5d4c67-f150-427d-99dd-0460f83e48e0","system_id":"levelo_inurba_marseille","lat":43.284613,"lon":5.358892,"is_reserved":false,"is_disabled":false,"rental_uris":{"android":"levelo://app?vid=2a5d4c67-f150-427d-99dd-0460f83e48e0","ios":"levelo://app?vid=2a5d4c67-f150-427d-99dd-0460f83e48e0"},"vehicle_type_id":"4","last_reported":1766085120,"current_range_meters":13600,"station_id":"ce4bhah2rcd13ifvqei0","pricing_plan_id":"cebpf4jnsgd1na2vs0mg"},{"bike_id":"0e85f2c9-65d2-439c-8056-66a3c7b2cf27","system_id":"levelo_inurba_marseille","lat":43.295622,"lon":5.375227,"is_reserved":false,"is_disabled":false,"rental_uris":{"android":"levelo://app?vid=0e85f2c9-65d2-439c-8056-66a3c7b2cf27","ios":"levelo://app?vid=0e85f2c9-65d2-439c-8056-66a3c7b2cf27"},"vehicle_type_id":"4","last_reported":1766085120,"current_range_meters":13600,"station_id":"ce4bgh92rcd13ifvqb50","pricing_plan_id":"cebpf4jnsgd1na2vs0mg"},{"bike_id":"6b1d75e3-4e37-40ff-b732-f34340e9b1b9","system_id":"levelo_inurba_marseille","lat":43.278132,"lon":5.407164,"is_reserved":false,"is_disabled":false,"rental_uris":{"android":"levelo://app?vid=6b1d75e3-4e37-40ff-b732-f34340e9b1b9","ios":"levelo://app?vid=6b1d75e3-4e37-40ff-b732-f34340e9b1b9"},"vehicle_type_id":"4","last_reported":1766085120,"current_range_meters":13600,"station_id":"ce4bhnh2rcd13ifvqgtg","pricing_plan_id":"cebpf4jnsgd1na2vs0mg"},{"bike_id":"907c6bab-d04b-4a2f-a93b-74499e90fd68","system_id":"levelo_inurba_marseille","lat":43.31209,"lon":5.36883,"is_reserved":false,"is_disabled":false,"rental_uris":{"android":"levelo://app?vid=907c6bab-d04b-4a2f-a93b-74499e90fd68","ios":"levelo://app?vid=907c6bab-d04b-4a2f-a93b-74499e90fd68"},"vehicle_type_id":"4","last_reported":1766085120,"current_range_meters":14000,"station_id":"ce4bgl92rcd13ifvqbq0","pricing_plan_id":"cebpf4jnsgd1na2vs0mg"},{"bike_id":"33fb061b-cc0a-44e2-a90b-8eab16db9143","system_id":"levelo_inurba_marseille","lat":43.27948,"lon":5.41034,"is_reserved":false,"is_disabled":false,"rental_uris":{"android":"levelo://app?vid=33fb061b-cc0a-44e2-a90b-8eab16db9143","ios":"levelo://app?vid=33fb061b-cc0a-44e2-a90b-8eab16db9143"},"vehicle_type_id":"4","last_reported":1766085120,"current_range_meters":14000,"station_id":"ce4bhnp2rcd13ifvqh0g","pricing_plan_id":"cebpf4jnsgd1na2vs0mg"},{"bike_id":"81b4879d-5423-4aad-a0bc-1edbef8c668c","system_id":"levelo_inurba_marseille","lat":43.24169,"lon":5.36391,"is_reserved":false,"is_disabled":false,"rental_uris":{"android":"levelo://app?vid=81b4879d-5423-4aad-a0bc-1edbef8c668c","ios":"levelo://app?vid=81b4879d-5423-4aad-a0bc-1edbef8c668c"},"vehicle_type_id":"4","last_reported":1766085120,"current_range_meters":14000,"station_id":"cpo36qri1sfpv3e86is0","pricing_plan_id":"cebpf4jnsgd1na2vs0mg"},{"bike_id":"2512d3cf-3b6e-4050-9208-78ed96d102b7","system_id":"levelo_inurba_marseille","lat":43.29492,"lon":5.43309,"is_reserved":false,"is_disabled":false,"rental_uris":{"android":"levelo://app?vid=2512d3cf-3b6e-4050-9208-78ed96d102b7","ios":"levelo://app?vid=2512d3cf-3b6e-4050-9208-78ed96d102b7"},"vehicle_type_id":"4","last_reported":1766085120,"current_range_meters":14000,"station_id":"st_d3j5ugp08ojc73fj9d10","pricing_plan_id":"cebpf4jnsgd1na2vs0mg"},{"bike_id":"dfbce69e-f6e8-4b7d-b65d-85deba113350","system_id":"levelo_inurba_marseille","lat":43.28268,"lon":5.35072,"is_reserved":false,"is_disabled":false,"rental_uris":{"android":"levelo://app?vid=dfbce69e-f6e8-4b7d-b65d-85deba113350","ios":"levelo://app?vid=dfbce69e-f6e8-4b7d-b65d-85deba113350"},"vehicle_type_id":"4","last_reported":1766085120,"current_range_meters":14000,"station_id":"ce4bhbp2rcd13ifvqerg","pricing_plan_id":"cebpf4jnsgd1na2vs0mg"},{"bike_id":"0210ebe1-9910-474e-bf72-8ed9360aac2c","system_id":"levelo_inurba_marseille","lat":43.29527,"lon":5.3905,"is_reserved":false,"is_disabled":false,"rental_uris":{"android":"levelo://app?vid=0210ebe1-9910-474e-bf72-8ed9360aac2c","ios":"levelo://app?vid=0210ebe1-9910-474e-bf72-8ed9360aac2c"},"vehicle_type_id":"4","last_reported":1766085120,"current_range_meters":14000,"station_id":"ce4bh3p2rcd13ifvqdp0","pricing_plan_id":"cebpf4jnsgd1na2vs0mg"},{"bike_id":"17a49efb-d179-4b85-b20c-4afe87c0613f","system_id":"levelo_inurba_marseille","lat":43.31053,"lon":5.37165,"is_reserved":false,"is_disabled":true,"rental_uris":{"android":"levelo://app?vid=17a49efb-d179-4b85-b20c-4afe87c0613f","ios":"levelo://app?vid=17a49efb-d179-4b85-b20c-4afe87c0613f"},"vehicle_type_id":"4","last_reported":1766085120,"current_range_meters":14000,"station_id":"st_d4kl2rp97mjs73e7tdfg","pricing_plan_id":"cebpf4jnsgd1na2vs0mg"},{"bike_id":"b7761092-8751-41f9-b6c1-9432b39f7638","system_id":"levelo_inurba_marseille","lat":43.27675,"lon":5.38877,"is_reserved":false,"is_disabled":false,"rental_uris":{"android":"levelo://app?vid=b7761092-8751-41f9-b6c1-9432b39f7638","ios":"levelo://app?vid=b7761092-8751-41f9-b6c1-9432b39f7638"},"vehicle_type_id":"4","last_reported":1766085120,"current_range_meters":14000,"station_id":"ce4bhi12rcd13ifvqfo0","pricing_plan_id":"cebpf4jnsgd1na2vs0mg"},{"bike_id":"1fe61e53-783b-4be3-86da-1e2214f6789d","system_id":"levelo_inurba_marseille","lat":43.29777,"lon":5.38065,"is_reserved":false,"is_disabled":false,"rental_uris":{"android":"levelo://app?vid=1fe61e53-783b-4be3-86da-1e2214f6789d","ios":"levelo://app?vid=1fe61e53-783b-4be3-86da-1e2214f6789d"},"vehicle_type_id":"4","last_reported":1766085120,"current_range_meters":14000,"station_id":"","pricing_plan_id":"cebpf4jnsgd1na2vs0mg"},{"bike_id":"9f3c0044-3fd3-4dcb-bbd1-75f89d5cdde5","system_id":"levelo_inurba_marseille","lat":43.31365,"lon":5.38475,"is_reserved":false,"is_disabled":false,"rental_uris":{"android":"levelo://app?vid=9f3c0044-3fd3-4dcb-bbd1-75f89d5cdde5","ios":"levelo://app?vid=9f3c0044-3fd3-4dcb-bbd1-75f89d5cdde5"},"vehicle_type_id":"4","last_reported":1766085120,"current_range_meters":14400,"station_id":"ce4bgt92rcd13ifvqcf0","pricing_plan_id":"cebpf4jnsgd1na2vs0mg"},{"bike_id":"902cd349-6cbd-4b6e-a042-8dad1c54df6e","system_id":"levelo_inurba_marseille","lat":43.27945,"lon":5.4105,"is_reserved":false,"is_disabled":false,"rental_uris":{"android":"levelo://app?vid=902cd349-6cbd-4b6e-a042-8dad1c54df6e","ios":"levelo://app?vid=902cd349-6cbd-4b6e-a042-8dad1c54df6e"},"vehicle_type_id":"4","last_reported":1766085120,"current_range_meters":14400,"station_id":"ce4bhnp2rcd13ifvqh0g","pricing_plan_id":"cebpf4jnsgd1na2vs0mg"},{"bike_id":"305412fd-41fd-4f48-b0ce-d25b5a7eb63f","system_id":"levelo_inurba_marseille","lat":43.34581,"lon":5.38182,"is_reserved":false,"is_disabled":false,"rental_uris":{"android":"levelo://app?vid=305412fd-41fd-4f48-b0ce-d25b5a7eb63f","ios":"levelo://app?vid=305412fd-41fd-4f48-b0ce-d25b5a7eb63f"},"vehicle_type_id":"4","last_reported":1766085120,"current_range_meters":14400,"station_id":"","pricing_plan_id":"cebpf4jnsgd1na2vs0mg"},{"bike_id":"72d16cb8-37e7-427d-b68b-4cbff189b611","system_id":"levelo_inurba_marseille","lat":43.30637,"lon":5.40077,"is_reserved":false,"is_disabled":true,"rental_uris":{"android":"levelo://app?vid=72d16cb8-37e7-427d-b68b-4cbff189b611","ios":"levelo://app?vid=72d16cb8-37e7-427d-b68b-4cbff189b611"},"vehicle_type_id":"4","last_reported":1766085120,"current_range_meters":14400,"station_id":"ce4bh112rcd13ifvqda0","pricing_plan_id":"cebpf4jnsgd1na2vs0mg"},{"bike_id":"254d37b4-a453-4bef-8698-ef2e940aac87","system_id":"levelo_inurba_marseille","lat":43.284458,"lon":5.392113,"is_reserved":false,"is_disabled":false,"rental_uris":{"android":"levelo://app?vid=254d37b4-a453-4bef-8698-ef2e940aac87","ios":"levelo://app?vid=254d37b4-a453-4bef-8698-ef2e940aac87"},"vehicle_type_id":"4","last_reported":1766085120,"current_range_meters":14400,"station_id":"ce4bhoh2rcd13ifvqh5g","pricing_plan_id":"cebpf4jnsgd1na2vs0mg"},{"bike_id":"0a598fce-978f-4f90-b03f-b8be1902feff","system_id":"levelo_inurba_marseille","lat":43.31277,"lon":5.37847,"is_reserved":false,"is_disabled":false,"rental_uris":{"android":"levelo://app?vid=0a598fce-978f-4f90-b03f-b8be1902feff","ios":"levelo://app?vid=0a598fce-978f-4f90-b03f-b8be1902feff"},"vehicle_type_id":"4","last_reported":1766085120,"current_range_meters":14400,"station_id":"","pricing_plan_id":"cebpf4jnsgd1na2vs0mg"},{"bike_id":"413557ff-13d9-40fb-81ee-6ad5e7d92bea","system_id":"levelo_inurba_marseille","lat":43.21186,"lon":5.35071,"is_reserved":false,"is_disabled":false,"rental_uris":{"android":"levelo://app?vid=413557ff-13d9-40fb-81ee-6ad5e7d92bea","ios":"levelo://app?vid=413557ff-13d9-40fb-81ee-6ad5e7d92bea"},"vehicle_type_id":"4","last_reported":1766085120,"current_range_meters":14400,"station_id":"st_cvj6sg6p6f1abm77japg","pricing_plan_id":"cebpf4jnsgd1na2vs0mg"},{"bike_id":"38504a86-57fa-4078-bead-63de7fc54634","system_id":"levelo_inurba_marseille","lat":43.29506,"lon":5.3749,"is_reserved":false,"is_disabled":false,"rental_uris":{"android":"levelo://app?vid=38504a86-57fa-4078-bead-63de7fc54634","ios":"levelo://app?vid=38504a86-57fa-4078-bead-63de7fc54634"},"vehicle_type_id":"4","last_reported":1766085120,"current_range_meters":14400,"station_id":"ce4bgkp2rcd13ifvqbmg","pricing_plan_id":"cebpf4jnsgd1na2vs0mg"},{"bike_id":"405c1cf1-0982-4d80-a547-f11d14b8e1a2","system_id":"levelo_inurba_marseille","lat":43.28571,"lon":5.39491,"is_reserved":false,"is_disabled":false,"rental_uris":{"android":"levelo://app?vid=405c1cf1-0982-4d80-a547-f11d14b8e1a2","ios":"levelo://app?vid=405c1cf1-0982-4d80-a547-f11d14b8e1a2"},"vehicle_type_id":"4","last_reported":1766085120,"current_range_meters":14400,"station_id":"ce4bh292rcd13ifvqdg0","pricing_plan_id":"cebpf4jnsgd1na2vs0mg"},{"bike_id":"28e7ea25-d676-49ca-8be6-ac1c19bc94ea","system_id":"levelo_inurba_marseille","lat":43.33451,"lon":5.40096,"is_reserved":false,"is_disabled":false,"rental_uris":{"android":"levelo://app?vid=28e7ea25-d676-49ca-8be6-ac1c19bc94ea","ios":"levelo://app?vid=28e7ea25-d676-49ca-8be6-ac1c19bc94ea"},"vehicle_type_id":"4","last_reported":1766085120,"current_range_meters":14400,"station_id":"","pricing_plan_id":"cebpf4jnsgd1na2vs0mg"},{"bike_id":"9b3ad9e9-6c8e-47dd-9f00-d7499ff2fa77","system_id":"levelo_inurba_marseille","lat":43.21188,"lon":5.35077,"is_reserved":false,"is_disabled":false,"rental_uris":{"android":"levelo://app?vid=9b3ad9e9-6c8e-47dd-9f00-d7499ff2fa77","ios":"levelo://app?vid=9b3ad9e9-6c8e-47dd-9f00-d7499ff2fa77"},"vehicle_type_id":"4","last_reported":1766085120,"current_range_meters":14400,"station_id":"st_cvj6sg6p6f1abm77japg","pricing_plan_id":"cebpf4jnsgd1na2vs0mg"},{"bike_id":"a5802b50-68bf-41b0-b070-1abefca732e9","system_id":"levelo_inurba_marseille","lat":43.30788,"lon":5.37627,"is_reserved":false,"is_disabled":false,"rental_uris":{"android":"levelo://app?vid=a5802b50-68bf-41b0-b070-1abefca732e9","ios":"levelo://app?vid=a5802b50-68bf-41b0-b070-1abefca732e9"},"vehicle_type_id":"4","last_reported":1766085120,"current_range_meters":14400,"station_id":"ce4bgv92rcd13ifvqcq0","pricing_plan_id":"cebpf4jnsgd1na2vs0mg"},{"bike_id":"ce42435a-7333-4989-88d0-c13b6bcfb607","system_id":"levelo_inurba_marseille","lat":43.28098,"lon":5.37837,"is_reserved":false,"is_disabled":false,"rental_uris":{"android":"levelo://app?vid=ce42435a-7333-4989-88d0-c13b6bcfb607","ios":"levelo://app?vid=ce42435a-7333-4989-88d0-c13b6bcfb607"},"vehicle_type_id":"4","last_reported":1766085120,"current_range_meters":14400,"station_id":"ce4bha12rcd13ifvqee0","pricing_plan_id":"cebpf4jnsgd1na2vs0mg"},{"bike_id":"b494c767-effb-47c2-9a4d-0fc429c1d80d","system_id":"levelo_inurba_marseille","lat":43.29582,"lon":5.37498,"is_reserved":false,"is_disabled":true,"rental_uris":{"android":"levelo://app?vid=b494c767-effb-47c2-9a4d-0fc429c1d80d","ios":"levelo://app?vid=b494c767-effb-47c2-9a4d-0fc429c1d80d"},"vehicle_type_id":"4","last_reported":1766085120,"current_range_meters":14800,"station_id":"","pricing_plan_id":"cebpf4jnsgd1na2vs0mg"},{"bike_id":"0e282add-9288-4336-b9ea-e775a5bcd321","system_id":"levelo_inurba_marseille","lat":43.2784,"lon":5.39199,"is_reserved":false,"is_disabled":false,"rental_uris":{"android":"levelo://app?vid=0e282add-9288-4336-b9ea-e775a5bcd321","ios":"levelo://app?vid=0e282add-9288-4336-b9ea-e775a5bcd321"},"vehicle_type_id":"4","last_reported":1766085120,"current_range_meters":14800,"station_id":"ce4bhjp2rcd13ifvqga0","pricing_plan_id":"cebpf4jnsgd1na2vs0mg"},{"bike_id":"cf5eb2c1-c87d-4ae3-9256-41d8d82f1276","system_id":"levelo_inurba_marseille","lat":43.2923,"lon":5.36051,"is_reserved":false,"is_disabled":false,"rental_uris":{"android":"levelo://app?vid=cf5eb2c1-c87d-4ae3-9256-41d8d82f1276","ios":"levelo://app?vid=cf5eb2c1-c87d-4ae3-9256-41d8d82f1276"},"vehicle_type_id":"4","last_reported":1766085120,"current_range_meters":14800,"station_id":"ce4bhbh2rcd13ifvqeqg","pricing_plan_id":"cebpf4jnsgd1na2vs0mg"},{"bike_id":"f8ebd501-fad9-48ed-a55d-564fc9324817","system_id":"levelo_inurba_marseille","lat":43.27948,"lon":5.41053,"is_reserved":false,"is_disabled":false,"rental_uris":{"android":"levelo://app?vid=f8ebd501-fad9-48ed-a55d-564fc9324817","ios":"levelo://app?vid=f8ebd501-fad9-48ed-a55d-564fc9324817"},"vehicle_type_id":"4","last_reported":1766085120,"current_range_meters":14800,"station_id":"ce4bhnp2rcd13ifvqh0g","pricing_plan_id":"cebpf4jnsgd1na2vs0mg"},{"bike_id":"7d993644-dc7a-4218-b750-3c920d38188f","system_id":"levelo_inurba_marseille","lat":43.3089,"lon":5.37177,"is_reserved":false,"is_disabled":false,"rental_uris":{"android":"levelo://app?vid=7d993644-dc7a-4218-b750-3c920d38188f","ios":"levelo://app?vid=7d993644-dc7a-4218-b750-3c920d38188f"},"vehicle_type_id":"4","last_reported":1766085120,"current_range_meters":14800,"station_id":"ce4bguh2rcd13ifvqckg","pricing_plan_id":"cebpf4jnsgd1na2vs0mg"},{"bike_id":"3171c4f4-d5a9-4282-9d2c-df19a6022bc8","system_id":"levelo_inurba_marseille","lat":43.29051,"lon":5.35642,"is_reserved":false,"is_disabled":false,"rental_uris":{"android":"levelo://app?vid=3171c4f4-d5a9-4282-9d2c-df19a6022bc8","ios":"levelo://app?vid=3171c4f4-d5a9-4282-9d2c-df19a6022bc8"},"vehicle_type_id":"4","last_reported":1766085120,"current_range_meters":14800,"station_id":"","pricing_plan_id":"cebpf4jnsgd1na2vs0mg"},{"bike_id":"580881ce-0a0d-450d-bede-1710eb837283","system_id":"levelo_inurba_marseille","lat":43.31223,"lon":5.36828,"is_reserved":false,"is_disabled":false,"rental_uris":{"android":"levelo://app?vid=580881ce-0a0d-450d-bede-1710eb837283","ios":"levelo://app?vid=580881ce-0a0d-450d-bede-1710eb837283"},"vehicle_type_id":"4","last_reported":1766085120,"current_range_meters":14800,"station_id":"ce4bgl92rcd13ifvqbq0","pricing_plan_id":"cebpf4jnsgd1na2vs0mg"},{"bike_id":"598940e2-74a1-4e6c-8d83-3bf0402cd840","system_id":"levelo_inurba_marseille","lat":43.28934,"lon":5.36635,"is_reserved":false,"is_disabled":false,"rental_uris":{"android":"levelo://app?vid=598940e2-74a1-4e6c-8d83-3bf0402cd840","ios":"levelo://app?vid=598940e2-74a1-4e6c-8d83-3bf0402cd840"},"vehicle_type_id":"4","last_reported":1766085120,"current_range_meters":14800,"station_id":"ce4bhap2rcd13ifvqek0","pricing_plan_id":"cebpf4jnsgd1na2vs0mg"},{"bike_id":"700442f5-a082-454e-8bc7-ab3bbb77bfce","system_id":"levelo_inurba_marseille","lat":43.26632,"lon":5.37455,"is_reserved":false,"is_disabled":false,"rental_uris":{"android":"levelo://app?vid=700442f5-a082-454e-8bc7-ab3bbb77bfce","ios":"levelo://app?vid=700442f5-a082-454e-8bc7-ab3bbb77bfce"},"vehicle_type_id":"4","last_reported":1766085120,"current_range_meters":14800,"station_id":"","pricing_plan_id":"cebpf4jnsgd1na2vs0mg"},{"bike_id":"40a2d79c-66c5-48fb-b28b-accae02a63a1","system_id":"levelo_inurba_marseille","lat":43.27378,"lon":5.36257,"is_reserved":false,"is_disabled":false,"rental_uris":{"android":"levelo://app?vid=40a2d79c-66c5-48fb-b28b-accae02a63a1","ios":"levelo://app?vid=40a2d79c-66c5-48fb-b28b-accae02a63a1"},"vehicle_type_id":"4","last_reported":1766085120,"current_range_meters":14800,"station_id":"ce4bhbh2rcd13ifvqeo0","pricing_plan_id":"cebpf4jnsgd1na2vs0mg"},{"bike_id":"1b3e78af-6e11-4a00-8160-7be2836c0e75","system_id":"levelo_inurba_marseille","lat":43.26189,"lon":5.3745,"is_reserved":false,"is_disabled":true,"rental_uris":{"android":"levelo://app?vid=1b3e78af-6e11-4a00-8160-7be2836c0e75","ios":"levelo://app?vid=1b3e78af-6e11-4a00-8160-7be2836c0e75"},"vehicle_type_id":"4","last_reported":1766085120,"current_range_meters":15200,"station_id":"","pricing_plan_id":"cebpf4jnsgd1na2vs0mg"},{"bike_id":"c852469c-7b7d-434c-85b2-05356fc82470","system_id":"levelo_inurba_marseille","lat":43.28976,"lon":5.37849,"is_reserved":false,"is_disabled":true,"rental_uris":{"android":"levelo://app?vid=c852469c-7b7d-434c-85b2-05356fc82470","ios":"levelo://app?vid=c852469c-7b7d-434c-85b2-05356fc82470"},"vehicle_type_id":"4","last_reported":1766085120,"current_range_meters":15200,"station_id":"ce4bh9p2rcd13ifvqed0","pricing_plan_id":"cebpf4jnsgd1na2vs0mg"},{"bike_id":"21a68bd6-9cc0-407c-b18d-d31ec42a87b6","system_id":"levelo_inurba_marseille","lat":43.289164,"lon":5.395975,"is_reserved":false,"is_disabled":false,"rental_uris":{"android":"levelo://app?vid=21a68bd6-9cc0-407c-b18d-d31ec42a87b6","ios":"levelo://app?vid=21a68bd6-9cc0-407c-b18d-d31ec42a87b6"},