{"last_updated":1686243983,"ttl":30,"version":"2.2","data":{"bikes":[{"bike_id":"30ed30a3-fc31-4ac7-8c8b-9f0a0a48018c","system_id":"levelo_inurba_marseille","lat":43.31481,"lon":5.37083,"is_reserved":false,"is_disabled":false,"rental_uris":{"android":"levelo://app?vid=30ed30a3-fc31-4ac7-8c8b-9f0a0a48018c","ios":"levelo://app?vid=30ed30a3-fc31-4ac7-8c8b-9f0a0a48018c"},"vehicle_type_id":"4","last_reported":1686243984,"current_range_meters":25600,"station_id":"","pricing_plan_id":"free"},{"bike_id":"47917fd2-01b8-4236-b93a-e09c3a21cda3","system_id":"levelo_inurba_marseille","lat":43.30578,"lon":5.36537,"is_reserved":false,"is_disabled":false,"rental_uris":{"android":"levelo://app?vid=47917fd2-01b8-4236-b93a-e09c3a21cda3","ios":"levelo://app?vid=47917fd2-01b8-4236-b93a-e09c3a21cda3"},"vehicle_type_id":"4","last_reported":1686243984,"current_range_meters":0,"station_id":"","pricing_plan_id":"free"},{"bike_id":"4ce7fe61-27a1-4bf6-9d1e-ba2a5bc550b2","system_id":"levelo_inurba_marseille","lat":43.32017,"lon":5.36571,"is_reserved":false,"is_disabled":false,"rental_uris":{"android":"levelo://app?vid=4ce7fe61-27a1-4bf6-9d1e-ba2a5bc550b2","ios":"levelo://app?vid=4ce7fe61-27a1-4bf6-9d1e-ba2a5bc550b2"},"vehicle_type_id":"4","last_reported":1686243984,"current_range_meters":22400,"station_id":"","pricing_plan_id":"free"},{"bike_id":"348d2cc0-95f2-4094-9381-903dc98a774f","system_id":"levelo_inurba_marseille","lat":43.311131,"lon":5.377651,"is_reserved":false,"is_disabled":false,"rental_uris":{"android":"levelo://app?vid=348d2cc0-95f2-4094-9381-903dc98a774f","ios":"levelo://app?vid=348d2cc0-95f2-4094-9381-903dc98a774f"},"vehicle_type_id":"4","last_reported":1686243984,"current_range_meters":1200,"station_id":"ce4bgt92rcd13ifvqcg0","pricing_plan_id":"free"},{"bike_id":"05e240be-0ecb-4748-9342-344f396e3cdd","system_id":"levelo_inurba_marseille","lat":43.311125,"lon":5.377624,"is_reserved":false,"is_disabled":false,"rental_uris":{"android":"levelo://app?vid=05e240be-0ecb-4748-9342-344f396e3cdd","ios":"levelo://app?vid=05e240be-0ecb-4748-9342-344f396e3cdd"},"vehicle_type_id":"4","last_reported":1686243984,"current_range_meters":400,"station_id":"ce4bgt92rcd13ifvqcg0","pricing_plan_id":"free"},{"bike_id":"ec55faca-c520-4821-ac9c-9f2ccb25cecc","system_id":"levelo_inurba_marseille","lat":43.311243,"lon":5.377688,"is_reserved":false,"is_disabled":false,"rental_uris":{"android":"levelo://app?vid=ec55faca-c520-4821-ac9c-9f2ccb25cecc","ios":"levelo://app?vid=ec55faca-c520-4821-ac9c-9f2ccb25cecc"},"vehicle_type_id":"4","last_reported":1686243984,"current_range_meters":0,"station_id":"","pricing_plan_id":"free"},{"bike_id":"1a37006d-3c0d-4b91-a796-20cb3fae4b01","system_id":"levelo_inurba_marseille","lat":43.311171,"lon":5.377674,"is_reserved":false,"is_disabled":false,"rental_uris":{"android":"levelo://app?vid=1a37006d-3c0d-4b91-a796-20cb3fae4b01","ios":"levelo://app?vid=1a37006d-3c0d-4b91-a796-20cb3fae4b01"},"vehicle_type_id":"4","last_reported":1686243984,"current_range_meters":24800,"station_id":"ce4bgt92rcd13ifvqcg0","pricing_plan_id":"free"},{"bike_id":"d8f111a4-e841-4c51-8d85-3a4cacb5f2d8","system_id":"levelo_inurba_marseille","lat":43.3015,"lon":5.3691,"is_reserved":false,"is_disabled":false,"rental_uris":{"android":"levelo://app?vid=d8f111a4-e841-4c51-8d85-3a4cacb5f2d8","ios":"levelo://app?vid=d8f111a4-e841-4c51-8d85-3a4cacb5f2d8"},"vehicle_type_id":"4","last_reported":1686243984,"current_range_meters":6000,"station_id":"","pricing_plan_id":"free"},{"bike_id":"1a63f548-8b68-4666-854e-e7490b1fe764","system_id":"levelo_inurba_marseille","lat":43.3081,"lon":5.38133,"is_reserved":false,"is_disabled":false,"rental_uris":{"android":"levelo://app?vid=1a63f548-8b68-4666-854e-e7490b1fe764","ios":"levelo://app?vid=1a63f548-8b68-4666-854e-e7490b1fe764"},"vehicle_type_id":"4","last_reported":1686243984,"current_range_meters":0,"station_id":"ce4bgt12rcd13ifvqce0","pricing_plan_id":"free"},{"bike_id":"2e0df944-4f8c-4df6-b3c2-a2a21d1ff3b3","system_id":"levelo_inurba_marseille","lat":43.319935,"lon":5.381699,"is_reserved":false,"is_disabled":false,"rental_uris":{"android":"levelo://app?vid=2e0df944-4f8c-4df6-b3c2-a2a21d1ff3b3","ios":"levelo://app?vid=2e0df944-4f8c-4df6-b3c2-a2a21d1ff3b3"},"vehicle_type_id":"4","last_reported":1686243984,"current_range_meters":0,"station_id":"ce4bhr12rcd13ifvqhpg","pricing_plan_id":"free"},{"bike_id":"a87d4f9b-a0fe-4564-b74d-d5e67028b4ce","system_id":"levelo_inurba_marseille","lat":43.319935,"lon":5.381699,"is_reserved":false,"is_disabled":false,"rental_uris":{"android":"levelo://app?vid=a87d4f9b-a0fe-4564-b74d-d5e67028b4ce","ios":"levelo://app?vid=a87d4f9b-a0fe-4564-b74d-d5e67028b4ce"},"vehicle_type_id":"4","last_reported":1686243984,"current_range_meters":6400,"station_id":"ce4bhr12rcd13ifvqhpg","pricing_plan_id":"free"},{"bike_id":"25178ecf-7f18-4932-ab70-20520b30657a","system_id":"levelo_inurba_marseille","lat":43.299222,"lon":5.365554,"is_reserved":false,"is_disabled":false,"rental_uris":{"android":"levelo://app?vid=25178ecf-7f18-4932-ab70-20520b30657a","ios":"levelo://app?vid=25178ecf-7f18-4932-ab70-20520b30657a"},"vehicle_type_id":"4","last_reported":1686243984,"current_range_meters":4800,"station_id":"ce4bgm92rcd13ifvqbr0","pricing_plan_id":"free"},{"bike_id":"76bec442-325a-46d3-977b-312cfc21663e","system_id":"levelo_inurba_marseille","lat":43.299222,"lon":5.365554,"is_reserved":false,"is_disabled":false,"rental_uris":{"android":"levelo://app?vid=76bec442-325a-46d3-977b-312cfc21663e","ios":"levelo://app?vid=76bec442-325a-46d3-977b-312cfc21663e"},"vehicle_type_id":"4","last_reported":1686243984,"current_range_meters":800,"station_id":"ce4bgm92rcd13ifvqbr0","pricing_plan_id":"free"},{"bike_id":"071d5a4a-bc4a-4baa-8be5-fc08ad98dff3","system_id":"levelo_inurba_marseille","lat":43.298433,"lon":5.362774,"is_reserved":false,"is_disabled":false,"rental_uris":{"android":"levelo://app?vid=071d5a4a-bc4a-4baa-8be5-fc08ad98dff3","ios":"levelo://app?vid=071d5a4a-bc4a-4baa-8be5-fc08ad98dff3"},"vehicle_type_id":"4","last_reported":1686243984,"current_range_meters":800,"station_id":"ce4bgpp2rcd13ifvqc3g","pricing_plan_id":"free"},{"bike_id":"fdad7d2b-921e-4105-a3f4-e59fb725e887","system_id":"levelo_inurba_marseille","lat":43.299243,"lon":5.37481,"is_reserved":false,"is_disabled":false,"rental_uris":{"android":"levelo://app?vid=fdad7d2b-921e-4105-a3f4-e59fb725e887","ios":"levelo://app?vid=fdad7d2b-921e-4105-a3f4-e59fb725e887"},"vehicle_type_id":"4","last_reported":1686243984,"current_range_meters":0,"station_id":"ce4bgjh2rcd13ifvqbg0","pricing_plan_id":"free"},{"bike_id":"fef53817-f1b1-4041-b47e-8b7a327e42eb","system_id":"levelo_inurba_marseille","lat":43.311722,"lon":5.387247,"is_reserved":false,"is_disabled":false,"rental_uris":{"android":"levelo://app?vid=fef53817-f1b1-4041-b47e-8b7a327e42eb","ios":"levelo://app?vid=fef53817-f1b1-4041-b47e-8b7a327e42eb"},"vehicle_type_id":"4","last_reported":1686243984,"current_range_meters":400,"station_id":"ce4bgv12rcd13ifvqcp0","pricing_plan_id":"free"},{"bike_id":"49922b3c-415c-4296-9d77-effad64dd380","system_id":"levelo_inurba_marseille","lat":43.311722,"lon":5.387247,"is_reserved":false,"is_disabled":false,"rental_uris":{"android":"levelo://app?vid=49922b3c-415c-4296-9d77-effad64dd380","ios":"levelo://app?vid=49922b3c-415c-4296-9d77-effad64dd380"},"vehicle_type_id":"4","last_reported":1686243984,"current_range_meters":0,"station_id":"ce4bgv12rcd13ifvqcp0","pricing_plan_id":"free"},{"bike_id":"062222c9-5fa7-42a2-8211-5a5f6b2f82ed","system_id":"levelo_inurba_marseille","lat":43.311722,"lon":5.387247,"is_reserved":false,"is_disabled":false,"rental_uris":{"android":"levelo://app?vid=062222c9-5fa7-42a2-8211-5a5f6b2f82ed","ios":"levelo://app?vid=062222c9-5fa7-42a2-8211-5a5f6b2f82ed"},"vehicle_type_id":"4","last_reported":1686243984,"current_range_meters":19600,"station_id":"ce4bgv12rcd13ifvqcp0","pricing_plan_id":"free"},{"bike_id":"32c5cf7b-3598-4b13-84e4-c4fe593d6d85","system_id":"levelo_inurba_marseille","lat":43.328371,"lon":5.366909,"is_reserved":false,"is_disabled":false,"rental_uris":{"android":"levelo://app?vid=32c5cf7b-3598-4b13-84e4-c4fe593d6d85","ios":"levelo://app?vid=32c5cf7b-3598-4b13-84e4-c4fe593d6d85"},"vehicle_type_id":"4","last_reported":1686243984,"current_range_meters":21200,"station_id":"ce4bhs92rcd13ifvqi0g","pricing_plan_id":"free"},{"bike_id":"a593dac3-f089-498f-b39f-7891ce46bfb7","system_id":"levelo_inurba_marseille","lat":43.328371,"lon":5.366909,"is_reserved":false,"is_disabled":false,"rental_uris":{"android":"levelo://app?vid=a593dac3-f089-498f-b39f-7891ce46bfb7","ios":"levelo://app?vid=a593dac3-f089-498f-b39f-7891ce46bfb7"},"vehicle_type_id":"4","last_reported":1686243984,"current_range_meters":23600,"station_id":"ce4bhs92rcd13ifvqi0g","pricing_plan_id":"free"},{"bike_id":"c88166be-a8b1-407f-89ea-5928226b197e","system_id":"levelo_inurba_marseille","lat":43.29668,"lon":5.36853,"is_reserved":false,"is_disabled":false,"rental_uris":{"android":"levelo://app?vid=c88166be-a8b1-407f-89ea-5928226b197e","ios":"levelo://app?vid=c88166be-a8b1-407f-89ea-5928226b197e"},"vehicle_type_id":"4","last_reported":1686243984,"current_range_meters":30400,"station_id":"","pricing_plan_id":"free"},{"bike_id":"107e244d-3d85-4ce4-bc2b-3a75d744302f","system_id":"levelo_inurba_marseille","lat":43.29595,"lon":5.37086,"is_reserved":false,"is_disabled":false,"rental_uris":{"android":"levelo://app?vid=107e244d-3d85-4ce4-bc2b-3a75d744302f","ios":"levelo://app?vid=107e244d-3d85-4ce4-bc2b-3a75d744302f"},"vehicle_type_id":"4","last_reported":1686243984,"current_range_meters":0,"station_id":"","pricing_plan_id":"free"},{"bike_id":"d8955710-6350-4337-87a8-2678d5dc90fb","system_id":"levelo_inurba_marseille","lat":43.31658,"lon":5.38992,"is_reserved":false,"is_disabled":false,"rental_uris":{"android":"levelo://app?vid=d8955710-6350-4337-87a8-2678d5dc90fb","ios":"levelo://app?vid=d8955710-6350-4337-87a8-2678d5dc90fb"},"vehicle_type_id":"4","last_reported":1686243984,"current_range_meters":14000,"station_id":"","pricing_plan_id":"free"},{"bike_id":"ab74c5a2-5493-4938-88c8-5ff817d8b4a9","system_id":"levelo_inurba_marseille","lat":43.296263,"lon":5.377094,"is_reserved":false,"is_disabled":false,"rental_uris":{"android":"levelo://app?vid=ab74c5a2-5493-4938-88c8-5ff817d8b4a9","ios":"levelo://app?vid=ab74c5a2-5493-4938-88c8-5ff817d8b4a9"},"vehicle_type_id":"4","last_reported":1686243984,"current_range_meters":400,"station_id":"ce4bgi92rcd13ifvqb90","pricing_plan_id":"free"},{"bike_id":"7b0c4466-a16e-4e90-8d7f-fc96730ecd7e","system_id":"levelo_inurba_marseille","lat":43.32367,"lon":5.388836,"is_reserved":false,"is_disabled":false,"rental_uris":{"android":"levelo://app?vid=7b0c4466-a16e-4e90-8d7f-fc96730ecd7e","ios":"levelo://app?vid=7b0c4466-a16e-4e90-8d7f-fc96730ecd7e"},"vehicle_type_id":"4","last_reported":1686243984,"current_range_meters":0,"station_id":"ce4bhqp2rcd13ifvqhog","pricing_plan_id":"free"},{"bike_id":"61e4ccfd-dc98-4837-8123-2dfa5e087f42","system_id":"levelo_inurba_marseille","lat":43.293723,"lon":5.378443,"is_reserved":false,"is_disabled":false,"rental_uris":{"android":"levelo://app?vid=61e4ccfd-dc98-4837-8123-2dfa5e087f42","ios":"levelo://app?vid=61e4ccfd-dc98-4837-8123-2dfa5e087f42"},"vehicle_type_id":"4","last_reported":1686243984,"current_range_meters":10800,"station_id":"","pricing_plan_id":"free"},{"bike_id":"6ec09186-ece1-4809-97e1-fdeaee65a22c","system_id":"levelo_inurba_marseille","lat":43.29364,"lon":5.3784,"is_reserved":false,"is_disabled":false,"rental_uris":{"android":"levelo://app?vid=6ec09186-ece1-4809-97e1-fdeaee65a22c","ios":"levelo://app?vid=6ec09186-ece1-4809-97e1-fdeaee65a22c"},"vehicle_type_id":"4","last_reported":1686243984,"current_range_meters":25200,"station_id":"ce4bgjh2rcd13ifvqbf0","pricing_plan_id":"free"},{"bike_id":"079d3a3a-f920-4c4b-a833-e1ecaae4fbc3","system_id":"levelo_inurba_marseille","lat":43.292311,"lon":5.360731,"is_reserved":false,"is_disabled":false,"rental_uris":{"android":"levelo://app?vid=079d3a3a-f920-4c4b-a833-e1ecaae4fbc3","ios":"levelo://app?vid=079d3a3a-f920-4c4b-a833-e1ecaae4fbc3"},"vehicle_type_id":"4","last_reported":1686243984,"current_range_meters":18000,"station_id":"ce4bhbh2rcd13ifvqeqg","pricing_plan_id":"free"},{"bike_id":"e5bc49ba-caa1-43ff-bd08-05d98f8c96d3","system_id":"levelo_inurba_marseille","lat":43.292311,"lon":5.360731,"is_reserved":false,"is_disabled":false,"rental_uris":{"android":"levelo://app?vid=e5bc49ba-caa1-43ff-bd08-05d98f8c96d3","ios":"levelo://app?vid=e5bc49ba-caa1-43ff-bd08-05d98f8c96d3"},"vehicle_type_id":"4","last_reported":1686243984,"current_range_meters":2800,"station_id":"ce4bhbh2rcd13ifvqeqg","pricing_plan_id":"free"},{"bike_id":"f9fe5636-c8d0-4056-a049-813a90cf1a03","system_id":"levelo_inurba_marseille","lat":43.29224,"lon":5.36056,"is_reserved":false,"is_disabled":false,"rental_uris":{"android":"levelo://app?vid=f9fe5636-c8d0-4056-a049-813a90cf1a03","ios":"levelo://app?vid=f9fe5636-c8d0-4056-a049-813a90cf1a03"},"vehicle_type_id":"4","last_reported":1686243984,"current_range_meters":0,"station_id":"ce4bhbh2rcd13ifvqeqg","pricing_plan_id":"free"},{"bike_id":"407b771f-25a5-4391-bcf7-2fd4c673b4fb","system_id":"levelo_inurba_marseille","lat":43.30085,"lon":5.390856,"is_reserved":false,"is_disabled":false,"rental_uris":{"android":"levelo://app?vid=407b771f-25a5-4391-bcf7-2fd4c673b4fb","ios":"levelo://app?vid=407b771f-25a5-4391-bcf7-2fd4c673b4fb"},"vehicle_type_id":"4","last_reported":1686243984,"current_range_meters":7200,"station_id":"ce4bh192rcd13ifvqdb0","pricing_plan_id":"free"},{"bike_id":"4786f3db-4a69-4246-923c-050b7a5c08c9","system_id":"levelo_inurba_marseille","lat":43.29876,"lon":5.38892,"is_reserved":false,"is_disabled":false,"rental_uris":{"android":"levelo://app?vid=4786f3db-4a69-4246-923c-050b7a5c08c9","ios":"levelo://app?vid=4786f3db-4a69-4246-923c-050b7a5c08c9"},"vehicle_type_id":"4","last_reported":1686243984,"current_range_meters":12400,"station_id":"ce4bh392rcd13ifvqdl0","pricing_plan_id":"free"},{"bike_id":"4caf4109-f35c-4c2a-9683-75be34bcc9ab","system_id":"levelo_inurba_marseille","lat":43.313291,"lon":5.396838,"is_reserved":false,"is_disabled":false,"rental_uris":{"android":"levelo://app?vid=4caf4109-f35c-4c2a-9683-75be34bcc9ab","ios":"levelo://app?vid=4caf4109-f35c-4c2a-9683-75be34bcc9ab"},"vehicle_type_id":"4","last_reported":1686243984,"current_range_meters":0,"station_id":"ce4bgvp2rcd13ifvqcu0","pricing_plan_id":"free"},{"bike_id":"13e6139a-1057-4e51-b2ea-7e609dffd28c","system_id":"levelo_inurba_marseille","lat":43.309038,"lon":5.396546,"is_reserved":false,"is_disabled":false,"rental_uris":{"android":"levelo://app?vid=13e6139a-1057-4e51-b2ea-7e609dffd28c","ios":"levelo://app?vid=13e6139a-1057-4e51-b2ea-7e609dffd28c"},"vehicle_type_id":"4","last_reported":1686243984,"current_range_meters":0,"station_id":"ce4bh012rcd13ifvqcv0","pricing_plan_id":"free"},{"bike_id":"e4659cbe-bfef-43ac-8768-8ffd9e4d5dac","system_id":"levelo_inurba_marseille","lat":43.309038,"lon":5.396546,"is_reserved":false,"is_disabled":false,"rental_uris":{"android":"levelo://app?vid=e4659cbe-bfef-43ac-8768-8ffd9e4d5dac","ios":"levelo://app?vid=e4659cbe-bfef-43ac-8768-8ffd9e4d5dac"},"vehicle_type_id":"4","last_reported":1686243984,"current_range_meters":1600,"station_id":"ce4bh012rcd13ifvqcv0","pricing_plan_id":"free"},{"bike_id":"c4d161bc-c629-46aa-b50c-8215f7489bd5","system_id":"levelo_inurba_marseille","lat":43.29529,"lon":5.385581,"is_reserved":false,"is_disabled":false,"rental_uris":{"android":"levelo://app?vid=c4d161bc-c629-46aa-b50c-8215f7489bd5","ios":"levelo://app?vid=c4d161bc-c629-46aa-b50c-8215f7489bd5"},"vehicle_type_id":"4","last_reported":1686243984,"current_range_meters":0,"station_id":"ce4bgih2rcd13ifvqba0","pricing_plan_id":"free"},{"bike_id":"e58b5ec4-49ca-4aed-8356-66bd3589666a","system_id":"levelo_inurba_marseille","lat":43.290779,"lon":5.371482,"is_reserved":false,"is_disabled":false,"rental_uris":{"android":"levelo://app?vid=e58b5ec4-49ca-4aed-8356-66bd3589666a","ios":"levelo://app?vid=e58b5ec4-49ca-4aed-8356-66bd3589666a"},"vehicle_type_id":"4","last_reported":1686243984,"current_range_meters":0,"station_id":"ce4bh5p2rcd13ifvqe4g","pricing_plan_id":"free"},{"bike_id":"ff1f9427-fc75-4c26-a99a-5878a97d8203","system_id":"levelo_inurba_marseille","lat":43.302008,"lon":5.394694,"is_reserved":false,"is_disabled":false,"rental_uris":{"android":"levelo://app?vid=ff1f9427-fc75-4c26-a99a-5878a97d8203","ios":"levelo://app?vid=ff1f9427-fc75-4c26-a99a-5878a97d8203"},"vehicle_type_id":"4","last_reported":1686243984,"current_range_meters":0,"station_id":"ce4bh0p2rcd13ifvqd70","pricing_plan_id":"free"},{"bike_id":"9fe45593-deaa-44cc-a154-a226c5804d62","system_id":"levelo_inurba_marseille","lat":43.290624,"lon":5.359245,"is_reserved":false,"is_disabled":false,"rental_uris":{"android":"levelo://app?vid=9fe45593-deaa-44cc-a154-a226c5804d62","ios":"levelo://app?vid=9fe45593-deaa-44cc-a154-a226c5804d62"},"vehicle_type_id":"4","last_reported":1686243984,"current_range_meters":30400,"station_id":"ce4bha92rcd13ifvqeg0","pricing_plan_id":"free"},{"bike_id":"525c4daf-7688-46eb-8c01-8b80d6fc04d9","system_id":"levelo_inurba_marseille","lat":43.330471,"lon":5.389153,"is_reserved":false,"is_disabled":false,"rental_uris":{"android":"levelo://app?vid=525c4daf-7688-46eb-8c01-8b80d6fc04d9","ios":"levelo://app?vid=525c4daf-7688-46eb-8c01-8b80d6fc04d9"},"vehicle_type_id":"4","last_reported":1686243984,"current_range_meters":25600,"station_id":"","pricing_plan_id":"free"},{"bike_id":"50be3487-1d11-48f3-b8ef-a02bd4845d0b","system_id":"levelo_inurba_marseille","lat":43.33043,"lon":5.38924,"is_reserved":false,"is_disabled":false,"rental_uris":{"android":"levelo://app?vid=50be3487-1d11-48f3-b8ef-a02bd4845d0b","ios":"levelo://app?vid=50be3487-1d11-48f3-b8ef-a02bd4845d0b"},"vehicle_type_id":"4","last_reported":1686243984,"current_range_meters":27200,"station_id":"ce4bhr92rcd13ifvqhrg","pricing_plan_id":"free"},{"bike_id":"eebb0572-4916-4105-a791-7d74572be411","system_id":"levelo_inurba_marseille","lat":43.290103,"lon":5.356114,"is_reserved":false,"is_disabled":false,"rental_uris":{"android":"levelo://app?vid=eebb0572-4916-4105-a791-7d74572be411","ios":"levelo://app?vid=eebb0572-4916-4105-a791-7d74572be411"},"vehicle_type_id":"4","last_reported":1686243984,"current_range_meters":12400,"station_id":"ce4bhb92rcd13ifvqen0","pricing_plan_id":"free"},{"bike_id":"5103420d-338f-4f56-a0f3-7e019e5c9924","system_id":"levelo_inurba_marseille","lat":43.33046,"lon":5.38921,"is_reserved":false,"is_disabled":false,"rental_uris":{"android":"levelo://app?vid=5103420d-338f-4f56-a0f3-7e019e5c9924","ios":"levelo://app?vid=5103420d-338f-4f56-a0f3-7e019e5c9924"},"vehicle_type_id":"4","last_reported":1686243984,"current_range_meters":23200,"station_id":"ce4bhr92rcd13ifvqhrg","pricing_plan_id":"free"},{"bike_id":"bad558da-db8d-4559-806c-82c3af811610","system_id":"levelo_inurba_marseille","lat":43.297814,"lon":5.393513,"is_reserved":false,"is_disabled":false,"rental_uris":{"android":"levelo://app?vid=bad558da-db8d-4559-806c-82c3af811610","ios":"levelo://app?vid=bad558da-db8d-4559-806c-82c3af811610"},"vehicle_type_id":"4","last_reported":1686243984,"current_range_meters":11200,"station_id":"chh1huq6cuj3fo74tm60","pricing_plan_id":"free"},{"bike_id":"7a2fccab-8723-438d-ba79-40aff1ba8ebe","system_id":"levelo_inurba_marseille","lat":43.295169,"lon":5.390426,"is_reserved":false,"is_disabled":false,"rental_uris":{"android":"levelo://app?vid=7a2fccab-8723-438d-ba79-40aff1ba8ebe","ios":"levelo://app?vid=7a2fccab-8723-438d-ba79-40aff1ba8ebe"},"vehicle_type_id":"4","last_reported":1686243984,"current_range_meters":1200,"station_id":"ce4bh3p2rcd13ifvqdp0","pricing_plan_id":"free"},{"bike_id":"ccba32b4-08d8-4479-86a6-7f4bfb2846fb","system_id":"levelo_inurba_marseille","lat":43.31993,"lon":5.39932,"is_reserved":false,"is_disabled":false,"rental_uris":{"android":"levelo://app?vid=ccba32b4-08d8-4479-86a6-7f4bfb2846fb","ios":"levelo://app?vid=ccba32b4-08d8-4479-86a6-7f4bfb2846fb"},"vehicle_type_id":"4","last_reported":1686243984,"current_range_meters":0,"station_id":"","pricing_plan_id":"free"},{"bike_id":"f6bf62ab-2848-4c96-ac45-9bf2058a21d4","system_id":"levelo_inurba_marseille","lat":43.28856,"lon":5.358371,"is_reserved":false,"is_disabled":false,"rental_uris":{"android":"levelo://app?vid=f6bf62ab-2848-4c96-ac45-9bf2058a21d4","ios":"levelo://app?vid=f6bf62ab-2848-4c96-ac45-9bf2058a21d4"},"vehicle_type_id":"4","last_reported":1686243984,"current_range_meters":0,"station_id":"ce4bhb12rcd13ifvqem0","pricing_plan_id":"free"},{"bike_id":"8133a9a8-4bf9-4bcf-b05f-0ddecbebb774","system_id":"levelo_inurba_marseille","lat":43.28856,"lon":5.358371,"is_reserved":false,"is_disabled":false,"rental_uris":{"android":"levelo://app?vid=8133a9a8-4bf9-4bcf-b05f-0ddecbebb774","ios":"levelo://app?vid=8133a9a8-4bf9-4bcf-b05f-0ddecbebb774"},"vehicle_type_id":"4","last_reported":1686243984,"current_range_meters":0,"station_id":"ce4bhb12rcd13ifvqem0","pricing_plan_id":"free"},{"bike_id":"b7f1a644-d66d-4bbf-9b3d-301ef1c29b78","system_id":"levelo_inurba_marseille","lat":43.33746,"lon":5.37439,"is_reserved":false,"is_disabled":false,"rental_uris":{"android":"levelo://app?vid=b7f1a644-d66d-4bbf-9b3d-301ef1c29b78","ios":"levelo://app?vid=b7f1a644-d66d-4bbf-9b3d-301ef1c29b78"},"vehicle_type_id":"4","last_reported":1686243984,"current_range_meters":28000,"station_id":"","pricing_plan_id":"free"},{"bike_id":"eaf288e4-7ee4-4e5e-b9d1-568d8b8d2845","system_id":"levelo_inurba_marseille","lat":43.33744,"lon":5.37487,"is_reserved":false,"is_disabled":false,"rental_uris":{"android":"levelo://app?vid=eaf288e4-7ee4-4e5e-b9d1-568d8b8d2845","ios":"levelo://app?vid=eaf288e4-7ee4-4e5e-b9d1-568d8b8d2845"},"vehicle_type_id":"4","last_reported":1686243984,"current_range_meters":22400,"station_id":"","pricing_plan_id":"free"},{"bike_id":"2a58347c-bb80-4baa-931b-25b7f9b5a8d5","system_id":"levelo_inurba_marseille","lat":43.33745,"lon":5.37482,"is_reserved":false,"is_disabled":false,"rental_uris":{"android":"levelo://app?vid=2a58347c-bb80-4baa-931b-25b7f9b5a8d5","ios":"levelo://app?vid=2a58347c-bb80-4baa-931b-25b7f9b5a8d5"},"vehicle_type_id":"4","last_reported":1686243984,"current_range_meters":30800,"station_id":"","pricing_plan_id":"free"},{"bike_id":"265c0905-166c-408b-8d33-95a8e86424e1","system_id":"levelo_inurba_marseille","lat":43.337582,"lon":5.374483,"is_reserved":false,"is_disabled":false,"rental_uris":{"android":"levelo://app?vid=265c0905-166c-408b-8d33-95a8e86424e1","ios":"levelo://app?vid=265c0905-166c-408b-8d33-95a8e86424e1"},"vehicle_type_id":"4","last_reported":1686243984,"current_range_meters":23200,"station_id":"","pricing_plan_id":"free"},{"bike_id":"bf4b07bc-f4b6-48f9-b77e-66ec24318ced","system_id":"levelo_inurba_marseille","lat":43.33756,"lon":5.37477,"is_reserved":false,"is_disabled":false,"rental_uris":{"android":"levelo://app?vid=bf4b07bc-f4b6-48f9-b77e-66ec24318ced","ios":"levelo://app?vid=bf4b07bc-f4b6-48f9-b77e-66ec24318ced"},"vehicle_type_id":"4","last_reported":1686243984,"current_range_meters":9200,"station_id":"","pricing_plan_id":"free"},{"bike_id":"ca97e488-a7f4-4dda-afa4-f84c1715e79f","system_id":"levelo_inurba_marseille","lat":43.33756,"lon":5.37484,"is_reserved":false,"is_disabled":false,"rental_uris":{"android":"levelo://app?vid=ca97e488-a7f4-4dda-afa4-f84c1715e79f","ios":"levelo://app?vid=ca97e488-a7f4-4dda-afa4-f84c1715e79f"},"vehicle_type_id":"4","last_reported":1686243984,"current_range_meters":0,"station_id":"","pricing_plan_id":"free"},{"bike_id":"fb041ec1-b611-46eb-9d8b-3229cfb3396a","system_id":"levelo_inurba_marseille","lat":43.33768,"lon":5.37459,"is_reserved":false,"is_disabled":false,"rental_uris":{"android":"levelo://app?vid=fb041ec1-b611-46eb-9d8b-3229cfb3396a","ios":"levelo://app?vid=fb041ec1-b611-46eb-9d8b-3229cfb3396a"},"vehicle_type_id":"4","last_reported":1686243984,"current_range_meters":30400,"station_id":"","pricing_plan_id":"free"},{"bike_id":"d82b24ea-1ccd-4d4a-8287-81a615d2fc17","system_id":"levelo_inurba_marseille","lat":43.28704,"lon":5.37386,"is_reserved":false,"is_disabled":false,"rental_uris":{"android":"levelo://app?vid=d82b24ea-1ccd-4d4a-8287-81a615d2fc17","ios":"levelo://app?vid=d82b24ea-1ccd-4d4a-8287-81a615d2fc17"},"vehicle_type_id":"4","last_reported":1686243984,"current_range_meters":13200,"station_id":"","pricing_plan_id":"free"},{"bike_id":"61f8492c-9f11-4cf3-a0d8-2acfda72baff","system_id":"levelo_inurba_marseille","lat":43.298681,"lon":5.397225,"is_reserved":false,"is_disabled":false,"rental_uris":{"android":"levelo://app?vid=61f8492c-9f11-4cf3-a0d8-2acfda72baff","ios":"levelo://app?vid=61f8492c-9f11-4cf3-a0d8-2acfda72baff"},"vehicle_type_id":"4","last_reported":1686243984,"current_range_meters":12400,"station_id":"ce4bh0h2rcd13ifvqd50","pricing_plan_id":"free"},{"bike_id":"37b393a0-e0c3-48b7-9e5b-b4c5d98c7c24","system_id":"levelo_inurba_marseille","lat":43.28701,"lon":5.37389,"is_reserved":false,"is_disabled":false,"rental_uris":{"android":"levelo://app?vid=37b393a0-e0c3-48b7-9e5b-b4c5d98c7c24","ios":"levelo://app?vid=37b393a0-e0c3-48b7-9e5b-b4c5d98c7c24"},"vehicle_type_id":"4","last_reported":1686243984,"current_range_meters":7200,"station_id":"","pricing_plan_id":"free"},{"bike_id":"f64ce84a-10d3-4999-9bf3-30b3171512f7","system_id":"levelo_inurba_marseille","lat":43.298681,"lon":5.397225,"is_reserved":false,"is_disabled":false,"rental_uris":{"android":"levelo://app?vid=f64ce84a-10d3-4999-9bf3-30b3171512f7","ios":"levelo://app?vid=f64ce84a-10d3-4999-9bf3-30b3171512f7"},"vehicle_type_id":"4","last_reported":1686243984,"current_range_meters":14000,"station_id":"ce4bh0h2rcd13ifvqd50","pricing_plan_id":"free"},{"bike_id":"a870d04e-8da2-4124-bdc7-3767985c12c0","system_id":"levelo_inurba_marseille","lat":43.286591,"lon":5.363346,"is_reserved":false,"is_disabled":false,"rental_uris":{"android":"levelo://app?vid=a870d04e-8da2-4124-bdc7-3767985c12c0","ios":"levelo://app?vid=a870d04e-8da2-4124-bdc7-3767985c12c0"},"vehicle_type_id":"4","last_reported":1686243984,"current_range_meters":800,"station_id":"ce4bhah2rcd13ifvqej0","pricing_plan_id":"free"},{"bike_id":"12c7c9fc-f8e8-447f-8f1e-ae54724b8fe6","system_id":"levelo_inurba_marseille","lat":43.295194,"lon":5.39397,"is_reserved":false,"is_disabled":false,"rental_uris":{"android":"levelo://app?vid=12c7c9fc-f8e8-447f-8f1e-ae54724b8fe6","ios":"levelo://app?vid=12c7c9fc-f8e8-447f-8f1e-ae54724b8fe6"},"vehicle_type_id":"4","last_reported":1686243984,"current_range_meters":4400,"station_id":"ce4bh292rcd13ifvqdf0","pricing_plan_id":"free"},{"bike_id":"b2e42acd-4603-4dc0-bc88-d5eb420bd178","system_id":"levelo_inurba_marseille","lat":43.28613,"lon":5.37065,"is_reserved":false,"is_disabled":false,"rental_uris":{"android":"levelo://app?vid=b2e42acd-4603-4dc0-bc88-d5eb420bd178","ios":"levelo://app?vid=b2e42acd-4603-4dc0-bc88-d5eb420bd178"},"vehicle_type_id":"4","last_reported":1686243984,"current_range_meters":15200,"station_id":"","pricing_plan_id":"free"},{"bike_id":"56f21d4e-b997-4da8-97b9-73ad2c97ce49","system_id":"levelo_inurba_marseille","lat":43.29893,"lon":5.40037,"is_reserved":false,"is_disabled":false,"rental_uris":{"android":"levelo://app?vid=56f21d4e-b997-4da8-97b9-73ad2c97ce49","ios":"levelo://app?vid=56f21d4e-b997-4da8-97b9-73ad2c97ce49"},"vehicle_type_id":"4","last_reported":1686243984,"current_range_meters":0,"station_id":"","pricing_plan_id":"free"},{"bike_id":"bbc6ed9c-d7b0-4496-90f8-e96be2498ff6","system_id":"levelo_inurba_marseille","lat":43.31584,"lon":5.40565,"is_reserved":false,"is_disabled":false,"rental_uris":{"android":"levelo://app?vid=bbc6ed9c-d7b0-4496-90f8-e96be2498ff6","ios":"levelo://app?vid=bbc6ed9c-d7b0-4496-90f8-e96be2498ff6"},"vehicle_type_id":"4","last_reported":1686243984,"current_range_meters":5600,"station_id":"","pricing_plan_id":"free"},{"bike_id":"ac8b0559-7cea-47c7-90f4-a17ddac528f2","system_id":"levelo_inurba_marseille","lat":43.28621,"lon":5.35101,"is_reserved":false,"is_disabled":false,"rental_uris":{"android":"levelo://app?vid=ac8b0559-7cea-47c7-90f4-a17ddac528f2","ios":"levelo://app?vid=ac8b0559-7cea-47c7-90f4-a17ddac528f2"},"vehicle_type_id":"4","last_reported":1686243984,"current_range_meters":0,"station_id":"","pricing_plan_id":"free"},{"bike_id":"20769e93-6b52-4d13-a7b0-0d99e44f36b5","system_id":"levelo_inurba_marseille","lat":43.285856,"lon":5.350771,"is_reserved":false,"is_disabled":false,"rental_uris":{"android":"levelo://app?vid=20769e93-6b52-4d13-a7b0-0d99e44f36b5","ios":"levelo://app?vid=20769e93-6b52-4d13-a7b0-0d99e44f36b5"},"vehicle_type_id":"4","last_reported":1686243984,"current_range_meters":2000,"station_id":"ce4bhch2rcd13ifvqeug","pricing_plan_id":"free"},{"bike_id":"e39d1a1d-60bf-4c69-b05f-ec54b3ae85e4","system_id":"levelo_inurba_marseille","lat":43.286595,"lon":5.386795,"is_reserved":false,"is_disabled":false,"rental_uris":{"android":"levelo://app?vid=e39d1a1d-60bf-4c69-b05f-ec54b3ae85e4","ios":"levelo://app?vid=e39d1a1d-60bf-4c69-b05f-ec54b3ae85e4"},"vehicle_type_id":"4","last_reported":1686243984,"current_range_meters":4800,"station_id":"ce4bh492rcd13ifvqdug","pricing_plan_id":"free"},{"bike_id":"9d1d23ea-336f-4dc1-baa7-7233a1fc640f","system_id":"levelo_inurba_marseille","lat":43.283494,"lon":5.380945,"is_reserved":false,"is_disabled":false,"rental_uris":{"android":"levelo://app?vid=9d1d23ea-336f-4dc1-baa7-7233a1fc640f","ios":"levelo://app?vid=9d1d23ea-336f-4dc1-baa7-7233a1fc640f"},"vehicle_type_id":"4","last_reported":1686243984,"current_range_meters":11200,"station_id":"ce4bh412rcd13ifvqdr0","pricing_plan_id":"free"},{"bike_id":"b076a4fc-a17e-4ccd-8d50-bc13b35532a6","system_id":"levelo_inurba_marseille","lat":43.283498,"lon":5.380948,"is_reserved":false,"is_disabled":false,"rental_uris":{"android":"levelo://app?vid=b076a4fc-a17e-4ccd-8d50-bc13b35532a6","ios":"levelo://app?vid=b076a4fc-a17e-4ccd-8d50-bc13b35532a6"},"vehicle_type_id":"4","last_reported":1686243984,"current_range_meters":0,"station_id":"ce4bh412rcd13ifvqdr0","pricing_plan_id":"free"},{"bike_id":"ae232d39-b160-410f-a53c-e104a0631f2e","system_id":"levelo_inurba_marseille","lat":43.32412,"lon":5.4068,"is_reserved":false,"is_disabled":false,"rental_uris":{"android":"levelo://app?vid=ae232d39-b160-410f-a53c-e104a0631f2e","ios":"levelo://app?vid=ae232d39-b160-410f-a53c-e104a0631f2e"},"vehicle_type_id":"4","last_reported":1686243984,"current_range_meters":24000,"station_id":"","pricing_plan_id":"free"},{"bike_id":"093038c9-8cb8-4754-a50c-850ffc0360c2","system_id":"levelo_inurba_marseille","lat":43.282754,"lon":5.350519,"is_reserved":false,"is_disabled":false,"rental_uris":{"android":"levelo://app?vid=093038c9-8cb8-4754-a50c-850ffc0360c2","ios":"levelo://app?vid=093038c9-8cb8-4754-a50c-850ffc0360c2"},"vehicle_type_id":"4","last_reported":1686243984,"current_range_meters":2000,"station_id":"ce4bhbp2rcd13ifvqerg","pricing_plan_id":"free"},{"bike_id":"724523ab-49b9-4d64-af5c-ee12b950bef8","system_id":"levelo_inurba_marseille","lat":43.292724,"lon":5.401131,"is_reserved":false,"is_disabled":false,"rental_uris":{"android":"levelo://app?vid=724523ab-49b9-4d64-af5c-ee12b950bef8","ios":"levelo://app?vid=724523ab-49b9-4d64-af5c-ee12b950bef8"},"vehicle_type_id":"4","last_reported":1686243984,"current_range_meters":4800,"station_id":"ce4bh312rcd13ifvqdk0","pricing_plan_id":"free"},{"bike_id":"89d5063a-eef3-49dd-9a57-131dd01549d5","system_id":"levelo_inurba_marseille","lat":43.282754,"lon":5.350519,"is_reserved":false,"is_disabled":false,"rental_uris":{"android":"levelo://app?vid=89d5063a-eef3-49dd-9a57-131dd01549d5","ios":"levelo://app?vid=89d5063a-eef3-49dd-9a57-131dd01549d5"},"vehicle_type_id":"4","last_reported":1686243984,"current_range_meters":4000,"station_id":"ce4bhbp2rcd13ifvqerg","pricing_plan_id":"free"},{"bike_id":"01c8c013-b55e-4657-8efa-e3a332d01723","system_id":"levelo_inurba_marseille","lat":43.282744,"lon":5.350533,"is_reserved":false,"is_disabled":false,"rental_uris":{"android":"levelo://app?vid=01c8c013-b55e-4657-8efa-e3a332d01723","ios":"levelo://app?vid=01c8c013-b55e-4657-8efa-e3a332d01723"},"vehicle_type_id":"4","last_reported":1686243984,"current_range_meters":2000,"station_id":"ce4bhbp2rcd13ifvqerg","pricing_plan_id":"free"},{"bike_id":"1770e5dc-1f49-43de-b3bd-f87de6496789","system_id":"levelo_inurba_marseille","lat":43.282754,"lon":5.350519,"is_reserved":false,"is_disabled":false,"rental_uris":{"android":"levelo://app?vid=1770e5dc-1f49-43de-b3bd-f87de6496789","ios":"levelo://app?vid=1770e5dc-1f49-43de-b3bd-f87de6496789"},"vehicle_type_id":"4","last_reported":1686243984,"current_range_meters":25200,"station_id":"ce4bhbp2rcd13ifvqerg","pricing_plan_id":"free"},{"bike_id":"c5569c9e-ab66-4b91-b44a-f8209188b4ae","system_id":"levelo_inurba_marseille","lat":43.282744,"lon":5.350533,"is_reserved":false,"is_disabled":false,"rental_uris":{"android":"levelo://app?vid=c5569c9e-ab66-4b91-b44a-f8209188b4ae","ios":"levelo://app?vid=c5569c9e-ab66-4b91-b44a-f8209188b4ae"},"vehicle_type_id":"4","last_reported":1686243984,"current_range_meters":26400,"station_id":"ce4bhbp2rcd13ifvqerg","pricing_plan_id":"free"},{"bike_id":"3bdef4bd-e88e-4080-8e1b-676fad6e129f","system_id":"levelo_inurba_marseille","lat":43.282744,"lon":5.350533,"is_reserved":false,"is_disabled":false,"rental_uris":{"android":"levelo://app?vid=3bdef4bd-e88e-4080-8e1b-676fad6e129f","ios":"levelo://app?vid=3bdef4bd-e88e-4080-8e1b-676fad6e129f"},"vehicle_type_id":"4","last_reported":1686243984,"current_range_meters":28400,"station_id":"ce4bhbp2rcd13ifvqerg","pricing_plan_id":"free"},{"bike_id":"5bf26447-450e-4bef-828a-aa55b7e031bc","system_id":"levelo_inurba_marseille","lat":43.283502,"lon":5.386471,"is_reserved":false,"is_disabled":false,"rental_uris":{"android":"levelo://app?vid=5bf26447-450e-4bef-828a-aa55b7e031bc","ios":"levelo://app?vid=5bf26447-450e-4bef-828a-aa55b7e031bc"},"vehicle_type_id":"4","last_reported":1686243984,"current_range_meters":5600,"station_id":"ce4bh492rcd13ifvqdvg","pricing_plan_id":"free"},{"bike_id":"b34c7692-ada7-49b4-a6ec-50d1c1acd3ba","system_id":"levelo_inurba_marseille","lat":43.28039,"lon":5.369297,"is_reserved":false,"is_disabled":false,"rental_uris":{"android":"levelo://app?vid=b34c7692-ada7-49b4-a6ec-50d1c1acd3ba","ios":"levelo://app?vid=b34c7692-ada7-49b4-a6ec-50d1c1acd3ba"},"vehicle_type_id":"4","last_reported":1686243984,"current_range_meters":23600,"station_id":"ce4bha12rcd13ifvqef0","pricing_plan_id":"free"},{"bike_id":"57f8593c-aa93-4a5c-a49a-63f5bad42664","system_id":"levelo_inurba_marseille","lat":43.28039,"lon":5.36953,"is_reserved":false,"is_disabled":false,"rental_uris":{"android":"levelo://app?vid=57f8593c-aa93-4a5c-a49a-63f5bad42664","ios":"levelo://app?vid=57f8593c-aa93-4a5c-a49a-63f5bad42664"},"vehicle_type_id":"4","last_reported":1686243984,"current_range_meters":29200,"station_id":"","pricing_plan_id":"free"},{"bike_id":"819cfd5c-ef74-4e09-99a5-0b44bbbc2471","system_id":"levelo_inurba_marseille","lat":43.28037,"lon":5.36942,"is_reserved":false,"is_disabled":false,"rental_uris":{"android":"levelo://app?vid=819cfd5c-ef74-4e09-99a5-0b44bbbc2471","ios":"levelo://app?vid=819cfd5c-ef74-4e09-99a5-0b44bbbc2471"},"vehicle_type_id":"4","last_reported":1686243984,"current_range_meters":4000,"station_id":"ce4bha12rcd13ifvqef0","pricing_plan_id":"free"},{"bike_id":"db37385f-9b2a-43db-9286-856f0035dd37","system_id":"levelo_inurba_marseille","lat":43.281114,"lon":5.378313,"is_reserved":false,"is_disabled":false,"rental_uris":{"android":"levelo://app?vid=db37385f-9b2a-43db-9286-856f0035dd37","ios":"levelo://app?vid=db37385f-9b2a-43db-9286-856f0035dd37"},"vehicle_type_id":"4","last_reported":1686243984,"current_range_meters":4400,"station_id":"","pricing_plan_id":"free"},{"bike_id":"783eed91-9604-4d63-a8df-8c5072708d5c","system_id":"levelo_inurba_marseille","lat":43.284462,"lon":5.392121,"is_reserved":false,"is_disabled":false,"rental_uris":{"android":"levelo://app?vid=783eed91-9604-4d63-a8df-8c5072708d5c","ios":"levelo://app?vid=783eed91-9604-4d63-a8df-8c5072708d5c"},"vehicle_type_id":"4","last_reported":1686243984,"current_range_meters":12400,"station_id":"ce4bhoh2rcd13ifvqh5g","pricing_plan_id":"free"},{"bike_id":"b9ac4ad2-c619-4fca-8859-778a212a1301","system_id":"levelo_inurba_marseille","lat":43.32658,"lon":5.40998,"is_reserved":false,"is_disabled":false,"rental_uris":{"android":"levelo://app?vid=b9ac4ad2-c619-4fca-8859-778a212a1301","ios":"levelo://app?vid=b9ac4ad2-c619-4fca-8859-778a212a1301"},"vehicle_type_id":"4","last_reported":1686243984,"current_range_meters":0,"station_id":"","pricing_plan_id":"free"},{"bike_id":"2b269f4d-13d3-481f-8b13-66e1100986b6","system_id":"levelo_inurba_marseille","lat":43.28134,"lon":5.34644,"is_reserved":false,"is_disabled":false,"rental_uris":{"android":"levelo://app?vid=2b269f4d-13d3-481f-8b13-66e1100986b6","ios":"levelo://app?vid=2b269f4d-13d3-481f-8b13-66e1100986b6"},"vehicle_type_id":"4","last_reported":1686243984,"current_range_meters":4400,"station_id":"","pricing_plan_id":"free"},{"bike_id":"5c37074e-0fbb-4731-be68-ffe44dec93c2","system_id":"levelo_inurba_marseille","lat":43.28022,"lon":5.3867,"is_reserved":false,"is_disabled":false,"rental_uris":{"android":"levelo://app?vid=5c37074e-0fbb-4731-be68-ffe44dec93c2","ios":"levelo://app?vid=5c37074e-0fbb-4731-be68-ffe44dec93c2"},"vehicle_type_id":"4","last_reported":1686243984,"current_range_meters":2000,"station_id":"","pricing_plan_id":"free"},{"bike_id":"78bfaefe-2050-46ba-9b47-a6eaec5e367b","system_id":"levelo_inurba_marseille","lat":43.2814,"lon":5.39078,"is_reserved":false,"is_disabled":false,"rental_uris":{"android":"levelo://app?vid=78bfaefe-2050-46ba-9b47-a6eaec5e367b","ios":"levelo://app?vid=78bfaefe-2050-46ba-9b47-a6eaec5e367b"},"vehicle_type_id":"4","last_reported":1686243984,"current_range_meters":30000,"station_id":"","pricing_plan_id":"free"},{"bike_id":"ab28cfb0-b0b6-426f-a19d-e334622d2ddb","system_id":"levelo_inurba_marseille","lat":43.292569,"lon":5.409107,"is_reserved":false,"is_disabled":false,"rental_uris":{"android":"levelo://app?vid=ab28cfb0-b0b6-426f-a19d-e334622d2ddb","ios":"levelo://app?vid=ab28cfb0-b0b6-426f-a19d-e334622d2ddb"},"vehicle_type_id":"4","last_reported":1686243984,"current_range_meters":0,"station_id":"ce4bh192rcd13ifvqdc0","pricing_plan_id":"free"},{"bike_id":"78bb6d8d-e343-4c84-8aef-3a0a03ce1af5","system_id":"levelo_inurba_marseille","lat":43.292569,"lon":5.409107,"is_reserved":false,"is_disabled":false,"rental_uris":{"android":"levelo://app?vid=78bb6d8d-e343-4c84-8aef-3a0a03ce1af5","ios":"levelo://app?vid=78bb6d8d-e343-4c84-8aef-3a0a03ce1af5"},"vehicle_type_id":"4","last_reported":1686243984,"current_range_meters":7600,"station_id":"ce4bh192rcd13ifvqdc0","pricing_plan_id":"free"},{"bike_id":"87aa2408-a5c3-42b6-a41d-2877263f2771","system_id":"levelo_inurba_marseille","lat":43.292569,"lon":5.409107,"is_reserved":false,"is_disabled":false,"rental_uris":{"android":"levelo://app?vid=87aa2408-a5c3-42b6-a41d-2877263f2771","ios":"levelo://app?vid=87aa2408-a5c3-42b6-a41d-2877263f2771"},"vehicle_type_id":"4","last_reported":1686243984,"current_range_meters":18400,"station_id":"ce4bh192rcd13ifvqdc0","pricing_plan_id":"free"},{"bike_id":"e1d754ff-b724-48f7-aac8-46af68cd75a0","system_id":"levelo_inurba_marseille","lat":43.292569,"lon":5.409107,"is_reserved":false,"is_disabled":false,"rental_uris":{"android":"levelo://app?vid=e1d754ff-b724-48f7-aac8-46af68cd75a0","ios":"levelo://app?vid=e1d754ff-b724-48f7-aac8-46af68cd75a0"},"vehicle_type_id":"4","last_reported":1686243984,"current_range_meters":13600,"station_id":"ce4bh192rcd13ifvqdc0","pricing_plan_id":"free"},{"bike_id":"d53ed4ee-be6b-4f95-b8a9-687a0bead5d5","system_id":"levelo_inurba_marseille","lat":43.27618,"lon":5.361009,"is_reserved":false,"is_disabled":false,"rental_uris":{"android":"levelo://app?vid=d53ed4ee-be6b-4f95-b8a9-687a0bead5d5","ios":"levelo://app?vid=d53ed4ee-be6b-4f95-b8a9-687a0bead5d5"},"vehicle_type_id":"4","last_reported":1686243984,"current_range_meters":25600,"station_id":"ce4bgj92rcd13ifvqbe0","pricing_plan_id":"free"},{"bike_id":"1e51eb6f-0daf-48d2-af10-73b015157961","system_id":"levelo_inurba_marseille","lat":43.27618,"lon":5.361009,"is_reserved":false,"is_disabled":false,"rental_uris":{"android":"levelo://app?vid=1e51eb6f-0daf-48d2-af10-73b015157961","ios":"levelo://app?vid=1e51eb6f-0daf-48d2-af10-73b015157961"},"vehicle_type_id":"4","last_reported":1686243984,"current_range_meters":17200,"station_id":"ce4bgj92rcd13ifvqbe0","pricing_plan_id":"free"},{"bike_id":"14002a89-6833-4815-b387-1e5c632a0275","system_id":"levelo_inurba_marseille","lat":43.27618,"lon":5.361009,"is_reserved":false,"is_disabled":false,"rental_uris":{"android":"levelo://app?vid=14002a89-6833-4815-b387-1e5c632a0275","ios":"levelo://app?vid=14002a89-6833-4815-b387-1e5c632a0275"},"vehicle_type_id":"4","last_reported":1686243984,"current_range_meters":30800,"station_id":"ce4bgj92rcd13ifvqbe0","pricing_plan_id":"free"},{"bike_id":"a9808180-ab39-4a47-81b1-e146bfdca7c0","system_id":"levelo_inurba_marseille","lat":43.280784,"lon":5.396622,"is_reserved":false,"is_disabled":false,"rental_uris":{"android":"levelo://app?vid=a9808180-ab39-4a47-81b1-e146bfdca7c0","ios":"levelo://app?vid=a9808180-ab39-4a47-81b1-e146bfdca7c0"},"vehicle_type_id":"4","last_reported":1686243984,"current_range_meters":23600,"station_id":"ce4bho12rcd13ifvqh2g","pricing_plan_id":"free"},{"bike_id":"3756b71b-fa91-4e06-a1ce-4424111f8da2","system_id":"levelo_inurba_marseille","lat":43.2479,"lon":5.374457,"is_reserved":false,"is_disabled":false,"rental_uris":{"android":"levelo://app?vid=3756b71b-fa91-4e06-a1ce-4424111f8da2","ios":"levelo://app?vid=3756b71b-fa91-4e06-a1ce-4424111f8da2"},"vehicle_type_id":"4","last_reported":1686243984,"current_range_meters":6800,"station_id":"ce4bhgh2rcd13ifvqfb0","pricing_plan_id":"free"},{"bike_id":"a9addf9b-8e70-4314-9ca7-49dc998e6d5a","system_id":"levelo_inurba_marseille","lat":43.303837,"lon":5.418724,"is_reserved":false,"is_disabled":false,"rental_uris":{"android":"levelo://app?vid=a9addf9b-8e70-4314-9ca7-49dc998e6d5a","ios":"levelo://app?vid=a9addf9b-8e70-4314-9ca7-49dc998e6d5a"},"vehicle_type_id":"4","last_reported":1686243984,"current_range_meters":15200,"station_id":"ce4bhop2rcd13ifvqh7g","pricing_plan_id":"free"},{"bike_id":"15bbee05-8815-4cf0-9255-2dc4ee420092","system_id":"levelo_inurba_marseille","lat":43.273613,"lon":5.362705,"is_reserved":false,"is_disabled":false,"rental_uris":{"android":"levelo://app?vid=15bbee05-8815-4cf0-9255-2dc4ee420092","ios":"levelo://app?vid=15bbee05-8815-4cf0-9255-2dc4ee420092"},"vehicle_type_id":"4","last_reported":1686243984,"current_range_meters":27200,"station_id":"ce4bhbh2rcd13ifvqeo0","pricing_plan_id":"free"},{"bike_id":"c848ebd4-cbe8-4e31-ac1e-6c2e61087b02","system_id":"levelo_inurba_marseille","lat":43.273613,"lon":5.362705,"is_reserved":false,"is_disabled":false,"rental_uris":{"android":"levelo://app?vid=c848ebd4-cbe8-4e31-ac1e-6c2e61087b02","ios":"levelo://app?vid=c848ebd4-cbe8-4e31-ac1e-6c2e61087b02"},"vehicle_type_id":"4","last_reported":1686243984,"current_range_meters":0,"station_id":"ce4bhbh2rcd13ifvqeo0","pricing_plan_id":"free"},{"bike_id":"f0b48f25-b20a-4e7e-a225-3175e6dcc051","system_id":"levelo_inurba_marseille","lat":43.273613,"lon":5.362705,"is_reserved":false,"is_disabled":false,"rental_uris":{"android":"levelo://app?vid=f0b48f25-b20a-4e7e-a225-3175e6dcc051","ios":"levelo://app?vid=f0b48f25-b20a-4e7e-a225-3175e6dcc051"},"vehicle_type_id":"4","last_reported":1686243984,"current_range_meters":3200,"station_id":"ce4bhbh2rcd13ifvqeo0","pricing_plan_id":"free"},{"bike_id":"cfb2493d-f0ce-44c7-b56a-30037fc3c64a","system_id":"levelo_inurba_marseille","lat":43.273609,"lon":5.362708,"is_reserved":false,"is_disabled":false,"rental_uris":{"android":"levelo://app?vid=cfb2493d-f0ce-44c7-b56a-30037fc3c64a","ios":"levelo://app?vid=cfb2493d-f0ce-44c7-b56a-30037fc3c64a"},"vehicle_type_id":"4","last_reported":1686243984,"current_range_meters":8400,"station_id":"ce4bhbh2rcd13ifvqeo0","pricing_plan_id":"free"},{"bike_id":"f70c7579-c590-4c67-a676-56a3b05e34b2","system_id":"levelo_inurba_marseille","lat":43.273609,"lon":5.362708,"is_reserved":false,"is_disabled":false,"rental_uris":{"android":"levelo://app?vid=f70c7579-c590-4c67-a676-56a3b05e34b2","ios":"levelo://app?vid=f70c7579-c590-4c67-a676-56a3b05e34b2"},"vehicle_type_id":"4","last_reported":1686243984,"current_range_meters":16400,"station_id":"ce4bhbh2rcd13ifvqeo0","pricing_plan_id":"free"},{"bike_id":"7a0c9248-431f-4fac-805a-e56f8e9844e1","system_id":"levelo_inurba_marseille","lat":43.336134,"lon":5.410341,"is_reserved":false,"is_disabled":false,"rental_uris":{"android":"levelo://app?vid=7a0c9248-431f-4fac-805a-e56f8e9844e1","ios":"levelo://app?vid=7a0c9248-431f-4fac-805a-e56f8e9844e1"},"vehicle_type_id":"4","last_reported":1686243984,"current_range_meters":20000,"station_id":"ce4bhqh2rcd13ifvqhmg","pricing_plan_id":"free"},{"bike_id":"f991af11-66da-474f-8034-64350a849153","system_id":"levelo_inurba_marseille","lat":43.336134,"lon":5.410341,"is_reserved":false,"is_disabled":false,"rental_uris":{"android":"levelo://app?vid=f991af11-66da-474f-8034-64350a849153","ios":"levelo://app?vid=f991af11-66da-474f-8034-64350a849153"},"vehicle_type_id":"4","last_reported":1686243984,"current_range_meters":15200,"station_id":"ce4bhqh2rcd13ifvqhmg","pricing_plan_id":"free"},{"bike_id":"b97f1cf6-5151-46bf-bc17-0e10798ee8d5","system_id":"levelo_inurba_marseille","lat":43.276771,"lon":5.388799,"is_reserved":false,"is_disabled":false,"rental_uris":{"android":"levelo://app?vid=b97f1cf6-5151-46bf-bc17-0e10798ee8d5","ios":"levelo://app?vid=b97f1cf6-5151-46bf-bc17-0e10798ee8d5"},"vehicle_type_id":"4","last_reported":1686243984,"current_range_meters":31200,"station_id":"ce4bhi12rcd13ifvqfo0","pricing_plan_id":"free"},{"bike_id":"cb361806-7d5e-46cb-91fe-3363938d02e9","system_id":"levelo_inurba_marseille","lat":43.28261,"lon":5.40813,"is_reserved":false,"is_disabled":false,"rental_uris":{"android":"levelo://app?vid=cb361806-7d5e-46cb-91fe-3363938d02e9","ios":"levelo://app?vid=cb361806-7d5e-46cb-91fe-3363938d02e9"},"vehicle_type_id":"4","last_reported":1686243984,"current_range_meters":25200,"station_id":"","pricing_plan_id":"free"},{"bike_id":"df9b686f-3666-44a5-a684-a976322a033a","system_id":"levelo_inurba_marseille","lat":43.295523,"lon":5.422926,"is_reserved":false,"is_disabled":false,"rental_uris":{"android":"levelo://app?vid=df9b686f-3666-44a5-a684-a976322a033a","ios":"levelo://app?vid=df9b686f-3666-44a5-a684-a976322a033a"},"vehicle_type_id":"4","last_reported":1686243984,"current_range_meters":0,"station_id":"ce4bhph2rcd13ifvqhdg","pricing_plan_id":"free"},{"bike_id":"48dcf706-c986-4b4e-9588-74355cbcc5ba","system_id":"levelo_inurba_marseille","lat":43.278128,"lon":5.407195,"is_reserved":false,"is_disabled":false,"rental_uris":{"android":"levelo://app?vid=48dcf706-c986-4b4e-9588-74355cbcc5ba","ios":"levelo://app?vid=48dcf706-c986-4b4e-9588-74355cbcc5ba"},"vehicle_type_id":"4","last_reported":1686243984,"current_range_meters":12000,"station_id":"ce4bhnh2rcd13ifvqgtg","pricing_plan_id":"free"},{"bike_id":"b29fe071-959a-48f1-bf08-41cc07068ea9","system_id":"levelo_inurba_marseille","lat":43.269467,"lon":5.386439,"is_reserved":false,"is_disabled":false,"rental_uris":{"android":"levelo://app?vid=b29fe071-959a-48f1-bf08-41cc07068ea9","ios":"levelo://app?vid=b29fe071-959a-48f1-bf08-41cc07068ea9"},"vehicle_type_id":"4","last_reported":1686243984,"current_range_meters":2400,"station_id":"ce4bhh92rcd13ifvqfh0","pricing_plan_id":"free"},{"bike_id":"d23f387d-8e5a-4e91-8a1d-5a12fb1003ce","system_id":"levelo_inurba_marseille","lat":43.231793,"lon":5.400044,"is_reserved":false,"is_disabled":false,"rental_uris":{"android":"levelo://app?vid=d23f387d-8e5a-4e91-8a1d-5a12fb1003ce","ios":"levelo://app?vid=d23f387d-8e5a-4e91-8a1d-5a12fb1003ce"},"vehicle_type_id":"4","last_reported":1686243984,"current_range_meters":29600,"station_id":"ce4bhn12rcd13ifvqgqg","pricing_plan_id":"free"},{"bike_id":"511d345b-c609-4cef-a19b-a37e0e2e302b","system_id":"levelo_inurba_marseille","lat":43.265714,"lon":5.372891,"is_reserved":false,"is_disabled":false,"rental_uris":{"android":"levelo://app?vid=511d345b-c609-4cef-a19b-a37e0e2e302b","ios":"levelo://app?vid=511d345b-c609-4cef-a19b-a37e0e2e302b"},"vehicle_type_id":"4","last_reported":1686243984,"current_range_meters":31200,"station_id":"ce4bhg12rcd13ifvqf70","pricing_plan_id":"free"},{"bike_id":"3f53a843-863d-4663-b9f4-dcb158b18937","system_id":"levelo_inurba_marseille","lat":43.265714,"lon":5.372891,"is_reserved":false,"is_disabled":false,"rental_uris":{"android":"levelo://app?vid=3f53a843-863d-4663-b9f4-dcb158b18937","ios":"levelo://app?vid=3f53a843-863d-4663-b9f4-dcb158b18937"},"vehicle_type_id":"4","last_reported":1686243984,"current_range_meters":14000,"station_id":"ce4bhg12rcd13ifvqf70","pricing_plan_id":"free"},{"bike_id":"c56886e7-1c07-4e4e-8d95-1bfcba15fecf","system_id":"levelo_inurba_marseille","lat":43.30806,"lon":5.43532,"is_reserved":false,"is_disabled":false,"rental_uris":{"android":"levelo://app?vid=c56886e7-1c07-4e4e-8d95-1bfcba15fecf","ios":"levelo://app?vid=c56886e7-1c07-4e4e-8d95-1bfcba15fecf"},"vehicle_type_id":"4","last_reported":1686243984,"current_range_meters":4800,"station_id":"","pricing_plan_id":"free"},{"bike_id":"2d2d989e-5ef2-4459-a1b0-79a6671c46c8","system_id":"levelo_inurba_marseille","lat":43.265569,"lon":5.390047,"is_reserved":false,"is_disabled":false,"rental_uris":{"android":"levelo://app?vid=2d2d989e-5ef2-4459-a1b0-79a6671c46c8","ios":"levelo://app?vid=2d2d989e-5ef2-4459-a1b0-79a6671c46c8"},"vehicle_type_id":"4","last_reported":1686243984,"current_range_meters":12000,"station_id":"ce4bhe12rcd13ifvqf30","pricing_plan_id":"free"},{"bike_id":"6bf06307-3c3b-48c1-8865-33cda19ce14b","system_id":"levelo_inurba_marseille","lat":43.27144,"lon":5.40594,"is_reserved":false,"is_disabled":false,"rental_uris":{"android":"levelo://app?vid=6bf06307-3c3b-48c1-8865-33cda19ce14b","ios":"levelo://app?vid=6bf06307-3c3b-48c1-8865-33cda19ce14b"},"vehicle_type_id":"4","last_reported":1686243984,"current_range_meters":4800,"station_id":"","pricing_plan_id":"free"},{"bike_id":"20c5ba33-3bce-48d0-b978-27bd5d84aec7","system_id":"levelo_inurba_marseille","lat":43.28686,"lon":5.42596,"is_reserved":false,"is_disabled":false,"rental_uris":{"android":"levelo://app?vid=20c5ba33-3bce-48d0-b978-27bd5d84aec7","ios":"levelo://app?vid=20c5ba33-3bce-48d0-b978-27bd5d84aec7"},"vehicle_type_id":"4","last_reported":1686243984,"current_range_meters":2800,"station_id":"","pricing_plan_id":"free"},{"bike_id":"b0f82b0d-4254-4710-af92-1b2e9f397767","system_id":"levelo_inurba_marseille","lat":43.26234,"lon":5.37046,"is_reserved":false,"is_disabled":false,"rental_uris":{"android":"levelo://app?vid=b0f82b0d-4254-4710-af92-1b2e9f397767","ios":"levelo://app?vid=b0f82b0d-4254-4710-af92-1b2e9f397767"},"vehicle_type_id":"4","last_reported":1686243984,"current_range_meters":23600,"station_id":"","pricing_plan_id":"free"},{"bike_id":"5045715c-4dce-4b63-997f-46f551f36047","system_id":"levelo_inurba_marseille","lat":43.317104,"lon":5.436818,"is_reserved":false,"is_disabled":false,"rental_uris":{"android":"levelo://app?vid=5045715c-4dce-4b63-997f-46f551f36047","ios":"levelo://app?vid=5045715c-4dce-4b63-997f-46f551f36047"},"vehicle_type_id":"4","last_reported":1686243984,"current_range_meters":22000,"station_id":"ce4bhp92rcd13ifvqhcg","pricing_plan_id":"free"},{"bike_id":"7b16b738-f650-4cea-88ee-870b528607b2","system_id":"levelo_inurba_marseille","lat":43.298768,"lon":5.43643,"is_reserved":false,"is_disabled":false,"rental_uris":{"android":"levelo://app?vid=7b16b738-f650-4cea-88ee-870b528607b2","ios":"levelo://app?vid=7b16b738-f650-4cea-88ee-870b528607b2"},"vehicle_type_id":"4","last_reported":1686243984,"current_range_meters":18400,"station_id":"ce4bhpp2rcd13ifvqhfg","pricing_plan_id":"free"},{"bike_id":"e8a9720d-7dba-4c7b-8470-8c7ffb7e17b3","system_id":"levelo_inurba_marseille","lat":43.260219,"lon":5.37546,"is_reserved":false,"is_disabled":false,"rental_uris":{"android":"levelo://app?vid=e8a9720d-7dba-4c7b-8470-8c7ffb7e17b3","ios":"levelo://app?vid=e8a9720d-7dba-4c7b-8470-8c7ffb7e17b3"},"vehicle_type_id":"4","last_reported":1686243984,"current_range_meters":12400,"station_id":"ce4bhgh2rcd13ifvqfa0","pricing_plan_id":"free"},{"bike_id":"0abd466f-ae7a-4789-a218-e3b2c168a2b3","system_id":"levelo_inurba_marseille","lat":43.25961,"lon":5.3755,"is_reserved":false,"is_disabled":false,"rental_uris":{"android":"levelo://app?vid=0abd466f-ae7a-4789-a218-e3b2c168a2b3","ios":"levelo://app?vid=0abd466f-ae7a-4789-a218-e3b2c168a2b3"},"vehicle_type_id":"4","last_reported":1686243984,"current_range_meters":9600,"station_id":"","pricing_plan_id":"free"},{"bike_id":"1d34637b-a82a-4638-876a-d2fee8476a35","system_id":"levelo_inurba_marseille","lat":43.309076,"lon":5.368465,"is_reserved":false,"is_disabled":false,"rental_uris":{"android":"levelo://app?vid=1d34637b-a82a-4638-876a-d2fee8476a35","ios":"levelo://app?vid=1d34637b-a82a-4638-876a-d2fee8476a35"},"vehicle_type_id":"4","last_reported":1686243984,"current_range_meters":8000,"station_id":"ce4bgn92rcd13ifvqbvg","pricing_plan_id":"free"},{"bike_id":"7bd2aca0-cbae-403c-bb57-df1a4ac2f8c4","system_id":"levelo_inurba_marseille","lat":43.255756,"lon":5.382303,"is_reserved":false,"is_disabled":false,"rental_uris":{"android":"levelo://app?vid=7bd2aca0-cbae-403c-bb57-df1a4ac2f8c4","ios":"levelo://app?vid=7bd2aca0-cbae-403c-bb57-df1a4ac2f8c4"},"vehicle_type_id":"4","last_reported":1686243984,"current_range_meters":1600,"station_id":"ce4bhih2rcd13ifvqfs0","pricing_plan_id":"free"},{"bike_id":"faf94bb1-1b4b-4088-8bab-c9fad7eaf24b","system_id":"levelo_inurba_marseille","lat":43.255756,"lon":5.382303,"is_reserved":false,"is_disabled":false,"rental_uris":{"android":"levelo://app?vid=faf94bb1-1b4b-4088-8bab-c9fad7eaf24b","ios":"levelo://app?vid=faf94bb1-1b4b-4088-8bab-c9fad7eaf24b"},"vehicle_type_id":"4","last_reported":1686243984,"current_range_meters":0,"station_id":"ce4bhih2rcd13ifvqfs0","pricing_plan_id":"free"},{"bike_id":"dfb401e9-8807-4f85-96e9-308000422edd","system_id":"levelo_inurba_marseille","lat":43.255756,"lon":5.382303,"is_reserved":false,"is_disabled":false,"rental_uris":{"android":"levelo://app?vid=dfb401e9-8807-4f85-96e9-308000422edd","ios":"levelo://app?vid=dfb401e9-8807-4f85-96e9-308000422edd"},"vehicle_type_id":"4","last_reported":1686243984,"current_range_meters":14800,"station_id":"ce4bhih2rcd13ifvqfs0","pricing_plan_id":"free"},{"bike_id":"8f632594-ba4b-4726-bee1-312ec44f7970","system_id":"levelo_inurba_marseille","lat":43.25576,"lon":5.38226,"is_reserved":false,"is_disabled":false,"rental_uris":{"android":"levelo://app?vid=8f632594-ba4b-4726-bee1-312ec44f7970","ios":"levelo://app?vid=8f632594-ba4b-4726-bee1-312ec44f7970"},"vehicle_type_id":"4","last_reported":1686243984,"current_range_meters":19600,"station_id":"ce4bhih2rcd13ifvqfs0","pricing_plan_id":"free"},{"bike_id":"a781a343-b241-4f95-ab3c-8b2df648c6cb","system_id":"levelo_inurba_marseille","lat":43.33312,"lon":5.44167,"is_reserved":false,"is_disabled":false,"rental_uris":{"android":"levelo://app?vid=a781a343-b241-4f95-ab3c-8b2df648c6cb","ios":"levelo://app?vid=a781a343-b241-4f95-ab3c-8b2df648c6cb"},"vehicle_type_id":"4","last_reported":1686243984,"current_range_meters":12800,"station_id":"","pricing_plan_id":"free"},{"bike_id":"013f839c-db1d-4690-aebc-1774394aa477","system_id":"levelo_inurba_marseille","lat":43.254947,"lon":5.376454,"is_reserved":false,"is_disabled":false,"rental_uris":{"android":"levelo://app?vid=013f839c-db1d-4690-aebc-1774394aa477","ios":"levelo://app?vid=013f839c-db1d-4690-aebc-1774394aa477"},"vehicle_type_id":"4","last_reported":1686243984,"current_range_meters":22800,"station_id":"ce4bhh12rcd13ifvqff0","pricing_plan_id":"free"},{"bike_id":"7fda6df9-671d-47ff-b00a-e7e10739808a","system_id":"levelo_inurba_marseille","lat":43.254945,"lon":5.376454,"is_reserved":false,"is_disabled":false,"rental_uris":{"android":"levelo://app?vid=7fda6df9-671d-47ff-b00a-e7e10739808a","ios":"levelo://app?vid=7fda6df9-671d-47ff-b00a-e7e10739808a"},"vehicle_type_id":"4","last_reported":1686243984,"current_range_meters":400,"station_id":"ce4bhh12rcd13ifvqff0","pricing_plan_id":"free"},{"bike_id":"224764a0-d48a-4fbc-8272-0bc03b9c4d91","system_id":"levelo_inurba_marseille","lat":43.25494,"lon":5.37646,"is_reserved":false,"is_disabled":false,"rental_uris":{"android":"levelo://app?vid=224764a0-d48a-4fbc-8272-0bc03b9c4d91","ios":"levelo://app?vid=224764a0-d48a-4fbc-8272-0bc03b9c4d91"},"vehicle_type_id":"4","last_reported":1686243984,"current_range_meters":17200,"station_id":"ce4bhh12rcd13ifvqff0","pricing_plan_id":"free"},{"bike_id":"cd96ffe2-0308-45de-b87e-166c53b5ea03","system_id":"levelo_inurba_marseille","lat":43.270721,"lon":5.422764,"is_reserved":false,"is_disabled":false,"rental_uris":{"android":"levelo://app?vid=cd96ffe2-0308-45de-b87e-166c53b5ea03","ios":"levelo://app?vid=cd96ffe2-0308-45de-b87e-166c53b5ea03"},"vehicle_type_id":"4","last_reported":1686243984,"current_range_meters":1200,"station_id":"ce4bhk92rcd13ifvqgb0","pricing_plan_id":"free"},{"bike_id":"43b480f7-dcee-4422-8226-071dfdf90bb8","system_id":"levelo_inurba_marseille","lat":43.270721,"lon":5.422764,"is_reserved":false,"is_disabled":false,"rental_uris":{"android":"levelo://app?vid=43b480f7-dcee-4422-8226-071dfdf90bb8","ios":"levelo://app?vid=43b480f7-dcee-4422-8226-071dfdf90bb8"},"vehicle_type_id":"4","last_reported":1686243984,"current_range_meters":15600,"station_id":"ce4bhk92rcd13ifvqgb0","pricing_plan_id":"free"},{"bike_id":"39666a0a-c072-4cfb-b9a8-188c3c216475","system_id":"levelo_inurba_marseille","lat":43.258658,"lon":5.398935,"is_reserved":false,"is_disabled":false,"rental_uris":{"android":"levelo://app?vid=39666a0a-c072-4cfb-b9a8-188c3c216475","ios":"levelo://app?vid=39666a0a-c072-4cfb-b9a8-188c3c216475"},"vehicle_type_id":"4","last_reported":1686243984,"current_range_meters":19200,"station_id":"ce4bhl92rcd13ifvqghg","pricing_plan_id":"free"},{"bike_id":"2d164d25-32f6-449c-9d8b-52599c239737","system_id":"levelo_inurba_marseille","lat":43.2625,"lon":5.4131,"is_reserved":false,"is_disabled":false,"rental_uris":{"android":"levelo://app?vid=2d164d25-32f6-449c-9d8b-52599c239737","ios":"levelo://app?vid=2d164d25-32f6-449c-9d8b-52599c239737"},"vehicle_type_id":"4","last_reported":1686243984,"current_range_meters":7200,"station_id":"","pricing_plan_id":"free"},{"bike_id":"6c8e1610-65b7-4cb8-9da5-d0bd0d3c85da","system_id":"levelo_inurba_marseille","lat":43.250009,"lon":5.389195,"is_reserved":false,"is_disabled":false,"rental_uris":{"android":"levelo://app?vid=6c8e1610-65b7-4cb8-9da5-d0bd0d3c85da","ios":"levelo://app?vid=6c8e1610-65b7-4cb8-9da5-d0bd0d3c85da"},"vehicle_type_id":"4","last_reported":1686243984,"current_range_meters":28400,"station_id":"ce4bhgp2rcd13ifvqfd0","pricing_plan_id":"free"},{"bike_id":"dca82364-1e30-42a3-96af-eb9532e98dcd","system_id":"levelo_inurba_marseille","lat":43.2479,"lon":5.374457,"is_reserved":false,"is_disabled":false,"rental_uris":{"android":"levelo://app?vid=dca82364-1e30-42a3-96af-eb9532e98dcd","ios":"levelo://app?vid=dca82364-1e30-42a3-96af-eb9532e98dcd"},"vehicle_type_id":"4","last_reported":1686243984,"current_range_meters":1200,"station_id":"ce4bhgh2rcd13ifvqfb0","pricing_plan_id":"free"},{"bike_id":"b991cf5b-09d4-439d-8dfc-8bb69dfb671c","system_id":"levelo_inurba_marseille","lat":43.250966,"lon":5.395186,"is_reserved":false,"is_disabled":false,"rental_uris":{"android":"levelo://app?vid=b991cf5b-09d4-439d-8dfc-8bb69dfb671c","ios":"levelo://app?vid=b991cf5b-09d4-439d-8dfc-8bb69dfb671c"},"vehicle_type_id":"4","last_reported":1686243984,"current_range_meters":4000,"station_id":"ce4bhm12rcd13ifvqgkg","pricing_plan_id":"free"},{"bike_id":"9f7e318d-83be-43af-8519-c2e49353afd8","system_id":"levelo_inurba_marseille","lat":43.24665,"lon":5.38161,"is_reserved":false,"is_disabled":false,"rental_uris":{"android":"levelo://app?vid=9f7e318d-83be-43af-8519-c2e49353afd8","ios":"levelo://app?vid=9f7e318d-83be-43af-8519-c2e49353afd8"},"vehicle_type_id":"4","last_reported":1686243984,"current_range_meters":31200,"station_id":"","pricing_plan_id":"free"},{"bike_id":"448b05ec-ee81-4804-b0ed-0f8641c5f198","system_id":"levelo_inurba_marseille","lat":43.246461,"lon":5.389014,"is_reserved":false,"is_disabled":false,"rental_uris":{"android":"levelo://app?vid=448b05ec-ee81-4804-b0ed-0f8641c5f198","ios":"levelo://app?vid=448b05ec-ee81-4804-b0ed-0f8641c5f198"},"vehicle_type_id":"4","last_reported":1686243984,"current_range_meters":6000,"station_id":"ce4bhg12rcd13ifvqf60","pricing_plan_id":"free"},{"bike_id":"da085e65-210a-4110-af5a-35c68528eae4","system_id":"levelo_inurba_marseille","lat":43.243884,"lon":5.370736,"is_reserved":false,"is_disabled":false,"rental_uris":{"android":"levelo://app?vid=da085e65-210a-4110-af5a-35c68528eae4","ios":"levelo://app?vid=da085e65-210a-4110-af5a-35c68528eae4"},"vehicle_type_id":"4","last_reported":1686243984,"current_range_meters":5200,"station_id":"ce4bhhh2rcd13ifvqfk0","pricing_plan_id":"free"},{"bike_id":"a86fce67-d0e4-4875-8648-53961b94c237","system_id":"levelo_inurba_marseille","lat":43.243884,"lon":5.370737,"is_reserved":false,"is_disabled":false,"rental_uris":{"android":"levelo://app?vid=a86fce67-d0e4-4875-8648-53961b94c237","ios":"levelo://app?vid=a86fce67-d0e4-4875-8648-53961b94c237"},"vehicle_type_id":"4","last_reported":1686243984,"current_range_meters":3200,"station_id":"ce4bhhh2rcd13ifvqfk0","pricing_plan_id":"free"},{"bike_id":"baa5a40c-ae9a-4190-a81e-a4b281962c12","system_id":"levelo_inurba_marseille","lat":43.245581,"lon":5.395069,"is_reserved":false,"is_disabled":false,"rental_uris":{"android":"levelo://app?vid=baa5a40c-ae9a-4190-a81e-a4b281962c12","ios":"levelo://app?vid=baa5a40c-ae9a-4190-a81e-a4b281962c12"},"vehicle_type_id":"4","last_reported":1686243984,"current_range_meters":2000,"station_id":"ce4bhlp2rcd13ifvqgjg","pricing_plan_id":"free"},{"bike_id":"99612374-8f4f-41d7-b6dd-ee2e8ee6165a","system_id":"levelo_inurba_marseille","lat":43.244912,"lon":5.401913,"is_reserved":false,"is_disabled":false,"rental_uris":{"android":"levelo://app?vid=99612374-8f4f-41d7-b6dd-ee2e8ee6165a","ios":"levelo://app?vid=99612374-8f4f-41d7-b6dd-ee2e8ee6165a"},"vehicle_type_id":"4","last_reported":1686243984,"current_range_meters":0,"station_id":"ce4bhs92rcd13ifvqi0g","pricing_plan_id":"free"},{"bike_id":"fdbb5bb7-4ed4-455b-9c66-31dae730a724","system_id":"levelo_inurba_marseille","lat":43.241782,"lon":5.397261,"is_reserved":false,"is_disabled":false,"rental_uris":{"android":"levelo://app?vid=fdbb5bb7-4ed4-455b-9c66-31dae730a724","ios":"levelo://app?vid=fdbb5bb7-4ed4-455b-9c66-31dae730a724"},"vehicle_type_id":"4","last_reported":1686243984,"current_range_meters":6800,"station_id":"ce4bhn12rcd13ifvqgpg","pricing_plan_id":"free"},{"bike_id":"d3b49f61-f9bd-43f3-a281-0a2fb9b51c91","system_id":"levelo_inurba_marseille","lat":43.23307,"lon":5.35291,"is_reserved":false,"is_disabled":false,"rental_uris":{"android":"levelo://app?vid=d3b49f61-f9bd-43f3-a281-0a2fb9b51c91","ios":"levelo://app?vid=d3b49f61-f9bd-43f3-a281-0a2fb9b51c91"},"vehicle_type_id":"4","last_reported":1686243984,"current_range_meters":22400,"station_id":"","pricing_plan_id":"free"},{"bike_id":"596bf2f0-220c-4ef6-a062-229e445f45f2","system_id":"levelo_inurba_marseille","lat":43.23258,"lon":5.35431,"is_reserved":false,"is_disabled":false,"rental_uris":{"android":"levelo://app?vid=596bf2f0-220c-4ef6-a062-229e445f45f2","ios":"levelo://app?vid=596bf2f0-220c-4ef6-a062-229e445f45f2"},"vehicle_type_id":"4","last_reported":1686243984,"current_range_meters":8800,"station_id":"","pricing_plan_id":"free"},{"bike_id":"d28841e8-da37-4af3-8ed1-46938944924c","system_id":"levelo_inurba_marseille","lat":43.231793,"lon":5.400044,"is_reserved":false,"is_disabled":false,"rental_uris":{"android":"levelo://app?vid=d28841e8-da37-4af3-8ed1-46938944924c","ios":"levelo://app?vid=d28841e8-da37-4af3-8ed1-46938944924c"},"vehicle_type_id":"4","last_reported":1686243984,"current_range_meters":21600,"station_id":"ce4bhn12rcd13ifvqgqg","pricing_plan_id":"free"},{"bike_id":"58bdd804-da75-4d54-b358-be1b4b052690","system_id":"levelo_inurba_marseille","lat":43.231794,"lon":5.400052,"is_reserved":false,"is_disabled":false,"rental_uris":{"android":"levelo://app?vid=58bdd804-da75-4d54-b358-be1b4b052690","ios":"levelo://app?vid=58bdd804-da75-4d54-b358-be1b4b052690"},"vehicle_type_id":"4","last_reported":1686243984,"current_range_meters":31200,"station_id":"ce4bhn12rcd13ifvqgqg","pricing_plan_id":"free"},{"bike_id":"9d317af0-f5f1-4f41-a6a7-b11c162bfb81","system_id":"levelo_inurba_marseille","lat":43.23189,"lon":5.3999,"is_reserved":false,"is_disabled":false,"rental_uris":{"android":"levelo://app?vid=9d317af0-f5f1-4f41-a6a7-b11c162bfb81","ios":"levelo://app?vid=9d317af0-f5f1-4f41-a6a7-b11c162bfb81"},"vehicle_type_id":"4","last_reported":1686243984,"current_range_meters":30800,"station_id":"ce4bhn12rcd13ifvqgqg","pricing_plan_id":"free"},{"bike_id":"8b6bf3b9-8767-494e-8291-6fea77f0049b","system_id":"levelo_inurba_marseille","lat":43.231793,"lon":5.400044,"is_reserved":false,"is_disabled":false,"rental_uris":{"android":"levelo://app?vid=8b6bf3b9-8767-494e-8291-6fea77f0049b","ios":"levelo://app?vid=8b6bf3b9-8767-494e-8291-6fea77f0049b"},"vehicle_type_id":"4","last_reported":1686243984,"current_range_meters":4400,"station_id":"ce4bhn12rcd13ifvqgqg","pricing_plan_id":"free"},{"bike_id":"b82f1832-a9fa-4da0-8b99-81052892471b","system_id":"levelo_inurba_marseille","lat":43.231794,"lon":5.400052,"is_reserved":false,"is_disabled":false,"rental_uris":{"android":"levelo://app?vid=b82f1832-a9fa-4da0-8b99-81052892471b","ios":"levelo://app?vid=b82f1832-a9fa-4da0-8b99-81052892471b"},"vehicle_type_id":"4","last_reported":1686243984,"current_range_meters":4400,"station_id":"ce4bhn12rcd13ifvqgqg","pricing_plan_id":"free"},{"bike_id":"e84bea37-b0f5-465c-b780-8c609f36336b","system_id":"levelo_inurba_marseille","lat":43.231794,"lon":5.400052,"is_reserved":false,"is_disabled":false,"rental_uris":{"android":"levelo://app?vid=e84bea37-b0f5-465c-b780-8c609f36336b","ios":"levelo://app?vid=e84bea37-b0f5-465c-b780-8c609f36336b"},"vehicle_type_id":"4","last_reported":1686243984,"current_range_meters":2400,"station_id":"ce4bhn12rcd13ifvqgqg","pricing_plan_id":"free"},{"bike_id":"3db32c7f-df64-49d8-aa99-5c9d0a0704cf","system_id":"levelo_inurba_marseille","lat":43.231793,"lon":5.400044,"is_reserved":false,"is_disabled":false,"rental_uris":{"android":"levelo://app?vid=3db32c7f-df64-49d8-aa99-5c9d0a0704cf","ios":"levelo://app?vid=3db32c7f-df64-49d8-aa99-5c9d0a0704cf"},"vehicle_type_id":"4","last_reported":1686243984,"current_range_meters":2000,"station_id":"ce4bhn12rcd13ifvqgqg","pricing_plan_id":"free"},{"bike_id":"0a5fe754-7502-4eb4-a7c9-2948e7cc863c","system_id":"levelo_inurba_marseille","lat":43.231794,"lon":5.400052,"is_reserved":false,"is_disabled":false,"rental_uris":{"android":"levelo://app?vid=0a5fe754-7502-4eb4-a7c9-2948e7cc863c","ios":"levelo://app?vid=0a5fe754-7502-4eb4-a7c9-2948e7cc863c"},"vehicle_type_id":"4","last_reported":1686243984,"current_range_meters":16000,"station_id":"ce4bhn12rcd13ifvqgqg","pricing_plan_id":"free"}]}}