{"last_updated":1752128264,"ttl":60,"version":"2.2","data":{"bikes":[{"bike_id":"cd20cfea-2f2f-444d-a882-a49b6cf370eb","system_id":"levelo_inurba_marseille","lat":43.337444,"lon":5.374475,"is_reserved":false,"is_disabled":true,"rental_uris":{"android":"levelo://app?vid=cd20cfea-2f2f-444d-a882-a49b6cf370eb","ios":"levelo://app?vid=cd20cfea-2f2f-444d-a882-a49b6cf370eb"},"vehicle_type_id":"4","last_reported":1752128264,"current_range_meters":0,"station_id":"","pricing_plan_id":"cebpf4jnsgd1na2vs0mg"},{"bike_id":"3da29fb8-fc97-44c6-b9ac-31dd456b2fd4","system_id":"levelo_inurba_marseille","lat":43.33771,"lon":5.37424,"is_reserved":false,"is_disabled":true,"rental_uris":{"android":"levelo://app?vid=3da29fb8-fc97-44c6-b9ac-31dd456b2fd4","ios":"levelo://app?vid=3da29fb8-fc97-44c6-b9ac-31dd456b2fd4"},"vehicle_type_id":"4","last_reported":1752128264,"current_range_meters":0,"station_id":"","pricing_plan_id":"cebpf4jnsgd1na2vs0mg"},{"bike_id":"01861ad8-a8d7-4be6-816e-651927c87584","system_id":"levelo_inurba_marseille","lat":43.33751,"lon":5.37456,"is_reserved":false,"is_disabled":true,"rental_uris":{"android":"levelo://app?vid=01861ad8-a8d7-4be6-816e-651927c87584","ios":"levelo://app?vid=01861ad8-a8d7-4be6-816e-651927c87584"},"vehicle_type_id":"4","last_reported":1752128264,"current_range_meters":0,"station_id":"","pricing_plan_id":"cebpf4jnsgd1na2vs0mg"},{"bike_id":"24cb9089-93ac-4b36-9d4e-b77f1a42140d","system_id":"levelo_inurba_marseille","lat":43.31339,"lon":5.36781,"is_reserved":false,"is_disabled":true,"rental_uris":{"android":"levelo://app?vid=24cb9089-93ac-4b36-9d4e-b77f1a42140d","ios":"levelo://app?vid=24cb9089-93ac-4b36-9d4e-b77f1a42140d"},"vehicle_type_id":"4","last_reported":1752128264,"current_range_meters":0,"station_id":"","pricing_plan_id":"cebpf4jnsgd1na2vs0mg"},{"bike_id":"b8fcd1b8-e383-4c4c-a466-f8393a965939","system_id":"levelo_inurba_marseille","lat":43.21756,"lon":5.34597,"is_reserved":false,"is_disabled":true,"rental_uris":{"android":"levelo://app?vid=b8fcd1b8-e383-4c4c-a466-f8393a965939","ios":"levelo://app?vid=b8fcd1b8-e383-4c4c-a466-f8393a965939"},"vehicle_type_id":"4","last_reported":1752128264,"current_range_meters":0,"station_id":"","pricing_plan_id":"cebpf4jnsgd1na2vs0mg"},{"bike_id":"53b1a31e-8ada-40c0-8d64-113a81233c84","system_id":"levelo_inurba_marseille","lat":43.36413,"lon":5.31924,"is_reserved":false,"is_disabled":true,"rental_uris":{"android":"levelo://app?vid=53b1a31e-8ada-40c0-8d64-113a81233c84","ios":"levelo://app?vid=53b1a31e-8ada-40c0-8d64-113a81233c84"},"vehicle_type_id":"4","last_reported":1752128264,"current_range_meters":0,"station_id":"","pricing_plan_id":"cebpf4jnsgd1na2vs0mg"},{"bike_id":"136321f9-9897-46d7-900e-322451ea1110","system_id":"levelo_inurba_marseille","lat":43.30283,"lon":5.36665,"is_reserved":false,"is_disabled":true,"rental_uris":{"android":"levelo://app?vid=136321f9-9897-46d7-900e-322451ea1110","ios":"levelo://app?vid=136321f9-9897-46d7-900e-322451ea1110"},"vehicle_type_id":"4","last_reported":1752128264,"current_range_meters":0,"station_id":"","pricing_plan_id":"cebpf4jnsgd1na2vs0mg"},{"bike_id":"8c0cacb6-e724-4873-a451-af728b9459a6","system_id":"levelo_inurba_marseille","lat":43.309421,"lon":5.390094,"is_reserved":false,"is_disabled":true,"rental_uris":{"android":"levelo://app?vid=8c0cacb6-e724-4873-a451-af728b9459a6","ios":"levelo://app?vid=8c0cacb6-e724-4873-a451-af728b9459a6"},"vehicle_type_id":"4","last_reported":1752128264,"current_range_meters":0,"station_id":"ce4bgup2rcd13ifvqco0","pricing_plan_id":"cebpf4jnsgd1na2vs0mg"},{"bike_id":"d0afdcac-61f9-451b-b809-cdf62d609c75","system_id":"levelo_inurba_marseille","lat":43.295506,"lon":5.422854,"is_reserved":false,"is_disabled":true,"rental_uris":{"android":"levelo://app?vid=d0afdcac-61f9-451b-b809-cdf62d609c75","ios":"levelo://app?vid=d0afdcac-61f9-451b-b809-cdf62d609c75"},"vehicle_type_id":"4","last_reported":1752128264,"current_range_meters":0,"station_id":"ce4bhph2rcd13ifvqhdg","pricing_plan_id":"cebpf4jnsgd1na2vs0mg"},{"bike_id":"e562ad4e-a577-4b7b-a74e-7e00b9c0f52f","system_id":"levelo_inurba_marseille","lat":43.225027,"lon":5.347812,"is_reserved":false,"is_disabled":true,"rental_uris":{"android":"levelo://app?vid=e562ad4e-a577-4b7b-a74e-7e00b9c0f52f","ios":"levelo://app?vid=e562ad4e-a577-4b7b-a74e-7e00b9c0f52f"},"vehicle_type_id":"4","last_reported":1752128264,"current_range_meters":0,"station_id":"st_cvj5dfep6f1abm77gieg","pricing_plan_id":"cebpf4jnsgd1na2vs0mg"},{"bike_id":"9dbe87cc-21c9-4b6c-952c-c09e35887f80","system_id":"levelo_inurba_marseille","lat":43.21746,"lon":5.346109,"is_reserved":false,"is_disabled":true,"rental_uris":{"android":"levelo://app?vid=9dbe87cc-21c9-4b6c-952c-c09e35887f80","ios":"levelo://app?vid=9dbe87cc-21c9-4b6c-952c-c09e35887f80"},"vehicle_type_id":"4","last_reported":1752128264,"current_range_meters":0,"station_id":"st_cvj6r9ubvosntc0bgbag","pricing_plan_id":"cebpf4jnsgd1na2vs0mg"},{"bike_id":"5745f131-cd4a-4ac9-bdc2-7385b3c3e0a5","system_id":"levelo_inurba_marseille","lat":43.217578,"lon":5.345964,"is_reserved":false,"is_disabled":true,"rental_uris":{"android":"levelo://app?vid=5745f131-cd4a-4ac9-bdc2-7385b3c3e0a5","ios":"levelo://app?vid=5745f131-cd4a-4ac9-bdc2-7385b3c3e0a5"},"vehicle_type_id":"4","last_reported":1752128264,"current_range_meters":0,"station_id":"st_cvj6r9ubvosntc0bgbag","pricing_plan_id":"cebpf4jnsgd1na2vs0mg"},{"bike_id":"2581b7c5-1b42-4417-a9e6-cbdbedb7a2dd","system_id":"levelo_inurba_marseille","lat":43.217458,"lon":5.346039,"is_reserved":false,"is_disabled":true,"rental_uris":{"android":"levelo://app?vid=2581b7c5-1b42-4417-a9e6-cbdbedb7a2dd","ios":"levelo://app?vid=2581b7c5-1b42-4417-a9e6-cbdbedb7a2dd"},"vehicle_type_id":"4","last_reported":1752128264,"current_range_meters":0,"station_id":"st_cvj6r9ubvosntc0bgbag","pricing_plan_id":"cebpf4jnsgd1na2vs0mg"},{"bike_id":"336eaf6b-6955-4ef9-8dfa-abf06b057d2c","system_id":"levelo_inurba_marseille","lat":43.21189,"lon":5.35064,"is_reserved":false,"is_disabled":true,"rental_uris":{"android":"levelo://app?vid=336eaf6b-6955-4ef9-8dfa-abf06b057d2c","ios":"levelo://app?vid=336eaf6b-6955-4ef9-8dfa-abf06b057d2c"},"vehicle_type_id":"4","last_reported":1752128264,"current_range_meters":0,"station_id":"st_cvj6sg6p6f1abm77japg","pricing_plan_id":"cebpf4jnsgd1na2vs0mg"},{"bike_id":"6661cbd2-6ba2-4b46-b15e-1188df0f29d7","system_id":"levelo_inurba_marseille","lat":43.21191,"lon":5.35073,"is_reserved":false,"is_disabled":true,"rental_uris":{"android":"levelo://app?vid=6661cbd2-6ba2-4b46-b15e-1188df0f29d7","ios":"levelo://app?vid=6661cbd2-6ba2-4b46-b15e-1188df0f29d7"},"vehicle_type_id":"4","last_reported":1752128264,"current_range_meters":0,"station_id":"st_cvj6sg6p6f1abm77japg","pricing_plan_id":"cebpf4jnsgd1na2vs0mg"},{"bike_id":"37f2becd-23f9-4f13-a711-38b8024eeec7","system_id":"levelo_inurba_marseille","lat":43.33768,"lon":5.37516,"is_reserved":false,"is_disabled":true,"rental_uris":{"android":"levelo://app?vid=37f2becd-23f9-4f13-a711-38b8024eeec7","ios":"levelo://app?vid=37f2becd-23f9-4f13-a711-38b8024eeec7"},"vehicle_type_id":"4","last_reported":1752128264,"current_range_meters":400,"station_id":"","pricing_plan_id":"cebpf4jnsgd1na2vs0mg"},{"bike_id":"1ea07c30-7637-4836-8280-b70950b610b5","system_id":"levelo_inurba_marseille","lat":43.22518,"lon":5.3476,"is_reserved":false,"is_disabled":true,"rental_uris":{"android":"levelo://app?vid=1ea07c30-7637-4836-8280-b70950b610b5","ios":"levelo://app?vid=1ea07c30-7637-4836-8280-b70950b610b5"},"vehicle_type_id":"4","last_reported":1752128264,"current_range_meters":800,"station_id":"st_cvj5dfep6f1abm77gieg","pricing_plan_id":"cebpf4jnsgd1na2vs0mg"},{"bike_id":"7243d96f-fbe3-4f1e-a0a9-40a537314b2b","system_id":"levelo_inurba_marseille","lat":43.29008,"lon":5.35631,"is_reserved":false,"is_disabled":true,"rental_uris":{"android":"levelo://app?vid=7243d96f-fbe3-4f1e-a0a9-40a537314b2b","ios":"levelo://app?vid=7243d96f-fbe3-4f1e-a0a9-40a537314b2b"},"vehicle_type_id":"4","last_reported":1752128264,"current_range_meters":1200,"station_id":"ce4bhb92rcd13ifvqen0","pricing_plan_id":"cebpf4jnsgd1na2vs0mg"},{"bike_id":"db841109-9b56-4777-86e2-06fbf4ef1649","system_id":"levelo_inurba_marseille","lat":43.311161,"lon":5.397417,"is_reserved":false,"is_disabled":true,"rental_uris":{"android":"levelo://app?vid=db841109-9b56-4777-86e2-06fbf4ef1649","ios":"levelo://app?vid=db841109-9b56-4777-86e2-06fbf4ef1649"},"vehicle_type_id":"4","last_reported":1752128264,"current_range_meters":1600,"station_id":"","pricing_plan_id":"cebpf4jnsgd1na2vs0mg"},{"bike_id":"dd0c385f-165a-4b43-b162-82c9b959f20d","system_id":"levelo_inurba_marseille","lat":43.30165,"lon":5.3809,"is_reserved":false,"is_disabled":false,"rental_uris":{"android":"levelo://app?vid=dd0c385f-165a-4b43-b162-82c9b959f20d","ios":"levelo://app?vid=dd0c385f-165a-4b43-b162-82c9b959f20d"},"vehicle_type_id":"4","last_reported":1752128264,"current_range_meters":2800,"station_id":"ce4bgjp2rcd13ifvqbh0","pricing_plan_id":"cebpf4jnsgd1na2vs0mg"},{"bike_id":"0c8f92f0-34dd-4528-ac9a-218976babbcb","system_id":"levelo_inurba_marseille","lat":43.297057,"lon":5.376893,"is_reserved":false,"is_disabled":false,"rental_uris":{"android":"levelo://app?vid=0c8f92f0-34dd-4528-ac9a-218976babbcb","ios":"levelo://app?vid=0c8f92f0-34dd-4528-ac9a-218976babbcb"},"vehicle_type_id":"4","last_reported":1752128264,"current_range_meters":2800,"station_id":"ce4bgkh2rcd13ifvqbl0","pricing_plan_id":"cebpf4jnsgd1na2vs0mg"},{"bike_id":"1a128c4b-29fe-48be-9682-04abec2a7a2d","system_id":"levelo_inurba_marseille","lat":43.308132,"lon":5.381693,"is_reserved":false,"is_disabled":false,"rental_uris":{"android":"levelo://app?vid=1a128c4b-29fe-48be-9682-04abec2a7a2d","ios":"levelo://app?vid=1a128c4b-29fe-48be-9682-04abec2a7a2d"},"vehicle_type_id":"4","last_reported":1752128264,"current_range_meters":3200,"station_id":"ce4bgt12rcd13ifvqce0","pricing_plan_id":"cebpf4jnsgd1na2vs0mg"},{"bike_id":"ccd262e4-6071-43e8-883e-4f56cf04a09c","system_id":"levelo_inurba_marseille","lat":43.269337,"lon":5.389282,"is_reserved":false,"is_disabled":false,"rental_uris":{"android":"levelo://app?vid=ccd262e4-6071-43e8-883e-4f56cf04a09c","ios":"levelo://app?vid=ccd262e4-6071-43e8-883e-4f56cf04a09c"},"vehicle_type_id":"4","last_reported":1752128264,"current_range_meters":3200,"station_id":"ce4bhhh2rcd13ifvqfl0","pricing_plan_id":"cebpf4jnsgd1na2vs0mg"},{"bike_id":"888522e3-39b6-4ff3-ad74-ff6c6f771157","system_id":"levelo_inurba_marseille","lat":43.29486,"lon":5.40304,"is_reserved":false,"is_disabled":false,"rental_uris":{"android":"levelo://app?vid=888522e3-39b6-4ff3-ad74-ff6c6f771157","ios":"levelo://app?vid=888522e3-39b6-4ff3-ad74-ff6c6f771157"},"vehicle_type_id":"4","last_reported":1752128264,"current_range_meters":4000,"station_id":"","pricing_plan_id":"cebpf4jnsgd1na2vs0mg"},{"bike_id":"a6f2da1e-124b-41cd-8ad3-0d51981f3071","system_id":"levelo_inurba_marseille","lat":43.304368,"lon":5.388934,"is_reserved":false,"is_disabled":false,"rental_uris":{"android":"levelo://app?vid=a6f2da1e-124b-41cd-8ad3-0d51981f3071","ios":"levelo://app?vid=a6f2da1e-124b-41cd-8ad3-0d51981f3071"},"vehicle_type_id":"4","last_reported":1752128264,"current_range_meters":4000,"station_id":"ce4bgk12rcd13ifvqbi0","pricing_plan_id":"cebpf4jnsgd1na2vs0mg"},{"bike_id":"97b636d4-ce76-4469-91f2-cb71a35c75e9","system_id":"levelo_inurba_marseille","lat":43.2953,"lon":5.38645,"is_reserved":false,"is_disabled":false,"rental_uris":{"android":"levelo://app?vid=97b636d4-ce76-4469-91f2-cb71a35c75e9","ios":"levelo://app?vid=97b636d4-ce76-4469-91f2-cb71a35c75e9"},"vehicle_type_id":"4","last_reported":1752128264,"current_range_meters":5600,"station_id":"","pricing_plan_id":"cebpf4jnsgd1na2vs0mg"},{"bike_id":"04a1eb5a-2e43-4141-9c83-00ac3c8ad396","system_id":"levelo_inurba_marseille","lat":43.30312,"lon":5.36899,"is_reserved":false,"is_disabled":false,"rental_uris":{"android":"levelo://app?vid=04a1eb5a-2e43-4141-9c83-00ac3c8ad396","ios":"levelo://app?vid=04a1eb5a-2e43-4141-9c83-00ac3c8ad396"},"vehicle_type_id":"4","last_reported":1752128264,"current_range_meters":5600,"station_id":"ce4bgqh2rcd13ifvqc5g","pricing_plan_id":"cebpf4jnsgd1na2vs0mg"},{"bike_id":"9e143942-2c32-464b-937c-26f5f8534186","system_id":"levelo_inurba_marseille","lat":43.26676,"lon":5.38278,"is_reserved":false,"is_disabled":false,"rental_uris":{"android":"levelo://app?vid=9e143942-2c32-464b-937c-26f5f8534186","ios":"levelo://app?vid=9e143942-2c32-464b-937c-26f5f8534186"},"vehicle_type_id":"4","last_reported":1752128264,"current_range_meters":5600,"station_id":"ce4bhg92rcd13ifvqf90","pricing_plan_id":"cebpf4jnsgd1na2vs0mg"},{"bike_id":"cccf4131-c60a-4535-b8ba-ad36ea8514fd","system_id":"levelo_inurba_marseille","lat":43.313582,"lon":5.367591,"is_reserved":false,"is_disabled":false,"rental_uris":{"android":"levelo://app?vid=cccf4131-c60a-4535-b8ba-ad36ea8514fd","ios":"levelo://app?vid=cccf4131-c60a-4535-b8ba-ad36ea8514fd"},"vehicle_type_id":"4","last_reported":1752128264,"current_range_meters":6800,"station_id":"ce4bgr92rcd13ifvqc6g","pricing_plan_id":"cebpf4jnsgd1na2vs0mg"},{"bike_id":"06acf662-becf-44e2-91b3-b61377f256b5","system_id":"levelo_inurba_marseille","lat":43.28102,"lon":5.37863,"is_reserved":false,"is_disabled":false,"rental_uris":{"android":"levelo://app?vid=06acf662-becf-44e2-91b3-b61377f256b5","ios":"levelo://app?vid=06acf662-becf-44e2-91b3-b61377f256b5"},"vehicle_type_id":"4","last_reported":1752128264,"current_range_meters":7200,"station_id":"ce4bha12rcd13ifvqee0","pricing_plan_id":"cebpf4jnsgd1na2vs0mg"},{"bike_id":"5887f894-7aba-4976-a29d-671c98781994","system_id":"levelo_inurba_marseille","lat":43.29051,"lon":5.39981,"is_reserved":false,"is_disabled":false,"rental_uris":{"android":"levelo://app?vid=5887f894-7aba-4976-a29d-671c98781994","ios":"levelo://app?vid=5887f894-7aba-4976-a29d-671c98781994"},"vehicle_type_id":"4","last_reported":1752128264,"current_range_meters":8000,"station_id":"ce4bh392rcd13ifvqdm0","pricing_plan_id":"cebpf4jnsgd1na2vs0mg"},{"bike_id":"f49ae2b6-d5d7-4b01-ae15-6ca7fca4a6a7","system_id":"levelo_inurba_marseille","lat":43.30482,"lon":5.37911,"is_reserved":false,"is_disabled":false,"rental_uris":{"android":"levelo://app?vid=f49ae2b6-d5d7-4b01-ae15-6ca7fca4a6a7","ios":"levelo://app?vid=f49ae2b6-d5d7-4b01-ae15-6ca7fca4a6a7"},"vehicle_type_id":"4","last_reported":1752128264,"current_range_meters":8400,"station_id":"ce4bgup2rcd13ifvqcn0","pricing_plan_id":"cebpf4jnsgd1na2vs0mg"},{"bike_id":"2f4c05fd-73bc-4d36-8878-cfeeed2736ab","system_id":"levelo_inurba_marseille","lat":43.31749,"lon":5.4043,"is_reserved":false,"is_disabled":false,"rental_uris":{"android":"levelo://app?vid=2f4c05fd-73bc-4d36-8878-cfeeed2736ab","ios":"levelo://app?vid=2f4c05fd-73bc-4d36-8878-cfeeed2736ab"},"vehicle_type_id":"4","last_reported":1752128264,"current_range_meters":9200,"station_id":"","pricing_plan_id":"cebpf4jnsgd1na2vs0mg"},{"bike_id":"2354f4ca-20d1-4b1b-b469-739d1656dff6","system_id":"levelo_inurba_marseille","lat":43.29009,"lon":5.37636,"is_reserved":false,"is_disabled":false,"rental_uris":{"android":"levelo://app?vid=2354f4ca-20d1-4b1b-b469-739d1656dff6","ios":"levelo://app?vid=2354f4ca-20d1-4b1b-b469-739d1656dff6"},"vehicle_type_id":"4","last_reported":1752128264,"current_range_meters":9200,"station_id":"","pricing_plan_id":"cebpf4jnsgd1na2vs0mg"},{"bike_id":"33152802-1001-4425-8aac-08be14bef8d8","system_id":"levelo_inurba_marseille","lat":43.29284,"lon":5.40131,"is_reserved":false,"is_disabled":false,"rental_uris":{"android":"levelo://app?vid=33152802-1001-4425-8aac-08be14bef8d8","ios":"levelo://app?vid=33152802-1001-4425-8aac-08be14bef8d8"},"vehicle_type_id":"4","last_reported":1752128264,"current_range_meters":9200,"station_id":"ce4bh312rcd13ifvqdk0","pricing_plan_id":"cebpf4jnsgd1na2vs0mg"},{"bike_id":"f573a8fb-f1f8-47c4-901e-ddf2739a5cca","system_id":"levelo_inurba_marseille","lat":43.36006,"lon":5.3248,"is_reserved":false,"is_disabled":false,"rental_uris":{"android":"levelo://app?vid=f573a8fb-f1f8-47c4-901e-ddf2739a5cca","ios":"levelo://app?vid=f573a8fb-f1f8-47c4-901e-ddf2739a5cca"},"vehicle_type_id":"4","last_reported":1752128264,"current_range_meters":9600,"station_id":"","pricing_plan_id":"cebpf4jnsgd1na2vs0mg"},{"bike_id":"186f06e5-8812-4717-b238-e4c520646f3d","system_id":"levelo_inurba_marseille","lat":43.293,"lon":5.3746,"is_reserved":false,"is_disabled":false,"rental_uris":{"android":"levelo://app?vid=186f06e5-8812-4717-b238-e4c520646f3d","ios":"levelo://app?vid=186f06e5-8812-4717-b238-e4c520646f3d"},"vehicle_type_id":"4","last_reported":1752128264,"current_range_meters":9600,"station_id":"ce4bgi12rcd13ifvqb70","pricing_plan_id":"cebpf4jnsgd1na2vs0mg"},{"bike_id":"84e7e709-4e4f-4764-818c-af719435bfca","system_id":"levelo_inurba_marseille","lat":43.31965,"lon":5.37286,"is_reserved":false,"is_disabled":false,"rental_uris":{"android":"levelo://app?vid=84e7e709-4e4f-4764-818c-af719435bfca","ios":"levelo://app?vid=84e7e709-4e4f-4764-818c-af719435bfca"},"vehicle_type_id":"4","last_reported":1752128264,"current_range_meters":10000,"station_id":"","pricing_plan_id":"cebpf4jnsgd1na2vs0mg"},{"bike_id":"2e15f93e-bb3d-4491-933a-fd9dbab3b028","system_id":"levelo_inurba_marseille","lat":43.2971,"lon":5.36599,"is_reserved":false,"is_disabled":false,"rental_uris":{"android":"levelo://app?vid=2e15f93e-bb3d-4491-933a-fd9dbab3b028","ios":"levelo://app?vid=2e15f93e-bb3d-4491-933a-fd9dbab3b028"},"vehicle_type_id":"4","last_reported":1752128264,"current_range_meters":10000,"station_id":"ce4bgn12rcd13ifvqbt0","pricing_plan_id":"cebpf4jnsgd1na2vs0mg"},{"bike_id":"0b07bda2-c06c-4202-ab24-ce3dd3886b97","system_id":"levelo_inurba_marseille","lat":43.254869,"lon":5.376501,"is_reserved":false,"is_disabled":false,"rental_uris":{"android":"levelo://app?vid=0b07bda2-c06c-4202-ab24-ce3dd3886b97","ios":"levelo://app?vid=0b07bda2-c06c-4202-ab24-ce3dd3886b97"},"vehicle_type_id":"4","last_reported":1752128264,"current_range_meters":10000,"station_id":"ce4bhh12rcd13ifvqff0","pricing_plan_id":"cebpf4jnsgd1na2vs0mg"},{"bike_id":"90a9be1e-3a48-450c-b34c-536e4e8281a0","system_id":"levelo_inurba_marseille","lat":43.308933,"lon":5.371892,"is_reserved":false,"is_disabled":false,"rental_uris":{"android":"levelo://app?vid=90a9be1e-3a48-450c-b34c-536e4e8281a0","ios":"levelo://app?vid=90a9be1e-3a48-450c-b34c-536e4e8281a0"},"vehicle_type_id":"4","last_reported":1752128264,"current_range_meters":10800,"station_id":"","pricing_plan_id":"cebpf4jnsgd1na2vs0mg"},{"bike_id":"2d64afdf-b178-46a8-beda-f561b7aa30f5","system_id":"levelo_inurba_marseille","lat":43.27947,"lon":5.4104,"is_reserved":false,"is_disabled":false,"rental_uris":{"android":"levelo://app?vid=2d64afdf-b178-46a8-beda-f561b7aa30f5","ios":"levelo://app?vid=2d64afdf-b178-46a8-beda-f561b7aa30f5"},"vehicle_type_id":"4","last_reported":1752128264,"current_range_meters":10800,"station_id":"ce4bhnp2rcd13ifvqh0g","pricing_plan_id":"cebpf4jnsgd1na2vs0mg"},{"bike_id":"4975b22d-8c48-452f-bd19-7a9d3ed7c378","system_id":"levelo_inurba_marseille","lat":43.29676,"lon":5.37424,"is_reserved":false,"is_disabled":false,"rental_uris":{"android":"levelo://app?vid=4975b22d-8c48-452f-bd19-7a9d3ed7c378","ios":"levelo://app?vid=4975b22d-8c48-452f-bd19-7a9d3ed7c378"},"vehicle_type_id":"4","last_reported":1752128264,"current_range_meters":11200,"station_id":"","pricing_plan_id":"cebpf4jnsgd1na2vs0mg"},{"bike_id":"568ba196-48dc-47c3-945c-c35257db9700","system_id":"levelo_inurba_marseille","lat":43.25498,"lon":5.37649,"is_reserved":false,"is_disabled":false,"rental_uris":{"android":"levelo://app?vid=568ba196-48dc-47c3-945c-c35257db9700","ios":"levelo://app?vid=568ba196-48dc-47c3-945c-c35257db9700"},"vehicle_type_id":"4","last_reported":1752128264,"current_range_meters":11200,"station_id":"ce4bhh12rcd13ifvqff0","pricing_plan_id":"cebpf4jnsgd1na2vs0mg"},{"bike_id":"449ed129-2f06-47da-936f-6e63a3609258","system_id":"levelo_inurba_marseille","lat":43.23208,"lon":5.35542,"is_reserved":false,"is_disabled":false,"rental_uris":{"android":"levelo://app?vid=449ed129-2f06-47da-936f-6e63a3609258","ios":"levelo://app?vid=449ed129-2f06-47da-936f-6e63a3609258"},"vehicle_type_id":"4","last_reported":1752128264,"current_range_meters":11200,"station_id":"ce4bhu92rcd13ifvqi70","pricing_plan_id":"cebpf4jnsgd1na2vs0mg"},{"bike_id":"f5c16f07-bc6f-4121-91a7-5ad90eec4f34","system_id":"levelo_inurba_marseille","lat":43.31202,"lon":5.37332,"is_reserved":false,"is_disabled":false,"rental_uris":{"android":"levelo://app?vid=f5c16f07-bc6f-4121-91a7-5ad90eec4f34","ios":"levelo://app?vid=f5c16f07-bc6f-4121-91a7-5ad90eec4f34"},"vehicle_type_id":"4","last_reported":1752128264,"current_range_meters":11600,"station_id":"","pricing_plan_id":"cebpf4jnsgd1na2vs0mg"},{"bike_id":"10c590a8-f9a6-461b-bb6c-d4e1492dd051","system_id":"levelo_inurba_marseille","lat":43.29591,"lon":5.37514,"is_reserved":false,"is_disabled":false,"rental_uris":{"android":"levelo://app?vid=10c590a8-f9a6-461b-bb6c-d4e1492dd051","ios":"levelo://app?vid=10c590a8-f9a6-461b-bb6c-d4e1492dd051"},"vehicle_type_id":"4","last_reported":1752128264,"current_range_meters":11600,"station_id":"ce4bgh92rcd13ifvqb50","pricing_plan_id":"cebpf4jnsgd1na2vs0mg"},{"bike_id":"b2d69925-c073-4c4a-b56d-a91a0856b591","system_id":"levelo_inurba_marseille","lat":43.29925,"lon":5.37479,"is_reserved":false,"is_disabled":false,"rental_uris":{"android":"levelo://app?vid=b2d69925-c073-4c4a-b56d-a91a0856b591","ios":"levelo://app?vid=b2d69925-c073-4c4a-b56d-a91a0856b591"},"vehicle_type_id":"4","last_reported":1752128264,"current_range_meters":11600,"station_id":"ce4bgjh2rcd13ifvqbg0","pricing_plan_id":"cebpf4jnsgd1na2vs0mg"},{"bike_id":"4b74108e-c5af-4deb-bbd8-49f696ebd3ba","system_id":"levelo_inurba_marseille","lat":43.26489,"lon":5.39567,"is_reserved":false,"is_disabled":false,"rental_uris":{"android":"levelo://app?vid=4b74108e-c5af-4deb-bbd8-49f696ebd3ba","ios":"levelo://app?vid=4b74108e-c5af-4deb-bbd8-49f696ebd3ba"},"vehicle_type_id":"4","last_reported":1752128264,"current_range_meters":11600,"station_id":"ce4bhi12rcd13ifvqfq0","pricing_plan_id":"cebpf4jnsgd1na2vs0mg"},{"bike_id":"6e5c2657-ccb8-4153-8b94-2143bc427a03","system_id":"levelo_inurba_marseille","lat":43.225,"lon":5.34784,"is_reserved":false,"is_disabled":false,"rental_uris":{"android":"levelo://app?vid=6e5c2657-ccb8-4153-8b94-2143bc427a03","ios":"levelo://app?vid=6e5c2657-ccb8-4153-8b94-2143bc427a03"},"vehicle_type_id":"4","last_reported":1752128264,"current_range_meters":11600,"station_id":"st_cvj5dfep6f1abm77gieg","pricing_plan_id":"cebpf4jnsgd1na2vs0mg"},{"bike_id":"b757ffbb-2b71-4330-9f60-5f8a9d46d16e","system_id":"levelo_inurba_marseille","lat":43.29675,"lon":5.37147,"is_reserved":false,"is_disabled":false,"rental_uris":{"android":"levelo://app?vid=b757ffbb-2b71-4330-9f60-5f8a9d46d16e","ios":"levelo://app?vid=b757ffbb-2b71-4330-9f60-5f8a9d46d16e"},"vehicle_type_id":"4","last_reported":1752128264,"current_range_meters":12000,"station_id":"","pricing_plan_id":"cebpf4jnsgd1na2vs0mg"},{"bike_id":"b2caa530-bb19-4cc6-a6bd-61e3e1d7432e","system_id":"levelo_inurba_marseille","lat":43.33763,"lon":5.37461,"is_reserved":false,"is_disabled":false,"rental_uris":{"android":"levelo://app?vid=b2caa530-bb19-4cc6-a6bd-61e3e1d7432e","ios":"levelo://app?vid=b2caa530-bb19-4cc6-a6bd-61e3e1d7432e"},"vehicle_type_id":"4","last_reported":1752128264,"current_range_meters":12000,"station_id":"","pricing_plan_id":"cebpf4jnsgd1na2vs0mg"},{"bike_id":"6ef5f3ea-45a5-4129-a8bc-9005968550f8","system_id":"levelo_inurba_marseille","lat":43.30446,"lon":5.36799,"is_reserved":false,"is_disabled":false,"rental_uris":{"android":"levelo://app?vid=6ef5f3ea-45a5-4129-a8bc-9005968550f8","ios":"levelo://app?vid=6ef5f3ea-45a5-4129-a8bc-9005968550f8"},"vehicle_type_id":"4","last_reported":1752128264,"current_range_meters":12000,"station_id":"","pricing_plan_id":"cebpf4jnsgd1na2vs0mg"},{"bike_id":"66164e95-a44b-4a59-9659-8b86bc2d5c59","system_id":"levelo_inurba_marseille","lat":43.30381,"lon":5.42483,"is_reserved":false,"is_disabled":false,"rental_uris":{"android":"levelo://app?vid=66164e95-a44b-4a59-9659-8b86bc2d5c59","ios":"levelo://app?vid=66164e95-a44b-4a59-9659-8b86bc2d5c59"},"vehicle_type_id":"4","last_reported":1752128264,"current_range_meters":12000,"station_id":"ce4bhoh2rcd13ifvqh6g","pricing_plan_id":"cebpf4jnsgd1na2vs0mg"},{"bike_id":"b6d9b946-f66a-4c6f-96e5-5d23e176360c","system_id":"levelo_inurba_marseille","lat":43.31315,"lon":5.38172,"is_reserved":false,"is_disabled":false,"rental_uris":{"android":"levelo://app?vid=b6d9b946-f66a-4c6f-96e5-5d23e176360c","ios":"levelo://app?vid=b6d9b946-f66a-4c6f-96e5-5d23e176360c"},"vehicle_type_id":"4","last_reported":1752128264,"current_range_meters":12400,"station_id":"","pricing_plan_id":"cebpf4jnsgd1na2vs0mg"},{"bike_id":"22f24cb4-d809-450f-9472-374e1d5681a7","system_id":"levelo_inurba_marseille","lat":43.30782,"lon":5.37648,"is_reserved":false,"is_disabled":false,"rental_uris":{"android":"levelo://app?vid=22f24cb4-d809-450f-9472-374e1d5681a7","ios":"levelo://app?vid=22f24cb4-d809-450f-9472-374e1d5681a7"},"vehicle_type_id":"4","last_reported":1752128264,"current_range_meters":12400,"station_id":"ce4bgv92rcd13ifvqcq0","pricing_plan_id":"cebpf4jnsgd1na2vs0mg"},{"bike_id":"b922ae77-11f4-4f71-939d-86409a8356b7","system_id":"levelo_inurba_marseille","lat":43.262,"lon":5.37931,"is_reserved":false,"is_disabled":false,"rental_uris":{"android":"levelo://app?vid=b922ae77-11f4-4f71-939d-86409a8356b7","ios":"levelo://app?vid=b922ae77-11f4-4f71-939d-86409a8356b7"},"vehicle_type_id":"4","last_reported":1752128264,"current_range_meters":12400,"station_id":"ce4bhjp2rcd13ifvqg90","pricing_plan_id":"cebpf4jnsgd1na2vs0mg"},{"bike_id":"c514ad25-b83c-4d10-a595-57ae5a32aef4","system_id":"levelo_inurba_marseille","lat":43.22956,"lon":5.3539,"is_reserved":false,"is_disabled":false,"rental_uris":{"android":"levelo://app?vid=c514ad25-b83c-4d10-a595-57ae5a32aef4","ios":"levelo://app?vid=c514ad25-b83c-4d10-a595-57ae5a32aef4"},"vehicle_type_id":"4","last_reported":1752128264,"current_range_meters":12400,"station_id":"cpo3532slgdg3j2ikp40","pricing_plan_id":"cebpf4jnsgd1na2vs0mg"},{"bike_id":"1be39311-cfa5-4cbb-b93d-fb0870d6e611","system_id":"levelo_inurba_marseille","lat":43.211899,"lon":5.350699,"is_reserved":false,"is_disabled":false,"rental_uris":{"android":"levelo://app?vid=1be39311-cfa5-4cbb-b93d-fb0870d6e611","ios":"levelo://app?vid=1be39311-cfa5-4cbb-b93d-fb0870d6e611"},"vehicle_type_id":"4","last_reported":1752128264,"current_range_meters":12400,"station_id":"st_cvj6sg6p6f1abm77japg","pricing_plan_id":"cebpf4jnsgd1na2vs0mg"},{"bike_id":"320f2a33-deaa-4e0a-a3d5-c39ce8ad680a","system_id":"levelo_inurba_marseille","lat":43.31574,"lon":5.37442,"is_reserved":false,"is_disabled":false,"rental_uris":{"android":"levelo://app?vid=320f2a33-deaa-4e0a-a3d5-c39ce8ad680a","ios":"levelo://app?vid=320f2a33-deaa-4e0a-a3d5-c39ce8ad680a"},"vehicle_type_id":"4","last_reported":1752128264,"current_range_meters":12800,"station_id":"","pricing_plan_id":"cebpf4jnsgd1na2vs0mg"},{"bike_id":"f945fe11-a50d-42ca-afd0-4c11934a6444","system_id":"levelo_inurba_marseille","lat":43.27313,"lon":5.39082,"is_reserved":false,"is_disabled":false,"rental_uris":{"android":"levelo://app?vid=f945fe11-a50d-42ca-afd0-4c11934a6444","ios":"levelo://app?vid=f945fe11-a50d-42ca-afd0-4c11934a6444"},"vehicle_type_id":"4","last_reported":1752128264,"current_range_meters":12800,"station_id":"ce4bhgp2rcd13ifvqfe0","pricing_plan_id":"cebpf4jnsgd1na2vs0mg"},{"bike_id":"40410b54-d0dc-4bcd-9e15-3289fa653ebf","system_id":"levelo_inurba_marseille","lat":43.259303,"lon":5.408917,"is_reserved":false,"is_disabled":false,"rental_uris":{"android":"levelo://app?vid=40410b54-d0dc-4bcd-9e15-3289fa653ebf","ios":"levelo://app?vid=40410b54-d0dc-4bcd-9e15-3289fa653ebf"},"vehicle_type_id":"4","last_reported":1752128264,"current_range_meters":12800,"station_id":"ce4bhm92rcd13ifvqglg","pricing_plan_id":"cebpf4jnsgd1na2vs0mg"},{"bike_id":"ab7e1523-906d-4c39-a0d1-64bfa3e9b4f3","system_id":"levelo_inurba_marseille","lat":43.287047,"lon":5.399901,"is_reserved":false,"is_disabled":false,"rental_uris":{"android":"levelo://app?vid=ab7e1523-906d-4c39-a0d1-64bfa3e9b4f3","ios":"levelo://app?vid=ab7e1523-906d-4c39-a0d1-64bfa3e9b4f3"},"vehicle_type_id":"4","last_reported":1752128264,"current_range_meters":12800,"station_id":"ce4bho92rcd13ifvqh3g","pricing_plan_id":"cebpf4jnsgd1na2vs0mg"},{"bike_id":"2c493bb8-7fab-4362-90f6-100286a1dd12","system_id":"levelo_inurba_marseille","lat":43.30466,"lon":5.37909,"is_reserved":false,"is_disabled":false,"rental_uris":{"android":"levelo://app?vid=2c493bb8-7fab-4362-90f6-100286a1dd12","ios":"levelo://app?vid=2c493bb8-7fab-4362-90f6-100286a1dd12"},"vehicle_type_id":"4","last_reported":1752128264,"current_range_meters":13600,"station_id":"ce4bgup2rcd13ifvqcn0","pricing_plan_id":"cebpf4jnsgd1na2vs0mg"},{"bike_id":"2a2c2ba3-f4e7-4476-b21e-559d75857b71","system_id":"levelo_inurba_marseille","lat":43.27069,"lon":5.42286,"is_reserved":false,"is_disabled":false,"rental_uris":{"android":"levelo://app?vid=2a2c2ba3-f4e7-4476-b21e-559d75857b71","ios":"levelo://app?vid=2a2c2ba3-f4e7-4476-b21e-559d75857b71"},"vehicle_type_id":"4","last_reported":1752128264,"current_range_meters":13600,"station_id":"ce4bhk92rcd13ifvqgb0","pricing_plan_id":"cebpf4jnsgd1na2vs0mg"},{"bike_id":"d76b2069-e38d-4ce8-a1d7-6f0932028204","system_id":"levelo_inurba_marseille","lat":43.29073,"lon":5.37144,"is_reserved":false,"is_disabled":false,"rental_uris":{"android":"levelo://app?vid=d76b2069-e38d-4ce8-a1d7-6f0932028204","ios":"levelo://app?vid=d76b2069-e38d-4ce8-a1d7-6f0932028204"},"vehicle_type_id":"4","last_reported":1752128264,"current_range_meters":14000,"station_id":"","pricing_plan_id":"cebpf4jnsgd1na2vs0mg"},{"bike_id":"eaa92e47-99b3-4106-b154-dfffdcda6d8e","system_id":"levelo_inurba_marseille","lat":43.25719,"lon":5.41112,"is_reserved":false,"is_disabled":false,"rental_uris":{"android":"levelo://app?vid=eaa92e47-99b3-4106-b154-dfffdcda6d8e","ios":"levelo://app?vid=eaa92e47-99b3-4106-b154-dfffdcda6d8e"},"vehicle_type_id":"4","last_reported":1752128264,"current_range_meters":14000,"station_id":"ce4bhkp2rcd13ifvqgd0","pricing_plan_id":"cebpf4jnsgd1na2vs0mg"},{"bike_id":"7dd4258d-8fe1-466b-bba8-036a896c4262","system_id":"levelo_inurba_marseille","lat":43.23217,"lon":5.35552,"is_reserved":false,"is_disabled":false,"rental_uris":{"android":"levelo://app?vid=7dd4258d-8fe1-466b-bba8-036a896c4262","ios":"levelo://app?vid=7dd4258d-8fe1-466b-bba8-036a896c4262"},"vehicle_type_id":"4","last_reported":1752128264,"current_range_meters":14000,"station_id":"ce4bhu92rcd13ifvqi70","pricing_plan_id":"cebpf4jnsgd1na2vs0mg"},{"bike_id":"a12628f1-f46f-4d0b-bd40-514cc7d8185a","system_id":"levelo_inurba_marseille","lat":43.28367,"lon":5.38632,"is_reserved":false,"is_disabled":false,"rental_uris":{"android":"levelo://app?vid=a12628f1-f46f-4d0b-bd40-514cc7d8185a","ios":"levelo://app?vid=a12628f1-f46f-4d0b-bd40-514cc7d8185a"},"vehicle_type_id":"4","last_reported":1752128264,"current_range_meters":14400,"station_id":"ce4bh492rcd13ifvqdvg","pricing_plan_id":"cebpf4jnsgd1na2vs0mg"},{"bike_id":"515924d6-a6cc-4a36-ae6a-7b046338b2fb","system_id":"levelo_inurba_marseille","lat":43.25116,"lon":5.40354,"is_reserved":false,"is_disabled":false,"rental_uris":{"android":"levelo://app?vid=515924d6-a6cc-4a36-ae6a-7b046338b2fb","ios":"levelo://app?vid=515924d6-a6cc-4a36-ae6a-7b046338b2fb"},"vehicle_type_id":"4","last_reported":1752128264,"current_range_meters":14400,"station_id":"ce4bhlh2rcd13ifvqgig","pricing_plan_id":"cebpf4jnsgd1na2vs0mg"},{"bike_id":"815cba28-9814-4899-8c53-dc3cb75515dc","system_id":"levelo_inurba_marseille","lat":43.281314,"lon":5.445918,"is_reserved":false,"is_disabled":false,"rental_uris":{"android":"levelo://app?vid=815cba28-9814-4899-8c53-dc3cb75515dc","ios":"levelo://app?vid=815cba28-9814-4899-8c53-dc3cb75515dc"},"vehicle_type_id":"4","last_reported":1752128264,"current_range_meters":14800,"station_id":"","pricing_plan_id":"cebpf4jnsgd1na2vs0mg"},{"bike_id":"2c5fe065-4624-4830-b3db-4b31a5d20c03","system_id":"levelo_inurba_marseille","lat":43.2991,"lon":5.38155,"is_reserved":false,"is_disabled":false,"rental_uris":{"android":"levelo://app?vid=2c5fe065-4624-4830-b3db-4b31a5d20c03","ios":"levelo://app?vid=2c5fe065-4624-4830-b3db-4b31a5d20c03"},"vehicle_type_id":"4","last_reported":1752128264,"current_range_meters":14800,"station_id":"ce4bgj12rcd13ifvqbc0","pricing_plan_id":"cebpf4jnsgd1na2vs0mg"},{"bike_id":"a0419746-6e10-4f26-9315-4e5e1d9cd1d2","system_id":"levelo_inurba_marseille","lat":43.24377,"lon":5.37093,"is_reserved":false,"is_disabled":false,"rental_uris":{"android":"levelo://app?vid=a0419746-6e10-4f26-9315-4e5e1d9cd1d2","ios":"levelo://app?vid=a0419746-6e10-4f26-9315-4e5e1d9cd1d2"},"vehicle_type_id":"4","last_reported":1752128264,"current_range_meters":14800,"station_id":"ce4bhhh2rcd13ifvqfk0","pricing_plan_id":"cebpf4jnsgd1na2vs0mg"},{"bike_id":"73fe94e8-74f9-41f0-85e9-7d8c52adf2fc","system_id":"levelo_inurba_marseille","lat":43.212625,"lon":5.35292,"is_reserved":false,"is_disabled":false,"rental_uris":{"android":"levelo://app?vid=73fe94e8-74f9-41f0-85e9-7d8c52adf2fc","ios":"levelo://app?vid=73fe94e8-74f9-41f0-85e9-7d8c52adf2fc"},"vehicle_type_id":"4","last_reported":1752128264,"current_range_meters":15200,"station_id":"","pricing_plan_id":"cebpf4jnsgd1na2vs0mg"},{"bike_id":"36c387ea-be50-4028-8ecc-21605fe3e879","system_id":"levelo_inurba_marseille","lat":43.29352,"lon":5.42828,"is_reserved":false,"is_disabled":false,"rental_uris":{"android":"levelo://app?vid=36c387ea-be50-4028-8ecc-21605fe3e879","ios":"levelo://app?vid=36c387ea-be50-4028-8ecc-21605fe3e879"},"vehicle_type_id":"4","last_reported":1752128264,"current_range_meters":15200,"station_id":"","pricing_plan_id":"cebpf4jnsgd1na2vs0mg"},{"bike_id":"5bd83761-dc7d-48b5-b30f-aed77bef76a9","system_id":"levelo_inurba_marseille","lat":43.24809,"lon":5.37461,"is_reserved":false,"is_disabled":false,"rental_uris":{"android":"levelo://app?vid=5bd83761-dc7d-48b5-b30f-aed77bef76a9","ios":"levelo://app?vid=5bd83761-dc7d-48b5-b30f-aed77bef76a9"},"vehicle_type_id":"4","last_reported":1752128264,"current_range_meters":15200,"station_id":"ce4bhgh2rcd13ifvqfb0","pricing_plan_id":"cebpf4jnsgd1na2vs0mg"},{"bike_id":"bf9e85a4-d185-43c1-ad21-f42cf123275c","system_id":"levelo_inurba_marseille","lat":43.240751,"lon":5.377524,"is_reserved":false,"is_disabled":false,"rental_uris":{"android":"levelo://app?vid=bf9e85a4-d185-43c1-ad21-f42cf123275c","ios":"levelo://app?vid=bf9e85a4-d185-43c1-ad21-f42cf123275c"},"vehicle_type_id":"4","last_reported":1752128264,"current_range_meters":15200,"station_id":"ce4bhnp2rcd13ifvqgvg","pricing_plan_id":"cebpf4jnsgd1na2vs0mg"},{"bike_id":"87d13c3c-9453-4492-8a8f-f2b4c8e828c6","system_id":"levelo_inurba_marseille","lat":43.26177,"lon":5.37049,"is_reserved":false,"is_disabled":false,"rental_uris":{"android":"levelo://app?vid=87d13c3c-9453-4492-8a8f-f2b4c8e828c6","ios":"levelo://app?vid=87d13c3c-9453-4492-8a8f-f2b4c8e828c6"},"vehicle_type_id":"4","last_reported":1752128264,"current_range_meters":16000,"station_id":"","pricing_plan_id":"cebpf4jnsgd1na2vs0mg"},{"bike_id":"feaa7e3a-cbe4-4489-be11-8a12d7eec173","system_id":"levelo_inurba_marseille","lat":43.25151,"lon":5.42556,"is_reserved":false,"is_disabled":false,"rental_uris":{"android":"levelo://app?vid=feaa7e3a-cbe4-4489-be11-8a12d7eec173","ios":"levelo://app?vid=feaa7e3a-cbe4-4489-be11-8a12d7eec173"},"vehicle_type_id":"4","last_reported":1752128264,"current_range_meters":16000,"station_id":"","pricing_plan_id":"cebpf4jnsgd1na2vs0mg"},{"bike_id":"29a342bd-1630-49b1-984f-7d897aa6553f","system_id":"levelo_inurba_marseille","lat":43.31213,"lon":5.36908,"is_reserved":false,"is_disabled":false,"rental_uris":{"android":"levelo://app?vid=29a342bd-1630-49b1-984f-7d897aa6553f","ios":"levelo://app?vid=29a342bd-1630-49b1-984f-7d897aa6553f"},"vehicle_type_id":"4","last_reported":1752128264,"current_range_meters":16000,"station_id":"ce4bgl92rcd13ifvqbq0","pricing_plan_id":"cebpf4jnsgd1na2vs0mg"},{"bike_id":"4c36c8b2-241f-4b9f-8864-958ca40e2121","system_id":"levelo_inurba_marseille","lat":43.29575,"lon":5.37479,"is_reserved":false,"is_disabled":false,"rental_uris":{"android":"levelo://app?vid=4c36c8b2-241f-4b9f-8864-958ca40e2121","ios":"levelo://app?vid=4c36c8b2-241f-4b9f-8864-958ca40e2121"},"vehicle_type_id":"4","last_reported":1752128264,"current_range_meters":16400,"station_id":"ce4bgh92rcd13ifvqb50","pricing_plan_id":"cebpf4jnsgd1na2vs0mg"},{"bike_id":"4f4ccfe1-3e49-490a-8efe-1b8cb57eb7d3","system_id":"levelo_inurba_marseille","lat":43.28572,"lon":5.39493,"is_reserved":false,"is_disabled":false,"rental_uris":{"android":"levelo://app?vid=4f4ccfe1-3e49-490a-8efe-1b8cb57eb7d3","ios":"levelo://app?vid=4f4ccfe1-3e49-490a-8efe-1b8cb57eb7d3"},"vehicle_type_id":"4","last_reported":1752128264,"current_range_meters":16400,"station_id":"ce4bh292rcd13ifvqdg0","pricing_plan_id":"cebpf4jnsgd1na2vs0mg"},{"bike_id":"f373e4a8-33e3-4f72-ae8e-e7ab386910f4","system_id":"levelo_inurba_marseille","lat":43.22516,"lon":5.34762,"is_reserved":false,"is_disabled":false,"rental_uris":{"android":"levelo://app?vid=f373e4a8-33e3-4f72-ae8e-e7ab386910f4","ios":"levelo://app?vid=f373e4a8-33e3-4f72-ae8e-e7ab386910f4"},"vehicle_type_id":"4","last_reported":1752128264,"current_range_meters":16400,"station_id":"st_cvj5dfep6f1abm77gieg","pricing_plan_id":"cebpf4jnsgd1na2vs0mg"},{"bike_id":"069759f3-8488-4973-b337-5e447fc27e24","system_id":"levelo_inurba_marseille","lat":43.211933,"lon":5.350695,"is_reserved":false,"is_disabled":false,"rental_uris":{"android":"levelo://app?vid=069759f3-8488-4973-b337-5e447fc27e24","ios":"levelo://app?vid=069759f3-8488-4973-b337-5e447fc27e24"},"vehicle_type_id":"4","last_reported":1752128264,"current_range_meters":16400,"station_id":"st_cvj6sg6p6f1abm77japg","pricing_plan_id":"cebpf4jnsgd1na2vs0mg"},{"bike_id":"9f5e74ce-2459-4c6f-a171-f6d1e8a1ed83","system_id":"levelo_inurba_marseille","lat":43.318551,"lon":5.3756,"is_reserved":false,"is_disabled":false,"rental_uris":{"android":"levelo://app?vid=9f5e74ce-2459-4c6f-a171-f6d1e8a1ed83","ios":"levelo://app?vid=9f5e74ce-2459-4c6f-a171-f6d1e8a1ed83"},"vehicle_type_id":"4","last_reported":1752128264,"current_range_meters":16800,"station_id":"","pricing_plan_id":"cebpf4jnsgd1na2vs0mg"},{"bike_id":"2c64ba4a-afe6-4331-bd5a-f8a563f672ee","system_id":"levelo_inurba_marseille","lat":43.29846,"lon":5.36289,"is_reserved":false,"is_disabled":false,"rental_uris":{"android":"levelo://app?vid=2c64ba4a-afe6-4331-bd5a-f8a563f672ee","ios":"levelo://app?vid=2c64ba4a-afe6-4331-bd5a-f8a563f672ee"},"vehicle_type_id":"4","last_reported":1752128264,"current_range_meters":16800,"station_id":"ce4bgpp2rcd13ifvqc3g","pricing_plan_id":"cebpf4jnsgd1na2vs0mg"},{"bike_id":"f9127120-34f2-456f-b7ed-a2a4a2d09d2f","system_id":"levelo_inurba_marseille","lat":43.26491,"lon":5.39573,"is_reserved":false,"is_disabled":false,"rental_uris":{"android":"levelo://app?vid=f9127120-34f2-456f-b7ed-a2a4a2d09d2f","ios":"levelo://app?vid=f9127120-34f2-456f-b7ed-a2a4a2d09d2f"},"vehicle_type_id":"4","last_reported":1752128264,"current_range_meters":16800,"station_id":"ce4bhi12rcd13ifvqfq0","pricing_plan_id":"cebpf4jnsgd1na2vs0mg"},{"bike_id":"faaab940-0be7-4848-b168-5dee72a7f61d","system_id":"levelo_inurba_marseille","lat":43.30415,"lon":5.41289,"is_reserved":false,"is_disabled":false,"rental_uris":{"android":"levelo://app?vid=faaab940-0be7-4848-b168-5dee72a7f61d","ios":"levelo://app?vid=faaab940-0be7-4848-b168-5dee72a7f61d"},"vehicle_type_id":"4","last_reported":1752128264,"current_range_meters":16800,"station_id":"ce4bhop2rcd13ifvqh8g","pricing_plan_id":"cebpf4jnsgd1na2vs0mg"},{"bike_id":"185afeba-d808-4e02-a0a9-f1c6681a8cc4","system_id":"levelo_inurba_marseille","lat":43.317541,"lon":5.390141,"is_reserved":false,"is_disabled":false,"rental_uris":{"android":"levelo://app?vid=185afeba-d808-4e02-a0a9-f1c6681a8cc4","ios":"levelo://app?vid=185afeba-d808-4e02-a0a9-f1c6681a8cc4"},"vehicle_type_id":"4","last_reported":1752128264,"current_range_meters":16800,"station_id":"ce4bhqp2rcd13ifvqhng","pricing_plan_id":"cebpf4jnsgd1na2vs0mg"},{"bike_id":"3227ae84-4a81-4104-bad3-d93ac4c56537","system_id":"levelo_inurba_marseille","lat":43.246751,"lon":5.381634,"is_reserved":false,"is_disabled":false,"rental_uris":{"android":"levelo://app?vid=3227ae84-4a81-4104-bad3-d93ac4c56537","ios":"levelo://app?vid=3227ae84-4a81-4104-bad3-d93ac4c56537"},"vehicle_type_id":"4","last_reported":1752128264,"current_range_meters":17200,"station_id":"ce4bhih2rcd13ifvqfr0","pricing_plan_id":"cebpf4jnsgd1na2vs0mg"},{"bike_id":"d84fcb78-434e-4857-a59b-bf1ff23ff44a","system_id":"levelo_inurba_marseille","lat":43.281448,"lon":5.426418,"is_reserved":false,"is_disabled":false,"rental_uris":{"android":"levelo://app?vid=d84fcb78-434e-4857-a59b-bf1ff23ff44a","ios":"levelo://app?vid=d84fcb78-434e-4857-a59b-bf1ff23ff44a"},"vehicle_type_id":"4","last_reported":1752128264,"current_range_meters":17200,"station_id":"ce4bhnh2rcd13ifvqgug","pricing_plan_id":"cebpf4jnsgd1na2vs0mg"},{"bike_id":"744de9c5-5760-4c22-96e4-d65a1e22d14f","system_id":"levelo_inurba_marseille","lat":43.320808,"lon":5.409093,"is_reserved":false,"is_disabled":false,"rental_uris":{"android":"levelo://app?vid=744de9c5-5760-4c22-96e4-d65a1e22d14f","ios":"levelo://app?vid=744de9c5-5760-4c22-96e4-d65a1e22d14f"},"vehicle_type_id":"4","last_reported":1752128264,"current_range_meters":17600,"station_id":"","pricing_plan_id":"cebpf4jnsgd1na2vs0mg"},{"bike_id":"bd5228ab-002e-4f81-bbd3-2baf5452f591","system_id":"levelo_inurba_marseille","lat":43.27816,"lon":5.41439,"is_reserved":false,"is_disabled":false,"rental_uris":{"android":"levelo://app?vid=bd5228ab-002e-4f81-bbd3-2baf5452f591","ios":"levelo://app?vid=bd5228ab-002e-4f81-bbd3-2baf5452f591"},"vehicle_type_id":"4","last_reported":1752128264,"current_range_meters":17600,"station_id":"","pricing_plan_id":"cebpf4jnsgd1na2vs0mg"},{"bike_id":"fa87fcb5-aacb-41a1-a789-0296bbd02085","system_id":"levelo_inurba_marseille","lat":43.245816,"lon":5.373775,"is_reserved":false,"is_disabled":false,"rental_uris":{"android":"levelo://app?vid=fa87fcb5-aacb-41a1-a789-0296bbd02085","ios":"levelo://app?vid=fa87fcb5-aacb-41a1-a789-0296bbd02085"},"vehicle_type_id":"4","last_reported":1752128264,"current_range_meters":17600,"station_id":"","pricing_plan_id":"cebpf4jnsgd1na2vs0mg"},{"bike_id":"4e209b0c-855f-4b51-8120-2faef8673853","system_id":"levelo_inurba_marseille","lat":43.306097,"lon":5.368921,"is_reserved":false,"is_disabled":false,"rental_uris":{"android":"levelo://app?vid=4e209b0c-855f-4b51-8120-2faef8673853","ios":"levelo://app?vid=4e209b0c-855f-4b51-8120-2faef8673853"},"vehicle_type_id":"4","last_reported":1752128264,"current_range_meters":17600,"station_id":"","pricing_plan_id":"cebpf4jnsgd1na2vs0mg"},{"bike_id":"696461d0-2b12-4a39-b8db-95d32fe09be9","system_id":"levelo_inurba_marseille","lat":43.29783,"lon":5.37094,"is_reserved":false,"is_disabled":false,"rental_uris":{"android":"levelo://app?vid=696461d0-2b12-4a39-b8db-95d32fe09be9","ios":"levelo://app?vid=696461d0-2b12-4a39-b8db-95d32fe09be9"},"vehicle_type_id":"4","last_reported":1752128264,"current_range_meters":17600,"station_id":"ce4bgop2rcd13ifvqc1g","pricing_plan_id":"cebpf4jnsgd1na2vs0mg"},{"bike_id":"f8b51e8e-26b2-4010-8a4c-3c0fa7e58204","system_id":"levelo_inurba_marseille","lat":43.31339,"lon":5.36721,"is_reserved":false,"is_disabled":false,"rental_uris":{"android":"levelo://app?vid=f8b51e8e-26b2-4010-8a4c-3c0fa7e58204","ios":"levelo://app?vid=f8b51e8e-26b2-4010-8a4c-3c0fa7e58204"},"vehicle_type_id":"4","last_reported":1752128264,"current_range_meters":17600,"station_id":"ce4bgr92rcd13ifvqc6g","pricing_plan_id":"cebpf4jnsgd1na2vs0mg"},{"bike_id":"edc9321e-708e-4543-aa2b-4fa910a5d844","system_id":"levelo_inurba_marseille","lat":43.29027,"lon":5.38646,"is_reserved":false,"is_disabled":false,"rental_uris":{"android":"levelo://app?vid=edc9321e-708e-4543-aa2b-4fa910a5d844","ios":"levelo://app?vid=edc9321e-708e-4543-aa2b-4fa910a5d844"},"vehicle_type_id":"4","last_reported":1752128264,"current_range_meters":17600,"station_id":"ce4bh4p2rcd13ifvqe0g","pricing_plan_id":"cebpf4jnsgd1na2vs0mg"},{"bike_id":"a5a6c2c1-2d48-4581-8647-6eab6c0bbb54","system_id":"levelo_inurba_marseille","lat":43.2636,"lon":5.37369,"is_reserved":false,"is_disabled":false,"rental_uris":{"android":"levelo://app?vid=a5a6c2c1-2d48-4581-8647-6eab6c0bbb54","ios":"levelo://app?vid=a5a6c2c1-2d48-4581-8647-6eab6c0bbb54"},"vehicle_type_id":"4","last_reported":1752128264,"current_range_meters":18000,"station_id":"","pricing_plan_id":"cebpf4jnsgd1na2vs0mg"},{"bike_id":"24b17f7b-dff1-4936-b27a-7c2c6813a894","system_id":"levelo_inurba_marseille","lat":43.245807,"lon":5.373839,"is_reserved":false,"is_disabled":false,"rental_uris":{"android":"levelo://app?vid=24b17f7b-dff1-4936-b27a-7c2c6813a894","ios":"levelo://app?vid=24b17f7b-dff1-4936-b27a-7c2c6813a894"},"vehicle_type_id":"4","last_reported":1752128264,"current_range_meters":18000,"station_id":"","pricing_plan_id":"cebpf4jnsgd1na2vs0mg"},{"bike_id":"d76b39f8-8e08-477b-8612-d528f3c8c4f1","system_id":"levelo_inurba_marseille","lat":43.313748,"lon":5.384952,"is_reserved":false,"is_disabled":false,"rental_uris":{"android":"levelo://app?vid=d76b39f8-8e08-477b-8612-d528f3c8c4f1","ios":"levelo://app?vid=d76b39f8-8e08-477b-8612-d528f3c8c4f1"},"vehicle_type_id":"4","last_reported":1752128264,"current_range_meters":18000,"station_id":"ce4bgt92rcd13ifvqcf0","pricing_plan_id":"cebpf4jnsgd1na2vs0mg"},{"bike_id":"55eb3ee3-207d-45c9-a356-7e275a6ee08e","system_id":"levelo_inurba_marseille","lat":43.322208,"lon":5.407363,"is_reserved":false,"is_disabled":false,"rental_uris":{"android":"levelo://app?vid=55eb3ee3-207d-45c9-a356-7e275a6ee08e","ios":"levelo://app?vid=55eb3ee3-207d-45c9-a356-7e275a6ee08e"},"vehicle_type_id":"4","last_reported":1752128264,"current_range_meters":18000,"station_id":"ce4bh092rcd13ifvqd30","pricing_plan_id":"cebpf4jnsgd1na2vs0mg"},{"bike_id":"fe910ec4-e73b-42a2-b416-c150717d4aa4","system_id":"levelo_inurba_marseille","lat":43.28947,"lon":5.39634,"is_reserved":false,"is_disabled":false,"rental_uris":{"android":"levelo://app?vid=fe910ec4-e73b-42a2-b416-c150717d4aa4","ios":"levelo://app?vid=fe910ec4-e73b-42a2-b416-c150717d4aa4"},"vehicle_type_id":"4","last_reported":1752128264,"current_range_meters":18000,"station_id":"ce4bh3h2rcd13ifvqdn0","pricing_plan_id":"cebpf4jnsgd1na2vs0mg"},{"bike_id":"2d414d60-9cdf-4009-9e13-1c37fe1bda24","system_id":"levelo_inurba_marseille","lat":43.27568,"lon":5.38423,"is_reserved":false,"is_disabled":false,"rental_uris":{"android":"levelo://app?vid=2d414d60-9cdf-4009-9e13-1c37fe1bda24","ios":"levelo://app?vid=2d414d60-9cdf-4009-9e13-1c37fe1bda24"},"vehicle_type_id":"4","last_reported":1752128264,"current_range_meters":18000,"station_id":"ce4bhh92rcd13ifvqfi0","pricing_plan_id":"cebpf4jnsgd1na2vs0mg"},{"bike_id":"1eadb67a-553f-4268-a33e-3500524f5528","system_id":"levelo_inurba_marseille","lat":43.30737,"lon":5.42441,"is_reserved":false,"is_disabled":false,"rental_uris":{"android":"levelo://app?vid=1eadb67a-553f-4268-a33e-3500524f5528","ios":"levelo://app?vid=1eadb67a-553f-4268-a33e-3500524f5528"},"vehicle_type_id":"4","last_reported":1752128264,"current_range_meters":18000,"station_id":"st_cvj6ca6bvosntc0bfgr0","pricing_plan_id":"cebpf4jnsgd1na2vs0mg"},{"bike_id":"ee1ac907-8623-4d00-ac01-d41dd90be9fe","system_id":"levelo_inurba_marseille","lat":43.211928,"lon":5.35071,"is_reserved":false,"is_disabled":false,"rental_uris":{"android":"levelo://app?vid=ee1ac907-8623-4d00-ac01-d41dd90be9fe","ios":"levelo://app?vid=ee1ac907-8623-4d00-ac01-d41dd90be9fe"},"vehicle_type_id":"4","last_reported":1752128264,"current_range_meters":18000,"station_id":"st_cvj6sg6p6f1abm77japg","pricing_plan_id":"cebpf4jnsgd1na2vs0mg"},{"bike_id":"0ad11ac4-dd89-4c07-aea9-49ac619f62eb","system_id":"levelo_inurba_marseille","lat":43.30798,"lon":5.37646,"is_reserved":false,"is_disabled":false,"rental_uris":{"android":"levelo://app?vid=0ad11ac4-dd89-4c07-aea9-49ac619f62eb","ios":"levelo://app?vid=0ad11ac4-dd89-4c07-aea9-49ac619f62eb"},"vehicle_type_id":"4","last_reported":1752128264,"current_range_meters":18800,"station_id":"ce4bgv92rcd13ifvqcq0","pricing_plan_id":"cebpf4jnsgd1na2vs0mg"},{"bike_id":"45d6bd28-2b2e-46ca-a1b5-ffee5c248ff8","system_id":"levelo_inurba_marseille","lat":43.30597,"lon":5.39356,"is_reserved":false,"is_disabled":false,"rental_uris":{"android":"levelo://app?vid=45d6bd28-2b2e-46ca-a1b5-ffee5c248ff8","ios":"levelo://app?vid=45d6bd28-2b2e-46ca-a1b5-ffee5c248ff8"},"vehicle_type_id":"4","last_reported":1752128264,"current_range_meters":18800,"station_id":"ce4bh0p2rcd13ifvqd80","pricing_plan_id":"cebpf4jnsgd1na2vs0mg"},{"bike_id":"6ef6321e-2c45-4d75-8b83-d859f489071e","system_id":"levelo_inurba_marseille","lat":43.288546,"lon":5.393247,"is_reserved":false,"is_disabled":false,"rental_uris":{"android":"levelo://app?vid=6ef6321e-2c45-4d75-8b83-d859f489071e","ios":"levelo://app?vid=6ef6321e-2c45-4d75-8b83-d859f489071e"},"vehicle_type_id":"4","last_reported":1752128264,"current_range_meters":18800,"station_id":"ce4bh2p2rcd13ifvqdi0","pricing_plan_id":"cebpf4jnsgd1na2vs0mg"},{"bike_id":"386ac6c9-5fc7-4a38-b181-1cf955b205b5","system_id":"levelo_inurba_marseille","lat":43.259339,"lon":5.409114,"is_reserved":false,"is_disabled":false,"rental_uris":{"android":"levelo://app?vid=386ac6c9-5fc7-4a38-b181-1cf955b205b5","ios":"levelo://app?vid=386ac6c9-5fc7-4a38-b181-1cf955b205b5"},"vehicle_type_id":"4","last_reported":1752128264,"current_range_meters":18800,"station_id":"ce4bhm92rcd13ifvqglg","pricing_plan_id":"cebpf4jnsgd1na2vs0mg"},{"bike_id":"cc91f022-5f4f-478d-8287-995a3efb66d1","system_id":"levelo_inurba_marseille","lat":43.262247,"lon":5.404544,"is_reserved":false,"is_disabled":false,"rental_uris":{"android":"levelo://app?vid=cc91f022-5f4f-478d-8287-995a3efb66d1","ios":"levelo://app?vid=cc91f022-5f4f-478d-8287-995a3efb66d1"},"vehicle_type_id":"4","last_reported":1752128264,"current_range_meters":18800,"station_id":"ce4bhmh2rcd13ifvqgmg","pricing_plan_id":"cebpf4jnsgd1na2vs0mg"},{"bike_id":"885a4f7a-b630-4979-8079-f23273e8b02f","system_id":"levelo_inurba_marseille","lat":43.241749,"lon":5.397248,"is_reserved":false,"is_disabled":false,"rental_uris":{"android":"levelo://app?vid=885a4f7a-b630-4979-8079-f23273e8b02f","ios":"levelo://app?vid=885a4f7a-b630-4979-8079-f23273e8b02f"},"vehicle_type_id":"4","last_reported":1752128264,"current_range_meters":18800,"station_id":"ce4bhn12rcd13ifvqgpg","pricing_plan_id":"cebpf4jnsgd1na2vs0mg"},{"bike_id":"8f89e4f3-495a-4317-bd6d-37a19186d65b","system_id":"levelo_inurba_marseille","lat":43.337276,"lon":5.391918,"is_reserved":false,"is_disabled":false,"rental_uris":{"android":"levelo://app?vid=8f89e4f3-495a-4317-bd6d-37a19186d65b","ios":"levelo://app?vid=8f89e4f3-495a-4317-bd6d-37a19186d65b"},"vehicle_type_id":"4","last_reported":1752128264,"current_range_meters":18800,"station_id":"ce4bhr92rcd13ifvqhsg","pricing_plan_id":"cebpf4jnsgd1na2vs0mg"},{"bike_id":"d6183b14-14ca-44c7-b355-9bc124d67e93","system_id":"levelo_inurba_marseille","lat":43.314964,"lon":5.380141,"is_reserved":false,"is_disabled":false,"rental_uris":{"android":"levelo://app?vid=d6183b14-14ca-44c7-b355-9bc124d67e93","ios":"levelo://app?vid=d6183b14-14ca-44c7-b355-9bc124d67e93"},"vehicle_type_id":"4","last_reported":1752128264,"current_range_meters":18800,"station_id":"ce4bhsp2rcd13ifvqi50","pricing_plan_id":"cebpf4jnsgd1na2vs0mg"},{"bike_id":"148f4ac7-57a4-446a-9e2a-f8cab5854520","system_id":"levelo_inurba_marseille","lat":43.31912,"lon":5.3734,"is_reserved":false,"is_disabled":false,"rental_uris":{"android":"levelo://app?vid=148f4ac7-57a4-446a-9e2a-f8cab5854520","ios":"levelo://app?vid=148f4ac7-57a4-446a-9e2a-f8cab5854520"},"vehicle_type_id":"4","last_reported":1752128264,"current_range_meters":19200,"station_id":"","pricing_plan_id":"cebpf4jnsgd1na2vs0mg"},{"bike_id":"88f769ff-a100-4dbb-af44-987642627754","system_id":"levelo_inurba_marseille","lat":43.30727,"lon":5.3999,"is_reserved":false,"is_disabled":false,"rental_uris":{"android":"levelo://app?vid=88f769ff-a100-4dbb-af44-987642627754","ios":"levelo://app?vid=88f769ff-a100-4dbb-af44-987642627754"},"vehicle_type_id":"4","last_reported":1752128264,"current_range_meters":19200,"station_id":"","pricing_plan_id":"cebpf4jnsgd1na2vs0mg"},{"bike_id":"5bfbe33d-cf5a-401d-9ce6-b977ba0dce72","system_id":"levelo_inurba_marseille","lat":43.29715,"lon":5.3662,"is_reserved":false,"is_disabled":false,"rental_uris":{"android":"levelo://app?vid=5bfbe33d-cf5a-401d-9ce6-b977ba0dce72","ios":"levelo://app?vid=5bfbe33d-cf5a-401d-9ce6-b977ba0dce72"},"vehicle_type_id":"4","last_reported":1752128264,"current_range_meters":19200,"station_id":"ce4bgn12rcd13ifvqbt0","pricing_plan_id":"cebpf4jnsgd1na2vs0mg"},{"bike_id":"5126538c-e379-41f9-b8aa-b60309da16d4","system_id":"levelo_inurba_marseille","lat":43.29847,"lon":5.3628,"is_reserved":false,"is_disabled":false,"rental_uris":{"android":"levelo://app?vid=5126538c-e379-41f9-b8aa-b60309da16d4","ios":"levelo://app?vid=5126538c-e379-41f9-b8aa-b60309da16d4"},"vehicle_type_id":"4","last_reported":1752128264,"current_range_meters":19200,"station_id":"ce4bgpp2rcd13ifvqc3g","pricing_plan_id":"cebpf4jnsgd1na2vs0mg"},{"bike_id":"a3d06fdd-d90f-4da8-9200-8f61c005f0a2","system_id":"levelo_inurba_marseille","lat":43.22507,"lon":5.34783,"is_reserved":false,"is_disabled":false,"rental_uris":{"android":"levelo://app?vid=a3d06fdd-d90f-4da8-9200-8f61c005f0a2","ios":"levelo://app?vid=a3d06fdd-d90f-4da8-9200-8f61c005f0a2"},"vehicle_type_id":"4","last_reported":1752128264,"current_range_meters":19200,"station_id":"st_cvj5dfep6f1abm77gieg","pricing_plan_id":"cebpf4jnsgd1na2vs0mg"},{"bike_id":"81829ec4-673b-47c7-b3cf-936434f281d4","system_id":"levelo_inurba_marseille","lat":43.29036,"lon":5.39968,"is_reserved":false,"is_disabled":false,"rental_uris":{"android":"levelo://app?vid=81829ec4-673b-47c7-b3cf-936434f281d4","ios":"levelo://app?vid=81829ec4-673b-47c7-b3cf-936434f281d4"},"vehicle_type_id":"4","last_reported":1752128264,"current_range_meters":19600,"station_id":"ce4bh392rcd13ifvqdm0","pricing_plan_id":"cebpf4jnsgd1na2vs0mg"},{"bike_id":"816efbfb-669f-4ec5-9e7b-6d90e037bcb3","system_id":"levelo_inurba_marseille","lat":43.29175,"lon":5.37147,"is_reserved":false,"is_disabled":false,"rental_uris":{"android":"levelo://app?vid=816efbfb-669f-4ec5-9e7b-6d90e037bcb3","ios":"levelo://app?vid=816efbfb-669f-4ec5-9e7b-6d90e037bcb3"},"vehicle_type_id":"4","last_reported":1752128264,"current_range_meters":19600,"station_id":"ce4bha92rcd13ifvqeh0","pricing_plan_id":"cebpf4jnsgd1na2vs0mg"},{"bike_id":"5fed4a51-b2c3-4531-bad4-91560fd34df4","system_id":"levelo_inurba_marseille","lat":43.28275,"lon":5.35051,"is_reserved":false,"is_disabled":false,"rental_uris":{"android":"levelo://app?vid=5fed4a51-b2c3-4531-bad4-91560fd34df4","ios":"levelo://app?vid=5fed4a51-b2c3-4531-bad4-91560fd34df4"},"vehicle_type_id":"4","last_reported":1752128264,"current_range_meters":19600,"station_id":"ce4bhbp2rcd13ifvqerg","pricing_plan_id":"cebpf4jnsgd1na2vs0mg"},{"bike_id":"a37c81c5-d096-4e6d-b1b3-5bbb8251fbd0","system_id":"levelo_inurba_marseille","lat":43.243883,"lon":5.370651,"is_reserved":false,"is_disabled":false,"rental_uris":{"android":"levelo://app?vid=a37c81c5-d096-4e6d-b1b3-5bbb8251fbd0","ios":"levelo://app?vid=a37c81c5-d096-4e6d-b1b3-5bbb8251fbd0"},"vehicle_type_id":"4","last_reported":1752128264,"current_range_meters":19600,"station_id":"ce4bhhh2rcd13ifvqfk0","pricing_plan_id":"cebpf4jnsgd1na2vs0mg"},{"bike_id":"d39178c4-b7be-4d48-9ac4-b9c12a67227c","system_id":"levelo_inurba_marseille","lat":43.25939,"lon":5.40906,"is_reserved":false,"is_disabled":false,"rental_uris":{"android":"levelo://app?vid=d39178c4-b7be-4d48-9ac4-b9c12a67227c","ios":"levelo://app?vid=d39178c4-b7be-4d48-9ac4-b9c12a67227c"},"vehicle_type_id":"4","last_reported":1752128264,"current_range_meters":19600,"station_id":"ce4bhm92rcd13ifvqglg","pricing_plan_id":"cebpf4jnsgd1na2vs0mg"},{"bike_id":"29a0a180-d29f-4a4e-a71b-d1d9d42cb217","system_id":"levelo_inurba_marseille","lat":43.21193,"lon":5.35078,"is_reserved":false,"is_disabled":false,"rental_uris":{"android":"levelo://app?vid=29a0a180-d29f-4a4e-a71b-d1d9d42cb217","ios":"levelo://app?vid=29a0a180-d29f-4a4e-a71b-d1d9d42cb217"},"vehicle_type_id":"4","last_reported":1752128264,"current_range_meters":19600,"station_id":"st_cvj6sg6p6f1abm77japg","pricing_plan_id":"cebpf4jnsgd1na2vs0mg"},{"bike_id":"595e9351-a7ce-45de-8995-771f7d9fe86e","system_id":"levelo_inurba_marseille","lat":43.309243,"lon":5.378088,"is_reserved":false,"is_disabled":false,"rental_uris":{"android":"levelo://app?vid=595e9351-a7ce-45de-8995-771f7d9fe86e","ios":"levelo://app?vid=595e9351-a7ce-45de-8995-771f7d9fe86e"},"vehicle_type_id":"4","last_reported":1752128264,"current_range_meters":20000,"station_id":"","pricing_plan_id":"cebpf4jnsgd1na2vs0mg"},{"bike_id":"7dfd6c8f-d7ea-4069-b346-ad0c7b4cb197","system_id":"levelo_inurba_marseille","lat":43.28729,"lon":5.37938,"is_reserved":false,"is_disabled":false,"rental_uris":{"android":"levelo://app?vid=7dfd6c8f-d7ea-4069-b346-ad0c7b4cb197","ios":"levelo://app?vid=7dfd6c8f-d7ea-4069-b346-ad0c7b4cb197"},"vehicle_type_id":"4","last_reported":1752128264,"current_range_meters":20000,"station_id":"ce4bh9p2rcd13ifvqec0","pricing_plan_id":"cebpf4jnsgd1na2vs0mg"},{"bike_id":"0cd11708-b8c5-49cc-88c1-d9132b468e98","system_id":"levelo_inurba_marseille","lat":43.24676,"lon":5.38159,"is_reserved":false,"is_disabled":false,"rental_uris":{"android":"levelo://app?vid=0cd11708-b8c5-49cc-88c1-d9132b468e98","ios":"levelo://app?vid=0cd11708-b8c5-49cc-88c1-d9132b468e98"},"vehicle_type_id":"4","last_reported":1752128264,"current_range_meters":20000,"station_id":"ce4bhih2rcd13ifvqfr0","pricing_plan_id":"cebpf4jnsgd1na2vs0mg"},{"bike_id":"e3a75ee9-c614-467b-8cc2-f813bcef2ab1","system_id":"levelo_inurba_marseille","lat":43.33743,"lon":5.3919,"is_reserved":false,"is_disabled":false,"rental_uris":{"android":"levelo://app?vid=e3a75ee9-c614-467b-8cc2-f813bcef2ab1","ios":"levelo://app?vid=e3a75ee9-c614-467b-8cc2-f813bcef2ab1"},"vehicle_type_id":"4","last_reported":1752128264,"current_range_meters":20400,"station_id":"ce4bhr92rcd13ifvqhsg","pricing_plan_id":"cebpf4jnsgd1na2vs0mg"},{"bike_id":"2a459f96-6b53-43f7-b70c-1135b0d88aea","system_id":"levelo_inurba_marseille","lat":43.23195,"lon":5.35556,"is_reserved":false,"is_disabled":false,"rental_uris":{"android":"levelo://app?vid=2a459f96-6b53-43f7-b70c-1135b0d88aea","ios":"levelo://app?vid=2a459f96-6b53-43f7-b70c-1135b0d88aea"},"vehicle_type_id":"4","last_reported":1752128264,"current_range_meters":20400,"station_id":"ce4bhu92rcd13ifvqi70","pricing_plan_id":"cebpf4jnsgd1na2vs0mg"},{"bike_id":"fd4261a3-5292-4921-bd5b-35dfca98b487","system_id":"levelo_inurba_marseille","lat":43.26161,"lon":5.37468,"is_reserved":false,"is_disabled":false,"rental_uris":{"android":"levelo://app?vid=fd4261a3-5292-4921-bd5b-35dfca98b487","ios":"levelo://app?vid=fd4261a3-5292-4921-bd5b-35dfca98b487"},"vehicle_type_id":"4","last_reported":1752128264,"current_range_meters":20800,"station_id":"","pricing_plan_id":"cebpf4jnsgd1na2vs0mg"},{"bike_id":"a4ec11bb-3564-4bcb-a741-9a9daab4a909","system_id":"levelo_inurba_marseille","lat":43.30473,"lon":5.38208,"is_reserved":false,"is_disabled":false,"rental_uris":{"android":"levelo://app?vid=a4ec11bb-3564-4bcb-a741-9a9daab4a909","ios":"levelo://app?vid=a4ec11bb-3564-4bcb-a741-9a9daab4a909"},"vehicle_type_id":"4","last_reported":1752128264,"current_range_meters":20800,"station_id":"","pricing_plan_id":"cebpf4jnsgd1na2vs0mg"},{"bike_id":"0a4f7701-b1a0-4489-b257-d1d702492d71","system_id":"levelo_inurba_marseille","lat":43.31336,"lon":5.39681,"is_reserved":false,"is_disabled":false,"rental_uris":{"android":"levelo://app?vid=0a4f7701-b1a0-4489-b257-d1d702492d71","ios":"levelo://app?vid=0a4f7701-b1a0-4489-b257-d1d702492d71"},"vehicle_type_id":"4","last_reported":1752128264,"current_range_meters":20800,"station_id":"ce4bgvp2rcd13ifvqcu0","pricing_plan_id":"cebpf4jnsgd1na2vs0mg"},{"bike_id":"847425bb-e871-47b9-afde-68010bfd220d","system_id":"levelo_inurba_marseille","lat":43.2963,"lon":5.40571,"is_reserved":false,"is_disabled":false,"rental_uris":{"android":"levelo://app?vid=847425bb-e871-47b9-afde-68010bfd220d","ios":"levelo://app?vid=847425bb-e871-47b9-afde-68010bfd220d"},"vehicle_type_id":"4","last_reported":1752128264,"current_range_meters":20800,"station_id":"ce4bh0h2rcd13ifvqd60","pricing_plan_id":"cebpf4jnsgd1na2vs0mg"},{"bike_id":"baded31f-14f6-420b-848e-602cf108c48b","system_id":"levelo_inurba_marseille","lat":43.27959,"lon":5.38727,"is_reserved":false,"is_disabled":false,"rental_uris":{"android":"levelo://app?vid=baded31f-14f6-420b-848e-602cf108c48b","ios":"levelo://app?vid=baded31f-14f6-420b-848e-602cf108c48b"},"vehicle_type_id":"4","last_reported":1752128264,"current_range_meters":20800,"station_id":"ce4bhg12rcd13ifvqf80","pricing_plan_id":"cebpf4jnsgd1na2vs0mg"},{"bike_id":"9f3c5f2e-d4be-4bd4-9865-c7acb5e49047","system_id":"levelo_inurba_marseille","lat":43.303804,"lon":5.424872,"is_reserved":false,"is_disabled":false,"rental_uris":{"android":"levelo://app?vid=9f3c5f2e-d4be-4bd4-9865-c7acb5e49047","ios":"levelo://app?vid=9f3c5f2e-d4be-4bd4-9865-c7acb5e49047"},"vehicle_type_id":"4","last_reported":1752128264,"current_range_meters":20800,"station_id":"ce4bhoh2rcd13ifvqh6g","pricing_plan_id":"cebpf4jnsgd1na2vs0mg"},{"bike_id":"8e839b5b-66eb-4689-aabb-7fceca362c4c","system_id":"levelo_inurba_marseille","lat":43.23197,"lon":5.35555,"is_reserved":false,"is_disabled":false,"rental_uris":{"android":"levelo://app?vid=8e839b5b-66eb-4689-aabb-7fceca362c4c","ios":"levelo://app?vid=8e839b5b-66eb-4689-aabb-7fceca362c4c"},"vehicle_type_id":"4","last_reported":1752128264,"current_range_meters":20800,"station_id":"ce4bhu92rcd13ifvqi70","pricing_plan_id":"cebpf4jnsgd1na2vs0mg"},{"bike_id":"fde530d0-eeed-4692-bb9c-2c65ba0cdd9f","system_id":"levelo_inurba_marseille","lat":43.308486,"lon":5.425752,"is_reserved":false,"is_disabled":false,"rental_uris":{"android":"levelo://app?vid=fde530d0-eeed-4692-bb9c-2c65ba0cdd9f","ios":"levelo://app?vid=fde530d0-eeed-4692-bb9c-2c65ba0cdd9f"},"vehicle_type_id":"4","last_reported":1752128264,"current_range_meters":21600,"station_id":"","pricing_plan_id":"cebpf4jnsgd1na2vs0mg"},{"bike_id":"e0218dcb-5ba0-4e03-92d0-724a994469ba","system_id":"levelo_inurba_marseille","lat":43.296993,"lon":5.362892,"is_reserved":false,"is_disabled":false,"rental_uris":{"android":"levelo://app?vid=e0218dcb-5ba0-4e03-92d0-724a994469ba","ios":"levelo://app?vid=e0218dcb-5ba0-4e03-92d0-724a994469ba"},"vehicle_type_id":"4","last_reported":1752128264,"current_range_meters":21600,"station_id":"ce4bgpp2rcd13ifvqc3g","pricing_plan_id":"cebpf4jnsgd1na2vs0mg"},{"bike_id":"4bb4aee4-8fba-4de6-abc9-8f7949f0aab7","system_id":"levelo_inurba_marseille","lat":43.31218,"lon":5.367276,"is_reserved":false,"is_disabled":false,"rental_uris":{"android":"levelo://app?vid=4bb4aee4-8fba-4de6-abc9-8f7949f0aab7","ios":"levelo://app?vid=4bb4aee4-8fba-4de6-abc9-8f7949f0aab7"},"vehicle_type_id":"4","last_reported":1752128264,"current_range_meters":21600,"station_id":"ce4bgr92rcd13ifvqc6g","pricing_plan_id":"cebpf4jnsgd1na2vs0mg"},{"bike_id":"b5c3cd71-2465-4523-8d09-09e6a2ed8599","system_id":"levelo_inurba_marseille","lat":43.292003,"lon":5.357955,"is_reserved":false,"is_disabled":false,"rental_uris":{"android":"levelo://app?vid=b5c3cd71-2465-4523-8d09-09e6a2ed8599","ios":"levelo://app?vid=b5c3cd71-2465-4523-8d09-09e6a2ed8599"},"vehicle_type_id":"4","last_reported":1752128264,"current_range_meters":21600,"station_id":"ce4bhb12rcd13ifvqel0","pricing_plan_id":"cebpf4jnsgd1na2vs0mg"},{"bike_id":"fff65eda-a667-4ffa-a05c-aaf5253fb8b1","system_id":"levelo_inurba_marseille","lat":43.241741,"lon":5.397426,"is_reserved":false,"is_disabled":false,"rental_uris":{"android":"levelo://app?vid=fff65eda-a667-4ffa-a05c-aaf5253fb8b1","ios":"levelo://app?vid=fff65eda-a667-4ffa-a05c-aaf5253fb8b1"},"vehicle_type_id":"4","last_reported":1752128264,"current_range_meters":21600,"station_id":"ce4bhn12rcd13ifvqgpg","pricing_plan_id":"cebpf4jnsgd1na2vs0mg"},{"bike_id":"bed9de1b-46ff-45fb-80b1-ff7e81706698","system_id":"levelo_inurba_marseille","lat":43.21746,"lon":5.34607,"is_reserved":false,"is_disabled":false,"rental_uris":{"android":"levelo://app?vid=bed9de1b-46ff-45fb-80b1-ff7e81706698","ios":"levelo://app?vid=bed9de1b-46ff-45fb-80b1-ff7e81706698"},"vehicle_type_id":"4","last_reported":1752128264,"current_range_meters":21600,"station_id":"st_cvj6r9ubvosntc0bgbag","pricing_plan_id":"cebpf4jnsgd1na2vs0mg"},{"bike_id":"e6524890-4be2-4988-bb9a-5849aa5f08f0","system_id":"levelo_inurba_marseille","lat":43.309305,"lon":5.401474,"is_reserved":false,"is_disabled":false,"rental_uris":{"android":"levelo://app?vid=e6524890-4be2-4988-bb9a-5849aa5f08f0","ios":"levelo://app?vid=e6524890-4be2-4988-bb9a-5849aa5f08f0"},"vehicle_type_id":"4","last_reported":1752128264,"current_range_meters":22000,"station_id":"ce4bgvp2rcd13ifvqct0","pricing_plan_id":"cebpf4jnsgd1na2vs0mg"},{"bike_id":"a8ac511f-1e1c-42d6-b4f8-b1bccc989bcd","system_id":"levelo_inurba_marseille","lat":43.31323,"lon":5.39697,"is_reserved":false,"is_disabled":false,"rental_uris":{"android":"levelo://app?vid=a8ac511f-1e1c-42d6-b4f8-b1bccc989bcd","ios":"levelo://app?vid=a8ac511f-1e1c-42d6-b4f8-b1bccc989bcd"},"vehicle_type_id":"4","last_reported":1752128264,"current_range_meters":22000,"station_id":"ce4bgvp2rcd13ifvqcu0","pricing_plan_id":"cebpf4jnsgd1na2vs0mg"},{"bike_id":"ec88088a-f59b-4949-8a92-576fcc8b44f0","system_id":"levelo_inurba_marseille","lat":43.24664,"lon":5.38167,"is_reserved":false,"is_disabled":false,"rental_uris":{"android":"levelo://app?vid=ec88088a-f59b-4949-8a92-576fcc8b44f0","ios":"levelo://app?vid=ec88088a-f59b-4949-8a92-576fcc8b44f0"},"vehicle_type_id":"4","last_reported":1752128264,"current_range_meters":22000,"station_id":"ce4bhih2rcd13ifvqfr0","pricing_plan_id":"cebpf4jnsgd1na2vs0mg"},{"bike_id":"dc71cfe7-dd5b-4120-8a55-db3cfcbd08fa","system_id":"levelo_inurba_marseille","lat":43.27867,"lon":5.37443,"is_reserved":false,"is_disabled":false,"rental_uris":{"android":"levelo://app?vid=dc71cfe7-dd5b-4120-8a55-db3cfcbd08fa","ios":"levelo://app?vid=dc71cfe7-dd5b-4120-8a55-db3cfcbd08fa"},"vehicle_type_id":"4","last_reported":1752128264,"current_range_meters":22400,"station_id":"","pricing_plan_id":"cebpf4jnsgd1na2vs0mg"},{"bike_id":"5ad55a59-331e-49f0-b0b1-993a43eea6a6","system_id":"levelo_inurba_marseille","lat":43.30539,"lon":5.36553,"is_reserved":false,"is_disabled":false,"rental_uris":{"android":"levelo://app?vid=5ad55a59-331e-49f0-b0b1-993a43eea6a6","ios":"levelo://app?vid=5ad55a59-331e-49f0-b0b1-993a43eea6a6"},"vehicle_type_id":"4","last_reported":1752128264,"current_range_meters":22400,"station_id":"ce4bgs12rcd13ifvqcag","pricing_plan_id":"cebpf4jnsgd1na2vs0mg"},{"bike_id":"d42ba688-d8ad-476a-9b06-708de14037a4","system_id":"levelo_inurba_marseille","lat":43.27946,"lon":5.4105,"is_reserved":false,"is_disabled":false,"rental_uris":{"android":"levelo://app?vid=d42ba688-d8ad-476a-9b06-708de14037a4","ios":"levelo://app?vid=d42ba688-d8ad-476a-9b06-708de14037a4"},"vehicle_type_id":"4","last_reported":1752128264,"current_range_meters":22400,"station_id":"ce4bhnp2rcd13ifvqh0g","pricing_plan_id":"cebpf4jnsgd1na2vs0mg"},{"bike_id":"06ec5e73-7c37-4d7d-9933-e904369ec74e","system_id":"levelo_inurba_marseille","lat":43.323663,"lon":5.367723,"is_reserved":false,"is_disabled":false,"rental_uris":{"android":"levelo://app?vid=06ec5e73-7c37-4d7d-9933-e904369ec74e","ios":"levelo://app?vid=06ec5e73-7c37-4d7d-9933-e904369ec74e"},"vehicle_type_id":"4","last_reported":1752128264,"current_range_meters":22400,"station_id":"ce4bhsh2rcd13ifvqi2g","pricing_plan_id":"cebpf4jnsgd1na2vs0mg"},{"bike_id":"dafa5a87-b26d-4379-9a6b-1f02133b78a6","system_id":"levelo_inurba_marseille","lat":43.211891,"lon":5.35075,"is_reserved":false,"is_disabled":false,"rental_uris":{"android":"levelo://app?vid=dafa5a87-b26d-4379-9a6b-1f02133b78a6","ios":"levelo://app?vid=dafa5a87-b26d-4379-9a6b-1f02133b78a6"},"vehicle_type_id":"4","last_reported":1752128264,"current_range_meters":22400,"station_id":"st_cvj6sg6p6f1abm77japg","pricing_plan_id":"cebpf4jnsgd1na2vs0mg"},{"bike_id":"37b84a38-055a-4a6e-a56a-8ff3d0c1b2ec","system_id":"levelo_inurba_marseille","lat":43.21194,"lon":5.35072,"is_reserved":false,"is_disabled":false,"rental_uris":{"android":"levelo://app?vid=37b84a38-055a-4a6e-a56a-8ff3d0c1b2ec","ios":"levelo://app?vid=37b84a38-055a-4a6e-a56a-8ff3d0c1b2ec"},"vehicle_type_id":"4","last_reported":1752128264,"current_range_meters":22400,"station_id":"st_cvj6sg6p6f1abm77japg","pricing_plan_id":"cebpf4jnsgd1na2vs0mg"},{"bike_id":"0fdbfa71-2a8e-49c7-9f88-38b5ed6ae89d","system_id":"levelo_inurba_marseille","lat":43.28131,"lon":5.38921,"is_reserved":false,"is_disabled":false,"rental_uris":{"android":"levelo://app?vid=0fdbfa71-2a8e-49c7-9f88-38b5ed6ae89d","ios":"levelo://app?vid=0fdbfa71-2a8e-49c7-9f88-38b5ed6ae89d"},"vehicle_type_id":"4","last_reported":1752128264,"current_range_meters":22800,"station_id":"","pricing_plan_id":"cebpf4jnsgd1na2vs0mg"},{"bike_id":"5f9facdb-d1e1-40e1-8ceb-766e4b9ac193","system_id":"levelo_inurba_marseille","lat":43.21754,"lon":5.345992,"is_reserved":false,"is_disabled":false,"rental_uris":{"android":"levelo://app?vid=5f9facdb-d1e1-40e1-8ceb-766e4b9ac193","ios":"levelo://app?vid=5f9facdb-d1e1-40e1-8ceb-766e4b9ac193"},"vehicle_type_id":"4","last_reported":1752128264,"current_range_meters":22800,"station_id":"","pricing_plan_id":"cebpf4jnsgd1na2vs0mg"},{"bike_id":"8808ab43-8103-45c6-89dc-15a3f11580f5","system_id":"levelo_inurba_marseille","lat":43.30136,"lon":5.38058,"is_reserved":false,"is_disabled":false,"rental_uris":{"android":"levelo://app?vid=8808ab43-8103-45c6-89dc-15a3f11580f5","ios":"levelo://app?vid=8808ab43-8103-45c6-89dc-15a3f11580f5"},"vehicle_type_id":"4","last_reported":1752128264,"current_range_meters":22800,"station_id":"ce4bgjp2rcd13ifvqbh0","pricing_plan_id":"cebpf4jnsgd1na2vs0mg"},{"bike_id":"2c958333-d913-4383-bf1e-069882fa15cf","system_id":"levelo_inurba_marseille","lat":43.279041,"lon":5.395705,"is_reserved":false,"is_disabled":false,"rental_uris":{"android":"levelo://app?vid=2c958333-d913-4383-bf1e-069882fa15cf","ios":"levelo://app?vid=2c958333-d913-4383-bf1e-069882fa15cf"},"vehicle_type_id":"4","last_reported":1752128264,"current_range_meters":22800,"station_id":"ce4bhf92rcd13ifvqf40","pricing_plan_id":"cebpf4jnsgd1na2vs0mg"},{"bike_id":"dbba3321-20c7-4989-a7b5-ea9ab2c4b3e8","system_id":"levelo_inurba_marseille","lat":43.261935,"lon":5.374477,"is_reserved":false,"is_disabled":false,"rental_uris":{"android":"levelo://app?vid=dbba3321-20c7-4989-a7b5-ea9ab2c4b3e8","ios":"levelo://app?vid=dbba3321-20c7-4989-a7b5-ea9ab2c4b3e8"},"vehicle_type_id":"4","last_reported":1752128264,"current_range_meters":22800,"station_id":"ce4bhgp2rcd13ifvqfc0","pricing_plan_id":"cebpf4jnsgd1na2vs0mg"},{"bike_id":"5fa281ea-b2b7-4806-a59d-87d02c76b268","system_id":"levelo_inurba_marseille","lat":43.25931,"lon":5.40912,"is_reserved":false,"is_disabled":false,"rental_uris":{"android":"levelo://app?vid=5fa281ea-b2b7-4806-a59d-87d02c76b268","ios":"levelo://app?vid=5fa281ea-b2b7-4806-a59d-87d02c76b268"},"vehicle_type_id":"4","last_reported":1752128264,"current_range_meters":22800,"station_id":"ce4bhm92rcd13ifvqglg","pricing_plan_id":"cebpf4jnsgd1na2vs0mg"},{"bike_id":"f69ebe25-0607-410a-bd47-49cc272e3e64","system_id":"levelo_inurba_marseille","lat":43.23174,"lon":5.3999,"is_reserved":false,"is_disabled":false,"rental_uris":{"android":"levelo://app?vid=f69ebe25-0607-410a-bd47-49cc272e3e64","ios":"levelo://app?vid=f69ebe25-0607-410a-bd47-49cc272e3e64"},"vehicle_type_id":"4","last_reported":1752128264,"current_range_meters":22800,"station_id":"ce4bhn12rcd13ifvqgqg","pricing_plan_id":"cebpf4jnsgd1na2vs0mg"},{"bike_id":"bf5d13e7-c950-4da9-bee5-c4c025829008","system_id":"levelo_inurba_marseille","lat":43.281529,"lon":5.426511,"is_reserved":false,"is_disabled":false,"rental_uris":{"android":"levelo://app?vid=bf5d13e7-c950-4da9-bee5-c4c025829008","ios":"levelo://app?vid=bf5d13e7-c950-4da9-bee5-c4c025829008"},"vehicle_type_id":"4","last_reported":1752128264,"current_range_meters":22800,"station_id":"ce4bhnh2rcd13ifvqgug","pricing_plan_id":"cebpf4jnsgd1na2vs0mg"},{"bike_id":"65c6d2d7-a7dc-45ec-9f2f-fb7430e6281d","system_id":"levelo_inurba_marseille","lat":43.32356,"lon":5.36768,"is_reserved":false,"is_disabled":false,"rental_uris":{"android":"levelo://app?vid=65c6d2d7-a7dc-45ec-9f2f-fb7430e6281d","ios":"levelo://app?vid=65c6d2d7-a7dc-45ec-9f2f-fb7430e6281d"},"vehicle_type_id":"4","last_reported":1752128264,"current_range_meters":22800,"station_id":"ce4bhsh2rcd13ifvqi2g","pricing_plan_id":"cebpf4jnsgd1na2vs0mg"},{"bike_id":"43b90c82-97e0-4fa7-8b67-2448f07d529e","system_id":"levelo_inurba_marseille","lat":43.21187,"lon":5.35074,"is_reserved":false,"is_disabled":false,"rental_uris":{"android":"levelo://app?vid=43b90c82-97e0-4fa7-8b67-2448f07d529e","ios":"levelo://app?vid=43b90c82-97e0-4fa7-8b67-2448f07d529e"},"vehicle_type_id":"4","last_reported":1752128264,"current_range_meters":22800,"station_id":"st_cvj6sg6p6f1abm77japg","pricing_plan_id":"cebpf4jnsgd1na2vs0mg"},{"bike_id":"52e02504-2616-41ea-afe1-b15a1294fb37","system_id":"levelo_inurba_marseille","lat":43.30464,"lon":5.37905,"is_reserved":false,"is_disabled":false,"rental_uris":{"android":"levelo://app?vid=52e02504-2616-41ea-afe1-b15a1294fb37","ios":"levelo://app?vid=52e02504-2616-41ea-afe1-b15a1294fb37"},"vehicle_type_id":"4","last_reported":1752128264,"current_range_meters":23200,"station_id":"ce4bgup2rcd13ifvqcn0","pricing_plan_id":"cebpf4jnsgd1na2vs0mg"},{"bike_id":"8c0cf15c-75b7-4fb7-9088-503ed43130dc","system_id":"levelo_inurba_marseille","lat":43.2963,"lon":5.40591,"is_reserved":false,"is_disabled":false,"rental_uris":{"android":"levelo://app?vid=8c0cf15c-75b7-4fb7-9088-503ed43130dc","ios":"levelo://app?vid=8c0cf15c-75b7-4fb7-9088-503ed43130dc"},"vehicle_type_id":"4","last_reported":1752128264,"current_range_meters":23200,"station_id":"ce4bh0h2rcd13ifvqd60","pricing_plan_id":"cebpf4jnsgd1na2vs0mg"},{"bike_id":"b6dcd2c1-0d76-4767-8413-3866b661d382","system_id":"levelo_inurba_marseille","lat":43.279542,"lon":5.410456,"is_reserved":false,"is_disabled":false,"rental_uris":{"android":"levelo://app?vid=b6dcd2c1-0d76-4767-8413-3866b661d382","ios":"levelo://app?vid=b6dcd2c1-0d76-4767-8413-3866b661d382"},"vehicle_type_id":"4","last_reported":1752128264,"current_range_meters":23200,"station_id":"ce4bhnp2rcd13ifvqh0g","pricing_plan_id":"cebpf4jnsgd1na2vs0mg"},{"bike_id":"ae5fdb29-e117-4746-a34e-2eb177033c64","system_id":"levelo_inurba_marseille","lat":43.280739,"lon":5.396476,"is_reserved":false,"is_disabled":false,"rental_uris":{"android":"levelo://app?vid=ae5fdb29-e117-4746-a34e-2eb177033c64","ios":"levelo://app?vid=ae5fdb29-e117-4746-a34e-2eb177033c64"},"vehicle_type_id":"4","last_reported":1752128264,"current_range_meters":23200,"station_id":"ce4bho12rcd13ifvqh2g","pricing_plan_id":"cebpf4jnsgd1na2vs0mg"},{"bike_id":"953ea83f-a4ea-4034-85d4-e09bef5b921a","system_id":"levelo_inurba_marseille","lat":43.22514,"lon":5.34765,"is_reserved":false,"is_disabled":false,"rental_uris":{"android":"levelo://app?vid=953ea83f-a4ea-4034-85d4-e09bef5b921a","ios":"levelo://app?vid=953ea83f-a4ea-4034-85d4-e09bef5b921a"},"vehicle_type_id":"4","last_reported":1752128264,"current_range_meters":23200,"station_id":"st_cvj5dfep6f1abm77gieg","pricing_plan_id":"cebpf4jnsgd1na2vs0mg"},{"bike_id":"e443194f-4c63-46bf-8fc1-8fa76b22e862","system_id":"levelo_inurba_marseille","lat":43.308035,"lon":5.381521,"is_reserved":false,"is_disabled":false,"rental_uris":{"android":"levelo://app?vid=e443194f-4c63-46bf-8fc1-8fa76b22e862","ios":"levelo://app?vid=e443194f-4c63-46bf-8fc1-8fa76b22e862"},"vehicle_type_id":"4","last_reported":1752128264,"current_range_meters":24000,"station_id":"ce4bgt12rcd13ifvqce0","pricing_plan_id":"cebpf4jnsgd1na2vs0mg"},{"bike_id":"9db2b0c3-64cc-43c7-896b-85b9c28b6a70","system_id":"levelo_inurba_marseille","lat":43.30603,"lon":5.3936,"is_reserved":false,"is_disabled":false,"rental_uris":{"android":"levelo://app?vid=9db2b0c3-64cc-43c7-896b-85b9c28b6a70","ios":"levelo://app?vid=9db2b0c3-64cc-43c7-896b-85b9c28b6a70"},"vehicle_type_id":"4","last_reported":1752128264,"current_range_meters":24000,"station_id":"ce4bh0p2rcd13ifvqd80","pricing_plan_id":"cebpf4jnsgd1na2vs0mg"},{"bike_id":"2dcd04f4-55d3-463e-a117-431be29e5728","system_id":"levelo_inurba_marseille","lat":43.29038,"lon":5.39987,"is_reserved":false,"is_disabled":false,"rental_uris":{"android":"levelo://app?vid=2dcd04f4-55d3-463e-a117-431be29e5728","ios":"levelo://app?vid=2dcd04f4-55d3-463e-a117-431be29e5728"},"vehicle_type_id":"4","last_reported":1752128264,"current_range_meters":24000,"station_id":"ce4bh392rcd13ifvqdm0","pricing_plan_id":"cebpf4jnsgd1na2vs0mg"},{"bike_id":"27269ead-0b91-439f-b881-6a71f2d43f9b","system_id":"levelo_inurba_marseille","lat":43.28002,"lon":5.40021,"is_reserved":false,"is_disabled":false,"rental_uris":{"android":"levelo://app?vid=27269ead-0b91-439f-b881-6a71f2d43f9b","ios":"levelo://app?vid=27269ead-0b91-439f-b881-6a71f2d43f9b"},"vehicle_type_id":"4","last_reported":1752128264,"current_range_meters":24000,"station_id":"ce4bho92rcd13ifvqh4g","pricing_plan_id":"cebpf4jnsgd1na2vs0mg"},{"bike_id":"e86ba8c9-208d-482c-a826-4c100938472a","system_id":"levelo_inurba_marseille","lat":43.21191,"lon":5.35071,"is_reserved":false,"is_disabled":false,"rental_uris":{"android":"levelo://app?vid=e86ba8c9-208d-482c-a826-4c100938472a","ios":"levelo://app?vid=e86ba8c9-208d-482c-a826-4c100938472a"},"vehicle_type_id":"4","last_reported":1752128264,"current_range_meters":24000,"station_id":"st_cvj6sg6p6f1abm77japg","pricing_plan_id":"cebpf4jnsgd1na2vs0mg"},{"bike_id":"9de92c47-6ff8-4854-b142-1b5022b7bbdf","system_id":"levelo_inurba_marseille","lat":43.302854,"lon":5.368827,"is_reserved":false,"is_disabled":false,"rental_uris":{"android":"levelo://app?vid=9de92c47-6ff8-4854-b142-1b5022b7bbdf","ios":"levelo://app?vid=9de92c47-6ff8-4854-b142-1b5022b7bbdf"},"vehicle_type_id":"4","last_reported":1752128264,"current_range_meters":24400,"station_id":"ce4bgrp2rcd13ifvqc9g","pricing_plan_id":"cebpf4jnsgd1na2vs0mg"},{"bike_id":"b981914c-4fa3-4d1f-a8f6-bc63b771b2d9","system_id":"levelo_inurba_marseille","lat":43.309343,"lon":5.401411,"is_reserved":false,"is_disabled":false,"rental_uris":{"android":"levelo://app?vid=b981914c-4fa3-4d1f-a8f6-bc63b771b2d9","ios":"levelo://app?vid=b981914c-4fa3-4d1f-a8f6-bc63b771b2d9"},"vehicle_type_id":"4","last_reported":1752128264,"current_range_meters":24400,"station_id":"ce4bgvp2rcd13ifvqct0","pricing_plan_id":"cebpf4jnsgd1na2vs0mg"},{"bike_id":"486d16a7-8cb5-4e3d-906f-255a4c3e7fa5","system_id":"levelo_inurba_marseille","lat":43.28937,"lon":5.39635,"is_reserved":false,"is_disabled":false,"rental_uris":{"android":"levelo://app?vid=486d16a7-8cb5-4e3d-906f-255a4c3e7fa5","ios":"levelo://app?vid=486d16a7-8cb5-4e3d-906f-255a4c3e7fa5"},"vehicle_type_id":"4","last_reported":1752128264,"current_range_meters":24400,"station_id":"ce4bh3h2rcd13ifvqdn0","pricing_plan_id":"cebpf4jnsgd1na2vs0mg"},{"bike_id":"32f110f1-416f-4cf8-888c-ae4f2a3a997d","system_id":"levelo_inurba_marseille","lat":43.26677,"lon":5.38266,"is_reserved":false,"is_disabled":false,"rental_uris":{"android":"levelo://app?vid=32f110f1-416f-4cf8-888c-ae4f2a3a997d","ios":"levelo://app?vid=32f110f1-416f-4cf8-888c-ae4f2a3a997d"},"vehicle_type_id":"4","last_reported":1752128264,"current_range_meters":24400,"station_id":"ce4bhg92rcd13ifvqf90","pricing_plan_id":"cebpf4jnsgd1na2vs0mg"},{"bike_id":"0b121722-d2ec-4ac6-bd9e-79fd1e6c5634","system_id":"levelo_inurba_marseille","lat":43.32329,"lon":5.40628,"is_reserved":false,"is_disabled":false,"rental_uris":{"android":"levelo://app?vid=0b121722-d2ec-4ac6-bd9e-79fd1e6c5634","ios":"levelo://app?vid=0b121722-d2ec-4ac6-bd9e-79fd1e6c5634"},"vehicle_type_id":"4","last_reported":1752128264,"current_range_meters":24400,"station_id":"ce4bhq92rcd13ifvqhjg","pricing_plan_id":"cebpf4jnsgd1na2vs0mg"},{"bike_id":"452e8211-4f44-45d0-814a-3e9e25b8c44e","system_id":"levelo_inurba_marseille","lat":43.21191,"lon":5.35074,"is_reserved":false,"is_disabled":false,"rental_uris":{"android":"levelo://app?vid=452e8211-4f44-45d0-814a-3e9e25b8c44e","ios":"levelo://app?vid=452e8211-4f44-45d0-814a-3e9e25b8c44e"},"vehicle_type_id":"4","last_reported":1752128264,"current_range_meters":24400,"station_id":"st_cvj6sg6p6f1abm77japg","pricing_plan_id":"cebpf4jnsgd1na2vs0mg"},{"bike_id":"7d4721c9-25bc-4931-a611-dee0bc82fa29","system_id":"levelo_inurba_marseille","lat":43.241802,"lon":5.39719,"is_reserved":false,"is_disabled":false,"rental_uris":{"android":"levelo://app?vid=7d4721c9-25bc-4931-a611-dee0bc82fa29","ios":"levelo://app?vid=7d4721c9-25bc-4931-a611-dee0bc82fa29"},"vehicle_type_id":"4","last_reported":1752128264,"current_range_meters":24800,"station_id":"ce4bhn12rcd13ifvqgpg","pricing_plan_id":"cebpf4jnsgd1na2vs0mg"},{"bike_id":"4f4fb74e-5a72-4103-8345-92cfddc55d88","system_id":"levelo_inurba_marseille","lat":43.281533,"lon":5.426365,"is_reserved":false,"is_disabled":false,"rental_uris":{"android":"levelo://app?vid=4f4fb74e-5a72-4103-8345-92cfddc55d88","ios":"levelo://app?vid=4f4fb74e-5a72-4103-8345-92cfddc55d88"},"vehicle_type_id":"4","last_reported":1752128264,"current_range_meters":24800,"station_id":"ce4bhnh2rcd13ifvqgug","pricing_plan_id":"cebpf4jnsgd1na2vs0mg"},{"bike_id":"b90641d6-3bcf-4362-92a9-91300c172f6d","system_id":"levelo_inurba_marseille","lat":43.31999,"lon":5.38145,"is_reserved":false,"is_disabled":false,"rental_uris":{"android":"levelo://app?vid=b90641d6-3bcf-4362-92a9-91300c172f6d","ios":"levelo://app?vid=b90641d6-3bcf-4362-92a9-91300c172f6d"},"vehicle_type_id":"4","last_reported":1752128264,"current_range_meters":24800,"station_id":"ce4bhr12rcd13ifvqhpg","pricing_plan_id":"cebpf4jnsgd1na2vs0mg"},{"bike_id":"c75bb91e-aa5a-49c1-b731-6d424b0690e7","system_id":"levelo_inurba_marseille","lat":43.32368,"lon":5.36766,"is_reserved":false,"is_disabled":false,"rental_uris":{"android":"levelo://app?vid=c75bb91e-aa5a-49c1-b731-6d424b0690e7","ios":"levelo://app?vid=c75bb91e-aa5a-49c1-b731-6d424b0690e7"},"vehicle_type_id":"4","last_reported":1752128264,"current_range_meters":24800,"station_id":"ce4bhsh2rcd13ifvqi2g","pricing_plan_id":"cebpf4jnsgd1na2vs0mg"},{"bike_id":"97bd3dd3-4001-4155-90bd-cd88ab8ef7c8","system_id":"levelo_inurba_marseille","lat":43.231874,"lon":5.35575,"is_reserved":false,"is_disabled":false,"rental_uris":{"android":"levelo://app?vid=97bd3dd3-4001-4155-90bd-cd88ab8ef7c8","ios":"levelo://app?vid=97bd3dd3-4001-4155-90bd-cd88ab8ef7c8"},"vehicle_type_id":"4","last_reported":1752128264,"current_range_meters":24800,"station_id":"ce4bhu92rcd13ifvqi70","pricing_plan_id":"cebpf4jnsgd1na2vs0mg"},{"bike_id":"1fd7a185-bc7f-4456-a41b-d5bca87f7e5d","system_id":"levelo_inurba_marseille","lat":43.292718,"lon":5.401391,"is_reserved":false,"is_disabled":false,"rental_uris":{"android":"levelo://app?vid=1fd7a185-bc7f-4456-a41b-d5bca87f7e5d","ios":"levelo://app?vid=1fd7a185-bc7f-4456-a41b-d5bca87f7e5d"},"vehicle_type_id":"4","last_reported":1752128264,"current_range_meters":25200,"station_id":"ce4bh312rcd13ifvqdk0","pricing_plan_id":"cebpf4jnsgd1na2vs0mg"},{"bike_id":"60ce5ef9-db59-4652-881d-632bf1881d86","system_id":"levelo_inurba_marseille","lat":43.29899,"lon":5.38883,"is_reserved":false,"is_disabled":false,"rental_uris":{"android":"levelo://app?vid=60ce5ef9-db59-4652-881d-632bf1881d86","ios":"levelo://app?vid=60ce5ef9-db59-4652-881d-632bf1881d86"},"vehicle_type_id":"4","last_reported":1752128264,"current_range_meters":25200,"station_id":"ce4bh392rcd13ifvqdl0","pricing_plan_id":"cebpf4jnsgd1na2vs0mg"},{"bike_id":"06a9e1aa-1266-4ba0-8852-ca5eceaf735f","system_id":"levelo_inurba_marseille","lat":43.28161,"lon":5.42664,"is_reserved":false,"is_disabled":false,"rental_uris":{"android":"levelo://app?vid=06a9e1aa-1266-4ba0-8852-ca5eceaf735f","ios":"levelo://app?vid=06a9e1aa-1266-4ba0-8852-ca5eceaf735f"},"vehicle_type_id":"4","last_reported":1752128264,"current_range_meters":25200,"station_id":"ce4bhnh2rcd13ifvqgug","pricing_plan_id":"cebpf4jnsgd1na2vs0mg"},{"bike_id":"da5f28cb-c3e2-42d3-a5c9-282ba30e13b5","system_id":"levelo_inurba_marseille","lat":43.28709,"lon":5.39994,"is_reserved":false,"is_disabled":false,"rental_uris":{"android":"levelo://app?vid=da5f28cb-c3e2-42d3-a5c9-282ba30e13b5","ios":"levelo://app?vid=da5f28cb-c3e2-42d3-a5c9-282ba30e13b5"},"vehicle_type_id":"4","last_reported":1752128264,"current_range_meters":25200,"station_id":"ce4bho92rcd13ifvqh3g","pricing_plan_id":"cebpf4jnsgd1na2vs0mg"},{"bike_id":"00bc0b3b-e317-4a17-a011-a3a9a29d816a","system_id":"levelo_inurba_marseille","lat":43.21207,"lon":5.35053,"is_reserved":false,"is_disabled":false,"rental_uris":{"android":"levelo://app?vid=00bc0b3b-e317-4a17-a011-a3a9a29d816a","ios":"levelo://app?vid=00bc0b3b-e317-4a17-a011-a3a9a29d816a"},"vehicle_type_id":"4","last_reported":1752128264,"current_range_meters":25200,"station_id":"st_cvj6sg6p6f1abm77japg","pricing_plan_id":"cebpf4jnsgd1na2vs0mg"},{"bike_id":"32fa4555-da38-41c3-9eae-20527dde067a","system_id":"levelo_inurba_marseille","lat":43.29618,"lon":5.37713,"is_reserved":false,"is_disabled":false,"rental_uris":{"android":"levelo://app?vid=32fa4555-da38-41c3-9eae-20527dde067a","ios":"levelo://app?vid=32fa4555-da38-41c3-9eae-20527dde067a"},"vehicle_type_id":"4","last_reported":1752128264,"current_range_meters":25600,"station_id":"ce4bgi92rcd13ifvqb90","pricing_plan_id":"cebpf4jnsgd1na2vs0mg"},{"bike_id":"9889f882-bff4-4030-a685-c78ffd76a45f","system_id":"levelo_inurba_marseille","lat":43.30909,"lon":5.36843,"is_reserved":false,"is_disabled":false,"rental_uris":{"android":"levelo://app?vid=9889f882-bff4-4030-a685-c78ffd76a45f","ios":"levelo://app?vid=9889f882-bff4-4030-a685-c78ffd76a45f"},"vehicle_type_id":"4","last_reported":1752128264,"current_range_meters":25600,"station_id":"ce4bgn92rcd13ifvqbvg","pricing_plan_id":"cebpf4jnsgd1na2vs0mg"},{"bike_id":"ba658195-0e22-4e7b-8841-a254a9f63f17","system_id":"levelo_inurba_marseille","lat":43.313266,"lon":5.396992,"is_reserved":false,"is_disabled":false,"rental_uris":{"android":"levelo://app?vid=ba658195-0e22-4e7b-8841-a254a9f63f17","ios":"levelo://app?vid=ba658195-0e22-4e7b-8841-a254a9f63f17"},"vehicle_type_id":"4","last_reported":1752128264,"current_range_meters":25600,"station_id":"ce4bgvp2rcd13ifvqcu0","pricing_plan_id":"cebpf4jnsgd1na2vs0mg"},{"bike_id":"9b3135f0-0c1b-4889-9d13-8d0b4fd3f7e1","system_id":"levelo_inurba_marseille","lat":43.25581,"lon":5.38235,"is_reserved":false,"is_disabled":false,"rental_uris":{"android":"levelo://app?vid=9b3135f0-0c1b-4889-9d13-8d0b4fd3f7e1","ios":"levelo://app?vid=9b3135f0-0c1b-4889-9d13-8d0b4fd3f7e1"},"vehicle_type_id":"4","last_reported":1752128264,"current_range_meters":25600,"station_id":"ce4bhih2rcd13ifvqfs0","pricing_plan_id":"cebpf4jnsgd1na2vs0mg"},{"bike_id":"f7f7be00-8354-4f68-b954-2e6dfbf6f04e","system_id":"levelo_inurba_marseille","lat":43.28726,"lon":5.39989,"is_reserved":false,"is_disabled":false,"rental_uris":{"android":"levelo://app?vid=f7f7be00-8354-4f68-b954-2e6dfbf6f04e","ios":"levelo://app?vid=f7f7be00-8354-4f68-b954-2e6dfbf6f04e"},"vehicle_type_id":"4","last_reported":1752128264,"current_range_meters":25600,"station_id":"ce4bho92rcd13ifvqh3g","pricing_plan_id":"cebpf4jnsgd1na2vs0mg"},{"bike_id":"5f8cd93c-f194-4975-91b5-e2403d7c1383","system_id":"levelo_inurba_marseille","lat":43.29898,"lon":5.43675,"is_reserved":false,"is_disabled":false,"rental_uris":{"android":"levelo://app?vid=5f8cd93c-f194-4975-91b5-e2403d7c1383","ios":"levelo://app?vid=5f8cd93c-f194-4975-91b5-e2403d7c1383"},"vehicle_type_id":"4","last_reported":1752128264,"current_range_meters":25600,"station_id":"ce4bhpp2rcd13ifvqhfg","pricing_plan_id":"cebpf4jnsgd1na2vs0mg"},{"bike_id":"57bd238c-4e6a-448e-a652-c90f14edd2a1","system_id":"levelo_inurba_marseille","lat":43.22871,"lon":5.34976,"is_reserved":false,"is_disabled":false,"rental_uris":{"android":"levelo://app?vid=57bd238c-4e6a-448e-a652-c90f14edd2a1","ios":"levelo://app?vid=57bd238c-4e6a-448e-a652-c90f14edd2a1"},"vehicle_type_id":"4","last_reported":1752128264,"current_range_meters":26000,"station_id":"","pricing_plan_id":"cebpf4jnsgd1na2vs0mg"},{"bike_id":"28d20f90-e962-445f-9845-2130ae471eb0","system_id":"levelo_inurba_marseille","lat":43.29225,"lon":5.36661,"is_reserved":false,"is_disabled":false,"rental_uris":{"android":"levelo://app?vid=28d20f90-e962-445f-9845-2130ae471eb0","ios":"levelo://app?vid=28d20f90-e962-445f-9845-2130ae471eb0"},"vehicle_type_id":"4","last_reported":1752128264,"current_range_meters":26000,"station_id":"","pricing_plan_id":"cebpf4jnsgd1na2vs0mg"},{"bike_id":"d799b321-3a7d-4201-b46e-ffe2ad124f19","system_id":"levelo_inurba_marseille","lat":43.328788,"lon":5.383901,"is_reserved":false,"is_disabled":false,"rental_uris":{"android":"levelo://app?vid=d799b321-3a7d-4201-b46e-ffe2ad124f19","ios":"levelo://app?vid=d799b321-3a7d-4201-b46e-ffe2ad124f19"},"vehicle_type_id":"4","last_reported":1752128264,"current_range_meters":26000,"station_id":"","pricing_plan_id":"cebpf4jnsgd1na2vs0mg"},{"bike_id":"54e396f9-9d94-4b8f-95e4-893836693cd7","system_id":"levelo_inurba_marseille","lat":43.27997,"lon":5.4165,"is_reserved":false,"is_disabled":false,"rental_uris":{"android":"levelo://app?vid=54e396f9-9d94-4b8f-95e4-893836693cd7","ios":"levelo://app?vid=54e396f9-9d94-4b8f-95e4-893836693cd7"},"vehicle_type_id":"4","last_reported":1752128264,"current_range_meters":26000,"station_id":"ce4bho12rcd13ifvqh1g","pricing_plan_id":"cebpf4jnsgd1na2vs0mg"},{"bike_id":"f1f69021-4eeb-420e-ae32-c00cf3f5971d","system_id":"levelo_inurba_marseille","lat":43.32353,"lon":5.36715,"is_reserved":false,"is_disabled":false,"rental_uris":{"android":"levelo://app?vid=f1f69021-4eeb-420e-ae32-c00cf3f5971d","ios":"levelo://app?vid=f1f69021-4eeb-420e-ae32-c00cf3f5971d"},"vehicle_type_id":"4","last_reported":1752128264,"current_range_meters":26000,"station_id":"ce4bhsh2rcd13ifvqi2g","pricing_plan_id":"cebpf4jnsgd1na2vs0mg"},{"bike_id":"1550d62c-ac23-4182-a92a-927896c39981","system_id":"levelo_inurba_marseille","lat":43.329826,"lon":5.382609,"is_reserved":false,"is_disabled":false,"rental_uris":{"android":"levelo://app?vid=1550d62c-ac23-4182-a92a-927896c39981","ios":"levelo://app?vid=1550d62c-ac23-4182-a92a-927896c39981"},"vehicle_type_id":"4","last_reported":1752128264,"current_range_meters":26800,"station_id":"","pricing_plan_id":"cebpf4jnsgd1na2vs0mg"},{"bike_id":"0f400b9c-3f89-4aef-a3da-2433a52d1fe5","system_id":"levelo_inurba_marseille","lat":43.29866,"lon":5.39734,"is_reserved":false,"is_disabled":false,"rental_uris":{"android":"levelo://app?vid=0f400b9c-3f89-4aef-a3da-2433a52d1fe5","ios":"levelo://app?vid=0f400b9c-3f89-4aef-a3da-2433a52d1fe5"},"vehicle_type_id":"4","last_reported":1752128264,"current_range_meters":26800,"station_id":"ce4bh0h2rcd13ifvqd50","pricing_plan_id":"cebpf4jnsgd1na2vs0mg"},{"bike_id":"d2240d86-2b48-4a39-a26b-14e33587f871","system_id":"levelo_inurba_marseille","lat":43.292807,"lon":5.40126,"is_reserved":false,"is_disabled":false,"rental_uris":{"android":"levelo://app?vid=d2240d86-2b48-4a39-a26b-14e33587f871","ios":"levelo://app?vid=d2240d86-2b48-4a39-a26b-14e33587f871"},"vehicle_type_id":"4","last_reported":1752128264,"current_range_meters":26800,"station_id":"ce4bh312rcd13ifvqdk0","pricing_plan_id":"cebpf4jnsgd1na2vs0mg"},{"bike_id":"d9474e42-5f9e-49c4-92b0-5e166fa367c4","system_id":"levelo_inurba_marseille","lat":43.248109,"lon":5.37457,"is_reserved":false,"is_disabled":false,"rental_uris":{"android":"levelo://app?vid=d9474e42-5f9e-49c4-92b0-5e166fa367c4","ios":"levelo://app?vid=d9474e42-5f9e-49c4-92b0-5e166fa367c4"},"vehicle_type_id":"4","last_reported":1752128264,"current_range_meters":26800,"station_id":"ce4bhgh2rcd13ifvqfb0","pricing_plan_id":"cebpf4jnsgd1na2vs0mg"},{"bike_id":"a4fef063-3a59-42f2-88a0-ffcc4a5c5d9f","system_id":"levelo_inurba_marseille","lat":43.26194,"lon":5.37452,"is_reserved":false,"is_disabled":false,"rental_uris":{"android":"levelo://app?vid=a4fef063-3a59-42f2-88a0-ffcc4a5c5d9f","ios":"levelo://app?vid=a4fef063-3a59-42f2-88a0-ffcc4a5c5d9f"},"vehicle_type_id":"4","last_reported":1752128264,"current_range_meters":26800,"station_id":"ce4bhgp2rcd13ifvqfc0","pricing_plan_id":"cebpf4jnsgd1na2vs0mg"},{"bike_id":"f99f1448-4655-409a-b4da-ce199dc65225","system_id":"levelo_inurba_marseille","lat":43.231913,"lon":5.355609,"is_reserved":false,"is_disabled":false,"rental_uris":{"android":"levelo://app?vid=f99f1448-4655-409a-b4da-ce199dc65225","ios":"levelo://app?vid=f99f1448-4655-409a-b4da-ce199dc65225"},"vehicle_type_id":"4","last_reported":1752128264,"current_range_meters":26800,"station_id":"ce4bhu92rcd13ifvqi70","pricing_plan_id":"cebpf4jnsgd1na2vs0mg"},{"bike_id":"51890362-46b0-4ee7-9f02-afbf036d064e","system_id":"levelo_inurba_marseille","lat":43.21191,"lon":5.350765,"is_reserved":false,"is_disabled":false,"rental_uris":{"android":"levelo://app?vid=51890362-46b0-4ee7-9f02-afbf036d064e","ios":"levelo://app?vid=51890362-46b0-4ee7-9f02-afbf036d064e"},"vehicle_type_id":"4","last_reported":1752128264,"current_range_meters":26800,"station_id":"st_cvj6sg6p6f1abm77japg","pricing_plan_id":"cebpf4jnsgd1na2vs0mg"},{"bike_id":"85d2aee3-4fe4-4c9f-9f31-cc4fe835c04e","system_id":"levelo_inurba_marseille","lat":43.21187,"lon":5.35065,"is_reserved":false,"is_disabled":false,"rental_uris":{"android":"levelo://app?vid=85d2aee3-4fe4-4c9f-9f31-cc4fe835c04e","ios":"levelo://app?vid=85d2aee3-4fe4-4c9f-9f31-cc4fe835c04e"},"vehicle_type_id":"4","last_reported":1752128264,"current_range_meters":26800,"station_id":"st_cvj6sg6p6f1abm77japg","pricing_plan_id":"cebpf4jnsgd1na2vs0mg"},{"bike_id":"716e5121-8539-46f7-b6be-b7d6420a3a39","system_id":"levelo_inurba_marseille","lat":43.29608,"lon":5.37701,"is_reserved":false,"is_disabled":false,"rental_uris":{"android":"levelo://app?vid=716e5121-8539-46f7-b6be-b7d6420a3a39","ios":"levelo://app?vid=716e5121-8539-46f7-b6be-b7d6420a3a39"},"vehicle_type_id":"4","last_reported":1752128264,"current_range_meters":27200,"station_id":"ce4bgi92rcd13ifvqb90","pricing_plan_id":"cebpf4jnsgd1na2vs0mg"},{"bike_id":"af02f5bf-a845-4035-84cc-a4ffbba66baa","system_id":"levelo_inurba_marseille","lat":43.313745,"lon":5.384973,"is_reserved":false,"is_disabled":false,"rental_uris":{"android":"levelo://app?vid=af02f5bf-a845-4035-84cc-a4ffbba66baa","ios":"levelo://app?vid=af02f5bf-a845-4035-84cc-a4ffbba66baa"},"vehicle_type_id":"4","last_reported":1752128264,"current_range_meters":27200,"station_id":"ce4bgt92rcd13ifvqcf0","pricing_plan_id":"cebpf4jnsgd1na2vs0mg"},{"bike_id":"ee7f988f-35e6-432a-9a38-176d4fd1d571","system_id":"levelo_inurba_marseille","lat":43.30788,"lon":5.37631,"is_reserved":false,"is_disabled":false,"rental_uris":{"android":"levelo://app?vid=ee7f988f-35e6-432a-9a38-176d4fd1d571","ios":"levelo://app?vid=ee7f988f-35e6-432a-9a38-176d4fd1d571"},"vehicle_type_id":"4","last_reported":1752128264,"current_range_meters":27200,"station_id":"ce4bgv92rcd13ifvqcq0","pricing_plan_id":"cebpf4jnsgd1na2vs0mg"},{"bike_id":"f32ee385-b586-4841-a329-1d6e1d377b1c","system_id":"levelo_inurba_marseille","lat":43.25816,"lon":5.39433,"is_reserved":false,"is_disabled":false,"rental_uris":{"android":"levelo://app?vid=f32ee385-b586-4841-a329-1d6e1d377b1c","ios":"levelo://app?vid=f32ee385-b586-4841-a329-1d6e1d377b1c"},"vehicle_type_id":"4","last_reported":1752128264,"current_range_meters":27200,"station_id":"ce4bhip2rcd13ifvqft0","pricing_plan_id":"cebpf4jnsgd1na2vs0mg"},{"bike_id":"402465c4-a451-4dd6-b88e-e311387a37c0","system_id":"levelo_inurba_marseille","lat":43.25935,"lon":5.40912,"is_reserved":false,"is_disabled":false,"rental_uris":{"android":"levelo://app?vid=402465c4-a451-4dd6-b88e-e311387a37c0","ios":"levelo://app?vid=402465c4-a451-4dd6-b88e-e311387a37c0"},"vehicle_type_id":"4","last_reported":1752128264,"current_range_meters":27200,"station_id":"ce4bhm92rcd13ifvqglg","pricing_plan_id":"cebpf4jnsgd1na2vs0mg"},{"bike_id":"dc104332-ae84-48ec-b329-83ef3eb380bb","system_id":"levelo_inurba_marseille","lat":43.240689,"lon":5.377578,"is_reserved":false,"is_disabled":false,"rental_uris":{"android":"levelo://app?vid=dc104332-ae84-48ec-b329-83ef3eb380bb","ios":"levelo://app?vid=dc104332-ae84-48ec-b329-83ef3eb380bb"},"vehicle_type_id":"4","last_reported":1752128264,"current_range_meters":27200,"station_id":"ce4bhnp2rcd13ifvqgvg","pricing_plan_id":"cebpf4jnsgd1na2vs0mg"},{"bike_id":"d284f3a1-b0a8-4bd8-96e0-60964be9ffd7","system_id":"levelo_inurba_marseille","lat":43.321128,"lon":5.367753,"is_reserved":false,"is_disabled":false,"rental_uris":{"android":"levelo://app?vid=d284f3a1-b0a8-4bd8-96e0-60964be9ffd7","ios":"levelo://app?vid=d284f3a1-b0a8-4bd8-96e0-60964be9ffd7"},"vehicle_type_id":"4","last_reported":1752128264,"current_range_meters":27200,"station_id":"ce4bhrh2rcd13ifvqhug","pricing_plan_id":"cebpf4jnsgd1na2vs0mg"},{"bike_id":"4b8da722-ee9e-48a4-a5e5-3a8a10364708","system_id":"levelo_inurba_marseille","lat":43.312325,"lon":5.378201,"is_reserved":false,"is_disabled":false,"rental_uris":{"android":"levelo://app?vid=4b8da722-ee9e-48a4-a5e5-3a8a10364708","ios":"levelo://app?vid=4b8da722-ee9e-48a4-a5e5-3a8a10364708"},"vehicle_type_id":"4","last_reported":1752128264,"current_range_meters":27600,"station_id":"","pricing_plan_id":"cebpf4jnsgd1na2vs0mg"},{"bike_id":"07c73a4b-2020-406b-9566-d8ccf6a4b042","system_id":"levelo_inurba_marseille","lat":43.30316,"lon":5.36893,"is_reserved":false,"is_disabled":false,"rental_uris":{"android":"levelo://app?vid=07c73a4b-2020-406b-9566-d8ccf6a4b042","ios":"levelo://app?vid=07c73a4b-2020-406b-9566-d8ccf6a4b042"},"vehicle_type_id":"4","last_reported":1752128264,"current_range_meters":27600,"station_id":"ce4bgqh2rcd13ifvqc5g","pricing_plan_id":"cebpf4jnsgd1na2vs0mg"},{"bike_id":"5c572392-43af-4e55-8850-0722c848ce7d","system_id":"levelo_inurba_marseille","lat":43.31126,"lon":5.37771,"is_reserved":false,"is_disabled":false,"rental_uris":{"android":"levelo://app?vid=5c572392-43af-4e55-8850-0722c848ce7d","ios":"levelo://app?vid=5c572392-43af-4e55-8850-0722c848ce7d"},"vehicle_type_id":"4","last_reported":1752128264,"current_range_meters":27600,"station_id":"ce4bgt92rcd13ifvqcg0","pricing_plan_id":"cebpf4jnsgd1na2vs0mg"},{"bike_id":"41a989cf-1f7c-4c5d-b262-cb654f2c7fc4","system_id":"levelo_inurba_marseille","lat":43.2561,"lon":5.38261,"is_reserved":false,"is_disabled":false,"rental_uris":{"android":"levelo://app?vid=41a989cf-1f7c-4c5d-b262-cb654f2c7fc4","ios":"levelo://app?vid=41a989cf-1f7c-4c5d-b262-cb654f2c7fc4"},"vehicle_type_id":"4","last_reported":1752128264,"current_range_meters":27600,"station_id":"ce4bhih2rcd13ifvqfs0","pricing_plan_id":"cebpf4jnsgd1na2vs0mg"},{"bike_id":"2ab8a30f-1a94-4753-90ae-db0f715534db","system_id":"levelo_inurba_marseille","lat":43.27829,"lon":5.39206,"is_reserved":false,"is_disabled":false,"rental_uris":{"android":"levelo://app?vid=2ab8a30f-1a94-4753-90ae-db0f715534db","ios":"levelo://app?vid=2ab8a30f-1a94-4753-90ae-db0f715534db"},"vehicle_type_id":"4","last_reported":1752128264,"current_range_meters":27600,"station_id":"ce4bhjp2rcd13ifvqga0","pricing_plan_id":"cebpf4jnsgd1na2vs0mg"},{"bike_id":"6fee2caf-514b-4334-ad4d-020fbddee7cd","system_id":"levelo_inurba_marseille","lat":43.28073,"lon":5.39644,"is_reserved":false,"is_disabled":false,"rental_uris":{"android":"levelo://app?vid=6fee2caf-514b-4334-ad4d-020fbddee7cd","ios":"levelo://app?vid=6fee2caf-514b-4334-ad4d-020fbddee7cd"},"vehicle_type_id":"4","last_reported":1752128264,"current_range_meters":27600,"station_id":"ce4bho12rcd13ifvqh2g","pricing_plan_id":"cebpf4jnsgd1na2vs0mg"},{"bike_id":"4b0fe4a5-b2cd-434d-afbd-ad68a7ed7b2b","system_id":"levelo_inurba_marseille","lat":43.27995,"lon":5.40007,"is_reserved":false,"is_disabled":false,"rental_uris":{"android":"levelo://app?vid=4b0fe4a5-b2cd-434d-afbd-ad68a7ed7b2b","ios":"levelo://app?vid=4b0fe4a5-b2cd-434d-afbd-ad68a7ed7b2b"},