{"last_updated":1704200936,"ttl":30,"version":"2.2","data":{"bikes":[{"bike_id":"4ca3c03b-77c4-4cab-a5ac-9bdadef7281d","system_id":"levelo_inurba_marseille","lat":43.31341,"lon":5.367098,"is_reserved":false,"is_disabled":false,"rental_uris":{"android":"levelo://app?vid=4ca3c03b-77c4-4cab-a5ac-9bdadef7281d","ios":"levelo://app?vid=4ca3c03b-77c4-4cab-a5ac-9bdadef7281d"},"vehicle_type_id":"4","last_reported":1704200937,"current_range_meters":13200,"station_id":"ce4bgr92rcd13ifvqc6g","pricing_plan_id":"free"},{"bike_id":"0f9aea24-df7b-452e-9ec9-508a486be078","system_id":"levelo_inurba_marseille","lat":43.313391,"lon":5.36706,"is_reserved":false,"is_disabled":false,"rental_uris":{"android":"levelo://app?vid=0f9aea24-df7b-452e-9ec9-508a486be078","ios":"levelo://app?vid=0f9aea24-df7b-452e-9ec9-508a486be078"},"vehicle_type_id":"4","last_reported":1704200937,"current_range_meters":31600,"station_id":"ce4bgr92rcd13ifvqc6g","pricing_plan_id":"free"},{"bike_id":"94815bb6-a315-4397-9caa-22f1e5bd1b4d","system_id":"levelo_inurba_marseille","lat":43.31341,"lon":5.367098,"is_reserved":false,"is_disabled":false,"rental_uris":{"android":"levelo://app?vid=94815bb6-a315-4397-9caa-22f1e5bd1b4d","ios":"levelo://app?vid=94815bb6-a315-4397-9caa-22f1e5bd1b4d"},"vehicle_type_id":"4","last_reported":1704200937,"current_range_meters":25600,"station_id":"ce4bgr92rcd13ifvqc6g","pricing_plan_id":"free"},{"bike_id":"3544ae93-e3f3-4447-9813-9dd1706656b8","system_id":"levelo_inurba_marseille","lat":43.31341,"lon":5.367098,"is_reserved":false,"is_disabled":false,"rental_uris":{"android":"levelo://app?vid=3544ae93-e3f3-4447-9813-9dd1706656b8","ios":"levelo://app?vid=3544ae93-e3f3-4447-9813-9dd1706656b8"},"vehicle_type_id":"4","last_reported":1704200937,"current_range_meters":28800,"station_id":"ce4bgr92rcd13ifvqc6g","pricing_plan_id":"free"},{"bike_id":"c1bb20c0-6380-4f3c-aed9-cff20efe3a85","system_id":"levelo_inurba_marseille","lat":43.313391,"lon":5.36706,"is_reserved":false,"is_disabled":false,"rental_uris":{"android":"levelo://app?vid=c1bb20c0-6380-4f3c-aed9-cff20efe3a85","ios":"levelo://app?vid=c1bb20c0-6380-4f3c-aed9-cff20efe3a85"},"vehicle_type_id":"4","last_reported":1704200937,"current_range_meters":27600,"station_id":"ce4bgr92rcd13ifvqc6g","pricing_plan_id":"free"},{"bike_id":"50ffb39d-c405-4192-ba10-8fe04060eef3","system_id":"levelo_inurba_marseille","lat":43.31341,"lon":5.367098,"is_reserved":false,"is_disabled":false,"rental_uris":{"android":"levelo://app?vid=50ffb39d-c405-4192-ba10-8fe04060eef3","ios":"levelo://app?vid=50ffb39d-c405-4192-ba10-8fe04060eef3"},"vehicle_type_id":"4","last_reported":1704200937,"current_range_meters":31600,"station_id":"ce4bgr92rcd13ifvqc6g","pricing_plan_id":"free"},{"bike_id":"0dc384e4-a88f-418f-9795-1db416319923","system_id":"levelo_inurba_marseille","lat":43.313391,"lon":5.36706,"is_reserved":false,"is_disabled":false,"rental_uris":{"android":"levelo://app?vid=0dc384e4-a88f-418f-9795-1db416319923","ios":"levelo://app?vid=0dc384e4-a88f-418f-9795-1db416319923"},"vehicle_type_id":"4","last_reported":1704200937,"current_range_meters":24000,"station_id":"ce4bgr92rcd13ifvqc6g","pricing_plan_id":"free"},{"bike_id":"b1f4b770-d8cd-4b5d-8d62-196df1c33ce5","system_id":"levelo_inurba_marseille","lat":43.312183,"lon":5.368543,"is_reserved":false,"is_disabled":false,"rental_uris":{"android":"levelo://app?vid=b1f4b770-d8cd-4b5d-8d62-196df1c33ce5","ios":"levelo://app?vid=b1f4b770-d8cd-4b5d-8d62-196df1c33ce5"},"vehicle_type_id":"4","last_reported":1704200937,"current_range_meters":25200,"station_id":"ce4bgl92rcd13ifvqbq0","pricing_plan_id":"free"},{"bike_id":"ab65979a-b67f-4fcc-9ce8-e9b5f3c8c97e","system_id":"levelo_inurba_marseille","lat":43.312239,"lon":5.368562,"is_reserved":false,"is_disabled":false,"rental_uris":{"android":"levelo://app?vid=ab65979a-b67f-4fcc-9ce8-e9b5f3c8c97e","ios":"levelo://app?vid=ab65979a-b67f-4fcc-9ce8-e9b5f3c8c97e"},"vehicle_type_id":"4","last_reported":1704200937,"current_range_meters":31600,"station_id":"ce4bgl92rcd13ifvqbq0","pricing_plan_id":"free"},{"bike_id":"d84b4337-d35d-4290-a812-d91d2101cf7e","system_id":"levelo_inurba_marseille","lat":43.312234,"lon":5.368585,"is_reserved":false,"is_disabled":false,"rental_uris":{"android":"levelo://app?vid=d84b4337-d35d-4290-a812-d91d2101cf7e","ios":"levelo://app?vid=d84b4337-d35d-4290-a812-d91d2101cf7e"},"vehicle_type_id":"4","last_reported":1704200937,"current_range_meters":23600,"station_id":"ce4bgl92rcd13ifvqbq0","pricing_plan_id":"free"},{"bike_id":"6e8160c9-a3e9-405d-970b-f9a8ed2693f1","system_id":"levelo_inurba_marseille","lat":43.31219,"lon":5.368587,"is_reserved":false,"is_disabled":false,"rental_uris":{"android":"levelo://app?vid=6e8160c9-a3e9-405d-970b-f9a8ed2693f1","ios":"levelo://app?vid=6e8160c9-a3e9-405d-970b-f9a8ed2693f1"},"vehicle_type_id":"4","last_reported":1704200937,"current_range_meters":19200,"station_id":"","pricing_plan_id":"free"},{"bike_id":"f8515c16-45ec-43ac-86e4-c20f8afafe4d","system_id":"levelo_inurba_marseille","lat":43.312239,"lon":5.368562,"is_reserved":false,"is_disabled":false,"rental_uris":{"android":"levelo://app?vid=f8515c16-45ec-43ac-86e4-c20f8afafe4d","ios":"levelo://app?vid=f8515c16-45ec-43ac-86e4-c20f8afafe4d"},"vehicle_type_id":"4","last_reported":1704200937,"current_range_meters":31200,"station_id":"ce4bgl92rcd13ifvqbq0","pricing_plan_id":"free"},{"bike_id":"16e2b7ca-bbc9-4f1f-8d8e-64f8e49944d9","system_id":"levelo_inurba_marseille","lat":43.312322,"lon":5.368718,"is_reserved":false,"is_disabled":false,"rental_uris":{"android":"levelo://app?vid=16e2b7ca-bbc9-4f1f-8d8e-64f8e49944d9","ios":"levelo://app?vid=16e2b7ca-bbc9-4f1f-8d8e-64f8e49944d9"},"vehicle_type_id":"4","last_reported":1704200937,"current_range_meters":30800,"station_id":"ce4bgl92rcd13ifvqbq0","pricing_plan_id":"free"},{"bike_id":"35565607-172d-4dea-a0a2-86b98321545b","system_id":"levelo_inurba_marseille","lat":43.312239,"lon":5.368562,"is_reserved":false,"is_disabled":false,"rental_uris":{"android":"levelo://app?vid=35565607-172d-4dea-a0a2-86b98321545b","ios":"levelo://app?vid=35565607-172d-4dea-a0a2-86b98321545b"},"vehicle_type_id":"4","last_reported":1704200937,"current_range_meters":18800,"station_id":"ce4bgl92rcd13ifvqbq0","pricing_plan_id":"free"},{"bike_id":"7bb13189-31b2-458e-b5c9-0f7a72ea84b1","system_id":"levelo_inurba_marseille","lat":43.31216,"lon":5.36866,"is_reserved":false,"is_disabled":false,"rental_uris":{"android":"levelo://app?vid=7bb13189-31b2-458e-b5c9-0f7a72ea84b1","ios":"levelo://app?vid=7bb13189-31b2-458e-b5c9-0f7a72ea84b1"},"vehicle_type_id":"4","last_reported":1704200937,"current_range_meters":0,"station_id":"ce4bgl92rcd13ifvqbq0","pricing_plan_id":"free"},{"bike_id":"e4ded75e-0c76-422e-a6d9-7bf57e0b6643","system_id":"levelo_inurba_marseille","lat":43.309076,"lon":5.368465,"is_reserved":false,"is_disabled":false,"rental_uris":{"android":"levelo://app?vid=e4ded75e-0c76-422e-a6d9-7bf57e0b6643","ios":"levelo://app?vid=e4ded75e-0c76-422e-a6d9-7bf57e0b6643"},"vehicle_type_id":"4","last_reported":1704200937,"current_range_meters":31600,"station_id":"ce4bgn92rcd13ifvqbvg","pricing_plan_id":"free"},{"bike_id":"1e91ba6c-8283-47ea-b797-a2e7408bd0aa","system_id":"levelo_inurba_marseille","lat":43.309076,"lon":5.368465,"is_reserved":false,"is_disabled":false,"rental_uris":{"android":"levelo://app?vid=1e91ba6c-8283-47ea-b797-a2e7408bd0aa","ios":"levelo://app?vid=1e91ba6c-8283-47ea-b797-a2e7408bd0aa"},"vehicle_type_id":"4","last_reported":1704200937,"current_range_meters":30400,"station_id":"ce4bgn92rcd13ifvqbvg","pricing_plan_id":"free"},{"bike_id":"8267dbea-2a54-4384-b91d-21cbc74b0c21","system_id":"levelo_inurba_marseille","lat":43.309076,"lon":5.368465,"is_reserved":false,"is_disabled":false,"rental_uris":{"android":"levelo://app?vid=8267dbea-2a54-4384-b91d-21cbc74b0c21","ios":"levelo://app?vid=8267dbea-2a54-4384-b91d-21cbc74b0c21"},"vehicle_type_id":"4","last_reported":1704200937,"current_range_meters":24400,"station_id":"ce4bgn92rcd13ifvqbvg","pricing_plan_id":"free"},{"bike_id":"5f0185d2-072e-4299-b6f6-526b4b3402ba","system_id":"levelo_inurba_marseille","lat":43.314811,"lon":5.373104,"is_reserved":false,"is_disabled":false,"rental_uris":{"android":"levelo://app?vid=5f0185d2-072e-4299-b6f6-526b4b3402ba","ios":"levelo://app?vid=5f0185d2-072e-4299-b6f6-526b4b3402ba"},"vehicle_type_id":"4","last_reported":1704200937,"current_range_meters":18800,"station_id":"ce4bgt12rcd13ifvqcd0","pricing_plan_id":"free"},{"bike_id":"7382b5da-0d10-40ed-aa01-bea75a98967a","system_id":"levelo_inurba_marseille","lat":43.309039,"lon":5.371797,"is_reserved":false,"is_disabled":false,"rental_uris":{"android":"levelo://app?vid=7382b5da-0d10-40ed-aa01-bea75a98967a","ios":"levelo://app?vid=7382b5da-0d10-40ed-aa01-bea75a98967a"},"vehicle_type_id":"4","last_reported":1704200937,"current_range_meters":25200,"station_id":"ce4bguh2rcd13ifvqckg","pricing_plan_id":"free"},{"bike_id":"a85a4255-7cf3-4bde-b9c2-230209a8a076","system_id":"levelo_inurba_marseille","lat":43.305712,"lon":5.365641,"is_reserved":false,"is_disabled":false,"rental_uris":{"android":"levelo://app?vid=a85a4255-7cf3-4bde-b9c2-230209a8a076","ios":"levelo://app?vid=a85a4255-7cf3-4bde-b9c2-230209a8a076"},"vehicle_type_id":"4","last_reported":1704200937,"current_range_meters":28000,"station_id":"ce4bgs12rcd13ifvqcag","pricing_plan_id":"free"},{"bike_id":"20f93e89-7c4d-46b2-af46-4535a00e7221","system_id":"levelo_inurba_marseille","lat":43.305714,"lon":5.365633,"is_reserved":false,"is_disabled":false,"rental_uris":{"android":"levelo://app?vid=20f93e89-7c4d-46b2-af46-4535a00e7221","ios":"levelo://app?vid=20f93e89-7c4d-46b2-af46-4535a00e7221"},"vehicle_type_id":"4","last_reported":1704200937,"current_range_meters":18000,"station_id":"ce4bgs12rcd13ifvqcag","pricing_plan_id":"free"},{"bike_id":"25382dfb-df7f-4309-a44b-9d96cec9518e","system_id":"levelo_inurba_marseille","lat":43.305706,"lon":5.365654,"is_reserved":false,"is_disabled":false,"rental_uris":{"android":"levelo://app?vid=25382dfb-df7f-4309-a44b-9d96cec9518e","ios":"levelo://app?vid=25382dfb-df7f-4309-a44b-9d96cec9518e"},"vehicle_type_id":"4","last_reported":1704200937,"current_range_meters":20000,"station_id":"ce4bgs12rcd13ifvqcag","pricing_plan_id":"free"},{"bike_id":"1981d35a-1a63-49a0-93e7-3ab3c0d92059","system_id":"levelo_inurba_marseille","lat":43.305368,"lon":5.367343,"is_reserved":false,"is_disabled":false,"rental_uris":{"android":"levelo://app?vid=1981d35a-1a63-49a0-93e7-3ab3c0d92059","ios":"levelo://app?vid=1981d35a-1a63-49a0-93e7-3ab3c0d92059"},"vehicle_type_id":"4","last_reported":1704200937,"current_range_meters":22000,"station_id":"ce4bgrp2rcd13ifvqc9g","pricing_plan_id":"free"},{"bike_id":"01a815ad-bef9-4183-b398-27314af7a673","system_id":"levelo_inurba_marseille","lat":43.305368,"lon":5.367343,"is_reserved":false,"is_disabled":false,"rental_uris":{"android":"levelo://app?vid=01a815ad-bef9-4183-b398-27314af7a673","ios":"levelo://app?vid=01a815ad-bef9-4183-b398-27314af7a673"},"vehicle_type_id":"4","last_reported":1704200937,"current_range_meters":27200,"station_id":"ce4bgrp2rcd13ifvqc9g","pricing_plan_id":"free"},{"bike_id":"3c5a92c3-b386-4848-8742-31104a43e9de","system_id":"levelo_inurba_marseille","lat":43.305368,"lon":5.367343,"is_reserved":false,"is_disabled":false,"rental_uris":{"android":"levelo://app?vid=3c5a92c3-b386-4848-8742-31104a43e9de","ios":"levelo://app?vid=3c5a92c3-b386-4848-8742-31104a43e9de"},"vehicle_type_id":"4","last_reported":1704200937,"current_range_meters":16000,"station_id":"ce4bgrp2rcd13ifvqc9g","pricing_plan_id":"free"},{"bike_id":"9365ead4-2654-4c17-9775-a29b9e22e4a0","system_id":"levelo_inurba_marseille","lat":43.305368,"lon":5.367343,"is_reserved":false,"is_disabled":false,"rental_uris":{"android":"levelo://app?vid=9365ead4-2654-4c17-9775-a29b9e22e4a0","ios":"levelo://app?vid=9365ead4-2654-4c17-9775-a29b9e22e4a0"},"vehicle_type_id":"4","last_reported":1704200937,"current_range_meters":26800,"station_id":"ce4bgrp2rcd13ifvqc9g","pricing_plan_id":"free"},{"bike_id":"66606ac8-e12d-4a05-b5a5-b1f3b85138d5","system_id":"levelo_inurba_marseille","lat":43.305706,"lon":5.365654,"is_reserved":false,"is_disabled":false,"rental_uris":{"android":"levelo://app?vid=66606ac8-e12d-4a05-b5a5-b1f3b85138d5","ios":"levelo://app?vid=66606ac8-e12d-4a05-b5a5-b1f3b85138d5"},"vehicle_type_id":"4","last_reported":1704200937,"current_range_meters":30000,"station_id":"ce4bgs12rcd13ifvqcag","pricing_plan_id":"free"},{"bike_id":"ac25c690-f8be-438c-a426-5ca9bd06b85e","system_id":"levelo_inurba_marseille","lat":43.305706,"lon":5.365654,"is_reserved":false,"is_disabled":false,"rental_uris":{"android":"levelo://app?vid=ac25c690-f8be-438c-a426-5ca9bd06b85e","ios":"levelo://app?vid=ac25c690-f8be-438c-a426-5ca9bd06b85e"},"vehicle_type_id":"4","last_reported":1704200937,"current_range_meters":30400,"station_id":"ce4bgs12rcd13ifvqcag","pricing_plan_id":"free"},{"bike_id":"b30c0912-cae2-483b-a693-19578ecaab16","system_id":"levelo_inurba_marseille","lat":43.305706,"lon":5.365654,"is_reserved":false,"is_disabled":false,"rental_uris":{"android":"levelo://app?vid=b30c0912-cae2-483b-a693-19578ecaab16","ios":"levelo://app?vid=b30c0912-cae2-483b-a693-19578ecaab16"},"vehicle_type_id":"4","last_reported":1704200937,"current_range_meters":1600,"station_id":"ce4bgs12rcd13ifvqcag","pricing_plan_id":"free"},{"bike_id":"edd189bd-e63f-4880-b785-c1463635efa6","system_id":"levelo_inurba_marseille","lat":43.305706,"lon":5.365654,"is_reserved":false,"is_disabled":false,"rental_uris":{"android":"levelo://app?vid=edd189bd-e63f-4880-b785-c1463635efa6","ios":"levelo://app?vid=edd189bd-e63f-4880-b785-c1463635efa6"},"vehicle_type_id":"4","last_reported":1704200937,"current_range_meters":25600,"station_id":"ce4bgs12rcd13ifvqcag","pricing_plan_id":"free"},{"bike_id":"de8d4f07-f88a-4365-97c3-5c2dc652ca27","system_id":"levelo_inurba_marseille","lat":43.305989,"lon":5.37225,"is_reserved":false,"is_disabled":false,"rental_uris":{"android":"levelo://app?vid=de8d4f07-f88a-4365-97c3-5c2dc652ca27","ios":"levelo://app?vid=de8d4f07-f88a-4365-97c3-5c2dc652ca27"},"vehicle_type_id":"4","last_reported":1704200937,"current_range_meters":30800,"station_id":"ce4bgqh2rcd13ifvqc4g","pricing_plan_id":"free"},{"bike_id":"25af9e1c-886c-4f64-92f2-5ca68e46ae4a","system_id":"levelo_inurba_marseille","lat":43.31722,"lon":5.37668,"is_reserved":false,"is_disabled":false,"rental_uris":{"android":"levelo://app?vid=25af9e1c-886c-4f64-92f2-5ca68e46ae4a","ios":"levelo://app?vid=25af9e1c-886c-4f64-92f2-5ca68e46ae4a"},"vehicle_type_id":"4","last_reported":1704200937,"current_range_meters":14400,"station_id":"","pricing_plan_id":"free"},{"bike_id":"4c370830-1655-41b2-b8b5-245284bde269","system_id":"levelo_inurba_marseille","lat":43.317075,"lon":5.377367,"is_reserved":false,"is_disabled":false,"rental_uris":{"android":"levelo://app?vid=4c370830-1655-41b2-b8b5-245284bde269","ios":"levelo://app?vid=4c370830-1655-41b2-b8b5-245284bde269"},"vehicle_type_id":"4","last_reported":1704200937,"current_range_meters":23200,"station_id":"ce4bgth2rcd13ifvqch0","pricing_plan_id":"free"},{"bike_id":"bf85eacb-23b3-4436-9c74-f4f89145ee30","system_id":"levelo_inurba_marseille","lat":43.317075,"lon":5.377367,"is_reserved":false,"is_disabled":false,"rental_uris":{"android":"levelo://app?vid=bf85eacb-23b3-4436-9c74-f4f89145ee30","ios":"levelo://app?vid=bf85eacb-23b3-4436-9c74-f4f89145ee30"},"vehicle_type_id":"4","last_reported":1704200937,"current_range_meters":30000,"station_id":"ce4bgth2rcd13ifvqch0","pricing_plan_id":"free"},{"bike_id":"a88e213a-173a-4a15-9f5b-a6e10fa7264f","system_id":"levelo_inurba_marseille","lat":43.317075,"lon":5.377367,"is_reserved":false,"is_disabled":false,"rental_uris":{"android":"levelo://app?vid=a88e213a-173a-4a15-9f5b-a6e10fa7264f","ios":"levelo://app?vid=a88e213a-173a-4a15-9f5b-a6e10fa7264f"},"vehicle_type_id":"4","last_reported":1704200937,"current_range_meters":28400,"station_id":"ce4bgth2rcd13ifvqch0","pricing_plan_id":"free"},{"bike_id":"5fca0688-1ddb-4f9e-9a29-b57325fa9134","system_id":"levelo_inurba_marseille","lat":43.30186,"lon":5.36612,"is_reserved":false,"is_disabled":false,"rental_uris":{"android":"levelo://app?vid=5fca0688-1ddb-4f9e-9a29-b57325fa9134","ios":"levelo://app?vid=5fca0688-1ddb-4f9e-9a29-b57325fa9134"},"vehicle_type_id":"4","last_reported":1704200937,"current_range_meters":22800,"station_id":"ce4bgrh2rcd13ifvqc8g","pricing_plan_id":"free"},{"bike_id":"5377074b-30e2-4d67-825b-9deb3b1dbed3","system_id":"levelo_inurba_marseille","lat":43.304708,"lon":5.379039,"is_reserved":false,"is_disabled":false,"rental_uris":{"android":"levelo://app?vid=5377074b-30e2-4d67-825b-9deb3b1dbed3","ios":"levelo://app?vid=5377074b-30e2-4d67-825b-9deb3b1dbed3"},"vehicle_type_id":"4","last_reported":1704200937,"current_range_meters":10800,"station_id":"","pricing_plan_id":"free"},{"bike_id":"e8ed4a3b-4438-4018-b3d3-c3d64a945ab6","system_id":"levelo_inurba_marseille","lat":43.304606,"lon":5.379026,"is_reserved":false,"is_disabled":false,"rental_uris":{"android":"levelo://app?vid=e8ed4a3b-4438-4018-b3d3-c3d64a945ab6","ios":"levelo://app?vid=e8ed4a3b-4438-4018-b3d3-c3d64a945ab6"},"vehicle_type_id":"4","last_reported":1704200937,"current_range_meters":28400,"station_id":"ce4bgup2rcd13ifvqcn0","pricing_plan_id":"free"},{"bike_id":"575d9d6a-2088-4e2f-94e1-a2124d0537d8","system_id":"levelo_inurba_marseille","lat":43.304657,"lon":5.379133,"is_reserved":false,"is_disabled":false,"rental_uris":{"android":"levelo://app?vid=575d9d6a-2088-4e2f-94e1-a2124d0537d8","ios":"levelo://app?vid=575d9d6a-2088-4e2f-94e1-a2124d0537d8"},"vehicle_type_id":"4","last_reported":1704200937,"current_range_meters":29600,"station_id":"ce4bgup2rcd13ifvqcn0","pricing_plan_id":"free"},{"bike_id":"0c2b249e-d8f1-47f2-a03b-6b90fd0e2ac1","system_id":"levelo_inurba_marseille","lat":43.304606,"lon":5.379026,"is_reserved":false,"is_disabled":false,"rental_uris":{"android":"levelo://app?vid=0c2b249e-d8f1-47f2-a03b-6b90fd0e2ac1","ios":"levelo://app?vid=0c2b249e-d8f1-47f2-a03b-6b90fd0e2ac1"},"vehicle_type_id":"4","last_reported":1704200937,"current_range_meters":25600,"station_id":"ce4bgup2rcd13ifvqcn0","pricing_plan_id":"free"},{"bike_id":"22c522dc-a80b-4206-9f4f-800ae9e694b5","system_id":"levelo_inurba_marseille","lat":43.304606,"lon":5.379026,"is_reserved":false,"is_disabled":false,"rental_uris":{"android":"levelo://app?vid=22c522dc-a80b-4206-9f4f-800ae9e694b5","ios":"levelo://app?vid=22c522dc-a80b-4206-9f4f-800ae9e694b5"},"vehicle_type_id":"4","last_reported":1704200937,"current_range_meters":30400,"station_id":"ce4bgup2rcd13ifvqcn0","pricing_plan_id":"free"},{"bike_id":"c92d47b1-5eb1-4b43-8fbe-9245908a3bdc","system_id":"levelo_inurba_marseille","lat":43.304606,"lon":5.379026,"is_reserved":false,"is_disabled":false,"rental_uris":{"android":"levelo://app?vid=c92d47b1-5eb1-4b43-8fbe-9245908a3bdc","ios":"levelo://app?vid=c92d47b1-5eb1-4b43-8fbe-9245908a3bdc"},"vehicle_type_id":"4","last_reported":1704200937,"current_range_meters":27200,"station_id":"ce4bgup2rcd13ifvqcn0","pricing_plan_id":"free"},{"bike_id":"9d9c6f3f-adde-4e18-a217-053a223ba3af","system_id":"levelo_inurba_marseille","lat":43.304618,"lon":5.37916,"is_reserved":false,"is_disabled":false,"rental_uris":{"android":"levelo://app?vid=9d9c6f3f-adde-4e18-a217-053a223ba3af","ios":"levelo://app?vid=9d9c6f3f-adde-4e18-a217-053a223ba3af"},"vehicle_type_id":"4","last_reported":1704200937,"current_range_meters":7600,"station_id":"ce4bgup2rcd13ifvqcn0","pricing_plan_id":"free"},{"bike_id":"2de17c90-7a7b-4c48-a446-26e37273e71f","system_id":"levelo_inurba_marseille","lat":43.304605,"lon":5.379159,"is_reserved":false,"is_disabled":false,"rental_uris":{"android":"levelo://app?vid=2de17c90-7a7b-4c48-a446-26e37273e71f","ios":"levelo://app?vid=2de17c90-7a7b-4c48-a446-26e37273e71f"},"vehicle_type_id":"4","last_reported":1704200937,"current_range_meters":23600,"station_id":"ce4bgup2rcd13ifvqcn0","pricing_plan_id":"free"},{"bike_id":"4c4910a8-b87e-4c13-b856-37ef8615c163","system_id":"levelo_inurba_marseille","lat":43.32484,"lon":5.365663,"is_reserved":false,"is_disabled":false,"rental_uris":{"android":"levelo://app?vid=4c4910a8-b87e-4c13-b856-37ef8615c163","ios":"levelo://app?vid=4c4910a8-b87e-4c13-b856-37ef8615c163"},"vehicle_type_id":"4","last_reported":1704200937,"current_range_meters":19200,"station_id":"ce4bhs12rcd13ifvqhvg","pricing_plan_id":"free"},{"bike_id":"2cc9b7e4-06d1-4c51-a576-c2f751e2f1c3","system_id":"levelo_inurba_marseille","lat":43.30143,"lon":5.37413,"is_reserved":false,"is_disabled":false,"rental_uris":{"android":"levelo://app?vid=2cc9b7e4-06d1-4c51-a576-c2f751e2f1c3","ios":"levelo://app?vid=2cc9b7e4-06d1-4c51-a576-c2f751e2f1c3"},"vehicle_type_id":"4","last_reported":1704200937,"current_range_meters":30800,"station_id":"ce4bgs92rcd13ifvqcc0","pricing_plan_id":"free"},{"bike_id":"6a7f3c15-63eb-4cf5-b738-729d8e0f9142","system_id":"levelo_inurba_marseille","lat":43.32434,"lon":5.37389,"is_reserved":false,"is_disabled":false,"rental_uris":{"android":"levelo://app?vid=6a7f3c15-63eb-4cf5-b738-729d8e0f9142","ios":"levelo://app?vid=6a7f3c15-63eb-4cf5-b738-729d8e0f9142"},"vehicle_type_id":"4","last_reported":1704200937,"current_range_meters":26400,"station_id":"","pricing_plan_id":"free"},{"bike_id":"17504bde-947a-4cd6-98b3-9a4c66aca99b","system_id":"levelo_inurba_marseille","lat":43.313827,"lon":5.385007,"is_reserved":false,"is_disabled":false,"rental_uris":{"android":"levelo://app?vid=17504bde-947a-4cd6-98b3-9a4c66aca99b","ios":"levelo://app?vid=17504bde-947a-4cd6-98b3-9a4c66aca99b"},"vehicle_type_id":"4","last_reported":1704200937,"current_range_meters":21200,"station_id":"ce4bgt92rcd13ifvqcf0","pricing_plan_id":"free"},{"bike_id":"dcdec2f5-23b5-45ef-86b5-12f5e905a088","system_id":"levelo_inurba_marseille","lat":43.299724,"lon":5.371829,"is_reserved":false,"is_disabled":false,"rental_uris":{"android":"levelo://app?vid=dcdec2f5-23b5-45ef-86b5-12f5e905a088","ios":"levelo://app?vid=dcdec2f5-23b5-45ef-86b5-12f5e905a088"},"vehicle_type_id":"4","last_reported":1704200937,"current_range_meters":23200,"station_id":"ce4bgr92rcd13ifvqc7g","pricing_plan_id":"free"},{"bike_id":"13472c66-b2c0-4e81-b6f5-f62d923f4645","system_id":"levelo_inurba_marseille","lat":43.299724,"lon":5.371829,"is_reserved":false,"is_disabled":false,"rental_uris":{"android":"levelo://app?vid=13472c66-b2c0-4e81-b6f5-f62d923f4645","ios":"levelo://app?vid=13472c66-b2c0-4e81-b6f5-f62d923f4645"},"vehicle_type_id":"4","last_reported":1704200937,"current_range_meters":29200,"station_id":"ce4bgr92rcd13ifvqc7g","pricing_plan_id":"free"},{"bike_id":"231da0ad-0cf5-45a6-97d0-26e7a61bd1b9","system_id":"levelo_inurba_marseille","lat":43.299222,"lon":5.365554,"is_reserved":false,"is_disabled":false,"rental_uris":{"android":"levelo://app?vid=231da0ad-0cf5-45a6-97d0-26e7a61bd1b9","ios":"levelo://app?vid=231da0ad-0cf5-45a6-97d0-26e7a61bd1b9"},"vehicle_type_id":"4","last_reported":1704200937,"current_range_meters":18400,"station_id":"ce4bgm92rcd13ifvqbr0","pricing_plan_id":"free"},{"bike_id":"4d169e01-cd59-4322-9249-d9c2568e8930","system_id":"levelo_inurba_marseille","lat":43.299724,"lon":5.371829,"is_reserved":false,"is_disabled":false,"rental_uris":{"android":"levelo://app?vid=4d169e01-cd59-4322-9249-d9c2568e8930","ios":"levelo://app?vid=4d169e01-cd59-4322-9249-d9c2568e8930"},"vehicle_type_id":"4","last_reported":1704200937,"current_range_meters":28000,"station_id":"ce4bgr92rcd13ifvqc7g","pricing_plan_id":"free"},{"bike_id":"e3d3ec68-a412-4a74-bd02-f5dbd6fb6c4b","system_id":"levelo_inurba_marseille","lat":43.299724,"lon":5.371829,"is_reserved":false,"is_disabled":false,"rental_uris":{"android":"levelo://app?vid=e3d3ec68-a412-4a74-bd02-f5dbd6fb6c4b","ios":"levelo://app?vid=e3d3ec68-a412-4a74-bd02-f5dbd6fb6c4b"},"vehicle_type_id":"4","last_reported":1704200937,"current_range_meters":23200,"station_id":"ce4bgr92rcd13ifvqc7g","pricing_plan_id":"free"},{"bike_id":"3b67d44c-24ff-4c77-b668-93ef7b58da7d","system_id":"levelo_inurba_marseille","lat":43.305364,"lon":5.384119,"is_reserved":false,"is_disabled":false,"rental_uris":{"android":"levelo://app?vid=3b67d44c-24ff-4c77-b668-93ef7b58da7d","ios":"levelo://app?vid=3b67d44c-24ff-4c77-b668-93ef7b58da7d"},"vehicle_type_id":"4","last_reported":1704200937,"current_range_meters":23600,"station_id":"ce4bgg92rcd13ifvqb30","pricing_plan_id":"free"},{"bike_id":"c2f16fbb-e86b-41c7-a44c-150bcd8a1f76","system_id":"levelo_inurba_marseille","lat":43.298433,"lon":5.362774,"is_reserved":false,"is_disabled":false,"rental_uris":{"android":"levelo://app?vid=c2f16fbb-e86b-41c7-a44c-150bcd8a1f76","ios":"levelo://app?vid=c2f16fbb-e86b-41c7-a44c-150bcd8a1f76"},"vehicle_type_id":"4","last_reported":1704200937,"current_range_meters":17200,"station_id":"ce4bgpp2rcd13ifvqc3g","pricing_plan_id":"free"},{"bike_id":"44f5e63d-e35f-46e6-96f9-77726f0fe6b1","system_id":"levelo_inurba_marseille","lat":43.305364,"lon":5.384119,"is_reserved":false,"is_disabled":false,"rental_uris":{"android":"levelo://app?vid=44f5e63d-e35f-46e6-96f9-77726f0fe6b1","ios":"levelo://app?vid=44f5e63d-e35f-46e6-96f9-77726f0fe6b1"},"vehicle_type_id":"4","last_reported":1704200937,"current_range_meters":30800,"station_id":"ce4bgg92rcd13ifvqb30","pricing_plan_id":"free"},{"bike_id":"732844ed-a881-441a-a447-1f232222d6ca","system_id":"levelo_inurba_marseille","lat":43.299243,"lon":5.374807,"is_reserved":false,"is_disabled":false,"rental_uris":{"android":"levelo://app?vid=732844ed-a881-441a-a447-1f232222d6ca","ios":"levelo://app?vid=732844ed-a881-441a-a447-1f232222d6ca"},"vehicle_type_id":"4","last_reported":1704200937,"current_range_meters":10400,"station_id":"ce4bgjh2rcd13ifvqbg0","pricing_plan_id":"free"},{"bike_id":"f3bb5cd7-e91f-4293-9bb7-ef35d3e7ac1f","system_id":"levelo_inurba_marseille","lat":43.299243,"lon":5.374807,"is_reserved":false,"is_disabled":false,"rental_uris":{"android":"levelo://app?vid=f3bb5cd7-e91f-4293-9bb7-ef35d3e7ac1f","ios":"levelo://app?vid=f3bb5cd7-e91f-4293-9bb7-ef35d3e7ac1f"},"vehicle_type_id":"4","last_reported":1704200937,"current_range_meters":14400,"station_id":"ce4bgjh2rcd13ifvqbg0","pricing_plan_id":"free"},{"bike_id":"76982d59-9df1-4cdf-9066-8fa2a7ac6e18","system_id":"levelo_inurba_marseille","lat":43.299243,"lon":5.374807,"is_reserved":false,"is_disabled":false,"rental_uris":{"android":"levelo://app?vid=76982d59-9df1-4cdf-9066-8fa2a7ac6e18","ios":"levelo://app?vid=76982d59-9df1-4cdf-9066-8fa2a7ac6e18"},"vehicle_type_id":"4","last_reported":1704200937,"current_range_meters":27600,"station_id":"ce4bgjh2rcd13ifvqbg0","pricing_plan_id":"free"},{"bike_id":"0a99af18-dfe6-49d4-bc90-0038ead01ebf","system_id":"levelo_inurba_marseille","lat":43.328371,"lon":5.366909,"is_reserved":false,"is_disabled":false,"rental_uris":{"android":"levelo://app?vid=0a99af18-dfe6-49d4-bc90-0038ead01ebf","ios":"levelo://app?vid=0a99af18-dfe6-49d4-bc90-0038ead01ebf"},"vehicle_type_id":"4","last_reported":1704200937,"current_range_meters":23200,"station_id":"ce4bhs92rcd13ifvqi0g","pricing_plan_id":"free"},{"bike_id":"370cccf7-c9ba-46c2-819b-c8e8cacc4c21","system_id":"levelo_inurba_marseille","lat":43.3277,"lon":5.37458,"is_reserved":false,"is_disabled":false,"rental_uris":{"android":"levelo://app?vid=370cccf7-c9ba-46c2-819b-c8e8cacc4c21","ios":"levelo://app?vid=370cccf7-c9ba-46c2-819b-c8e8cacc4c21"},"vehicle_type_id":"4","last_reported":1704200937,"current_range_meters":8800,"station_id":"","pricing_plan_id":"free"},{"bike_id":"3202c6ae-681b-45ce-918e-2621ea6165a2","system_id":"levelo_inurba_marseille","lat":43.296131,"lon":5.370791,"is_reserved":false,"is_disabled":false,"rental_uris":{"android":"levelo://app?vid=3202c6ae-681b-45ce-918e-2621ea6165a2","ios":"levelo://app?vid=3202c6ae-681b-45ce-918e-2621ea6165a2"},"vehicle_type_id":"4","last_reported":1704200937,"current_range_meters":8400,"station_id":"ce4bgnh2rcd13ifvqc0g","pricing_plan_id":"free"},{"bike_id":"b3f1edda-9d69-4486-b671-1b2ef3a88e6d","system_id":"levelo_inurba_marseille","lat":43.296921,"lon":5.376579,"is_reserved":false,"is_disabled":false,"rental_uris":{"android":"levelo://app?vid=b3f1edda-9d69-4486-b671-1b2ef3a88e6d","ios":"levelo://app?vid=b3f1edda-9d69-4486-b671-1b2ef3a88e6d"},"vehicle_type_id":"4","last_reported":1704200937,"current_range_meters":27200,"station_id":"ce4bgkh2rcd13ifvqbl0","pricing_plan_id":"free"},{"bike_id":"f2f96cc4-d07e-4508-931f-1214e5579128","system_id":"levelo_inurba_marseille","lat":43.296921,"lon":5.376579,"is_reserved":false,"is_disabled":false,"rental_uris":{"android":"levelo://app?vid=f2f96cc4-d07e-4508-931f-1214e5579128","ios":"levelo://app?vid=f2f96cc4-d07e-4508-931f-1214e5579128"},"vehicle_type_id":"4","last_reported":1704200937,"current_range_meters":23200,"station_id":"ce4bgkh2rcd13ifvqbl0","pricing_plan_id":"free"},{"bike_id":"8aa9507d-935f-41d4-bbc9-57305660be04","system_id":"levelo_inurba_marseille","lat":43.2973,"lon":5.37687,"is_reserved":false,"is_disabled":false,"rental_uris":{"android":"levelo://app?vid=8aa9507d-935f-41d4-bbc9-57305660be04","ios":"levelo://app?vid=8aa9507d-935f-41d4-bbc9-57305660be04"},"vehicle_type_id":"4","last_reported":1704200937,"current_range_meters":16400,"station_id":"ce4bgkh2rcd13ifvqbl0","pricing_plan_id":"free"},{"bike_id":"36989266-de8b-4ad2-9dea-b076aa6a9bfd","system_id":"levelo_inurba_marseille","lat":43.296921,"lon":5.376579,"is_reserved":false,"is_disabled":false,"rental_uris":{"android":"levelo://app?vid=36989266-de8b-4ad2-9dea-b076aa6a9bfd","ios":"levelo://app?vid=36989266-de8b-4ad2-9dea-b076aa6a9bfd"},"vehicle_type_id":"4","last_reported":1704200937,"current_range_meters":2800,"station_id":"ce4bgkh2rcd13ifvqbl0","pricing_plan_id":"free"},{"bike_id":"6fae1fa6-f2a7-492f-9dea-e7c7c22ac1ca","system_id":"levelo_inurba_marseille","lat":43.297263,"lon":5.37692,"is_reserved":false,"is_disabled":false,"rental_uris":{"android":"levelo://app?vid=6fae1fa6-f2a7-492f-9dea-e7c7c22ac1ca","ios":"levelo://app?vid=6fae1fa6-f2a7-492f-9dea-e7c7c22ac1ca"},"vehicle_type_id":"4","last_reported":1704200937,"current_range_meters":27200,"station_id":"ce4bgkh2rcd13ifvqbl0","pricing_plan_id":"free"},{"bike_id":"7b4f5263-c4df-4e40-afe3-fc2bfde43620","system_id":"levelo_inurba_marseille","lat":43.296935,"lon":5.376544,"is_reserved":false,"is_disabled":false,"rental_uris":{"android":"levelo://app?vid=7b4f5263-c4df-4e40-afe3-fc2bfde43620","ios":"levelo://app?vid=7b4f5263-c4df-4e40-afe3-fc2bfde43620"},"vehicle_type_id":"4","last_reported":1704200937,"current_range_meters":31200,"station_id":"ce4bgkh2rcd13ifvqbl0","pricing_plan_id":"free"},{"bike_id":"5e777f54-d870-4702-8937-6d98c0c8b103","system_id":"levelo_inurba_marseille","lat":43.296935,"lon":5.376544,"is_reserved":false,"is_disabled":false,"rental_uris":{"android":"levelo://app?vid=5e777f54-d870-4702-8937-6d98c0c8b103","ios":"levelo://app?vid=5e777f54-d870-4702-8937-6d98c0c8b103"},"vehicle_type_id":"4","last_reported":1704200937,"current_range_meters":19200,"station_id":"ce4bgkh2rcd13ifvqbl0","pricing_plan_id":"free"},{"bike_id":"934df303-6780-4e74-997f-0f9cc28c8803","system_id":"levelo_inurba_marseille","lat":43.299028,"lon":5.381509,"is_reserved":false,"is_disabled":false,"rental_uris":{"android":"levelo://app?vid=934df303-6780-4e74-997f-0f9cc28c8803","ios":"levelo://app?vid=934df303-6780-4e74-997f-0f9cc28c8803"},"vehicle_type_id":"4","last_reported":1704200937,"current_range_meters":24400,"station_id":"ce4bgj12rcd13ifvqbc0","pricing_plan_id":"free"},{"bike_id":"dfad2dab-f0b6-4a6d-80e3-34ab7831b287","system_id":"levelo_inurba_marseille","lat":43.299028,"lon":5.381509,"is_reserved":false,"is_disabled":false,"rental_uris":{"android":"levelo://app?vid=dfad2dab-f0b6-4a6d-80e3-34ab7831b287","ios":"levelo://app?vid=dfad2dab-f0b6-4a6d-80e3-34ab7831b287"},"vehicle_type_id":"4","last_reported":1704200937,"current_range_meters":23200,"station_id":"ce4bgj12rcd13ifvqbc0","pricing_plan_id":"free"},{"bike_id":"35fa5c13-ee6e-45bf-b33b-f22c965eba6e","system_id":"levelo_inurba_marseille","lat":43.317557,"lon":5.390173,"is_reserved":false,"is_disabled":false,"rental_uris":{"android":"levelo://app?vid=35fa5c13-ee6e-45bf-b33b-f22c965eba6e","ios":"levelo://app?vid=35fa5c13-ee6e-45bf-b33b-f22c965eba6e"},"vehicle_type_id":"4","last_reported":1704200937,"current_range_meters":17600,"station_id":"ce4bhqp2rcd13ifvqhng","pricing_plan_id":"free"},{"bike_id":"acefc5c0-2216-4e74-bb94-abffd3bbf215","system_id":"levelo_inurba_marseille","lat":43.298037,"lon":5.381066,"is_reserved":false,"is_disabled":false,"rental_uris":{"android":"levelo://app?vid=acefc5c0-2216-4e74-bb94-abffd3bbf215","ios":"levelo://app?vid=acefc5c0-2216-4e74-bb94-abffd3bbf215"},"vehicle_type_id":"4","last_reported":1704200937,"current_range_meters":17200,"station_id":"ce4bgip2rcd13ifvqbb0","pricing_plan_id":"free"},{"bike_id":"40cc75bc-4b8c-4725-a517-186bbb95e982","system_id":"levelo_inurba_marseille","lat":43.298037,"lon":5.381066,"is_reserved":false,"is_disabled":false,"rental_uris":{"android":"levelo://app?vid=40cc75bc-4b8c-4725-a517-186bbb95e982","ios":"levelo://app?vid=40cc75bc-4b8c-4725-a517-186bbb95e982"},"vehicle_type_id":"4","last_reported":1704200937,"current_range_meters":24400,"station_id":"ce4bgip2rcd13ifvqbb0","pricing_plan_id":"free"},{"bike_id":"3a9ad704-8c94-4993-9110-39e894518d01","system_id":"levelo_inurba_marseille","lat":43.298037,"lon":5.381066,"is_reserved":false,"is_disabled":false,"rental_uris":{"android":"levelo://app?vid=3a9ad704-8c94-4993-9110-39e894518d01","ios":"levelo://app?vid=3a9ad704-8c94-4993-9110-39e894518d01"},"vehicle_type_id":"4","last_reported":1704200937,"current_range_meters":31600,"station_id":"ce4bgip2rcd13ifvqbb0","pricing_plan_id":"free"},{"bike_id":"3b2dd60e-9e72-4c75-885a-eede1525b37c","system_id":"levelo_inurba_marseille","lat":43.29578,"lon":5.37501,"is_reserved":false,"is_disabled":false,"rental_uris":{"android":"levelo://app?vid=3b2dd60e-9e72-4c75-885a-eede1525b37c","ios":"levelo://app?vid=3b2dd60e-9e72-4c75-885a-eede1525b37c"},"vehicle_type_id":"4","last_reported":1704200937,"current_range_meters":30000,"station_id":"ce4bgh92rcd13ifvqb50","pricing_plan_id":"free"},{"bike_id":"9cd9ff9e-0f43-4c94-a914-8c2ed52e48ab","system_id":"levelo_inurba_marseille","lat":43.298037,"lon":5.381066,"is_reserved":false,"is_disabled":false,"rental_uris":{"android":"levelo://app?vid=9cd9ff9e-0f43-4c94-a914-8c2ed52e48ab","ios":"levelo://app?vid=9cd9ff9e-0f43-4c94-a914-8c2ed52e48ab"},"vehicle_type_id":"4","last_reported":1704200937,"current_range_meters":24000,"station_id":"ce4bgip2rcd13ifvqbb0","pricing_plan_id":"free"},{"bike_id":"89e28f30-f0b3-482d-b7bd-6605177b8065","system_id":"levelo_inurba_marseille","lat":43.304278,"lon":5.388868,"is_reserved":false,"is_disabled":false,"rental_uris":{"android":"levelo://app?vid=89e28f30-f0b3-482d-b7bd-6605177b8065","ios":"levelo://app?vid=89e28f30-f0b3-482d-b7bd-6605177b8065"},"vehicle_type_id":"4","last_reported":1704200937,"current_range_meters":20000,"station_id":"ce4bgk12rcd13ifvqbi0","pricing_plan_id":"free"},{"bike_id":"c3ee8659-afff-46c4-9b95-28e8a82e14d8","system_id":"levelo_inurba_marseille","lat":43.296263,"lon":5.377094,"is_reserved":false,"is_disabled":false,"rental_uris":{"android":"levelo://app?vid=c3ee8659-afff-46c4-9b95-28e8a82e14d8","ios":"levelo://app?vid=c3ee8659-afff-46c4-9b95-28e8a82e14d8"},"vehicle_type_id":"4","last_reported":1704200937,"current_range_meters":9200,"station_id":"ce4bgi92rcd13ifvqb90","pricing_plan_id":"free"},{"bike_id":"9771e9eb-486e-4c48-9d60-2a670255622a","system_id":"levelo_inurba_marseille","lat":43.304274,"lon":5.388873,"is_reserved":false,"is_disabled":false,"rental_uris":{"android":"levelo://app?vid=9771e9eb-486e-4c48-9d60-2a670255622a","ios":"levelo://app?vid=9771e9eb-486e-4c48-9d60-2a670255622a"},"vehicle_type_id":"4","last_reported":1704200937,"current_range_meters":23200,"station_id":"ce4bgk12rcd13ifvqbi0","pricing_plan_id":"free"},{"bike_id":"6c793b65-24a2-4f74-8675-de7e8f545cdd","system_id":"levelo_inurba_marseille","lat":43.296277,"lon":5.377108,"is_reserved":false,"is_disabled":false,"rental_uris":{"android":"levelo://app?vid=6c793b65-24a2-4f74-8675-de7e8f545cdd","ios":"levelo://app?vid=6c793b65-24a2-4f74-8675-de7e8f545cdd"},"vehicle_type_id":"4","last_reported":1704200937,"current_range_meters":12800,"station_id":"ce4bgi92rcd13ifvqb90","pricing_plan_id":"free"},{"bike_id":"7bd6618c-fef3-4079-8ff7-6f769f9cc2ac","system_id":"levelo_inurba_marseille","lat":43.304278,"lon":5.388868,"is_reserved":false,"is_disabled":false,"rental_uris":{"android":"levelo://app?vid=7bd6618c-fef3-4079-8ff7-6f769f9cc2ac","ios":"levelo://app?vid=7bd6618c-fef3-4079-8ff7-6f769f9cc2ac"},"vehicle_type_id":"4","last_reported":1704200937,"current_range_meters":26000,"station_id":"ce4bgk12rcd13ifvqbi0","pricing_plan_id":"free"},{"bike_id":"f05c45d6-0115-48c5-99b1-7e3739557cfb","system_id":"levelo_inurba_marseille","lat":43.296263,"lon":5.377094,"is_reserved":false,"is_disabled":false,"rental_uris":{"android":"levelo://app?vid=f05c45d6-0115-48c5-99b1-7e3739557cfb","ios":"levelo://app?vid=f05c45d6-0115-48c5-99b1-7e3739557cfb"},"vehicle_type_id":"4","last_reported":1704200937,"current_range_meters":26800,"station_id":"ce4bgi92rcd13ifvqb90","pricing_plan_id":"free"},{"bike_id":"d60802d6-4f47-444a-b234-883690eec05b","system_id":"levelo_inurba_marseille","lat":43.33062,"lon":5.3627,"is_reserved":false,"is_disabled":false,"rental_uris":{"android":"levelo://app?vid=d60802d6-4f47-444a-b234-883690eec05b","ios":"levelo://app?vid=d60802d6-4f47-444a-b234-883690eec05b"},"vehicle_type_id":"4","last_reported":1704200937,"current_range_meters":15600,"station_id":"","pricing_plan_id":"free"},{"bike_id":"820c8f1f-f6c1-48bc-be07-64440d5a8f8e","system_id":"levelo_inurba_marseille","lat":43.29617,"lon":5.3771,"is_reserved":false,"is_disabled":false,"rental_uris":{"android":"levelo://app?vid=820c8f1f-f6c1-48bc-be07-64440d5a8f8e","ios":"levelo://app?vid=820c8f1f-f6c1-48bc-be07-64440d5a8f8e"},"vehicle_type_id":"4","last_reported":1704200937,"current_range_meters":27200,"station_id":"ce4bgi92rcd13ifvqb90","pricing_plan_id":"free"},{"bike_id":"714cc6c3-6973-44aa-94f3-3b8f08737210","system_id":"levelo_inurba_marseille","lat":43.295748,"lon":5.37522,"is_reserved":false,"is_disabled":false,"rental_uris":{"android":"levelo://app?vid=714cc6c3-6973-44aa-94f3-3b8f08737210","ios":"levelo://app?vid=714cc6c3-6973-44aa-94f3-3b8f08737210"},"vehicle_type_id":"4","last_reported":1704200937,"current_range_meters":16400,"station_id":"ce4bgh92rcd13ifvqb50","pricing_plan_id":"free"},{"bike_id":"69598bc9-7659-4067-916d-814899b3a554","system_id":"levelo_inurba_marseille","lat":43.296263,"lon":5.377094,"is_reserved":false,"is_disabled":false,"rental_uris":{"android":"levelo://app?vid=69598bc9-7659-4067-916d-814899b3a554","ios":"levelo://app?vid=69598bc9-7659-4067-916d-814899b3a554"},"vehicle_type_id":"4","last_reported":1704200937,"current_range_meters":22400,"station_id":"ce4bgi92rcd13ifvqb90","pricing_plan_id":"free"},{"bike_id":"f67b4ce4-0c9c-4cd2-b119-b472dfee5204","system_id":"levelo_inurba_marseille","lat":43.29538,"lon":5.375,"is_reserved":false,"is_disabled":false,"rental_uris":{"android":"levelo://app?vid=f67b4ce4-0c9c-4cd2-b119-b472dfee5204","ios":"levelo://app?vid=f67b4ce4-0c9c-4cd2-b119-b472dfee5204"},"vehicle_type_id":"4","last_reported":1704200937,"current_range_meters":22000,"station_id":"ce4bgi92rcd13ifvqb90","pricing_plan_id":"free"},{"bike_id":"7119845d-00aa-4d9f-be8c-fc97d41f1380","system_id":"levelo_inurba_marseille","lat":43.297594,"lon":5.381134,"is_reserved":false,"is_disabled":false,"rental_uris":{"android":"levelo://app?vid=7119845d-00aa-4d9f-be8c-fc97d41f1380","ios":"levelo://app?vid=7119845d-00aa-4d9f-be8c-fc97d41f1380"},"vehicle_type_id":"4","last_reported":1704200937,"current_range_meters":4000,"station_id":"ce4bgip2rcd13ifvqbb0","pricing_plan_id":"free"},{"bike_id":"c4775076-4e3b-4d2b-aa93-575a2c39c141","system_id":"levelo_inurba_marseille","lat":43.29529,"lon":5.37502,"is_reserved":false,"is_disabled":false,"rental_uris":{"android":"levelo://app?vid=c4775076-4e3b-4d2b-aa93-575a2c39c141","ios":"levelo://app?vid=c4775076-4e3b-4d2b-aa93-575a2c39c141"},"vehicle_type_id":"4","last_reported":1704200937,"current_range_meters":26000,"station_id":"ce4bgkp2rcd13ifvqbmg","pricing_plan_id":"free"},{"bike_id":"ac10c43b-ed51-4cfb-9a53-966fc78dd918","system_id":"levelo_inurba_marseille","lat":43.299717,"lon":5.384845,"is_reserved":false,"is_disabled":false,"rental_uris":{"android":"levelo://app?vid=ac10c43b-ed51-4cfb-9a53-966fc78dd918","ios":"levelo://app?vid=ac10c43b-ed51-4cfb-9a53-966fc78dd918"},"vehicle_type_id":"4","last_reported":1704200937,"current_range_meters":4400,"station_id":"ce4bgj92rcd13ifvqbd0","pricing_plan_id":"free"},{"bike_id":"186d4e11-a358-4b27-ba63-f897558fa036","system_id":"levelo_inurba_marseille","lat":43.299717,"lon":5.384845,"is_reserved":false,"is_disabled":false,"rental_uris":{"android":"levelo://app?vid=186d4e11-a358-4b27-ba63-f897558fa036","ios":"levelo://app?vid=186d4e11-a358-4b27-ba63-f897558fa036"},"vehicle_type_id":"4","last_reported":1704200937,"current_range_meters":12800,"station_id":"ce4bgj92rcd13ifvqbd0","pricing_plan_id":"free"},{"bike_id":"47fabbc3-198f-444a-991f-792fc9baa342","system_id":"levelo_inurba_marseille","lat":43.299717,"lon":5.384845,"is_reserved":false,"is_disabled":false,"rental_uris":{"android":"levelo://app?vid=47fabbc3-198f-444a-991f-792fc9baa342","ios":"levelo://app?vid=47fabbc3-198f-444a-991f-792fc9baa342"},"vehicle_type_id":"4","last_reported":1704200937,"current_range_meters":19600,"station_id":"ce4bgj92rcd13ifvqbd0","pricing_plan_id":"free"},{"bike_id":"44cda3b5-11b8-49fb-8dc1-591696c55b25","system_id":"levelo_inurba_marseille","lat":43.299724,"lon":5.384848,"is_reserved":false,"is_disabled":false,"rental_uris":{"android":"levelo://app?vid=44cda3b5-11b8-49fb-8dc1-591696c55b25","ios":"levelo://app?vid=44cda3b5-11b8-49fb-8dc1-591696c55b25"},"vehicle_type_id":"4","last_reported":1704200937,"current_range_meters":17600,"station_id":"ce4bgj92rcd13ifvqbd0","pricing_plan_id":"free"},{"bike_id":"06880a87-1d2f-452a-aea3-1c4b96cf9b3f","system_id":"levelo_inurba_marseille","lat":43.32367,"lon":5.388836,"is_reserved":false,"is_disabled":false,"rental_uris":{"android":"levelo://app?vid=06880a87-1d2f-452a-aea3-1c4b96cf9b3f","ios":"levelo://app?vid=06880a87-1d2f-452a-aea3-1c4b96cf9b3f"},"vehicle_type_id":"4","last_reported":1704200937,"current_range_meters":21600,"station_id":"ce4bhqp2rcd13ifvqhog","pricing_plan_id":"free"},{"bike_id":"70717f1a-8247-4672-b7a3-4cf1a2cf0f5d","system_id":"levelo_inurba_marseille","lat":43.29601,"lon":5.381084,"is_reserved":false,"is_disabled":false,"rental_uris":{"android":"levelo://app?vid=70717f1a-8247-4672-b7a3-4cf1a2cf0f5d","ios":"levelo://app?vid=70717f1a-8247-4672-b7a3-4cf1a2cf0f5d"},"vehicle_type_id":"4","last_reported":1704200937,"current_range_meters":16400,"station_id":"ce4bgl12rcd13ifvqbo0","pricing_plan_id":"free"},{"bike_id":"bd8e1d8e-3962-4e29-940d-48ef9eef38f0","system_id":"levelo_inurba_marseille","lat":43.293009,"lon":5.374584,"is_reserved":false,"is_disabled":false,"rental_uris":{"android":"levelo://app?vid=bd8e1d8e-3962-4e29-940d-48ef9eef38f0","ios":"levelo://app?vid=bd8e1d8e-3962-4e29-940d-48ef9eef38f0"},"vehicle_type_id":"4","last_reported":1704200937,"current_range_meters":18400,"station_id":"ce4bgi12rcd13ifvqb70","pricing_plan_id":"free"},{"bike_id":"bcf190ac-5006-4269-a4bc-5d464254152e","system_id":"levelo_inurba_marseille","lat":43.303002,"lon":5.392142,"is_reserved":false,"is_disabled":false,"rental_uris":{"android":"levelo://app?vid=bcf190ac-5006-4269-a4bc-5d464254152e","ios":"levelo://app?vid=bcf190ac-5006-4269-a4bc-5d464254152e"},"vehicle_type_id":"4","last_reported":1704200937,"current_range_meters":22000,"station_id":"ce4bgkh2rcd13ifvqbk0","pricing_plan_id":"free"},{"bike_id":"1a1481de-040b-486d-8984-45afdbe85ebb","system_id":"levelo_inurba_marseille","lat":43.29253,"lon":5.3739,"is_reserved":false,"is_disabled":false,"rental_uris":{"android":"levelo://app?vid=1a1481de-040b-486d-8984-45afdbe85ebb","ios":"levelo://app?vid=1a1481de-040b-486d-8984-45afdbe85ebb"},"vehicle_type_id":"4","last_reported":1704200937,"current_range_meters":16400,"station_id":"","pricing_plan_id":"free"},{"bike_id":"f4cec07f-16dd-4612-82b0-9b0b850dded3","system_id":"levelo_inurba_marseille","lat":43.29263,"lon":5.37623,"is_reserved":false,"is_disabled":false,"rental_uris":{"android":"levelo://app?vid=f4cec07f-16dd-4612-82b0-9b0b850dded3","ios":"levelo://app?vid=f4cec07f-16dd-4612-82b0-9b0b850dded3"},"vehicle_type_id":"4","last_reported":1704200937,"current_range_meters":22000,"station_id":"ce4bgi12rcd13ifvqb70","pricing_plan_id":"free"},{"bike_id":"1441c9d2-49c5-43f6-accd-b1b702c6507c","system_id":"levelo_inurba_marseille","lat":43.291675,"lon":5.371583,"is_reserved":false,"is_disabled":false,"rental_uris":{"android":"levelo://app?vid=1441c9d2-49c5-43f6-accd-b1b702c6507c","ios":"levelo://app?vid=1441c9d2-49c5-43f6-accd-b1b702c6507c"},"vehicle_type_id":"4","last_reported":1704200937,"current_range_meters":31200,"station_id":"ce4bha92rcd13ifvqeh0","pricing_plan_id":"free"},{"bike_id":"57cddf98-e854-4bd6-aaad-578a24ad8611","system_id":"levelo_inurba_marseille","lat":43.291671,"lon":5.371575,"is_reserved":false,"is_disabled":false,"rental_uris":{"android":"levelo://app?vid=57cddf98-e854-4bd6-aaad-578a24ad8611","ios":"levelo://app?vid=57cddf98-e854-4bd6-aaad-578a24ad8611"},"vehicle_type_id":"4","last_reported":1704200937,"current_range_meters":25600,"station_id":"ce4bha92rcd13ifvqeh0","pricing_plan_id":"free"},{"bike_id":"b867ee5d-18ed-4142-b5f4-c3f22497a1ef","system_id":"levelo_inurba_marseille","lat":43.291671,"lon":5.371575,"is_reserved":false,"is_disabled":false,"rental_uris":{"android":"levelo://app?vid=b867ee5d-18ed-4142-b5f4-c3f22497a1ef","ios":"levelo://app?vid=b867ee5d-18ed-4142-b5f4-c3f22497a1ef"},"vehicle_type_id":"4","last_reported":1704200937,"current_range_meters":24800,"station_id":"ce4bha92rcd13ifvqeh0","pricing_plan_id":"free"},{"bike_id":"44661b12-8208-43fd-a507-bab2b483f65e","system_id":"levelo_inurba_marseille","lat":43.291675,"lon":5.371583,"is_reserved":false,"is_disabled":false,"rental_uris":{"android":"levelo://app?vid=44661b12-8208-43fd-a507-bab2b483f65e","ios":"levelo://app?vid=44661b12-8208-43fd-a507-bab2b483f65e"},"vehicle_type_id":"4","last_reported":1704200937,"current_range_meters":26400,"station_id":"ce4bha92rcd13ifvqeh0","pricing_plan_id":"free"},{"bike_id":"1142f7a3-aa84-4a1a-9be4-f9657f2b15ad","system_id":"levelo_inurba_marseille","lat":43.305364,"lon":5.384119,"is_reserved":false,"is_disabled":false,"rental_uris":{"android":"levelo://app?vid=1142f7a3-aa84-4a1a-9be4-f9657f2b15ad","ios":"levelo://app?vid=1142f7a3-aa84-4a1a-9be4-f9657f2b15ad"},"vehicle_type_id":"4","last_reported":1704200937,"current_range_meters":26800,"station_id":"ce4bgg92rcd13ifvqb30","pricing_plan_id":"free"},{"bike_id":"defc587d-be67-49be-a89c-d2ff591670b6","system_id":"levelo_inurba_marseille","lat":43.29529,"lon":5.385581,"is_reserved":false,"is_disabled":false,"rental_uris":{"android":"levelo://app?vid=defc587d-be67-49be-a89c-d2ff591670b6","ios":"levelo://app?vid=defc587d-be67-49be-a89c-d2ff591670b6"},"vehicle_type_id":"4","last_reported":1704200937,"current_range_meters":28400,"station_id":"ce4bgih2rcd13ifvqba0","pricing_plan_id":"free"},{"bike_id":"0ad44e0c-43e7-494c-826d-289a2fbbd48b","system_id":"levelo_inurba_marseille","lat":43.290327,"lon":5.375711,"is_reserved":false,"is_disabled":false,"rental_uris":{"android":"levelo://app?vid=0ad44e0c-43e7-494c-826d-289a2fbbd48b","ios":"levelo://app?vid=0ad44e0c-43e7-494c-826d-289a2fbbd48b"},"vehicle_type_id":"4","last_reported":1704200937,"current_range_meters":30000,"station_id":"ce4bh692rcd13ifvqe90","pricing_plan_id":"free"},{"bike_id":"48c945f2-1b7a-45a0-b541-44443260d2f6","system_id":"levelo_inurba_marseille","lat":43.292642,"lon":5.384254,"is_reserved":false,"is_disabled":false,"rental_uris":{"android":"levelo://app?vid=48c945f2-1b7a-45a0-b541-44443260d2f6","ios":"levelo://app?vid=48c945f2-1b7a-45a0-b541-44443260d2f6"},"vehicle_type_id":"4","last_reported":1704200937,"current_range_meters":30000,"station_id":"ce4bh692rcd13ifvqea0","pricing_plan_id":"free"},{"bike_id":"c46a93e3-fe40-447b-bbf9-17bd700ce615","system_id":"levelo_inurba_marseille","lat":43.29006,"lon":5.356173,"is_reserved":false,"is_disabled":false,"rental_uris":{"android":"levelo://app?vid=c46a93e3-fe40-447b-bbf9-17bd700ce615","ios":"levelo://app?vid=c46a93e3-fe40-447b-bbf9-17bd700ce615"},"vehicle_type_id":"4","last_reported":1704200937,"current_range_meters":20400,"station_id":"ce4bhb92rcd13ifvqen0","pricing_plan_id":"free"},{"bike_id":"853e44a6-e7ed-4fdc-b2ee-25769d595de9","system_id":"levelo_inurba_marseille","lat":43.290103,"lon":5.356114,"is_reserved":false,"is_disabled":false,"rental_uris":{"android":"levelo://app?vid=853e44a6-e7ed-4fdc-b2ee-25769d595de9","ios":"levelo://app?vid=853e44a6-e7ed-4fdc-b2ee-25769d595de9"},"vehicle_type_id":"4","last_reported":1704200937,"current_range_meters":18800,"station_id":"ce4bhb92rcd13ifvqen0","pricing_plan_id":"free"},{"bike_id":"ce54682a-1cd8-435c-918b-70e32572784f","system_id":"levelo_inurba_marseille","lat":43.290995,"lon":5.381361,"is_reserved":false,"is_disabled":false,"rental_uris":{"android":"levelo://app?vid=ce54682a-1cd8-435c-918b-70e32572784f","ios":"levelo://app?vid=ce54682a-1cd8-435c-918b-70e32572784f"},"vehicle_type_id":"4","last_reported":1704200937,"current_range_meters":27200,"station_id":"ce4bh512rcd13ifvqe2g","pricing_plan_id":"free"},{"bike_id":"8b11e1a1-0782-4c18-9f94-4603c6262a42","system_id":"levelo_inurba_marseille","lat":43.29786,"lon":5.39321,"is_reserved":false,"is_disabled":false,"rental_uris":{"android":"levelo://app?vid=8b11e1a1-0782-4c18-9f94-4603c6262a42","ios":"levelo://app?vid=8b11e1a1-0782-4c18-9f94-4603c6262a42"},"vehicle_type_id":"4","last_reported":1704200937,"current_range_meters":20800,"station_id":"chh1huq6cuj3fo74tm60","pricing_plan_id":"free"},{"bike_id":"32f9cd44-0c40-4b88-9a94-a5def52681f8","system_id":"levelo_inurba_marseille","lat":43.290995,"lon":5.381361,"is_reserved":false,"is_disabled":false,"rental_uris":{"android":"levelo://app?vid=32f9cd44-0c40-4b88-9a94-a5def52681f8","ios":"levelo://app?vid=32f9cd44-0c40-4b88-9a94-a5def52681f8"},"vehicle_type_id":"4","last_reported":1704200937,"current_range_meters":29200,"station_id":"ce4bh512rcd13ifvqe2g","pricing_plan_id":"free"},{"bike_id":"ced06cf6-abb0-44fb-bfa3-85a8baeba05d","system_id":"levelo_inurba_marseille","lat":43.290995,"lon":5.381361,"is_reserved":false,"is_disabled":false,"rental_uris":{"android":"levelo://app?vid=ced06cf6-abb0-44fb-bfa3-85a8baeba05d","ios":"levelo://app?vid=ced06cf6-abb0-44fb-bfa3-85a8baeba05d"},"vehicle_type_id":"4","last_reported":1704200937,"current_range_meters":22800,"station_id":"ce4bh512rcd13ifvqe2g","pricing_plan_id":"free"},{"bike_id":"62a1f38c-ec0f-4487-8c77-04adefddb23b","system_id":"levelo_inurba_marseille","lat":43.29781,"lon":5.39336,"is_reserved":false,"is_disabled":false,"rental_uris":{"android":"levelo://app?vid=62a1f38c-ec0f-4487-8c77-04adefddb23b","ios":"levelo://app?vid=62a1f38c-ec0f-4487-8c77-04adefddb23b"},"vehicle_type_id":"4","last_reported":1704200937,"current_range_meters":13200,"station_id":"chh1huq6cuj3fo74tm60","pricing_plan_id":"free"},{"bike_id":"be83f7a1-7338-42a7-a5df-1b505e5d195a","system_id":"levelo_inurba_marseille","lat":43.295169,"lon":5.390426,"is_reserved":false,"is_disabled":false,"rental_uris":{"android":"levelo://app?vid=be83f7a1-7338-42a7-a5df-1b505e5d195a","ios":"levelo://app?vid=be83f7a1-7338-42a7-a5df-1b505e5d195a"},"vehicle_type_id":"4","last_reported":1704200937,"current_range_meters":28000,"station_id":"ce4bh3p2rcd13ifvqdp0","pricing_plan_id":"free"},{"bike_id":"396a6be4-0c5b-48eb-8508-de95ac2271b8","system_id":"levelo_inurba_marseille","lat":43.297853,"lon":5.393482,"is_reserved":false,"is_disabled":false,"rental_uris":{"android":"levelo://app?vid=396a6be4-0c5b-48eb-8508-de95ac2271b8","ios":"levelo://app?vid=396a6be4-0c5b-48eb-8508-de95ac2271b8"},"vehicle_type_id":"4","last_reported":1704200937,"current_range_meters":12400,"station_id":"chh1huq6cuj3fo74tm60","pricing_plan_id":"free"},{"bike_id":"13d41c86-d361-4b17-ae49-6b5491dd4e85","system_id":"levelo_inurba_marseille","lat":43.330442,"lon":5.389148,"is_reserved":false,"is_disabled":false,"rental_uris":{"android":"levelo://app?vid=13d41c86-d361-4b17-ae49-6b5491dd4e85","ios":"levelo://app?vid=13d41c86-d361-4b17-ae49-6b5491dd4e85"},"vehicle_type_id":"4","last_reported":1704200937,"current_range_meters":24400,"station_id":"ce4bhr92rcd13ifvqhrg","pricing_plan_id":"free"},{"bike_id":"ed40a5cb-0854-435c-b417-fa044e72c8df","system_id":"levelo_inurba_marseille","lat":43.337503,"lon":5.374677,"is_reserved":false,"is_disabled":false,"rental_uris":{"android":"levelo://app?vid=ed40a5cb-0854-435c-b417-fa044e72c8df","ios":"levelo://app?vid=ed40a5cb-0854-435c-b417-fa044e72c8df"},"vehicle_type_id":"4","last_reported":1704200937,"current_range_meters":6000,"station_id":"","pricing_plan_id":"free"},{"bike_id":"1c86c5a0-cffc-4faa-94a1-6cf5f93206ea","system_id":"levelo_inurba_marseille","lat":43.337605,"lon":5.374572,"is_reserved":false,"is_disabled":false,"rental_uris":{"android":"levelo://app?vid=1c86c5a0-cffc-4faa-94a1-6cf5f93206ea","ios":"levelo://app?vid=1c86c5a0-cffc-4faa-94a1-6cf5f93206ea"},"vehicle_type_id":"4","last_reported":1704200937,"current_range_meters":6400,"station_id":"","pricing_plan_id":"free"},{"bike_id":"7bff5d96-c9da-413f-9076-7fbeec946e12","system_id":"levelo_inurba_marseille","lat":43.33772,"lon":5.37456,"is_reserved":false,"is_disabled":false,"rental_uris":{"android":"levelo://app?vid=7bff5d96-c9da-413f-9076-7fbeec946e12","ios":"levelo://app?vid=7bff5d96-c9da-413f-9076-7fbeec946e12"},"vehicle_type_id":"4","last_reported":1704200937,"current_range_meters":27200,"station_id":"","pricing_plan_id":"free"},{"bike_id":"46bcbd8a-0b5f-4b89-aac9-34812a85cd49","system_id":"levelo_inurba_marseille","lat":43.337681,"lon":5.374847,"is_reserved":false,"is_disabled":false,"rental_uris":{"android":"levelo://app?vid=46bcbd8a-0b5f-4b89-aac9-34812a85cd49","ios":"levelo://app?vid=46bcbd8a-0b5f-4b89-aac9-34812a85cd49"},"vehicle_type_id":"4","last_reported":1704200937,"current_range_meters":15200,"station_id":"","pricing_plan_id":"free"},{"bike_id":"f182ad30-578d-439a-b895-037c49f93cbb","system_id":"levelo_inurba_marseille","lat":43.28039,"lon":5.369297,"is_reserved":false,"is_disabled":false,"rental_uris":{"android":"levelo://app?vid=f182ad30-578d-439a-b895-037c49f93cbb","ios":"levelo://app?vid=f182ad30-578d-439a-b895-037c49f93cbb"},"vehicle_type_id":"4","last_reported":1704200937,"current_range_meters":31200,"station_id":"ce4bha12rcd13ifvqef0","pricing_plan_id":"free"},{"bike_id":"6ae37ec0-7e05-4484-81af-e4ca3a1ebe21","system_id":"levelo_inurba_marseille","lat":43.286961,"lon":5.373785,"is_reserved":false,"is_disabled":false,"rental_uris":{"android":"levelo://app?vid=6ae37ec0-7e05-4484-81af-e4ca3a1ebe21","ios":"levelo://app?vid=6ae37ec0-7e05-4484-81af-e4ca3a1ebe21"},"vehicle_type_id":"4","last_reported":1704200937,"current_range_meters":17600,"station_id":"ce4bh3p2rcd13ifvqdq0","pricing_plan_id":"free"},{"bike_id":"4930c7ab-d3a6-4071-9772-594ca5031d9c","system_id":"levelo_inurba_marseille","lat":43.302504,"lon":5.400768,"is_reserved":false,"is_disabled":false,"rental_uris":{"android":"levelo://app?vid=4930c7ab-d3a6-4071-9772-594ca5031d9c","ios":"levelo://app?vid=4930c7ab-d3a6-4071-9772-594ca5031d9c"},"vehicle_type_id":"4","last_reported":1704200937,"current_range_meters":28800,"station_id":"ce4bgvh2rcd13ifvqcs0","pricing_plan_id":"free"},{"bike_id":"f9cd0216-8441-43a2-bacc-953e16290406","system_id":"levelo_inurba_marseille","lat":43.286039,"lon":5.370681,"is_reserved":false,"is_disabled":false,"rental_uris":{"android":"levelo://app?vid=f9cd0216-8441-43a2-bacc-953e16290406","ios":"levelo://app?vid=f9cd0216-8441-43a2-bacc-953e16290406"},"vehicle_type_id":"4","last_reported":1704200937,"current_range_meters":19200,"station_id":"ce4bht12rcd13ifvqi60","pricing_plan_id":"free"},{"bike_id":"f04c0197-8bb7-4d15-ac5b-e74e1042e935","system_id":"levelo_inurba_marseille","lat":43.286039,"lon":5.370679,"is_reserved":false,"is_disabled":false,"rental_uris":{"android":"levelo://app?vid=f04c0197-8bb7-4d15-ac5b-e74e1042e935","ios":"levelo://app?vid=f04c0197-8bb7-4d15-ac5b-e74e1042e935"},"vehicle_type_id":"4","last_reported":1704200937,"current_range_meters":28800,"station_id":"ce4bht12rcd13ifvqi60","pricing_plan_id":"free"},{"bike_id":"40579999-f28a-4f53-8fc1-32606a609e63","system_id":"levelo_inurba_marseille","lat":43.286039,"lon":5.370679,"is_reserved":false,"is_disabled":false,"rental_uris":{"android":"levelo://app?vid=40579999-f28a-4f53-8fc1-32606a609e63","ios":"levelo://app?vid=40579999-f28a-4f53-8fc1-32606a609e63"},"vehicle_type_id":"4","last_reported":1704200937,"current_range_meters":31600,"station_id":"ce4bht12rcd13ifvqi60","pricing_plan_id":"free"},{"bike_id":"102b8121-ee53-408e-8829-c9b9fc6aef90","system_id":"levelo_inurba_marseille","lat":43.286039,"lon":5.370679,"is_reserved":false,"is_disabled":false,"rental_uris":{"android":"levelo://app?vid=102b8121-ee53-408e-8829-c9b9fc6aef90","ios":"levelo://app?vid=102b8121-ee53-408e-8829-c9b9fc6aef90"},"vehicle_type_id":"4","last_reported":1704200937,"current_range_meters":14000,"station_id":"ce4bht12rcd13ifvqi60","pricing_plan_id":"free"},{"bike_id":"d9795646-69c0-4b3e-bcef-3d2a77703458","system_id":"levelo_inurba_marseille","lat":43.286039,"lon":5.370679,"is_reserved":false,"is_disabled":false,"rental_uris":{"android":"levelo://app?vid=d9795646-69c0-4b3e-bcef-3d2a77703458","ios":"levelo://app?vid=d9795646-69c0-4b3e-bcef-3d2a77703458"},"vehicle_type_id":"4","last_reported":1704200937,"current_range_meters":22000,"station_id":"ce4bht12rcd13ifvqi60","pricing_plan_id":"free"},{"bike_id":"e88245d1-2fa8-4cd3-bddc-b6e35e52c439","system_id":"levelo_inurba_marseille","lat":43.31686,"lon":5.40464,"is_reserved":false,"is_disabled":false,"rental_uris":{"android":"levelo://app?vid=e88245d1-2fa8-4cd3-bddc-b6e35e52c439","ios":"levelo://app?vid=e88245d1-2fa8-4cd3-bddc-b6e35e52c439"},"vehicle_type_id":"4","last_reported":1704200937,"current_range_meters":19200,"station_id":"ce4bh012rcd13ifvqd00","pricing_plan_id":"free"},{"bike_id":"9b0c9e9e-977c-43ca-8676-217c423ef706","system_id":"levelo_inurba_marseille","lat":43.31692,"lon":5.40464,"is_reserved":false,"is_disabled":false,"rental_uris":{"android":"levelo://app?vid=9b0c9e9e-977c-43ca-8676-217c423ef706","ios":"levelo://app?vid=9b0c9e9e-977c-43ca-8676-217c423ef706"},"vehicle_type_id":"4","last_reported":1704200937,"current_range_meters":28000,"station_id":"ce4bh012rcd13ifvqd00","pricing_plan_id":"free"},{"bike_id":"fe9d9231-9266-42cd-b245-ed8ea3c0bdbb","system_id":"levelo_inurba_marseille","lat":43.316958,"lon":5.404663,"is_reserved":false,"is_disabled":false,"rental_uris":{"android":"levelo://app?vid=fe9d9231-9266-42cd-b245-ed8ea3c0bdbb","ios":"levelo://app?vid=fe9d9231-9266-42cd-b245-ed8ea3c0bdbb"},"vehicle_type_id":"4","last_reported":1704200937,"current_range_meters":20000,"station_id":"ce4bh012rcd13ifvqd00","pricing_plan_id":"free"},{"bike_id":"d2f95539-63f0-42a2-8998-f3f609c9cc11","system_id":"levelo_inurba_marseille","lat":43.31686,"lon":5.40474,"is_reserved":false,"is_disabled":false,"rental_uris":{"android":"levelo://app?vid=d2f95539-63f0-42a2-8998-f3f609c9cc11","ios":"levelo://app?vid=d2f95539-63f0-42a2-8998-f3f609c9cc11"},"vehicle_type_id":"4","last_reported":1704200937,"current_range_meters":26400,"station_id":"ce4bh012rcd13ifvqd00","pricing_plan_id":"free"},{"bike_id":"65508aa7-9505-4d44-bb62-1b69f800b3fb","system_id":"levelo_inurba_marseille","lat":43.294314,"lon":5.397498,"is_reserved":false,"is_disabled":false,"rental_uris":{"android":"levelo://app?vid=65508aa7-9505-4d44-bb62-1b69f800b3fb","ios":"levelo://app?vid=65508aa7-9505-4d44-bb62-1b69f800b3fb"},"vehicle_type_id":"4","last_reported":1704200937,"current_range_meters":9200,"station_id":"ce4bh3h2rcd13ifvqdo0","pricing_plan_id":"free"},{"bike_id":"e49936f5-9db6-45b8-8e99-249369799f0a","system_id":"levelo_inurba_marseille","lat":43.285848,"lon":5.350787,"is_reserved":false,"is_disabled":false,"rental_uris":{"android":"levelo://app?vid=e49936f5-9db6-45b8-8e99-249369799f0a","ios":"levelo://app?vid=e49936f5-9db6-45b8-8e99-249369799f0a"},"vehicle_type_id":"4","last_reported":1704200937,"current_range_meters":14800,"station_id":"ce4bhch2rcd13ifvqeug","pricing_plan_id":"free"},{"bike_id":"96dd80b7-f45e-48ec-8173-f9bce4de24bd","system_id":"levelo_inurba_marseille","lat":43.286103,"lon":5.351079,"is_reserved":false,"is_disabled":false,"rental_uris":{"android":"levelo://app?vid=96dd80b7-f45e-48ec-8173-f9bce4de24bd","ios":"levelo://app?vid=96dd80b7-f45e-48ec-8173-f9bce4de24bd"},"vehicle_type_id":"4","last_reported":1704200937,"current_range_meters":19600,"station_id":"ce4bhch2rcd13ifvqeug","pricing_plan_id":"free"},{"bike_id":"a28c1562-710a-44b0-958e-adb75c61ee0b","system_id":"levelo_inurba_marseille","lat":43.285856,"lon":5.350771,"is_reserved":false,"is_disabled":false,"rental_uris":{"android":"levelo://app?vid=a28c1562-710a-44b0-958e-adb75c61ee0b","ios":"levelo://app?vid=a28c1562-710a-44b0-958e-adb75c61ee0b"},"vehicle_type_id":"4","last_reported":1704200937,"current_range_meters":10400,"station_id":"ce4bhch2rcd13ifvqeug","pricing_plan_id":"free"},{"bike_id":"64518c9b-2650-4dea-a421-ef6f58f704e1","system_id":"levelo_inurba_marseille","lat":43.283998,"lon":5.375062,"is_reserved":false,"is_disabled":false,"rental_uris":{"android":"levelo://app?vid=64518c9b-2650-4dea-a421-ef6f58f704e1","ios":"levelo://app?vid=64518c9b-2650-4dea-a421-ef6f58f704e1"},"vehicle_type_id":"4","last_reported":1704200937,"current_range_meters":4800,"station_id":"ce4bh412rcd13ifvqds0","pricing_plan_id":"free"},{"bike_id":"d189eb1d-0e5d-4ef8-93ea-e35676758e41","system_id":"levelo_inurba_marseille","lat":43.295713,"lon":5.399639,"is_reserved":false,"is_disabled":false,"rental_uris":{"android":"levelo://app?vid=d189eb1d-0e5d-4ef8-93ea-e35676758e41","ios":"levelo://app?vid=d189eb1d-0e5d-4ef8-93ea-e35676758e41"},"vehicle_type_id":"4","last_reported":1704200937,"current_range_meters":28000,"station_id":"ce4bh312rcd13ifvqdj0","pricing_plan_id":"free"},{"bike_id":"e57b569a-8c28-4923-ae48-775b51725f28","system_id":"levelo_inurba_marseille","lat":43.286595,"lon":5.386795,"is_reserved":false,"is_disabled":false,"rental_uris":{"android":"levelo://app?vid=e57b569a-8c28-4923-ae48-775b51725f28","ios":"levelo://app?vid=e57b569a-8c28-4923-ae48-775b51725f28"},"vehicle_type_id":"4","last_reported":1704200937,"current_range_meters":28400,"station_id":"ce4bh492rcd13ifvqdug","pricing_plan_id":"free"},{"bike_id":"78d9aca3-f653-4647-b11c-8e8564e11b88","system_id":"levelo_inurba_marseille","lat":43.284793,"lon":5.384119,"is_reserved":false,"is_disabled":false,"rental_uris":{"android":"levelo://app?vid=78d9aca3-f653-4647-b11c-8e8564e11b88","ios":"levelo://app?vid=78d9aca3-f653-4647-b11c-8e8564e11b88"},"vehicle_type_id":"4","last_reported":1704200937,"current_range_meters":17600,"station_id":"ce4bh512rcd13ifvqe3g","pricing_plan_id":"free"},{"bike_id":"89112d64-ccbf-4364-afe6-d1338820fb67","system_id":"levelo_inurba_marseille","lat":43.319179,"lon":5.407725,"is_reserved":false,"is_disabled":false,"rental_uris":{"android":"levelo://app?vid=89112d64-ccbf-4364-afe6-d1338820fb67","ios":"levelo://app?vid=89112d64-ccbf-4364-afe6-d1338820fb67"},"vehicle_type_id":"4","last_reported":1704200937,"current_range_meters":29200,"station_id":"ce4bhq12rcd13ifvqhig","pricing_plan_id":"free"},{"bike_id":"64bacc72-9edb-4a5e-abb0-652670371019","system_id":"levelo_inurba_marseille","lat":43.319179,"lon":5.407725,"is_reserved":false,"is_disabled":false,"rental_uris":{"android":"levelo://app?vid=64bacc72-9edb-4a5e-abb0-652670371019","ios":"levelo://app?vid=64bacc72-9edb-4a5e-abb0-652670371019"},"vehicle_type_id":"4","last_reported":1704200937,"current_range_meters":21200,"station_id":"ce4bhq12rcd13ifvqhig","pricing_plan_id":"free"},{"bike_id":"57aa4e80-760d-4e3c-a199-3d58309f5f3c","system_id":"levelo_inurba_marseille","lat":43.261782,"lon":5.374515,"is_reserved":false,"is_disabled":false,"rental_uris":{"android":"levelo://app?vid=57aa4e80-760d-4e3c-a199-3d58309f5f3c","ios":"levelo://app?vid=57aa4e80-760d-4e3c-a199-3d58309f5f3c"},"vehicle_type_id":"4","last_reported":1704200937,"current_range_meters":31600,"station_id":"ce4bhgp2rcd13ifvqfc0","pricing_plan_id":"free"},{"bike_id":"3a34192a-8b34-47a6-8d79-245a33690514","system_id":"levelo_inurba_marseille","lat":43.33717,"lon":5.391857,"is_reserved":false,"is_disabled":false,"rental_uris":{"android":"levelo://app?vid=3a34192a-8b34-47a6-8d79-245a33690514","ios":"levelo://app?vid=3a34192a-8b34-47a6-8d79-245a33690514"},"vehicle_type_id":"4","last_reported":1704200937,"current_range_meters":28400,"station_id":"ce4bhr92rcd13ifvqhsg","pricing_plan_id":"free"},{"bike_id":"78bb1215-3373-4d3f-b7bd-f79703d6e8c0","system_id":"levelo_inurba_marseille","lat":43.323464,"lon":5.406297,"is_reserved":false,"is_disabled":false,"rental_uris":{"android":"levelo://app?vid=78bb1215-3373-4d3f-b7bd-f79703d6e8c0","ios":"levelo://app?vid=78bb1215-3373-4d3f-b7bd-f79703d6e8c0"},"vehicle_type_id":"4","last_reported":1704200937,"current_range_meters":27200,"station_id":"ce4bhq92rcd13ifvqhjg","pricing_plan_id":"free"},{"bike_id":"90a3742a-b6b1-431b-bfa6-9984c3222dd1","system_id":"levelo_inurba_marseille","lat":43.33717,"lon":5.391857,"is_reserved":false,"is_disabled":false,"rental_uris":{"android":"levelo://app?vid=90a3742a-b6b1-431b-bfa6-9984c3222dd1","ios":"levelo://app?vid=90a3742a-b6b1-431b-bfa6-9984c3222dd1"},"vehicle_type_id":"4","last_reported":1704200937,"current_range_meters":26000,"station_id":"ce4bhr92rcd13ifvqhsg","pricing_plan_id":"free"},{"bike_id":"1860c054-e673-4084-804e-8832a59aeb53","system_id":"levelo_inurba_marseille","lat":43.33727,"lon":5.3918,"is_reserved":false,"is_disabled":false,"rental_uris":{"android":"levelo://app?vid=1860c054-e673-4084-804e-8832a59aeb53","ios":"levelo://app?vid=1860c054-e673-4084-804e-8832a59aeb53"},"vehicle_type_id":"4","last_reported":1704200937,"current_range_meters":23600,"station_id":"ce4bhr92rcd13ifvqhsg","pricing_plan_id":"free"},{"bike_id":"8f0d1885-8e94-43c5-b1f4-471a070a091a","system_id":"levelo_inurba_marseille","lat":43.284793,"lon":5.384113,"is_reserved":false,"is_disabled":false,"rental_uris":{"android":"levelo://app?vid=8f0d1885-8e94-43c5-b1f4-471a070a091a","ios":"levelo://app?vid=8f0d1885-8e94-43c5-b1f4-471a070a091a"},"vehicle_type_id":"4","last_reported":1704200937,"current_range_meters":30000,"station_id":"ce4bh512rcd13ifvqe3g","pricing_plan_id":"free"},{"bike_id":"d3837f57-b992-4c84-a0a7-b545d2582111","system_id":"levelo_inurba_marseille","lat":43.323464,"lon":5.406297,"is_reserved":false,"is_disabled":false,"rental_uris":{"android":"levelo://app?vid=d3837f57-b992-4c84-a0a7-b545d2582111","ios":"levelo://app?vid=d3837f57-b992-4c84-a0a7-b545d2582111"},"vehicle_type_id":"4","last_reported":1704200937,"current_range_meters":29600,"station_id":"ce4bhq92rcd13ifvqhjg","pricing_plan_id":"free"},{"bike_id":"8af6642b-e526-4770-8a06-6b115e68c32b","system_id":"levelo_inurba_marseille","lat":43.33726,"lon":5.39185,"is_reserved":false,"is_disabled":false,"rental_uris":{"android":"levelo://app?vid=8af6642b-e526-4770-8a06-6b115e68c32b","ios":"levelo://app?vid=8af6642b-e526-4770-8a06-6b115e68c32b"},"vehicle_type_id":"4","last_reported":1704200937,"current_range_meters":20800,"station_id":"ce4bhr92rcd13ifvqhsg","pricing_plan_id":"free"},{"bike_id":"279c24e1-5891-4e70-a317-d0f5cce47927","system_id":"levelo_inurba_marseille","lat":43.323464,"lon":5.406297,"is_reserved":false,"is_disabled":false,"rental_uris":{"android":"levelo://app?vid=279c24e1-5891-4e70-a317-d0f5cce47927","ios":"levelo://app?vid=279c24e1-5891-4e70-a317-d0f5cce47927"},"vehicle_type_id":"4","last_reported":1704200937,"current_range_meters":28800,"station_id":"ce4bhq92rcd13ifvqhjg","pricing_plan_id":"free"},{"bike_id":"8fb1d5a0-44c4-4471-8b5a-1bd85ca574bd","system_id":"levelo_inurba_marseille","lat":43.284793,"lon":5.384113,"is_reserved":false,"is_disabled":false,"rental_uris":{"android":"levelo://app?vid=8fb1d5a0-44c4-4471-8b5a-1bd85ca574bd","ios":"levelo://app?vid=8fb1d5a0-44c4-4471-8b5a-1bd85ca574bd"},"vehicle_type_id":"4","last_reported":1704200937,"current_range_meters":23600,"station_id":"ce4bh512rcd13ifvqe3g","pricing_plan_id":"free"},{"bike_id":"92d78a7c-b424-44f9-ab71-8df498ab2a95","system_id":"levelo_inurba_marseille","lat":43.284793,"lon":5.384119,"is_reserved":false,"is_disabled":false,"rental_uris":{"android":"levelo://app?vid=92d78a7c-b424-44f9-ab71-8df498ab2a95","ios":"levelo://app?vid=92d78a7c-b424-44f9-ab71-8df498ab2a95"},"vehicle_type_id":"4","last_reported":1704200937,"current_range_meters":10800,"station_id":"ce4bh512rcd13ifvqe3g","pricing_plan_id":"free"},{"bike_id":"d8e3b223-cd43-4438-b882-79e07c77287a","system_id":"levelo_inurba_marseille","lat":43.284793,"lon":5.384119,"is_reserved":false,"is_disabled":false,"rental_uris":{"android":"levelo://app?vid=d8e3b223-cd43-4438-b882-79e07c77287a","ios":"levelo://app?vid=d8e3b223-cd43-4438-b882-79e07c77287a"},"vehicle_type_id":"4","last_reported":1704200937,"current_range_meters":24400,"station_id":"ce4bh512rcd13ifvqe3g","pricing_plan_id":"free"},{"bike_id":"ee5d5ab8-3a03-452f-ad45-05d947472897","system_id":"levelo_inurba_marseille","lat":43.288501,"lon":5.393087,"is_reserved":false,"is_disabled":false,"rental_uris":{"android":"levelo://app?vid=ee5d5ab8-3a03-452f-ad45-05d947472897","ios":"levelo://app?vid=ee5d5ab8-3a03-452f-ad45-05d947472897"},"vehicle_type_id":"4","last_reported":1704200937,"current_range_meters":25200,"station_id":"ce4bh2p2rcd13ifvqdi0","pricing_plan_id":"free"},{"bike_id":"21080396-864c-439d-883c-a3baed753ad0","system_id":"levelo_inurba_marseille","lat":43.284219,"lon":5.3497,"is_reserved":false,"is_disabled":false,"rental_uris":{"android":"levelo://app?vid=21080396-864c-439d-883c-a3baed753ad0","ios":"levelo://app?vid=21080396-864c-439d-883c-a3baed753ad0"},"vehicle_type_id":"4","last_reported":1704200937,"current_range_meters":30000,"station_id":"ce4bhbh2rcd13ifvqepg","pricing_plan_id":"free"},{"bike_id":"2f1b45be-d3a1-42a4-a736-b56379149f9a","system_id":"levelo_inurba_marseille","lat":43.284219,"lon":5.3497,"is_reserved":false,"is_disabled":false,"rental_uris":{"android":"levelo://app?vid=2f1b45be-d3a1-42a4-a736-b56379149f9a","ios":"levelo://app?vid=2f1b45be-d3a1-42a4-a736-b56379149f9a"},"vehicle_type_id":"4","last_reported":1704200937,"current_range_meters":27200,"station_id":"ce4bhbh2rcd13ifvqepg","pricing_plan_id":"free"},{"bike_id":"25fbc4e7-27e4-4584-8af5-fc326a9197a2","system_id":"levelo_inurba_marseille","lat":43.284793,"lon":5.384119,"is_reserved":false,"is_disabled":false,"rental_uris":{"android":"levelo://app?vid=25fbc4e7-27e4-4584-8af5-fc326a9197a2","ios":"levelo://app?vid=25fbc4e7-27e4-4584-8af5-fc326a9197a2"},"vehicle_type_id":"4","last_reported":1704200937,"current_range_meters":24800,"station_id":"ce4bh512rcd13ifvqe3g","pricing_plan_id":"free"},{"bike_id":"718f7772-abd8-4936-9519-f8d4f6d57a67","system_id":"levelo_inurba_marseille","lat":43.292724,"lon":5.401131,"is_reserved":false,"is_disabled":false,"rental_uris":{"android":"levelo://app?vid=718f7772-abd8-4936-9519-f8d4f6d57a67","ios":"levelo://app?vid=718f7772-abd8-4936-9519-f8d4f6d57a67"},"vehicle_type_id":"4","last_reported":1704200937,"current_range_meters":16400,"station_id":"ce4bh312rcd13ifvqdk0","pricing_plan_id":"free"},{"bike_id":"27584b5e-86e3-4c9e-8146-872488fdf2cc","system_id":"levelo_inurba_marseille","lat":43.292724,"lon":5.401131,"is_reserved":false,"is_disabled":false,"rental_uris":{"android":"levelo://app?vid=27584b5e-86e3-4c9e-8146-872488fdf2cc","ios":"levelo://app?vid=27584b5e-86e3-4c9e-8146-872488fdf2cc"},"vehicle_type_id":"4","last_reported":1704200937,"current_range_meters":14400,"station_id":"ce4bh312rcd13ifvqdk0","pricing_plan_id":"free"},{"bike_id":"f76460b9-0f49-422b-87b3-1456557c16fa","system_id":"levelo_inurba_marseille","lat":43.292724,"lon":5.401131,"is_reserved":false,"is_disabled":false,"rental_uris":{"android":"levelo://app?vid=f76460b9-0f49-422b-87b3-1456557c16fa","ios":"levelo://app?vid=f76460b9-0f49-422b-87b3-1456557c16fa"},"vehicle_type_id":"4","last_reported":1704200937,"current_range_meters":25600,"station_id":"ce4bh312rcd13ifvqdk0","pricing_plan_id":"free"},{"bike_id":"e1a71a1e-f882-4b50-b7eb-58559752d9f2","system_id":"levelo_inurba_marseille","lat":43.292724,"lon":5.401131,"is_reserved":false,"is_disabled":false,"rental_uris":{"android":"levelo://app?vid=e1a71a1e-f882-4b50-b7eb-58559752d9f2","ios":"levelo://app?vid=e1a71a1e-f882-4b50-b7eb-58559752d9f2"},"vehicle_type_id":"4","last_reported":1704200937,"current_range_meters":26400,"station_id":"ce4bh312rcd13ifvqdk0","pricing_plan_id":"free"},{"bike_id":"29446e7f-0f80-4b15-a652-c0054ad61d1d","system_id":"levelo_inurba_marseille","lat":43.282754,"lon":5.350519,"is_reserved":false,"is_disabled":false,"rental_uris":{"android":"levelo://app?vid=29446e7f-0f80-4b15-a652-c0054ad61d1d","ios":"levelo://app?vid=29446e7f-0f80-4b15-a652-c0054ad61d1d"},"vehicle_type_id":"4","last_reported":1704200937,"current_range_meters":28800,"station_id":"ce4bhbp2rcd13ifvqerg","pricing_plan_id":"free"},{"bike_id":"a2da659e-94fb-4802-956e-e87074b79efa","system_id":"levelo_inurba_marseille","lat":43.283502,"lon":5.386471,"is_reserved":false,"is_disabled":false,"rental_uris":{"android":"levelo://app?vid=a2da659e-94fb-4802-956e-e87074b79efa","ios":"levelo://app?vid=a2da659e-94fb-4802-956e-e87074b79efa"},"vehicle_type_id":"4","last_reported":1704200937,"current_range_meters":0,"station_id":"ce4bh492rcd13ifvqdvg","pricing_plan_id":"free"},{"bike_id":"72020ce3-0b3e-4d02-acf0-7c5679eab842","system_id":"levelo_inurba_marseille","lat":43.282754,"lon":5.350519,"is_reserved":false,"is_disabled":false,"rental_uris":{"android":"levelo://app?vid=72020ce3-0b3e-4d02-acf0-7c5679eab842","ios":"levelo://app?vid=72020ce3-0b3e-4d02-acf0-7c5679eab842"},"vehicle_type_id":"4","last_reported":1704200937,"current_range_meters":18800,"station_id":"ce4bhbp2rcd13ifvqerg","pricing_plan_id":"free"},{"bike_id":"dd6c19b3-4989-43b9-a5c0-3b6740da86bb","system_id":"levelo_inurba_marseille","lat":43.280382,"lon":5.369291,"is_reserved":false,"is_disabled":false,"rental_uris":{"android":"levelo://app?vid=dd6c19b3-4989-43b9-a5c0-3b6740da86bb","ios":"levelo://app?vid=dd6c19b3-4989-43b9-a5c0-3b6740da86bb"},"vehicle_type_id":"4","last_reported":1704200937,"current_range_meters":22400,"station_id":"ce4bha12rcd13ifvqef0","pricing_plan_id":"free"},{"bike_id":"b7cb68cc-956b-4d94-95e3-9edde036a4db","system_id":"levelo_inurba_marseille","lat":43.28039,"lon":5.369297,"is_reserved":false,"is_disabled":false,"rental_uris":{"android":"levelo://app?vid=b7cb68cc-956b-4d94-95e3-9edde036a4db","ios":"levelo://app?vid=b7cb68cc-956b-4d94-95e3-9edde036a4db"},"vehicle_type_id":"4","last_reported":1704200937,"current_range_meters":25600,"station_id":"ce4bha12rcd13ifvqef0","pricing_plan_id":"free"},{"bike_id":"d982fa1e-213f-4ae1-9ff9-8c3f459d07c3","system_id":"levelo_inurba_marseille","lat":43.280382,"lon":5.369291,"is_reserved":false,"is_disabled":false,"rental_uris":{"android":"levelo://app?vid=d982fa1e-213f-4ae1-9ff9-8c3f459d07c3","ios":"levelo://app?vid=d982fa1e-213f-4ae1-9ff9-8c3f459d07c3"},"vehicle_type_id":"4","last_reported":1704200937,"current_range_meters":24000,"station_id":"ce4bha12rcd13ifvqef0","pricing_plan_id":"free"},{"bike_id":"a9b4875a-066f-4c9c-8c01-b55bd2ed06be","system_id":"levelo_inurba_marseille","lat":43.283502,"lon":5.386471,"is_reserved":false,"is_disabled":false,"rental_uris":{"android":"levelo://app?vid=a9b4875a-066f-4c9c-8c01-b55bd2ed06be","ios":"levelo://app?vid=a9b4875a-066f-4c9c-8c01-b55bd2ed06be"},"vehicle_type_id":"4","last_reported":1704200937,"current_range_meters":26400,"station_id":"ce4bh492rcd13ifvqdvg","pricing_plan_id":"free"},{"bike_id":"0e0666f8-4afd-4f6f-bdb8-d749b2fe6f8b","system_id":"levelo_inurba_marseille","lat":43.281044,"lon":5.378308,"is_reserved":false,"is_disabled":false,"rental_uris":{"android":"levelo://app?vid=0e0666f8-4afd-4f6f-bdb8-d749b2fe6f8b","ios":"levelo://app?vid=0e0666f8-4afd-4f6f-bdb8-d749b2fe6f8b"},"vehicle_type_id":"4","last_reported":1704200937,"current_range_meters":30400,"station_id":"ce4bha12rcd13ifvqee0","pricing_plan_id":"free"},{"bike_id":"170e22b9-423a-47cf-8330-c80ab4abc807","system_id":"levelo_inurba_marseille","lat":43.290327,"lon":5.375711,"is_reserved":false,"is_disabled":false,"rental_uris":{"android":"levelo://app?vid=170e22b9-423a-47cf-8330-c80ab4abc807","ios":"levelo://app?vid=170e22b9-423a-47cf-8330-c80ab4abc807"},"vehicle_type_id":"4","last_reported":1704200937,"current_range_meters":21200,"station_id":"ce4bh692rcd13ifvqe90","pricing_plan_id":"free"},{"bike_id":"18abf038-18a2-470e-bcd5-cdc7b4fa5511","system_id":"levelo_inurba_marseille","lat":43.284462,"lon":5.392121,"is_reserved":false,"is_disabled":false,"rental_uris":{"android":"levelo://app?vid=18abf038-18a2-470e-bcd5-cdc7b4fa5511","ios":"levelo://app?vid=18abf038-18a2-470e-bcd5-cdc7b4fa5511"},"vehicle_type_id":"4","last_reported":1704200937,"current_range_meters":20400,"station_id":"ce4bhoh2rcd13ifvqh5g","pricing_plan_id":"free"},{"bike_id":"63ef493a-db4b-4496-ad1b-ba396f3c1336","system_id":"levelo_inurba_marseille","lat":43.336134,"lon":5.410341,"is_reserved":false,"is_disabled":false,"rental_uris":{"android":"levelo://app?vid=63ef493a-db4b-4496-ad1b-ba396f3c1336","ios":"levelo://app?vid=63ef493a-db4b-4496-ad1b-ba396f3c1336"},"vehicle_type_id":"4","last_reported":1704200937,"current_range_meters":27200,"station_id":"ce4bhqh2rcd13ifvqhmg","pricing_plan_id":"free"},{"bike_id":"b2d47e27-8ad4-40f8-94a5-51558d9c1ca6","system_id":"levelo_inurba_marseille","lat":43.30415,"lon":5.41283,"is_reserved":false,"is_disabled":false,"rental_uris":{"android":"levelo://app?vid=b2d47e27-8ad4-40f8-94a5-51558d9c1ca6","ios":"levelo://app?vid=b2d47e27-8ad4-40f8-94a5-51558d9c1ca6"},"vehicle_type_id":"4","last_reported":1704200937,"current_range_meters":24000,"station_id":"ce4bhop2rcd13ifvqh8g","pricing_plan_id":"free"},{"bike_id":"fcf5eff5-55a0-4afa-9285-6bf588544984","system_id":"levelo_inurba_marseille","lat":43.304188,"lon":5.412904,"is_reserved":false,"is_disabled":false,"rental_uris":{"android":"levelo://app?vid=fcf5eff5-55a0-4afa-9285-6bf588544984","ios":"levelo://app?vid=fcf5eff5-55a0-4afa-9285-6bf588544984"},"vehicle_type_id":"4","last_reported":1704200937,"current_range_meters":6000,"station_id":"ce4bhop2rcd13ifvqh8g","pricing_plan_id":"free"},{"bike_id":"8571ddf1-8157-46ba-b747-ea46713afd05","system_id":"levelo_inurba_marseille","lat":43.292809,"lon":5.406531,"is_reserved":false,"is_disabled":false,"rental_uris":{"android":"levelo://app?vid=8571ddf1-8157-46ba-b747-ea46713afd05","ios":"levelo://app?vid=8571ddf1-8157-46ba-b747-ea46713afd05"},"vehicle_type_id":"4","last_reported":1704200937,"current_range_meters":0,"station_id":"","pricing_plan_id":"free"},{"bike_id":"9f6b12c3-ec03-42b9-b927-e710b2cfcf63","system_id":"levelo_inurba_marseille","lat":43.279087,"lon":5.380114,"is_reserved":false,"is_disabled":false,"rental_uris":{"android":"levelo://app?vid=9f6b12c3-ec03-42b9-b927-e710b2cfcf63","ios":"levelo://app?vid=9f6b12c3-ec03-42b9-b927-e710b2cfcf63"},"vehicle_type_id":"4","last_reported":1704200937,"current_range_meters":23200,"station_id":"ce4bhf92rcd13ifvqf50","pricing_plan_id":"free"},{"bike_id":"2228fc57-9858-4817-badf-f0bd1a9f3edc","system_id":"levelo_inurba_marseille","lat":43.287154,"lon":5.399979,"is_reserved":false,"is_disabled":false,"rental_uris":{"android":"levelo://app?vid=2228fc57-9858-4817-badf-f0bd1a9f3edc","ios":"levelo://app?vid=2228fc57-9858-4817-badf-f0bd1a9f3edc"},"vehicle_type_id":"4","last_reported":1704200937,"current_range_meters":30000,"station_id":"ce4bho92rcd13ifvqh3g","pricing_plan_id":"free"},{"bike_id":"e5adf89a-10ee-4e07-b9b2-4771808f9929","system_id":"levelo_inurba_marseille","lat":43.287154,"lon":5.399979,"is_reserved":false,"is_disabled":false,"rental_uris":{"android":"levelo://app?vid=e5adf89a-10ee-4e07-b9b2-4771808f9929","ios":"levelo://app?vid=e5adf89a-10ee-4e07-b9b2-4771808f9929"},"vehicle_type_id":"4","last_reported":1704200937,"current_range_meters":30400,"station_id":"ce4bho92rcd13ifvqh3g","pricing_plan_id":"free"},{"bike_id":"86a1090c-51c1-4ad1-92df-162a1b954542","system_id":"levelo_inurba_marseille","lat":43.287154,"lon":5.399979,"is_reserved":false,"is_disabled":false,"rental_uris":{"android":"levelo://app?vid=86a1090c-51c1-4ad1-92df-162a1b954542","ios":"levelo://app?vid=86a1090c-51c1-4ad1-92df-162a1b954542"},"vehicle_type_id":"4","last_reported":1704200937,"current_range_meters":21200,"station_id":"ce4bho92rcd13ifvqh3g","pricing_plan_id":"free"},{"bike_id":"0a8c0b6b-b2bf-4ac4-958a-7719388e2d65","system_id":"levelo_inurba_marseille","lat":43.287154,"lon":5.399979,"is_reserved":false,"is_disabled":false,"rental_uris":{"android":"levelo://app?vid=0a8c0b6b-b2bf-4ac4-958a-7719388e2d65","ios":"levelo://app?vid=0a8c0b6b-b2bf-4ac4-958a-7719388e2d65"},"vehicle_type_id":"4","last_reported":1704200937,"current_range_meters":24000,"station_id":"ce4bho92rcd13ifvqh3g","pricing_plan_id":"free"},{"bike_id":"45120a21-f343-45ce-8fb6-e06904f75898","system_id":"levelo_inurba_marseille","lat":43.320045,"lon":5.415046,"is_reserved":false,"is_disabled":false,"rental_uris":{"android":"levelo://app?vid=45120a21-f343-45ce-8fb6-e06904f75898","ios":"levelo://app?vid=45120a21-f343-45ce-8fb6-e06904f75898"},"vehicle_type_id":"4","last_reported":1704200937,"current_range_meters":31200,"station_id":"ce4bhq92rcd13ifvqhkg","pricing_plan_id":"free"},{"bike_id":"4d851b7e-80bc-4134-999e-6ad252d98fa1","system_id":"levelo_inurba_marseille","lat":43.320045,"lon":5.415046,"is_reserved":false,"is_disabled":false,"rental_uris":{"android":"levelo://app?vid=4d851b7e-80bc-4134-999e-6ad252d98fa1","ios":"levelo://app?vid=4d851b7e-80bc-4134-999e-6ad252d98fa1"},"vehicle_type_id":"4","last_reported":1704200937,"current_range_meters":26000,"station_id":"ce4bhq92rcd13ifvqhkg","pricing_plan_id":"free"},{"bike_id":"e9e342a5-71f4-448a-a0e1-6ff4791eca67","system_id":"levelo_inurba_marseille","lat":43.320045,"lon":5.415046,"is_reserved":false,"is_disabled":false,"rental_uris":{"android":"levelo://app?vid=e9e342a5-71f4-448a-a0e1-6ff4791eca67","ios":"levelo://app?vid=e9e342a5-71f4-448a-a0e1-6ff4791eca67"},"vehicle_type_id":"4","last_reported":1704200937,"current_range_meters":31200,"station_id":"ce4bhq92rcd13ifvqhkg","pricing_plan_id":"free"},{"bike_id":"a7cf208f-b7fd-4e71-8fb4-8deac05f1f46","system_id":"levelo_inurba_marseille","lat":43.27618,"lon":5.361009,"is_reserved":false,"is_disabled":false,"rental_uris":{"android":"levelo://app?vid=a7cf208f-b7fd-4e71-8fb4-8deac05f1f46","ios":"levelo://app?vid=a7cf208f-b7fd-4e71-8fb4-8deac05f1f46"},"vehicle_type_id":"4","last_reported":1704200937,"current_range_meters":20400,"station_id":"ce4bgj92rcd13ifvqbe0","pricing_plan_id":"free"},{"bike_id":"493c529d-4816-4d54-82ca-cf1d3517820d","system_id":"levelo_inurba_marseille","lat":43.325233,"lon":5.414318,"is_reserved":false,"is_disabled":false,"rental_uris":{"android":"levelo://app?vid=493c529d-4816-4d54-82ca-cf1d3517820d","ios":"levelo://app?vid=493c529d-4816-4d54-82ca-cf1d3517820d"},"vehicle_type_id":"4","last_reported":1704200937,"current_range_meters":27600,"station_id":"ce4bhq12rcd13ifvqhhg","pricing_plan_id":"free"},{"bike_id":"93965c1d-cbd8-4a4c-953d-b0143e662572","system_id":"levelo_inurba_marseille","lat":43.303837,"lon":5.418724,"is_reserved":false,"is_disabled":false,"rental_uris":{"android":"levelo://app?vid=93965c1d-cbd8-4a4c-953d-b0143e662572","ios":"levelo://app?vid=93965c1d-cbd8-4a4c-953d-b0143e662572"},"vehicle_type_id":"4","last_reported":1704200937,"current_range_meters":29200,"station_id":"ce4bhop2rcd13ifvqh7g","pricing_plan_id":"free"},{"bike_id":"871a60ad-61c0-4b59-b5e9-63664679ac37","system_id":"levelo_inurba_marseille","lat":43.275625,"lon":5.384392,"is_reserved":false,"is_disabled":false,"rental_uris":{"android":"levelo://app?vid=871a60ad-61c0-4b59-b5e9-63664679ac37","ios":"levelo://app?vid=871a60ad-61c0-4b59-b5e9-63664679ac37"},"vehicle_type_id":"4","last_reported":1704200937,"current_range_meters":21200,"station_id":"ce4bhh92rcd13ifvqfi0","pricing_plan_id":"free"},{"bike_id":"ef338d34-20cf-4692-9e0b-7743ead983c5","system_id":"levelo_inurba_marseille","lat":43.275625,"lon":5.384392,"is_reserved":false,"is_disabled":false,"rental_uris":{"android":"levelo://app?vid=ef338d34-20cf-4692-9e0b-7743ead983c5","ios":"levelo://app?vid=ef338d34-20cf-4692-9e0b-7743ead983c5"},"vehicle_type_id":"4","last_reported":1704200937,"current_range_meters":24400,"station_id":"ce4bhh92rcd13ifvqfi0","pricing_plan_id":"free"},{"bike_id":"a444d6e2-8b2f-4c06-a832-f8458cd681a6","system_id":"levelo_inurba_marseille","lat":43.336134,"lon":5.410341,"is_reserved":false,"is_disabled":false,"rental_uris":{"android":"levelo://app?vid=a444d6e2-8b2f-4c06-a832-f8458cd681a6","ios":"levelo://app?vid=a444d6e2-8b2f-4c06-a832-f8458cd681a6"},"vehicle_type_id":"4","last_reported":1704200937,"current_range_meters":27600,"station_id":"ce4bhqh2rcd13ifvqhmg","pricing_plan_id":"free"},{"bike_id":"d1ef7d6e-2c99-46ac-b2f0-33e2df63ea24","system_id":"levelo_inurba_marseille","lat":43.279952,"lon":5.400085,"is_reserved":false,"is_disabled":false,"rental_uris":{"android":"levelo://app?vid=d1ef7d6e-2c99-46ac-b2f0-33e2df63ea24","ios":"levelo://app?vid=d1ef7d6e-2c99-46ac-b2f0-33e2df63ea24"},"vehicle_type_id":"4","last_reported":1704200937,"current_range_meters":26000,"station_id":"ce4bho92rcd13ifvqh4g","pricing_plan_id":"free"},{"bike_id":"de94017f-fc76-4513-8ec3-61c630ceb6c6","system_id":"levelo_inurba_marseille","lat":43.27998,"lon":5.40013,"is_reserved":false,"is_disabled":false,"rental_uris":{"android":"levelo://app?vid=de94017f-fc76-4513-8ec3-61c630ceb6c6","ios":"levelo://app?vid=de94017f-fc76-4513-8ec3-61c630ceb6c6"},"vehicle_type_id":"4","last_reported":1704200937,"current_range_meters":22000,"station_id":"ce4bho92rcd13ifvqh4g","pricing_plan_id":"free"},{"bike_id":"b2e64161-bed0-442d-9e12-361d365ea82c","system_id":"levelo_inurba_marseille","lat":43.279952,"lon":5.400085,"is_reserved":false,"is_disabled":false,"rental_uris":{"android":"levelo://app?vid=b2e64161-bed0-442d-9e12-361d365ea82c","ios":"levelo://app?vid=b2e64161-bed0-442d-9e12-361d365ea82c"},"vehicle_type_id":"4","last_reported":1704200937,"current_range_meters":31200,"station_id":"ce4bho92rcd13ifvqh4g","pricing_plan_id":"free"},{"bike_id":"40a6490a-7a82-4760-aa4e-e343f1aa848b","system_id":"levelo_inurba_marseille","lat":43.279952,"lon":5.400085,"is_reserved":false,"is_disabled":false,"rental_uris":{"android":"levelo://app?vid=40a6490a-7a82-4760-aa4e-e343f1aa848b","ios":"levelo://app?vid=40a6490a-7a82-4760-aa4e-e343f1aa848b"},"vehicle_type_id":"4","last_reported":1704200937,"current_range_meters":8000,"station_id":"ce4bho92rcd13ifvqh4g","pricing_plan_id":"free"},{"bike_id":"4760841b-4fd7-4b7d-aef3-782de75b0909","system_id":"levelo_inurba_marseille","lat":43.317121,"lon":5.423936,"is_reserved":false,"is_disabled":false,"rental_uris":{"android":"levelo://app?vid=4760841b-4fd7-4b7d-aef3-782de75b0909","ios":"levelo://app?vid=4760841b-4fd7-4b7d-aef3-782de75b0909"},"vehicle_type_id":"4","last_reported":1704200937,"current_range_meters":22000,"station_id":"ce4bhp92rcd13ifvqhbg","pricing_plan_id":"free"},{"bike_id":"5e3452d0-bbc8-463b-8852-ec98e809d5a0","system_id":"levelo_inurba_marseille","lat":43.317121,"lon":5.423936,"is_reserved":false,"is_disabled":false,"rental_uris":{"android":"levelo://app?vid=5e3452d0-bbc8-463b-8852-ec98e809d5a0","ios":"levelo://app?vid=5e3452d0-bbc8-463b-8852-ec98e809d5a0"},"vehicle_type_id":"4","last_reported":1704200937,"current_range_meters":31600,"station_id":"ce4bhp92rcd13ifvqhbg","pricing_plan_id":"free"},{"bike_id":"f3e351f0-7ca3-497e-a450-69da3118abd7","system_id":"levelo_inurba_marseille","lat":43.31723,"lon":5.42406,"is_reserved":false,"is_disabled":false,"rental_uris":{"android":"levelo://app?vid=f3e351f0-7ca3-497e-a450-69da3118abd7","ios":"levelo://app?vid=f3e351f0-7ca3-497e-a450-69da3118abd7"},"vehicle_type_id":"4","last_reported":1704200937,"current_range_meters":24800,"station_id":"ce4bhp92rcd13ifvqhbg","pricing_plan_id":"free"},{"bike_id":"e2340435-a767-4a07-9db0-637fd4bce462","system_id":"levelo_inurba_marseille","lat":43.317121,"lon":5.423936,"is_reserved":false,"is_disabled":false,"rental_uris":{"android":"levelo://app?vid=e2340435-a767-4a07-9db0-637fd4bce462","ios":"levelo://app?vid=e2340435-a767-4a07-9db0-637fd4bce462"},"vehicle_type_id":"4","last_reported":1704200937,"current_range_meters":10000,"station_id":"ce4bhp92rcd13ifvqhbg","pricing_plan_id":"free"},{"bike_id":"47f8cb60-186e-4e83-96aa-050d47af2974","system_id":"levelo_inurba_marseille","lat":43.34137,"lon":5.409077,"is_reserved":false,"is_disabled":false,"rental_uris":{"android":"levelo://app?vid=47f8cb60-186e-4e83-96aa-050d47af2974","ios":"levelo://app?vid=47f8cb60-186e-4e83-96aa-050d47af2974"},"vehicle_type_id":"4","last_reported":1704200937,"current_range_meters":12400,"station_id":"ce4bhqh2rcd13ifvqhlg","pricing_plan_id":"free"},{"bike_id":"d7a0f436-4a10-430d-9dfa-fb613b9a9e9c","system_id":"levelo_inurba_marseille","lat":43.340804,"lon":5.410219,"is_reserved":false,"is_disabled":false,"rental_uris":{"android":"levelo://app?vid=d7a0f436-4a10-430d-9dfa-fb613b9a9e9c","ios":"levelo://app?vid=d7a0f436-4a10-430d-9dfa-fb613b9a9e9c"},"vehicle_type_id":"4","last_reported":1704200937,"current_range_meters":20000,"station_id":"ce4bhqh2rcd13ifvqhlg","pricing_plan_id":"free"},{"bike_id":"42a7ee8f-93ad-4514-96a8-cddbff567668","system_id":"levelo_inurba_marseille","lat":43.273125,"lon":5.390731,"is_reserved":false,"is_disabled":false,"rental_uris":{"android":"levelo://app?vid=42a7ee8f-93ad-4514-96a8-cddbff567668","ios":"levelo://app?vid=42a7ee8f-93ad-4514-96a8-cddbff567668"},"vehicle_type_id":"4","last_reported":1704200937,"current_range_meters":21600,"station_id":"ce4bhgp2rcd13ifvqfe0","pricing_plan_id":"free"},{"bike_id":"d6f95a70-c9ed-433f-92b8-5e4ba4dca2e4","system_id":"levelo_inurba_marseille","lat":43.274099,"lon":5.394019,"is_reserved":false,"is_disabled":false,"rental_uris":{"android":"levelo://app?vid=d6f95a70-c9ed-433f-92b8-5e4ba4dca2e4","ios":"levelo://app?vid=d6f95a70-c9ed-433f-92b8-5e4ba4dca2e4"},"vehicle_type_id":"4","last_reported":1704200937,"current_range_meters":31200,"station_id":"ce4bhdp2rcd13ifvqf20","pricing_plan_id":"free"},{"bike_id":"63ffe5be-fdc6-454d-8bdc-d4e9ccf37b71","system_id":"levelo_inurba_marseille","lat":43.27428,"lon":5.39418,"is_reserved":false,"is_disabled":false,"rental_uris":{"android":"levelo://app?vid=63ffe5be-fdc6-454d-8bdc-d4e9ccf37b71","ios":"levelo://app?vid=63ffe5be-fdc6-454d-8bdc-d4e9ccf37b71"},"vehicle_type_id":"4","last_reported":1704200937,"current_range_meters":12000,"station_id":"ce4bhdp2rcd13ifvqf20","pricing_plan_id":"free"},{"bike_id":"943bcc48-e632-4273-b6e8-5dbbdadd3d07","system_id":"levelo_inurba_marseille","lat":43.304096,"lon":5.425385,"is_reserved":false,"is_disabled":false,"rental_uris":{"android":"levelo://app?vid=943bcc48-e632-4273-b6e8-5dbbdadd3d07","ios":"levelo://app?vid=943bcc48-e632-4273-b6e8-5dbbdadd3d07"},"vehicle_type_id":"4","last_reported":1704200937,"current_range_meters":15600,"station_id":"ce4bhoh2rcd13ifvqh6g","pricing_plan_id":"free"},{"bike_id":"d97f32bb-ebf7-4775-aba0-4259227bf342","system_id":"levelo_inurba_marseille","lat":43.295523,"lon":5.422926,"is_reserved":false,"is_disabled":false,"rental_uris":{"android":"levelo://app?vid=d97f32bb-ebf7-4775-aba0-4259227bf342","ios":"levelo://app?vid=d97f32bb-ebf7-4775-aba0-4259227bf342"},"vehicle_type_id":"4","last_reported":1704200937,"current_range_meters":30000,"station_id":"ce4bhph2rcd13ifvqhdg","pricing_plan_id":"free"},{"bike_id":"288f3a9b-f397-4746-a7c2-b80cd53e2e13","system_id":"levelo_inurba_marseille","lat":43.272116,"lon":5.391747,"is_reserved":false,"is_disabled":false,"rental_uris":{"android":"levelo://app?vid=288f3a9b-f397-4746-a7c2-b80cd53e2e13","ios":"levelo://app?vid=288f3a9b-f397-4746-a7c2-b80cd53e2e13"},"vehicle_type_id":"4","last_reported":1704200937,"current_range_meters":9600,"station_id":"ce4bhhp2rcd13ifvqfm0","pricing_plan_id":"free"},{"bike_id":"2e74240c-c9f6-4a2f-acb0-3bcc4ca24e5d","system_id":"levelo_inurba_marseille","lat":43.278128,"lon":5.407195,"is_reserved":false,"is_disabled":false,"rental_uris":{"android":"levelo://app?vid=2e74240c-c9f6-4a2f-acb0-3bcc4ca24e5d","ios":"levelo://app?vid=2e74240c-c9f6-4a2f-acb0-3bcc4ca24e5d"},"vehicle_type_id":"4","last_reported":1704200937,"current_range_meters":27600,"station_id":"ce4bhnh2rcd13ifvqgtg","pricing_plan_id":"free"},{"bike_id":"349db091-1618-4c17-b4ab-2f8a15c21560","system_id":"levelo_inurba_marseille","lat":43.269467,"lon":5.386439,"is_reserved":false,"is_disabled":false,"rental_uris":{"android":"levelo://app?vid=349db091-1618-4c17-b4ab-2f8a15c21560","ios":"levelo://app?vid=349db091-1618-4c17-b4ab-2f8a15c21560"},"vehicle_type_id":"4","last_reported":1704200937,"current_range_meters":18000,"station_id":"ce4bhh92rcd13ifvqfh0","pricing_plan_id":"free"},{"bike_id":"425f9578-de78-4e61-bdf4-7cfac3cad89a","system_id":"levelo_inurba_marseille","lat":43.279465,"lon":5.410561,"is_reserved":false,"is_disabled":false,"rental_uris":{"android":"levelo://app?vid=425f9578-de78-4e61-bdf4-7cfac3cad89a","ios":"levelo://app?vid=425f9578-de78-4e61-bdf4-7cfac3cad89a"},"vehicle_type_id":"4","last_reported":1704200937,"current_range_meters":21200,"station_id":"ce4bhnp2rcd13ifvqh0g","pricing_plan_id":"free"},{"bike_id":"c76e9561-9dd7-4271-b9f0-31dea395083a","system_id":"levelo_inurba_marseille","lat":43.279465,"lon":5.410561,"is_reserved":false,"is_disabled":false,"rental_uris":{"android":"levelo://app?vid=c76e9561-9dd7-4271-b9f0-31dea395083a","ios":"levelo://app?vid=c76e9561-9dd7-4271-b9f0-31dea395083a"},"vehicle_type_id":"4","last_reported":1704200937,"current_range_meters":21200,"station_id":"ce4bhnp2rcd13ifvqh0g","pricing_plan_id":"free"},{"bike_id":"7e432e9d-55d3-4fba-822f-e80ea86465d8","system_id":"levelo_inurba_marseille","lat":43.269319,"lon":5.389397,"is_reserved":false,"is_disabled":false,"rental_uris":{"android":"levelo://app?vid=7e432e9d-55d3-4fba-822f-e80ea86465d8","ios":"levelo://app?vid=7e432e9d-55d3-4fba-822f-e80ea86465d8"},"vehicle_type_id":"4","last_reported":1704200937,"current_range_meters":25600,"station_id":"ce4bhhh2rcd13ifvqfl0","pricing_plan_id":"free"},{"bike_id":"5c3ff558-bdff-4a53-a387-7ee7228a9144","system_id":"levelo_inurba_marseille","lat":43.26681,"lon":5.382694,"is_reserved":false,"is_disabled":false,"rental_uris":{"android":"levelo://app?vid=5c3ff558-bdff-4a53-a387-7ee7228a9144","ios":"levelo://app?vid=5c3ff558-bdff-4a53-a387-7ee7228a9144"},"vehicle_type_id":"4","last_reported":1704200937,"current_range_meters":31600,"station_id":"ce4bhg92rcd13ifvqf90","pricing_plan_id":"free"},{"bike_id":"6beee4bc-9e90-4161-be63-15ce7dd5d717","system_id":"levelo_inurba_marseille","lat":43.26681,"lon":5.382694,"is_reserved":false,"is_disabled":false,"rental_uris":{"android":"levelo://app?vid=6beee4bc-9e90-4161-be63-15ce7dd5d717","ios":"levelo://app?vid=6beee4bc-9e90-4161-be63-15ce7dd5d717"},"vehicle_type_id":"4","last_reported":1704200937,"current_range_meters":31600,"station_id":"ce4bhg92rcd13ifvqf90","pricing_plan_id":"free"},{"bike_id":"672fb804-f127-4d40-897e-a132f75d1f61","system_id":"levelo_inurba_marseille","lat":43.26683,"lon":5.38273,"is_reserved":false,"is_disabled":false,"rental_uris":{"android":"levelo://app?vid=672fb804-f127-4d40-897e-a132f75d1f61","ios":"levelo://app?vid=672fb804-f127-4d40-897e-a132f75d1f61"},"vehicle_type_id":"4","last_reported":1704200937,"current_range_meters":26400,"station_id":"ce4bhg92rcd13ifvqf90","pricing_plan_id":"free"},{"bike_id":"5a669397-3d7e-4ea5-ac52-98ad619398b4","system_id":"levelo_inurba_marseille","lat":43.26681,"lon":5.382694,"is_reserved":false,"is_disabled":false,"rental_uris":{"android":"levelo://app?vid=5a669397-3d7e-4ea5-ac52-98ad619398b4","ios":"levelo://app?vid=5a669397-3d7e-4ea5-ac52-98ad619398b4"},"vehicle_type_id":"4","last_reported":1704200937,"current_range_meters":31600,"station_id":"ce4bhg92rcd13ifvqf90","pricing_plan_id":"free"},{"bike_id":"dadd7647-1cee-4bbe-a24e-bd2cebbe25cf","system_id":"levelo_inurba_marseille","lat":43.26681,"lon":5.382694,"is_reserved":false,"is_disabled":false,"rental_uris":{"android":"levelo://app?vid=dadd7647-1cee-4bbe-a24e-bd2cebbe25cf","ios":"levelo://app?vid=dadd7647-1cee-4bbe-a24e-bd2cebbe25cf"},"vehicle_type_id":"4","last_reported":1704200937,"current_range_meters":14400,"station_id":"ce4bhg92rcd13ifvqf90","pricing_plan_id":"free"},{"bike_id":"2f430b38-bd4e-4e20-913d-b8bd045901e2","system_id":"levelo_inurba_marseille","lat":43.26681,"lon":5.382694,"is_reserved":false,"is_disabled":false,"rental_uris":{"android":"levelo://app?vid=2f430b38-bd4e-4e20-913d-b8bd045901e2","ios":"levelo://app?vid=2f430b38-bd4e-4e20-913d-b8bd045901e2"},"vehicle_type_id":"4","last_reported":1704200937,"current_range_meters":18400,"station_id":"ce4bhg92rcd13ifvqf90","pricing_plan_id":"free"},{"bike_id":"cce0e60c-e2c2-456a-96ca-f0a93fb4d8bd","system_id":"levelo_inurba_marseille","lat":43.26681,"lon":5.382694,"is_reserved":false,"is_disabled":false,"rental_uris":{"android":"levelo://app?vid=cce0e60c-e2c2-456a-96ca-f0a93fb4d8bd","ios":"levelo://app?vid=cce0e60c-e2c2-456a-96ca-f0a93fb4d8bd"},"vehicle_type_id":"4","last_reported":1704200937,"current_range_meters":32000,"station_id":"ce4bhg92rcd13ifvqf90","pricing_plan_id":"free"},{"bike_id":"7552dc67-1782-4263-8825-10c5b00b31be","system_id":"levelo_inurba_marseille","lat":43.27996,"lon":5.416624,"is_reserved":false,"is_disabled":false,"rental_uris":{"android":"levelo://app?vid=7552dc67-1782-4263-8825-10c5b00b31be","ios":"levelo://app?vid=7552dc67-1782-4263-8825-10c5b00b31be"},"vehicle_type_id":"4","last_reported":1704200937,"current_range_meters":8800,"station_id":"ce4bho12rcd13ifvqh1g","pricing_plan_id":"free"},{"bike_id":"eb71eee8-9296-480a-a031-8d136b3bb877","system_id":"levelo_inurba_marseille","lat":43.27996,"lon":5.416624,"is_reserved":false,"is_disabled":false,"rental_uris":{"android":"levelo://app?vid=eb71eee8-9296-480a-a031-8d136b3bb877","ios":"levelo://app?vid=eb71eee8-9296-480a-a031-8d136b3bb877"},"vehicle_type_id":"4","last_reported":1704200937,"current_range_meters":31600,"station_id":"ce4bho12rcd13ifvqh1g","pricing_plan_id":"free"},{"bike_id":"dad044db-320c-4709-9366-b14dd7627e85","system_id":"levelo_inurba_marseille","lat":43.27996,"lon":5.416624,"is_reserved":false,"is_disabled":false,"rental_uris":{"android":"levelo://app?vid=dad044db-320c-4709-9366-b14dd7627e85","ios":"levelo://app?vid=dad044db-320c-4709-9366-b14dd7627e85"},"vehicle_type_id":"4","last_reported":1704200937,"current_range_meters":31600,"station_id":"ce4bho12rcd13ifvqh1g","pricing_plan_id":"free"},{"bike_id":"4e7b82a4-f271-4a72-bdbd-460d1cfbd58d","system_id":"levelo_inurba_marseille","lat":43.27181,"lon":5.404997,"is_reserved":false,"is_disabled":false,"rental_uris":{"android":"levelo://app?vid=4e7b82a4-f271-4a72-bdbd-460d1cfbd58d","ios":"levelo://app?vid=4e7b82a4-f271-4a72-bdbd-460d1cfbd58d"},"vehicle_type_id":"4","last_reported":1704200937,"current_range_meters":5600,"station_id":"","pricing_plan_id":"free"},{"bike_id":"4acdea58-b679-4180-9812-65bb718e8387","system_id":"levelo_inurba_marseille","lat":43.308051,"lon":5.43527,"is_reserved":false,"is_disabled":false,"rental_uris":{"android":"levelo://app?vid=4acdea58-b679-4180-9812-65bb718e8387","ios":"levelo://app?vid=4acdea58-b679-4180-9812-65bb718e8387"},"vehicle_type_id":"4","last_reported":1704200937,"current_range_meters":31200,"station_id":"ce4bhph2rcd13ifvqheg","pricing_plan_id":"free"},