{"last_updated":1742055000,"ttl":60,"version":"2.2","data":{"bikes":[{"bike_id":"2e711c61-0931-4d1d-8c3b-e0b8dc639bd4","system_id":"levelo_inurba_marseille","lat":43.29897,"lon":5.43667,"is_reserved":false,"is_disabled":false,"rental_uris":{"android":"levelo://app?vid=2e711c61-0931-4d1d-8c3b-e0b8dc639bd4","ios":"levelo://app?vid=2e711c61-0931-4d1d-8c3b-e0b8dc639bd4"},"vehicle_type_id":"4","last_reported":1742055000,"current_range_meters":2800,"station_id":"ce4bhpp2rcd13ifvqhfg","pricing_plan_id":"cebpf4jnsgd1na2vs0mg"},{"bike_id":"f0c0d63a-9494-4c27-9884-27b4a6a1e296","system_id":"levelo_inurba_marseille","lat":43.27421,"lon":5.39426,"is_reserved":false,"is_disabled":false,"rental_uris":{"android":"levelo://app?vid=f0c0d63a-9494-4c27-9884-27b4a6a1e296","ios":"levelo://app?vid=f0c0d63a-9494-4c27-9884-27b4a6a1e296"},"vehicle_type_id":"4","last_reported":1742055000,"current_range_meters":2800,"station_id":"ce4bhdp2rcd13ifvqf20","pricing_plan_id":"cebpf4jnsgd1na2vs0mg"},{"bike_id":"96b1e3d5-43a4-4a12-8338-249f6a0033e3","system_id":"levelo_inurba_marseille","lat":43.2306,"lon":5.35481,"is_reserved":false,"is_disabled":true,"rental_uris":{"android":"levelo://app?vid=96b1e3d5-43a4-4a12-8338-249f6a0033e3","ios":"levelo://app?vid=96b1e3d5-43a4-4a12-8338-249f6a0033e3"},"vehicle_type_id":"4","last_reported":1742055000,"current_range_meters":2800,"station_id":"cpo3342slgdg3j2ifvpg","pricing_plan_id":"cebpf4jnsgd1na2vs0mg"},{"bike_id":"4eacd84f-522c-467d-9ad2-1278dc2d0f60","system_id":"levelo_inurba_marseille","lat":43.25935,"lon":5.40901,"is_reserved":false,"is_disabled":false,"rental_uris":{"android":"levelo://app?vid=4eacd84f-522c-467d-9ad2-1278dc2d0f60","ios":"levelo://app?vid=4eacd84f-522c-467d-9ad2-1278dc2d0f60"},"vehicle_type_id":"4","last_reported":1742055000,"current_range_meters":2800,"station_id":"ce4bhm92rcd13ifvqglg","pricing_plan_id":"cebpf4jnsgd1na2vs0mg"},{"bike_id":"ef779254-4bfd-4981-8052-144978ea82f8","system_id":"levelo_inurba_marseille","lat":43.25583,"lon":5.38235,"is_reserved":false,"is_disabled":false,"rental_uris":{"android":"levelo://app?vid=ef779254-4bfd-4981-8052-144978ea82f8","ios":"levelo://app?vid=ef779254-4bfd-4981-8052-144978ea82f8"},"vehicle_type_id":"4","last_reported":1742055000,"current_range_meters":3200,"station_id":"ce4bhih2rcd13ifvqfs0","pricing_plan_id":"cebpf4jnsgd1na2vs0mg"},{"bike_id":"858e6c99-3d60-414f-ab95-100755f3e93e","system_id":"levelo_inurba_marseille","lat":43.29021,"lon":5.37557,"is_reserved":false,"is_disabled":false,"rental_uris":{"android":"levelo://app?vid=858e6c99-3d60-414f-ab95-100755f3e93e","ios":"levelo://app?vid=858e6c99-3d60-414f-ab95-100755f3e93e"},"vehicle_type_id":"4","last_reported":1742055000,"current_range_meters":3200,"station_id":"ce4bh692rcd13ifvqe90","pricing_plan_id":"cebpf4jnsgd1na2vs0mg"},{"bike_id":"de682330-860b-4a7c-9178-42e86dc787c3","system_id":"levelo_inurba_marseille","lat":43.29372,"lon":5.37848,"is_reserved":false,"is_disabled":false,"rental_uris":{"android":"levelo://app?vid=de682330-860b-4a7c-9178-42e86dc787c3","ios":"levelo://app?vid=de682330-860b-4a7c-9178-42e86dc787c3"},"vehicle_type_id":"4","last_reported":1742055000,"current_range_meters":3200,"station_id":"ce4bgjh2rcd13ifvqbf0","pricing_plan_id":"cebpf4jnsgd1na2vs0mg"},{"bike_id":"9acdb3eb-44a5-44c3-8c6a-2ff4ea48e081","system_id":"levelo_inurba_marseille","lat":43.29885,"lon":5.38897,"is_reserved":false,"is_disabled":false,"rental_uris":{"android":"levelo://app?vid=9acdb3eb-44a5-44c3-8c6a-2ff4ea48e081","ios":"levelo://app?vid=9acdb3eb-44a5-44c3-8c6a-2ff4ea48e081"},"vehicle_type_id":"4","last_reported":1742055000,"current_range_meters":3200,"station_id":"ce4bh392rcd13ifvqdl0","pricing_plan_id":"cebpf4jnsgd1na2vs0mg"},{"bike_id":"a9d5586b-ac68-4e8c-91ae-296176c1df46","system_id":"levelo_inurba_marseille","lat":43.26547,"lon":5.3729,"is_reserved":false,"is_disabled":false,"rental_uris":{"android":"levelo://app?vid=a9d5586b-ac68-4e8c-91ae-296176c1df46","ios":"levelo://app?vid=a9d5586b-ac68-4e8c-91ae-296176c1df46"},"vehicle_type_id":"4","last_reported":1742055000,"current_range_meters":3600,"station_id":"ce4bhg12rcd13ifvqf70","pricing_plan_id":"cebpf4jnsgd1na2vs0mg"},{"bike_id":"30619e84-fc24-4df0-a7b6-4196c8fd0500","system_id":"levelo_inurba_marseille","lat":43.29303,"lon":5.3718,"is_reserved":false,"is_disabled":false,"rental_uris":{"android":"levelo://app?vid=30619e84-fc24-4df0-a7b6-4196c8fd0500","ios":"levelo://app?vid=30619e84-fc24-4df0-a7b6-4196c8fd0500"},"vehicle_type_id":"4","last_reported":1742055000,"current_range_meters":3600,"station_id":"ce4bgh92rcd13ifvqb40","pricing_plan_id":"cebpf4jnsgd1na2vs0mg"},{"bike_id":"2e7c1011-88f6-403c-9d40-2bc88d962609","system_id":"levelo_inurba_marseille","lat":43.30528,"lon":5.36551,"is_reserved":false,"is_disabled":false,"rental_uris":{"android":"levelo://app?vid=2e7c1011-88f6-403c-9d40-2bc88d962609","ios":"levelo://app?vid=2e7c1011-88f6-403c-9d40-2bc88d962609"},"vehicle_type_id":"4","last_reported":1742055000,"current_range_meters":3600,"station_id":"ce4bgs12rcd13ifvqcag","pricing_plan_id":"cebpf4jnsgd1na2vs0mg"},{"bike_id":"b3910005-ece9-49ca-85e1-03f2ad53db1d","system_id":"levelo_inurba_marseille","lat":43.28706,"lon":5.3999,"is_reserved":false,"is_disabled":false,"rental_uris":{"android":"levelo://app?vid=b3910005-ece9-49ca-85e1-03f2ad53db1d","ios":"levelo://app?vid=b3910005-ece9-49ca-85e1-03f2ad53db1d"},"vehicle_type_id":"4","last_reported":1742055000,"current_range_meters":3600,"station_id":"ce4bho92rcd13ifvqh3g","pricing_plan_id":"cebpf4jnsgd1na2vs0mg"},{"bike_id":"64081c9b-0404-43f2-99d9-baedb6c110f5","system_id":"levelo_inurba_marseille","lat":43.28416,"lon":5.34979,"is_reserved":false,"is_disabled":false,"rental_uris":{"android":"levelo://app?vid=64081c9b-0404-43f2-99d9-baedb6c110f5","ios":"levelo://app?vid=64081c9b-0404-43f2-99d9-baedb6c110f5"},"vehicle_type_id":"4","last_reported":1742055000,"current_range_meters":3600,"station_id":"ce4bhbh2rcd13ifvqepg","pricing_plan_id":"cebpf4jnsgd1na2vs0mg"},{"bike_id":"36ec5a15-215b-4367-a3ca-336aadd9a251","system_id":"levelo_inurba_marseille","lat":43.33746,"lon":5.3745,"is_reserved":false,"is_disabled":false,"rental_uris":{"android":"levelo://app?vid=36ec5a15-215b-4367-a3ca-336aadd9a251","ios":"levelo://app?vid=36ec5a15-215b-4367-a3ca-336aadd9a251"},"vehicle_type_id":"4","last_reported":1742055000,"current_range_meters":3600,"station_id":"","pricing_plan_id":"cebpf4jnsgd1na2vs0mg"},{"bike_id":"3d1703d3-4225-4c04-aaec-5d5f1f54d065","system_id":"levelo_inurba_marseille","lat":43.22932,"lon":5.35376,"is_reserved":false,"is_disabled":false,"rental_uris":{"android":"levelo://app?vid=3d1703d3-4225-4c04-aaec-5d5f1f54d065","ios":"levelo://app?vid=3d1703d3-4225-4c04-aaec-5d5f1f54d065"},"vehicle_type_id":"4","last_reported":1742055000,"current_range_meters":4000,"station_id":"cpo3532slgdg3j2ikp40","pricing_plan_id":"cebpf4jnsgd1na2vs0mg"},{"bike_id":"0d9f0cd5-f18b-4f54-8c81-9abf1ecddef1","system_id":"levelo_inurba_marseille","lat":43.31718,"lon":5.42403,"is_reserved":false,"is_disabled":false,"rental_uris":{"android":"levelo://app?vid=0d9f0cd5-f18b-4f54-8c81-9abf1ecddef1","ios":"levelo://app?vid=0d9f0cd5-f18b-4f54-8c81-9abf1ecddef1"},"vehicle_type_id":"4","last_reported":1742055000,"current_range_meters":4000,"station_id":"","pricing_plan_id":"cebpf4jnsgd1na2vs0mg"},{"bike_id":"4bbb5f37-b7e5-4555-92a2-14639343fcc1","system_id":"levelo_inurba_marseille","lat":43.28269,"lon":5.3507,"is_reserved":false,"is_disabled":false,"rental_uris":{"android":"levelo://app?vid=4bbb5f37-b7e5-4555-92a2-14639343fcc1","ios":"levelo://app?vid=4bbb5f37-b7e5-4555-92a2-14639343fcc1"},"vehicle_type_id":"4","last_reported":1742055000,"current_range_meters":4400,"station_id":"ce4bhbp2rcd13ifvqerg","pricing_plan_id":"cebpf4jnsgd1na2vs0mg"},{"bike_id":"0fa9e351-2a4c-4e46-9ef1-1e57b445415b","system_id":"levelo_inurba_marseille","lat":43.2842,"lon":5.34982,"is_reserved":false,"is_disabled":false,"rental_uris":{"android":"levelo://app?vid=0fa9e351-2a4c-4e46-9ef1-1e57b445415b","ios":"levelo://app?vid=0fa9e351-2a4c-4e46-9ef1-1e57b445415b"},"vehicle_type_id":"4","last_reported":1742055000,"current_range_meters":4400,"station_id":"ce4bhbh2rcd13ifvqepg","pricing_plan_id":"cebpf4jnsgd1na2vs0mg"},{"bike_id":"94f39023-b741-43dd-abdd-4995a9353d29","system_id":"levelo_inurba_marseille","lat":43.29901,"lon":5.38147,"is_reserved":false,"is_disabled":false,"rental_uris":{"android":"levelo://app?vid=94f39023-b741-43dd-abdd-4995a9353d29","ios":"levelo://app?vid=94f39023-b741-43dd-abdd-4995a9353d29"},"vehicle_type_id":"4","last_reported":1742055000,"current_range_meters":4400,"station_id":"ce4bgj12rcd13ifvqbc0","pricing_plan_id":"cebpf4jnsgd1na2vs0mg"},{"bike_id":"2373a06f-7869-4b94-9f4f-1bc2b5a23b3b","system_id":"levelo_inurba_marseille","lat":43.32357,"lon":5.38908,"is_reserved":false,"is_disabled":false,"rental_uris":{"android":"levelo://app?vid=2373a06f-7869-4b94-9f4f-1bc2b5a23b3b","ios":"levelo://app?vid=2373a06f-7869-4b94-9f4f-1bc2b5a23b3b"},"vehicle_type_id":"4","last_reported":1742055000,"current_range_meters":4800,"station_id":"ce4bhqp2rcd13ifvqhog","pricing_plan_id":"cebpf4jnsgd1na2vs0mg"},{"bike_id":"0a0ff9a3-fe83-41a1-9b92-a7bdee99832d","system_id":"levelo_inurba_marseille","lat":43.29365,"lon":5.37861,"is_reserved":false,"is_disabled":false,"rental_uris":{"android":"levelo://app?vid=0a0ff9a3-fe83-41a1-9b92-a7bdee99832d","ios":"levelo://app?vid=0a0ff9a3-fe83-41a1-9b92-a7bdee99832d"},"vehicle_type_id":"4","last_reported":1742055000,"current_range_meters":4800,"station_id":"ce4bgjh2rcd13ifvqbf0","pricing_plan_id":"cebpf4jnsgd1na2vs0mg"},{"bike_id":"68753492-d635-459e-8779-7427f2456571","system_id":"levelo_inurba_marseille","lat":43.304199,"lon":5.397394,"is_reserved":false,"is_disabled":false,"rental_uris":{"android":"levelo://app?vid=68753492-d635-459e-8779-7427f2456571","ios":"levelo://app?vid=68753492-d635-459e-8779-7427f2456571"},"vehicle_type_id":"4","last_reported":1742055000,"current_range_meters":4800,"station_id":"ce4bh092rcd13ifvqd20","pricing_plan_id":"cebpf4jnsgd1na2vs0mg"},{"bike_id":"72e51dbc-45bc-4d37-86ee-2e25a8434111","system_id":"levelo_inurba_marseille","lat":43.29577,"lon":5.3752,"is_reserved":false,"is_disabled":false,"rental_uris":{"android":"levelo://app?vid=72e51dbc-45bc-4d37-86ee-2e25a8434111","ios":"levelo://app?vid=72e51dbc-45bc-4d37-86ee-2e25a8434111"},"vehicle_type_id":"4","last_reported":1742055000,"current_range_meters":4800,"station_id":"ce4bgh92rcd13ifvqb50","pricing_plan_id":"cebpf4jnsgd1na2vs0mg"},{"bike_id":"e0120847-532b-42e0-bf38-931db43af6df","system_id":"levelo_inurba_marseille","lat":43.29255,"lon":5.40106,"is_reserved":false,"is_disabled":false,"rental_uris":{"android":"levelo://app?vid=e0120847-532b-42e0-bf38-931db43af6df","ios":"levelo://app?vid=e0120847-532b-42e0-bf38-931db43af6df"},"vehicle_type_id":"4","last_reported":1742055000,"current_range_meters":5600,"station_id":"ce4bh312rcd13ifvqdk0","pricing_plan_id":"cebpf4jnsgd1na2vs0mg"},{"bike_id":"f59d2604-8926-488f-9d2c-c522776ced01","system_id":"levelo_inurba_marseille","lat":43.29282,"lon":5.40116,"is_reserved":false,"is_disabled":false,"rental_uris":{"android":"levelo://app?vid=f59d2604-8926-488f-9d2c-c522776ced01","ios":"levelo://app?vid=f59d2604-8926-488f-9d2c-c522776ced01"},"vehicle_type_id":"4","last_reported":1742055000,"current_range_meters":5600,"station_id":"ce4bh312rcd13ifvqdk0","pricing_plan_id":"cebpf4jnsgd1na2vs0mg"},{"bike_id":"9843bfc1-b00f-486a-8162-ebb521f04c85","system_id":"levelo_inurba_marseille","lat":43.26212,"lon":5.37438,"is_reserved":false,"is_disabled":false,"rental_uris":{"android":"levelo://app?vid=9843bfc1-b00f-486a-8162-ebb521f04c85","ios":"levelo://app?vid=9843bfc1-b00f-486a-8162-ebb521f04c85"},"vehicle_type_id":"4","last_reported":1742055000,"current_range_meters":5600,"station_id":"ce4bhgp2rcd13ifvqfc0","pricing_plan_id":"cebpf4jnsgd1na2vs0mg"},{"bike_id":"48de0efc-461c-48c9-a345-06473ce7bd44","system_id":"levelo_inurba_marseille","lat":43.26205,"lon":5.37932,"is_reserved":false,"is_disabled":false,"rental_uris":{"android":"levelo://app?vid=48de0efc-461c-48c9-a345-06473ce7bd44","ios":"levelo://app?vid=48de0efc-461c-48c9-a345-06473ce7bd44"},"vehicle_type_id":"4","last_reported":1742055000,"current_range_meters":5600,"station_id":"ce4bhjp2rcd13ifvqg90","pricing_plan_id":"cebpf4jnsgd1na2vs0mg"},{"bike_id":"41d00ad5-c2e3-449e-9023-05eae2209cb4","system_id":"levelo_inurba_marseille","lat":43.27911,"lon":5.3958,"is_reserved":false,"is_disabled":false,"rental_uris":{"android":"levelo://app?vid=41d00ad5-c2e3-449e-9023-05eae2209cb4","ios":"levelo://app?vid=41d00ad5-c2e3-449e-9023-05eae2209cb4"},"vehicle_type_id":"4","last_reported":1742055000,"current_range_meters":5600,"station_id":"ce4bhf92rcd13ifvqf40","pricing_plan_id":"cebpf4jnsgd1na2vs0mg"},{"bike_id":"35a37a17-0fab-4e79-91bf-11f23a42d4b2","system_id":"levelo_inurba_marseille","lat":43.2293,"lon":5.35382,"is_reserved":false,"is_disabled":false,"rental_uris":{"android":"levelo://app?vid=35a37a17-0fab-4e79-91bf-11f23a42d4b2","ios":"levelo://app?vid=35a37a17-0fab-4e79-91bf-11f23a42d4b2"},"vehicle_type_id":"4","last_reported":1742055000,"current_range_meters":5600,"station_id":"cpo3532slgdg3j2ikp40","pricing_plan_id":"cebpf4jnsgd1na2vs0mg"},{"bike_id":"f4c131b4-8c0c-4fa9-9a6b-50da1c260df1","system_id":"levelo_inurba_marseille","lat":43.292327,"lon":5.360713,"is_reserved":false,"is_disabled":false,"rental_uris":{"android":"levelo://app?vid=f4c131b4-8c0c-4fa9-9a6b-50da1c260df1","ios":"levelo://app?vid=f4c131b4-8c0c-4fa9-9a6b-50da1c260df1"},"vehicle_type_id":"4","last_reported":1742055000,"current_range_meters":6000,"station_id":"ce4bhhp2rcd13ifvqfm0","pricing_plan_id":"cebpf4jnsgd1na2vs0mg"},{"bike_id":"96c95cc5-3655-4976-bd9e-8b622b598117","system_id":"levelo_inurba_marseille","lat":43.27985,"lon":5.41663,"is_reserved":false,"is_disabled":true,"rental_uris":{"android":"levelo://app?vid=96c95cc5-3655-4976-bd9e-8b622b598117","ios":"levelo://app?vid=96c95cc5-3655-4976-bd9e-8b622b598117"},"vehicle_type_id":"4","last_reported":1742055000,"current_range_meters":6000,"station_id":"ce4bho12rcd13ifvqh1g","pricing_plan_id":"cebpf4jnsgd1na2vs0mg"},{"bike_id":"dfb1890d-a53d-42f7-a687-0bca1634d203","system_id":"levelo_inurba_marseille","lat":43.26976,"lon":5.38694,"is_reserved":false,"is_disabled":false,"rental_uris":{"android":"levelo://app?vid=dfb1890d-a53d-42f7-a687-0bca1634d203","ios":"levelo://app?vid=dfb1890d-a53d-42f7-a687-0bca1634d203"},"vehicle_type_id":"4","last_reported":1742055000,"current_range_meters":6000,"station_id":"","pricing_plan_id":"cebpf4jnsgd1na2vs0mg"},{"bike_id":"fa7a9738-be18-4ef1-bc9f-3f5781b304a4","system_id":"levelo_inurba_marseille","lat":43.28284,"lon":5.35073,"is_reserved":false,"is_disabled":false,"rental_uris":{"android":"levelo://app?vid=fa7a9738-be18-4ef1-bc9f-3f5781b304a4","ios":"levelo://app?vid=fa7a9738-be18-4ef1-bc9f-3f5781b304a4"},"vehicle_type_id":"4","last_reported":1742055000,"current_range_meters":6000,"station_id":"ce4bhbp2rcd13ifvqerg","pricing_plan_id":"cebpf4jnsgd1na2vs0mg"},{"bike_id":"00e58a56-6ae9-4bfd-b82d-a65a89cdbfb6","system_id":"levelo_inurba_marseille","lat":43.2922,"lon":5.3608,"is_reserved":false,"is_disabled":false,"rental_uris":{"android":"levelo://app?vid=00e58a56-6ae9-4bfd-b82d-a65a89cdbfb6","ios":"levelo://app?vid=00e58a56-6ae9-4bfd-b82d-a65a89cdbfb6"},"vehicle_type_id":"4","last_reported":1742055000,"current_range_meters":5600,"station_id":"ce4bhbh2rcd13ifvqeqg","pricing_plan_id":"cebpf4jnsgd1na2vs0mg"},{"bike_id":"36c7567d-bf94-4f07-b200-0dd9cc40b546","system_id":"levelo_inurba_marseille","lat":43.28444,"lon":5.34991,"is_reserved":false,"is_disabled":true,"rental_uris":{"android":"levelo://app?vid=36c7567d-bf94-4f07-b200-0dd9cc40b546","ios":"levelo://app?vid=36c7567d-bf94-4f07-b200-0dd9cc40b546"},"vehicle_type_id":"4","last_reported":1742055000,"current_range_meters":6800,"station_id":"ce4bhbh2rcd13ifvqepg","pricing_plan_id":"cebpf4jnsgd1na2vs0mg"},{"bike_id":"aabca7fc-a1c6-4603-b449-b82c79e26091","system_id":"levelo_inurba_marseille","lat":43.29927,"lon":5.36553,"is_reserved":false,"is_disabled":false,"rental_uris":{"android":"levelo://app?vid=aabca7fc-a1c6-4603-b449-b82c79e26091","ios":"levelo://app?vid=aabca7fc-a1c6-4603-b449-b82c79e26091"},"vehicle_type_id":"4","last_reported":1742055000,"current_range_meters":6800,"station_id":"ce4bgm92rcd13ifvqbr0","pricing_plan_id":"cebpf4jnsgd1na2vs0mg"},{"bike_id":"7548c3d6-6ee2-4e38-8d80-5b2bf267730a","system_id":"levelo_inurba_marseille","lat":43.24805,"lon":5.37454,"is_reserved":false,"is_disabled":false,"rental_uris":{"android":"levelo://app?vid=7548c3d6-6ee2-4e38-8d80-5b2bf267730a","ios":"levelo://app?vid=7548c3d6-6ee2-4e38-8d80-5b2bf267730a"},"vehicle_type_id":"4","last_reported":1742055000,"current_range_meters":6800,"station_id":"ce4bhgh2rcd13ifvqfb0","pricing_plan_id":"cebpf4jnsgd1na2vs0mg"},{"bike_id":"322d1f09-6aab-4287-b78e-b6d1403f7da9","system_id":"levelo_inurba_marseille","lat":43.23062,"lon":5.35495,"is_reserved":false,"is_disabled":false,"rental_uris":{"android":"levelo://app?vid=322d1f09-6aab-4287-b78e-b6d1403f7da9","ios":"levelo://app?vid=322d1f09-6aab-4287-b78e-b6d1403f7da9"},"vehicle_type_id":"4","last_reported":1742055000,"current_range_meters":6800,"station_id":"cpo3342slgdg3j2ifvpg","pricing_plan_id":"cebpf4jnsgd1na2vs0mg"},{"bike_id":"bc668645-630a-4fb2-b41b-a91800100141","system_id":"levelo_inurba_marseille","lat":43.33027,"lon":5.39047,"is_reserved":false,"is_disabled":false,"rental_uris":{"android":"levelo://app?vid=bc668645-630a-4fb2-b41b-a91800100141","ios":"levelo://app?vid=bc668645-630a-4fb2-b41b-a91800100141"},"vehicle_type_id":"4","last_reported":1742055000,"current_range_meters":6400,"station_id":"ce4bhr92rcd13ifvqhrg","pricing_plan_id":"cebpf4jnsgd1na2vs0mg"},{"bike_id":"77f0430f-3350-4963-ac6b-e35c49a943e2","system_id":"levelo_inurba_marseille","lat":43.31661,"lon":5.39541,"is_reserved":false,"is_disabled":false,"rental_uris":{"android":"levelo://app?vid=77f0430f-3350-4963-ac6b-e35c49a943e2","ios":"levelo://app?vid=77f0430f-3350-4963-ac6b-e35c49a943e2"},"vehicle_type_id":"4","last_reported":1742055000,"current_range_meters":6800,"station_id":"","pricing_plan_id":"cebpf4jnsgd1na2vs0mg"},{"bike_id":"808a4438-cc20-432c-8d09-804fc56bec2c","system_id":"levelo_inurba_marseille","lat":43.29625,"lon":5.37173,"is_reserved":false,"is_disabled":false,"rental_uris":{"android":"levelo://app?vid=808a4438-cc20-432c-8d09-804fc56bec2c","ios":"levelo://app?vid=808a4438-cc20-432c-8d09-804fc56bec2c"},"vehicle_type_id":"4","last_reported":1742055000,"current_range_meters":7200,"station_id":"ce4bgnh2rcd13ifvqc0g","pricing_plan_id":"cebpf4jnsgd1na2vs0mg"},{"bike_id":"48f968e9-2670-450c-9a50-b12a7ac1907f","system_id":"levelo_inurba_marseille","lat":43.25773,"lon":5.41063,"is_reserved":false,"is_disabled":false,"rental_uris":{"android":"levelo://app?vid=48f968e9-2670-450c-9a50-b12a7ac1907f","ios":"levelo://app?vid=48f968e9-2670-450c-9a50-b12a7ac1907f"},"vehicle_type_id":"4","last_reported":1742055000,"current_range_meters":7200,"station_id":"ce4bhkp2rcd13ifvqgd0","pricing_plan_id":"cebpf4jnsgd1na2vs0mg"},{"bike_id":"ee0c321d-9599-4ae0-b80e-2cf08ba114c2","system_id":"levelo_inurba_marseille","lat":43.22931,"lon":5.35378,"is_reserved":false,"is_disabled":false,"rental_uris":{"android":"levelo://app?vid=ee0c321d-9599-4ae0-b80e-2cf08ba114c2","ios":"levelo://app?vid=ee0c321d-9599-4ae0-b80e-2cf08ba114c2"},"vehicle_type_id":"4","last_reported":1742055000,"current_range_meters":7200,"station_id":"cpo3532slgdg3j2ikp40","pricing_plan_id":"cebpf4jnsgd1na2vs0mg"},{"bike_id":"fa04b71c-08d6-42f9-bdac-f937fc92a99e","system_id":"levelo_inurba_marseille","lat":43.26025,"lon":5.37549,"is_reserved":false,"is_disabled":false,"rental_uris":{"android":"levelo://app?vid=fa04b71c-08d6-42f9-bdac-f937fc92a99e","ios":"levelo://app?vid=fa04b71c-08d6-42f9-bdac-f937fc92a99e"},"vehicle_type_id":"4","last_reported":1742055000,"current_range_meters":7200,"station_id":"ce4bhgh2rcd13ifvqfa0","pricing_plan_id":"cebpf4jnsgd1na2vs0mg"},{"bike_id":"c6b2e8e1-a9f2-4fdc-b2fb-e9795807d18f","system_id":"levelo_inurba_marseille","lat":43.28412,"lon":5.3497,"is_reserved":false,"is_disabled":false,"rental_uris":{"android":"levelo://app?vid=c6b2e8e1-a9f2-4fdc-b2fb-e9795807d18f","ios":"levelo://app?vid=c6b2e8e1-a9f2-4fdc-b2fb-e9795807d18f"},"vehicle_type_id":"4","last_reported":1742055000,"current_range_meters":7200,"station_id":"ce4bhbh2rcd13ifvqepg","pricing_plan_id":"cebpf4jnsgd1na2vs0mg"},{"bike_id":"355fb77e-22da-4ed4-bab8-f395a5c5d15a","system_id":"levelo_inurba_marseille","lat":43.24657,"lon":5.38162,"is_reserved":false,"is_disabled":false,"rental_uris":{"android":"levelo://app?vid=355fb77e-22da-4ed4-bab8-f395a5c5d15a","ios":"levelo://app?vid=355fb77e-22da-4ed4-bab8-f395a5c5d15a"},"vehicle_type_id":"4","last_reported":1742055000,"current_range_meters":7200,"station_id":"ce4bhih2rcd13ifvqfr0","pricing_plan_id":"cebpf4jnsgd1na2vs0mg"},{"bike_id":"a8e67676-89ba-43e0-82dc-5ef4b0a5e328","system_id":"levelo_inurba_marseille","lat":43.31623,"lon":5.38609,"is_reserved":false,"is_disabled":false,"rental_uris":{"android":"levelo://app?vid=a8e67676-89ba-43e0-82dc-5ef4b0a5e328","ios":"levelo://app?vid=a8e67676-89ba-43e0-82dc-5ef4b0a5e328"},"vehicle_type_id":"4","last_reported":1742055000,"current_range_meters":7200,"station_id":"","pricing_plan_id":"cebpf4jnsgd1na2vs0mg"},{"bike_id":"a8c55f41-61b9-42f0-9773-61b27edd21b1","system_id":"levelo_inurba_marseille","lat":43.28714,"lon":5.37943,"is_reserved":false,"is_disabled":false,"rental_uris":{"android":"levelo://app?vid=a8c55f41-61b9-42f0-9773-61b27edd21b1","ios":"levelo://app?vid=a8c55f41-61b9-42f0-9773-61b27edd21b1"},"vehicle_type_id":"4","last_reported":1742055000,"current_range_meters":7200,"station_id":"ce4bh9p2rcd13ifvqec0","pricing_plan_id":"cebpf4jnsgd1na2vs0mg"},{"bike_id":"b0709da0-3c86-4780-b61d-85667e937cc9","system_id":"levelo_inurba_marseille","lat":43.28439,"lon":5.34981,"is_reserved":false,"is_disabled":false,"rental_uris":{"android":"levelo://app?vid=b0709da0-3c86-4780-b61d-85667e937cc9","ios":"levelo://app?vid=b0709da0-3c86-4780-b61d-85667e937cc9"},"vehicle_type_id":"4","last_reported":1742055000,"current_range_meters":7200,"station_id":"ce4bhbh2rcd13ifvqepg","pricing_plan_id":"cebpf4jnsgd1na2vs0mg"},{"bike_id":"10bfbf93-f469-4c3a-81e0-401668958ed6","system_id":"levelo_inurba_marseille","lat":43.28427,"lon":5.34993,"is_reserved":false,"is_disabled":false,"rental_uris":{"android":"levelo://app?vid=10bfbf93-f469-4c3a-81e0-401668958ed6","ios":"levelo://app?vid=10bfbf93-f469-4c3a-81e0-401668958ed6"},"vehicle_type_id":"4","last_reported":1742055000,"current_range_meters":7200,"station_id":"ce4bhbh2rcd13ifvqepg","pricing_plan_id":"cebpf4jnsgd1na2vs0mg"},{"bike_id":"02f45e40-1b4a-4530-b932-e36680a1a884","system_id":"levelo_inurba_marseille","lat":43.29309,"lon":5.37175,"is_reserved":false,"is_disabled":false,"rental_uris":{"android":"levelo://app?vid=02f45e40-1b4a-4530-b932-e36680a1a884","ios":"levelo://app?vid=02f45e40-1b4a-4530-b932-e36680a1a884"},"vehicle_type_id":"4","last_reported":1742055000,"current_range_meters":7200,"station_id":"ce4bgh92rcd13ifvqb40","pricing_plan_id":"cebpf4jnsgd1na2vs0mg"},{"bike_id":"2ec0f046-4e68-4150-a618-5c892d6b2cb5","system_id":"levelo_inurba_marseille","lat":43.26231,"lon":5.40462,"is_reserved":false,"is_disabled":false,"rental_uris":{"android":"levelo://app?vid=2ec0f046-4e68-4150-a618-5c892d6b2cb5","ios":"levelo://app?vid=2ec0f046-4e68-4150-a618-5c892d6b2cb5"},"vehicle_type_id":"4","last_reported":1742055000,"current_range_meters":7200,"station_id":"ce4bhmh2rcd13ifvqgmg","pricing_plan_id":"cebpf4jnsgd1na2vs0mg"},{"bike_id":"a42fae8d-205c-4750-85e2-8b6c3a5afb6b","system_id":"levelo_inurba_marseille","lat":43.29928,"lon":5.37461,"is_reserved":false,"is_disabled":false,"rental_uris":{"android":"levelo://app?vid=a42fae8d-205c-4750-85e2-8b6c3a5afb6b","ios":"levelo://app?vid=a42fae8d-205c-4750-85e2-8b6c3a5afb6b"},"vehicle_type_id":"4","last_reported":1742055000,"current_range_meters":7200,"station_id":"ce4bgjh2rcd13ifvqbg0","pricing_plan_id":"cebpf4jnsgd1na2vs0mg"},{"bike_id":"2f65ed80-6c16-4426-b63c-1981c1c225b9","system_id":"levelo_inurba_marseille","lat":43.29552,"lon":5.42284,"is_reserved":false,"is_disabled":false,"rental_uris":{"android":"levelo://app?vid=2f65ed80-6c16-4426-b63c-1981c1c225b9","ios":"levelo://app?vid=2f65ed80-6c16-4426-b63c-1981c1c225b9"},"vehicle_type_id":"4","last_reported":1742055000,"current_range_meters":8000,"station_id":"ce4bhph2rcd13ifvqhdg","pricing_plan_id":"cebpf4jnsgd1na2vs0mg"},{"bike_id":"7948119d-ad34-4b45-94ed-4226d9021fd1","system_id":"levelo_inurba_marseille","lat":43.3079,"lon":5.38154,"is_reserved":false,"is_disabled":false,"rental_uris":{"android":"levelo://app?vid=7948119d-ad34-4b45-94ed-4226d9021fd1","ios":"levelo://app?vid=7948119d-ad34-4b45-94ed-4226d9021fd1"},"vehicle_type_id":"4","last_reported":1742055000,"current_range_meters":8000,"station_id":"ce4bgt12rcd13ifvqce0","pricing_plan_id":"cebpf4jnsgd1na2vs0mg"},{"bike_id":"bd7fb638-a561-41df-90ca-f32685780427","system_id":"levelo_inurba_marseille","lat":43.22923,"lon":5.35372,"is_reserved":false,"is_disabled":false,"rental_uris":{"android":"levelo://app?vid=bd7fb638-a561-41df-90ca-f32685780427","ios":"levelo://app?vid=bd7fb638-a561-41df-90ca-f32685780427"},"vehicle_type_id":"4","last_reported":1742055000,"current_range_meters":8000,"station_id":"cpo3532slgdg3j2ikp40","pricing_plan_id":"cebpf4jnsgd1na2vs0mg"},{"bike_id":"0effbbb8-a931-404a-a47c-69bda0c677cc","system_id":"levelo_inurba_marseille","lat":43.22933,"lon":5.35381,"is_reserved":false,"is_disabled":false,"rental_uris":{"android":"levelo://app?vid=0effbbb8-a931-404a-a47c-69bda0c677cc","ios":"levelo://app?vid=0effbbb8-a931-404a-a47c-69bda0c677cc"},"vehicle_type_id":"4","last_reported":1742055000,"current_range_meters":8000,"station_id":"cpo3532slgdg3j2ikp40","pricing_plan_id":"cebpf4jnsgd1na2vs0mg"},{"bike_id":"f15bdfe9-ceb4-4aa5-95e6-ba94f92f61af","system_id":"levelo_inurba_marseille","lat":43.29306,"lon":5.37462,"is_reserved":false,"is_disabled":false,"rental_uris":{"android":"levelo://app?vid=f15bdfe9-ceb4-4aa5-95e6-ba94f92f61af","ios":"levelo://app?vid=f15bdfe9-ceb4-4aa5-95e6-ba94f92f61af"},"vehicle_type_id":"4","last_reported":1742055000,"current_range_meters":8000,"station_id":"ce4bgi12rcd13ifvqb70","pricing_plan_id":"cebpf4jnsgd1na2vs0mg"},{"bike_id":"67457bbc-27e0-4787-8b60-96c0d2dc6fd1","system_id":"levelo_inurba_marseille","lat":43.28276,"lon":5.35064,"is_reserved":false,"is_disabled":false,"rental_uris":{"android":"levelo://app?vid=67457bbc-27e0-4787-8b60-96c0d2dc6fd1","ios":"levelo://app?vid=67457bbc-27e0-4787-8b60-96c0d2dc6fd1"},"vehicle_type_id":"4","last_reported":1742055000,"current_range_meters":8400,"station_id":"ce4bhbp2rcd13ifvqerg","pricing_plan_id":"cebpf4jnsgd1na2vs0mg"},{"bike_id":"26b9f1dd-86a8-4489-8da6-f5e5a4da3921","system_id":"levelo_inurba_marseille","lat":43.23199,"lon":5.35564,"is_reserved":false,"is_disabled":false,"rental_uris":{"android":"levelo://app?vid=26b9f1dd-86a8-4489-8da6-f5e5a4da3921","ios":"levelo://app?vid=26b9f1dd-86a8-4489-8da6-f5e5a4da3921"},"vehicle_type_id":"4","last_reported":1742055000,"current_range_meters":8400,"station_id":"ce4bhu92rcd13ifvqi70","pricing_plan_id":"cebpf4jnsgd1na2vs0mg"},{"bike_id":"8a5bd971-61c1-4475-933b-dffdb284dd01","system_id":"levelo_inurba_marseille","lat":43.25019,"lon":5.38911,"is_reserved":false,"is_disabled":false,"rental_uris":{"android":"levelo://app?vid=8a5bd971-61c1-4475-933b-dffdb284dd01","ios":"levelo://app?vid=8a5bd971-61c1-4475-933b-dffdb284dd01"},"vehicle_type_id":"4","last_reported":1742055000,"current_range_meters":8400,"station_id":"ce4bhgp2rcd13ifvqfd0","pricing_plan_id":"cebpf4jnsgd1na2vs0mg"},{"bike_id":"ddea4874-b6f6-411d-bdc9-6ff6e948de29","system_id":"levelo_inurba_marseille","lat":43.30549,"lon":5.38438,"is_reserved":false,"is_disabled":false,"rental_uris":{"android":"levelo://app?vid=ddea4874-b6f6-411d-bdc9-6ff6e948de29","ios":"levelo://app?vid=ddea4874-b6f6-411d-bdc9-6ff6e948de29"},"vehicle_type_id":"4","last_reported":1742055000,"current_range_meters":8400,"station_id":"ce4bgg92rcd13ifvqb30","pricing_plan_id":"cebpf4jnsgd1na2vs0mg"},{"bike_id":"14672f34-519d-4b00-bfd5-d6ee5ef72e99","system_id":"levelo_inurba_marseille","lat":43.24791,"lon":5.37476,"is_reserved":false,"is_disabled":false,"rental_uris":{"android":"levelo://app?vid=14672f34-519d-4b00-bfd5-d6ee5ef72e99","ios":"levelo://app?vid=14672f34-519d-4b00-bfd5-d6ee5ef72e99"},"vehicle_type_id":"4","last_reported":1742055000,"current_range_meters":8400,"station_id":"ce4bhgh2rcd13ifvqfb0","pricing_plan_id":"cebpf4jnsgd1na2vs0mg"},{"bike_id":"bb406359-aefa-4054-8a16-2fad66fea9d4","system_id":"levelo_inurba_marseille","lat":43.28263,"lon":5.35071,"is_reserved":false,"is_disabled":false,"rental_uris":{"android":"levelo://app?vid=bb406359-aefa-4054-8a16-2fad66fea9d4","ios":"levelo://app?vid=bb406359-aefa-4054-8a16-2fad66fea9d4"},"vehicle_type_id":"4","last_reported":1742055000,"current_range_meters":8400,"station_id":"ce4bhbp2rcd13ifvqerg","pricing_plan_id":"cebpf4jnsgd1na2vs0mg"},{"bike_id":"60ed18f4-38a1-4e82-bfad-bfda71f2f7d2","system_id":"levelo_inurba_marseille","lat":43.28421,"lon":5.34992,"is_reserved":false,"is_disabled":false,"rental_uris":{"android":"levelo://app?vid=60ed18f4-38a1-4e82-bfad-bfda71f2f7d2","ios":"levelo://app?vid=60ed18f4-38a1-4e82-bfad-bfda71f2f7d2"},"vehicle_type_id":"4","last_reported":1742055000,"current_range_meters":8400,"station_id":"ce4bhbh2rcd13ifvqepg","pricing_plan_id":"cebpf4jnsgd1na2vs0mg"},{"bike_id":"df8f59c8-e88a-4727-b99a-b7310a80e16f","system_id":"levelo_inurba_marseille","lat":43.27227,"lon":5.39137,"is_reserved":false,"is_disabled":false,"rental_uris":{"android":"levelo://app?vid=df8f59c8-e88a-4727-b99a-b7310a80e16f","ios":"levelo://app?vid=df8f59c8-e88a-4727-b99a-b7310a80e16f"},"vehicle_type_id":"4","last_reported":1742055000,"current_range_meters":8400,"station_id":"ce4bhhp2rcd13ifvqfm0","pricing_plan_id":"cebpf4jnsgd1na2vs0mg"},{"bike_id":"7cfefdb2-e159-4d80-8d85-03871fb420a5","system_id":"levelo_inurba_marseille","lat":43.28613,"lon":5.37056,"is_reserved":false,"is_disabled":false,"rental_uris":{"android":"levelo://app?vid=7cfefdb2-e159-4d80-8d85-03871fb420a5","ios":"levelo://app?vid=7cfefdb2-e159-4d80-8d85-03871fb420a5"},"vehicle_type_id":"4","last_reported":1742055000,"current_range_meters":8400,"station_id":"ce4bht12rcd13ifvqi60","pricing_plan_id":"cebpf4jnsgd1na2vs0mg"},{"bike_id":"ae44774e-fdb0-4cc2-8b47-2dcf32a55cc8","system_id":"levelo_inurba_marseille","lat":43.29932,"lon":5.36563,"is_reserved":false,"is_disabled":false,"rental_uris":{"android":"levelo://app?vid=ae44774e-fdb0-4cc2-8b47-2dcf32a55cc8","ios":"levelo://app?vid=ae44774e-fdb0-4cc2-8b47-2dcf32a55cc8"},"vehicle_type_id":"4","last_reported":1742055000,"current_range_meters":8400,"station_id":"ce4bgm92rcd13ifvqbr0","pricing_plan_id":"cebpf4jnsgd1na2vs0mg"},{"bike_id":"133bfb5b-0995-4b15-ab04-2feedaf851dc","system_id":"levelo_inurba_marseille","lat":43.28413,"lon":5.3498,"is_reserved":false,"is_disabled":false,"rental_uris":{"android":"levelo://app?vid=133bfb5b-0995-4b15-ab04-2feedaf851dc","ios":"levelo://app?vid=133bfb5b-0995-4b15-ab04-2feedaf851dc"},"vehicle_type_id":"4","last_reported":1742055000,"current_range_meters":8400,"station_id":"ce4bhbh2rcd13ifvqepg","pricing_plan_id":"cebpf4jnsgd1na2vs0mg"},{"bike_id":"73e440c0-c5a8-4972-9f49-7e89cb23a8c6","system_id":"levelo_inurba_marseille","lat":43.26206,"lon":5.37925,"is_reserved":false,"is_disabled":false,"rental_uris":{"android":"levelo://app?vid=73e440c0-c5a8-4972-9f49-7e89cb23a8c6","ios":"levelo://app?vid=73e440c0-c5a8-4972-9f49-7e89cb23a8c6"},"vehicle_type_id":"4","last_reported":1742055000,"current_range_meters":8400,"station_id":"ce4bhjp2rcd13ifvqg90","pricing_plan_id":"cebpf4jnsgd1na2vs0mg"},{"bike_id":"48d30a85-f5a7-4e7b-ba36-961638be5808","system_id":"levelo_inurba_marseille","lat":43.29623,"lon":5.37172,"is_reserved":false,"is_disabled":false,"rental_uris":{"android":"levelo://app?vid=48d30a85-f5a7-4e7b-ba36-961638be5808","ios":"levelo://app?vid=48d30a85-f5a7-4e7b-ba36-961638be5808"},"vehicle_type_id":"4","last_reported":1742055000,"current_range_meters":8400,"station_id":"ce4bgnh2rcd13ifvqc0g","pricing_plan_id":"cebpf4jnsgd1na2vs0mg"},{"bike_id":"1ee71dce-d48d-4af5-99c2-09ee17edd7a0","system_id":"levelo_inurba_marseille","lat":43.24696,"lon":5.38142,"is_reserved":false,"is_disabled":false,"rental_uris":{"android":"levelo://app?vid=1ee71dce-d48d-4af5-99c2-09ee17edd7a0","ios":"levelo://app?vid=1ee71dce-d48d-4af5-99c2-09ee17edd7a0"},"vehicle_type_id":"4","last_reported":1742055000,"current_range_meters":8800,"station_id":"ce4bhih2rcd13ifvqfr0","pricing_plan_id":"cebpf4jnsgd1na2vs0mg"},{"bike_id":"9fd8a695-1141-48a7-a275-ae03aade4f9e","system_id":"levelo_inurba_marseille","lat":43.24539,"lon":5.39518,"is_reserved":false,"is_disabled":false,"rental_uris":{"android":"levelo://app?vid=9fd8a695-1141-48a7-a275-ae03aade4f9e","ios":"levelo://app?vid=9fd8a695-1141-48a7-a275-ae03aade4f9e"},"vehicle_type_id":"4","last_reported":1742055000,"current_range_meters":8800,"station_id":"ce4bhlp2rcd13ifvqgjg","pricing_plan_id":"cebpf4jnsgd1na2vs0mg"},{"bike_id":"11877a08-1209-410f-8a57-ef814c57a390","system_id":"levelo_inurba_marseille","lat":43.24164,"lon":5.36403,"is_reserved":false,"is_disabled":false,"rental_uris":{"android":"levelo://app?vid=11877a08-1209-410f-8a57-ef814c57a390","ios":"levelo://app?vid=11877a08-1209-410f-8a57-ef814c57a390"},"vehicle_type_id":"4","last_reported":1742055000,"current_range_meters":8800,"station_id":"cpo36qri1sfpv3e86is0","pricing_plan_id":"cebpf4jnsgd1na2vs0mg"},{"bike_id":"99388530-3199-4a9b-85e9-15b56e29535b","system_id":"levelo_inurba_marseille","lat":43.31293,"lon":5.37323,"is_reserved":false,"is_disabled":false,"rental_uris":{"android":"levelo://app?vid=99388530-3199-4a9b-85e9-15b56e29535b","ios":"levelo://app?vid=99388530-3199-4a9b-85e9-15b56e29535b"},"vehicle_type_id":"4","last_reported":1742055000,"current_range_meters":8800,"station_id":"","pricing_plan_id":"cebpf4jnsgd1na2vs0mg"},{"bike_id":"385ae15c-2c3c-4490-a507-5eb20fb883a5","system_id":"levelo_inurba_marseille","lat":43.25933,"lon":5.40891,"is_reserved":false,"is_disabled":false,"rental_uris":{"android":"levelo://app?vid=385ae15c-2c3c-4490-a507-5eb20fb883a5","ios":"levelo://app?vid=385ae15c-2c3c-4490-a507-5eb20fb883a5"},"vehicle_type_id":"4","last_reported":1742055000,"current_range_meters":8800,"station_id":"ce4bhm92rcd13ifvqglg","pricing_plan_id":"cebpf4jnsgd1na2vs0mg"},{"bike_id":"2c4cb484-6078-4cf4-9e6f-8c5ed180ec83","system_id":"levelo_inurba_marseille","lat":43.29566,"lon":5.37526,"is_reserved":false,"is_disabled":false,"rental_uris":{"android":"levelo://app?vid=2c4cb484-6078-4cf4-9e6f-8c5ed180ec83","ios":"levelo://app?vid=2c4cb484-6078-4cf4-9e6f-8c5ed180ec83"},"vehicle_type_id":"4","last_reported":1742055000,"current_range_meters":8800,"station_id":"ce4bgh92rcd13ifvqb50","pricing_plan_id":"cebpf4jnsgd1na2vs0mg"},{"bike_id":"1ac0ebad-6828-4242-99b2-14a9f8209f79","system_id":"levelo_inurba_marseille","lat":43.23189,"lon":5.35561,"is_reserved":false,"is_disabled":false,"rental_uris":{"android":"levelo://app?vid=1ac0ebad-6828-4242-99b2-14a9f8209f79","ios":"levelo://app?vid=1ac0ebad-6828-4242-99b2-14a9f8209f79"},"vehicle_type_id":"4","last_reported":1742055000,"current_range_meters":9200,"station_id":"ce4bhu92rcd13ifvqi70","pricing_plan_id":"cebpf4jnsgd1na2vs0mg"},{"bike_id":"91c03a70-83a8-4806-8254-0f8858745283","system_id":"levelo_inurba_marseille","lat":43.30542,"lon":5.38434,"is_reserved":false,"is_disabled":false,"rental_uris":{"android":"levelo://app?vid=91c03a70-83a8-4806-8254-0f8858745283","ios":"levelo://app?vid=91c03a70-83a8-4806-8254-0f8858745283"},"vehicle_type_id":"4","last_reported":1742055000,"current_range_meters":8800,"station_id":"ce4bgg92rcd13ifvqb30","pricing_plan_id":"cebpf4jnsgd1na2vs0mg"},{"bike_id":"2ada218c-4e3e-433b-a33e-91e0fed6090b","system_id":"levelo_inurba_marseille","lat":43.2944,"lon":5.39753,"is_reserved":false,"is_disabled":true,"rental_uris":{"android":"levelo://app?vid=2ada218c-4e3e-433b-a33e-91e0fed6090b","ios":"levelo://app?vid=2ada218c-4e3e-433b-a33e-91e0fed6090b"},"vehicle_type_id":"4","last_reported":1742055000,"current_range_meters":9200,"station_id":"ce4bh3h2rcd13ifvqdo0","pricing_plan_id":"cebpf4jnsgd1na2vs0mg"},{"bike_id":"1999cecf-f38c-4961-9580-ef6a50d3e0be","system_id":"levelo_inurba_marseille","lat":43.24174,"lon":5.36398,"is_reserved":false,"is_disabled":false,"rental_uris":{"android":"levelo://app?vid=1999cecf-f38c-4961-9580-ef6a50d3e0be","ios":"levelo://app?vid=1999cecf-f38c-4961-9580-ef6a50d3e0be"},"vehicle_type_id":"4","last_reported":1742055000,"current_range_meters":9200,"station_id":"cpo36qri1sfpv3e86is0","pricing_plan_id":"cebpf4jnsgd1na2vs0mg"},{"bike_id":"5976961e-07e3-453f-8c5f-e6fbc6eccae7","system_id":"levelo_inurba_marseille","lat":43.29189,"lon":5.35809,"is_reserved":false,"is_disabled":false,"rental_uris":{"android":"levelo://app?vid=5976961e-07e3-453f-8c5f-e6fbc6eccae7","ios":"levelo://app?vid=5976961e-07e3-453f-8c5f-e6fbc6eccae7"},"vehicle_type_id":"4","last_reported":1742055000,"current_range_meters":9200,"station_id":"ce4bhb12rcd13ifvqel0","pricing_plan_id":"cebpf4jnsgd1na2vs0mg"},{"bike_id":"b6fd8267-5c89-4518-8d64-5e6d7d2625e4","system_id":"levelo_inurba_marseille","lat":43.23057,"lon":5.35494,"is_reserved":false,"is_disabled":false,"rental_uris":{"android":"levelo://app?vid=b6fd8267-5c89-4518-8d64-5e6d7d2625e4","ios":"levelo://app?vid=b6fd8267-5c89-4518-8d64-5e6d7d2625e4"},"vehicle_type_id":"4","last_reported":1742055000,"current_range_meters":9200,"station_id":"cpo3342slgdg3j2ifvpg","pricing_plan_id":"cebpf4jnsgd1na2vs0mg"},{"bike_id":"12419dfd-d72f-4714-b574-55f7832189e9","system_id":"levelo_inurba_marseille","lat":43.23054,"lon":5.3549,"is_reserved":false,"is_disabled":false,"rental_uris":{"android":"levelo://app?vid=12419dfd-d72f-4714-b574-55f7832189e9","ios":"levelo://app?vid=12419dfd-d72f-4714-b574-55f7832189e9"},"vehicle_type_id":"4","last_reported":1742055000,"current_range_meters":9200,"station_id":"cpo3342slgdg3j2ifvpg","pricing_plan_id":"cebpf4jnsgd1na2vs0mg"},{"bike_id":"511c7780-b706-4909-9ecb-c1829649cff4","system_id":"levelo_inurba_marseille","lat":43.28269,"lon":5.3507,"is_reserved":false,"is_disabled":false,"rental_uris":{"android":"levelo://app?vid=511c7780-b706-4909-9ecb-c1829649cff4","ios":"levelo://app?vid=511c7780-b706-4909-9ecb-c1829649cff4"},"vehicle_type_id":"4","last_reported":1742055000,"current_range_meters":9200,"station_id":"ce4bhbp2rcd13ifvqerg","pricing_plan_id":"cebpf4jnsgd1na2vs0mg"},{"bike_id":"676e66c6-8e50-404c-b512-5f94c7d6a8fc","system_id":"levelo_inurba_marseille","lat":43.24176,"lon":5.36389,"is_reserved":false,"is_disabled":false,"rental_uris":{"android":"levelo://app?vid=676e66c6-8e50-404c-b512-5f94c7d6a8fc","ios":"levelo://app?vid=676e66c6-8e50-404c-b512-5f94c7d6a8fc"},"vehicle_type_id":"4","last_reported":1742055000,"current_range_meters":9600,"station_id":"cpo36qri1sfpv3e86is0","pricing_plan_id":"cebpf4jnsgd1na2vs0mg"},{"bike_id":"85d10f39-4b49-477c-b6e3-e96eb6cda2fc","system_id":"levelo_inurba_marseille","lat":43.27609,"lon":5.36116,"is_reserved":false,"is_disabled":false,"rental_uris":{"android":"levelo://app?vid=85d10f39-4b49-477c-b6e3-e96eb6cda2fc","ios":"levelo://app?vid=85d10f39-4b49-477c-b6e3-e96eb6cda2fc"},"vehicle_type_id":"4","last_reported":1742055000,"current_range_meters":9600,"station_id":"ce4bgj92rcd13ifvqbe0","pricing_plan_id":"cebpf4jnsgd1na2vs0mg"},{"bike_id":"94bbd099-c041-402b-831c-5307fc1c5f73","system_id":"levelo_inurba_marseille","lat":43.22932,"lon":5.35376,"is_reserved":false,"is_disabled":false,"rental_uris":{"android":"levelo://app?vid=94bbd099-c041-402b-831c-5307fc1c5f73","ios":"levelo://app?vid=94bbd099-c041-402b-831c-5307fc1c5f73"},"vehicle_type_id":"4","last_reported":1742055000,"current_range_meters":9600,"station_id":"cpo3532slgdg3j2ikp40","pricing_plan_id":"cebpf4jnsgd1na2vs0mg"},{"bike_id":"aa795381-5174-4265-abe3-ddbff84516c8","system_id":"levelo_inurba_marseille","lat":43.30142,"lon":5.3741,"is_reserved":false,"is_disabled":true,"rental_uris":{"android":"levelo://app?vid=aa795381-5174-4265-abe3-ddbff84516c8","ios":"levelo://app?vid=aa795381-5174-4265-abe3-ddbff84516c8"},"vehicle_type_id":"4","last_reported":1742055000,"current_range_meters":9600,"station_id":"ce4bgs92rcd13ifvqcc0","pricing_plan_id":"cebpf4jnsgd1na2vs0mg"},{"bike_id":"aeb31fa1-9662-41fc-93d0-e197e9ba88bf","system_id":"levelo_inurba_marseille","lat":43.29772,"lon":5.37115,"is_reserved":false,"is_disabled":false,"rental_uris":{"android":"levelo://app?vid=aeb31fa1-9662-41fc-93d0-e197e9ba88bf","ios":"levelo://app?vid=aeb31fa1-9662-41fc-93d0-e197e9ba88bf"},"vehicle_type_id":"4","last_reported":1742055000,"current_range_meters":9600,"station_id":"ce4bgop2rcd13ifvqc1g","pricing_plan_id":"cebpf4jnsgd1na2vs0mg"},{"bike_id":"1c944097-c351-4c77-acee-d4540e5f0a94","system_id":"levelo_inurba_marseille","lat":43.23061,"lon":5.35498,"is_reserved":false,"is_disabled":false,"rental_uris":{"android":"levelo://app?vid=1c944097-c351-4c77-acee-d4540e5f0a94","ios":"levelo://app?vid=1c944097-c351-4c77-acee-d4540e5f0a94"},"vehicle_type_id":"4","last_reported":1742055000,"current_range_meters":9600,"station_id":"cpo3342slgdg3j2ifvpg","pricing_plan_id":"cebpf4jnsgd1na2vs0mg"},{"bike_id":"50c97caa-ca8a-4b03-99d5-4678c955e14d","system_id":"levelo_inurba_marseille","lat":43.24815,"lon":5.37444,"is_reserved":false,"is_disabled":false,"rental_uris":{"android":"levelo://app?vid=50c97caa-ca8a-4b03-99d5-4678c955e14d","ios":"levelo://app?vid=50c97caa-ca8a-4b03-99d5-4678c955e14d"},"vehicle_type_id":"4","last_reported":1742055000,"current_range_meters":9600,"station_id":"ce4bhgh2rcd13ifvqfb0","pricing_plan_id":"cebpf4jnsgd1na2vs0mg"},{"bike_id":"a4b6b2b0-3f22-4864-9a16-662f57bc8d43","system_id":"levelo_inurba_marseille","lat":43.26553,"lon":5.37289,"is_reserved":false,"is_disabled":false,"rental_uris":{"android":"levelo://app?vid=a4b6b2b0-3f22-4864-9a16-662f57bc8d43","ios":"levelo://app?vid=a4b6b2b0-3f22-4864-9a16-662f57bc8d43"},"vehicle_type_id":"4","last_reported":1742055000,"current_range_meters":9600,"station_id":"ce4bhg12rcd13ifvqf70","pricing_plan_id":"cebpf4jnsgd1na2vs0mg"},{"bike_id":"b7253de2-9c2e-4eb9-8c2e-195471b78130","system_id":"levelo_inurba_marseille","lat":43.27368,"lon":5.36243,"is_reserved":false,"is_disabled":false,"rental_uris":{"android":"levelo://app?vid=b7253de2-9c2e-4eb9-8c2e-195471b78130","ios":"levelo://app?vid=b7253de2-9c2e-4eb9-8c2e-195471b78130"},"vehicle_type_id":"4","last_reported":1742055000,"current_range_meters":9600,"station_id":"ce4bhbh2rcd13ifvqeo0","pricing_plan_id":"cebpf4jnsgd1na2vs0mg"},{"bike_id":"92bd2e8f-197b-47ad-8530-ee4394b2ecce","system_id":"levelo_inurba_marseille","lat":43.24171,"lon":5.36396,"is_reserved":false,"is_disabled":false,"rental_uris":{"android":"levelo://app?vid=92bd2e8f-197b-47ad-8530-ee4394b2ecce","ios":"levelo://app?vid=92bd2e8f-197b-47ad-8530-ee4394b2ecce"},"vehicle_type_id":"4","last_reported":1742055000,"current_range_meters":9600,"station_id":"cpo36qri1sfpv3e86is0","pricing_plan_id":"cebpf4jnsgd1na2vs0mg"},{"bike_id":"e731dc47-354f-4242-8f21-4218ef9416ea","system_id":"levelo_inurba_marseille","lat":43.28272,"lon":5.35066,"is_reserved":false,"is_disabled":false,"rental_uris":{"android":"levelo://app?vid=e731dc47-354f-4242-8f21-4218ef9416ea","ios":"levelo://app?vid=e731dc47-354f-4242-8f21-4218ef9416ea"},"vehicle_type_id":"4","last_reported":1742055000,"current_range_meters":10000,"station_id":"ce4bhbp2rcd13ifvqerg","pricing_plan_id":"cebpf4jnsgd1na2vs0mg"},{"bike_id":"63cfaea5-f172-409c-93d3-875ff9136d61","system_id":"levelo_inurba_marseille","lat":43.24656,"lon":5.38146,"is_reserved":false,"is_disabled":false,"rental_uris":{"android":"levelo://app?vid=63cfaea5-f172-409c-93d3-875ff9136d61","ios":"levelo://app?vid=63cfaea5-f172-409c-93d3-875ff9136d61"},"vehicle_type_id":"4","last_reported":1742055000,"current_range_meters":10000,"station_id":"ce4bhih2rcd13ifvqfr0","pricing_plan_id":"cebpf4jnsgd1na2vs0mg"},{"bike_id":"3034db0c-7cfa-4361-a8e5-85d8b0635402","system_id":"levelo_inurba_marseille","lat":43.23959,"lon":5.36625,"is_reserved":false,"is_disabled":false,"rental_uris":{"android":"levelo://app?vid=3034db0c-7cfa-4361-a8e5-85d8b0635402","ios":"levelo://app?vid=3034db0c-7cfa-4361-a8e5-85d8b0635402"},"vehicle_type_id":"4","last_reported":1742055000,"current_range_meters":10000,"station_id":"ce4bhi12rcd13ifvqfp0","pricing_plan_id":"cebpf4jnsgd1na2vs0mg"},{"bike_id":"d0915976-a2a8-41f1-a9d9-b0708b870040","system_id":"levelo_inurba_marseille","lat":43.23145,"lon":5.43725,"is_reserved":false,"is_disabled":false,"rental_uris":{"android":"levelo://app?vid=d0915976-a2a8-41f1-a9d9-b0708b870040","ios":"levelo://app?vid=d0915976-a2a8-41f1-a9d9-b0708b870040"},"vehicle_type_id":"4","last_reported":1742055000,"current_range_meters":10000,"station_id":"ce4bhmp2rcd13ifvqgog","pricing_plan_id":"cebpf4jnsgd1na2vs0mg"},{"bike_id":"49a173d9-c0ae-4f30-8906-a1ef20c838ce","system_id":"levelo_inurba_marseille","lat":43.29611,"lon":5.37717,"is_reserved":false,"is_disabled":false,"rental_uris":{"android":"levelo://app?vid=49a173d9-c0ae-4f30-8906-a1ef20c838ce","ios":"levelo://app?vid=49a173d9-c0ae-4f30-8906-a1ef20c838ce"},"vehicle_type_id":"4","last_reported":1742055000,"current_range_meters":10000,"station_id":"ce4bgi92rcd13ifvqb90","pricing_plan_id":"cebpf4jnsgd1na2vs0mg"},{"bike_id":"efb53dda-871b-483c-8dec-e716116f9234","system_id":"levelo_inurba_marseille","lat":43.31128,"lon":5.36768,"is_reserved":false,"is_disabled":false,"rental_uris":{"android":"levelo://app?vid=efb53dda-871b-483c-8dec-e716116f9234","ios":"levelo://app?vid=efb53dda-871b-483c-8dec-e716116f9234"},"vehicle_type_id":"4","last_reported":1742055000,"current_range_meters":10000,"station_id":"","pricing_plan_id":"cebpf4jnsgd1na2vs0mg"},{"bike_id":"24844377-fe1e-46a4-b5c1-93c109e06eae","system_id":"levelo_inurba_marseille","lat":43.27838,"lon":5.39213,"is_reserved":false,"is_disabled":false,"rental_uris":{"android":"levelo://app?vid=24844377-fe1e-46a4-b5c1-93c109e06eae","ios":"levelo://app?vid=24844377-fe1e-46a4-b5c1-93c109e06eae"},"vehicle_type_id":"4","last_reported":1742055000,"current_range_meters":10000,"station_id":"ce4bhjp2rcd13ifvqga0","pricing_plan_id":"cebpf4jnsgd1na2vs0mg"},{"bike_id":"92470e55-9ef4-4e62-8ace-777e6d5a53c4","system_id":"levelo_inurba_marseille","lat":43.25855,"lon":5.39904,"is_reserved":false,"is_disabled":false,"rental_uris":{"android":"levelo://app?vid=92470e55-9ef4-4e62-8ace-777e6d5a53c4","ios":"levelo://app?vid=92470e55-9ef4-4e62-8ace-777e6d5a53c4"},"vehicle_type_id":"4","last_reported":1742055000,"current_range_meters":10800,"station_id":"ce4bhl92rcd13ifvqghg","pricing_plan_id":"cebpf4jnsgd1na2vs0mg"},{"bike_id":"0b7bfdb8-fd03-4687-9225-8085184f929c","system_id":"levelo_inurba_marseille","lat":43.32354,"lon":5.36768,"is_reserved":false,"is_disabled":false,"rental_uris":{"android":"levelo://app?vid=0b7bfdb8-fd03-4687-9225-8085184f929c","ios":"levelo://app?vid=0b7bfdb8-fd03-4687-9225-8085184f929c"},"vehicle_type_id":"4","last_reported":1742055000,"current_range_meters":10800,"station_id":"ce4bhsh2rcd13ifvqi2g","pricing_plan_id":"cebpf4jnsgd1na2vs0mg"},{"bike_id":"8ce7f4a4-e2f5-48cc-adcd-fdc531b0e7ed","system_id":"levelo_inurba_marseille","lat":43.29754,"lon":5.37108,"is_reserved":false,"is_disabled":false,"rental_uris":{"android":"levelo://app?vid=8ce7f4a4-e2f5-48cc-adcd-fdc531b0e7ed","ios":"levelo://app?vid=8ce7f4a4-e2f5-48cc-adcd-fdc531b0e7ed"},"vehicle_type_id":"4","last_reported":1742055000,"current_range_meters":10000,"station_id":"ce4bgop2rcd13ifvqc1g","pricing_plan_id":"cebpf4jnsgd1na2vs0mg"},{"bike_id":"f086f384-feec-4968-a0b6-7828464e346f","system_id":"levelo_inurba_marseille","lat":43.28416,"lon":5.37515,"is_reserved":false,"is_disabled":false,"rental_uris":{"android":"levelo://app?vid=f086f384-feec-4968-a0b6-7828464e346f","ios":"levelo://app?vid=f086f384-feec-4968-a0b6-7828464e346f"},"vehicle_type_id":"4","last_reported":1742055000,"current_range_meters":10800,"station_id":"ce4bh412rcd13ifvqds0","pricing_plan_id":"cebpf4jnsgd1na2vs0mg"},{"bike_id":"e52b41b5-52df-4c67-a85c-3cebb3bf7504","system_id":"levelo_inurba_marseille","lat":43.32363,"lon":5.36753,"is_reserved":false,"is_disabled":false,"rental_uris":{"android":"levelo://app?vid=e52b41b5-52df-4c67-a85c-3cebb3bf7504","ios":"levelo://app?vid=e52b41b5-52df-4c67-a85c-3cebb3bf7504"},"vehicle_type_id":"4","last_reported":1742055000,"current_range_meters":10800,"station_id":"ce4bhsh2rcd13ifvqi2g","pricing_plan_id":"cebpf4jnsgd1na2vs0mg"},{"bike_id":"6c4c4fcf-6abb-4527-a62d-96a3cc1a4af4","system_id":"levelo_inurba_marseille","lat":43.30432,"lon":5.389,"is_reserved":false,"is_disabled":false,"rental_uris":{"android":"levelo://app?vid=6c4c4fcf-6abb-4527-a62d-96a3cc1a4af4","ios":"levelo://app?vid=6c4c4fcf-6abb-4527-a62d-96a3cc1a4af4"},"vehicle_type_id":"4","last_reported":1742055000,"current_range_meters":10800,"station_id":"ce4bgk12rcd13ifvqbi0","pricing_plan_id":"cebpf4jnsgd1na2vs0mg"},{"bike_id":"056afbe9-d367-408a-b34f-a273a77b6895","system_id":"levelo_inurba_marseille","lat":43.28566,"lon":5.395,"is_reserved":false,"is_disabled":false,"rental_uris":{"android":"levelo://app?vid=056afbe9-d367-408a-b34f-a273a77b6895","ios":"levelo://app?vid=056afbe9-d367-408a-b34f-a273a77b6895"},"vehicle_type_id":"4","last_reported":1742055000,"current_range_meters":10800,"station_id":"ce4bh292rcd13ifvqdg0","pricing_plan_id":"cebpf4jnsgd1na2vs0mg"},{"bike_id":"2a3c2f07-9a75-441b-91f8-73ab9a258ccd","system_id":"levelo_inurba_marseille","lat":43.31884,"lon":5.40738,"is_reserved":false,"is_disabled":false,"rental_uris":{"android":"levelo://app?vid=2a3c2f07-9a75-441b-91f8-73ab9a258ccd","ios":"levelo://app?vid=2a3c2f07-9a75-441b-91f8-73ab9a258ccd"},"vehicle_type_id":"4","last_reported":1742055000,"current_range_meters":10800,"station_id":"ce4bhq12rcd13ifvqhig","pricing_plan_id":"cebpf4jnsgd1na2vs0mg"},{"bike_id":"57b27311-0003-49f9-ac0c-52809c384999","system_id":"levelo_inurba_marseille","lat":43.23964,"lon":5.36635,"is_reserved":false,"is_disabled":false,"rental_uris":{"android":"levelo://app?vid=57b27311-0003-49f9-ac0c-52809c384999","ios":"levelo://app?vid=57b27311-0003-49f9-ac0c-52809c384999"},"vehicle_type_id":"4","last_reported":1742055000,"current_range_meters":10800,"station_id":"ce4bhi12rcd13ifvqfp0","pricing_plan_id":"cebpf4jnsgd1na2vs0mg"},{"bike_id":"3b8ac4ae-d14f-41f5-b54f-497da7a2f1d1","system_id":"levelo_inurba_marseille","lat":43.28429,"lon":5.34989,"is_reserved":false,"is_disabled":false,"rental_uris":{"android":"levelo://app?vid=3b8ac4ae-d14f-41f5-b54f-497da7a2f1d1","ios":"levelo://app?vid=3b8ac4ae-d14f-41f5-b54f-497da7a2f1d1"},"vehicle_type_id":"4","last_reported":1742055000,"current_range_meters":11200,"station_id":"ce4bhbh2rcd13ifvqepg","pricing_plan_id":"cebpf4jnsgd1na2vs0mg"},{"bike_id":"faa675c3-cf68-4dc8-b2fe-ab7c3c21c1b1","system_id":"levelo_inurba_marseille","lat":43.23188,"lon":5.3556,"is_reserved":false,"is_disabled":false,"rental_uris":{"android":"levelo://app?vid=faa675c3-cf68-4dc8-b2fe-ab7c3c21c1b1","ios":"levelo://app?vid=faa675c3-cf68-4dc8-b2fe-ab7c3c21c1b1"},"vehicle_type_id":"4","last_reported":1742055000,"current_range_meters":11200,"station_id":"ce4bhu92rcd13ifvqi70","pricing_plan_id":"cebpf4jnsgd1na2vs0mg"},{"bike_id":"0a73fef7-93b3-42df-b67d-9069bceb19ce","system_id":"levelo_inurba_marseille","lat":43.30472,"lon":5.3791,"is_reserved":false,"is_disabled":false,"rental_uris":{"android":"levelo://app?vid=0a73fef7-93b3-42df-b67d-9069bceb19ce","ios":"levelo://app?vid=0a73fef7-93b3-42df-b67d-9069bceb19ce"},"vehicle_type_id":"4","last_reported":1742055000,"current_range_meters":11200,"station_id":"ce4bgup2rcd13ifvqcn0","pricing_plan_id":"cebpf4jnsgd1na2vs0mg"},{"bike_id":"52566305-be52-4124-a4b8-1d52980429eb","system_id":"levelo_inurba_marseille","lat":43.28692,"lon":5.37403,"is_reserved":false,"is_disabled":false,"rental_uris":{"android":"levelo://app?vid=52566305-be52-4124-a4b8-1d52980429eb","ios":"levelo://app?vid=52566305-be52-4124-a4b8-1d52980429eb"},"vehicle_type_id":"4","last_reported":1742055000,"current_range_meters":11600,"station_id":"ce4bh3p2rcd13ifvqdq0","pricing_plan_id":"cebpf4jnsgd1na2vs0mg"},{"bike_id":"35170032-9fbd-466b-b080-21388ed7720a","system_id":"levelo_inurba_marseille","lat":43.25074,"lon":5.3953,"is_reserved":false,"is_disabled":false,"rental_uris":{"android":"levelo://app?vid=35170032-9fbd-466b-b080-21388ed7720a","ios":"levelo://app?vid=35170032-9fbd-466b-b080-21388ed7720a"},"vehicle_type_id":"4","last_reported":1742055000,"current_range_meters":11600,"station_id":"ce4bhm12rcd13ifvqgkg","pricing_plan_id":"cebpf4jnsgd1na2vs0mg"},{"bike_id":"5f7f03a2-add7-44f0-9ebb-8428c5f0e58a","system_id":"levelo_inurba_marseille","lat":43.25941,"lon":5.40907,"is_reserved":false,"is_disabled":false,"rental_uris":{"android":"levelo://app?vid=5f7f03a2-add7-44f0-9ebb-8428c5f0e58a","ios":"levelo://app?vid=5f7f03a2-add7-44f0-9ebb-8428c5f0e58a"},"vehicle_type_id":"4","last_reported":1742055000,"current_range_meters":11600,"station_id":"ce4bhm92rcd13ifvqglg","pricing_plan_id":"cebpf4jnsgd1na2vs0mg"},{"bike_id":"8fa7ae3f-8127-4f44-80df-f609c794bbfc","system_id":"levelo_inurba_marseille","lat":43.30584,"lon":5.39367,"is_reserved":false,"is_disabled":false,"rental_uris":{"android":"levelo://app?vid=8fa7ae3f-8127-4f44-80df-f609c794bbfc","ios":"levelo://app?vid=8fa7ae3f-8127-4f44-80df-f609c794bbfc"},"vehicle_type_id":"4","last_reported":1742055000,"current_range_meters":11600,"station_id":"ce4bh0p2rcd13ifvqd80","pricing_plan_id":"cebpf4jnsgd1na2vs0mg"},{"bike_id":"01908fd7-6b83-42c5-99cd-67f7a757222c","system_id":"levelo_inurba_marseille","lat":43.29029,"lon":5.37556,"is_reserved":false,"is_disabled":false,"rental_uris":{"android":"levelo://app?vid=01908fd7-6b83-42c5-99cd-67f7a757222c","ios":"levelo://app?vid=01908fd7-6b83-42c5-99cd-67f7a757222c"},"vehicle_type_id":"4","last_reported":1742055000,"current_range_meters":11600,"station_id":"ce4bh692rcd13ifvqe90","pricing_plan_id":"cebpf4jnsgd1na2vs0mg"},{"bike_id":"57f16d46-9a26-4a0f-bbd4-4019fba41bd5","system_id":"levelo_inurba_marseille","lat":43.23974,"lon":5.36612,"is_reserved":false,"is_disabled":false,"rental_uris":{"android":"levelo://app?vid=57f16d46-9a26-4a0f-bbd4-4019fba41bd5","ios":"levelo://app?vid=57f16d46-9a26-4a0f-bbd4-4019fba41bd5"},"vehicle_type_id":"4","last_reported":1742055000,"current_range_meters":11600,"station_id":"ce4bhi12rcd13ifvqfp0","pricing_plan_id":"cebpf4jnsgd1na2vs0mg"},{"bike_id":"c07dccac-670f-4330-9789-d18d554723b2","system_id":"levelo_inurba_marseille","lat":43.26065,"lon":5.3938,"is_reserved":false,"is_disabled":false,"rental_uris":{"android":"levelo://app?vid=c07dccac-670f-4330-9789-d18d554723b2","ios":"levelo://app?vid=c07dccac-670f-4330-9789-d18d554723b2"},"vehicle_type_id":"4","last_reported":1742055000,"current_range_meters":11600,"station_id":"ce4bhh92rcd13ifvqfj0","pricing_plan_id":"cebpf4jnsgd1na2vs0mg"},{"bike_id":"3b004741-7683-4cd9-a9e4-276a9e3e0326","system_id":"levelo_inurba_marseille","lat":43.27552,"lon":5.36103,"is_reserved":false,"is_disabled":false,"rental_uris":{"android":"levelo://app?vid=3b004741-7683-4cd9-a9e4-276a9e3e0326","ios":"levelo://app?vid=3b004741-7683-4cd9-a9e4-276a9e3e0326"},"vehicle_type_id":"4","last_reported":1742055000,"current_range_meters":11600,"station_id":"","pricing_plan_id":"cebpf4jnsgd1na2vs0mg"},{"bike_id":"82fb0625-b33b-4d01-9f26-afaf0b9368eb","system_id":"levelo_inurba_marseille","lat":43.27372,"lon":5.36252,"is_reserved":false,"is_disabled":false,"rental_uris":{"android":"levelo://app?vid=82fb0625-b33b-4d01-9f26-afaf0b9368eb","ios":"levelo://app?vid=82fb0625-b33b-4d01-9f26-afaf0b9368eb"},"vehicle_type_id":"4","last_reported":1742055000,"current_range_meters":11600,"station_id":"ce4bhbh2rcd13ifvqeo0","pricing_plan_id":"cebpf4jnsgd1na2vs0mg"},{"bike_id":"31710fca-ccfa-43a5-ac6f-5ec923018ebf","system_id":"levelo_inurba_marseille","lat":43.27424,"lon":5.42039,"is_reserved":false,"is_disabled":false,"rental_uris":{"android":"levelo://app?vid=31710fca-ccfa-43a5-ac6f-5ec923018ebf","ios":"levelo://app?vid=31710fca-ccfa-43a5-ac6f-5ec923018ebf"},"vehicle_type_id":"4","last_reported":1742055000,"current_range_meters":11600,"station_id":"","pricing_plan_id":"cebpf4jnsgd1na2vs0mg"},{"bike_id":"b47842d7-9953-42d2-9773-270639ad4308","system_id":"levelo_inurba_marseille","lat":43.23187,"lon":5.35552,"is_reserved":false,"is_disabled":false,"rental_uris":{"android":"levelo://app?vid=b47842d7-9953-42d2-9773-270639ad4308","ios":"levelo://app?vid=b47842d7-9953-42d2-9773-270639ad4308"},"vehicle_type_id":"4","last_reported":1742055000,"current_range_meters":12000,"station_id":"ce4bhu92rcd13ifvqi70","pricing_plan_id":"cebpf4jnsgd1na2vs0mg"},{"bike_id":"a62f48c3-fdfb-43b6-bd9e-19a1b0177ea5","system_id":"levelo_inurba_marseille","lat":43.2957,"lon":5.37527,"is_reserved":false,"is_disabled":false,"rental_uris":{"android":"levelo://app?vid=a62f48c3-fdfb-43b6-bd9e-19a1b0177ea5","ios":"levelo://app?vid=a62f48c3-fdfb-43b6-bd9e-19a1b0177ea5"},"vehicle_type_id":"4","last_reported":1742055000,"current_range_meters":12000,"station_id":"ce4bgh92rcd13ifvqb50","pricing_plan_id":"cebpf4jnsgd1na2vs0mg"},{"bike_id":"375049b6-913e-4df0-b02a-575b6ad0eab0","system_id":"levelo_inurba_marseille","lat":43.28273,"lon":5.35074,"is_reserved":false,"is_disabled":false,"rental_uris":{"android":"levelo://app?vid=375049b6-913e-4df0-b02a-575b6ad0eab0","ios":"levelo://app?vid=375049b6-913e-4df0-b02a-575b6ad0eab0"},"vehicle_type_id":"4","last_reported":1742055000,"current_range_meters":12000,"station_id":"ce4bhbp2rcd13ifvqerg","pricing_plan_id":"cebpf4jnsgd1na2vs0mg"},{"bike_id":"3f51f1f5-7a39-4364-adc9-c4c0ef6e90b0","system_id":"levelo_inurba_marseille","lat":43.28613,"lon":5.35095,"is_reserved":false,"is_disabled":false,"rental_uris":{"android":"levelo://app?vid=3f51f1f5-7a39-4364-adc9-c4c0ef6e90b0","ios":"levelo://app?vid=3f51f1f5-7a39-4364-adc9-c4c0ef6e90b0"},"vehicle_type_id":"4","last_reported":1742055000,"current_range_meters":12000,"station_id":"ce4bhch2rcd13ifvqeug","pricing_plan_id":"cebpf4jnsgd1na2vs0mg"},{"bike_id":"b0dbce08-c7cb-4e6f-91ca-9e6740f2e192","system_id":"levelo_inurba_marseille","lat":43.3068,"lon":5.40063,"is_reserved":false,"is_disabled":false,"rental_uris":{"android":"levelo://app?vid=b0dbce08-c7cb-4e6f-91ca-9e6740f2e192","ios":"levelo://app?vid=b0dbce08-c7cb-4e6f-91ca-9e6740f2e192"},"vehicle_type_id":"4","last_reported":1742055000,"current_range_meters":12000,"station_id":"ce4bh112rcd13ifvqda0","pricing_plan_id":"cebpf4jnsgd1na2vs0mg"},{"bike_id":"9315083a-4c45-437a-afee-1d416eb69510","system_id":"levelo_inurba_marseille","lat":43.24071,"lon":5.37759,"is_reserved":false,"is_disabled":false,"rental_uris":{"android":"levelo://app?vid=9315083a-4c45-437a-afee-1d416eb69510","ios":"levelo://app?vid=9315083a-4c45-437a-afee-1d416eb69510"},"vehicle_type_id":"4","last_reported":1742055000,"current_range_meters":12000,"station_id":"ce4bhnp2rcd13ifvqgvg","pricing_plan_id":"cebpf4jnsgd1na2vs0mg"},{"bike_id":"a1c5a47a-a49b-492b-b4e2-7ab108ace97f","system_id":"levelo_inurba_marseille","lat":43.26775,"lon":5.39418,"is_reserved":false,"is_disabled":false,"rental_uris":{"android":"levelo://app?vid=a1c5a47a-a49b-492b-b4e2-7ab108ace97f","ios":"levelo://app?vid=a1c5a47a-a49b-492b-b4e2-7ab108ace97f"},"vehicle_type_id":"4","last_reported":1742055000,"current_range_meters":12000,"station_id":"ce4bhh12rcd13ifvqfg0","pricing_plan_id":"cebpf4jnsgd1na2vs0mg"},{"bike_id":"d1a74226-cbcb-4ad2-a7b6-438817a1017d","system_id":"levelo_inurba_marseille","lat":43.28938,"lon":5.36637,"is_reserved":false,"is_disabled":false,"rental_uris":{"android":"levelo://app?vid=d1a74226-cbcb-4ad2-a7b6-438817a1017d","ios":"levelo://app?vid=d1a74226-cbcb-4ad2-a7b6-438817a1017d"},"vehicle_type_id":"4","last_reported":1742055000,"current_range_meters":12000,"station_id":"ce4bhap2rcd13ifvqek0","pricing_plan_id":"cebpf4jnsgd1na2vs0mg"},{"bike_id":"b723aca3-8e78-42dc-aea3-2292da138d59","system_id":"levelo_inurba_marseille","lat":43.2305,"lon":5.35488,"is_reserved":false,"is_disabled":false,"rental_uris":{"android":"levelo://app?vid=b723aca3-8e78-42dc-aea3-2292da138d59","ios":"levelo://app?vid=b723aca3-8e78-42dc-aea3-2292da138d59"},"vehicle_type_id":"4","last_reported":1742055000,"current_range_meters":12000,"station_id":"cpo3342slgdg3j2ifvpg","pricing_plan_id":"cebpf4jnsgd1na2vs0mg"},{"bike_id":"6daab862-f420-4392-a0fa-b852e24dc7a0","system_id":"levelo_inurba_marseille","lat":43.3053,"lon":5.36534,"is_reserved":false,"is_disabled":false,"rental_uris":{"android":"levelo://app?vid=6daab862-f420-4392-a0fa-b852e24dc7a0","ios":"levelo://app?vid=6daab862-f420-4392-a0fa-b852e24dc7a0"},"vehicle_type_id":"4","last_reported":1742055000,"current_range_meters":12000,"station_id":"ce4bgs12rcd13ifvqcag","pricing_plan_id":"cebpf4jnsgd1na2vs0mg"},{"bike_id":"11504b91-1f7a-41c2-a37e-644662f5b476","system_id":"levelo_inurba_marseille","lat":43.2316,"lon":5.43715,"is_reserved":false,"is_disabled":false,"rental_uris":{"android":"levelo://app?vid=11504b91-1f7a-41c2-a37e-644662f5b476","ios":"levelo://app?vid=11504b91-1f7a-41c2-a37e-644662f5b476"},"vehicle_type_id":"4","last_reported":1742055000,"current_range_meters":12000,"station_id":"ce4bhmp2rcd13ifvqgog","pricing_plan_id":"cebpf4jnsgd1na2vs0mg"},{"bike_id":"e2461e35-53b7-42f4-97f1-da527f694ed0","system_id":"levelo_inurba_marseille","lat":43.28423,"lon":5.3499,"is_reserved":false,"is_disabled":false,"rental_uris":{"android":"levelo://app?vid=e2461e35-53b7-42f4-97f1-da527f694ed0","ios":"levelo://app?vid=e2461e35-53b7-42f4-97f1-da527f694ed0"},"vehicle_type_id":"4","last_reported":1742055000,"current_range_meters":12000,"station_id":"ce4bhbh2rcd13ifvqepg","pricing_plan_id":"cebpf4jnsgd1na2vs0mg"},{"bike_id":"1679bc3e-810b-489e-914d-1c3a960d3af7","system_id":"levelo_inurba_marseille","lat":43.29706,"lon":5.3769,"is_reserved":false,"is_disabled":false,"rental_uris":{"android":"levelo://app?vid=1679bc3e-810b-489e-914d-1c3a960d3af7","ios":"levelo://app?vid=1679bc3e-810b-489e-914d-1c3a960d3af7"},"vehicle_type_id":"4","last_reported":1742055000,"current_range_meters":12400,"station_id":"ce4bgkh2rcd13ifvqbl0","pricing_plan_id":"cebpf4jnsgd1na2vs0mg"},{"bike_id":"a4eb6416-84c2-4c56-82a7-b89d5cdca4c8","system_id":"levelo_inurba_marseille","lat":43.29612,"lon":5.37721,"is_reserved":false,"is_disabled":true,"rental_uris":{"android":"levelo://app?vid=a4eb6416-84c2-4c56-82a7-b89d5cdca4c8","ios":"levelo://app?vid=a4eb6416-84c2-4c56-82a7-b89d5cdca4c8"},"vehicle_type_id":"4","last_reported":1742055000,"current_range_meters":12400,"station_id":"ce4bgi92rcd13ifvqb90","pricing_plan_id":"cebpf4jnsgd1na2vs0mg"},{"bike_id":"34e9e697-ffec-4d84-beb9-0ca724397c49","system_id":"levelo_inurba_marseille","lat":43.29188,"lon":5.35804,"is_reserved":false,"is_disabled":false,"rental_uris":{"android":"levelo://app?vid=34e9e697-ffec-4d84-beb9-0ca724397c49","ios":"levelo://app?vid=34e9e697-ffec-4d84-beb9-0ca724397c49"},"vehicle_type_id":"4","last_reported":1742055000,"current_range_meters":12400,"station_id":"ce4bhb12rcd13ifvqel0","pricing_plan_id":"cebpf4jnsgd1na2vs0mg"},{"bike_id":"efa6ddd8-f1e2-4773-8325-5723f669c8cf","system_id":"levelo_inurba_marseille","lat":43.25574,"lon":5.3824,"is_reserved":false,"is_disabled":false,"rental_uris":{"android":"levelo://app?vid=efa6ddd8-f1e2-4773-8325-5723f669c8cf","ios":"levelo://app?vid=efa6ddd8-f1e2-4773-8325-5723f669c8cf"},"vehicle_type_id":"4","last_reported":1742055000,"current_range_meters":12400,"station_id":"ce4bhih2rcd13ifvqfs0","pricing_plan_id":"cebpf4jnsgd1na2vs0mg"},{"bike_id":"dd07a884-0c61-4f73-be55-5835c27dd8c2","system_id":"levelo_inurba_marseille","lat":43.288559,"lon":5.393086,"is_reserved":false,"is_disabled":false,"rental_uris":{"android":"levelo://app?vid=dd07a884-0c61-4f73-be55-5835c27dd8c2","ios":"levelo://app?vid=dd07a884-0c61-4f73-be55-5835c27dd8c2"},"vehicle_type_id":"4","last_reported":1742055000,"current_range_meters":12400,"station_id":"ce4bh2p2rcd13ifvqdi0","pricing_plan_id":"cebpf4jnsgd1na2vs0mg"},{"bike_id":"e2eeef0a-6097-43b2-ac9f-071e43b60347","system_id":"levelo_inurba_marseille","lat":43.28412,"lon":5.37514,"is_reserved":false,"is_disabled":false,"rental_uris":{"android":"levelo://app?vid=e2eeef0a-6097-43b2-ac9f-071e43b60347","ios":"levelo://app?vid=e2eeef0a-6097-43b2-ac9f-071e43b60347"},"vehicle_type_id":"4","last_reported":1742055000,"current_range_meters":12800,"station_id":"ce4bh412rcd13ifvqds0","pricing_plan_id":"cebpf4jnsgd1na2vs0mg"},{"bike_id":"fc071de1-2cc0-488a-a43e-f8037a5a9a49","system_id":"levelo_inurba_marseille","lat":43.23071,"lon":5.35486,"is_reserved":false,"is_disabled":false,"rental_uris":{"android":"levelo://app?vid=fc071de1-2cc0-488a-a43e-f8037a5a9a49","ios":"levelo://app?vid=fc071de1-2cc0-488a-a43e-f8037a5a9a49"},"vehicle_type_id":"4","last_reported":1742055000,"current_range_meters":12800,"station_id":"cpo3342slgdg3j2ifvpg","pricing_plan_id":"cebpf4jnsgd1na2vs0mg"},{"bike_id":"bf24425f-23c5-4f7b-b4db-28efd5203bd3","system_id":"levelo_inurba_marseille","lat":43.2558,"lon":5.38234,"is_reserved":false,"is_disabled":false,"rental_uris":{"android":"levelo://app?vid=bf24425f-23c5-4f7b-b4db-28efd5203bd3","ios":"levelo://app?vid=bf24425f-23c5-4f7b-b4db-28efd5203bd3"},"vehicle_type_id":"4","last_reported":1742055000,"current_range_meters":12800,"station_id":"ce4bhih2rcd13ifvqfs0","pricing_plan_id":"cebpf4jnsgd1na2vs0mg"},{"bike_id":"9954dfb0-7ecf-43ca-8e5a-071412421302","system_id":"levelo_inurba_marseille","lat":43.23962,"lon":5.36639,"is_reserved":false,"is_disabled":false,"rental_uris":{"android":"levelo://app?vid=9954dfb0-7ecf-43ca-8e5a-071412421302","ios":"levelo://app?vid=9954dfb0-7ecf-43ca-8e5a-071412421302"},"vehicle_type_id":"4","last_reported":1742055000,"current_range_meters":12800,"station_id":"ce4bhi12rcd13ifvqfp0","pricing_plan_id":"cebpf4jnsgd1na2vs0mg"},{"bike_id":"28ad41ec-2616-4247-b11d-e9e1d45d01ab","system_id":"levelo_inurba_marseille","lat":43.26497,"lon":5.39539,"is_reserved":false,"is_disabled":false,"rental_uris":{"android":"levelo://app?vid=28ad41ec-2616-4247-b11d-e9e1d45d01ab","ios":"levelo://app?vid=28ad41ec-2616-4247-b11d-e9e1d45d01ab"},"vehicle_type_id":"4","last_reported":1742055000,"current_range_meters":12800,"station_id":"ce4bhi12rcd13ifvqfq0","pricing_plan_id":"cebpf4jnsgd1na2vs0mg"},{"bike_id":"3644547e-02c0-4dcf-9880-ba5525f7e3a1","system_id":"levelo_inurba_marseille","lat":43.28156,"lon":5.42656,"is_reserved":false,"is_disabled":false,"rental_uris":{"android":"levelo://app?vid=3644547e-02c0-4dcf-9880-ba5525f7e3a1","ios":"levelo://app?vid=3644547e-02c0-4dcf-9880-ba5525f7e3a1"},"vehicle_type_id":"4","last_reported":1742055000,"current_range_meters":12800,"station_id":"ce4bhnh2rcd13ifvqgug","pricing_plan_id":"cebpf4jnsgd1na2vs0mg"},{"bike_id":"71b342b8-694b-40d5-99e8-310baf77a970","system_id":"levelo_inurba_marseille","lat":43.23056,"lon":5.35491,"is_reserved":false,"is_disabled":false,"rental_uris":{"android":"levelo://app?vid=71b342b8-694b-40d5-99e8-310baf77a970","ios":"levelo://app?vid=71b342b8-694b-40d5-99e8-310baf77a970"},"vehicle_type_id":"4","last_reported":1742055000,"current_range_meters":13600,"station_id":"cpo3342slgdg3j2ifvpg","pricing_plan_id":"cebpf4jnsgd1na2vs0mg"},{"bike_id":"90c707aa-0edc-4e94-a911-252e6bd4d4c2","system_id":"levelo_inurba_marseille","lat":43.28615,"lon":5.35178,"is_reserved":false,"is_disabled":false,"rental_uris":{"android":"levelo://app?vid=90c707aa-0edc-4e94-a911-252e6bd4d4c2","ios":"levelo://app?vid=90c707aa-0edc-4e94-a911-252e6bd4d4c2"},"vehicle_type_id":"4","last_reported":1742055000,"current_range_meters":13600,"station_id":"","pricing_plan_id":"cebpf4jnsgd1na2vs0mg"},{"bike_id":"81081d8a-a0c8-4e12-9e09-8518d9fd22d5","system_id":"levelo_inurba_marseille","lat":43.29927,"lon":5.3655,"is_reserved":false,"is_disabled":false,"rental_uris":{"android":"levelo://app?vid=81081d8a-a0c8-4e12-9e09-8518d9fd22d5","ios":"levelo://app?vid=81081d8a-a0c8-4e12-9e09-8518d9fd22d5"},"vehicle_type_id":"4","last_reported":1742055000,"current_range_meters":13600,"station_id":"ce4bgm92rcd13ifvqbr0","pricing_plan_id":"cebpf4jnsgd1na2vs0mg"},{"bike_id":"3be20453-c79d-4afe-94d9-791c7b756a71","system_id":"levelo_inurba_marseille","lat":43.29752,"lon":5.37667,"is_reserved":false,"is_disabled":false,"rental_uris":{"android":"levelo://app?vid=3be20453-c79d-4afe-94d9-791c7b756a71","ios":"levelo://app?vid=3be20453-c79d-4afe-94d9-791c7b756a71"},"vehicle_type_id":"4","last_reported":1742055000,"current_range_meters":13600,"station_id":"","pricing_plan_id":"cebpf4jnsgd1na2vs0mg"},{"bike_id":"174c9c66-b172-484e-b7f9-5752aa18aabf","system_id":"levelo_inurba_marseille","lat":43.23066,"lon":5.35498,"is_reserved":false,"is_disabled":false,"rental_uris":{"android":"levelo://app?vid=174c9c66-b172-484e-b7f9-5752aa18aabf","ios":"levelo://app?vid=174c9c66-b172-484e-b7f9-5752aa18aabf"},"vehicle_type_id":"4","last_reported":1742055000,"current_range_meters":13600,"station_id":"cpo3342slgdg3j2ifvpg","pricing_plan_id":"cebpf4jnsgd1na2vs0mg"},{"bike_id":"e1bc5517-89cc-4fbd-afdb-e8d3c61b8e55","system_id":"levelo_inurba_marseille","lat":43.32349,"lon":5.36761,"is_reserved":false,"is_disabled":false,"rental_uris":{"android":"levelo://app?vid=e1bc5517-89cc-4fbd-afdb-e8d3c61b8e55","ios":"levelo://app?vid=e1bc5517-89cc-4fbd-afdb-e8d3c61b8e55"},"vehicle_type_id":"4","last_reported":1742055000,"current_range_meters":13600,"station_id":"ce4bhsh2rcd13ifvqi2g","pricing_plan_id":"cebpf4jnsgd1na2vs0mg"},{"bike_id":"58a52cd0-0dcc-4637-b15f-cdcc10517dc6","system_id":"levelo_inurba_marseille","lat":43.30889,"lon":5.39654,"is_reserved":false,"is_disabled":false,"rental_uris":{"android":"levelo://app?vid=58a52cd0-0dcc-4637-b15f-cdcc10517dc6","ios":"levelo://app?vid=58a52cd0-0dcc-4637-b15f-cdcc10517dc6"},"vehicle_type_id":"4","last_reported":1742055000,"current_range_meters":13600,"station_id":"ce4bh012rcd13ifvqcv0","pricing_plan_id":"cebpf4jnsgd1na2vs0mg"},{"bike_id":"8f447b10-dfd1-4a75-bb18-6702a6d0fa07","system_id":"levelo_inurba_marseille","lat":43.28422,"lon":5.34987,"is_reserved":false,"is_disabled":false,"rental_uris":{"android":"levelo://app?vid=8f447b10-dfd1-4a75-bb18-6702a6d0fa07","ios":"levelo://app?vid=8f447b10-dfd1-4a75-bb18-6702a6d0fa07"},"vehicle_type_id":"4","last_reported":1742055000,"current_range_meters":13600,"station_id":"ce4bhbh2rcd13ifvqepg","pricing_plan_id":"cebpf4jnsgd1na2vs0mg"},{"bike_id":"c79bb127-8198-4096-96ea-1444569e00c1","system_id":"levelo_inurba_marseille","lat":43.23958,"lon":5.36628,"is_reserved":false,"is_disabled":true,"rental_uris":{"android":"levelo://app?vid=c79bb127-8198-4096-96ea-1444569e00c1","ios":"levelo://app?vid=c79bb127-8198-4096-96ea-1444569e00c1"},"vehicle_type_id":"4","last_reported":1742055000,"current_range_meters":13600,"station_id":"ce4bhi12rcd13ifvqfp0","pricing_plan_id":"cebpf4jnsgd1na2vs0mg"},{"bike_id":"084e9cd0-ba7b-4410-911b-bd29122b16f6","system_id":"levelo_inurba_marseille","lat":43.24175,"lon":5.36404,"is_reserved":false,"is_disabled":false,"rental_uris":{"android":"levelo://app?vid=084e9cd0-ba7b-4410-911b-bd29122b16f6","ios":"levelo://app?vid=084e9cd0-ba7b-4410-911b-bd29122b16f6"},"vehicle_type_id":"4","last_reported":1742055000,"current_range_meters":13600,"station_id":"cpo36qri1sfpv3e86is0","pricing_plan_id":"cebpf4jnsgd1na2vs0mg"},{"bike_id":"7733fdbd-d33e-4333-a5b9-d130cbed8b88","system_id":"levelo_inurba_marseille","lat":43.30215,"lon":5.39468,"is_reserved":false,"is_disabled":false,"rental_uris":{"android":"levelo://app?vid=7733fdbd-d33e-4333-a5b9-d130cbed8b88","ios":"levelo://app?vid=7733fdbd-d33e-4333-a5b9-d130cbed8b88"},"vehicle_type_id":"4","last_reported":1742055000,"current_range_meters":13600,"station_id":"ce4bh0p2rcd13ifvqd70","pricing_plan_id":"cebpf4jnsgd1na2vs0mg"},{"bike_id":"9f9b5d36-9af3-4740-8518-afc3f38d853f","system_id":"levelo_inurba_marseille","lat":43.29969,"lon":5.38501,"is_reserved":false,"is_disabled":false,"rental_uris":{"android":"levelo://app?vid=9f9b5d36-9af3-4740-8518-afc3f38d853f","ios":"levelo://app?vid=9f9b5d36-9af3-4740-8518-afc3f38d853f"},"vehicle_type_id":"4","last_reported":1742055000,"current_range_meters":13600,"station_id":"ce4bgj92rcd13ifvqbd0","pricing_plan_id":"cebpf4jnsgd1na2vs0mg"},{"bike_id":"33d362ce-1040-432f-b004-765a5c204f23","system_id":"levelo_inurba_marseille","lat":43.29363,"lon":5.37834,"is_reserved":false,"is_disabled":false,"rental_uris":{"android":"levelo://app?vid=33d362ce-1040-432f-b004-765a5c204f23","ios":"levelo://app?vid=33d362ce-1040-432f-b004-765a5c204f23"},"vehicle_type_id":"4","last_reported":1742055000,"current_range_meters":14000,"station_id":"ce4bgjh2rcd13ifvqbf0","pricing_plan_id":"cebpf4jnsgd1na2vs0mg"},{"bike_id":"b436455f-2f5e-471b-8ab4-717b48d7d9f5","system_id":"levelo_inurba_marseille","lat":43.29004,"lon":5.35604,"is_reserved":false,"is_disabled":false,"rental_uris":{"android":"levelo://app?vid=b436455f-2f5e-471b-8ab4-717b48d7d9f5","ios":"levelo://app?vid=b436455f-2f5e-471b-8ab4-717b48d7d9f5"},"vehicle_type_id":"4","last_reported":1742055000,"current_range_meters":14000,"station_id":"ce4bhb92rcd13ifvqen0","pricing_plan_id":"cebpf4jnsgd1na2vs0mg"},{"bike_id":"0162ff87-7148-49d2-82e1-db37eca7d49d","system_id":"levelo_inurba_marseille","lat":43.28616,"lon":5.35102,"is_reserved":false,"is_disabled":false,"rental_uris":{"android":"levelo://app?vid=0162ff87-7148-49d2-82e1-db37eca7d49d","ios":"levelo://app?vid=0162ff87-7148-49d2-82e1-db37eca7d49d"},"vehicle_type_id":"4","last_reported":1742055000,"current_range_meters":14000,"station_id":"ce4bhch2rcd13ifvqeug","pricing_plan_id":"cebpf4jnsgd1na2vs0mg"},{"bike_id":"5faa21a1-fd56-41f0-b8be-a3d5df04de7d","system_id":"levelo_inurba_marseille","lat":43.28994,"lon":5.35618,"is_reserved":false,"is_disabled":false,"rental_uris":{"android":"levelo://app?vid=5faa21a1-fd56-41f0-b8be-a3d5df04de7d","ios":"levelo://app?vid=5faa21a1-fd56-41f0-b8be-a3d5df04de7d"},"vehicle_type_id":"4","last_reported":1742055000,"current_range_meters":14000,"station_id":"ce4bhb92rcd13ifvqen0","pricing_plan_id":"cebpf4jnsgd1na2vs0mg"},{"bike_id":"865c01ff-048d-478a-9b3a-a6ddac1c1fee","system_id":"levelo_inurba_marseille","lat":43.28938,"lon":5.36648,"is_reserved":false,"is_disabled":false,"rental_uris":{"android":"levelo://app?vid=865c01ff-048d-478a-9b3a-a6ddac1c1fee","ios":"levelo://app?vid=865c01ff-048d-478a-9b3a-a6ddac1c1fee"},"vehicle_type_id":"4","last_reported":1742055000,"current_range_meters":14400,"station_id":"ce4bhap2rcd13ifvqek0","pricing_plan_id":"cebpf4jnsgd1na2vs0mg"},{"bike_id":"1fd64e21-8759-4b4e-b39c-efb2e61321d7","system_id":"levelo_inurba_marseille","lat":43.29362,"lon":5.3742,"is_reserved":false,"is_disabled":false,"rental_uris":{"android":"levelo://app?vid=1fd64e21-8759-4b4e-b39c-efb2e61321d7","ios":"levelo://app?vid=1fd64e21-8759-4b4e-b39c-efb2e61321d7"},"vehicle_type_id":"4","last_reported":1742055000,"current_range_meters":14400,"station_id":"","pricing_plan_id":"cebpf4jnsgd1na2vs0mg"},{"bike_id":"95dc4c20-535f-4b12-8794-d391d361818b","system_id":"levelo_inurba_marseille","lat":43.28424,"lon":5.34988,"is_reserved":false,"is_disabled":false,"rental_uris":{"android":"levelo://app?vid=95dc4c20-535f-4b12-8794-d391d361818b","ios":"levelo://app?vid=95dc4c20-535f-4b12-8794-d391d361818b"},"vehicle_type_id":"4","last_reported":1742055000,"current_range_meters":14400,"station_id":"ce4bhbh2rcd13ifvqepg","pricing_plan_id":"cebpf4jnsgd1na2vs0mg"},{"bike_id":"f238c0df-d3c9-4577-a186-a5d3f05e229a","system_id":"levelo_inurba_marseille","lat":43.25824,"lon":5.39438,"is_reserved":false,"is_disabled":false,"rental_uris":{"android":"levelo://app?vid=f238c0df-d3c9-4577-a186-a5d3f05e229a","ios":"levelo://app?vid=f238c0df-d3c9-4577-a186-a5d3f05e229a"},"vehicle_type_id":"4","last_reported":1742055000,"current_range_meters":14400,"station_id":"ce4bhip2rcd13ifvqft0","pricing_plan_id":"cebpf4jnsgd1na2vs0mg"},{"bike_id":"d142b1ee-8c15-49f1-8c54-7b830a7010ab","system_id":"levelo_inurba_marseille","lat":43.2737,"lon":5.36258,"is_reserved":false,"is_disabled":false,"rental_uris":{"android":"levelo://app?vid=d142b1ee-8c15-49f1-8c54-7b830a7010ab","ios":"levelo://app?vid=d142b1ee-8c15-49f1-8c54-7b830a7010ab"},"vehicle_type_id":"4","last_reported":1742055000,"current_range_meters":14400,"station_id":"ce4bhbh2rcd13ifvqeo0","pricing_plan_id":"cebpf4jnsgd1na2vs0mg"},{"bike_id":"3848eee5-d283-4727-b2b2-9fae90c5be8c","system_id":"levelo_inurba_marseille","lat":43.284272,"lon":5.349682,"is_reserved":false,"is_disabled":false,"rental_uris":{"android":"levelo://app?vid=3848eee5-d283-4727-b2b2-9fae90c5be8c","ios":"levelo://app?vid=3848eee5-d283-4727-b2b2-9fae90c5be8c"},"vehicle_type_id":"4","last_reported":1742055000,"current_range_meters":14400,"station_id":"ce4bhbh2rcd13ifvqepg","pricing_plan_id":"cebpf4jnsgd1na2vs0mg"},{"bike_id":"8c040b46-fae8-466e-b505-560ba2300a4e","system_id":"levelo_inurba_marseille","lat":43.28419,"lon":5.34996,"is_reserved":false,"is_disabled":false,"rental_uris":{"android":"levelo://app?vid=8c040b46-fae8-466e-b505-560ba2300a4e","ios":"levelo://app?vid=8c040b46-fae8-466e-b505-560ba2300a4e"},"vehicle_type_id":"4","last_reported":1742055000,"current_range_meters":14400,"station_id":"ce4bhbh2rcd13ifvqepg","pricing_plan_id":"cebpf4jnsgd1na2vs0mg"},{"bike_id":"1fc82b3a-a7f7-450b-93aa-2ad5183ba94d","system_id":"levelo_inurba_marseille","lat":43.3091,"lon":5.36832,"is_reserved":false,"is_disabled":false,"rental_uris":{"android":"levelo://app?vid=1fc82b3a-a7f7-450b-93aa-2ad5183ba94d","ios":"levelo://app?vid=1fc82b3a-a7f7-450b-93aa-2ad5183ba94d"},"vehicle_type_id":"4","last_reported":1742055000,"current_range_meters":14400,"station_id":"ce4bgn92rcd13ifvqbvg","pricing_plan_id":"cebpf4jnsgd1na2vs0mg"},{"bike_id":"66d02602-61d8-48d6-bef7-1dfae6f8779e","system_id":"levelo_inurba_marseille","lat":43.26063,"lon":5.39396,"is_reserved":false,"is_disabled":false,"rental_uris":{"android":"levelo://app?vid=66d02602-61d8-48d6-bef7-1dfae6f8779e","ios":"levelo://app?vid=66d02602-61d8-48d6-bef7-1dfae6f8779e"},"vehicle_type_id":"4","last_reported":1742055000,"current_range_meters":14400,"station_id":"ce4bhh92rcd13ifvqfj0","pricing_plan_id":"cebpf4jnsgd1na2vs0mg"},{"bike_id":"856bbca5-b02c-40e6-80da-8a04a04a4861","system_id":"levelo_inurba_marseille","lat":43.31052,"lon":5.38356,"is_reserved":false,"is_disabled":false,"rental_uris":{"android":"levelo://app?vid=856bbca5-b02c-40e6-80da-8a04a04a4861","ios":"levelo://app?vid=856bbca5-b02c-40e6-80da-8a04a04a4861"},"vehicle_type_id":"4","last_reported":1742055000,"current_range_meters":14400,"station_id":"ce4bgv92rcd13ifvqcr0","pricing_plan_id":"cebpf4jnsgd1na2vs0mg"},{"bike_id":"b170941c-bfa6-4767-9be1-66e8af13ab14","system_id":"levelo_inurba_marseille","lat":43.29005,"lon":5.35617,"is_reserved":false,"is_disabled":false,"rental_uris":{"android":"levelo://app?vid=b170941c-bfa6-4767-9be1-66e8af13ab14","ios":"levelo://app?vid=b170941c-bfa6-4767-9be1-66e8af13ab14"},"vehicle_type_id":"4","last_reported":1742055000,"current_range_meters":14400,"station_id":"ce4bhb92rcd13ifvqen0","pricing_plan_id":"cebpf4jnsgd1na2vs0mg"},{"bike_id":"a9ccc806-c086-4a4a-9f11-10eeb05e7c73","system_id":"levelo_inurba_marseille","lat":43.27206,"lon":5.39177,"is_reserved":false,"is_disabled":false,"rental_uris":{"android":"levelo://app?vid=a9ccc806-c086-4a4a-9f11-10eeb05e7c73","ios":"levelo://app?vid=a9ccc806-c086-4a4a-9f11-10eeb05e7c73"},"vehicle_type_id":"4","last_reported":1742055000,"current_range_meters":14400,"station_id":"ce4bhhp2rcd13ifvqfm0","pricing_plan_id":"cebpf4jnsgd1na2vs0mg"},{"bike_id":"efa182c5-e8bb-4316-9ac4-4d06270b10d4","system_id":"levelo_inurba_marseille","lat":43.3237,"lon":5.38899,"is_reserved":false,"is_disabled":false,"rental_uris":{"android":"levelo://app?vid=efa182c5-e8bb-4316-9ac4-4d06270b10d4","ios":"levelo://app?vid=efa182c5-e8bb-4316-9ac4-4d06270b10d4"},"vehicle_type_id":"4","last_reported":1742055000,"current_range_meters":14400,"station_id":"ce4bhqp2rcd13ifvqhog","pricing_plan_id":"cebpf4jnsgd1na2vs0mg"},{"bike_id":"e49185cc-5911-464d-8f0b-bc07e8bb57c7","system_id":"levelo_inurba_marseille","lat":43.28989,"lon":5.37588,"is_reserved":false,"is_disabled":false,"rental_uris":{"android":"levelo://app?vid=e49185cc-5911-464d-8f0b-bc07e8bb57c7","ios":"levelo://app?vid=e49185cc-5911-464d-8f0b-bc07e8bb57c7"},"vehicle_type_id":"4","last_reported":1742055000,"current_range_meters":14800,"station_id":"ce4bha12rcd13ifvqee0","pricing_plan_id":"cebpf4jnsgd1na2vs0mg"},{"bike_id":"00422631-b21c-4dac-a29a-41866e25cfad","system_id":"levelo_inurba_marseille","lat":43.248,"lon":5.3747,"is_reserved":false,"is_disabled":false,"rental_uris":{"android":"levelo://app?vid=00422631-b21c-4dac-a29a-41866e25cfad","ios":"levelo://app?vid=00422631-b21c-4dac-a29a-41866e25cfad"},"vehicle_type_id":"4","last_reported":1742055000,"current_range_meters":14800,"station_id":"ce4bhgh2rcd13ifvqfb0","pricing_plan_id":"cebpf4jnsgd1na2vs0mg"},{"bike_id":"772eb41d-f188-41de-b90c-2b1fb38bad96","system_id":"levelo_inurba_marseille","lat":43.32371,"lon":5.38876,"is_reserved":false,"is_disabled":false,"rental_uris":{"android":"levelo://app?vid=772eb41d-f188-41de-b90c-2b1fb38bad96","ios":"levelo://app?vid=772eb41d-f188-41de-b90c-2b1fb38bad96"},"vehicle_type_id":"4","last_reported":1742055000,"current_range_meters":14800,"station_id":"ce4bhqp2rcd13ifvqhog","pricing_plan_id":"cebpf4jnsgd1na2vs0mg"},{"bike_id":"25d0c1d8-6764-49ef-a6d8-1bed49df9fbd","system_id":"levelo_inurba_marseille","lat":43.25124,"lon":5.40324,"is_reserved":false,"is_disabled":false,"rental_uris":{"android":"levelo://app?vid=25d0c1d8-6764-49ef-a6d8-1bed49df9fbd","ios":"levelo://app?vid=25d0c1d8-6764-49ef-a6d8-1bed49df9fbd"},"vehicle_type_id":"4","last_reported":1742055000,"current_range_meters":14800,"station_id":"ce4bhlh2rcd13ifvqgig","pricing_plan_id":"cebpf4jnsgd1na2vs0mg"},{"bike_id":"75ec580f-1d79-4cb2-b034-36b2cec46e35","system_id":"levelo_inurba_marseille","lat":43.30141,"lon":5.39871,"is_reserved":false,"is_disabled":false,"rental_uris":{"android":"levelo://app?vid=75ec580f-1d79-4cb2-b034-36b2cec46e35","ios":"levelo://app?vid=75ec580f-1d79-4cb2-b034-36b2cec46e35"},"vehicle_type_id":"4","last_reported":1742055000,"current_range_meters":14800,"station_id":"ce4bh0h2rcd13ifvqd40","pricing_plan_id":"cebpf4jnsgd1na2vs0mg"},{"bike_id":"7cfe97bf-9009-419e-9a53-361ce612d663","system_id":"levelo_inurba_marseille","lat":43.28697,"lon":5.37393,"is_reserved":false,"is_disabled":true,"rental_uris":{"android":"levelo://app?vid=7cfe97bf-9009-419e-9a53-361ce612d663","ios":"levelo://app?vid=7cfe97bf-9009-419e-9a53-361ce612d663"},"vehicle_type_id":"4","last_reported":1742055000,"current_range_meters":14800,"station_id":"ce4bh3p2rcd13ifvqdq0","pricing_plan_id":"cebpf4jnsgd1na2vs0mg"},{"bike_id":"44d3d6ec-29ae-4d5d-bef7-40d0b60bbe8f","system_id":"levelo_inurba_marseille","lat":43.29078,"lon":5.37172,"is_reserved":false,"is_disabled":false,"rental_uris":{"android":"levelo://app?vid=44d3d6ec-29ae-4d5d-bef7-40d0b60bbe8f","ios":"levelo://app?vid=44d3d6ec-29ae-4d5d-bef7-40d0b60bbe8f"},"vehicle_type_id":"4","last_reported":1742055000,"current_range_meters":14800,"station_id":"ce4bh5p2rcd13ifvqe4g","pricing_plan_id":"cebpf4jnsgd1na2vs0mg"},{"bike_id":"eb133d4f-26c4-4c56-ab54-1ada1acf3057","system_id":"levelo_inurba_marseille","lat":43.31119,"lon":5.37778,"is_reserved":false,"is_disabled":false,"rental_uris":{"android":"levelo://app?vid=eb133d4f-26c4-4c56-ab54-1ada1acf3057","ios":"levelo://app?vid=eb133d4f-26c4-4c56-ab54-1ada1acf3057"},"vehicle_type_id":"4","last_reported":1742055000,"current_range_meters":14800,"station_id":"ce4bgt92rcd13ifvqcg0","pricing_plan_id":"cebpf4jnsgd1na2vs0mg"},{"bike_id":"34b9f5f4-34d9-48b8-9e24-c20b547fe510","system_id":"levelo_inurba_marseille","lat":43.27997,"lon":5.40029,"is_reserved":false,"is_disabled":false,"rental_uris":{"android":"levelo://app?vid=34b9f5f4-34d9-48b8-9e24-c20b547fe510","ios":"levelo://app?vid=34b9f5f4-34d9-48b8-9e24-c20b547fe510"},"vehicle_type_id":"4","last_reported":1742055000,"current_range_meters":16000,"station_id":"ce4bho92rcd13ifvqh4g","pricing_plan_id":"cebpf4jnsgd1na2vs0mg"},{"bike_id":"67ca7154-5ce7-4bfd-a5d8-c4711c5cc893","system_id":"levelo_inurba_marseille","lat":43.268,"lon":5.40266,"is_reserved":false,"is_disabled":false,"rental_uris":{"android":"levelo://app?vid=67ca7154-5ce7-4bfd-a5d8-c4711c5cc893","ios":"levelo://app?vid=67ca7154-5ce7-4bfd-a5d8-c4711c5cc893"},"vehicle_type_id":"4","last_reported":1742055000,"current_range_meters":14800,"station_id":"ce501612rcd8frsf0b60","pricing_plan_id":"cebpf4jnsgd1na2vs0mg"},{"bike_id":"a2df54e8-18e4-4021-8fec-e9c5b477e7ad","system_id":"levelo_inurba_marseille","lat":43.2465,"lon":5.38907,"is_reserved":false,"is_disabled":false,"rental_uris":{"android":"levelo://app?vid=a2df54e8-18e4-4021-8fec-e9c5b477e7ad","ios":"levelo://app?vid=a2df54e8-18e4-4021-8fec-e9c5b477e7ad"},"vehicle_type_id":"4","last_reported":1742055000,"current_range_meters":14800,"station_id":"ce4bhg12rcd13ifvqf60","pricing_plan_id":"cebpf4jnsgd1na2vs0mg"},{"bike_id":"4d20b878-6603-4328-ab6e-4a7ae0b08224","system_id":"levelo_inurba_marseille","lat":43.25936,"lon":5.40905,"is_reserved":false,"is_disabled":false,"rental_uris":{"android":"levelo://app?vid=4d20b878-6603-4328-ab6e-4a7ae0b08224","ios":"levelo://app?vid=4d20b878-6603-4328-ab6e-4a7ae0b08224"},"vehicle_type_id":"4","last_reported":1742055000,"current_range_meters":15200,"station_id":"ce4bhm92rcd13ifvqglg","pricing_plan_id":"cebpf4jnsgd1na2vs0mg"},{"bike_id":"e047eb05-c84e-4eb9-a430-24d024850b6f","system_id":"levelo_inurba_marseille","lat":43.22931,"lon":5.35374,"is_reserved":false,"is_disabled":false,"rental_uris":{"android":"levelo://app?vid=e047eb05-c84e-4eb9-a430-24d024850b6f","ios":"levelo://app?vid=e047eb05-c84e-4eb9-a430-24d024850b6f"},"vehicle_type_id":"4","last_reported":1742055000,"current_range_meters":15200,"station_id":"cpo3532slgdg3j2ikp40","pricing_plan_id":"cebpf4jnsgd1na2vs0mg"},{"bike_id":"2885af77-5903-4adc-8dfd-72f019bd263c","system_id":"levelo_inurba_marseille","lat":43.28618,"lon":5.35108,"is_reserved":false,"is_disabled":false,"rental_uris":{"android":"levelo://app?vid=2885af77-5903-4adc-8dfd-72f019bd263c","ios":"levelo://app?vid=2885af77-5903-4adc-8dfd-72f019bd263c"},"vehicle_type_id":"4","last_reported":1742055000,"current_range_meters":15200,"station_id":"ce4bhch2rcd13ifvqeug","pricing_plan_id":"cebpf4jnsgd1na2vs0mg"},{"bike_id":"96c36aa3-82f4-41b0-b3e0-a342f63238a7","system_id":"levelo_inurba_marseille","lat":43.26218,"lon":5.37442,"is_reserved":false,"is_disabled":false,"rental_uris":{"android":"levelo://app?vid=96c36aa3-82f4-41b0-b3e0-a342f63238a7","ios":"levelo://app?vid=96c36aa3-82f4-41b0-b3e0-a342f63238a7"},"vehicle_type_id":"4","last_reported":1742055000,"current_range_meters":15200,"station_id":"ce4bhgp2rcd13ifvqfc0","pricing_plan_id":"cebpf4jnsgd1na2vs0mg"},{"bike_id":"b1749b95-948e-48a3-828f-fc1248c6d71c","system_id":"levelo_inurba_marseille","lat":43.23964,"lon":5.36626,"is_reserved":false,"is_disabled":false,"rental_uris":{"android":"levelo://app?vid=b1749b95-948e-48a3-828f-fc1248c6d71c","ios":"levelo://app?vid=b1749b95-948e-48a3-828f-fc1248c6d71c"},"vehicle_type_id":"4","last_reported":1742055000,"current_range_meters":15200,"station_id":"ce4bhi12rcd13ifvqfp0","pricing_plan_id":"cebpf4jnsgd1na2vs0mg"},{"bike_id":"21ad9322-1064-49ce-881f-b98a92db1bc0","system_id":"levelo_inurba_marseille","lat":43.2748,"lon":5.39442,"is_reserved":false,"is_disabled":false,"rental_uris":{"android":"levelo://app?vid=21ad9322-1064-49ce-881f-b98a92db1bc0","ios":"levelo://app?vid=21ad9322-1064-49ce-881f-b98a92db1bc0"},"vehicle_type_id":"4","last_reported":1742055000,"current_range_meters":15200,"station_id":"","pricing_plan_id":"cebpf4jnsgd1na2vs0mg"},{"bike_id":"1d7f8ff5-bcc8-4b92-a03a-ea3818b4617e","system_id":"levelo_inurba_marseille","lat":43.290227,"lon":5.386372,"is_reserved":false,"is_disabled":true,"rental_uris":{"android":"levelo://app?vid=1d7f8ff5-bcc8-4b92-a03a-ea3818b4617e","ios":"levelo://app?vid=1d7f8ff5-bcc8-4b92-a03a-ea3818b4617e"},"vehicle_type_id":"4","last_reported":1742055000,"current_range_meters":16000,"station_id":"ce4bh4p2rcd13ifvqe0g","pricing_plan_id":"cebpf4jnsgd1na2vs0mg"},{"bike_id":"30a3f5aa-8adb-417a-a2c9-dedb0fb285b3","system_id":"levelo_inurba_marseille","lat":43.28973,"lon":5.37841,"is_reserved":false,"is_disabled":true,"rental_uris":{"android":"levelo://app?vid=30a3f5aa-8adb-417a-a2c9-dedb0fb285b3","ios":"levelo://app?vid=30a3f5aa-8adb-417a-a2c9-dedb0fb285b3"},"vehicle_type_id":"4","last_reported":1742055000,"current_range_meters":16000,"station_id":"ce4bh9p2rcd13ifvqed0","pricing_plan_id":"cebpf4jnsgd1na2vs0mg"},{"bike_id":"10a5dfbf-3aa3-4cf3-ac17-cd4d12fd6782","system_id":"levelo_inurba_marseille","lat":43.32362,"lon":5.36757,"is_reserved":false,"is_disabled":false,"rental_uris":{"android":"levelo://app?vid=10a5dfbf-3aa3-4cf3-ac17-cd4d12fd6782","ios":"levelo://app?vid=10a5dfbf-3aa3-4cf3-ac17-cd4d12fd6782"},"vehicle_type_id":"4","last_reported":1742055000,"current_range_meters":16000,"station_id":"ce4bhsh2rcd13ifvqi2g","pricing_plan_id":"cebpf4jnsgd1na2vs0mg"},{"bike_id":"be35cd0a-d434-4cec-9731-085508cb9d5a","system_id":"levelo_inurba_marseille","lat":43.2843,"lon":5.34999,"is_reserved":false,"is_disabled":false,"rental_uris":{"android":"levelo://app?vid=be35cd0a-d434-4cec-9731-085508cb9d5a","ios":"levelo://app?vid=be35cd0a-d434-4cec-9731-085508cb9d5a"},"vehicle_type_id":"4","last_reported":1742055000,"current_range_meters":16000,"station_id":"ce4bhbh2rcd13ifvqepg","pricing_plan_id":"cebpf4jnsgd1na2vs0mg"},{"bike_id":"7099c38a-2986-4dc9-9398-307b562f7d30","system_id":"levelo_inurba_marseille","lat":43.25939,"lon":5.40902,"is_reserved":false,"is_disabled":false,"rental_uris":{"android":"levelo://app?vid=7099c38a-2986-4dc9-9398-307b562f7d30","ios":"levelo://app?vid=7099c38a-2986-4dc9-9398-307b562f7d30"},"vehicle_type_id":"4","last_reported":1742055000,"current_range_meters":16000,"station_id":"ce4bhm92rcd13ifvqglg","pricing_plan_id":"cebpf4jnsgd1na2vs0mg"},{"bike_id":"3c528f7f-712c-435c-b5d4-a5694a485d73","system_id":"levelo_inurba_marseille","lat":43.299,"lon":5.43667,"is_reserved":false,"is_disabled":false,"rental_uris":{"android":"levelo://app?vid=3c528f7f-712c-435c-b5d4-a5694a485d73","ios":"levelo://app?vid=3c528f7f-712c-435c-b5d4-a5694a485d73"},"vehicle_type_id":"4","last_reported":1742055000,"current_range_meters":16000,"station_id":"ce4bhpp2rcd13ifvqhfg","pricing_plan_id":"cebpf4jnsgd1na2vs0mg"},{"bike_id":"0da1c770-5687-4af1-9877-11ab2a164fbc","system_id":"levelo_inurba_marseille","lat":43.28278,"lon":5.35071,"is_reserved":false,"is_disabled":false,"rental_uris":{"android":"levelo://app?vid=0da1c770-5687-4af1-9877-11ab2a164fbc","ios":"levelo://app?vid=0da1c770-5687-4af1-9877-11ab2a164fbc"},"vehicle_type_id":"4","last_reported":1742055000,"current_range_meters":16000,"station_id":"ce4bhbp2rcd13ifvqerg","pricing_plan_id":"cebpf4jnsgd1na2vs0mg"},{"bike_id":"a9ac412f-546c-45ab-b5d2-2969535b8f23","system_id":"levelo_inurba_marseille","lat":43.29611,"lon":5.38106,"is_reserved":false,"is_disabled":false,"rental_uris":{"android":"levelo://app?vid=a9ac412f-546c-45ab-b5d2-2969535b8f23","ios":"levelo://app?vid=a9ac412f-546c-45ab-b5d2-2969535b8f23"},"vehicle_type_id":"4","last_reported":1742055000,"current_range_meters":16000,"station_id":"ce4bgl12rcd13ifvqbo0","pricing_plan_id":"cebpf4jnsgd1na2vs0mg"},{"bike_id":"3e685809-8a98-470b-b8d1-c028716361a7","system_id":"levelo_inurba_marseille","lat":43.23964,"lon":5.36642,"is_reserved":false,"is_disabled":false,"rental_uris":{"android":"levelo://app?vid=3e685809-8a98-470b-b8d1-c028716361a7","ios":"levelo://app?vid=3e685809-8a98-470b-b8d1-c028716361a7"},"vehicle_type_id":"4","last_reported":1742055000,"current_range_meters":16400,"station_id":"ce4bhi12rcd13ifvqfp0","pricing_plan_id":"cebpf4jnsgd1na2vs0mg"},{"bike_id":"b881a216-a8e0-47ad-9c6d-ce879391627c","system_id":"levelo_inurba_marseille","lat":43.29964,"lon":5.3654,"is_reserved":false,"is_disabled":true,"rental_uris":{"android":"levelo://app?vid=b881a216-a8e0-47ad-9c6d-ce879391627c","ios":"levelo://app?vid=b881a216-a8e0-47ad-9c6d-ce879391627c"},"vehicle_type_id":"4","last_reported":1742055000,"current_range_meters":16400,"station_id":"ce4bgm92rcd13ifvqbr0","pricing_plan_id":"cebpf4jnsgd1na2vs0mg"},{"bike_id":"d336a50b-3791-422e-a044-1e57903b20b1","system_id":"levelo_inurba_marseille","lat":43.29721,"lon":5.37671,"is_reserved":false,"is_disabled":false,"rental_uris":{"android":"levelo://app?vid=d336a50b-3791-422e-a044-1e57903b20b1","ios":"levelo://app?vid=d336a50b-3791-422e-a044-1e57903b20b1"},"vehicle_type_id":"4","last_reported":1742055000,"current_range_meters":16400,"station_id":"ce4bgkh2rcd13ifvqbl0","pricing_plan_id":"cebpf4jnsgd1na2vs0mg"},{"bike_id":"07877689-cdec-4931-853a-6c6f326aec2e","system_id":"levelo_inurba_marseille","lat":43.3211,"lon":5.36763,"is_reserved":false,"is_disabled":false,"rental_uris":{"android":"levelo://app?vid=07877689-cdec-4931-853a-6c6f326aec2e","ios":"levelo://app?vid=07877689-cdec-4931-853a-6c6f326aec2e"},"vehicle_type_id":"4","last_reported":1742055000,"current_range_meters":16400,"station_id":"ce4bhrh2rcd13ifvqhug","pricing_plan_id":"cebpf4jnsgd1na2vs0mg"},{"bike_id":"bafd57f9-42ca-4d51-b0a0-95f66f340e25","system_id":"levelo_inurba_marseille","lat":43.25866,"lon":5.39407,"is_reserved":false,"is_disabled":false,"rental_uris":{"android":"levelo://app?vid=bafd57f9-42ca-4d51-b0a0-95f66f340e25","ios":"levelo://app?vid=bafd57f9-42ca-4d51-b0a0-95f66f340e25"},"vehicle_type_id":"4","last_reported":1742055000,"current_range_meters":16400,"station_id":"","pricing_plan_id":"cebpf4jnsgd1na2vs0mg"},{"bike_id":"3f3e844d-8056-4826-a519-e24eec72528f","system_id":"levelo_inurba_marseille","lat":43.31206,"lon":5.36834,"is_reserved":false,"is_disabled":false,"rental_uris":{"android":"levelo://app?vid=3f3e844d-8056-4826-a519-e24eec72528f","ios":"levelo://app?vid=3f3e844d-8056-4826-a519-e24eec72528f"},"vehicle_type_id":"4","last_reported":1742055000,"current_range_meters":16400,"station_id":"ce4bgl92rcd13ifvqbq0","pricing_plan_id":"cebpf4jnsgd1na2vs0mg"},{"bike_id":"b14247ad-fa47-495f-9279-a477b96a6b86","system_id":"levelo_inurba_marseille","lat":43.23064,"lon":5.3549,"is_reserved":false,"is_disabled":false,"rental_uris":{"android":"levelo://app?vid=b14247ad-fa47-495f-9279-a477b96a6b86","ios":"levelo://app?vid=b14247ad-fa47-495f-9279-a477b96a6b86"},"vehicle_type_id":"4","last_reported":1742055000,"current_range_meters":16400,"station_id":"cpo3342slgdg3j2ifvpg","pricing_plan_id":"cebpf4jnsgd1na2vs0mg"},{"bike_id":"df2a315f-86bb-4a34-9481-a0964d47fc1d","system_id":"levelo_inurba_marseille","lat":43.29731,"lon":5.37684,"is_reserved":false,"is_disabled":false,"rental_uris":{"android":"levelo://app?vid=df2a315f-86bb-4a34-9481-a0964d47fc1d","ios":"levelo://app?vid=df2a315f-86bb-4a34-9481-a0964d47fc1d"},"vehicle_type_id":"4","last_reported":1742055000,"current_range_meters":16400,"station_id":"ce4bgkh2rcd13ifvqbl0","pricing_plan_id":"cebpf4jnsgd1na2vs0mg"},{"bike_id":"367a93f1-2455-4ee1-8373-710a7500fb5b","system_id":"levelo_inurba_marseille","lat":43.23956,"lon":5.3667,"is_reserved":false,"is_disabled":false,"rental_uris":{"android":"levelo://app?vid=367a93f1-2455-4ee1-8373-710a7500fb5b","ios":"levelo://app?vid=367a93f1-2455-4ee1-8373-710a7500fb5b"},"vehicle_type_id":"4","last_reported":1742055000,"current_range_meters":16400,"station_id":"ce4bhi12rcd13ifvqfp0","pricing_plan_id":"cebpf4jnsgd1na2vs0mg"},{"bike_id":"126bdbaf-a4b7-4a0e-852d-d294e24efe57","system_id":"levelo_inurba_marseille","lat":43.23188,"lon":5.35535,"is_reserved":false,"is_disabled":false,"rental_uris":{"android":"levelo://app?vid=126bdbaf-a4b7-4a0e-852d-d294e24efe57","ios":"levelo://app?vid=126bdbaf-a4b7-4a0e-852d-d294e24efe57"},"vehicle_type_id":"4","last_reported":1742055000,"current_range_meters":16800,"station_id":"ce4bhu92rcd13ifvqi70","pricing_plan_id":"cebpf4jnsgd1na2vs0mg"},{"bike_id":"d56abcb0-78f8-401e-aa00-cd0fdc6bb985","system_id":"levelo_inurba_marseille","lat":43.2985,"lon":5.36285,"is_reserved":false,"is_disabled":false,"rental_uris":{"android":"levelo://app?vid=d56abcb0-78f8-401e-aa00-cd0fdc6bb985","ios":"levelo://app?vid=d56abcb0-78f8-401e-aa00-cd0fdc6bb985"},"vehicle_type_id":"4","last_reported":1742055000,"current_range_meters":16800,"station_id":"ce4bgpp2rcd13ifvqc3g","pricing_plan_id":"cebpf4jnsgd1na2vs0mg"},{"bike_id":"5a61a616-683f-484d-83ae-d7f61143d634","system_id":"levelo_inurba_marseille","lat":43.29541,"lon":5.42438,"is_reserved":false,"is_disabled":false,"rental_uris":{"android":"levelo://app?vid=5a61a616-683f-484d-83ae-d7f61143d634","ios":"levelo://app?vid=5a61a616-683f-484d-83ae-d7f61143d634"},"vehicle_type_id":"4","last_reported":1742055000,"current_range_meters":16800,"station_id":"","pricing_plan_id":"cebpf4jnsgd1na2vs0mg"},{"bike_id":"58a30e4a-5073-4882-b20b-a808c3f22e70","system_id":"levelo_inurba_marseille","lat":43.27374,"lon":5.36244,"is_reserved":false,"is_disabled":false,"rental_uris":{"android":"levelo://app?vid=58a30e4a-5073-4882-b20b-a808c3f22e70","ios":"levelo://app?vid=58a30e4a-5073-4882-b20b-a808c3f22e70"},"vehicle_type_id":"4","last_reported":1742055000,"current_range_meters":16800,"station_id":"ce4bhbh2rcd13ifvqeo0","pricing_plan_id":"cebpf4jnsgd1na2vs0mg"},{"bike_id":"a28191cf-00a3-4bb0-bf40-abf6b2ca53fb","system_id":"levelo_inurba_marseille","lat":43.27372,"lon":5.36267,"is_reserved":false,"is_disabled":false,"rental_uris":{"android":"levelo://app?vid=a28191cf-00a3-4bb0-bf40-abf6b2ca53fb","ios":"levelo://app?vid=a28191cf-00a3-4bb0-bf40-abf6b2ca53fb"},"vehicle_type_id":"4","last_reported":1742055000,"current_range_meters":17200,"station_id":"ce4bhbh2rcd13ifvqeo0","pricing_plan_id":"cebpf4jnsgd1na2vs0mg"},{"bike_id":"585853e1-a45b-4366-87cf-713a55a95e27","system_id":"levelo_inurba_marseille","lat":43.29256,"lon":5.40907,"is_reserved":false,"is_disabled":false,"rental_uris":{"android":"levelo://app?vid=585853e1-a45b-4366-87cf-713a55a95e27","ios":"levelo://app?vid=585853e1-a45b-4366-87cf-713a55a95e27"},"vehicle_type_id":"4","last_reported":1742055000,"current_range_meters":16800,"station_id":"ce4bh192rcd13ifvqdc0","pricing_plan_id":"cebpf4jnsgd1na2vs0mg"},{"bike_id":"5add3064-8388-4e9f-88f4-44eba9984748","system_id":"levelo_inurba_marseille","lat":43.290268,"lon":5.386482,"is_reserved":false,"is_disabled":false,"rental_uris":{"android":"levelo://app?vid=5add3064-8388-4e9f-88f4-44eba9984748","ios":"levelo://app?vid=5add3064-8388-4e9f-88f4-44eba9984748"},"vehicle_type_id":"4","last_reported":1742055000,"current_range_meters":17200,"station_id":"ce4bh4p2rcd13ifvqe0g","pricing_plan_id":"cebpf4jnsgd1na2vs0mg"},{"bike_id":"a59b3e2b-0b12-4af3-a65a-f1e9eb9321bd","system_id":"levelo_inurba_marseille","lat":43.23967,"lon":5.36629,"is_reserved":false,"is_disabled":false,"rental_uris":{"android":"levelo://app?vid=a59b3e2b-0b12-4af3-a65a-f1e9eb9321bd","ios":"levelo://app?vid=a59b3e2b-0b12-4af3-a65a-f1e9eb9321bd"},"vehicle_type_id":"4","last_reported":1742055000,"current_range_meters":17200,"station_id":"ce4bhi12rcd13ifvqfp0","pricing_plan_id":"cebpf4jnsgd1na2vs0mg"},{"bike_id":"760b38d2-79b4-4c3c-b4bb-02586e46e837","system_id":"levelo_inurba_marseille","lat":43.30806,"lon":5.38159,"is_reserved":false,"is_disabled":true,"rental_uris":{"android":"levelo://app?vid=760b38d2-79b4-4c3c-b4bb-02586e46e837","ios":"levelo://app?vid=760b38d2-79b4-4c3c-b4bb-02586e46e837"},"vehicle_type_id":"4","last_reported":1742055000,"current_range_meters":17200,"station_id":"ce4bgt12rcd13ifvqce0","pricing_plan_id":"cebpf4jnsgd1na2vs0mg"},