{"last_updated":1748329846,"ttl":60,"version":"2.2","data":{"bikes":[{"bike_id":"c0b9fd4f-e181-46ce-b0bf-f5119973334f","system_id":"levelo_inurba_marseille","lat":43.33771,"lon":5.37424,"is_reserved":false,"is_disabled":true,"rental_uris":{"android":"levelo://app?vid=c0b9fd4f-e181-46ce-b0bf-f5119973334f","ios":"levelo://app?vid=c0b9fd4f-e181-46ce-b0bf-f5119973334f"},"vehicle_type_id":"4","last_reported":1748329846,"current_range_meters":0,"station_id":"","pricing_plan_id":"cebpf4jnsgd1na2vs0mg"},{"bike_id":"3581c28c-41f2-4cb7-b494-0448776c0438","system_id":"levelo_inurba_marseille","lat":43.29641,"lon":5.36057,"is_reserved":false,"is_disabled":true,"rental_uris":{"android":"levelo://app?vid=3581c28c-41f2-4cb7-b494-0448776c0438","ios":"levelo://app?vid=3581c28c-41f2-4cb7-b494-0448776c0438"},"vehicle_type_id":"4","last_reported":1748329846,"current_range_meters":0,"station_id":"","pricing_plan_id":"cebpf4jnsgd1na2vs0mg"},{"bike_id":"7fe337a2-1b46-4c17-bdf9-15e9d383471b","system_id":"levelo_inurba_marseille","lat":43.272653,"lon":5.389973,"is_reserved":false,"is_disabled":true,"rental_uris":{"android":"levelo://app?vid=7fe337a2-1b46-4c17-bdf9-15e9d383471b","ios":"levelo://app?vid=7fe337a2-1b46-4c17-bdf9-15e9d383471b"},"vehicle_type_id":"4","last_reported":1748329846,"current_range_meters":0,"station_id":"","pricing_plan_id":"cebpf4jnsgd1na2vs0mg"},{"bike_id":"bb6c3066-a766-4717-8a32-075fbe284fd8","system_id":"levelo_inurba_marseille","lat":43.25169,"lon":5.38504,"is_reserved":false,"is_disabled":true,"rental_uris":{"android":"levelo://app?vid=bb6c3066-a766-4717-8a32-075fbe284fd8","ios":"levelo://app?vid=bb6c3066-a766-4717-8a32-075fbe284fd8"},"vehicle_type_id":"4","last_reported":1748329846,"current_range_meters":0,"station_id":"","pricing_plan_id":"cebpf4jnsgd1na2vs0mg"},{"bike_id":"9dfea71a-4994-4298-98be-a818ae9ee8f8","system_id":"levelo_inurba_marseille","lat":43.3333,"lon":5.40722,"is_reserved":false,"is_disabled":true,"rental_uris":{"android":"levelo://app?vid=9dfea71a-4994-4298-98be-a818ae9ee8f8","ios":"levelo://app?vid=9dfea71a-4994-4298-98be-a818ae9ee8f8"},"vehicle_type_id":"4","last_reported":1748329846,"current_range_meters":0,"station_id":"","pricing_plan_id":"cebpf4jnsgd1na2vs0mg"},{"bike_id":"3fe3d6c4-138a-47df-b6b4-e6f19e8f7d46","system_id":"levelo_inurba_marseille","lat":43.21411,"lon":5.34114,"is_reserved":false,"is_disabled":true,"rental_uris":{"android":"levelo://app?vid=3fe3d6c4-138a-47df-b6b4-e6f19e8f7d46","ios":"levelo://app?vid=3fe3d6c4-138a-47df-b6b4-e6f19e8f7d46"},"vehicle_type_id":"4","last_reported":1748329846,"current_range_meters":0,"station_id":"","pricing_plan_id":"cebpf4jnsgd1na2vs0mg"},{"bike_id":"fd133867-b5d2-4fd2-aa0a-382781ea3f5a","system_id":"levelo_inurba_marseille","lat":43.29003,"lon":5.43009,"is_reserved":false,"is_disabled":true,"rental_uris":{"android":"levelo://app?vid=fd133867-b5d2-4fd2-aa0a-382781ea3f5a","ios":"levelo://app?vid=fd133867-b5d2-4fd2-aa0a-382781ea3f5a"},"vehicle_type_id":"4","last_reported":1748329846,"current_range_meters":0,"station_id":"","pricing_plan_id":"cebpf4jnsgd1na2vs0mg"},{"bike_id":"3cc6b360-d31b-4265-a77a-c13370fe8da7","system_id":"levelo_inurba_marseille","lat":43.295591,"lon":5.375243,"is_reserved":false,"is_disabled":true,"rental_uris":{"android":"levelo://app?vid=3cc6b360-d31b-4265-a77a-c13370fe8da7","ios":"levelo://app?vid=3cc6b360-d31b-4265-a77a-c13370fe8da7"},"vehicle_type_id":"4","last_reported":1748329846,"current_range_meters":0,"station_id":"","pricing_plan_id":"cebpf4jnsgd1na2vs0mg"},{"bike_id":"d5335d64-e51c-4de5-80e3-8db36761569f","system_id":"levelo_inurba_marseille","lat":43.294479,"lon":5.381214,"is_reserved":false,"is_disabled":true,"rental_uris":{"android":"levelo://app?vid=d5335d64-e51c-4de5-80e3-8db36761569f","ios":"levelo://app?vid=d5335d64-e51c-4de5-80e3-8db36761569f"},"vehicle_type_id":"4","last_reported":1748329846,"current_range_meters":0,"station_id":"","pricing_plan_id":"cebpf4jnsgd1na2vs0mg"},{"bike_id":"15dcdbbd-a41e-43eb-9ed6-26ec15ce7a50","system_id":"levelo_inurba_marseille","lat":43.21411,"lon":5.34113,"is_reserved":false,"is_disabled":true,"rental_uris":{"android":"levelo://app?vid=15dcdbbd-a41e-43eb-9ed6-26ec15ce7a50","ios":"levelo://app?vid=15dcdbbd-a41e-43eb-9ed6-26ec15ce7a50"},"vehicle_type_id":"4","last_reported":1748329846,"current_range_meters":0,"station_id":"","pricing_plan_id":"cebpf4jnsgd1na2vs0mg"},{"bike_id":"f9fb40c0-1fcd-48cb-8e26-3f2dc0fb2451","system_id":"levelo_inurba_marseille","lat":43.33751,"lon":5.37509,"is_reserved":false,"is_disabled":true,"rental_uris":{"android":"levelo://app?vid=f9fb40c0-1fcd-48cb-8e26-3f2dc0fb2451","ios":"levelo://app?vid=f9fb40c0-1fcd-48cb-8e26-3f2dc0fb2451"},"vehicle_type_id":"4","last_reported":1748329846,"current_range_meters":0,"station_id":"","pricing_plan_id":"cebpf4jnsgd1na2vs0mg"},{"bike_id":"e9dd3aa4-b5e7-4480-926d-d7f537719bfa","system_id":"levelo_inurba_marseille","lat":43.230331,"lon":5.401847,"is_reserved":false,"is_disabled":true,"rental_uris":{"android":"levelo://app?vid=e9dd3aa4-b5e7-4480-926d-d7f537719bfa","ios":"levelo://app?vid=e9dd3aa4-b5e7-4480-926d-d7f537719bfa"},"vehicle_type_id":"4","last_reported":1748329846,"current_range_meters":0,"station_id":"","pricing_plan_id":"cebpf4jnsgd1na2vs0mg"},{"bike_id":"dcd075ea-b4af-4d6d-90b2-1236858b7bc1","system_id":"levelo_inurba_marseille","lat":43.27609,"lon":5.35873,"is_reserved":false,"is_disabled":true,"rental_uris":{"android":"levelo://app?vid=dcd075ea-b4af-4d6d-90b2-1236858b7bc1","ios":"levelo://app?vid=dcd075ea-b4af-4d6d-90b2-1236858b7bc1"},"vehicle_type_id":"4","last_reported":1748329846,"current_range_meters":0,"station_id":"","pricing_plan_id":"cebpf4jnsgd1na2vs0mg"},{"bike_id":"7cbc557b-57c7-4728-a0d3-4671df82d615","system_id":"levelo_inurba_marseille","lat":43.31219,"lon":5.36858,"is_reserved":false,"is_disabled":true,"rental_uris":{"android":"levelo://app?vid=7cbc557b-57c7-4728-a0d3-4671df82d615","ios":"levelo://app?vid=7cbc557b-57c7-4728-a0d3-4671df82d615"},"vehicle_type_id":"4","last_reported":1748329846,"current_range_meters":0,"station_id":"ce4bgl92rcd13ifvqbq0","pricing_plan_id":"cebpf4jnsgd1na2vs0mg"},{"bike_id":"69057184-893c-403a-900c-2aae9154849a","system_id":"levelo_inurba_marseille","lat":43.30905,"lon":5.36845,"is_reserved":false,"is_disabled":true,"rental_uris":{"android":"levelo://app?vid=69057184-893c-403a-900c-2aae9154849a","ios":"levelo://app?vid=69057184-893c-403a-900c-2aae9154849a"},"vehicle_type_id":"4","last_reported":1748329846,"current_range_meters":0,"station_id":"ce4bgn92rcd13ifvqbvg","pricing_plan_id":"cebpf4jnsgd1na2vs0mg"},{"bike_id":"746f0385-bb18-4efa-a8c9-e00a9e9b27bb","system_id":"levelo_inurba_marseille","lat":43.305629,"lon":5.365535,"is_reserved":false,"is_disabled":true,"rental_uris":{"android":"levelo://app?vid=746f0385-bb18-4efa-a8c9-e00a9e9b27bb","ios":"levelo://app?vid=746f0385-bb18-4efa-a8c9-e00a9e9b27bb"},"vehicle_type_id":"4","last_reported":1748329846,"current_range_meters":0,"station_id":"ce4bgs12rcd13ifvqcag","pricing_plan_id":"cebpf4jnsgd1na2vs0mg"},{"bike_id":"749008f4-2582-46f8-9d50-b7982865e855","system_id":"levelo_inurba_marseille","lat":43.31501,"lon":5.37293,"is_reserved":false,"is_disabled":true,"rental_uris":{"android":"levelo://app?vid=749008f4-2582-46f8-9d50-b7982865e855","ios":"levelo://app?vid=749008f4-2582-46f8-9d50-b7982865e855"},"vehicle_type_id":"4","last_reported":1748329846,"current_range_meters":0,"station_id":"ce4bgt12rcd13ifvqcd0","pricing_plan_id":"cebpf4jnsgd1na2vs0mg"},{"bike_id":"43e5e372-0bea-4081-8ec5-33224ce93246","system_id":"levelo_inurba_marseille","lat":43.28948,"lon":5.39627,"is_reserved":false,"is_disabled":true,"rental_uris":{"android":"levelo://app?vid=43e5e372-0bea-4081-8ec5-33224ce93246","ios":"levelo://app?vid=43e5e372-0bea-4081-8ec5-33224ce93246"},"vehicle_type_id":"4","last_reported":1748329846,"current_range_meters":0,"station_id":"ce4bh3h2rcd13ifvqdn0","pricing_plan_id":"cebpf4jnsgd1na2vs0mg"},{"bike_id":"068f7d6b-ebf7-492c-8756-6cf549cba0ab","system_id":"levelo_inurba_marseille","lat":43.28475,"lon":5.38444,"is_reserved":false,"is_disabled":true,"rental_uris":{"android":"levelo://app?vid=068f7d6b-ebf7-492c-8756-6cf549cba0ab","ios":"levelo://app?vid=068f7d6b-ebf7-492c-8756-6cf549cba0ab"},"vehicle_type_id":"4","last_reported":1748329846,"current_range_meters":0,"station_id":"ce4bh512rcd13ifvqe3g","pricing_plan_id":"cebpf4jnsgd1na2vs0mg"},{"bike_id":"b5e507af-5dd9-4f7b-824a-160dcd6679e0","system_id":"levelo_inurba_marseille","lat":43.28264,"lon":5.35103,"is_reserved":false,"is_disabled":true,"rental_uris":{"android":"levelo://app?vid=b5e507af-5dd9-4f7b-824a-160dcd6679e0","ios":"levelo://app?vid=b5e507af-5dd9-4f7b-824a-160dcd6679e0"},"vehicle_type_id":"4","last_reported":1748329846,"current_range_meters":0,"station_id":"ce4bhbp2rcd13ifvqerg","pricing_plan_id":"cebpf4jnsgd1na2vs0mg"},{"bike_id":"75dda20e-59f5-4de2-bc12-3e335fa8b35f","system_id":"levelo_inurba_marseille","lat":43.2894,"lon":5.36371,"is_reserved":false,"is_disabled":true,"rental_uris":{"android":"levelo://app?vid=75dda20e-59f5-4de2-bc12-3e335fa8b35f","ios":"levelo://app?vid=75dda20e-59f5-4de2-bc12-3e335fa8b35f"},"vehicle_type_id":"4","last_reported":1748329846,"current_range_meters":0,"station_id":"ce4bhc92rcd13ifvqetg","pricing_plan_id":"cebpf4jnsgd1na2vs0mg"},{"bike_id":"94cb938d-bc36-42ad-af73-a2aa616d60b8","system_id":"levelo_inurba_marseille","lat":48.858307,"lon":2.37926,"is_reserved":false,"is_disabled":true,"rental_uris":{"android":"levelo://app?vid=94cb938d-bc36-42ad-af73-a2aa616d60b8","ios":"levelo://app?vid=94cb938d-bc36-42ad-af73-a2aa616d60b8"},"vehicle_type_id":"4","last_reported":1748329846,"current_range_meters":0,"station_id":"ce4bhgh2rcd13ifvqfb0","pricing_plan_id":"cebpf4jnsgd1na2vs0mg"},{"bike_id":"18d91d21-3fbd-44ec-8ea5-ad154289350f","system_id":"levelo_inurba_marseille","lat":43.26147,"lon":5.37451,"is_reserved":false,"is_disabled":true,"rental_uris":{"android":"levelo://app?vid=18d91d21-3fbd-44ec-8ea5-ad154289350f","ios":"levelo://app?vid=18d91d21-3fbd-44ec-8ea5-ad154289350f"},"vehicle_type_id":"4","last_reported":1748329846,"current_range_meters":0,"station_id":"ce4bhgp2rcd13ifvqfc0","pricing_plan_id":"cebpf4jnsgd1na2vs0mg"},{"bike_id":"1b1c016b-a69b-4cc6-bd8e-f183bd0fbf84","system_id":"levelo_inurba_marseille","lat":43.25009,"lon":5.38932,"is_reserved":false,"is_disabled":true,"rental_uris":{"android":"levelo://app?vid=1b1c016b-a69b-4cc6-bd8e-f183bd0fbf84","ios":"levelo://app?vid=1b1c016b-a69b-4cc6-bd8e-f183bd0fbf84"},"vehicle_type_id":"4","last_reported":1748329846,"current_range_meters":0,"station_id":"ce4bhgp2rcd13ifvqfd0","pricing_plan_id":"cebpf4jnsgd1na2vs0mg"},{"bike_id":"1a6a0a03-9a29-46e6-8b54-7a35d09550b5","system_id":"levelo_inurba_marseille","lat":43.32106,"lon":5.36761,"is_reserved":false,"is_disabled":true,"rental_uris":{"android":"levelo://app?vid=1a6a0a03-9a29-46e6-8b54-7a35d09550b5","ios":"levelo://app?vid=1a6a0a03-9a29-46e6-8b54-7a35d09550b5"},"vehicle_type_id":"4","last_reported":1748329846,"current_range_meters":0,"station_id":"ce4bhrh2rcd13ifvqhug","pricing_plan_id":"cebpf4jnsgd1na2vs0mg"},{"bike_id":"9278f46f-c0d0-405c-80c3-619e311c779e","system_id":"levelo_inurba_marseille","lat":43.21769,"lon":5.3459,"is_reserved":false,"is_disabled":true,"rental_uris":{"android":"levelo://app?vid=9278f46f-c0d0-405c-80c3-619e311c779e","ios":"levelo://app?vid=9278f46f-c0d0-405c-80c3-619e311c779e"},"vehicle_type_id":"4","last_reported":1748329846,"current_range_meters":0,"station_id":"st_cvj6r9ubvosntc0bgbag","pricing_plan_id":"cebpf4jnsgd1na2vs0mg"},{"bike_id":"f043e868-ac9b-4cff-a3e5-9167c8c997d9","system_id":"levelo_inurba_marseille","lat":43.21742,"lon":5.34611,"is_reserved":false,"is_disabled":true,"rental_uris":{"android":"levelo://app?vid=f043e868-ac9b-4cff-a3e5-9167c8c997d9","ios":"levelo://app?vid=f043e868-ac9b-4cff-a3e5-9167c8c997d9"},"vehicle_type_id":"4","last_reported":1748329846,"current_range_meters":0,"station_id":"st_cvj6r9ubvosntc0bgbag","pricing_plan_id":"cebpf4jnsgd1na2vs0mg"},{"bike_id":"e1a337db-3999-4e99-bd7f-35e06168da4a","system_id":"levelo_inurba_marseille","lat":43.304595,"lon":5.379146,"is_reserved":false,"is_disabled":true,"rental_uris":{"android":"levelo://app?vid=e1a337db-3999-4e99-bd7f-35e06168da4a","ios":"levelo://app?vid=e1a337db-3999-4e99-bd7f-35e06168da4a"},"vehicle_type_id":"4","last_reported":1748329846,"current_range_meters":400,"station_id":"","pricing_plan_id":"cebpf4jnsgd1na2vs0mg"},{"bike_id":"981cf135-e54c-4282-8476-d5f8f2ceb12d","system_id":"levelo_inurba_marseille","lat":43.312586,"lon":5.369045,"is_reserved":false,"is_disabled":true,"rental_uris":{"android":"levelo://app?vid=981cf135-e54c-4282-8476-d5f8f2ceb12d","ios":"levelo://app?vid=981cf135-e54c-4282-8476-d5f8f2ceb12d"},"vehicle_type_id":"4","last_reported":1748329846,"current_range_meters":400,"station_id":"ce4bgl92rcd13ifvqbq0","pricing_plan_id":"cebpf4jnsgd1na2vs0mg"},{"bike_id":"55ec93e0-b195-4283-bab2-e31147dd979c","system_id":"levelo_inurba_marseille","lat":43.3015,"lon":5.3743,"is_reserved":false,"is_disabled":true,"rental_uris":{"android":"levelo://app?vid=55ec93e0-b195-4283-bab2-e31147dd979c","ios":"levelo://app?vid=55ec93e0-b195-4283-bab2-e31147dd979c"},"vehicle_type_id":"4","last_reported":1748329846,"current_range_meters":400,"station_id":"ce4bgs92rcd13ifvqcc0","pricing_plan_id":"cebpf4jnsgd1na2vs0mg"},{"bike_id":"fecd17fe-4366-4c19-8cc2-15284d71bcc7","system_id":"levelo_inurba_marseille","lat":43.29278,"lon":5.40117,"is_reserved":false,"is_disabled":true,"rental_uris":{"android":"levelo://app?vid=fecd17fe-4366-4c19-8cc2-15284d71bcc7","ios":"levelo://app?vid=fecd17fe-4366-4c19-8cc2-15284d71bcc7"},"vehicle_type_id":"4","last_reported":1748329846,"current_range_meters":400,"station_id":"ce4bh312rcd13ifvqdk0","pricing_plan_id":"cebpf4jnsgd1na2vs0mg"},{"bike_id":"d9fa0449-e47c-4bbe-a91c-4939cab5d888","system_id":"levelo_inurba_marseille","lat":43.28524,"lon":5.4265,"is_reserved":false,"is_disabled":true,"rental_uris":{"android":"levelo://app?vid=d9fa0449-e47c-4bbe-a91c-4939cab5d888","ios":"levelo://app?vid=d9fa0449-e47c-4bbe-a91c-4939cab5d888"},"vehicle_type_id":"4","last_reported":1748329846,"current_range_meters":1200,"station_id":"","pricing_plan_id":"cebpf4jnsgd1na2vs0mg"},{"bike_id":"83df8741-d12e-47ed-9ebe-d7ebfcd99d9d","system_id":"levelo_inurba_marseille","lat":43.28735,"lon":5.37419,"is_reserved":false,"is_disabled":true,"rental_uris":{"android":"levelo://app?vid=83df8741-d12e-47ed-9ebe-d7ebfcd99d9d","ios":"levelo://app?vid=83df8741-d12e-47ed-9ebe-d7ebfcd99d9d"},"vehicle_type_id":"4","last_reported":1748329846,"current_range_meters":1200,"station_id":"","pricing_plan_id":"cebpf4jnsgd1na2vs0mg"},{"bike_id":"64b30bf5-4f1e-401e-9ba8-ce7484f4325f","system_id":"levelo_inurba_marseille","lat":43.29304,"lon":5.37178,"is_reserved":false,"is_disabled":true,"rental_uris":{"android":"levelo://app?vid=64b30bf5-4f1e-401e-9ba8-ce7484f4325f","ios":"levelo://app?vid=64b30bf5-4f1e-401e-9ba8-ce7484f4325f"},"vehicle_type_id":"4","last_reported":1748329846,"current_range_meters":1200,"station_id":"ce4bgh92rcd13ifvqb40","pricing_plan_id":"cebpf4jnsgd1na2vs0mg"},{"bike_id":"22714e58-3cb8-491b-b895-45fccd97b8e1","system_id":"levelo_inurba_marseille","lat":43.31488,"lon":5.37282,"is_reserved":false,"is_disabled":true,"rental_uris":{"android":"levelo://app?vid=22714e58-3cb8-491b-b895-45fccd97b8e1","ios":"levelo://app?vid=22714e58-3cb8-491b-b895-45fccd97b8e1"},"vehicle_type_id":"4","last_reported":1748329846,"current_range_meters":1200,"station_id":"ce4bgt12rcd13ifvqcd0","pricing_plan_id":"cebpf4jnsgd1na2vs0mg"},{"bike_id":"de933c21-fbea-4823-ae4e-181fa76c7fe1","system_id":"levelo_inurba_marseille","lat":43.30798,"lon":5.38157,"is_reserved":false,"is_disabled":true,"rental_uris":{"android":"levelo://app?vid=de933c21-fbea-4823-ae4e-181fa76c7fe1","ios":"levelo://app?vid=de933c21-fbea-4823-ae4e-181fa76c7fe1"},"vehicle_type_id":"4","last_reported":1748329846,"current_range_meters":1200,"station_id":"ce4bgt12rcd13ifvqce0","pricing_plan_id":"cebpf4jnsgd1na2vs0mg"},{"bike_id":"ef6153aa-457f-4e21-adff-f7329294ae84","system_id":"levelo_inurba_marseille","lat":43.2922,"lon":5.36058,"is_reserved":false,"is_disabled":true,"rental_uris":{"android":"levelo://app?vid=ef6153aa-457f-4e21-adff-f7329294ae84","ios":"levelo://app?vid=ef6153aa-457f-4e21-adff-f7329294ae84"},"vehicle_type_id":"4","last_reported":1748329846,"current_range_meters":1200,"station_id":"ce4bhbh2rcd13ifvqeqg","pricing_plan_id":"cebpf4jnsgd1na2vs0mg"},{"bike_id":"da453a88-f81b-4e0f-9781-5a7f6c1d364c","system_id":"levelo_inurba_marseille","lat":43.337499,"lon":5.374469,"is_reserved":false,"is_disabled":true,"rental_uris":{"android":"levelo://app?vid=da453a88-f81b-4e0f-9781-5a7f6c1d364c","ios":"levelo://app?vid=da453a88-f81b-4e0f-9781-5a7f6c1d364c"},"vehicle_type_id":"4","last_reported":1748329846,"current_range_meters":1600,"station_id":"","pricing_plan_id":"cebpf4jnsgd1na2vs0mg"},{"bike_id":"1c3b362a-7d63-4dff-8af4-11bd4c26b2d7","system_id":"levelo_inurba_marseille","lat":43.30274,"lon":5.37707,"is_reserved":false,"is_disabled":true,"rental_uris":{"android":"levelo://app?vid=1c3b362a-7d63-4dff-8af4-11bd4c26b2d7","ios":"levelo://app?vid=1c3b362a-7d63-4dff-8af4-11bd4c26b2d7"},"vehicle_type_id":"4","last_reported":1748329846,"current_range_meters":1600,"station_id":"ce4bguh2rcd13ifvqcj0","pricing_plan_id":"cebpf4jnsgd1na2vs0mg"},{"bike_id":"0e16c7f2-eec6-4ca4-bb5d-b403d73599f9","system_id":"levelo_inurba_marseille","lat":43.27971,"lon":5.38737,"is_reserved":false,"is_disabled":true,"rental_uris":{"android":"levelo://app?vid=0e16c7f2-eec6-4ca4-bb5d-b403d73599f9","ios":"levelo://app?vid=0e16c7f2-eec6-4ca4-bb5d-b403d73599f9"},"vehicle_type_id":"4","last_reported":1748329846,"current_range_meters":1600,"station_id":"ce4bhg12rcd13ifvqf80","pricing_plan_id":"cebpf4jnsgd1na2vs0mg"},{"bike_id":"074ad082-30e9-4a78-9cf6-87f9bb57a048","system_id":"levelo_inurba_marseille","lat":43.24078,"lon":5.37758,"is_reserved":false,"is_disabled":true,"rental_uris":{"android":"levelo://app?vid=074ad082-30e9-4a78-9cf6-87f9bb57a048","ios":"levelo://app?vid=074ad082-30e9-4a78-9cf6-87f9bb57a048"},"vehicle_type_id":"4","last_reported":1748329846,"current_range_meters":1600,"station_id":"ce4bhnp2rcd13ifvqgvg","pricing_plan_id":"cebpf4jnsgd1na2vs0mg"},{"bike_id":"f924e86b-0bca-4dba-b63a-5bacdc4131d2","system_id":"levelo_inurba_marseille","lat":43.32541,"lon":5.41445,"is_reserved":false,"is_disabled":true,"rental_uris":{"android":"levelo://app?vid=f924e86b-0bca-4dba-b63a-5bacdc4131d2","ios":"levelo://app?vid=f924e86b-0bca-4dba-b63a-5bacdc4131d2"},"vehicle_type_id":"4","last_reported":1748329846,"current_range_meters":1600,"station_id":"ce4bhq12rcd13ifvqhhg","pricing_plan_id":"cebpf4jnsgd1na2vs0mg"},{"bike_id":"6f0fb2fa-ffe9-442a-b71a-b5bee4636a51","system_id":"levelo_inurba_marseille","lat":43.308887,"lon":5.371953,"is_reserved":false,"is_disabled":true,"rental_uris":{"android":"levelo://app?vid=6f0fb2fa-ffe9-442a-b71a-b5bee4636a51","ios":"levelo://app?vid=6f0fb2fa-ffe9-442a-b71a-b5bee4636a51"},"vehicle_type_id":"4","last_reported":1748329846,"current_range_meters":2000,"station_id":"ce4bguh2rcd13ifvqckg","pricing_plan_id":"cebpf4jnsgd1na2vs0mg"},{"bike_id":"98ebf65e-e651-43eb-bbd4-161cddcbd829","system_id":"levelo_inurba_marseille","lat":43.284768,"lon":5.384156,"is_reserved":false,"is_disabled":true,"rental_uris":{"android":"levelo://app?vid=98ebf65e-e651-43eb-bbd4-161cddcbd829","ios":"levelo://app?vid=98ebf65e-e651-43eb-bbd4-161cddcbd829"},"vehicle_type_id":"4","last_reported":1748329846,"current_range_meters":2000,"station_id":"ce4bh512rcd13ifvqe3g","pricing_plan_id":"cebpf4jnsgd1na2vs0mg"},{"bike_id":"2fe356c1-b0ca-4d7f-b91e-f6adee34d076","system_id":"levelo_inurba_marseille","lat":43.2792,"lon":5.39582,"is_reserved":false,"is_disabled":true,"rental_uris":{"android":"levelo://app?vid=2fe356c1-b0ca-4d7f-b91e-f6adee34d076","ios":"levelo://app?vid=2fe356c1-b0ca-4d7f-b91e-f6adee34d076"},"vehicle_type_id":"4","last_reported":1748329846,"current_range_meters":2000,"station_id":"ce4bhf92rcd13ifvqf40","pricing_plan_id":"cebpf4jnsgd1na2vs0mg"},{"bike_id":"e34e814a-b0a1-4444-9dd8-4494ba625c8d","system_id":"levelo_inurba_marseille","lat":43.30905,"lon":5.36839,"is_reserved":false,"is_disabled":false,"rental_uris":{"android":"levelo://app?vid=e34e814a-b0a1-4444-9dd8-4494ba625c8d","ios":"levelo://app?vid=e34e814a-b0a1-4444-9dd8-4494ba625c8d"},"vehicle_type_id":"4","last_reported":1748329846,"current_range_meters":2800,"station_id":"ce4bgn92rcd13ifvqbvg","pricing_plan_id":"cebpf4jnsgd1na2vs0mg"},{"bike_id":"b65254a7-2e42-4933-9015-085b009d8014","system_id":"levelo_inurba_marseille","lat":43.27312,"lon":5.39053,"is_reserved":false,"is_disabled":false,"rental_uris":{"android":"levelo://app?vid=b65254a7-2e42-4933-9015-085b009d8014","ios":"levelo://app?vid=b65254a7-2e42-4933-9015-085b009d8014"},"vehicle_type_id":"4","last_reported":1748329846,"current_range_meters":2800,"station_id":"ce4bhgp2rcd13ifvqfe0","pricing_plan_id":"cebpf4jnsgd1na2vs0mg"},{"bike_id":"e32b1ab1-72ba-43d2-88bf-6e22529dc844","system_id":"levelo_inurba_marseille","lat":43.25577,"lon":5.38233,"is_reserved":false,"is_disabled":false,"rental_uris":{"android":"levelo://app?vid=e32b1ab1-72ba-43d2-88bf-6e22529dc844","ios":"levelo://app?vid=e32b1ab1-72ba-43d2-88bf-6e22529dc844"},"vehicle_type_id":"4","last_reported":1748329846,"current_range_meters":2800,"station_id":"ce4bhih2rcd13ifvqfs0","pricing_plan_id":"cebpf4jnsgd1na2vs0mg"},{"bike_id":"5c383028-90e9-43be-b9e4-d7db5504f47c","system_id":"levelo_inurba_marseille","lat":43.34141,"lon":5.40901,"is_reserved":false,"is_disabled":false,"rental_uris":{"android":"levelo://app?vid=5c383028-90e9-43be-b9e4-d7db5504f47c","ios":"levelo://app?vid=5c383028-90e9-43be-b9e4-d7db5504f47c"},"vehicle_type_id":"4","last_reported":1748329846,"current_range_meters":2800,"station_id":"ce4bhqh2rcd13ifvqhlg","pricing_plan_id":"cebpf4jnsgd1na2vs0mg"},{"bike_id":"66edb79c-6bb2-418b-9ffd-57411d4997b2","system_id":"levelo_inurba_marseille","lat":43.31358,"lon":5.36688,"is_reserved":false,"is_disabled":false,"rental_uris":{"android":"levelo://app?vid=66edb79c-6bb2-418b-9ffd-57411d4997b2","ios":"levelo://app?vid=66edb79c-6bb2-418b-9ffd-57411d4997b2"},"vehicle_type_id":"4","last_reported":1748329846,"current_range_meters":3200,"station_id":"ce4bgr92rcd13ifvqc6g","pricing_plan_id":"cebpf4jnsgd1na2vs0mg"},{"bike_id":"f798794a-4cde-4a50-ab8e-1574ed0b71dd","system_id":"levelo_inurba_marseille","lat":43.30464,"lon":5.3791,"is_reserved":false,"is_disabled":false,"rental_uris":{"android":"levelo://app?vid=f798794a-4cde-4a50-ab8e-1574ed0b71dd","ios":"levelo://app?vid=f798794a-4cde-4a50-ab8e-1574ed0b71dd"},"vehicle_type_id":"4","last_reported":1748329846,"current_range_meters":3200,"station_id":"ce4bgup2rcd13ifvqcn0","pricing_plan_id":"cebpf4jnsgd1na2vs0mg"},{"bike_id":"b7ab4751-3dbf-4148-86b3-37e175a4d63e","system_id":"levelo_inurba_marseille","lat":43.24589,"lon":5.39336,"is_reserved":false,"is_disabled":false,"rental_uris":{"android":"levelo://app?vid=b7ab4751-3dbf-4148-86b3-37e175a4d63e","ios":"levelo://app?vid=b7ab4751-3dbf-4148-86b3-37e175a4d63e"},"vehicle_type_id":"4","last_reported":1748329846,"current_range_meters":3600,"station_id":"","pricing_plan_id":"cebpf4jnsgd1na2vs0mg"},{"bike_id":"11906ac6-8610-4406-939b-ac3bf7c0f349","system_id":"levelo_inurba_marseille","lat":43.23187,"lon":5.39987,"is_reserved":false,"is_disabled":false,"rental_uris":{"android":"levelo://app?vid=11906ac6-8610-4406-939b-ac3bf7c0f349","ios":"levelo://app?vid=11906ac6-8610-4406-939b-ac3bf7c0f349"},"vehicle_type_id":"4","last_reported":1748329846,"current_range_meters":3600,"station_id":"ce4bhn12rcd13ifvqgqg","pricing_plan_id":"cebpf4jnsgd1na2vs0mg"},{"bike_id":"c12ab7f6-d5db-4603-83d0-c5511a413fc6","system_id":"levelo_inurba_marseille","lat":43.26687,"lon":5.38286,"is_reserved":false,"is_disabled":true,"rental_uris":{"android":"levelo://app?vid=c12ab7f6-d5db-4603-83d0-c5511a413fc6","ios":"levelo://app?vid=c12ab7f6-d5db-4603-83d0-c5511a413fc6"},"vehicle_type_id":"4","last_reported":1748329846,"current_range_meters":4000,"station_id":"ce4bhg92rcd13ifvqf90","pricing_plan_id":"cebpf4jnsgd1na2vs0mg"},{"bike_id":"ab485184-dee6-4278-8ed8-78cb97c31dd5","system_id":"levelo_inurba_marseille","lat":43.2921,"lon":5.35824,"is_reserved":false,"is_disabled":false,"rental_uris":{"android":"levelo://app?vid=ab485184-dee6-4278-8ed8-78cb97c31dd5","ios":"levelo://app?vid=ab485184-dee6-4278-8ed8-78cb97c31dd5"},"vehicle_type_id":"4","last_reported":1748329846,"current_range_meters":4400,"station_id":"","pricing_plan_id":"cebpf4jnsgd1na2vs0mg"},{"bike_id":"8c434226-0d43-4efb-b7bb-225199d6d114","system_id":"levelo_inurba_marseille","lat":43.30142,"lon":5.38058,"is_reserved":false,"is_disabled":false,"rental_uris":{"android":"levelo://app?vid=8c434226-0d43-4efb-b7bb-225199d6d114","ios":"levelo://app?vid=8c434226-0d43-4efb-b7bb-225199d6d114"},"vehicle_type_id":"4","last_reported":1748329846,"current_range_meters":4400,"station_id":"ce4bgjp2rcd13ifvqbh0","pricing_plan_id":"cebpf4jnsgd1na2vs0mg"},{"bike_id":"3a9e093f-8c0c-49b3-853a-38f8ee44aa20","system_id":"levelo_inurba_marseille","lat":43.30281,"lon":5.37705,"is_reserved":false,"is_disabled":false,"rental_uris":{"android":"levelo://app?vid=3a9e093f-8c0c-49b3-853a-38f8ee44aa20","ios":"levelo://app?vid=3a9e093f-8c0c-49b3-853a-38f8ee44aa20"},"vehicle_type_id":"4","last_reported":1748329846,"current_range_meters":4400,"station_id":"ce4bguh2rcd13ifvqcj0","pricing_plan_id":"cebpf4jnsgd1na2vs0mg"},{"bike_id":"a1d15808-4691-4dc2-96f6-141cbb85cce3","system_id":"levelo_inurba_marseille","lat":43.30952,"lon":5.39038,"is_reserved":false,"is_disabled":false,"rental_uris":{"android":"levelo://app?vid=a1d15808-4691-4dc2-96f6-141cbb85cce3","ios":"levelo://app?vid=a1d15808-4691-4dc2-96f6-141cbb85cce3"},"vehicle_type_id":"4","last_reported":1748329846,"current_range_meters":4400,"station_id":"ce4bgup2rcd13ifvqco0","pricing_plan_id":"cebpf4jnsgd1na2vs0mg"},{"bike_id":"366cccb2-0019-4f2f-9f9d-959e84b31d90","system_id":"levelo_inurba_marseille","lat":43.25926,"lon":5.40898,"is_reserved":false,"is_disabled":false,"rental_uris":{"android":"levelo://app?vid=366cccb2-0019-4f2f-9f9d-959e84b31d90","ios":"levelo://app?vid=366cccb2-0019-4f2f-9f9d-959e84b31d90"},"vehicle_type_id":"4","last_reported":1748329846,"current_range_meters":4400,"station_id":"ce4bhm92rcd13ifvqglg","pricing_plan_id":"cebpf4jnsgd1na2vs0mg"},{"bike_id":"05e576fd-7c6b-4293-9a01-2b0fe57ef81d","system_id":"levelo_inurba_marseille","lat":43.24084,"lon":5.37759,"is_reserved":false,"is_disabled":false,"rental_uris":{"android":"levelo://app?vid=05e576fd-7c6b-4293-9a01-2b0fe57ef81d","ios":"levelo://app?vid=05e576fd-7c6b-4293-9a01-2b0fe57ef81d"},"vehicle_type_id":"4","last_reported":1748329846,"current_range_meters":4400,"station_id":"ce4bhnp2rcd13ifvqgvg","pricing_plan_id":"cebpf4jnsgd1na2vs0mg"},{"bike_id":"56086412-adfe-45ea-8a28-f693fcd67af4","system_id":"levelo_inurba_marseille","lat":43.31373,"lon":5.374395,"is_reserved":false,"is_disabled":false,"rental_uris":{"android":"levelo://app?vid=56086412-adfe-45ea-8a28-f693fcd67af4","ios":"levelo://app?vid=56086412-adfe-45ea-8a28-f693fcd67af4"},"vehicle_type_id":"4","last_reported":1748329846,"current_range_meters":4800,"station_id":"ce4bgl92rcd13ifvqbq0","pricing_plan_id":"cebpf4jnsgd1na2vs0mg"},{"bike_id":"75f8266e-4f2e-4313-a432-237b46f77c80","system_id":"levelo_inurba_marseille","lat":43.27313,"lon":5.39083,"is_reserved":false,"is_disabled":false,"rental_uris":{"android":"levelo://app?vid=75f8266e-4f2e-4313-a432-237b46f77c80","ios":"levelo://app?vid=75f8266e-4f2e-4313-a432-237b46f77c80"},"vehicle_type_id":"4","last_reported":1748329846,"current_range_meters":4800,"station_id":"ce4bhgp2rcd13ifvqfe0","pricing_plan_id":"cebpf4jnsgd1na2vs0mg"},{"bike_id":"5c410044-783a-4bf0-a539-9010017a1490","system_id":"levelo_inurba_marseille","lat":43.27067,"lon":5.42277,"is_reserved":false,"is_disabled":false,"rental_uris":{"android":"levelo://app?vid=5c410044-783a-4bf0-a539-9010017a1490","ios":"levelo://app?vid=5c410044-783a-4bf0-a539-9010017a1490"},"vehicle_type_id":"4","last_reported":1748329846,"current_range_meters":4800,"station_id":"ce4bhk92rcd13ifvqgb0","pricing_plan_id":"cebpf4jnsgd1na2vs0mg"},{"bike_id":"f1026e17-2fc7-4e29-9ca3-ef5ad6095be6","system_id":"levelo_inurba_marseille","lat":43.27498,"lon":5.4244,"is_reserved":false,"is_disabled":false,"rental_uris":{"android":"levelo://app?vid=f1026e17-2fc7-4e29-9ca3-ef5ad6095be6","ios":"levelo://app?vid=f1026e17-2fc7-4e29-9ca3-ef5ad6095be6"},"vehicle_type_id":"4","last_reported":1748329846,"current_range_meters":5600,"station_id":"","pricing_plan_id":"cebpf4jnsgd1na2vs0mg"},{"bike_id":"d7257e98-34e6-476a-b428-d6fe51d3e8d0","system_id":"levelo_inurba_marseille","lat":43.29038,"lon":5.39961,"is_reserved":false,"is_disabled":false,"rental_uris":{"android":"levelo://app?vid=d7257e98-34e6-476a-b428-d6fe51d3e8d0","ios":"levelo://app?vid=d7257e98-34e6-476a-b428-d6fe51d3e8d0"},"vehicle_type_id":"4","last_reported":1748329846,"current_range_meters":5600,"station_id":"ce4bh392rcd13ifvqdm0","pricing_plan_id":"cebpf4jnsgd1na2vs0mg"},{"bike_id":"4952dbab-f77b-4988-9f42-953a2277cbaa","system_id":"levelo_inurba_marseille","lat":43.290473,"lon":5.39953,"is_reserved":false,"is_disabled":false,"rental_uris":{"android":"levelo://app?vid=4952dbab-f77b-4988-9f42-953a2277cbaa","ios":"levelo://app?vid=4952dbab-f77b-4988-9f42-953a2277cbaa"},"vehicle_type_id":"4","last_reported":1748329846,"current_range_meters":5600,"station_id":"ce4bh392rcd13ifvqdm0","pricing_plan_id":"cebpf4jnsgd1na2vs0mg"},{"bike_id":"e9496718-b841-4999-823d-28c5bee5d6f1","system_id":"levelo_inurba_marseille","lat":43.26542,"lon":5.38989,"is_reserved":false,"is_disabled":false,"rental_uris":{"android":"levelo://app?vid=e9496718-b841-4999-823d-28c5bee5d6f1","ios":"levelo://app?vid=e9496718-b841-4999-823d-28c5bee5d6f1"},"vehicle_type_id":"4","last_reported":1748329846,"current_range_meters":5600,"station_id":"ce4bhe12rcd13ifvqf30","pricing_plan_id":"cebpf4jnsgd1na2vs0mg"},{"bike_id":"9e39dc91-2e4f-4937-88cb-989a7eb1c1a8","system_id":"levelo_inurba_marseille","lat":43.26689,"lon":5.38273,"is_reserved":false,"is_disabled":false,"rental_uris":{"android":"levelo://app?vid=9e39dc91-2e4f-4937-88cb-989a7eb1c1a8","ios":"levelo://app?vid=9e39dc91-2e4f-4937-88cb-989a7eb1c1a8"},"vehicle_type_id":"4","last_reported":1748329846,"current_range_meters":5600,"station_id":"ce4bhg92rcd13ifvqf90","pricing_plan_id":"cebpf4jnsgd1na2vs0mg"},{"bike_id":"af02aa73-68b2-498b-ad6a-9a50456db18d","system_id":"levelo_inurba_marseille","lat":43.29882,"lon":5.37604,"is_reserved":false,"is_disabled":false,"rental_uris":{"android":"levelo://app?vid=af02aa73-68b2-498b-ad6a-9a50456db18d","ios":"levelo://app?vid=af02aa73-68b2-498b-ad6a-9a50456db18d"},"vehicle_type_id":"4","last_reported":1748329846,"current_range_meters":6000,"station_id":"","pricing_plan_id":"cebpf4jnsgd1na2vs0mg"},{"bike_id":"0070eeb8-3b9f-49ee-a71e-0eeed01160bc","system_id":"levelo_inurba_marseille","lat":43.24394,"lon":5.37061,"is_reserved":false,"is_disabled":false,"rental_uris":{"android":"levelo://app?vid=0070eeb8-3b9f-49ee-a71e-0eeed01160bc","ios":"levelo://app?vid=0070eeb8-3b9f-49ee-a71e-0eeed01160bc"},"vehicle_type_id":"4","last_reported":1748329846,"current_range_meters":6000,"station_id":"ce4bhhh2rcd13ifvqfk0","pricing_plan_id":"cebpf4jnsgd1na2vs0mg"},{"bike_id":"af4d3c08-fbff-43a2-ab9c-1e8f68b50302","system_id":"levelo_inurba_marseille","lat":43.32508,"lon":5.36588,"is_reserved":false,"is_disabled":false,"rental_uris":{"android":"levelo://app?vid=af4d3c08-fbff-43a2-ab9c-1e8f68b50302","ios":"levelo://app?vid=af4d3c08-fbff-43a2-ab9c-1e8f68b50302"},"vehicle_type_id":"4","last_reported":1748329846,"current_range_meters":6000,"station_id":"ce4bhs12rcd13ifvqhvg","pricing_plan_id":"cebpf4jnsgd1na2vs0mg"},{"bike_id":"a4aef2b9-b7e8-4e2d-8340-592d28bc6c85","system_id":"levelo_inurba_marseille","lat":43.337654,"lon":5.37434,"is_reserved":false,"is_disabled":false,"rental_uris":{"android":"levelo://app?vid=a4aef2b9-b7e8-4e2d-8340-592d28bc6c85","ios":"levelo://app?vid=a4aef2b9-b7e8-4e2d-8340-592d28bc6c85"},"vehicle_type_id":"4","last_reported":1748329846,"current_range_meters":6400,"station_id":"","pricing_plan_id":"cebpf4jnsgd1na2vs0mg"},{"bike_id":"efd698cb-2450-498f-9f0b-bfc662548e61","system_id":"levelo_inurba_marseille","lat":43.265576,"lon":5.403193,"is_reserved":false,"is_disabled":false,"rental_uris":{"android":"levelo://app?vid=efd698cb-2450-498f-9f0b-bfc662548e61","ios":"levelo://app?vid=efd698cb-2450-498f-9f0b-bfc662548e61"},"vehicle_type_id":"4","last_reported":1748329846,"current_range_meters":6400,"station_id":"","pricing_plan_id":"cebpf4jnsgd1na2vs0mg"},{"bike_id":"d738903c-26b4-4d2c-b986-f040c0617c9d","system_id":"levelo_inurba_marseille","lat":43.30926,"lon":5.36852,"is_reserved":false,"is_disabled":false,"rental_uris":{"android":"levelo://app?vid=d738903c-26b4-4d2c-b986-f040c0617c9d","ios":"levelo://app?vid=d738903c-26b4-4d2c-b986-f040c0617c9d"},"vehicle_type_id":"4","last_reported":1748329846,"current_range_meters":6400,"station_id":"ce4bgn92rcd13ifvqbvg","pricing_plan_id":"cebpf4jnsgd1na2vs0mg"},{"bike_id":"f7d761a9-bb4d-4fbc-abd4-84c5927b14e2","system_id":"levelo_inurba_marseille","lat":43.29043,"lon":5.39946,"is_reserved":false,"is_disabled":false,"rental_uris":{"android":"levelo://app?vid=f7d761a9-bb4d-4fbc-abd4-84c5927b14e2","ios":"levelo://app?vid=f7d761a9-bb4d-4fbc-abd4-84c5927b14e2"},"vehicle_type_id":"4","last_reported":1748329846,"current_range_meters":6400,"station_id":"ce4bh392rcd13ifvqdm0","pricing_plan_id":"cebpf4jnsgd1na2vs0mg"},{"bike_id":"c56cedd4-dcc9-4c3a-a2fb-0fee0b40740f","system_id":"levelo_inurba_marseille","lat":43.24059,"lon":5.3776,"is_reserved":false,"is_disabled":false,"rental_uris":{"android":"levelo://app?vid=c56cedd4-dcc9-4c3a-a2fb-0fee0b40740f","ios":"levelo://app?vid=c56cedd4-dcc9-4c3a-a2fb-0fee0b40740f"},"vehicle_type_id":"4","last_reported":1748329846,"current_range_meters":6400,"station_id":"ce4bhnp2rcd13ifvqgvg","pricing_plan_id":"cebpf4jnsgd1na2vs0mg"},{"bike_id":"fc56555b-396d-4667-b896-0ad86036e39e","system_id":"levelo_inurba_marseille","lat":43.25895,"lon":5.38038,"is_reserved":false,"is_disabled":false,"rental_uris":{"android":"levelo://app?vid=fc56555b-396d-4667-b896-0ad86036e39e","ios":"levelo://app?vid=fc56555b-396d-4667-b896-0ad86036e39e"},"vehicle_type_id":"4","last_reported":1748329846,"current_range_meters":6800,"station_id":"","pricing_plan_id":"cebpf4jnsgd1na2vs0mg"},{"bike_id":"dad614dd-4504-4897-be19-6ca0fc2265f1","system_id":"levelo_inurba_marseille","lat":43.29798,"lon":5.38097,"is_reserved":false,"is_disabled":false,"rental_uris":{"android":"levelo://app?vid=dad614dd-4504-4897-be19-6ca0fc2265f1","ios":"levelo://app?vid=dad614dd-4504-4897-be19-6ca0fc2265f1"},"vehicle_type_id":"4","last_reported":1748329846,"current_range_meters":6800,"station_id":"ce4bgip2rcd13ifvqbb0","pricing_plan_id":"cebpf4jnsgd1na2vs0mg"},{"bike_id":"f0817813-cc92-40e1-bb95-1600ef81ad6b","system_id":"levelo_inurba_marseille","lat":43.30308,"lon":5.40451,"is_reserved":false,"is_disabled":false,"rental_uris":{"android":"levelo://app?vid=f0817813-cc92-40e1-bb95-1600ef81ad6b","ios":"levelo://app?vid=f0817813-cc92-40e1-bb95-1600ef81ad6b"},"vehicle_type_id":"4","last_reported":1748329846,"current_range_meters":6800,"station_id":"ce4bh012rcd13ifvqd10","pricing_plan_id":"cebpf4jnsgd1na2vs0mg"},{"bike_id":"0a88d4db-9198-4d30-b1b7-136e3824214e","system_id":"levelo_inurba_marseille","lat":43.24651,"lon":5.3889,"is_reserved":false,"is_disabled":false,"rental_uris":{"android":"levelo://app?vid=0a88d4db-9198-4d30-b1b7-136e3824214e","ios":"levelo://app?vid=0a88d4db-9198-4d30-b1b7-136e3824214e"},"vehicle_type_id":"4","last_reported":1748329846,"current_range_meters":6800,"station_id":"ce4bhg12rcd13ifvqf60","pricing_plan_id":"cebpf4jnsgd1na2vs0mg"},{"bike_id":"ec4dfc70-8031-43d1-927a-ef7ac9cdaed5","system_id":"levelo_inurba_marseille","lat":43.2679,"lon":5.39406,"is_reserved":false,"is_disabled":false,"rental_uris":{"android":"levelo://app?vid=ec4dfc70-8031-43d1-927a-ef7ac9cdaed5","ios":"levelo://app?vid=ec4dfc70-8031-43d1-927a-ef7ac9cdaed5"},"vehicle_type_id":"4","last_reported":1748329846,"current_range_meters":6800,"station_id":"ce4bhh12rcd13ifvqfg0","pricing_plan_id":"cebpf4jnsgd1na2vs0mg"},{"bike_id":"c55117bd-56a1-4cdf-a965-232cba35391d","system_id":"levelo_inurba_marseille","lat":43.272031,"lon":5.391977,"is_reserved":false,"is_disabled":false,"rental_uris":{"android":"levelo://app?vid=c55117bd-56a1-4cdf-a965-232cba35391d","ios":"levelo://app?vid=c55117bd-56a1-4cdf-a965-232cba35391d"},"vehicle_type_id":"4","last_reported":1748329846,"current_range_meters":6800,"station_id":"ce4bhi12rcd13ifvqfo0","pricing_plan_id":"cebpf4jnsgd1na2vs0mg"},{"bike_id":"369d9120-8739-4fb2-82da-8de47e39cbba","system_id":"levelo_inurba_marseille","lat":43.25582,"lon":5.38227,"is_reserved":false,"is_disabled":false,"rental_uris":{"android":"levelo://app?vid=369d9120-8739-4fb2-82da-8de47e39cbba","ios":"levelo://app?vid=369d9120-8739-4fb2-82da-8de47e39cbba"},"vehicle_type_id":"4","last_reported":1748329846,"current_range_meters":6800,"station_id":"ce4bhih2rcd13ifvqfs0","pricing_plan_id":"cebpf4jnsgd1na2vs0mg"},{"bike_id":"b744080c-dd77-486d-9609-00c9cf60c1ad","system_id":"levelo_inurba_marseille","lat":43.23626,"lon":5.39195,"is_reserved":false,"is_disabled":false,"rental_uris":{"android":"levelo://app?vid=b744080c-dd77-486d-9609-00c9cf60c1ad","ios":"levelo://app?vid=b744080c-dd77-486d-9609-00c9cf60c1ad"},"vehicle_type_id":"4","last_reported":1748329846,"current_range_meters":7200,"station_id":"","pricing_plan_id":"cebpf4jnsgd1na2vs0mg"},{"bike_id":"a75d16c6-f818-4d85-8212-81e2c85fad18","system_id":"levelo_inurba_marseille","lat":43.29918,"lon":5.37476,"is_reserved":false,"is_disabled":false,"rental_uris":{"android":"levelo://app?vid=a75d16c6-f818-4d85-8212-81e2c85fad18","ios":"levelo://app?vid=a75d16c6-f818-4d85-8212-81e2c85fad18"},"vehicle_type_id":"4","last_reported":1748329846,"current_range_meters":7200,"station_id":"ce4bgjh2rcd13ifvqbg0","pricing_plan_id":"cebpf4jnsgd1na2vs0mg"},{"bike_id":"35617b76-5262-49cb-af3f-9a4bad24edc9","system_id":"levelo_inurba_marseille","lat":43.31485,"lon":5.37308,"is_reserved":false,"is_disabled":false,"rental_uris":{"android":"levelo://app?vid=35617b76-5262-49cb-af3f-9a4bad24edc9","ios":"levelo://app?vid=35617b76-5262-49cb-af3f-9a4bad24edc9"},"vehicle_type_id":"4","last_reported":1748329846,"current_range_meters":7200,"station_id":"ce4bgt12rcd13ifvqcd0","pricing_plan_id":"cebpf4jnsgd1na2vs0mg"},{"bike_id":"efa84cdd-d00d-4d7f-84ec-e0f8bb72a268","system_id":"levelo_inurba_marseille","lat":43.30953,"lon":5.39035,"is_reserved":false,"is_disabled":false,"rental_uris":{"android":"levelo://app?vid=efa84cdd-d00d-4d7f-84ec-e0f8bb72a268","ios":"levelo://app?vid=efa84cdd-d00d-4d7f-84ec-e0f8bb72a268"},"vehicle_type_id":"4","last_reported":1748329846,"current_range_meters":7200,"station_id":"ce4bgup2rcd13ifvqco0","pricing_plan_id":"cebpf4jnsgd1na2vs0mg"},{"bike_id":"500aed2c-12e1-4d25-a6be-5374d8ab567a","system_id":"levelo_inurba_marseille","lat":43.26777,"lon":5.39417,"is_reserved":false,"is_disabled":false,"rental_uris":{"android":"levelo://app?vid=500aed2c-12e1-4d25-a6be-5374d8ab567a","ios":"levelo://app?vid=500aed2c-12e1-4d25-a6be-5374d8ab567a"},"vehicle_type_id":"4","last_reported":1748329846,"current_range_meters":7200,"station_id":"ce4bhh12rcd13ifvqfg0","pricing_plan_id":"cebpf4jnsgd1na2vs0mg"},{"bike_id":"0212e413-9665-4b1d-91c3-cab0f0edd541","system_id":"levelo_inurba_marseille","lat":43.243916,"lon":5.37066,"is_reserved":false,"is_disabled":false,"rental_uris":{"android":"levelo://app?vid=0212e413-9665-4b1d-91c3-cab0f0edd541","ios":"levelo://app?vid=0212e413-9665-4b1d-91c3-cab0f0edd541"},"vehicle_type_id":"4","last_reported":1748329846,"current_range_meters":7200,"station_id":"ce4bhhh2rcd13ifvqfk0","pricing_plan_id":"cebpf4jnsgd1na2vs0mg"},{"bike_id":"1e952921-7125-4c5a-896c-77bb737f2457","system_id":"levelo_inurba_marseille","lat":43.25724,"lon":5.41113,"is_reserved":false,"is_disabled":false,"rental_uris":{"android":"levelo://app?vid=1e952921-7125-4c5a-896c-77bb737f2457","ios":"levelo://app?vid=1e952921-7125-4c5a-896c-77bb737f2457"},"vehicle_type_id":"4","last_reported":1748329846,"current_range_meters":7200,"station_id":"ce4bhkp2rcd13ifvqgd0","pricing_plan_id":"cebpf4jnsgd1na2vs0mg"},{"bike_id":"a3fdfab4-cb8b-4639-a8f9-ac99f398c758","system_id":"levelo_inurba_marseille","lat":43.24157,"lon":5.364,"is_reserved":false,"is_disabled":false,"rental_uris":{"android":"levelo://app?vid=a3fdfab4-cb8b-4639-a8f9-ac99f398c758","ios":"levelo://app?vid=a3fdfab4-cb8b-4639-a8f9-ac99f398c758"},"vehicle_type_id":"4","last_reported":1748329846,"current_range_meters":7200,"station_id":"cpo36qri1sfpv3e86is0","pricing_plan_id":"cebpf4jnsgd1na2vs0mg"},{"bike_id":"8654a797-522d-48db-9c8f-3e52a37eb0a7","system_id":"levelo_inurba_marseille","lat":43.24666,"lon":5.38159,"is_reserved":false,"is_disabled":false,"rental_uris":{"android":"levelo://app?vid=8654a797-522d-48db-9c8f-3e52a37eb0a7","ios":"levelo://app?vid=8654a797-522d-48db-9c8f-3e52a37eb0a7"},"vehicle_type_id":"4","last_reported":1748329846,"current_range_meters":8000,"station_id":"","pricing_plan_id":"cebpf4jnsgd1na2vs0mg"},{"bike_id":"15895a4c-6504-4c01-aecb-996f77f1a3b5","system_id":"levelo_inurba_marseille","lat":43.32136,"lon":5.36755,"is_reserved":false,"is_disabled":false,"rental_uris":{"android":"levelo://app?vid=15895a4c-6504-4c01-aecb-996f77f1a3b5","ios":"levelo://app?vid=15895a4c-6504-4c01-aecb-996f77f1a3b5"},"vehicle_type_id":"4","last_reported":1748329846,"current_range_meters":8000,"station_id":"","pricing_plan_id":"cebpf4jnsgd1na2vs0mg"},{"bike_id":"345ca4dd-e996-4be6-bc27-fcefb0360b34","system_id":"levelo_inurba_marseille","lat":43.29519,"lon":5.37501,"is_reserved":false,"is_disabled":false,"rental_uris":{"android":"levelo://app?vid=345ca4dd-e996-4be6-bc27-fcefb0360b34","ios":"levelo://app?vid=345ca4dd-e996-4be6-bc27-fcefb0360b34"},"vehicle_type_id":"4","last_reported":1748329846,"current_range_meters":8000,"station_id":"ce4bgkp2rcd13ifvqbmg","pricing_plan_id":"cebpf4jnsgd1na2vs0mg"},{"bike_id":"4b9e9109-52d1-4cfc-88c8-5cfa48d86841","system_id":"levelo_inurba_marseille","lat":43.29168,"lon":5.37159,"is_reserved":false,"is_disabled":false,"rental_uris":{"android":"levelo://app?vid=4b9e9109-52d1-4cfc-88c8-5cfa48d86841","ios":"levelo://app?vid=4b9e9109-52d1-4cfc-88c8-5cfa48d86841"},"vehicle_type_id":"4","last_reported":1748329846,"current_range_meters":8000,"station_id":"ce4bha92rcd13ifvqeh0","pricing_plan_id":"cebpf4jnsgd1na2vs0mg"},{"bike_id":"01483357-963a-4f2b-b8b0-5b9f7615ef4c","system_id":"levelo_inurba_marseille","lat":43.25932,"lon":5.40904,"is_reserved":false,"is_disabled":false,"rental_uris":{"android":"levelo://app?vid=01483357-963a-4f2b-b8b0-5b9f7615ef4c","ios":"levelo://app?vid=01483357-963a-4f2b-b8b0-5b9f7615ef4c"},"vehicle_type_id":"4","last_reported":1748329846,"current_range_meters":8000,"station_id":"ce4bhm92rcd13ifvqglg","pricing_plan_id":"cebpf4jnsgd1na2vs0mg"},{"bike_id":"47e2562d-d7cd-4289-b3e3-66aa2a0d99bc","system_id":"levelo_inurba_marseille","lat":43.25938,"lon":5.40898,"is_reserved":false,"is_disabled":false,"rental_uris":{"android":"levelo://app?vid=47e2562d-d7cd-4289-b3e3-66aa2a0d99bc","ios":"levelo://app?vid=47e2562d-d7cd-4289-b3e3-66aa2a0d99bc"},"vehicle_type_id":"4","last_reported":1748329846,"current_range_meters":8000,"station_id":"ce4bhm92rcd13ifvqglg","pricing_plan_id":"cebpf4jnsgd1na2vs0mg"},{"bike_id":"6a80d0cd-0ed1-4299-94b2-c768810a3301","system_id":"levelo_inurba_marseille","lat":43.25915,"lon":5.40897,"is_reserved":false,"is_disabled":false,"rental_uris":{"android":"levelo://app?vid=6a80d0cd-0ed1-4299-94b2-c768810a3301","ios":"levelo://app?vid=6a80d0cd-0ed1-4299-94b2-c768810a3301"},"vehicle_type_id":"4","last_reported":1748329846,"current_range_meters":8000,"station_id":"ce4bhm92rcd13ifvqglg","pricing_plan_id":"cebpf4jnsgd1na2vs0mg"},{"bike_id":"e600a130-bf76-4bc2-8231-6cb1d75ee3b3","system_id":"levelo_inurba_marseille","lat":43.27531,"lon":5.42402,"is_reserved":false,"is_disabled":false,"rental_uris":{"android":"levelo://app?vid=e600a130-bf76-4bc2-8231-6cb1d75ee3b3","ios":"levelo://app?vid=e600a130-bf76-4bc2-8231-6cb1d75ee3b3"},"vehicle_type_id":"4","last_reported":1748329846,"current_range_meters":8400,"station_id":"","pricing_plan_id":"cebpf4jnsgd1na2vs0mg"},{"bike_id":"222eb920-8f92-43ba-b637-68a1e82f37c8","system_id":"levelo_inurba_marseille","lat":43.2993,"lon":5.36552,"is_reserved":false,"is_disabled":false,"rental_uris":{"android":"levelo://app?vid=222eb920-8f92-43ba-b637-68a1e82f37c8","ios":"levelo://app?vid=222eb920-8f92-43ba-b637-68a1e82f37c8"},"vehicle_type_id":"4","last_reported":1748329846,"current_range_meters":8400,"station_id":"ce4bgm92rcd13ifvqbr0","pricing_plan_id":"cebpf4jnsgd1na2vs0mg"},{"bike_id":"1e03efad-a79c-4fea-994a-0fd9be99e02e","system_id":"levelo_inurba_marseille","lat":43.29096,"lon":5.38133,"is_reserved":false,"is_disabled":false,"rental_uris":{"android":"levelo://app?vid=1e03efad-a79c-4fea-994a-0fd9be99e02e","ios":"levelo://app?vid=1e03efad-a79c-4fea-994a-0fd9be99e02e"},"vehicle_type_id":"4","last_reported":1748329846,"current_range_meters":8400,"station_id":"ce4bh512rcd13ifvqe2g","pricing_plan_id":"cebpf4jnsgd1na2vs0mg"},{"bike_id":"e3d8d668-a817-4f08-82de-1f66bda33eb3","system_id":"levelo_inurba_marseille","lat":43.25935,"lon":5.40904,"is_reserved":false,"is_disabled":false,"rental_uris":{"android":"levelo://app?vid=e3d8d668-a817-4f08-82de-1f66bda33eb3","ios":"levelo://app?vid=e3d8d668-a817-4f08-82de-1f66bda33eb3"},"vehicle_type_id":"4","last_reported":1748329846,"current_range_meters":8400,"station_id":"ce4bhm92rcd13ifvqglg","pricing_plan_id":"cebpf4jnsgd1na2vs0mg"},{"bike_id":"7d241e20-c6d4-405e-a9df-416472047c91","system_id":"levelo_inurba_marseille","lat":43.22928,"lon":5.35387,"is_reserved":false,"is_disabled":false,"rental_uris":{"android":"levelo://app?vid=7d241e20-c6d4-405e-a9df-416472047c91","ios":"levelo://app?vid=7d241e20-c6d4-405e-a9df-416472047c91"},"vehicle_type_id":"4","last_reported":1748329846,"current_range_meters":8400,"station_id":"cpo3532slgdg3j2ikp40","pricing_plan_id":"cebpf4jnsgd1na2vs0mg"},{"bike_id":"0ffeef77-788f-4789-9e1d-d208f138fc3e","system_id":"levelo_inurba_marseille","lat":43.30604,"lon":5.37228,"is_reserved":false,"is_disabled":false,"rental_uris":{"android":"levelo://app?vid=0ffeef77-788f-4789-9e1d-d208f138fc3e","ios":"levelo://app?vid=0ffeef77-788f-4789-9e1d-d208f138fc3e"},"vehicle_type_id":"4","last_reported":1748329846,"current_range_meters":8800,"station_id":"ce4bgqh2rcd13ifvqc4g","pricing_plan_id":"cebpf4jnsgd1na2vs0mg"},{"bike_id":"ef299b6f-7fa0-44af-8ab8-80c65e8d9fe1","system_id":"levelo_inurba_marseille","lat":43.30135,"lon":5.37428,"is_reserved":false,"is_disabled":false,"rental_uris":{"android":"levelo://app?vid=ef299b6f-7fa0-44af-8ab8-80c65e8d9fe1","ios":"levelo://app?vid=ef299b6f-7fa0-44af-8ab8-80c65e8d9fe1"},"vehicle_type_id":"4","last_reported":1748329846,"current_range_meters":8800,"station_id":"ce4bgs92rcd13ifvqcc0","pricing_plan_id":"cebpf4jnsgd1na2vs0mg"},{"bike_id":"b351c5db-868c-4139-a29e-47665b4d6171","system_id":"levelo_inurba_marseille","lat":43.2593,"lon":5.40906,"is_reserved":false,"is_disabled":false,"rental_uris":{"android":"levelo://app?vid=b351c5db-868c-4139-a29e-47665b4d6171","ios":"levelo://app?vid=b351c5db-868c-4139-a29e-47665b4d6171"},"vehicle_type_id":"4","last_reported":1748329846,"current_range_meters":8800,"station_id":"ce4bhm92rcd13ifvqglg","pricing_plan_id":"cebpf4jnsgd1na2vs0mg"},{"bike_id":"fb1a3b4e-0be5-4550-bfd4-854affb491cd","system_id":"levelo_inurba_marseille","lat":43.25937,"lon":5.40903,"is_reserved":false,"is_disabled":false,"rental_uris":{"android":"levelo://app?vid=fb1a3b4e-0be5-4550-bfd4-854affb491cd","ios":"levelo://app?vid=fb1a3b4e-0be5-4550-bfd4-854affb491cd"},"vehicle_type_id":"4","last_reported":1748329846,"current_range_meters":8800,"station_id":"ce4bhm92rcd13ifvqglg","pricing_plan_id":"cebpf4jnsgd1na2vs0mg"},{"bike_id":"9ea0d084-b7dd-4cae-8983-9385691118e8","system_id":"levelo_inurba_marseille","lat":43.31894,"lon":5.40717,"is_reserved":false,"is_disabled":false,"rental_uris":{"android":"levelo://app?vid=9ea0d084-b7dd-4cae-8983-9385691118e8","ios":"levelo://app?vid=9ea0d084-b7dd-4cae-8983-9385691118e8"},"vehicle_type_id":"4","last_reported":1748329846,"current_range_meters":8800,"station_id":"ce4bhq12rcd13ifvqhig","pricing_plan_id":"cebpf4jnsgd1na2vs0mg"},{"bike_id":"e52103db-e07c-4da0-b844-47011b170676","system_id":"levelo_inurba_marseille","lat":43.22502,"lon":5.34789,"is_reserved":false,"is_disabled":false,"rental_uris":{"android":"levelo://app?vid=e52103db-e07c-4da0-b844-47011b170676","ios":"levelo://app?vid=e52103db-e07c-4da0-b844-47011b170676"},"vehicle_type_id":"4","last_reported":1748329846,"current_range_meters":8800,"station_id":"st_cvj5dfep6f1abm77gieg","pricing_plan_id":"cebpf4jnsgd1na2vs0mg"},{"bike_id":"1a0998e5-8bb9-474f-a827-53cad24c9e8f","system_id":"levelo_inurba_marseille","lat":43.32036,"lon":5.44946,"is_reserved":false,"is_disabled":false,"rental_uris":{"android":"levelo://app?vid=1a0998e5-8bb9-474f-a827-53cad24c9e8f","ios":"levelo://app?vid=1a0998e5-8bb9-474f-a827-53cad24c9e8f"},"vehicle_type_id":"4","last_reported":1748329846,"current_range_meters":9200,"station_id":"","pricing_plan_id":"cebpf4jnsgd1na2vs0mg"},{"bike_id":"f0ea11cc-6b49-4c9c-90a7-c9e4ead2f0fb","system_id":"levelo_inurba_marseille","lat":43.254969,"lon":5.37649,"is_reserved":false,"is_disabled":false,"rental_uris":{"android":"levelo://app?vid=f0ea11cc-6b49-4c9c-90a7-c9e4ead2f0fb","ios":"levelo://app?vid=f0ea11cc-6b49-4c9c-90a7-c9e4ead2f0fb"},"vehicle_type_id":"4","last_reported":1748329846,"current_range_meters":9200,"station_id":"","pricing_plan_id":"cebpf4jnsgd1na2vs0mg"},{"bike_id":"df29ded3-a879-4221-a24a-fa3ebc65e6a4","system_id":"levelo_inurba_marseille","lat":43.3146,"lon":5.37265,"is_reserved":false,"is_disabled":false,"rental_uris":{"android":"levelo://app?vid=df29ded3-a879-4221-a24a-fa3ebc65e6a4","ios":"levelo://app?vid=df29ded3-a879-4221-a24a-fa3ebc65e6a4"},"vehicle_type_id":"4","last_reported":1748329846,"current_range_meters":9200,"station_id":"ce4bgt12rcd13ifvqcd0","pricing_plan_id":"cebpf4jnsgd1na2vs0mg"},{"bike_id":"b4146fff-cf02-4f65-8ab3-125c21ece2c8","system_id":"levelo_inurba_marseille","lat":43.29029,"lon":5.38115,"is_reserved":false,"is_disabled":false,"rental_uris":{"android":"levelo://app?vid=b4146fff-cf02-4f65-8ab3-125c21ece2c8","ios":"levelo://app?vid=b4146fff-cf02-4f65-8ab3-125c21ece2c8"},"vehicle_type_id":"4","last_reported":1748329846,"current_range_meters":9200,"station_id":"ce4bh4p2rcd13ifvqe1g","pricing_plan_id":"cebpf4jnsgd1na2vs0mg"},{"bike_id":"099000ba-3eeb-496a-9fca-956c1995fef6","system_id":"levelo_inurba_marseille","lat":43.28943,"lon":5.364,"is_reserved":false,"is_disabled":false,"rental_uris":{"android":"levelo://app?vid=099000ba-3eeb-496a-9fca-956c1995fef6","ios":"levelo://app?vid=099000ba-3eeb-496a-9fca-956c1995fef6"},"vehicle_type_id":"4","last_reported":1748329846,"current_range_meters":9200,"station_id":"ce4bhc92rcd13ifvqetg","pricing_plan_id":"cebpf4jnsgd1na2vs0mg"},{"bike_id":"28d55f7a-98cd-4aaa-95b2-35edf61c17cc","system_id":"levelo_inurba_marseille","lat":43.25937,"lon":5.40897,"is_reserved":false,"is_disabled":false,"rental_uris":{"android":"levelo://app?vid=28d55f7a-98cd-4aaa-95b2-35edf61c17cc","ios":"levelo://app?vid=28d55f7a-98cd-4aaa-95b2-35edf61c17cc"},"vehicle_type_id":"4","last_reported":1748329846,"current_range_meters":9200,"station_id":"ce4bhm92rcd13ifvqglg","pricing_plan_id":"cebpf4jnsgd1na2vs0mg"},{"bike_id":"48f64c43-6486-49dc-a266-2256ae10271d","system_id":"levelo_inurba_marseille","lat":43.29556,"lon":5.42291,"is_reserved":false,"is_disabled":false,"rental_uris":{"android":"levelo://app?vid=48f64c43-6486-49dc-a266-2256ae10271d","ios":"levelo://app?vid=48f64c43-6486-49dc-a266-2256ae10271d"},"vehicle_type_id":"4","last_reported":1748329846,"current_range_meters":9200,"station_id":"ce4bhph2rcd13ifvqhdg","pricing_plan_id":"cebpf4jnsgd1na2vs0mg"},{"bike_id":"a9fc2cea-b084-49eb-aad0-149d4bae2e5a","system_id":"levelo_inurba_marseille","lat":43.23194,"lon":5.35553,"is_reserved":false,"is_disabled":false,"rental_uris":{"android":"levelo://app?vid=a9fc2cea-b084-49eb-aad0-149d4bae2e5a","ios":"levelo://app?vid=a9fc2cea-b084-49eb-aad0-149d4bae2e5a"},"vehicle_type_id":"4","last_reported":1748329846,"current_range_meters":9200,"station_id":"ce4bhu92rcd13ifvqi70","pricing_plan_id":"cebpf4jnsgd1na2vs0mg"},{"bike_id":"ae6e6868-2635-4f49-b7c1-b03759c58ec7","system_id":"levelo_inurba_marseille","lat":43.272798,"lon":5.415869,"is_reserved":false,"is_disabled":false,"rental_uris":{"android":"levelo://app?vid=ae6e6868-2635-4f49-b7c1-b03759c58ec7","ios":"levelo://app?vid=ae6e6868-2635-4f49-b7c1-b03759c58ec7"},"vehicle_type_id":"4","last_reported":1748329846,"current_range_meters":9600,"station_id":"","pricing_plan_id":"cebpf4jnsgd1na2vs0mg"},{"bike_id":"99b469f2-c364-4159-9d35-9a1121c1578f","system_id":"levelo_inurba_marseille","lat":43.31552,"lon":5.3835,"is_reserved":false,"is_disabled":false,"rental_uris":{"android":"levelo://app?vid=99b469f2-c364-4159-9d35-9a1121c1578f","ios":"levelo://app?vid=99b469f2-c364-4159-9d35-9a1121c1578f"},"vehicle_type_id":"4","last_reported":1748329846,"current_range_meters":9600,"station_id":"","pricing_plan_id":"cebpf4jnsgd1na2vs0mg"},{"bike_id":"66bf83d9-6b48-4aa7-a385-f38aa9e22fed","system_id":"levelo_inurba_marseille","lat":43.30935,"lon":5.40138,"is_reserved":false,"is_disabled":false,"rental_uris":{"android":"levelo://app?vid=66bf83d9-6b48-4aa7-a385-f38aa9e22fed","ios":"levelo://app?vid=66bf83d9-6b48-4aa7-a385-f38aa9e22fed"},"vehicle_type_id":"4","last_reported":1748329846,"current_range_meters":9600,"station_id":"ce4bgvp2rcd13ifvqct0","pricing_plan_id":"cebpf4jnsgd1na2vs0mg"},{"bike_id":"b796e83d-8c64-4a7c-b28e-f182677173b9","system_id":"levelo_inurba_marseille","lat":43.267908,"lon":5.39407,"is_reserved":false,"is_disabled":false,"rental_uris":{"android":"levelo://app?vid=b796e83d-8c64-4a7c-b28e-f182677173b9","ios":"levelo://app?vid=b796e83d-8c64-4a7c-b28e-f182677173b9"},"vehicle_type_id":"4","last_reported":1748329846,"current_range_meters":9600,"station_id":"ce4bhh12rcd13ifvqfg0","pricing_plan_id":"cebpf4jnsgd1na2vs0mg"},{"bike_id":"1ad9bce4-64d8-4eb8-bd3e-467565152e60","system_id":"levelo_inurba_marseille","lat":43.23962,"lon":5.3663,"is_reserved":false,"is_disabled":false,"rental_uris":{"android":"levelo://app?vid=1ad9bce4-64d8-4eb8-bd3e-467565152e60","ios":"levelo://app?vid=1ad9bce4-64d8-4eb8-bd3e-467565152e60"},"vehicle_type_id":"4","last_reported":1748329846,"current_range_meters":9600,"station_id":"ce4bhi12rcd13ifvqfp0","pricing_plan_id":"cebpf4jnsgd1na2vs0mg"},{"bike_id":"546d49f5-d6ec-4cab-87a1-6a6f324e59ba","system_id":"levelo_inurba_marseille","lat":43.26488,"lon":5.39544,"is_reserved":false,"is_disabled":false,"rental_uris":{"android":"levelo://app?vid=546d49f5-d6ec-4cab-87a1-6a6f324e59ba","ios":"levelo://app?vid=546d49f5-d6ec-4cab-87a1-6a6f324e59ba"},"vehicle_type_id":"4","last_reported":1748329846,"current_range_meters":9600,"station_id":"ce4bhi12rcd13ifvqfq0","pricing_plan_id":"cebpf4jnsgd1na2vs0mg"},{"bike_id":"59bf72ec-f10a-4b73-b9ad-1e1f7a419520","system_id":"levelo_inurba_marseille","lat":43.26199,"lon":5.37934,"is_reserved":false,"is_disabled":false,"rental_uris":{"android":"levelo://app?vid=59bf72ec-f10a-4b73-b9ad-1e1f7a419520","ios":"levelo://app?vid=59bf72ec-f10a-4b73-b9ad-1e1f7a419520"},"vehicle_type_id":"4","last_reported":1748329846,"current_range_meters":9600,"station_id":"ce4bhjp2rcd13ifvqg90","pricing_plan_id":"cebpf4jnsgd1na2vs0mg"},{"bike_id":"0427b193-f27e-40bb-b207-7cf930ad3bef","system_id":"levelo_inurba_marseille","lat":43.23149,"lon":5.43722,"is_reserved":false,"is_disabled":false,"rental_uris":{"android":"levelo://app?vid=0427b193-f27e-40bb-b207-7cf930ad3bef","ios":"levelo://app?vid=0427b193-f27e-40bb-b207-7cf930ad3bef"},"vehicle_type_id":"4","last_reported":1748329846,"current_range_meters":9600,"station_id":"ce4bhmp2rcd13ifvqgog","pricing_plan_id":"cebpf4jnsgd1na2vs0mg"},{"bike_id":"f6a291c8-009c-4799-858f-3d0684b35fea","system_id":"levelo_inurba_marseille","lat":43.23157,"lon":5.43725,"is_reserved":false,"is_disabled":false,"rental_uris":{"android":"levelo://app?vid=f6a291c8-009c-4799-858f-3d0684b35fea","ios":"levelo://app?vid=f6a291c8-009c-4799-858f-3d0684b35fea"},"vehicle_type_id":"4","last_reported":1748329846,"current_range_meters":9600,"station_id":"ce4bhmp2rcd13ifvqgog","pricing_plan_id":"cebpf4jnsgd1na2vs0mg"},{"bike_id":"8a45606e-2096-4a22-88d7-26c191e9986d","system_id":"levelo_inurba_marseille","lat":43.33017,"lon":5.39036,"is_reserved":false,"is_disabled":false,"rental_uris":{"android":"levelo://app?vid=8a45606e-2096-4a22-88d7-26c191e9986d","ios":"levelo://app?vid=8a45606e-2096-4a22-88d7-26c191e9986d"},"vehicle_type_id":"4","last_reported":1748329846,"current_range_meters":9600,"station_id":"ce4bhr92rcd13ifvqhrg","pricing_plan_id":"cebpf4jnsgd1na2vs0mg"},{"bike_id":"62e176af-4c85-4353-bfa6-ecdbaa74154c","system_id":"levelo_inurba_marseille","lat":43.29712,"lon":5.37691,"is_reserved":false,"is_disabled":false,"rental_uris":{"android":"levelo://app?vid=62e176af-4c85-4353-bfa6-ecdbaa74154c","ios":"levelo://app?vid=62e176af-4c85-4353-bfa6-ecdbaa74154c"},"vehicle_type_id":"4","last_reported":1748329846,"current_range_meters":10000,"station_id":"ce4bgkh2rcd13ifvqbl0","pricing_plan_id":"cebpf4jnsgd1na2vs0mg"},{"bike_id":"890b9e5a-a454-4b38-b847-e5e27749f537","system_id":"levelo_inurba_marseille","lat":43.28106,"lon":5.37844,"is_reserved":false,"is_disabled":false,"rental_uris":{"android":"levelo://app?vid=890b9e5a-a454-4b38-b847-e5e27749f537","ios":"levelo://app?vid=890b9e5a-a454-4b38-b847-e5e27749f537"},"vehicle_type_id":"4","last_reported":1748329846,"current_range_meters":10000,"station_id":"ce4bha12rcd13ifvqee0","pricing_plan_id":"cebpf4jnsgd1na2vs0mg"},{"bike_id":"f336b145-6724-4478-b058-6342133f0390","system_id":"levelo_inurba_marseille","lat":43.26558,"lon":5.3728,"is_reserved":false,"is_disabled":false,"rental_uris":{"android":"levelo://app?vid=f336b145-6724-4478-b058-6342133f0390","ios":"levelo://app?vid=f336b145-6724-4478-b058-6342133f0390"},"vehicle_type_id":"4","last_reported":1748329846,"current_range_meters":10000,"station_id":"ce4bhg12rcd13ifvqf70","pricing_plan_id":"cebpf4jnsgd1na2vs0mg"},{"bike_id":"7a57b054-29e1-4b1f-a5e6-86f15e50427d","system_id":"levelo_inurba_marseille","lat":43.30387,"lon":5.42473,"is_reserved":false,"is_disabled":false,"rental_uris":{"android":"levelo://app?vid=7a57b054-29e1-4b1f-a5e6-86f15e50427d","ios":"levelo://app?vid=7a57b054-29e1-4b1f-a5e6-86f15e50427d"},"vehicle_type_id":"4","last_reported":1748329846,"current_range_meters":10000,"station_id":"ce4bhoh2rcd13ifvqh6g","pricing_plan_id":"cebpf4jnsgd1na2vs0mg"},{"bike_id":"7e3fffbc-5a0f-4ece-b481-63e40e5aabfe","system_id":"levelo_inurba_marseille","lat":43.33722,"lon":5.39172,"is_reserved":false,"is_disabled":false,"rental_uris":{"android":"levelo://app?vid=7e3fffbc-5a0f-4ece-b481-63e40e5aabfe","ios":"levelo://app?vid=7e3fffbc-5a0f-4ece-b481-63e40e5aabfe"},"vehicle_type_id":"4","last_reported":1748329846,"current_range_meters":10000,"station_id":"ce4bhr92rcd13ifvqhsg","pricing_plan_id":"cebpf4jnsgd1na2vs0mg"},{"bike_id":"7bee9e9b-07c9-44a5-b19f-677f3ec993f5","system_id":"levelo_inurba_marseille","lat":43.32482,"lon":5.3656,"is_reserved":false,"is_disabled":false,"rental_uris":{"android":"levelo://app?vid=7bee9e9b-07c9-44a5-b19f-677f3ec993f5","ios":"levelo://app?vid=7bee9e9b-07c9-44a5-b19f-677f3ec993f5"},"vehicle_type_id":"4","last_reported":1748329846,"current_range_meters":10000,"station_id":"ce4bhs12rcd13ifvqhvg","pricing_plan_id":"cebpf4jnsgd1na2vs0mg"},{"bike_id":"46cda4ed-94e5-4bec-b035-3e0d6ee84711","system_id":"levelo_inurba_marseille","lat":43.30913,"lon":5.36889,"is_reserved":false,"is_disabled":false,"rental_uris":{"android":"levelo://app?vid=46cda4ed-94e5-4bec-b035-3e0d6ee84711","ios":"levelo://app?vid=46cda4ed-94e5-4bec-b035-3e0d6ee84711"},"vehicle_type_id":"4","last_reported":1748329846,"current_range_meters":10800,"station_id":"ce4bgn92rcd13ifvqbvg","pricing_plan_id":"cebpf4jnsgd1na2vs0mg"},{"bike_id":"890e776a-181b-4a3b-8e0c-c3659c916a44","system_id":"levelo_inurba_marseille","lat":43.31353,"lon":5.38492,"is_reserved":false,"is_disabled":false,"rental_uris":{"android":"levelo://app?vid=890e776a-181b-4a3b-8e0c-c3659c916a44","ios":"levelo://app?vid=890e776a-181b-4a3b-8e0c-c3659c916a44"},"vehicle_type_id":"4","last_reported":1748329846,"current_range_meters":10800,"station_id":"ce4bgt92rcd13ifvqcf0","pricing_plan_id":"cebpf4jnsgd1na2vs0mg"},{"bike_id":"1d36b4f4-d5a6-4aef-a0f1-1c586dc174b0","system_id":"levelo_inurba_marseille","lat":43.275527,"lon":5.384133,"is_reserved":false,"is_disabled":false,"rental_uris":{"android":"levelo://app?vid=1d36b4f4-d5a6-4aef-a0f1-1c586dc174b0","ios":"levelo://app?vid=1d36b4f4-d5a6-4aef-a0f1-1c586dc174b0"},"vehicle_type_id":"4","last_reported":1748329846,"current_range_meters":10800,"station_id":"ce4bhh92rcd13ifvqfi0","pricing_plan_id":"cebpf4jnsgd1na2vs0mg"},{"bike_id":"cd431521-2266-4f45-ac9a-95e56b6903c9","system_id":"levelo_inurba_marseille","lat":43.24194,"lon":5.39726,"is_reserved":false,"is_disabled":false,"rental_uris":{"android":"levelo://app?vid=cd431521-2266-4f45-ac9a-95e56b6903c9","ios":"levelo://app?vid=cd431521-2266-4f45-ac9a-95e56b6903c9"},"vehicle_type_id":"4","last_reported":1748329846,"current_range_meters":10800,"station_id":"ce4bhn12rcd13ifvqgpg","pricing_plan_id":"cebpf4jnsgd1na2vs0mg"},{"bike_id":"6ef27e84-462a-46f9-afe5-e09b209cc7f0","system_id":"levelo_inurba_marseille","lat":43.331148,"lon":5.362056,"is_reserved":false,"is_disabled":false,"rental_uris":{"android":"levelo://app?vid=6ef27e84-462a-46f9-afe5-e09b209cc7f0","ios":"levelo://app?vid=6ef27e84-462a-46f9-afe5-e09b209cc7f0"},"vehicle_type_id":"4","last_reported":1748329846,"current_range_meters":11200,"station_id":"","pricing_plan_id":"cebpf4jnsgd1na2vs0mg"},{"bike_id":"5711907e-2b5f-47c4-9934-de86ae097ad1","system_id":"levelo_inurba_marseille","lat":43.30457,"lon":5.379,"is_reserved":false,"is_disabled":false,"rental_uris":{"android":"levelo://app?vid=5711907e-2b5f-47c4-9934-de86ae097ad1","ios":"levelo://app?vid=5711907e-2b5f-47c4-9934-de86ae097ad1"},"vehicle_type_id":"4","last_reported":1748329846,"current_range_meters":11200,"station_id":"ce4bgup2rcd13ifvqcn0","pricing_plan_id":"cebpf4jnsgd1na2vs0mg"},{"bike_id":"1a775a5e-1792-4706-b4f6-ec50ef749d53","system_id":"levelo_inurba_marseille","lat":43.255796,"lon":5.38223,"is_reserved":false,"is_disabled":false,"rental_uris":{"android":"levelo://app?vid=1a775a5e-1792-4706-b4f6-ec50ef749d53","ios":"levelo://app?vid=1a775a5e-1792-4706-b4f6-ec50ef749d53"},"vehicle_type_id":"4","last_reported":1748329846,"current_range_meters":11200,"station_id":"ce4bhih2rcd13ifvqfs0","pricing_plan_id":"cebpf4jnsgd1na2vs0mg"},{"bike_id":"1710148a-3a48-4543-b954-3a96d221adf5","system_id":"levelo_inurba_marseille","lat":43.24075,"lon":5.37752,"is_reserved":false,"is_disabled":false,"rental_uris":{"android":"levelo://app?vid=1710148a-3a48-4543-b954-3a96d221adf5","ios":"levelo://app?vid=1710148a-3a48-4543-b954-3a96d221adf5"},"vehicle_type_id":"4","last_reported":1748329846,"current_range_meters":11200,"station_id":"ce4bhnp2rcd13ifvqgvg","pricing_plan_id":"cebpf4jnsgd1na2vs0mg"},{"bike_id":"4d447eec-8ba8-44fe-8ca7-7a53b10b5879","system_id":"levelo_inurba_marseille","lat":43.24072,"lon":5.37759,"is_reserved":false,"is_disabled":false,"rental_uris":{"android":"levelo://app?vid=4d447eec-8ba8-44fe-8ca7-7a53b10b5879","ios":"levelo://app?vid=4d447eec-8ba8-44fe-8ca7-7a53b10b5879"},"vehicle_type_id":"4","last_reported":1748329846,"current_range_meters":11200,"station_id":"ce4bhnp2rcd13ifvqgvg","pricing_plan_id":"cebpf4jnsgd1na2vs0mg"},{"bike_id":"c8b8bbea-449b-4f67-85ba-885540241e89","system_id":"levelo_inurba_marseille","lat":43.319237,"lon":5.372923,"is_reserved":false,"is_disabled":false,"rental_uris":{"android":"levelo://app?vid=c8b8bbea-449b-4f67-85ba-885540241e89","ios":"levelo://app?vid=c8b8bbea-449b-4f67-85ba-885540241e89"},"vehicle_type_id":"4","last_reported":1748329846,"current_range_meters":11600,"station_id":"","pricing_plan_id":"cebpf4jnsgd1na2vs0mg"},{"bike_id":"f5b1aa50-af32-4b67-af03-fc8d46feddb5","system_id":"levelo_inurba_marseille","lat":43.292694,"lon":5.401271,"is_reserved":false,"is_disabled":false,"rental_uris":{"android":"levelo://app?vid=f5b1aa50-af32-4b67-af03-fc8d46feddb5","ios":"levelo://app?vid=f5b1aa50-af32-4b67-af03-fc8d46feddb5"},"vehicle_type_id":"4","last_reported":1748329846,"current_range_meters":11600,"station_id":"","pricing_plan_id":"cebpf4jnsgd1na2vs0mg"},{"bike_id":"f751281a-bb1b-441a-bca7-73629890d3ee","system_id":"levelo_inurba_marseille","lat":43.30013,"lon":5.37146,"is_reserved":false,"is_disabled":false,"rental_uris":{"android":"levelo://app?vid=f751281a-bb1b-441a-bca7-73629890d3ee","ios":"levelo://app?vid=f751281a-bb1b-441a-bca7-73629890d3ee"},"vehicle_type_id":"4","last_reported":1748329846,"current_range_meters":11600,"station_id":"","pricing_plan_id":"cebpf4jnsgd1na2vs0mg"},{"bike_id":"2427d310-002d-4a5e-ac61-a8648ecf28d7","system_id":"levelo_inurba_marseille","lat":43.29526,"lon":5.375,"is_reserved":false,"is_disabled":false,"rental_uris":{"android":"levelo://app?vid=2427d310-002d-4a5e-ac61-a8648ecf28d7","ios":"levelo://app?vid=2427d310-002d-4a5e-ac61-a8648ecf28d7"},"vehicle_type_id":"4","last_reported":1748329846,"current_range_meters":11600,"station_id":"ce4bgkp2rcd13ifvqbmg","pricing_plan_id":"cebpf4jnsgd1na2vs0mg"},{"bike_id":"3f3e4cb5-469c-4e42-bc40-006dd05aaa3a","system_id":"levelo_inurba_marseille","lat":43.31228,"lon":5.36853,"is_reserved":false,"is_disabled":false,"rental_uris":{"android":"levelo://app?vid=3f3e4cb5-469c-4e42-bc40-006dd05aaa3a","ios":"levelo://app?vid=3f3e4cb5-469c-4e42-bc40-006dd05aaa3a"},"vehicle_type_id":"4","last_reported":1748329846,"current_range_meters":11600,"station_id":"ce4bgl92rcd13ifvqbq0","pricing_plan_id":"cebpf4jnsgd1na2vs0mg"},{"bike_id":"48cd0317-1c6f-4804-9cd1-21cb1ebe5af3","system_id":"levelo_inurba_marseille","lat":43.254881,"lon":5.376466,"is_reserved":false,"is_disabled":false,"rental_uris":{"android":"levelo://app?vid=48cd0317-1c6f-4804-9cd1-21cb1ebe5af3","ios":"levelo://app?vid=48cd0317-1c6f-4804-9cd1-21cb1ebe5af3"},"vehicle_type_id":"4","last_reported":1748329846,"current_range_meters":11600,"station_id":"ce4bhh12rcd13ifvqff0","pricing_plan_id":"cebpf4jnsgd1na2vs0mg"},{"bike_id":"1c62b52a-9271-4045-9b0c-9d79ac0da065","system_id":"levelo_inurba_marseille","lat":43.262,"lon":5.37938,"is_reserved":false,"is_disabled":false,"rental_uris":{"android":"levelo://app?vid=1c62b52a-9271-4045-9b0c-9d79ac0da065","ios":"levelo://app?vid=1c62b52a-9271-4045-9b0c-9d79ac0da065"},"vehicle_type_id":"4","last_reported":1748329846,"current_range_meters":11600,"station_id":"ce4bhjp2rcd13ifvqg90","pricing_plan_id":"cebpf4jnsgd1na2vs0mg"},{"bike_id":"7e75b3bc-0075-4903-9da5-f4d99ff79813","system_id":"levelo_inurba_marseille","lat":43.25708,"lon":5.41103,"is_reserved":false,"is_disabled":false,"rental_uris":{"android":"levelo://app?vid=7e75b3bc-0075-4903-9da5-f4d99ff79813","ios":"levelo://app?vid=7e75b3bc-0075-4903-9da5-f4d99ff79813"},"vehicle_type_id":"4","last_reported":1748329846,"current_range_meters":11600,"station_id":"ce4bhkp2rcd13ifvqgd0","pricing_plan_id":"cebpf4jnsgd1na2vs0mg"},{"bike_id":"98cbf70d-d9f6-4b71-bf03-63425172bed7","system_id":"levelo_inurba_marseille","lat":43.2315,"lon":5.43723,"is_reserved":false,"is_disabled":false,"rental_uris":{"android":"levelo://app?vid=98cbf70d-d9f6-4b71-bf03-63425172bed7","ios":"levelo://app?vid=98cbf70d-d9f6-4b71-bf03-63425172bed7"},"vehicle_type_id":"4","last_reported":1748329846,"current_range_meters":11600,"station_id":"ce4bhmp2rcd13ifvqgog","pricing_plan_id":"cebpf4jnsgd1na2vs0mg"},{"bike_id":"52da6684-0a1f-4e5c-8d8b-49dd7abe2c17","system_id":"levelo_inurba_marseille","lat":43.23193,"lon":5.39983,"is_reserved":false,"is_disabled":false,"rental_uris":{"android":"levelo://app?vid=52da6684-0a1f-4e5c-8d8b-49dd7abe2c17","ios":"levelo://app?vid=52da6684-0a1f-4e5c-8d8b-49dd7abe2c17"},"vehicle_type_id":"4","last_reported":1748329846,"current_range_meters":11600,"station_id":"ce4bhn12rcd13ifvqgqg","pricing_plan_id":"cebpf4jnsgd1na2vs0mg"},{"bike_id":"e6c65de3-7d92-4979-809c-6677188473c0","system_id":"levelo_inurba_marseille","lat":43.337684,"lon":5.37432,"is_reserved":false,"is_disabled":false,"rental_uris":{"android":"levelo://app?vid=e6c65de3-7d92-4979-809c-6677188473c0","ios":"levelo://app?vid=e6c65de3-7d92-4979-809c-6677188473c0"},"vehicle_type_id":"4","last_reported":1748329846,"current_range_meters":12000,"station_id":"","pricing_plan_id":"cebpf4jnsgd1na2vs0mg"},{"bike_id":"b72b61f7-da6a-4503-bd1b-b38b336bea45","system_id":"levelo_inurba_marseille","lat":43.30467,"lon":5.37913,"is_reserved":false,"is_disabled":false,"rental_uris":{"android":"levelo://app?vid=b72b61f7-da6a-4503-bd1b-b38b336bea45","ios":"levelo://app?vid=b72b61f7-da6a-4503-bd1b-b38b336bea45"},"vehicle_type_id":"4","last_reported":1748329846,"current_range_meters":12000,"station_id":"","pricing_plan_id":"cebpf4jnsgd1na2vs0mg"},{"bike_id":"2a046dee-b3af-48c9-9659-b7d30ba20af5","system_id":"levelo_inurba_marseille","lat":43.24329,"lon":5.37984,"is_reserved":false,"is_disabled":false,"rental_uris":{"android":"levelo://app?vid=2a046dee-b3af-48c9-9659-b7d30ba20af5","ios":"levelo://app?vid=2a046dee-b3af-48c9-9659-b7d30ba20af5"},"vehicle_type_id":"4","last_reported":1748329846,"current_range_meters":12000,"station_id":"","pricing_plan_id":"cebpf4jnsgd1na2vs0mg"},{"bike_id":"f5193023-0af1-4cfe-b896-c752ae9c750f","system_id":"levelo_inurba_marseille","lat":43.31332,"lon":5.36725,"is_reserved":false,"is_disabled":false,"rental_uris":{"android":"levelo://app?vid=f5193023-0af1-4cfe-b896-c752ae9c750f","ios":"levelo://app?vid=f5193023-0af1-4cfe-b896-c752ae9c750f"},"vehicle_type_id":"4","last_reported":1748329846,"current_range_meters":12000,"station_id":"ce4bgr92rcd13ifvqc6g","pricing_plan_id":"cebpf4jnsgd1na2vs0mg"},{"bike_id":"fc2bb487-ff09-4cc1-ab25-d9b6443acef4","system_id":"levelo_inurba_marseille","lat":43.29026,"lon":5.38125,"is_reserved":false,"is_disabled":false,"rental_uris":{"android":"levelo://app?vid=fc2bb487-ff09-4cc1-ab25-d9b6443acef4","ios":"levelo://app?vid=fc2bb487-ff09-4cc1-ab25-d9b6443acef4"},"vehicle_type_id":"4","last_reported":1748329846,"current_range_meters":12000,"station_id":"ce4bh4p2rcd13ifvqe1g","pricing_plan_id":"cebpf4jnsgd1na2vs0mg"},{"bike_id":"5a5d3cd9-43c9-4580-afc1-94b3cc3c8454","system_id":"levelo_inurba_marseille","lat":43.23142,"lon":5.43703,"is_reserved":false,"is_disabled":false,"rental_uris":{"android":"levelo://app?vid=5a5d3cd9-43c9-4580-afc1-94b3cc3c8454","ios":"levelo://app?vid=5a5d3cd9-43c9-4580-afc1-94b3cc3c8454"},"vehicle_type_id":"4","last_reported":1748329846,"current_range_meters":12000,"station_id":"ce4bhmp2rcd13ifvqgog","pricing_plan_id":"cebpf4jnsgd1na2vs0mg"},{"bike_id":"47f0ed04-3630-43ac-9a8a-625e98c8f589","system_id":"levelo_inurba_marseille","lat":43.27493,"lon":5.42447,"is_reserved":false,"is_disabled":false,"rental_uris":{"android":"levelo://app?vid=47f0ed04-3630-43ac-9a8a-625e98c8f589","ios":"levelo://app?vid=47f0ed04-3630-43ac-9a8a-625e98c8f589"},"vehicle_type_id":"4","last_reported":1748329846,"current_range_meters":12000,"station_id":"ce4bhn92rcd13ifvqgrg","pricing_plan_id":"cebpf4jnsgd1na2vs0mg"},{"bike_id":"ecef8440-9194-48dc-9f06-54e67d874c57","system_id":"levelo_inurba_marseille","lat":43.24071,"lon":5.37764,"is_reserved":false,"is_disabled":false,"rental_uris":{"android":"levelo://app?vid=ecef8440-9194-48dc-9f06-54e67d874c57","ios":"levelo://app?vid=ecef8440-9194-48dc-9f06-54e67d874c57"},"vehicle_type_id":"4","last_reported":1748329846,"current_range_meters":12000,"station_id":"ce4bhnp2rcd13ifvqgvg","pricing_plan_id":"cebpf4jnsgd1na2vs0mg"},{"bike_id":"37e6ff63-9b33-47c0-9771-0553ad177545","system_id":"levelo_inurba_marseille","lat":43.31757,"lon":5.3902,"is_reserved":false,"is_disabled":false,"rental_uris":{"android":"levelo://app?vid=37e6ff63-9b33-47c0-9771-0553ad177545","ios":"levelo://app?vid=37e6ff63-9b33-47c0-9771-0553ad177545"},"vehicle_type_id":"4","last_reported":1748329846,"current_range_meters":12000,"station_id":"ce4bhqp2rcd13ifvqhng","pricing_plan_id":"cebpf4jnsgd1na2vs0mg"},{"bike_id":"3f855aa9-a03a-4d28-bbc8-2f3b26d07315","system_id":"levelo_inurba_marseille","lat":43.229294,"lon":5.353811,"is_reserved":false,"is_disabled":false,"rental_uris":{"android":"levelo://app?vid=3f855aa9-a03a-4d28-bbc8-2f3b26d07315","ios":"levelo://app?vid=3f855aa9-a03a-4d28-bbc8-2f3b26d07315"},"vehicle_type_id":"4","last_reported":1748329846,"current_range_meters":12000,"station_id":"cpo3532slgdg3j2ikp40","pricing_plan_id":"cebpf4jnsgd1na2vs0mg"},{"bike_id":"17b0d8ff-aa28-408b-9628-4a545be2c769","system_id":"levelo_inurba_marseille","lat":43.319179,"lon":5.380199,"is_reserved":false,"is_disabled":false,"rental_uris":{"android":"levelo://app?vid=17b0d8ff-aa28-408b-9628-4a545be2c769","ios":"levelo://app?vid=17b0d8ff-aa28-408b-9628-4a545be2c769"},"vehicle_type_id":"4","last_reported":1748329846,"current_range_meters":12400,"station_id":"","pricing_plan_id":"cebpf4jnsgd1na2vs0mg"},{"bike_id":"6b482028-512e-4dbe-b943-3138dd0f6f46","system_id":"levelo_inurba_marseille","lat":43.296835,"lon":5.368914,"is_reserved":false,"is_disabled":false,"rental_uris":{"android":"levelo://app?vid=6b482028-512e-4dbe-b943-3138dd0f6f46","ios":"levelo://app?vid=6b482028-512e-4dbe-b943-3138dd0f6f46"},"vehicle_type_id":"4","last_reported":1748329846,"current_range_meters":12400,"station_id":"","pricing_plan_id":"cebpf4jnsgd1na2vs0mg"},{"bike_id":"0c9239eb-7360-4d78-937a-5b63b17026b6","system_id":"levelo_inurba_marseille","lat":43.29681,"lon":5.37287,"is_reserved":false,"is_disabled":false,"rental_uris":{"android":"levelo://app?vid=0c9239eb-7360-4d78-937a-5b63b17026b6","ios":"levelo://app?vid=0c9239eb-7360-4d78-937a-5b63b17026b6"},"vehicle_type_id":"4","last_reported":1748329846,"current_range_meters":12400,"station_id":"ce4bgk12rcd13ifvqbj0","pricing_plan_id":"cebpf4jnsgd1na2vs0mg"},{"bike_id":"fb51b4d0-c1ad-477a-bce3-8583bf281086","system_id":"levelo_inurba_marseille","lat":43.30475,"lon":5.37903,"is_reserved":false,"is_disabled":false,"rental_uris":{"android":"levelo://app?vid=fb51b4d0-c1ad-477a-bce3-8583bf281086","ios":"levelo://app?vid=fb51b4d0-c1ad-477a-bce3-8583bf281086"},"vehicle_type_id":"4","last_reported":1748329846,"current_range_meters":12400,"station_id":"ce4bgup2rcd13ifvqcn0","pricing_plan_id":"cebpf4jnsgd1na2vs0mg"},{"bike_id":"2a9b9f6f-e086-4a48-b343-0410abb19aae","system_id":"levelo_inurba_marseille","lat":43.25931,"lon":5.409,"is_reserved":false,"is_disabled":false,"rental_uris":{"android":"levelo://app?vid=2a9b9f6f-e086-4a48-b343-0410abb19aae","ios":"levelo://app?vid=2a9b9f6f-e086-4a48-b343-0410abb19aae"},"vehicle_type_id":"4","last_reported":1748329846,"current_range_meters":12400,"station_id":"ce4bhm92rcd13ifvqglg","pricing_plan_id":"cebpf4jnsgd1na2vs0mg"},{"bike_id":"24695fcc-1634-4887-9a04-00f71eb609f0","system_id":"levelo_inurba_marseille","lat":43.23184,"lon":5.39997,"is_reserved":false,"is_disabled":false,"rental_uris":{"android":"levelo://app?vid=24695fcc-1634-4887-9a04-00f71eb609f0","ios":"levelo://app?vid=24695fcc-1634-4887-9a04-00f71eb609f0"},"vehicle_type_id":"4","last_reported":1748329846,"current_range_meters":12400,"station_id":"ce4bhn12rcd13ifvqgqg","pricing_plan_id":"cebpf4jnsgd1na2vs0mg"},{"bike_id":"b9fa2087-e906-4b59-a728-8662eb964473","system_id":"levelo_inurba_marseille","lat":43.24062,"lon":5.3776,"is_reserved":false,"is_disabled":false,"rental_uris":{"android":"levelo://app?vid=b9fa2087-e906-4b59-a728-8662eb964473","ios":"levelo://app?vid=b9fa2087-e906-4b59-a728-8662eb964473"},"vehicle_type_id":"4","last_reported":1748329846,"current_range_meters":12400,"station_id":"ce4bhnp2rcd13ifvqgvg","pricing_plan_id":"cebpf4jnsgd1na2vs0mg"},{"bike_id":"00701307-0cd1-4296-9240-6ec71bc77d73","system_id":"levelo_inurba_marseille","lat":43.240777,"lon":5.377563,"is_reserved":false,"is_disabled":false,"rental_uris":{"android":"levelo://app?vid=00701307-0cd1-4296-9240-6ec71bc77d73","ios":"levelo://app?vid=00701307-0cd1-4296-9240-6ec71bc77d73"},"vehicle_type_id":"4","last_reported":1748329846,"current_range_meters":12800,"station_id":"","pricing_plan_id":"cebpf4jnsgd1na2vs0mg"},{"bike_id":"636cc373-2bf3-4c88-94bc-0d0436da91e3","system_id":"levelo_inurba_marseille","lat":43.293,"lon":5.37459,"is_reserved":false,"is_disabled":false,"rental_uris":{"android":"levelo://app?vid=636cc373-2bf3-4c88-94bc-0d0436da91e3","ios":"levelo://app?vid=636cc373-2bf3-4c88-94bc-0d0436da91e3"},"vehicle_type_id":"4","last_reported":1748329846,"current_range_meters":12800,"station_id":"ce4bgi12rcd13ifvqb70","pricing_plan_id":"cebpf4jnsgd1na2vs0mg"},{"bike_id":"b5a57685-cf28-49d4-b2e9-86c7bdc3680f","system_id":"levelo_inurba_marseille","lat":43.31343,"lon":5.36723,"is_reserved":false,"is_disabled":false,"rental_uris":{"android":"levelo://app?vid=b5a57685-cf28-49d4-b2e9-86c7bdc3680f","ios":"levelo://app?vid=b5a57685-cf28-49d4-b2e9-86c7bdc3680f"},"vehicle_type_id":"4","last_reported":1748329846,"current_range_meters":12800,"station_id":"ce4bgr92rcd13ifvqc6g","pricing_plan_id":"cebpf4jnsgd1na2vs0mg"},{"bike_id":"f7dc54fc-d31f-4da9-b1f8-48c21978e801","system_id":"levelo_inurba_marseille","lat":43.30546,"lon":5.36546,"is_reserved":false,"is_disabled":false,"rental_uris":{"android":"levelo://app?vid=f7dc54fc-d31f-4da9-b1f8-48c21978e801","ios":"levelo://app?vid=f7dc54fc-d31f-4da9-b1f8-48c21978e801"},"vehicle_type_id":"4","last_reported":1748329846,"current_range_meters":12800,"station_id":"ce4bgs12rcd13ifvqcag","pricing_plan_id":"cebpf4jnsgd1na2vs0mg"},{"bike_id":"63e24981-3dbb-4983-9e82-c7cabb17fe0d","system_id":"levelo_inurba_marseille","lat":43.29167,"lon":5.37158,"is_reserved":false,"is_disabled":false,"rental_uris":{"android":"levelo://app?vid=63e24981-3dbb-4983-9e82-c7cabb17fe0d","ios":"levelo://app?vid=63e24981-3dbb-4983-9e82-c7cabb17fe0d"},"vehicle_type_id":"4","last_reported":1748329846,"current_range_meters":12800,"station_id":"ce4bha92rcd13ifvqeh0","pricing_plan_id":"cebpf4jnsgd1na2vs0mg"},{"bike_id":"3a008eb2-5099-43d6-a333-ee0d9a974a8a","system_id":"levelo_inurba_marseille","lat":43.28451,"lon":5.35897,"is_reserved":false,"is_disabled":false,"rental_uris":{"android":"levelo://app?vid=3a008eb2-5099-43d6-a333-ee0d9a974a8a","ios":"levelo://app?vid=3a008eb2-5099-43d6-a333-ee0d9a974a8a"},"vehicle_type_id":"4","last_reported":1748329846,"current_range_meters":12800,"station_id":"ce4bhah2rcd13ifvqei0","pricing_plan_id":"cebpf4jnsgd1na2vs0mg"},{"bike_id":"72622b7e-e125-451e-a777-edbaecc27af0","system_id":"levelo_inurba_marseille","lat":43.23966,"lon":5.36636,"is_reserved":false,"is_disabled":false,"rental_uris":{"android":"levelo://app?vid=72622b7e-e125-451e-a777-edbaecc27af0","ios":"levelo://app?vid=72622b7e-e125-451e-a777-edbaecc27af0"},"vehicle_type_id":"4","last_reported":1748329846,"current_range_meters":12800,"station_id":"ce4bhi12rcd13ifvqfp0","pricing_plan_id":"cebpf4jnsgd1na2vs0mg"},{"bike_id":"3fd4b9df-15b8-46c1-8eec-619017948d0e","system_id":"levelo_inurba_marseille","lat":43.26206,"lon":5.37923,"is_reserved":false,"is_disabled":false,"rental_uris":{"android":"levelo://app?vid=3fd4b9df-15b8-46c1-8eec-619017948d0e","ios":"levelo://app?vid=3fd4b9df-15b8-46c1-8eec-619017948d0e"},"vehicle_type_id":"4","last_reported":1748329846,"current_range_meters":12800,"station_id":"ce4bhjp2rcd13ifvqg90","pricing_plan_id":"cebpf4jnsgd1na2vs0mg"},{"bike_id":"91ec53c2-5efd-464e-9969-6129092942d0","system_id":"levelo_inurba_marseille","lat":43.2318,"lon":5.3999,"is_reserved":false,"is_disabled":false,"rental_uris":{"android":"levelo://app?vid=91ec53c2-5efd-464e-9969-6129092942d0","ios":"levelo://app?vid=91ec53c2-5efd-464e-9969-6129092942d0"},"vehicle_type_id":"4","last_reported":1748329846,"current_range_meters":12800,"station_id":"ce4bhn12rcd13ifvqgqg","pricing_plan_id":"cebpf4jnsgd1na2vs0mg"},{"bike_id":"a3a1e2f8-c082-4657-9cf8-ceb282e14a71","system_id":"levelo_inurba_marseille","lat":43.231838,"lon":5.40004,"is_reserved":false,"is_disabled":false,"rental_uris":{"android":"levelo://app?vid=a3a1e2f8-c082-4657-9cf8-ceb282e14a71","ios":"levelo://app?vid=a3a1e2f8-c082-4657-9cf8-ceb282e14a71"},"vehicle_type_id":"4","last_reported":1748329846,"current_range_meters":12800,"station_id":"ce4bhn12rcd13ifvqgqg","pricing_plan_id":"cebpf4jnsgd1na2vs0mg"},{"bike_id":"a37d7072-fa8d-48ce-882a-f8346c36ab41","system_id":"levelo_inurba_marseille","lat":43.233179,"lon":5.3616,"is_reserved":false,"is_disabled":false,"rental_uris":{"android":"levelo://app?vid=a37d7072-fa8d-48ce-882a-f8346c36ab41","ios":"levelo://app?vid=a37d7072-fa8d-48ce-882a-f8346c36ab41"},"vehicle_type_id":"4","last_reported":1748329846,"current_range_meters":13600,"station_id":"","pricing_plan_id":"cebpf4jnsgd1na2vs0mg"},{"bike_id":"5f9391d7-2924-464d-abdc-d40ada4b1c07","system_id":"levelo_inurba_marseille","lat":43.301259,"lon":5.37412,"is_reserved":false,"is_disabled":false,"rental_uris":{"android":"levelo://app?vid=5f9391d7-2924-464d-abdc-d40ada4b1c07","ios":"levelo://app?vid=5f9391d7-2924-464d-abdc-d40ada4b1c07"},"vehicle_type_id":"4","last_reported":1748329846,"current_range_meters":13600,"station_id":"ce4bgs92rcd13ifvqcc0","pricing_plan_id":"cebpf4jnsgd1na2vs0mg"},{"bike_id":"461e367d-20c5-45ef-96a1-67f19078fcf5","system_id":"levelo_inurba_marseille","lat":43.30137,"lon":5.37404,"is_reserved":false,"is_disabled":false,"rental_uris":{"android":"levelo://app?vid=461e367d-20c5-45ef-96a1-67f19078fcf5","ios":"levelo://app?vid=461e367d-20c5-45ef-96a1-67f19078fcf5"},"vehicle_type_id":"4","last_reported":1748329846,"current_range_meters":13600,"station_id":"ce4bgs92rcd13ifvqcc0","pricing_plan_id":"cebpf4jnsgd1na2vs0mg"},{"bike_id":"6443dad9-aa0c-4786-9534-13315961d247","system_id":"levelo_inurba_marseille","lat":43.28969,"lon":5.3965,"is_reserved":false,"is_disabled":false,"rental_uris":{"android":"levelo://app?vid=6443dad9-aa0c-4786-9534-13315961d247","ios":"levelo://app?vid=6443dad9-aa0c-4786-9534-13315961d247"},"vehicle_type_id":"4","last_reported":1748329846,"current_range_meters":13600,"station_id":"ce4bh3h2rcd13ifvqdn0","pricing_plan_id":"cebpf4jnsgd1na2vs0mg"},{"bike_id":"ceb81090-b40e-47dd-bc35-8598d269ef58","system_id":"levelo_inurba_marseille","lat":43.26663,"lon":5.38431,"is_reserved":false,"is_disabled":false,"rental_uris":{"android":"levelo://app?vid=ceb81090-b40e-47dd-bc35-8598d269ef58","ios":"levelo://app?vid=ceb81090-b40e-47dd-bc35-8598d269ef58"},"vehicle_type_id":"4","last_reported":1748329846,"current_range_meters":14000,"station_id":"","pricing_plan_id":"cebpf4jnsgd1na2vs0mg"},{"bike_id":"0ff622ec-9b1f-421c-b8eb-a9e9508f50d9","system_id":"levelo_inurba_marseille","lat":43.31349,"lon":5.36722,"is_reserved":false,"is_disabled":false,"rental_uris":{"android":"levelo://app?vid=0ff622ec-9b1f-421c-b8eb-a9e9508f50d9","ios":"levelo://app?vid=0ff622ec-9b1f-421c-b8eb-a9e9508f50d9"},"vehicle_type_id":"4","last_reported":1748329846,"current_range_meters":14000,"station_id":"ce4bgr92rcd13ifvqc6g","pricing_plan_id":"cebpf4jnsgd1na2vs0mg"},{"bike_id":"50dd7b08-5b20-4e4d-9ebf-93ed6a457901","system_id":"levelo_inurba_marseille","lat":43.30558,"lon":5.36705,"is_reserved":false,"is_disabled":false,"rental_uris":{"android":"levelo://app?vid=50dd7b08-5b20-4e4d-9ebf-93ed6a457901","ios":"levelo://app?vid=50dd7b08-5b20-4e4d-9ebf-93ed6a457901"},"vehicle_type_id":"4","last_reported":1748329846,"current_range_meters":14000,"station_id":"ce4bgrp2rcd13ifvqc9g","pricing_plan_id":"cebpf4jnsgd1na2vs0mg"},{"bike_id":"e02448a0-3844-4145-b6e3-b327403c02f6","system_id":"levelo_inurba_marseille","lat":43.25912,"lon":5.40928,"is_reserved":false,"is_disabled":false,"rental_uris":{"android":"levelo://app?vid=e02448a0-3844-4145-b6e3-b327403c02f6","ios":"levelo://app?vid=e02448a0-3844-4145-b6e3-b327403c02f6"},"vehicle_type_id":"4","last_reported":1748329846,"current_range_meters":14000,"station_id":"ce4bhm92rcd13ifvqglg","pricing_plan_id":"cebpf4jnsgd1na2vs0mg"},{"bike_id":"b525871d-7975-49ce-910c-c009d87398c5","system_id":"levelo_inurba_marseille","lat":43.33601,"lon":5.41028,"is_reserved":false,"is_disabled":false,"rental_uris":{"android":"levelo://app?vid=b525871d-7975-49ce-910c-c009d87398c5","ios":"levelo://app?vid=b525871d-7975-49ce-910c-c009d87398c5"},"vehicle_type_id":"4","last_reported":1748329846,"current_range_meters":14000,"station_id":"ce4bhqh2rcd13ifvqhmg","pricing_plan_id":"cebpf4jnsgd1na2vs0mg"},{"bike_id":"4cad5648-bb99-4d93-8895-015b17ad9593","system_id":"levelo_inurba_marseille","lat":43.32475,"lon":5.36561,"is_reserved":false,"is_disabled":false,"rental_uris":{"android":"levelo://app?vid=4cad5648-bb99-4d93-8895-015b17ad9593","ios":"levelo://app?vid=4cad5648-bb99-4d93-8895-015b17ad9593"},"vehicle_type_id":"4","last_reported":1748329846,"current_range_meters":14000,"station_id":"ce4bhs12rcd13ifvqhvg","pricing_plan_id":"cebpf4jnsgd1na2vs0mg"},{"bike_id":"e5c82b4c-e30f-487a-ae65-76f66da567ea","system_id":"levelo_inurba_marseille","lat":43.32383,"lon":5.36756,"is_reserved":false,"is_disabled":false,"rental_uris":{"android":"levelo://app?vid=e5c82b4c-e30f-487a-ae65-76f66da567ea","ios":"levelo://app?vid=e5c82b4c-e30f-487a-ae65-76f66da567ea"},"vehicle_type_id":"4","last_reported":1748329846,"current_range_meters":14000,"station_id":"ce4bhsh2rcd13ifvqi2g","pricing_plan_id":"cebpf4jnsgd1na2vs0mg"},{"bike_id":"ebc8c9a5-1024-472e-a00e-2d5a4d26d29e","system_id":"levelo_inurba_marseille","lat":43.27502,"lon":5.42456,"is_reserved":false,"is_disabled":false,"rental_uris":{"android":"levelo://app?vid=ebc8c9a5-1024-472e-a00e-2d5a4d26d29e","ios":"levelo://app?vid=ebc8c9a5-1024-472e-a00e-2d5a4d26d29e"},"vehicle_type_id":"4","last_reported":1748329846,"current_range_meters":14400,"station_id":"","pricing_plan_id":"cebpf4jnsgd1na2vs0mg"},{"bike_id":"8b7941b7-c318-4bf1-b5ca-a8f78ae5ca70","system_id":"levelo_inurba_marseille","lat":43.30905,"lon":5.36859,"is_reserved":false,"is_disabled":false,"rental_uris":{"android":"levelo://app?vid=8b7941b7-c318-4bf1-b5ca-a8f78ae5ca70","ios":"levelo://app?vid=8b7941b7-c318-4bf1-b5ca-a8f78ae5ca70"},"vehicle_type_id":"4","last_reported":1748329846,"current_range_meters":14400,"station_id":"ce4bgn92rcd13ifvqbvg","pricing_plan_id":"cebpf4jnsgd1na2vs0mg"},{"bike_id":"4bc63ccd-7154-4df9-b81b-81189ca86b5b","system_id":"levelo_inurba_marseille","lat":43.30532,"lon":5.36723,"is_reserved":false,"is_disabled":false,"rental_uris":{"android":"levelo://app?vid=4bc63ccd-7154-4df9-b81b-81189ca86b5b","ios":"levelo://app?vid=4bc63ccd-7154-4df9-b81b-81189ca86b5b"},"vehicle_type_id":"4","last_reported":1748329846,"current_range_meters":14400,"station_id":"ce4bgrp2rcd13ifvqc9g","pricing_plan_id":"cebpf4jnsgd1na2vs0mg"},{"bike_id":"9496408a-c4d6-43a6-bb32-918c5ecd196a","system_id":"levelo_inurba_marseille","lat":43.314917,"lon":5.373001,"is_reserved":false,"is_disabled":false,"rental_uris":{"android":"levelo://app?vid=9496408a-c4d6-43a6-bb32-918c5ecd196a","ios":"levelo://app?vid=9496408a-c4d6-43a6-bb32-918c5ecd196a"},"vehicle_type_id":"4","last_reported":1748329846,"current_range_meters":14400,"station_id":"ce4bgt12rcd13ifvqcd0","pricing_plan_id":"cebpf4jnsgd1na2vs0mg"},{"bike_id":"28694891-4d0f-4b6e-bc13-b3344cafed01","system_id":"levelo_inurba_marseille","lat":43.28409,"lon":5.37507,"is_reserved":false,"is_disabled":false,"rental_uris":{"android":"levelo://app?vid=28694891-4d0f-4b6e-bc13-b3344cafed01","ios":"levelo://app?vid=28694891-4d0f-4b6e-bc13-b3344cafed01"},"vehicle_type_id":"4","last_reported":1748329846,"current_range_meters":14400,"station_id":"ce4bh412rcd13ifvqds0","pricing_plan_id":"cebpf4jnsgd1na2vs0mg"},{"bike_id":"03a878d5-7464-43c2-bb12-8804355fff55","system_id":"levelo_inurba_marseille","lat":43.25579,"lon":5.38234,"is_reserved":false,"is_disabled":false,"rental_uris":{"android":"levelo://app?vid=03a878d5-7464-43c2-bb12-8804355fff55","ios":"levelo://app?vid=03a878d5-7464-43c2-bb12-8804355fff55"},"vehicle_type_id":"4","last_reported":1748329846,"current_range_meters":14400,"station_id":"ce4bhih2rcd13ifvqfs0","pricing_plan_id":"cebpf4jnsgd1na2vs0mg"},{"bike_id":"e293da65-7ad7-4835-b5af-62d802fb7908","system_id":"levelo_inurba_marseille","lat":43.2572,"lon":5.411,"is_reserved":false,"is_disabled":false,"rental_uris":{"android":"levelo://app?vid=e293da65-7ad7-4835-b5af-62d802fb7908","ios":"levelo://app?vid=e293da65-7ad7-4835-b5af-62d802fb7908"},"vehicle_type_id":"4","last_reported":1748329846,"current_range_meters":14400,"station_id":"ce4bhkp2rcd13ifvqgd0","pricing_plan_id":"cebpf4jnsgd1na2vs0mg"},{"bike_id":"ade626e2-c9d9-42b7-b26b-cdded97b1af7","system_id":"levelo_inurba_marseille","lat":43.25971,"lon":5.40915,"is_reserved":false,"is_disabled":false,"rental_uris":{"android":"levelo://app?vid=ade626e2-c9d9-42b7-b26b-cdded97b1af7","ios":"levelo://app?vid=ade626e2-c9d9-42b7-b26b-cdded97b1af7"},"vehicle_type_id":"4","last_reported":1748329846,"current_range_meters":14400,"station_id":"ce4bhm92rcd13ifvqglg","pricing_plan_id":"cebpf4jnsgd1na2vs0mg"},{"bike_id":"e113429b-222d-4f6d-9814-e3b93bf8685c","system_id":"levelo_inurba_marseille","lat":43.25915,"lon":5.40871,"is_reserved":false,"is_disabled":false,"rental_uris":{"android":"levelo://app?vid=e113429b-222d-4f6d-9814-e3b93bf8685c","ios":"levelo://app?vid=e113429b-222d-4f6d-9814-e3b93bf8685c"},"vehicle_type_id":"4","last_reported":1748329846,"current_range_meters":14400,"station_id":"ce4bhm92rcd13ifvqglg","pricing_plan_id":"cebpf4jnsgd1na2vs0mg"},{"bike_id":"c1ea287e-557e-4f96-9299-d911775493d9","system_id":"levelo_inurba_marseille","lat":43.25935,"lon":5.409,"is_reserved":false,"is_disabled":false,"rental_uris":{"android":"levelo://app?vid=c1ea287e-557e-4f96-9299-d911775493d9","ios":"levelo://app?vid=c1ea287e-557e-4f96-9299-d911775493d9"},"vehicle_type_id":"4","last_reported":1748329846,"current_range_meters":14400,"station_id":"ce4bhm92rcd13ifvqglg","pricing_plan_id":"cebpf4jnsgd1na2vs0mg"},{"bike_id":"a40588ee-00f9-4620-a7e7-03b577ebbb6e","system_id":"levelo_inurba_marseille","lat":43.23186,"lon":5.399957,"is_reserved":false,"is_disabled":false,"rental_uris":{"android":"levelo://app?vid=a40588ee-00f9-4620-a7e7-03b577ebbb6e","ios":"levelo://app?vid=a40588ee-00f9-4620-a7e7-03b577ebbb6e"},"vehicle_type_id":"4","last_reported":1748329846,"current_range_meters":14400,"station_id":"ce4bhn12rcd13ifvqgqg","pricing_plan_id":"cebpf4jnsgd1na2vs0mg"},{"bike_id":"064e6fa0-0d7c-4ec8-b1ad-7f69178c75b7","system_id":"levelo_inurba_marseille","lat":43.298985,"lon":5.436745,"is_reserved":false,"is_disabled":false,"rental_uris":{"android":"levelo://app?vid=064e6fa0-0d7c-4ec8-b1ad-7f69178c75b7","ios":"levelo://app?vid=064e6fa0-0d7c-4ec8-b1ad-7f69178c75b7"},"vehicle_type_id":"4","last_reported":1748329846,"current_range_meters":14400,"station_id":"ce4bhpp2rcd13ifvqhfg","pricing_plan_id":"cebpf4jnsgd1na2vs0mg"},{"bike_id":"980e8cca-89ef-4b30-82fe-412e2b552861","system_id":"levelo_inurba_marseille","lat":43.31223,"lon":5.36853,"is_reserved":false,"is_disabled":false,"rental_uris":{"android":"levelo://app?vid=980e8cca-89ef-4b30-82fe-412e2b552861","ios":"levelo://app?vid=980e8cca-89ef-4b30-82fe-412e2b552861"},"vehicle_type_id":"4","last_reported":1748329846,"current_range_meters":14800,"station_id":"ce4bgl92rcd13ifvqbq0","pricing_plan_id":"cebpf4jnsgd1na2vs0mg"},{"bike_id":"d05216fe-f026-4b65-81d9-2b8bfeada827","system_id":"levelo_inurba_marseille","lat":43.29852,"lon":5.36263,"is_reserved":false,"is_disabled":false,"rental_uris":{"android":"levelo://app?vid=d05216fe-f026-4b65-81d9-2b8bfeada827","ios":"levelo://app?vid=d05216fe-f026-4b65-81d9-2b8bfeada827"},"vehicle_type_id":"4","last_reported":1748329846,"current_range_meters":14800,"station_id":"ce4bgpp2rcd13ifvqc3g","pricing_plan_id":"cebpf4jnsgd1na2vs0mg"},{"bike_id":"8a101aa9-42f3-42ac-bcac-87de601b43df","system_id":"levelo_inurba_marseille","lat":43.31358,"lon":5.36719,"is_reserved":false,"is_disabled":false,"rental_uris":{"android":"levelo://app?vid=8a101aa9-42f3-42ac-bcac-87de601b43df","ios":"levelo://app?vid=8a101aa9-42f3-42ac-bcac-87de601b43df"},"vehicle_type_id":"4","last_reported":1748329846,"current_range_meters":14800,"station_id":"ce4bgr92rcd13ifvqc6g","pricing_plan_id":"cebpf4jnsgd1na2vs0mg"},{"bike_id":"b01045ab-9b8f-4c2f-a3be-5be14e8eb839","system_id":"levelo_inurba_marseille","lat":43.307907,"lon":5.376442,"is_reserved":false,"is_disabled":false,"rental_uris":{"android":"levelo://app?vid=b01045ab-9b8f-4c2f-a3be-5be14e8eb839","ios":"levelo://app?vid=b01045ab-9b8f-4c2f-a3be-5be14e8eb839"},"vehicle_type_id":"4","last_reported":1748329846,"current_range_meters":14800,"station_id":"ce4bh4p2rcd13ifvqe1g","pricing_plan_id":"cebpf4jnsgd1na2vs0mg"},{"bike_id":"3ca578f3-f6b6-487e-b8e7-abd4707c54dd","system_id":"levelo_inurba_marseille","lat":43.259377,"lon":5.408953,"is_reserved":false,"is_disabled":false,"rental_uris":{"android":"levelo://app?vid=3ca578f3-f6b6-487e-b8e7-abd4707c54dd","ios":"levelo://app?vid=3ca578f3-f6b6-487e-b8e7-abd4707c54dd"},"vehicle_type_id":"4","last_reported":1748329846,"current_range_meters":14800,"station_id":"ce4bhm92rcd13ifvqglg","pricing_plan_id":"cebpf4jnsgd1na2vs0mg"},{"bike_id":"91778dc6-5ac3-4d73-a11f-9b1ddc717184","system_id":"levelo_inurba_marseille","lat":43.23181,"lon":5.39998,"is_reserved":false,"is_disabled":false,"rental_uris":{"android":"levelo://app?vid=91778dc6-5ac3-4d73-a11f-9b1ddc717184","ios":"levelo://app?vid=91778dc6-5ac3-4d73-a11f-9b1ddc717184"},"vehicle_type_id":"4","last_reported":1748329846,"current_range_meters":14800,"station_id":"ce4bhn12rcd13ifvqgqg","pricing_plan_id":"cebpf4jnsgd1na2vs0mg"},{"bike_id":"8ba40f1d-e3c8-4e9d-beea-020ae04fc8ea","system_id":"levelo_inurba_marseille","lat":43.31856,"lon":5.40691,"is_reserved":false,"is_disabled":false,"rental_uris":{"android":"levelo://app?vid=8ba40f1d-e3c8-4e9d-beea-020ae04fc8ea","ios":"levelo://app?vid=8ba40f1d-e3c8-4e9d-beea-020ae04fc8ea"},"vehicle_type_id":"4","last_reported":1748329846,"current_range_meters":15200,"station_id":"","pricing_plan_id":"cebpf4jnsgd1na2vs0mg"},{"bike_id":"59be5d3d-ccf7-4ada-9d8b-91dac08e748f","system_id":"levelo_inurba_marseille","lat":43.30868,"lon":5.36907,"is_reserved":false,"is_disabled":false,"rental_uris":{"android":"levelo://app?vid=59be5d3d-ccf7-4ada-9d8b-91dac08e748f","ios":"levelo://app?vid=59be5d3d-ccf7-4ada-9d8b-91dac08e748f"},"vehicle_type_id":"4","last_reported":1748329846,"current_range_meters":15200,"station_id":"","pricing_plan_id":"cebpf4jnsgd1na2vs0mg"},{"bike_id":"75737af1-62f2-4601-a48e-c1b1aac3b9a9","system_id":"levelo_inurba_marseille","lat":43.26785,"lon":5.3941,"is_reserved":false,"is_disabled":false,"rental_uris":{"android":"levelo://app?vid=75737af1-62f2-4601-a48e-c1b1aac3b9a9","ios":"levelo://app?vid=75737af1-62f2-4601-a48e-c1b1aac3b9a9"},"vehicle_type_id":"4","last_reported":1748329846,"current_range_meters":15200,"station_id":"ce4bhh12rcd13ifvqfg0","pricing_plan_id":"cebpf4jnsgd1na2vs0mg"},{"bike_id":"9198b550-c5cf-463c-bb76-767cf162342b","system_id":"levelo_inurba_marseille","lat":43.25586,"lon":5.38228,"is_reserved":false,"is_disabled":false,"rental_uris":{"android":"levelo://app?vid=9198b550-c5cf-463c-bb76-767cf162342b","ios":"levelo://app?vid=9198b550-c5cf-463c-bb76-767cf162342b"},"vehicle_type_id":"4","last_reported":1748329846,"current_range_meters":15200,"station_id":"ce4bhih2rcd13ifvqfs0","pricing_plan_id":"cebpf4jnsgd1na2vs0mg"},{"bike_id":"196ff5fe-bdcf-486b-be55-13c75b4399c5","system_id":"levelo_inurba_marseille","lat":43.27812,"lon":5.40715,"is_reserved":false,"is_disabled":false,"rental_uris":{"android":"levelo://app?vid=196ff5fe-bdcf-486b-be55-13c75b4399c5","ios":"levelo://app?vid=196ff5fe-bdcf-486b-be55-13c75b4399c5"},"vehicle_type_id":"4","last_reported":1748329846,"current_range_meters":15200,"station_id":"ce4bhnh2rcd13ifvqgtg","pricing_plan_id":"cebpf4jnsgd1na2vs0mg"},{"bike_id":"fe6e27f0-45b0-4940-aedd-ae9c612c802f","system_id":"levelo_inurba_marseille","lat":43.2985,"lon":5.36286,"is_reserved":false,"is_disabled":false,"rental_uris":{"android":"levelo://app?vid=fe6e27f0-45b0-4940-aedd-ae9c612c802f","ios":"levelo://app?vid=fe6e27f0-45b0-4940-aedd-ae9c612c802f"},"vehicle_type_id":"4","last_reported":1748329846,"current_range_meters":16000,"station_id":"ce4bgpp2rcd13ifvqc3g","pricing_plan_id":"cebpf4jnsgd1na2vs0mg"},{"bike_id":"5c3da2c9-dc08-4754-81c3-822772b3d8c1","system_id":"levelo_inurba_marseille","lat":43.30319,"lon":5.36881,"is_reserved":false,"is_disabled":false,"rental_uris":{"android":"levelo://app?vid=5c3da2c9-dc08-4754-81c3-822772b3d8c1","ios":"levelo://app?vid=5c3da2c9-dc08-4754-81c3-822772b3d8c1"},"vehicle_type_id":"4","last_reported":1748329846,"current_range_meters":16000,"station_id":"ce4bgqh2rcd13ifvqc5g","pricing_plan_id":"cebpf4jnsgd1na2vs0mg"},{"bike_id":"dbec5777-e1be-405e-94c6-afded2aa4329","system_id":"levelo_inurba_marseille","lat":43.30382,"lon":5.42458,"is_reserved":false,"is_disabled":false,"rental_uris":{"android":"levelo://app?vid=dbec5777-e1be-405e-94c6-afded2aa4329","ios":"levelo://app?vid=dbec5777-e1be-405e-94c6-afded2aa4329"},"vehicle_type_id":"4","last_reported":1748329846,"current_range_meters":16000,"station_id":"ce4bhoh2rcd13ifvqh6g","pricing_plan_id":"cebpf4jnsgd1na2vs0mg"},{"bike_id":"228703a4-16f1-4a4c-9ac3-ff03d8a40d1a","system_id":"levelo_inurba_marseille","lat":43.31759,"lon":5.39009,"is_reserved":false,"is_disabled":false,"rental_uris":{"android":"levelo://app?vid=228703a4-16f1-4a4c-9ac3-ff03d8a40d1a","ios":"levelo://app?vid=228703a4-16f1-4a4c-9ac3-ff03d8a40d1a"},"vehicle_type_id":"4","last_reported":1748329846,"current_range_meters":16000,"station_id":"ce4bhqp2rcd13ifvqhng","pricing_plan_id":"cebpf4jnsgd1na2vs0mg"},{"bike_id":"ecdb5b8e-72eb-44b4-bd2a-80fb55bbcdb4","system_id":"levelo_inurba_marseille","lat":43.31342,"lon":5.36722,"is_reserved":false,"is_disabled":false,"rental_uris":{"android":"levelo://app?vid=ecdb5b8e-72eb-44b4-bd2a-80fb55bbcdb4","ios":"levelo://app?vid=ecdb5b8e-72eb-44b4-bd2a-80fb55bbcdb4"},"vehicle_type_id":"4","last_reported":1748329846,"current_range_meters":16400,"station_id":"ce4bgr92rcd13ifvqc6g","pricing_plan_id":"cebpf4jnsgd1na2vs0mg"},{"bike_id":"e21355d0-d87e-4401-86dd-5f9df401d5d3","system_id":"levelo_inurba_marseille","lat":43.304814,"lon":5.367235,"is_reserved":false,"is_disabled":false,"rental_uris":{"android":"levelo://app?vid=e21355d0-d87e-4401-86dd-5f9df401d5d3","ios":"levelo://app?vid=e21355d0-d87e-4401-86dd-5f9df401d5d3"},"vehicle_type_id":"4","last_reported":1748329846,"current_range_meters":16400,"station_id":"ce4bgs12rcd13ifvqcag","pricing_plan_id":"cebpf4jnsgd1na2vs0mg"},{"bike_id":"a6f91c27-23bc-4a06-a624-1af967d11b4b","system_id":"levelo_inurba_marseille","lat":43.30276,"lon":5.37709,"is_reserved":false,"is_disabled":false,"rental_uris":{"android":"levelo://app?vid=a6f91c27-23bc-4a06-a624-1af967d11b4b","ios":"levelo://app?vid=a6f91c27-23bc-4a06-a624-1af967d11b4b"},"vehicle_type_id":"4","last_reported":1748329846,"current_range_meters":16400,"station_id":"ce4bguh2rcd13ifvqcj0","pricing_plan_id":"cebpf4jnsgd1na2vs0mg"},{"bike_id":"20e74a2e-9605-4a11-a584-dc3fc6b635d2","system_id":"levelo_inurba_marseille","lat":43.26557,"lon":5.37282,"is_reserved":false,"is_disabled":false,"rental_uris":{"android":"levelo://app?vid=20e74a2e-9605-4a11-a584-dc3fc6b635d2","ios":"levelo://app?vid=20e74a2e-9605-4a11-a584-dc3fc6b635d2"},"vehicle_type_id":"4","last_reported":1748329846,"current_range_meters":16400,"station_id":"ce4bhg12rcd13ifvqf70","pricing_plan_id":"cebpf4jnsgd1na2vs0mg"},