{"last_updated":1751317775,"ttl":60,"version":"2.2","data":{"bikes":[{"bike_id":"3da29fb8-fc97-44c6-b9ac-31dd456b2fd4","system_id":"levelo_inurba_marseille","lat":43.33771,"lon":5.37424,"is_reserved":false,"is_disabled":true,"rental_uris":{"android":"levelo://app?vid=3da29fb8-fc97-44c6-b9ac-31dd456b2fd4","ios":"levelo://app?vid=3da29fb8-fc97-44c6-b9ac-31dd456b2fd4"},"vehicle_type_id":"4","last_reported":1751317775,"current_range_meters":0,"station_id":"","pricing_plan_id":"cebpf4jnsgd1na2vs0mg"},{"bike_id":"01861ad8-a8d7-4be6-816e-651927c87584","system_id":"levelo_inurba_marseille","lat":43.33751,"lon":5.37456,"is_reserved":false,"is_disabled":true,"rental_uris":{"android":"levelo://app?vid=01861ad8-a8d7-4be6-816e-651927c87584","ios":"levelo://app?vid=01861ad8-a8d7-4be6-816e-651927c87584"},"vehicle_type_id":"4","last_reported":1751317775,"current_range_meters":0,"station_id":"","pricing_plan_id":"cebpf4jnsgd1na2vs0mg"},{"bike_id":"85eb80f1-fdf8-4910-9983-416402de22ff","system_id":"levelo_inurba_marseille","lat":43.276965,"lon":5.41535,"is_reserved":false,"is_disabled":true,"rental_uris":{"android":"levelo://app?vid=85eb80f1-fdf8-4910-9983-416402de22ff","ios":"levelo://app?vid=85eb80f1-fdf8-4910-9983-416402de22ff"},"vehicle_type_id":"4","last_reported":1751317775,"current_range_meters":0,"station_id":"","pricing_plan_id":"cebpf4jnsgd1na2vs0mg"},{"bike_id":"4bb4a733-a9bd-4772-9320-a8c7885ff73b","system_id":"levelo_inurba_marseille","lat":43.27799,"lon":5.3557,"is_reserved":false,"is_disabled":true,"rental_uris":{"android":"levelo://app?vid=4bb4a733-a9bd-4772-9320-a8c7885ff73b","ios":"levelo://app?vid=4bb4a733-a9bd-4772-9320-a8c7885ff73b"},"vehicle_type_id":"4","last_reported":1751317775,"current_range_meters":0,"station_id":"","pricing_plan_id":"cebpf4jnsgd1na2vs0mg"},{"bike_id":"69f3e486-7ece-4da3-bef1-7e43be44cf97","system_id":"levelo_inurba_marseille","lat":43.25623,"lon":5.41982,"is_reserved":false,"is_disabled":true,"rental_uris":{"android":"levelo://app?vid=69f3e486-7ece-4da3-bef1-7e43be44cf97","ios":"levelo://app?vid=69f3e486-7ece-4da3-bef1-7e43be44cf97"},"vehicle_type_id":"4","last_reported":1751317775,"current_range_meters":0,"station_id":"","pricing_plan_id":"cebpf4jnsgd1na2vs0mg"},{"bike_id":"b8358384-5010-48ab-82ed-9476d2467db2","system_id":"levelo_inurba_marseille","lat":43.21771,"lon":5.34559,"is_reserved":false,"is_disabled":true,"rental_uris":{"android":"levelo://app?vid=b8358384-5010-48ab-82ed-9476d2467db2","ios":"levelo://app?vid=b8358384-5010-48ab-82ed-9476d2467db2"},"vehicle_type_id":"4","last_reported":1751317775,"current_range_meters":0,"station_id":"","pricing_plan_id":"cebpf4jnsgd1na2vs0mg"},{"bike_id":"a0427528-5f73-4189-8150-85841058e4f0","system_id":"levelo_inurba_marseille","lat":43.29361,"lon":5.37867,"is_reserved":false,"is_disabled":true,"rental_uris":{"android":"levelo://app?vid=a0427528-5f73-4189-8150-85841058e4f0","ios":"levelo://app?vid=a0427528-5f73-4189-8150-85841058e4f0"},"vehicle_type_id":"4","last_reported":1751317775,"current_range_meters":0,"station_id":"ce4bgjh2rcd13ifvqbf0","pricing_plan_id":"cebpf4jnsgd1na2vs0mg"},{"bike_id":"c40aba06-df08-45fa-a129-53e85f67b0b6","system_id":"levelo_inurba_marseille","lat":43.314838,"lon":5.372982,"is_reserved":false,"is_disabled":true,"rental_uris":{"android":"levelo://app?vid=c40aba06-df08-45fa-a129-53e85f67b0b6","ios":"levelo://app?vid=c40aba06-df08-45fa-a129-53e85f67b0b6"},"vehicle_type_id":"4","last_reported":1751317775,"current_range_meters":0,"station_id":"ce4bgt12rcd13ifvqcd0","pricing_plan_id":"cebpf4jnsgd1na2vs0mg"},{"bike_id":"92299963-668d-483e-bf26-d11aab476a7b","system_id":"levelo_inurba_marseille","lat":43.27057,"lon":5.40253,"is_reserved":false,"is_disabled":true,"rental_uris":{"android":"levelo://app?vid=92299963-668d-483e-bf26-d11aab476a7b","ios":"levelo://app?vid=92299963-668d-483e-bf26-d11aab476a7b"},"vehicle_type_id":"4","last_reported":1751317775,"current_range_meters":0,"station_id":"ce4bhk92rcd13ifvqgc0","pricing_plan_id":"cebpf4jnsgd1na2vs0mg"},{"bike_id":"1d94a266-10b0-49c9-a8c4-429d2ab57b8c","system_id":"levelo_inurba_marseille","lat":43.27935,"lon":5.41047,"is_reserved":false,"is_disabled":true,"rental_uris":{"android":"levelo://app?vid=1d94a266-10b0-49c9-a8c4-429d2ab57b8c","ios":"levelo://app?vid=1d94a266-10b0-49c9-a8c4-429d2ab57b8c"},"vehicle_type_id":"4","last_reported":1751317775,"current_range_meters":0,"station_id":"ce4bhnp2rcd13ifvqh0g","pricing_plan_id":"cebpf4jnsgd1na2vs0mg"},{"bike_id":"f017081f-893e-4dd7-85b2-d5e0c74975aa","system_id":"levelo_inurba_marseille","lat":43.32365,"lon":5.38886,"is_reserved":false,"is_disabled":true,"rental_uris":{"android":"levelo://app?vid=f017081f-893e-4dd7-85b2-d5e0c74975aa","ios":"levelo://app?vid=f017081f-893e-4dd7-85b2-d5e0c74975aa"},"vehicle_type_id":"4","last_reported":1751317775,"current_range_meters":0,"station_id":"ce4bhqp2rcd13ifvqhog","pricing_plan_id":"cebpf4jnsgd1na2vs0mg"},{"bike_id":"8233db61-1d36-41a5-a985-c98b6a5f0fb4","system_id":"levelo_inurba_marseille","lat":43.21751,"lon":5.34608,"is_reserved":false,"is_disabled":true,"rental_uris":{"android":"levelo://app?vid=8233db61-1d36-41a5-a985-c98b6a5f0fb4","ios":"levelo://app?vid=8233db61-1d36-41a5-a985-c98b6a5f0fb4"},"vehicle_type_id":"4","last_reported":1751317775,"current_range_meters":0,"station_id":"st_cvj6r9ubvosntc0bgbag","pricing_plan_id":"cebpf4jnsgd1na2vs0mg"},{"bike_id":"e0ced307-ad50-43b5-b789-e8aaf9b56ece","system_id":"levelo_inurba_marseille","lat":43.30947,"lon":5.39059,"is_reserved":false,"is_disabled":true,"rental_uris":{"android":"levelo://app?vid=e0ced307-ad50-43b5-b789-e8aaf9b56ece","ios":"levelo://app?vid=e0ced307-ad50-43b5-b789-e8aaf9b56ece"},"vehicle_type_id":"4","last_reported":1751317775,"current_range_meters":400,"station_id":"ce4bgup2rcd13ifvqco0","pricing_plan_id":"cebpf4jnsgd1na2vs0mg"},{"bike_id":"a37e8def-144c-4d8d-aabf-950aca51f939","system_id":"levelo_inurba_marseille","lat":43.297702,"lon":5.38121,"is_reserved":false,"is_disabled":true,"rental_uris":{"android":"levelo://app?vid=a37e8def-144c-4d8d-aabf-950aca51f939","ios":"levelo://app?vid=a37e8def-144c-4d8d-aabf-950aca51f939"},"vehicle_type_id":"4","last_reported":1751317775,"current_range_meters":800,"station_id":"","pricing_plan_id":"cebpf4jnsgd1na2vs0mg"},{"bike_id":"28225780-6c00-4435-8cde-b501bd568f8b","system_id":"levelo_inurba_marseille","lat":43.21738,"lon":5.3461,"is_reserved":false,"is_disabled":true,"rental_uris":{"android":"levelo://app?vid=28225780-6c00-4435-8cde-b501bd568f8b","ios":"levelo://app?vid=28225780-6c00-4435-8cde-b501bd568f8b"},"vehicle_type_id":"4","last_reported":1751317775,"current_range_meters":800,"station_id":"st_cvj6r9ubvosntc0bgbag","pricing_plan_id":"cebpf4jnsgd1na2vs0mg"},{"bike_id":"9e163c86-36ef-4269-bcd8-6c9e6f4075a0","system_id":"levelo_inurba_marseille","lat":43.30279,"lon":5.3718,"is_reserved":false,"is_disabled":true,"rental_uris":{"android":"levelo://app?vid=9e163c86-36ef-4269-bcd8-6c9e6f4075a0","ios":"levelo://app?vid=9e163c86-36ef-4269-bcd8-6c9e6f4075a0"},"vehicle_type_id":"4","last_reported":1751317775,"current_range_meters":1200,"station_id":"","pricing_plan_id":"cebpf4jnsgd1na2vs0mg"},{"bike_id":"49f8d481-44c9-4155-8ca8-5ebe409f4ac4","system_id":"levelo_inurba_marseille","lat":43.324792,"lon":5.365598,"is_reserved":false,"is_disabled":true,"rental_uris":{"android":"levelo://app?vid=49f8d481-44c9-4155-8ca8-5ebe409f4ac4","ios":"levelo://app?vid=49f8d481-44c9-4155-8ca8-5ebe409f4ac4"},"vehicle_type_id":"4","last_reported":1751317775,"current_range_meters":1200,"station_id":"ce4bhs12rcd13ifvqhvg","pricing_plan_id":"cebpf4jnsgd1na2vs0mg"},{"bike_id":"11c5bba2-961a-45fc-992b-f4d022d91384","system_id":"levelo_inurba_marseille","lat":43.2455,"lon":5.41541,"is_reserved":false,"is_disabled":true,"rental_uris":{"android":"levelo://app?vid=11c5bba2-961a-45fc-992b-f4d022d91384","ios":"levelo://app?vid=11c5bba2-961a-45fc-992b-f4d022d91384"},"vehicle_type_id":"4","last_reported":1751317775,"current_range_meters":1600,"station_id":"","pricing_plan_id":"cebpf4jnsgd1na2vs0mg"},{"bike_id":"c9700359-7f1e-4ea5-8eb5-d9c4ea1b8ef7","system_id":"levelo_inurba_marseille","lat":43.26185,"lon":5.37514,"is_reserved":false,"is_disabled":true,"rental_uris":{"android":"levelo://app?vid=c9700359-7f1e-4ea5-8eb5-d9c4ea1b8ef7","ios":"levelo://app?vid=c9700359-7f1e-4ea5-8eb5-d9c4ea1b8ef7"},"vehicle_type_id":"4","last_reported":1751317775,"current_range_meters":1600,"station_id":"","pricing_plan_id":"cebpf4jnsgd1na2vs0mg"},{"bike_id":"051f174e-f1f0-4ce0-b62c-1bb8947aa502","system_id":"levelo_inurba_marseille","lat":43.30885,"lon":5.39649,"is_reserved":false,"is_disabled":true,"rental_uris":{"android":"levelo://app?vid=051f174e-f1f0-4ce0-b62c-1bb8947aa502","ios":"levelo://app?vid=051f174e-f1f0-4ce0-b62c-1bb8947aa502"},"vehicle_type_id":"4","last_reported":1751317775,"current_range_meters":1600,"station_id":"ce4bh012rcd13ifvqcv0","pricing_plan_id":"cebpf4jnsgd1na2vs0mg"},{"bike_id":"ba03965c-235a-439a-ad79-2501ca17ac1b","system_id":"levelo_inurba_marseille","lat":43.31752,"lon":5.39013,"is_reserved":false,"is_disabled":true,"rental_uris":{"android":"levelo://app?vid=ba03965c-235a-439a-ad79-2501ca17ac1b","ios":"levelo://app?vid=ba03965c-235a-439a-ad79-2501ca17ac1b"},"vehicle_type_id":"4","last_reported":1751317775,"current_range_meters":1600,"station_id":"ce4bhqp2rcd13ifvqhng","pricing_plan_id":"cebpf4jnsgd1na2vs0mg"},{"bike_id":"d5b5bc74-aaeb-40c0-b979-fb1a262527de","system_id":"levelo_inurba_marseille","lat":43.33162,"lon":5.35897,"is_reserved":false,"is_disabled":true,"rental_uris":{"android":"levelo://app?vid=d5b5bc74-aaeb-40c0-b979-fb1a262527de","ios":"levelo://app?vid=d5b5bc74-aaeb-40c0-b979-fb1a262527de"},"vehicle_type_id":"4","last_reported":1751317775,"current_range_meters":2000,"station_id":"","pricing_plan_id":"cebpf4jnsgd1na2vs0mg"},{"bike_id":"d789fe0f-317b-49c0-9843-b9b94da109bd","system_id":"levelo_inurba_marseille","lat":43.28077,"lon":5.39658,"is_reserved":false,"is_disabled":false,"rental_uris":{"android":"levelo://app?vid=d789fe0f-317b-49c0-9843-b9b94da109bd","ios":"levelo://app?vid=d789fe0f-317b-49c0-9843-b9b94da109bd"},"vehicle_type_id":"4","last_reported":1751317775,"current_range_meters":2800,"station_id":"ce4bho12rcd13ifvqh2g","pricing_plan_id":"cebpf4jnsgd1na2vs0mg"},{"bike_id":"a5bd0789-a2a8-44d9-b041-de44458c7417","system_id":"levelo_inurba_marseille","lat":43.31113,"lon":5.37769,"is_reserved":false,"is_disabled":false,"rental_uris":{"android":"levelo://app?vid=a5bd0789-a2a8-44d9-b041-de44458c7417","ios":"levelo://app?vid=a5bd0789-a2a8-44d9-b041-de44458c7417"},"vehicle_type_id":"4","last_reported":1751317775,"current_range_meters":3200,"station_id":"ce4bgt92rcd13ifvqcg0","pricing_plan_id":"cebpf4jnsgd1na2vs0mg"},{"bike_id":"48386ef0-f318-4b3c-9b47-180bd13f8232","system_id":"levelo_inurba_marseille","lat":43.29517,"lon":5.39042,"is_reserved":false,"is_disabled":false,"rental_uris":{"android":"levelo://app?vid=48386ef0-f318-4b3c-9b47-180bd13f8232","ios":"levelo://app?vid=48386ef0-f318-4b3c-9b47-180bd13f8232"},"vehicle_type_id":"4","last_reported":1751317775,"current_range_meters":3200,"station_id":"ce4bh3p2rcd13ifvqdp0","pricing_plan_id":"cebpf4jnsgd1na2vs0mg"},{"bike_id":"15b978f6-d1cc-4e0d-b310-87b4963ce926","system_id":"levelo_inurba_marseille","lat":43.28666,"lon":5.38671,"is_reserved":false,"is_disabled":false,"rental_uris":{"android":"levelo://app?vid=15b978f6-d1cc-4e0d-b310-87b4963ce926","ios":"levelo://app?vid=15b978f6-d1cc-4e0d-b310-87b4963ce926"},"vehicle_type_id":"4","last_reported":1751317775,"current_range_meters":3200,"station_id":"ce4bh492rcd13ifvqdug","pricing_plan_id":"cebpf4jnsgd1na2vs0mg"},{"bike_id":"4e61e755-73a3-4411-931e-0c6deac14bde","system_id":"levelo_inurba_marseille","lat":43.29001,"lon":5.35612,"is_reserved":false,"is_disabled":false,"rental_uris":{"android":"levelo://app?vid=4e61e755-73a3-4411-931e-0c6deac14bde","ios":"levelo://app?vid=4e61e755-73a3-4411-931e-0c6deac14bde"},"vehicle_type_id":"4","last_reported":1751317775,"current_range_meters":3200,"station_id":"ce4bhb92rcd13ifvqen0","pricing_plan_id":"cebpf4jnsgd1na2vs0mg"},{"bike_id":"87985e62-2823-4157-8a35-599ee9a377ab","system_id":"levelo_inurba_marseille","lat":43.21197,"lon":5.3506,"is_reserved":false,"is_disabled":false,"rental_uris":{"android":"levelo://app?vid=87985e62-2823-4157-8a35-599ee9a377ab","ios":"levelo://app?vid=87985e62-2823-4157-8a35-599ee9a377ab"},"vehicle_type_id":"4","last_reported":1751317775,"current_range_meters":3200,"station_id":"st_cvj6sg6p6f1abm77japg","pricing_plan_id":"cebpf4jnsgd1na2vs0mg"},{"bike_id":"4ae7a218-9a10-43e7-af1e-b1944cd227d2","system_id":"levelo_inurba_marseille","lat":43.29259,"lon":5.40902,"is_reserved":false,"is_disabled":false,"rental_uris":{"android":"levelo://app?vid=4ae7a218-9a10-43e7-af1e-b1944cd227d2","ios":"levelo://app?vid=4ae7a218-9a10-43e7-af1e-b1944cd227d2"},"vehicle_type_id":"4","last_reported":1751317775,"current_range_meters":3600,"station_id":"ce4bh192rcd13ifvqdc0","pricing_plan_id":"cebpf4jnsgd1na2vs0mg"},{"bike_id":"ab6c2002-46cb-478f-a989-fefa4d36e1c5","system_id":"levelo_inurba_marseille","lat":43.30302,"lon":5.39213,"is_reserved":false,"is_disabled":false,"rental_uris":{"android":"levelo://app?vid=ab6c2002-46cb-478f-a989-fefa4d36e1c5","ios":"levelo://app?vid=ab6c2002-46cb-478f-a989-fefa4d36e1c5"},"vehicle_type_id":"4","last_reported":1751317775,"current_range_meters":4000,"station_id":"ce4bgkh2rcd13ifvqbk0","pricing_plan_id":"cebpf4jnsgd1na2vs0mg"},{"bike_id":"47aa0eba-48e3-4e77-9a51-6230239d3b06","system_id":"levelo_inurba_marseille","lat":43.29634,"lon":5.4059,"is_reserved":false,"is_disabled":false,"rental_uris":{"android":"levelo://app?vid=47aa0eba-48e3-4e77-9a51-6230239d3b06","ios":"levelo://app?vid=47aa0eba-48e3-4e77-9a51-6230239d3b06"},"vehicle_type_id":"4","last_reported":1751317775,"current_range_meters":4000,"station_id":"ce4bh0h2rcd13ifvqd60","pricing_plan_id":"cebpf4jnsgd1na2vs0mg"},{"bike_id":"6432b467-99fb-4dc1-901b-0c6a348ac20c","system_id":"levelo_inurba_marseille","lat":43.28368,"lon":5.38635,"is_reserved":false,"is_disabled":false,"rental_uris":{"android":"levelo://app?vid=6432b467-99fb-4dc1-901b-0c6a348ac20c","ios":"levelo://app?vid=6432b467-99fb-4dc1-901b-0c6a348ac20c"},"vehicle_type_id":"4","last_reported":1751317775,"current_range_meters":4000,"station_id":"ce4bh492rcd13ifvqdvg","pricing_plan_id":"cebpf4jnsgd1na2vs0mg"},{"bike_id":"ed7038b0-9a11-4cb2-bd70-0b1e15c63bd6","system_id":"levelo_inurba_marseille","lat":43.31052,"lon":5.38376,"is_reserved":false,"is_disabled":false,"rental_uris":{"android":"levelo://app?vid=ed7038b0-9a11-4cb2-bd70-0b1e15c63bd6","ios":"levelo://app?vid=ed7038b0-9a11-4cb2-bd70-0b1e15c63bd6"},"vehicle_type_id":"4","last_reported":1751317775,"current_range_meters":4400,"station_id":"ce4bgv92rcd13ifvqcr0","pricing_plan_id":"cebpf4jnsgd1na2vs0mg"},{"bike_id":"d5e3eaf6-a949-4407-8a97-23d857367a59","system_id":"levelo_inurba_marseille","lat":43.31687,"lon":5.40482,"is_reserved":false,"is_disabled":false,"rental_uris":{"android":"levelo://app?vid=d5e3eaf6-a949-4407-8a97-23d857367a59","ios":"levelo://app?vid=d5e3eaf6-a949-4407-8a97-23d857367a59"},"vehicle_type_id":"4","last_reported":1751317775,"current_range_meters":4400,"station_id":"ce4bh012rcd13ifvqd00","pricing_plan_id":"cebpf4jnsgd1na2vs0mg"},{"bike_id":"e73cf839-d6b2-4414-be31-d794b743f05e","system_id":"levelo_inurba_marseille","lat":43.29632,"lon":5.40594,"is_reserved":false,"is_disabled":false,"rental_uris":{"android":"levelo://app?vid=e73cf839-d6b2-4414-be31-d794b743f05e","ios":"levelo://app?vid=e73cf839-d6b2-4414-be31-d794b743f05e"},"vehicle_type_id":"4","last_reported":1751317775,"current_range_meters":4400,"station_id":"ce4bh0h2rcd13ifvqd60","pricing_plan_id":"cebpf4jnsgd1na2vs0mg"},{"bike_id":"0c3224b8-f523-4e6d-b187-a7324f08ed65","system_id":"levelo_inurba_marseille","lat":43.28405,"lon":5.37511,"is_reserved":false,"is_disabled":false,"rental_uris":{"android":"levelo://app?vid=0c3224b8-f523-4e6d-b187-a7324f08ed65","ios":"levelo://app?vid=0c3224b8-f523-4e6d-b187-a7324f08ed65"},"vehicle_type_id":"4","last_reported":1751317775,"current_range_meters":4400,"station_id":"ce4bh412rcd13ifvqds0","pricing_plan_id":"cebpf4jnsgd1na2vs0mg"},{"bike_id":"80d415b7-03d0-414c-af20-18291bd032ba","system_id":"levelo_inurba_marseille","lat":43.27845,"lon":5.39211,"is_reserved":false,"is_disabled":false,"rental_uris":{"android":"levelo://app?vid=80d415b7-03d0-414c-af20-18291bd032ba","ios":"levelo://app?vid=80d415b7-03d0-414c-af20-18291bd032ba"},"vehicle_type_id":"4","last_reported":1751317775,"current_range_meters":4400,"station_id":"ce4bhjp2rcd13ifvqga0","pricing_plan_id":"cebpf4jnsgd1na2vs0mg"},{"bike_id":"05657e72-a642-4bed-ad11-edfc04558dd1","system_id":"levelo_inurba_marseille","lat":43.24073,"lon":5.3776,"is_reserved":false,"is_disabled":false,"rental_uris":{"android":"levelo://app?vid=05657e72-a642-4bed-ad11-edfc04558dd1","ios":"levelo://app?vid=05657e72-a642-4bed-ad11-edfc04558dd1"},"vehicle_type_id":"4","last_reported":1751317775,"current_range_meters":4400,"station_id":"ce4bhnp2rcd13ifvqgvg","pricing_plan_id":"cebpf4jnsgd1na2vs0mg"},{"bike_id":"06b7548a-f733-4e48-b923-257f4fe512b3","system_id":"levelo_inurba_marseille","lat":43.29608,"lon":5.38095,"is_reserved":false,"is_disabled":false,"rental_uris":{"android":"levelo://app?vid=06b7548a-f733-4e48-b923-257f4fe512b3","ios":"levelo://app?vid=06b7548a-f733-4e48-b923-257f4fe512b3"},"vehicle_type_id":"4","last_reported":1751317775,"current_range_meters":4800,"station_id":"ce4bgl12rcd13ifvqbo0","pricing_plan_id":"cebpf4jnsgd1na2vs0mg"},{"bike_id":"9cd3c8aa-7163-4b5b-8df9-9f76409c1d01","system_id":"levelo_inurba_marseille","lat":43.2958,"lon":5.39973,"is_reserved":false,"is_disabled":false,"rental_uris":{"android":"levelo://app?vid=9cd3c8aa-7163-4b5b-8df9-9f76409c1d01","ios":"levelo://app?vid=9cd3c8aa-7163-4b5b-8df9-9f76409c1d01"},"vehicle_type_id":"4","last_reported":1751317775,"current_range_meters":4800,"station_id":"ce4bh312rcd13ifvqdj0","pricing_plan_id":"cebpf4jnsgd1na2vs0mg"},{"bike_id":"45693d91-df28-4348-aebe-d5983e23b467","system_id":"levelo_inurba_marseille","lat":43.29269,"lon":5.38436,"is_reserved":false,"is_disabled":false,"rental_uris":{"android":"levelo://app?vid=45693d91-df28-4348-aebe-d5983e23b467","ios":"levelo://app?vid=45693d91-df28-4348-aebe-d5983e23b467"},"vehicle_type_id":"4","last_reported":1751317775,"current_range_meters":4800,"station_id":"ce4bh692rcd13ifvqea0","pricing_plan_id":"cebpf4jnsgd1na2vs0mg"},{"bike_id":"7fa22e6a-0d98-4f14-a611-4ad38f9bceb8","system_id":"levelo_inurba_marseille","lat":43.29794,"lon":5.404,"is_reserved":false,"is_disabled":false,"rental_uris":{"android":"levelo://app?vid=7fa22e6a-0d98-4f14-a611-4ad38f9bceb8","ios":"levelo://app?vid=7fa22e6a-0d98-4f14-a611-4ad38f9bceb8"},"vehicle_type_id":"4","last_reported":1751317775,"current_range_meters":5600,"station_id":"ce4bh112rcd13ifvqd90","pricing_plan_id":"cebpf4jnsgd1na2vs0mg"},{"bike_id":"8a6936f6-a1ec-46fa-93c1-b2fd2d896e66","system_id":"levelo_inurba_marseille","lat":43.25872,"lon":5.39893,"is_reserved":false,"is_disabled":false,"rental_uris":{"android":"levelo://app?vid=8a6936f6-a1ec-46fa-93c1-b2fd2d896e66","ios":"levelo://app?vid=8a6936f6-a1ec-46fa-93c1-b2fd2d896e66"},"vehicle_type_id":"4","last_reported":1751317775,"current_range_meters":5600,"station_id":"ce4bhl92rcd13ifvqghg","pricing_plan_id":"cebpf4jnsgd1na2vs0mg"},{"bike_id":"293ecca5-118e-44db-a104-7e0554fa0722","system_id":"levelo_inurba_marseille","lat":43.30419,"lon":5.41282,"is_reserved":false,"is_disabled":false,"rental_uris":{"android":"levelo://app?vid=293ecca5-118e-44db-a104-7e0554fa0722","ios":"levelo://app?vid=293ecca5-118e-44db-a104-7e0554fa0722"},"vehicle_type_id":"4","last_reported":1751317775,"current_range_meters":5600,"station_id":"ce4bhop2rcd13ifvqh8g","pricing_plan_id":"cebpf4jnsgd1na2vs0mg"},{"bike_id":"8fd6277b-336f-4633-8dff-939b932e2fd2","system_id":"levelo_inurba_marseille","lat":43.29796,"lon":5.36207,"is_reserved":false,"is_disabled":false,"rental_uris":{"android":"levelo://app?vid=8fd6277b-336f-4633-8dff-939b932e2fd2","ios":"levelo://app?vid=8fd6277b-336f-4633-8dff-939b932e2fd2"},"vehicle_type_id":"4","last_reported":1751317775,"current_range_meters":6000,"station_id":"","pricing_plan_id":"cebpf4jnsgd1na2vs0mg"},{"bike_id":"446b9801-f525-468f-a78f-b6ed5cd35637","system_id":"levelo_inurba_marseille","lat":43.287,"lon":5.37391,"is_reserved":false,"is_disabled":false,"rental_uris":{"android":"levelo://app?vid=446b9801-f525-468f-a78f-b6ed5cd35637","ios":"levelo://app?vid=446b9801-f525-468f-a78f-b6ed5cd35637"},"vehicle_type_id":"4","last_reported":1751317775,"current_range_meters":6000,"station_id":"ce4bh3p2rcd13ifvqdq0","pricing_plan_id":"cebpf4jnsgd1na2vs0mg"},{"bike_id":"7b28ebac-3c6a-43aa-aca9-7bd954b07205","system_id":"levelo_inurba_marseille","lat":43.29641,"lon":5.37963,"is_reserved":false,"is_disabled":false,"rental_uris":{"android":"levelo://app?vid=7b28ebac-3c6a-43aa-aca9-7bd954b07205","ios":"levelo://app?vid=7b28ebac-3c6a-43aa-aca9-7bd954b07205"},"vehicle_type_id":"4","last_reported":1751317775,"current_range_meters":6400,"station_id":"","pricing_plan_id":"cebpf4jnsgd1na2vs0mg"},{"bike_id":"cbe8cf16-ee4d-44dc-af26-2dea0d93d494","system_id":"levelo_inurba_marseille","lat":43.337444,"lon":5.374475,"is_reserved":false,"is_disabled":false,"rental_uris":{"android":"levelo://app?vid=cbe8cf16-ee4d-44dc-af26-2dea0d93d494","ios":"levelo://app?vid=cbe8cf16-ee4d-44dc-af26-2dea0d93d494"},"vehicle_type_id":"4","last_reported":1751317775,"current_range_meters":6400,"station_id":"","pricing_plan_id":"cebpf4jnsgd1na2vs0mg"},{"bike_id":"9fc6b39a-5532-40ac-8f58-975bced56a19","system_id":"levelo_inurba_marseille","lat":43.32559,"lon":5.4044,"is_reserved":false,"is_disabled":false,"rental_uris":{"android":"levelo://app?vid=9fc6b39a-5532-40ac-8f58-975bced56a19","ios":"levelo://app?vid=9fc6b39a-5532-40ac-8f58-975bced56a19"},"vehicle_type_id":"4","last_reported":1751317775,"current_range_meters":6800,"station_id":"","pricing_plan_id":"cebpf4jnsgd1na2vs0mg"},{"bike_id":"927529e6-94cc-436f-a295-3fd38d0f6ef8","system_id":"levelo_inurba_marseille","lat":43.31105,"lon":5.37765,"is_reserved":false,"is_disabled":false,"rental_uris":{"android":"levelo://app?vid=927529e6-94cc-436f-a295-3fd38d0f6ef8","ios":"levelo://app?vid=927529e6-94cc-436f-a295-3fd38d0f6ef8"},"vehicle_type_id":"4","last_reported":1751317775,"current_range_meters":6800,"station_id":"ce4bgt92rcd13ifvqcg0","pricing_plan_id":"cebpf4jnsgd1na2vs0mg"},{"bike_id":"fad14090-bada-413c-a095-0a76ff28d3df","system_id":"levelo_inurba_marseille","lat":43.29026,"lon":5.38637,"is_reserved":false,"is_disabled":false,"rental_uris":{"android":"levelo://app?vid=fad14090-bada-413c-a095-0a76ff28d3df","ios":"levelo://app?vid=fad14090-bada-413c-a095-0a76ff28d3df"},"vehicle_type_id":"4","last_reported":1751317775,"current_range_meters":6800,"station_id":"ce4bh4p2rcd13ifvqe0g","pricing_plan_id":"cebpf4jnsgd1na2vs0mg"},{"bike_id":"c27be50d-620c-4396-b637-05c4e7c666b7","system_id":"levelo_inurba_marseille","lat":43.25871,"lon":5.39896,"is_reserved":false,"is_disabled":false,"rental_uris":{"android":"levelo://app?vid=c27be50d-620c-4396-b637-05c4e7c666b7","ios":"levelo://app?vid=c27be50d-620c-4396-b637-05c4e7c666b7"},"vehicle_type_id":"4","last_reported":1751317775,"current_range_meters":6800,"station_id":"ce4bhl92rcd13ifvqghg","pricing_plan_id":"cebpf4jnsgd1na2vs0mg"},{"bike_id":"3035be0e-7c3d-4f7d-a1cb-7a1af59e497b","system_id":"levelo_inurba_marseille","lat":43.29671,"lon":5.35985,"is_reserved":false,"is_disabled":false,"rental_uris":{"android":"levelo://app?vid=3035be0e-7c3d-4f7d-a1cb-7a1af59e497b","ios":"levelo://app?vid=3035be0e-7c3d-4f7d-a1cb-7a1af59e497b"},"vehicle_type_id":"4","last_reported":1751317775,"current_range_meters":7200,"station_id":"","pricing_plan_id":"cebpf4jnsgd1na2vs0mg"},{"bike_id":"7547e1e4-2d85-4907-971d-6c8e5c4cb529","system_id":"levelo_inurba_marseille","lat":43.253543,"lon":5.37513,"is_reserved":false,"is_disabled":false,"rental_uris":{"android":"levelo://app?vid=7547e1e4-2d85-4907-971d-6c8e5c4cb529","ios":"levelo://app?vid=7547e1e4-2d85-4907-971d-6c8e5c4cb529"},"vehicle_type_id":"4","last_reported":1751317775,"current_range_meters":7200,"station_id":"","pricing_plan_id":"cebpf4jnsgd1na2vs0mg"},{"bike_id":"2a6d5008-c667-4134-a5c4-2d1432ac5054","system_id":"levelo_inurba_marseille","lat":43.30885,"lon":5.39659,"is_reserved":false,"is_disabled":false,"rental_uris":{"android":"levelo://app?vid=2a6d5008-c667-4134-a5c4-2d1432ac5054","ios":"levelo://app?vid=2a6d5008-c667-4134-a5c4-2d1432ac5054"},"vehicle_type_id":"4","last_reported":1751317775,"current_range_meters":7200,"station_id":"ce4bh012rcd13ifvqcv0","pricing_plan_id":"cebpf4jnsgd1na2vs0mg"},{"bike_id":"7328ed56-8660-4b40-8b47-4ef24f2d3b8c","system_id":"levelo_inurba_marseille","lat":43.25843,"lon":5.40987,"is_reserved":false,"is_disabled":false,"rental_uris":{"android":"levelo://app?vid=7328ed56-8660-4b40-8b47-4ef24f2d3b8c","ios":"levelo://app?vid=7328ed56-8660-4b40-8b47-4ef24f2d3b8c"},"vehicle_type_id":"4","last_reported":1751317775,"current_range_meters":7200,"station_id":"ce4bhkp2rcd13ifvqgd0","pricing_plan_id":"cebpf4jnsgd1na2vs0mg"},{"bike_id":"44a50ba5-fba8-499e-b144-8cb164fe59e9","system_id":"levelo_inurba_marseille","lat":43.32477,"lon":5.36567,"is_reserved":false,"is_disabled":false,"rental_uris":{"android":"levelo://app?vid=44a50ba5-fba8-499e-b144-8cb164fe59e9","ios":"levelo://app?vid=44a50ba5-fba8-499e-b144-8cb164fe59e9"},"vehicle_type_id":"4","last_reported":1751317775,"current_range_meters":7200,"station_id":"ce4bhs12rcd13ifvqhvg","pricing_plan_id":"cebpf4jnsgd1na2vs0mg"},{"bike_id":"a2e6df37-4fd4-478f-81b0-ce412377e1e3","system_id":"levelo_inurba_marseille","lat":43.2871,"lon":5.39993,"is_reserved":false,"is_disabled":false,"rental_uris":{"android":"levelo://app?vid=a2e6df37-4fd4-478f-81b0-ce412377e1e3","ios":"levelo://app?vid=a2e6df37-4fd4-478f-81b0-ce412377e1e3"},"vehicle_type_id":"4","last_reported":1751317775,"current_range_meters":8000,"station_id":"ce4bho92rcd13ifvqh3g","pricing_plan_id":"cebpf4jnsgd1na2vs0mg"},{"bike_id":"c1b7d398-1402-41b1-bc26-5575850c01bf","system_id":"levelo_inurba_marseille","lat":43.33606,"lon":5.410354,"is_reserved":false,"is_disabled":false,"rental_uris":{"android":"levelo://app?vid=c1b7d398-1402-41b1-bc26-5575850c01bf","ios":"levelo://app?vid=c1b7d398-1402-41b1-bc26-5575850c01bf"},"vehicle_type_id":"4","last_reported":1751317775,"current_range_meters":8000,"station_id":"ce4bhqh2rcd13ifvqhmg","pricing_plan_id":"cebpf4jnsgd1na2vs0mg"},{"bike_id":"59a074fc-769e-4d5d-a6d4-002d8e573dd6","system_id":"levelo_inurba_marseille","lat":43.21185,"lon":5.35063,"is_reserved":false,"is_disabled":false,"rental_uris":{"android":"levelo://app?vid=59a074fc-769e-4d5d-a6d4-002d8e573dd6","ios":"levelo://app?vid=59a074fc-769e-4d5d-a6d4-002d8e573dd6"},"vehicle_type_id":"4","last_reported":1751317775,"current_range_meters":8000,"station_id":"st_cvj6sg6p6f1abm77japg","pricing_plan_id":"cebpf4jnsgd1na2vs0mg"},{"bike_id":"82572449-083c-44ba-b563-2113de04a73b","system_id":"levelo_inurba_marseille","lat":43.29468,"lon":5.38295,"is_reserved":false,"is_disabled":false,"rental_uris":{"android":"levelo://app?vid=82572449-083c-44ba-b563-2113de04a73b","ios":"levelo://app?vid=82572449-083c-44ba-b563-2113de04a73b"},"vehicle_type_id":"4","last_reported":1751317775,"current_range_meters":8400,"station_id":"","pricing_plan_id":"cebpf4jnsgd1na2vs0mg"},{"bike_id":"60ba97bc-bfd6-4e98-a5cb-28f767d5ba66","system_id":"levelo_inurba_marseille","lat":43.26031,"lon":5.37547,"is_reserved":false,"is_disabled":false,"rental_uris":{"android":"levelo://app?vid=60ba97bc-bfd6-4e98-a5cb-28f767d5ba66","ios":"levelo://app?vid=60ba97bc-bfd6-4e98-a5cb-28f767d5ba66"},"vehicle_type_id":"4","last_reported":1751317775,"current_range_meters":8400,"station_id":"ce4bhgh2rcd13ifvqfa0","pricing_plan_id":"cebpf4jnsgd1na2vs0mg"},{"bike_id":"120036e1-945c-4ddf-ba61-047361af53a6","system_id":"levelo_inurba_marseille","lat":43.21195,"lon":5.3506,"is_reserved":false,"is_disabled":false,"rental_uris":{"android":"levelo://app?vid=120036e1-945c-4ddf-ba61-047361af53a6","ios":"levelo://app?vid=120036e1-945c-4ddf-ba61-047361af53a6"},"vehicle_type_id":"4","last_reported":1751317775,"current_range_meters":8400,"station_id":"st_cvj6sg6p6f1abm77japg","pricing_plan_id":"cebpf4jnsgd1na2vs0mg"},{"bike_id":"05d3d448-235e-4ac7-88df-050f15d5a616","system_id":"levelo_inurba_marseille","lat":43.27921,"lon":5.42214,"is_reserved":false,"is_disabled":false,"rental_uris":{"android":"levelo://app?vid=05d3d448-235e-4ac7-88df-050f15d5a616","ios":"levelo://app?vid=05d3d448-235e-4ac7-88df-050f15d5a616"},"vehicle_type_id":"4","last_reported":1751317775,"current_range_meters":8800,"station_id":"","pricing_plan_id":"cebpf4jnsgd1na2vs0mg"},{"bike_id":"4faad460-2e9e-4586-8b11-080be883e70a","system_id":"levelo_inurba_marseille","lat":43.27437,"lon":5.39425,"is_reserved":false,"is_disabled":false,"rental_uris":{"android":"levelo://app?vid=4faad460-2e9e-4586-8b11-080be883e70a","ios":"levelo://app?vid=4faad460-2e9e-4586-8b11-080be883e70a"},"vehicle_type_id":"4","last_reported":1751317775,"current_range_meters":8800,"station_id":"ce4bhdp2rcd13ifvqf20","pricing_plan_id":"cebpf4jnsgd1na2vs0mg"},{"bike_id":"8c17d133-39c7-4917-9f1e-5dea3f8e59e6","system_id":"levelo_inurba_marseille","lat":43.2117,"lon":5.35075,"is_reserved":false,"is_disabled":false,"rental_uris":{"android":"levelo://app?vid=8c17d133-39c7-4917-9f1e-5dea3f8e59e6","ios":"levelo://app?vid=8c17d133-39c7-4917-9f1e-5dea3f8e59e6"},"vehicle_type_id":"4","last_reported":1751317775,"current_range_meters":8800,"station_id":"st_cvj6sg6p6f1abm77japg","pricing_plan_id":"cebpf4jnsgd1na2vs0mg"},{"bike_id":"162af4e6-d224-4240-aeac-6cb0ae06de53","system_id":"levelo_inurba_marseille","lat":43.29932,"lon":5.37852,"is_reserved":false,"is_disabled":false,"rental_uris":{"android":"levelo://app?vid=162af4e6-d224-4240-aeac-6cb0ae06de53","ios":"levelo://app?vid=162af4e6-d224-4240-aeac-6cb0ae06de53"},"vehicle_type_id":"4","last_reported":1751317775,"current_range_meters":9200,"station_id":"","pricing_plan_id":"cebpf4jnsgd1na2vs0mg"},{"bike_id":"f585ae35-bc98-4ee6-9d73-5436a2853293","system_id":"levelo_inurba_marseille","lat":43.29972,"lon":5.37169,"is_reserved":false,"is_disabled":false,"rental_uris":{"android":"levelo://app?vid=f585ae35-bc98-4ee6-9d73-5436a2853293","ios":"levelo://app?vid=f585ae35-bc98-4ee6-9d73-5436a2853293"},"vehicle_type_id":"4","last_reported":1751317775,"current_range_meters":9200,"station_id":"ce4bgr92rcd13ifvqc7g","pricing_plan_id":"cebpf4jnsgd1na2vs0mg"},{"bike_id":"bd396cda-57a3-46dd-82e0-af69722e0c5e","system_id":"levelo_inurba_marseille","lat":43.25492,"lon":5.37652,"is_reserved":false,"is_disabled":false,"rental_uris":{"android":"levelo://app?vid=bd396cda-57a3-46dd-82e0-af69722e0c5e","ios":"levelo://app?vid=bd396cda-57a3-46dd-82e0-af69722e0c5e"},"vehicle_type_id":"4","last_reported":1751317775,"current_range_meters":9200,"station_id":"ce4bhh12rcd13ifvqff0","pricing_plan_id":"cebpf4jnsgd1na2vs0mg"},{"bike_id":"7d2ebbac-d26c-416a-b58e-5e3abed80858","system_id":"levelo_inurba_marseille","lat":43.21162,"lon":5.35073,"is_reserved":false,"is_disabled":false,"rental_uris":{"android":"levelo://app?vid=7d2ebbac-d26c-416a-b58e-5e3abed80858","ios":"levelo://app?vid=7d2ebbac-d26c-416a-b58e-5e3abed80858"},"vehicle_type_id":"4","last_reported":1751317775,"current_range_meters":9200,"station_id":"st_cvj6sg6p6f1abm77japg","pricing_plan_id":"cebpf4jnsgd1na2vs0mg"},{"bike_id":"b05ac08d-847b-4f20-ac36-038a0d69d167","system_id":"levelo_inurba_marseille","lat":43.28125,"lon":5.3589,"is_reserved":false,"is_disabled":false,"rental_uris":{"android":"levelo://app?vid=b05ac08d-847b-4f20-ac36-038a0d69d167","ios":"levelo://app?vid=b05ac08d-847b-4f20-ac36-038a0d69d167"},"vehicle_type_id":"4","last_reported":1751317775,"current_range_meters":9600,"station_id":"","pricing_plan_id":"cebpf4jnsgd1na2vs0mg"},{"bike_id":"1b94ab6d-fb35-4c7f-9e3c-df79251bab4e","system_id":"levelo_inurba_marseille","lat":43.29533,"lon":5.38546,"is_reserved":false,"is_disabled":false,"rental_uris":{"android":"levelo://app?vid=1b94ab6d-fb35-4c7f-9e3c-df79251bab4e","ios":"levelo://app?vid=1b94ab6d-fb35-4c7f-9e3c-df79251bab4e"},"vehicle_type_id":"4","last_reported":1751317775,"current_range_meters":9600,"station_id":"ce4bgih2rcd13ifvqba0","pricing_plan_id":"cebpf4jnsgd1na2vs0mg"},{"bike_id":"99c20630-4dbd-4f73-b2d8-945e60a01394","system_id":"levelo_inurba_marseille","lat":43.28711,"lon":5.39993,"is_reserved":false,"is_disabled":false,"rental_uris":{"android":"levelo://app?vid=99c20630-4dbd-4f73-b2d8-945e60a01394","ios":"levelo://app?vid=99c20630-4dbd-4f73-b2d8-945e60a01394"},"vehicle_type_id":"4","last_reported":1751317775,"current_range_meters":9600,"station_id":"ce4bho92rcd13ifvqh3g","pricing_plan_id":"cebpf4jnsgd1na2vs0mg"},{"bike_id":"7cd73daf-6410-4b72-a872-e5224e9d29ff","system_id":"levelo_inurba_marseille","lat":43.27402,"lon":5.41168,"is_reserved":false,"is_disabled":false,"rental_uris":{"android":"levelo://app?vid=7cd73daf-6410-4b72-a872-e5224e9d29ff","ios":"levelo://app?vid=7cd73daf-6410-4b72-a872-e5224e9d29ff"},"vehicle_type_id":"4","last_reported":1751317775,"current_range_meters":10000,"station_id":"","pricing_plan_id":"cebpf4jnsgd1na2vs0mg"},{"bike_id":"7dc148e5-fd7e-4677-bce3-55c94c6ee080","system_id":"levelo_inurba_marseille","lat":43.30688,"lon":5.4091,"is_reserved":false,"is_disabled":false,"rental_uris":{"android":"levelo://app?vid=7dc148e5-fd7e-4677-bce3-55c94c6ee080","ios":"levelo://app?vid=7dc148e5-fd7e-4677-bce3-55c94c6ee080"},"vehicle_type_id":"4","last_reported":1751317775,"current_range_meters":10000,"station_id":"","pricing_plan_id":"cebpf4jnsgd1na2vs0mg"},{"bike_id":"f5c16f07-bc6f-4121-91a7-5ad90eec4f34","system_id":"levelo_inurba_marseille","lat":43.31186,"lon":5.37342,"is_reserved":false,"is_disabled":false,"rental_uris":{"android":"levelo://app?vid=f5c16f07-bc6f-4121-91a7-5ad90eec4f34","ios":"levelo://app?vid=f5c16f07-bc6f-4121-91a7-5ad90eec4f34"},"vehicle_type_id":"4","last_reported":1751317775,"current_range_meters":10000,"station_id":"","pricing_plan_id":"cebpf4jnsgd1na2vs0mg"},{"bike_id":"d90a9d93-4ad5-4d04-99aa-39e1fb55ce20","system_id":"levelo_inurba_marseille","lat":43.28461,"lon":5.35894,"is_reserved":false,"is_disabled":false,"rental_uris":{"android":"levelo://app?vid=d90a9d93-4ad5-4d04-99aa-39e1fb55ce20","ios":"levelo://app?vid=d90a9d93-4ad5-4d04-99aa-39e1fb55ce20"},"vehicle_type_id":"4","last_reported":1751317775,"current_range_meters":10000,"station_id":"ce4bhah2rcd13ifvqei0","pricing_plan_id":"cebpf4jnsgd1na2vs0mg"},{"bike_id":"2fc1d196-75e0-4007-b93d-c0ab505aa2cd","system_id":"levelo_inurba_marseille","lat":43.2784,"lon":5.39205,"is_reserved":false,"is_disabled":false,"rental_uris":{"android":"levelo://app?vid=2fc1d196-75e0-4007-b93d-c0ab505aa2cd","ios":"levelo://app?vid=2fc1d196-75e0-4007-b93d-c0ab505aa2cd"},"vehicle_type_id":"4","last_reported":1751317775,"current_range_meters":10000,"station_id":"ce4bhjp2rcd13ifvqga0","pricing_plan_id":"cebpf4jnsgd1na2vs0mg"},{"bike_id":"ba3512c9-571b-4d84-9b9a-2df31fd4fa34","system_id":"levelo_inurba_marseille","lat":43.274937,"lon":5.424477,"is_reserved":false,"is_disabled":false,"rental_uris":{"android":"levelo://app?vid=ba3512c9-571b-4d84-9b9a-2df31fd4fa34","ios":"levelo://app?vid=ba3512c9-571b-4d84-9b9a-2df31fd4fa34"},"vehicle_type_id":"4","last_reported":1751317775,"current_range_meters":10000,"station_id":"ce4bhn92rcd13ifvqgrg","pricing_plan_id":"cebpf4jnsgd1na2vs0mg"},{"bike_id":"db4bce70-525f-4c38-8e5b-ea1cdc8bf5d6","system_id":"levelo_inurba_marseille","lat":43.317754,"lon":5.390174,"is_reserved":false,"is_disabled":false,"rental_uris":{"android":"levelo://app?vid=db4bce70-525f-4c38-8e5b-ea1cdc8bf5d6","ios":"levelo://app?vid=db4bce70-525f-4c38-8e5b-ea1cdc8bf5d6"},"vehicle_type_id":"4","last_reported":1751317775,"current_range_meters":10000,"station_id":"ce4bhqp2rcd13ifvqhng","pricing_plan_id":"cebpf4jnsgd1na2vs0mg"},{"bike_id":"579fbb61-3357-4cae-b940-e0e26ed11295","system_id":"levelo_inurba_marseille","lat":43.27618,"lon":5.36114,"is_reserved":false,"is_disabled":false,"rental_uris":{"android":"levelo://app?vid=579fbb61-3357-4cae-b940-e0e26ed11295","ios":"levelo://app?vid=579fbb61-3357-4cae-b940-e0e26ed11295"},"vehicle_type_id":"4","last_reported":1751317775,"current_range_meters":10800,"station_id":"ce4bgj92rcd13ifvqbe0","pricing_plan_id":"cebpf4jnsgd1na2vs0mg"},{"bike_id":"6a0ed378-8058-4d83-b659-eee03870e21c","system_id":"levelo_inurba_marseille","lat":43.31066,"lon":5.38339,"is_reserved":false,"is_disabled":false,"rental_uris":{"android":"levelo://app?vid=6a0ed378-8058-4d83-b659-eee03870e21c","ios":"levelo://app?vid=6a0ed378-8058-4d83-b659-eee03870e21c"},"vehicle_type_id":"4","last_reported":1751317775,"current_range_meters":10800,"station_id":"ce4bgv92rcd13ifvqcr0","pricing_plan_id":"cebpf4jnsgd1na2vs0mg"},{"bike_id":"f05909cc-040a-44f2-b6ce-b03ee01a3124","system_id":"levelo_inurba_marseille","lat":43.32976,"lon":5.39111,"is_reserved":false,"is_disabled":false,"rental_uris":{"android":"levelo://app?vid=f05909cc-040a-44f2-b6ce-b03ee01a3124","ios":"levelo://app?vid=f05909cc-040a-44f2-b6ce-b03ee01a3124"},"vehicle_type_id":"4","last_reported":1751317775,"current_range_meters":10800,"station_id":"ce4bhr92rcd13ifvqhrg","pricing_plan_id":"cebpf4jnsgd1na2vs0mg"},{"bike_id":"860ecc02-a6d5-4fbe-ada6-b9197deada15","system_id":"levelo_inurba_marseille","lat":43.32546,"lon":5.38919,"is_reserved":false,"is_disabled":false,"rental_uris":{"android":"levelo://app?vid=860ecc02-a6d5-4fbe-ada6-b9197deada15","ios":"levelo://app?vid=860ecc02-a6d5-4fbe-ada6-b9197deada15"},"vehicle_type_id":"4","last_reported":1751317775,"current_range_meters":11600,"station_id":"","pricing_plan_id":"cebpf4jnsgd1na2vs0mg"},{"bike_id":"33a66288-d72f-46b7-84ed-9d4190f05882","system_id":"levelo_inurba_marseille","lat":43.28674,"lon":5.38676,"is_reserved":false,"is_disabled":false,"rental_uris":{"android":"levelo://app?vid=33a66288-d72f-46b7-84ed-9d4190f05882","ios":"levelo://app?vid=33a66288-d72f-46b7-84ed-9d4190f05882"},"vehicle_type_id":"4","last_reported":1751317775,"current_range_meters":11600,"station_id":"ce4bh492rcd13ifvqdug","pricing_plan_id":"cebpf4jnsgd1na2vs0mg"},{"bike_id":"91f40db4-ae6c-4de8-b40f-305d23bf00e6","system_id":"levelo_inurba_marseille","lat":43.23183,"lon":5.3998,"is_reserved":false,"is_disabled":false,"rental_uris":{"android":"levelo://app?vid=91f40db4-ae6c-4de8-b40f-305d23bf00e6","ios":"levelo://app?vid=91f40db4-ae6c-4de8-b40f-305d23bf00e6"},"vehicle_type_id":"4","last_reported":1751317775,"current_range_meters":11600,"station_id":"ce4bhn12rcd13ifvqgqg","pricing_plan_id":"cebpf4jnsgd1na2vs0mg"},{"bike_id":"b88569ed-b13c-406f-a6a0-bdb9844a154b","system_id":"levelo_inurba_marseille","lat":43.295991,"lon":5.381002,"is_reserved":false,"is_disabled":false,"rental_uris":{"android":"levelo://app?vid=b88569ed-b13c-406f-a6a0-bdb9844a154b","ios":"levelo://app?vid=b88569ed-b13c-406f-a6a0-bdb9844a154b"},"vehicle_type_id":"4","last_reported":1751317775,"current_range_meters":12000,"station_id":"","pricing_plan_id":"cebpf4jnsgd1na2vs0mg"},{"bike_id":"dac293ba-dc8c-4a36-9d35-3b507a91761d","system_id":"levelo_inurba_marseille","lat":43.29527,"lon":5.38553,"is_reserved":false,"is_disabled":false,"rental_uris":{"android":"levelo://app?vid=dac293ba-dc8c-4a36-9d35-3b507a91761d","ios":"levelo://app?vid=dac293ba-dc8c-4a36-9d35-3b507a91761d"},"vehicle_type_id":"4","last_reported":1751317775,"current_range_meters":12000,"station_id":"ce4bgih2rcd13ifvqba0","pricing_plan_id":"cebpf4jnsgd1na2vs0mg"},{"bike_id":"1ce37f25-952d-4fae-9ee1-c0b0a46727ef","system_id":"levelo_inurba_marseille","lat":43.28698,"lon":5.37395,"is_reserved":false,"is_disabled":false,"rental_uris":{"android":"levelo://app?vid=1ce37f25-952d-4fae-9ee1-c0b0a46727ef","ios":"levelo://app?vid=1ce37f25-952d-4fae-9ee1-c0b0a46727ef"},"vehicle_type_id":"4","last_reported":1751317775,"current_range_meters":12000,"station_id":"ce4bh3p2rcd13ifvqdq0","pricing_plan_id":"cebpf4jnsgd1na2vs0mg"},{"bike_id":"49579dfa-1202-4d28-ace6-f6d30b64e937","system_id":"levelo_inurba_marseille","lat":43.29228,"lon":5.38448,"is_reserved":false,"is_disabled":false,"rental_uris":{"android":"levelo://app?vid=49579dfa-1202-4d28-ace6-f6d30b64e937","ios":"levelo://app?vid=49579dfa-1202-4d28-ace6-f6d30b64e937"},"vehicle_type_id":"4","last_reported":1751317775,"current_range_meters":12000,"station_id":"ce4bh692rcd13ifvqea0","pricing_plan_id":"cebpf4jnsgd1na2vs0mg"},{"bike_id":"9c36634b-193b-49f5-89e1-fe3580e14135","system_id":"levelo_inurba_marseille","lat":43.26017,"lon":5.37556,"is_reserved":false,"is_disabled":false,"rental_uris":{"android":"levelo://app?vid=9c36634b-193b-49f5-89e1-fe3580e14135","ios":"levelo://app?vid=9c36634b-193b-49f5-89e1-fe3580e14135"},"vehicle_type_id":"4","last_reported":1751317775,"current_range_meters":12000,"station_id":"ce4bhgh2rcd13ifvqfa0","pricing_plan_id":"cebpf4jnsgd1na2vs0mg"},{"bike_id":"c13c93ac-6b62-443c-9e36-caf61b27325a","system_id":"levelo_inurba_marseille","lat":43.21173,"lon":5.35068,"is_reserved":false,"is_disabled":false,"rental_uris":{"android":"levelo://app?vid=c13c93ac-6b62-443c-9e36-caf61b27325a","ios":"levelo://app?vid=c13c93ac-6b62-443c-9e36-caf61b27325a"},"vehicle_type_id":"4","last_reported":1751317775,"current_range_meters":12000,"station_id":"st_cvj6sg6p6f1abm77japg","pricing_plan_id":"cebpf4jnsgd1na2vs0mg"},{"bike_id":"ac4cf6bf-ae0d-49a1-afc8-485ee29ed51b","system_id":"levelo_inurba_marseille","lat":43.27266,"lon":5.41173,"is_reserved":false,"is_disabled":false,"rental_uris":{"android":"levelo://app?vid=ac4cf6bf-ae0d-49a1-afc8-485ee29ed51b","ios":"levelo://app?vid=ac4cf6bf-ae0d-49a1-afc8-485ee29ed51b"},"vehicle_type_id":"4","last_reported":1751317775,"current_range_meters":12400,"station_id":"","pricing_plan_id":"cebpf4jnsgd1na2vs0mg"},{"bike_id":"58bd3f83-8d43-432e-a389-948938190aea","system_id":"levelo_inurba_marseille","lat":43.27463,"lon":5.42504,"is_reserved":false,"is_disabled":false,"rental_uris":{"android":"levelo://app?vid=58bd3f83-8d43-432e-a389-948938190aea","ios":"levelo://app?vid=58bd3f83-8d43-432e-a389-948938190aea"},"vehicle_type_id":"4","last_reported":1751317775,"current_range_meters":12400,"station_id":"","pricing_plan_id":"cebpf4jnsgd1na2vs0mg"},{"bike_id":"5964877c-ad96-48cf-acaa-34b18f3b04b9","system_id":"levelo_inurba_marseille","lat":43.29915,"lon":5.3815,"is_reserved":false,"is_disabled":false,"rental_uris":{"android":"levelo://app?vid=5964877c-ad96-48cf-acaa-34b18f3b04b9","ios":"levelo://app?vid=5964877c-ad96-48cf-acaa-34b18f3b04b9"},"vehicle_type_id":"4","last_reported":1751317775,"current_range_meters":12400,"station_id":"ce4bgj12rcd13ifvqbc0","pricing_plan_id":"cebpf4jnsgd1na2vs0mg"},{"bike_id":"a0536d05-9a52-4c7d-9908-c145378c1977","system_id":"levelo_inurba_marseille","lat":43.30209,"lon":5.3947,"is_reserved":false,"is_disabled":false,"rental_uris":{"android":"levelo://app?vid=a0536d05-9a52-4c7d-9908-c145378c1977","ios":"levelo://app?vid=a0536d05-9a52-4c7d-9908-c145378c1977"},"vehicle_type_id":"4","last_reported":1751317775,"current_range_meters":12400,"station_id":"ce4bh0p2rcd13ifvqd70","pricing_plan_id":"cebpf4jnsgd1na2vs0mg"},{"bike_id":"a2a15560-b7f3-47a1-9d84-d9d7b04c0252","system_id":"levelo_inurba_marseille","lat":43.26217,"lon":5.37422,"is_reserved":false,"is_disabled":false,"rental_uris":{"android":"levelo://app?vid=a2a15560-b7f3-47a1-9d84-d9d7b04c0252","ios":"levelo://app?vid=a2a15560-b7f3-47a1-9d84-d9d7b04c0252"},"vehicle_type_id":"4","last_reported":1751317775,"current_range_meters":12400,"station_id":"ce4bhgp2rcd13ifvqfc0","pricing_plan_id":"cebpf4jnsgd1na2vs0mg"},{"bike_id":"07ddf3f2-7e29-480c-9052-31ba82bd9b41","system_id":"levelo_inurba_marseille","lat":43.262101,"lon":5.374417,"is_reserved":false,"is_disabled":false,"rental_uris":{"android":"levelo://app?vid=07ddf3f2-7e29-480c-9052-31ba82bd9b41","ios":"levelo://app?vid=07ddf3f2-7e29-480c-9052-31ba82bd9b41"},"vehicle_type_id":"4","last_reported":1751317775,"current_range_meters":12400,"station_id":"ce4bhgp2rcd13ifvqfc0","pricing_plan_id":"cebpf4jnsgd1na2vs0mg"},{"bike_id":"6b04a8db-f012-4ea9-88f5-d59ff3f24fd9","system_id":"levelo_inurba_marseille","lat":43.29895,"lon":5.43668,"is_reserved":false,"is_disabled":false,"rental_uris":{"android":"levelo://app?vid=6b04a8db-f012-4ea9-88f5-d59ff3f24fd9","ios":"levelo://app?vid=6b04a8db-f012-4ea9-88f5-d59ff3f24fd9"},"vehicle_type_id":"4","last_reported":1751317775,"current_range_meters":12400,"station_id":"ce4bhpp2rcd13ifvqhfg","pricing_plan_id":"cebpf4jnsgd1na2vs0mg"},{"bike_id":"7d8bd80b-4135-42e3-8c26-73dfa14814e3","system_id":"levelo_inurba_marseille","lat":43.31222,"lon":5.36869,"is_reserved":false,"is_disabled":false,"rental_uris":{"android":"levelo://app?vid=7d8bd80b-4135-42e3-8c26-73dfa14814e3","ios":"levelo://app?vid=7d8bd80b-4135-42e3-8c26-73dfa14814e3"},"vehicle_type_id":"4","last_reported":1751317775,"current_range_meters":12800,"station_id":"ce4bgl92rcd13ifvqbq0","pricing_plan_id":"cebpf4jnsgd1na2vs0mg"},{"bike_id":"c082e0c3-f712-48a3-98a3-50eebfb4dc15","system_id":"levelo_inurba_marseille","lat":43.29031,"lon":5.38637,"is_reserved":false,"is_disabled":false,"rental_uris":{"android":"levelo://app?vid=c082e0c3-f712-48a3-98a3-50eebfb4dc15","ios":"levelo://app?vid=c082e0c3-f712-48a3-98a3-50eebfb4dc15"},"vehicle_type_id":"4","last_reported":1751317775,"current_range_meters":12800,"station_id":"ce4bh4p2rcd13ifvqe0g","pricing_plan_id":"cebpf4jnsgd1na2vs0mg"},{"bike_id":"aad466d4-9058-4038-a189-895fae6f1c28","system_id":"levelo_inurba_marseille","lat":43.21151,"lon":5.35093,"is_reserved":false,"is_disabled":false,"rental_uris":{"android":"levelo://app?vid=aad466d4-9058-4038-a189-895fae6f1c28","ios":"levelo://app?vid=aad466d4-9058-4038-a189-895fae6f1c28"},"vehicle_type_id":"4","last_reported":1751317775,"current_range_meters":12800,"station_id":"st_cvj6sg6p6f1abm77japg","pricing_plan_id":"cebpf4jnsgd1na2vs0mg"},{"bike_id":"edf71f0e-6e45-48c7-899a-8861d9894b64","system_id":"levelo_inurba_marseille","lat":43.28718,"lon":5.37412,"is_reserved":false,"is_disabled":false,"rental_uris":{"android":"levelo://app?vid=edf71f0e-6e45-48c7-899a-8861d9894b64","ios":"levelo://app?vid=edf71f0e-6e45-48c7-899a-8861d9894b64"},"vehicle_type_id":"4","last_reported":1751317775,"current_range_meters":13600,"station_id":"ce4bh3p2rcd13ifvqdq0","pricing_plan_id":"cebpf4jnsgd1na2vs0mg"},{"bike_id":"4895cd93-0dd7-4225-9df3-90b309be9972","system_id":"levelo_inurba_marseille","lat":43.28352,"lon":5.38099,"is_reserved":false,"is_disabled":false,"rental_uris":{"android":"levelo://app?vid=4895cd93-0dd7-4225-9df3-90b309be9972","ios":"levelo://app?vid=4895cd93-0dd7-4225-9df3-90b309be9972"},"vehicle_type_id":"4","last_reported":1751317775,"current_range_meters":13600,"station_id":"ce4bh412rcd13ifvqdr0","pricing_plan_id":"cebpf4jnsgd1na2vs0mg"},{"bike_id":"4d56b67c-c8e9-4713-b157-3c6e6d758eff","system_id":"levelo_inurba_marseille","lat":43.24644,"lon":5.38186,"is_reserved":false,"is_disabled":false,"rental_uris":{"android":"levelo://app?vid=4d56b67c-c8e9-4713-b157-3c6e6d758eff","ios":"levelo://app?vid=4d56b67c-c8e9-4713-b157-3c6e6d758eff"},"vehicle_type_id":"4","last_reported":1751317775,"current_range_meters":13600,"station_id":"ce4bhih2rcd13ifvqfr0","pricing_plan_id":"cebpf4jnsgd1na2vs0mg"},{"bike_id":"8ceb2860-ca09-420a-8aab-fcf0c529a0d3","system_id":"levelo_inurba_marseille","lat":43.21191,"lon":5.35075,"is_reserved":false,"is_disabled":false,"rental_uris":{"android":"levelo://app?vid=8ceb2860-ca09-420a-8aab-fcf0c529a0d3","ios":"levelo://app?vid=8ceb2860-ca09-420a-8aab-fcf0c529a0d3"},"vehicle_type_id":"4","last_reported":1751317775,"current_range_meters":13600,"station_id":"st_cvj6sg6p6f1abm77japg","pricing_plan_id":"cebpf4jnsgd1na2vs0mg"},{"bike_id":"d8facb10-b967-4a32-9b5c-8cfed4bbd05b","system_id":"levelo_inurba_marseille","lat":43.32136,"lon":5.36762,"is_reserved":false,"is_disabled":false,"rental_uris":{"android":"levelo://app?vid=d8facb10-b967-4a32-9b5c-8cfed4bbd05b","ios":"levelo://app?vid=d8facb10-b967-4a32-9b5c-8cfed4bbd05b"},"vehicle_type_id":"4","last_reported":1751317775,"current_range_meters":14000,"station_id":"","pricing_plan_id":"cebpf4jnsgd1na2vs0mg"},{"bike_id":"7a9156d4-5c75-4bf6-ba7c-db2f5b2613b9","system_id":"levelo_inurba_marseille","lat":43.28359,"lon":5.3802,"is_reserved":false,"is_disabled":false,"rental_uris":{"android":"levelo://app?vid=7a9156d4-5c75-4bf6-ba7c-db2f5b2613b9","ios":"levelo://app?vid=7a9156d4-5c75-4bf6-ba7c-db2f5b2613b9"},"vehicle_type_id":"4","last_reported":1751317775,"current_range_meters":14000,"station_id":"","pricing_plan_id":"cebpf4jnsgd1na2vs0mg"},{"bike_id":"8ac7bddf-7625-4edf-b38c-1762bea24ec0","system_id":"levelo_inurba_marseille","lat":43.28479,"lon":5.38407,"is_reserved":false,"is_disabled":false,"rental_uris":{"android":"levelo://app?vid=8ac7bddf-7625-4edf-b38c-1762bea24ec0","ios":"levelo://app?vid=8ac7bddf-7625-4edf-b38c-1762bea24ec0"},"vehicle_type_id":"4","last_reported":1751317775,"current_range_meters":14000,"station_id":"ce4bh512rcd13ifvqe3g","pricing_plan_id":"cebpf4jnsgd1na2vs0mg"},{"bike_id":"4b68ee52-258f-4ae6-ae49-d5d260d5170a","system_id":"levelo_inurba_marseille","lat":43.28476,"lon":5.38418,"is_reserved":false,"is_disabled":false,"rental_uris":{"android":"levelo://app?vid=4b68ee52-258f-4ae6-ae49-d5d260d5170a","ios":"levelo://app?vid=4b68ee52-258f-4ae6-ae49-d5d260d5170a"},"vehicle_type_id":"4","last_reported":1751317775,"current_range_meters":14000,"station_id":"ce4bh512rcd13ifvqe3g","pricing_plan_id":"cebpf4jnsgd1na2vs0mg"},{"bike_id":"4f97e136-2006-43b5-84b8-8ce28f4647e9","system_id":"levelo_inurba_marseille","lat":43.21187,"lon":5.35074,"is_reserved":false,"is_disabled":false,"rental_uris":{"android":"levelo://app?vid=4f97e136-2006-43b5-84b8-8ce28f4647e9","ios":"levelo://app?vid=4f97e136-2006-43b5-84b8-8ce28f4647e9"},"vehicle_type_id":"4","last_reported":1751317775,"current_range_meters":14000,"station_id":"st_cvj6sg6p6f1abm77japg","pricing_plan_id":"cebpf4jnsgd1na2vs0mg"},{"bike_id":"e73510d2-ee55-4209-979e-e0a4d815d4f4","system_id":"levelo_inurba_marseille","lat":43.30414,"lon":5.3888,"is_reserved":false,"is_disabled":false,"rental_uris":{"android":"levelo://app?vid=e73510d2-ee55-4209-979e-e0a4d815d4f4","ios":"levelo://app?vid=e73510d2-ee55-4209-979e-e0a4d815d4f4"},"vehicle_type_id":"4","last_reported":1751317775,"current_range_meters":14400,"station_id":"ce4bgk12rcd13ifvqbi0","pricing_plan_id":"cebpf4jnsgd1na2vs0mg"},{"bike_id":"c9fdb439-6484-498a-b59e-b65154afb662","system_id":"levelo_inurba_marseille","lat":43.29692,"lon":5.36603,"is_reserved":false,"is_disabled":false,"rental_uris":{"android":"levelo://app?vid=c9fdb439-6484-498a-b59e-b65154afb662","ios":"levelo://app?vid=c9fdb439-6484-498a-b59e-b65154afb662"},"vehicle_type_id":"4","last_reported":1751317775,"current_range_meters":14400,"station_id":"ce4bgn12rcd13ifvqbt0","pricing_plan_id":"cebpf4jnsgd1na2vs0mg"},{"bike_id":"0ce3c820-238e-4657-84ad-f17762b32083","system_id":"levelo_inurba_marseille","lat":43.30598,"lon":5.3723,"is_reserved":false,"is_disabled":false,"rental_uris":{"android":"levelo://app?vid=0ce3c820-238e-4657-84ad-f17762b32083","ios":"levelo://app?vid=0ce3c820-238e-4657-84ad-f17762b32083"},"vehicle_type_id":"4","last_reported":1751317775,"current_range_meters":14400,"station_id":"ce4bgqh2rcd13ifvqc4g","pricing_plan_id":"cebpf4jnsgd1na2vs0mg"},{"bike_id":"8f8104b5-acd8-42ef-8f6b-db4ade864981","system_id":"levelo_inurba_marseille","lat":43.31114,"lon":5.37768,"is_reserved":false,"is_disabled":false,"rental_uris":{"android":"levelo://app?vid=8f8104b5-acd8-42ef-8f6b-db4ade864981","ios":"levelo://app?vid=8f8104b5-acd8-42ef-8f6b-db4ade864981"},"vehicle_type_id":"4","last_reported":1751317775,"current_range_meters":14400,"station_id":"ce4bgt92rcd13ifvqcg0","pricing_plan_id":"cebpf4jnsgd1na2vs0mg"},{"bike_id":"d5b8fa1a-6adc-4fdb-98ae-42b535dd6442","system_id":"levelo_inurba_marseille","lat":43.30925,"lon":5.40145,"is_reserved":false,"is_disabled":false,"rental_uris":{"android":"levelo://app?vid=d5b8fa1a-6adc-4fdb-98ae-42b535dd6442","ios":"levelo://app?vid=d5b8fa1a-6adc-4fdb-98ae-42b535dd6442"},"vehicle_type_id":"4","last_reported":1751317775,"current_range_meters":14400,"station_id":"ce4bgvp2rcd13ifvqct0","pricing_plan_id":"cebpf4jnsgd1na2vs0mg"},{"bike_id":"4e2c5ecd-71e6-422f-8079-46254aeada4f","system_id":"levelo_inurba_marseille","lat":43.28848,"lon":5.35871,"is_reserved":false,"is_disabled":false,"rental_uris":{"android":"levelo://app?vid=4e2c5ecd-71e6-422f-8079-46254aeada4f","ios":"levelo://app?vid=4e2c5ecd-71e6-422f-8079-46254aeada4f"},"vehicle_type_id":"4","last_reported":1751317775,"current_range_meters":14400,"station_id":"ce4bhb12rcd13ifvqem0","pricing_plan_id":"cebpf4jnsgd1na2vs0mg"},{"bike_id":"64ca8c64-b6ff-4738-a408-8aff024cbc98","system_id":"levelo_inurba_marseille","lat":43.33609,"lon":5.41047,"is_reserved":false,"is_disabled":false,"rental_uris":{"android":"levelo://app?vid=64ca8c64-b6ff-4738-a408-8aff024cbc98","ios":"levelo://app?vid=64ca8c64-b6ff-4738-a408-8aff024cbc98"},"vehicle_type_id":"4","last_reported":1751317775,"current_range_meters":14400,"station_id":"ce4bhqh2rcd13ifvqhmg","pricing_plan_id":"cebpf4jnsgd1na2vs0mg"},{"bike_id":"64cf4897-88d2-46b9-994f-e4c449f50938","system_id":"levelo_inurba_marseille","lat":43.33022,"lon":5.3904,"is_reserved":false,"is_disabled":false,"rental_uris":{"android":"levelo://app?vid=64cf4897-88d2-46b9-994f-e4c449f50938","ios":"levelo://app?vid=64cf4897-88d2-46b9-994f-e4c449f50938"},"vehicle_type_id":"4","last_reported":1751317775,"current_range_meters":14400,"station_id":"ce4bhr92rcd13ifvqhrg","pricing_plan_id":"cebpf4jnsgd1na2vs0mg"},{"bike_id":"1cde891c-1672-4421-bf61-da5d8d0cdd6b","system_id":"levelo_inurba_marseille","lat":43.299763,"lon":5.371793,"is_reserved":false,"is_disabled":false,"rental_uris":{"android":"levelo://app?vid=1cde891c-1672-4421-bf61-da5d8d0cdd6b","ios":"levelo://app?vid=1cde891c-1672-4421-bf61-da5d8d0cdd6b"},"vehicle_type_id":"4","last_reported":1751317775,"current_range_meters":14800,"station_id":"ce4bgr92rcd13ifvqc7g","pricing_plan_id":"cebpf4jnsgd1na2vs0mg"},{"bike_id":"ef56af2f-739b-4071-a865-2862ea606449","system_id":"levelo_inurba_marseille","lat":43.273841,"lon":5.362503,"is_reserved":false,"is_disabled":false,"rental_uris":{"android":"levelo://app?vid=ef56af2f-739b-4071-a865-2862ea606449","ios":"levelo://app?vid=ef56af2f-739b-4071-a865-2862ea606449"},"vehicle_type_id":"4","last_reported":1751317775,"current_range_meters":14800,"station_id":"ce4bhbh2rcd13ifvqeo0","pricing_plan_id":"cebpf4jnsgd1na2vs0mg"},{"bike_id":"750f5cfa-157e-4240-9a5f-3afe50c900ac","system_id":"levelo_inurba_marseille","lat":43.25718,"lon":5.41834,"is_reserved":false,"is_disabled":false,"rental_uris":{"android":"levelo://app?vid=750f5cfa-157e-4240-9a5f-3afe50c900ac","ios":"levelo://app?vid=750f5cfa-157e-4240-9a5f-3afe50c900ac"},"vehicle_type_id":"4","last_reported":1751317775,"current_range_meters":15200,"station_id":"","pricing_plan_id":"cebpf4jnsgd1na2vs0mg"},{"bike_id":"21a58936-10e0-4ed2-8a75-43f9d9d7145f","system_id":"levelo_inurba_marseille","lat":43.29198,"lon":5.38532,"is_reserved":false,"is_disabled":false,"rental_uris":{"android":"levelo://app?vid=21a58936-10e0-4ed2-8a75-43f9d9d7145f","ios":"levelo://app?vid=21a58936-10e0-4ed2-8a75-43f9d9d7145f"},"vehicle_type_id":"4","last_reported":1751317775,"current_range_meters":15200,"station_id":"","pricing_plan_id":"cebpf4jnsgd1na2vs0mg"},{"bike_id":"0f95fd5c-bc38-401f-9248-4db92f6f2097","system_id":"levelo_inurba_marseille","lat":43.29773,"lon":5.37109,"is_reserved":false,"is_disabled":false,"rental_uris":{"android":"levelo://app?vid=0f95fd5c-bc38-401f-9248-4db92f6f2097","ios":"levelo://app?vid=0f95fd5c-bc38-401f-9248-4db92f6f2097"},"vehicle_type_id":"4","last_reported":1751317775,"current_range_meters":15200,"station_id":"ce4bgop2rcd13ifvqc1g","pricing_plan_id":"cebpf4jnsgd1na2vs0mg"},{"bike_id":"0ac13da7-60dc-4d7b-8c35-2842246345cd","system_id":"levelo_inurba_marseille","lat":43.26183,"lon":5.37453,"is_reserved":false,"is_disabled":false,"rental_uris":{"android":"levelo://app?vid=0ac13da7-60dc-4d7b-8c35-2842246345cd","ios":"levelo://app?vid=0ac13da7-60dc-4d7b-8c35-2842246345cd"},"vehicle_type_id":"4","last_reported":1751317775,"current_range_meters":15200,"station_id":"ce4bhgp2rcd13ifvqfc0","pricing_plan_id":"cebpf4jnsgd1na2vs0mg"},{"bike_id":"d5da5bd9-7c2a-48e5-92aa-fa21076cad13","system_id":"levelo_inurba_marseille","lat":43.21193,"lon":5.35077,"is_reserved":false,"is_disabled":false,"rental_uris":{"android":"levelo://app?vid=d5da5bd9-7c2a-48e5-92aa-fa21076cad13","ios":"levelo://app?vid=d5da5bd9-7c2a-48e5-92aa-fa21076cad13"},"vehicle_type_id":"4","last_reported":1751317775,"current_range_meters":15200,"station_id":"st_cvj6sg6p6f1abm77japg","pricing_plan_id":"cebpf4jnsgd1na2vs0mg"},{"bike_id":"bf8062ca-3aa5-46b7-8b10-87dd3c2fbabf","system_id":"levelo_inurba_marseille","lat":43.288437,"lon":5.393039,"is_reserved":false,"is_disabled":false,"rental_uris":{"android":"levelo://app?vid=bf8062ca-3aa5-46b7-8b10-87dd3c2fbabf","ios":"levelo://app?vid=bf8062ca-3aa5-46b7-8b10-87dd3c2fbabf"},"vehicle_type_id":"4","last_reported":1751317775,"current_range_meters":16000,"station_id":"ce4bh2p2rcd13ifvqdi0","pricing_plan_id":"cebpf4jnsgd1na2vs0mg"},{"bike_id":"7fab2dbb-6b64-4875-a9bf-fac4311af464","system_id":"levelo_inurba_marseille","lat":43.2868,"lon":5.38664,"is_reserved":false,"is_disabled":false,"rental_uris":{"android":"levelo://app?vid=7fab2dbb-6b64-4875-a9bf-fac4311af464","ios":"levelo://app?vid=7fab2dbb-6b64-4875-a9bf-fac4311af464"},"vehicle_type_id":"4","last_reported":1751317775,"current_range_meters":16000,"station_id":"ce4bh492rcd13ifvqdug","pricing_plan_id":"cebpf4jnsgd1na2vs0mg"},{"bike_id":"3b60eaf6-3ca1-4dbd-8697-ee59acc432d4","system_id":"levelo_inurba_marseille","lat":43.32105,"lon":5.36772,"is_reserved":false,"is_disabled":false,"rental_uris":{"android":"levelo://app?vid=3b60eaf6-3ca1-4dbd-8697-ee59acc432d4","ios":"levelo://app?vid=3b60eaf6-3ca1-4dbd-8697-ee59acc432d4"},"vehicle_type_id":"4","last_reported":1751317775,"current_range_meters":16000,"station_id":"ce4bhrh2rcd13ifvqhug","pricing_plan_id":"cebpf4jnsgd1na2vs0mg"},{"bike_id":"589cc618-a72b-4e3b-b7e3-8dfa918762f4","system_id":"levelo_inurba_marseille","lat":43.241703,"lon":5.363986,"is_reserved":false,"is_disabled":false,"rental_uris":{"android":"levelo://app?vid=589cc618-a72b-4e3b-b7e3-8dfa918762f4","ios":"levelo://app?vid=589cc618-a72b-4e3b-b7e3-8dfa918762f4"},"vehicle_type_id":"4","last_reported":1751317775,"current_range_meters":16000,"station_id":"cpo36qri1sfpv3e86is0","pricing_plan_id":"cebpf4jnsgd1na2vs0mg"},{"bike_id":"e552832c-7ca2-4106-b0f9-92bbabda27d1","system_id":"levelo_inurba_marseille","lat":43.21204,"lon":5.35045,"is_reserved":false,"is_disabled":false,"rental_uris":{"android":"levelo://app?vid=e552832c-7ca2-4106-b0f9-92bbabda27d1","ios":"levelo://app?vid=e552832c-7ca2-4106-b0f9-92bbabda27d1"},"vehicle_type_id":"4","last_reported":1751317775,"current_range_meters":16000,"station_id":"st_cvj6sg6p6f1abm77japg","pricing_plan_id":"cebpf4jnsgd1na2vs0mg"},{"bike_id":"88a0056b-0eb0-4b60-8856-e8ef1a0c5a77","system_id":"levelo_inurba_marseille","lat":43.29369,"lon":5.37848,"is_reserved":false,"is_disabled":false,"rental_uris":{"android":"levelo://app?vid=88a0056b-0eb0-4b60-8856-e8ef1a0c5a77","ios":"levelo://app?vid=88a0056b-0eb0-4b60-8856-e8ef1a0c5a77"},"vehicle_type_id":"4","last_reported":1751317775,"current_range_meters":16400,"station_id":"ce4bgjh2rcd13ifvqbf0","pricing_plan_id":"cebpf4jnsgd1na2vs0mg"},{"bike_id":"53505829-f0fb-4408-8fe8-12b5f9782c3a","system_id":"levelo_inurba_marseille","lat":43.29959,"lon":5.37201,"is_reserved":false,"is_disabled":false,"rental_uris":{"android":"levelo://app?vid=53505829-f0fb-4408-8fe8-12b5f9782c3a","ios":"levelo://app?vid=53505829-f0fb-4408-8fe8-12b5f9782c3a"},"vehicle_type_id":"4","last_reported":1751317775,"current_range_meters":16400,"station_id":"ce4bgr92rcd13ifvqc7g","pricing_plan_id":"cebpf4jnsgd1na2vs0mg"},{"bike_id":"c2b72fe0-bae6-4c7b-ad48-9e771b203dc8","system_id":"levelo_inurba_marseille","lat":43.31352,"lon":5.38457,"is_reserved":false,"is_disabled":false,"rental_uris":{"android":"levelo://app?vid=c2b72fe0-bae6-4c7b-ad48-9e771b203dc8","ios":"levelo://app?vid=c2b72fe0-bae6-4c7b-ad48-9e771b203dc8"},"vehicle_type_id":"4","last_reported":1751317775,"current_range_meters":16400,"station_id":"ce4bgt92rcd13ifvqcf0","pricing_plan_id":"cebpf4jnsgd1na2vs0mg"},{"bike_id":"74579ba7-a3fc-4424-9db9-60d1b1fa5bb5","system_id":"levelo_inurba_marseille","lat":43.27978,"lon":5.38739,"is_reserved":false,"is_disabled":false,"rental_uris":{"android":"levelo://app?vid=74579ba7-a3fc-4424-9db9-60d1b1fa5bb5","ios":"levelo://app?vid=74579ba7-a3fc-4424-9db9-60d1b1fa5bb5"},"vehicle_type_id":"4","last_reported":1751317775,"current_range_meters":16400,"station_id":"ce4bhg12rcd13ifvqf80","pricing_plan_id":"cebpf4jnsgd1na2vs0mg"},{"bike_id":"66b02702-1400-4f82-9fa9-b2a3b012550c","system_id":"levelo_inurba_marseille","lat":43.2749,"lon":5.42461,"is_reserved":false,"is_disabled":false,"rental_uris":{"android":"levelo://app?vid=66b02702-1400-4f82-9fa9-b2a3b012550c","ios":"levelo://app?vid=66b02702-1400-4f82-9fa9-b2a3b012550c"},"vehicle_type_id":"4","last_reported":1751317775,"current_range_meters":16400,"station_id":"ce4bhn92rcd13ifvqgrg","pricing_plan_id":"cebpf4jnsgd1na2vs0mg"},{"bike_id":"b13877a6-4825-4d82-b46b-67fa8ad66c5d","system_id":"levelo_inurba_marseille","lat":43.21179,"lon":5.35095,"is_reserved":false,"is_disabled":false,"rental_uris":{"android":"levelo://app?vid=b13877a6-4825-4d82-b46b-67fa8ad66c5d","ios":"levelo://app?vid=b13877a6-4825-4d82-b46b-67fa8ad66c5d"},"vehicle_type_id":"4","last_reported":1751317775,"current_range_meters":16400,"station_id":"st_cvj6sg6p6f1abm77japg","pricing_plan_id":"cebpf4jnsgd1na2vs0mg"},{"bike_id":"cc00e40a-c5cc-4f6a-acb6-8fdcb4bdc87a","system_id":"levelo_inurba_marseille","lat":43.211914,"lon":5.350775,"is_reserved":false,"is_disabled":false,"rental_uris":{"android":"levelo://app?vid=cc00e40a-c5cc-4f6a-acb6-8fdcb4bdc87a","ios":"levelo://app?vid=cc00e40a-c5cc-4f6a-acb6-8fdcb4bdc87a"},"vehicle_type_id":"4","last_reported":1751317775,"current_range_meters":16400,"station_id":"st_cvj6sg6p6f1abm77japg","pricing_plan_id":"cebpf4jnsgd1na2vs0mg"},{"bike_id":"af881e8c-36fa-4641-be44-2255de792b0f","system_id":"levelo_inurba_marseille","lat":43.2953,"lon":5.38557,"is_reserved":false,"is_disabled":false,"rental_uris":{"android":"levelo://app?vid=af881e8c-36fa-4641-be44-2255de792b0f","ios":"levelo://app?vid=af881e8c-36fa-4641-be44-2255de792b0f"},"vehicle_type_id":"4","last_reported":1751317775,"current_range_meters":16800,"station_id":"ce4bgih2rcd13ifvqba0","pricing_plan_id":"cebpf4jnsgd1na2vs0mg"},{"bike_id":"e840d036-638e-44d6-bdb0-6425b8097043","system_id":"levelo_inurba_marseille","lat":43.288391,"lon":5.393153,"is_reserved":false,"is_disabled":false,"rental_uris":{"android":"levelo://app?vid=e840d036-638e-44d6-bdb0-6425b8097043","ios":"levelo://app?vid=e840d036-638e-44d6-bdb0-6425b8097043"},"vehicle_type_id":"4","last_reported":1751317775,"current_range_meters":16800,"station_id":"ce4bh2p2rcd13ifvqdi0","pricing_plan_id":"cebpf4jnsgd1na2vs0mg"},{"bike_id":"f603f3aa-5bf7-4a19-a8a1-b47909f854c7","system_id":"levelo_inurba_marseille","lat":43.21178,"lon":5.35078,"is_reserved":false,"is_disabled":false,"rental_uris":{"android":"levelo://app?vid=f603f3aa-5bf7-4a19-a8a1-b47909f854c7","ios":"levelo://app?vid=f603f3aa-5bf7-4a19-a8a1-b47909f854c7"},"vehicle_type_id":"4","last_reported":1751317775,"current_range_meters":16800,"station_id":"st_cvj6sg6p6f1abm77japg","pricing_plan_id":"cebpf4jnsgd1na2vs0mg"},{"bike_id":"a0cef316-ad95-4855-8f78-a31341a2b90e","system_id":"levelo_inurba_marseille","lat":43.33139,"lon":5.37865,"is_reserved":false,"is_disabled":false,"rental_uris":{"android":"levelo://app?vid=a0cef316-ad95-4855-8f78-a31341a2b90e","ios":"levelo://app?vid=a0cef316-ad95-4855-8f78-a31341a2b90e"},"vehicle_type_id":"4","last_reported":1751317775,"current_range_meters":17200,"station_id":"","pricing_plan_id":"cebpf4jnsgd1na2vs0mg"},{"bike_id":"a36bad2f-1baa-4546-9785-f208e64bdda7","system_id":"levelo_inurba_marseille","lat":43.29532,"lon":5.38539,"is_reserved":false,"is_disabled":false,"rental_uris":{"android":"levelo://app?vid=a36bad2f-1baa-4546-9785-f208e64bdda7","ios":"levelo://app?vid=a36bad2f-1baa-4546-9785-f208e64bdda7"},"vehicle_type_id":"4","last_reported":1751317775,"current_range_meters":17200,"station_id":"ce4bgih2rcd13ifvqba0","pricing_plan_id":"cebpf4jnsgd1na2vs0mg"},{"bike_id":"f29f6164-965b-427f-a703-e4fc68c477aa","system_id":"levelo_inurba_marseille","lat":43.31364,"lon":5.38488,"is_reserved":false,"is_disabled":false,"rental_uris":{"android":"levelo://app?vid=f29f6164-965b-427f-a703-e4fc68c477aa","ios":"levelo://app?vid=f29f6164-965b-427f-a703-e4fc68c477aa"},"vehicle_type_id":"4","last_reported":1751317775,"current_range_meters":17200,"station_id":"ce4bgt92rcd13ifvqcf0","pricing_plan_id":"cebpf4jnsgd1na2vs0mg"},{"bike_id":"032b435e-f0d2-4da8-a248-a388b7a42f0b","system_id":"levelo_inurba_marseille","lat":43.29628,"lon":5.40597,"is_reserved":false,"is_disabled":false,"rental_uris":{"android":"levelo://app?vid=032b435e-f0d2-4da8-a248-a388b7a42f0b","ios":"levelo://app?vid=032b435e-f0d2-4da8-a248-a388b7a42f0b"},"vehicle_type_id":"4","last_reported":1751317775,"current_range_meters":17200,"station_id":"ce4bh0h2rcd13ifvqd60","pricing_plan_id":"cebpf4jnsgd1na2vs0mg"},{"bike_id":"c83e9db8-5fed-4611-bc87-4449cb116df6","system_id":"levelo_inurba_marseille","lat":43.3021,"lon":5.39465,"is_reserved":false,"is_disabled":false,"rental_uris":{"android":"levelo://app?vid=c83e9db8-5fed-4611-bc87-4449cb116df6","ios":"levelo://app?vid=c83e9db8-5fed-4611-bc87-4449cb116df6"},"vehicle_type_id":"4","last_reported":1751317775,"current_range_meters":17200,"station_id":"ce4bh0p2rcd13ifvqd70","pricing_plan_id":"cebpf4jnsgd1na2vs0mg"},{"bike_id":"8388e04b-50a7-42fa-85e8-7b98fe0fb69d","system_id":"levelo_inurba_marseille","lat":43.29519,"lon":5.39388,"is_reserved":false,"is_disabled":false,"rental_uris":{"android":"levelo://app?vid=8388e04b-50a7-42fa-85e8-7b98fe0fb69d","ios":"levelo://app?vid=8388e04b-50a7-42fa-85e8-7b98fe0fb69d"},"vehicle_type_id":"4","last_reported":1751317775,"current_range_meters":17200,"station_id":"ce4bh292rcd13ifvqdf0","pricing_plan_id":"cebpf4jnsgd1na2vs0mg"},{"bike_id":"f610f114-c0ca-4f2e-84ff-07a24d51f2d3","system_id":"levelo_inurba_marseille","lat":43.28702,"lon":5.37933,"is_reserved":false,"is_disabled":false,"rental_uris":{"android":"levelo://app?vid=f610f114-c0ca-4f2e-84ff-07a24d51f2d3","ios":"levelo://app?vid=f610f114-c0ca-4f2e-84ff-07a24d51f2d3"},"vehicle_type_id":"4","last_reported":1751317775,"current_range_meters":17200,"station_id":"ce4bh9p2rcd13ifvqec0","pricing_plan_id":"cebpf4jnsgd1na2vs0mg"},{"bike_id":"a2864fe7-1184-48ae-a023-a28908a07e8e","system_id":"levelo_inurba_marseille","lat":43.27494,"lon":5.42451,"is_reserved":false,"is_disabled":false,"rental_uris":{"android":"levelo://app?vid=a2864fe7-1184-48ae-a023-a28908a07e8e","ios":"levelo://app?vid=a2864fe7-1184-48ae-a023-a28908a07e8e"},"vehicle_type_id":"4","last_reported":1751317775,"current_range_meters":17200,"station_id":"ce4bhn92rcd13ifvqgrg","pricing_plan_id":"cebpf4jnsgd1na2vs0mg"},{"bike_id":"d67ecffe-4463-4724-8c61-0e1fce7455b0","system_id":"levelo_inurba_marseille","lat":43.32366,"lon":5.38884,"is_reserved":false,"is_disabled":false,"rental_uris":{"android":"levelo://app?vid=d67ecffe-4463-4724-8c61-0e1fce7455b0","ios":"levelo://app?vid=d67ecffe-4463-4724-8c61-0e1fce7455b0"},"vehicle_type_id":"4","last_reported":1751317775,"current_range_meters":17200,"station_id":"ce4bhqp2rcd13ifvqhog","pricing_plan_id":"cebpf4jnsgd1na2vs0mg"},{"bike_id":"c0228700-5312-4a39-89af-ec53a5d729c5","system_id":"levelo_inurba_marseille","lat":43.28318,"lon":5.43232,"is_reserved":false,"is_disabled":false,"rental_uris":{"android":"levelo://app?vid=c0228700-5312-4a39-89af-ec53a5d729c5","ios":"levelo://app?vid=c0228700-5312-4a39-89af-ec53a5d729c5"},"vehicle_type_id":"4","last_reported":1751317775,"current_range_meters":17600,"station_id":"","pricing_plan_id":"cebpf4jnsgd1na2vs0mg"},{"bike_id":"35ba7b72-93ab-4268-b5e4-10bf834fb9bb","system_id":"levelo_inurba_marseille","lat":43.301431,"lon":5.374157,"is_reserved":false,"is_disabled":false,"rental_uris":{"android":"levelo://app?vid=35ba7b72-93ab-4268-b5e4-10bf834fb9bb","ios":"levelo://app?vid=35ba7b72-93ab-4268-b5e4-10bf834fb9bb"},"vehicle_type_id":"4","last_reported":1751317775,"current_range_meters":17600,"station_id":"ce4bgs92rcd13ifvqcc0","pricing_plan_id":"cebpf4jnsgd1na2vs0mg"},{"bike_id":"1aa2dddc-bcee-4414-8896-af0534eeb99c","system_id":"levelo_inurba_marseille","lat":43.30897,"lon":5.37203,"is_reserved":false,"is_disabled":false,"rental_uris":{"android":"levelo://app?vid=1aa2dddc-bcee-4414-8896-af0534eeb99c","ios":"levelo://app?vid=1aa2dddc-bcee-4414-8896-af0534eeb99c"},"vehicle_type_id":"4","last_reported":1751317775,"current_range_meters":17600,"station_id":"ce4bguh2rcd13ifvqckg","pricing_plan_id":"cebpf4jnsgd1na2vs0mg"},{"bike_id":"58a5b5d0-9167-4605-8ba9-a708fc45dc03","system_id":"levelo_inurba_marseille","lat":43.313232,"lon":5.39686,"is_reserved":false,"is_disabled":false,"rental_uris":{"android":"levelo://app?vid=58a5b5d0-9167-4605-8ba9-a708fc45dc03","ios":"levelo://app?vid=58a5b5d0-9167-4605-8ba9-a708fc45dc03"},"vehicle_type_id":"4","last_reported":1751317775,"current_range_meters":17600,"station_id":"ce4bgvp2rcd13ifvqcu0","pricing_plan_id":"cebpf4jnsgd1na2vs0mg"},{"bike_id":"a9fcef3f-57b6-4d72-8d84-ecb640cc6df5","system_id":"levelo_inurba_marseille","lat":43.29294,"lon":5.38428,"is_reserved":false,"is_disabled":false,"rental_uris":{"android":"levelo://app?vid=a9fcef3f-57b6-4d72-8d84-ecb640cc6df5","ios":"levelo://app?vid=a9fcef3f-57b6-4d72-8d84-ecb640cc6df5"},"vehicle_type_id":"4","last_reported":1751317775,"current_range_meters":17600,"station_id":"ce4bh692rcd13ifvqea0","pricing_plan_id":"cebpf4jnsgd1na2vs0mg"},{"bike_id":"89468642-e3e5-4617-8147-6859ea4c11dc","system_id":"levelo_inurba_marseille","lat":43.27888,"lon":5.38003,"is_reserved":false,"is_disabled":false,"rental_uris":{"android":"levelo://app?vid=89468642-e3e5-4617-8147-6859ea4c11dc","ios":"levelo://app?vid=89468642-e3e5-4617-8147-6859ea4c11dc"},"vehicle_type_id":"4","last_reported":1751317775,"current_range_meters":17600,"station_id":"ce4bhf92rcd13ifvqf50","pricing_plan_id":"cebpf4jnsgd1na2vs0mg"},{"bike_id":"bf73cef4-064e-4025-a093-ce9f38bf6482","system_id":"levelo_inurba_marseille","lat":43.255,"lon":5.37654,"is_reserved":false,"is_disabled":false,"rental_uris":{"android":"levelo://app?vid=bf73cef4-064e-4025-a093-ce9f38bf6482","ios":"levelo://app?vid=bf73cef4-064e-4025-a093-ce9f38bf6482"},"vehicle_type_id":"4","last_reported":1751317775,"current_range_meters":17600,"station_id":"ce4bhh12rcd13ifvqff0","pricing_plan_id":"cebpf4jnsgd1na2vs0mg"},{"bike_id":"d0b2f4a7-e242-4703-926d-40f0be1abcaa","system_id":"levelo_inurba_marseille","lat":43.24656,"lon":5.38152,"is_reserved":false,"is_disabled":false,"rental_uris":{"android":"levelo://app?vid=d0b2f4a7-e242-4703-926d-40f0be1abcaa","ios":"levelo://app?vid=d0b2f4a7-e242-4703-926d-40f0be1abcaa"},"vehicle_type_id":"4","last_reported":1751317775,"current_range_meters":17600,"station_id":"ce4bhih2rcd13ifvqfr0","pricing_plan_id":"cebpf4jnsgd1na2vs0mg"},{"bike_id":"0a5a6df3-791d-4e1e-9f7c-cb1cf013a1c7","system_id":"levelo_inurba_marseille","lat":43.25709,"lon":5.4113,"is_reserved":false,"is_disabled":false,"rental_uris":{"android":"levelo://app?vid=0a5a6df3-791d-4e1e-9f7c-cb1cf013a1c7","ios":"levelo://app?vid=0a5a6df3-791d-4e1e-9f7c-cb1cf013a1c7"},"vehicle_type_id":"4","last_reported":1751317775,"current_range_meters":17600,"station_id":"ce4bhkp2rcd13ifvqgd0","pricing_plan_id":"cebpf4jnsgd1na2vs0mg"},{"bike_id":"8ba75751-6897-4b5f-994c-8346ca99dddd","system_id":"levelo_inurba_marseille","lat":43.326582,"lon":5.409914,"is_reserved":false,"is_disabled":false,"rental_uris":{"android":"levelo://app?vid=8ba75751-6897-4b5f-994c-8346ca99dddd","ios":"levelo://app?vid=8ba75751-6897-4b5f-994c-8346ca99dddd"},"vehicle_type_id":"4","last_reported":1751317775,"current_range_meters":17600,"station_id":"ce4bhpp2rcd13ifvqhgg","pricing_plan_id":"cebpf4jnsgd1na2vs0mg"},{"bike_id":"6000b31a-c9a0-413a-a8ca-a6fd804f263b","system_id":"levelo_inurba_marseille","lat":43.30936,"lon":5.40139,"is_reserved":false,"is_disabled":false,"rental_uris":{"android":"levelo://app?vid=6000b31a-c9a0-413a-a8ca-a6fd804f263b","ios":"levelo://app?vid=6000b31a-c9a0-413a-a8ca-a6fd804f263b"},"vehicle_type_id":"4","last_reported":1751317775,"current_range_meters":18000,"station_id":"ce4bgvp2rcd13ifvqct0","pricing_plan_id":"cebpf4jnsgd1na2vs0mg"},{"bike_id":"597d6c22-d2db-47c9-b69a-564f51b2a20e","system_id":"levelo_inurba_marseille","lat":43.2892,"lon":5.38403,"is_reserved":false,"is_disabled":false,"rental_uris":{"android":"levelo://app?vid=597d6c22-d2db-47c9-b69a-564f51b2a20e","ios":"levelo://app?vid=597d6c22-d2db-47c9-b69a-564f51b2a20e"},"vehicle_type_id":"4","last_reported":1751317775,"current_range_meters":18000,"station_id":"ce4bh612rcd13ifvqe6g","pricing_plan_id":"cebpf4jnsgd1na2vs0mg"},{"bike_id":"8a377326-9ca2-43e9-aba4-c1be080dbfa4","system_id":"levelo_inurba_marseille","lat":43.29168,"lon":5.37153,"is_reserved":false,"is_disabled":false,"rental_uris":{"android":"levelo://app?vid=8a377326-9ca2-43e9-aba4-c1be080dbfa4","ios":"levelo://app?vid=8a377326-9ca2-43e9-aba4-c1be080dbfa4"},"vehicle_type_id":"4","last_reported":1751317775,"current_range_meters":18000,"station_id":"ce4bha92rcd13ifvqeh0","pricing_plan_id":"cebpf4jnsgd1na2vs0mg"},{"bike_id":"32b5c769-c750-499c-b572-76609fe788e1","system_id":"levelo_inurba_marseille","lat":43.25487,"lon":5.37666,"is_reserved":false,"is_disabled":false,"rental_uris":{"android":"levelo://app?vid=32b5c769-c750-499c-b572-76609fe788e1","ios":"levelo://app?vid=32b5c769-c750-499c-b572-76609fe788e1"},"vehicle_type_id":"4","last_reported":1751317775,"current_range_meters":18000,"station_id":"ce4bhh12rcd13ifvqff0","pricing_plan_id":"cebpf4jnsgd1na2vs0mg"},{"bike_id":"8ad53220-e0dc-4223-912a-b0b7e0e87b8e","system_id":"levelo_inurba_marseille","lat":43.24535,"lon":5.39493,"is_reserved":false,"is_disabled":false,"rental_uris":{"android":"levelo://app?vid=8ad53220-e0dc-4223-912a-b0b7e0e87b8e","ios":"levelo://app?vid=8ad53220-e0dc-4223-912a-b0b7e0e87b8e"},"vehicle_type_id":"4","last_reported":1751317775,"current_range_meters":18000,"station_id":"ce4bhlp2rcd13ifvqgjg","pricing_plan_id":"cebpf4jnsgd1na2vs0mg"},{"bike_id":"d784bd92-369a-4f8c-8a6f-a2c83af9a2f8","system_id":"levelo_inurba_marseille","lat":43.25093,"lon":5.39526,"is_reserved":false,"is_disabled":false,"rental_uris":{"android":"levelo://app?vid=d784bd92-369a-4f8c-8a6f-a2c83af9a2f8","ios":"levelo://app?vid=d784bd92-369a-4f8c-8a6f-a2c83af9a2f8"},"vehicle_type_id":"4","last_reported":1751317775,"current_range_meters":18000,"station_id":"ce4bhm12rcd13ifvqgkg","pricing_plan_id":"cebpf4jnsgd1na2vs0mg"},{"bike_id":"1caca1fc-4911-4e37-9aeb-383803780faf","system_id":"levelo_inurba_marseille","lat":43.32091,"lon":5.36764,"is_reserved":false,"is_disabled":false,"rental_uris":{"android":"levelo://app?vid=1caca1fc-4911-4e37-9aeb-383803780faf","ios":"levelo://app?vid=1caca1fc-4911-4e37-9aeb-383803780faf"},"vehicle_type_id":"4","last_reported":1751317775,"current_range_meters":18000,"station_id":"ce4bhrh2rcd13ifvqhug","pricing_plan_id":"cebpf4jnsgd1na2vs0mg"},{"bike_id":"5767b9e4-81ec-40bf-bccc-db289ba35b4e","system_id":"levelo_inurba_marseille","lat":43.27411,"lon":5.41224,"is_reserved":false,"is_disabled":false,"rental_uris":{"android":"levelo://app?vid=5767b9e4-81ec-40bf-bccc-db289ba35b4e","ios":"levelo://app?vid=5767b9e4-81ec-40bf-bccc-db289ba35b4e"},"vehicle_type_id":"4","last_reported":1751317775,"current_range_meters":18800,"station_id":"","pricing_plan_id":"cebpf4jnsgd1na2vs0mg"},{"bike_id":"991d1c6e-0c19-4735-9f67-60cf65307509","system_id":"levelo_inurba_marseille","lat":43.29919,"lon":5.38144,"is_reserved":false,"is_disabled":false,"rental_uris":{"android":"levelo://app?vid=991d1c6e-0c19-4735-9f67-60cf65307509","ios":"levelo://app?vid=991d1c6e-0c19-4735-9f67-60cf65307509"},"vehicle_type_id":"4","last_reported":1751317775,"current_range_meters":18800,"station_id":"ce4bgj12rcd13ifvqbc0","pricing_plan_id":"cebpf4jnsgd1na2vs0mg"},{"bike_id":"55775dd4-ef16-490c-9e3f-609881a6c51d","system_id":"levelo_inurba_marseille","lat":43.30144,"lon":5.3742,"is_reserved":false,"is_disabled":false,"rental_uris":{"android":"levelo://app?vid=55775dd4-ef16-490c-9e3f-609881a6c51d","ios":"levelo://app?vid=55775dd4-ef16-490c-9e3f-609881a6c51d"},"vehicle_type_id":"4","last_reported":1751317775,"current_range_meters":18800,"station_id":"ce4bgs92rcd13ifvqcc0","pricing_plan_id":"cebpf4jnsgd1na2vs0mg"},{"bike_id":"c8542b34-a211-4fd0-a74b-85a27b3ff274","system_id":"levelo_inurba_marseille","lat":43.25714,"lon":5.41111,"is_reserved":false,"is_disabled":false,"rental_uris":{"android":"levelo://app?vid=c8542b34-a211-4fd0-a74b-85a27b3ff274","ios":"levelo://app?vid=c8542b34-a211-4fd0-a74b-85a27b3ff274"},"vehicle_type_id":"4","last_reported":1751317775,"current_range_meters":18800,"station_id":"ce4bhkp2rcd13ifvqgd0","pricing_plan_id":"cebpf4jnsgd1na2vs0mg"},{"bike_id":"86fa6ce7-8cbe-47ff-b5d3-c2b4938fd05c","system_id":"levelo_inurba_marseille","lat":43.21177,"lon":5.35082,"is_reserved":false,"is_disabled":false,"rental_uris":{"android":"levelo://app?vid=86fa6ce7-8cbe-47ff-b5d3-c2b4938fd05c","ios":"levelo://app?vid=86fa6ce7-8cbe-47ff-b5d3-c2b4938fd05c"},"vehicle_type_id":"4","last_reported":1751317775,"current_range_meters":18800,"station_id":"st_cvj6sg6p6f1abm77japg","pricing_plan_id":"cebpf4jnsgd1na2vs0mg"},{"bike_id":"97cc0eb9-7c0d-42b3-b8bc-0d957723f159","system_id":"levelo_inurba_marseille","lat":43.24379,"lon":5.37009,"is_reserved":false,"is_disabled":false,"rental_uris":{"android":"levelo://app?vid=97cc0eb9-7c0d-42b3-b8bc-0d957723f159","ios":"levelo://app?vid=97cc0eb9-7c0d-42b3-b8bc-0d957723f159"},"vehicle_type_id":"4","last_reported":1751317775,"current_range_meters":19200,"station_id":"","pricing_plan_id":"cebpf4jnsgd1na2vs0mg"},{"bike_id":"5874e202-d4a4-453b-a683-7ae1af5d78c8","system_id":"levelo_inurba_marseille","lat":43.31169,"lon":5.38713,"is_reserved":false,"is_disabled":false,"rental_uris":{"android":"levelo://app?vid=5874e202-d4a4-453b-a683-7ae1af5d78c8","ios":"levelo://app?vid=5874e202-d4a4-453b-a683-7ae1af5d78c8"},"vehicle_type_id":"4","last_reported":1751317775,"current_range_meters":19200,"station_id":"ce4bgv12rcd13ifvqcp0","pricing_plan_id":"cebpf4jnsgd1na2vs0mg"},{"bike_id":"0e637dc2-a00c-4577-8c31-56fb97eba2d7","system_id":"levelo_inurba_marseille","lat":43.29253,"lon":5.40907,"is_reserved":false,"is_disabled":false,"rental_uris":{"android":"levelo://app?vid=0e637dc2-a00c-4577-8c31-56fb97eba2d7","ios":"levelo://app?vid=0e637dc2-a00c-4577-8c31-56fb97eba2d7"},"vehicle_type_id":"4","last_reported":1751317775,"current_range_meters":19200,"station_id":"ce4bh192rcd13ifvqdc0","pricing_plan_id":"cebpf4jnsgd1na2vs0mg"},{"bike_id":"d2f72e45-6b0c-4b36-9924-deef3cd98510","system_id":"levelo_inurba_marseille","lat":43.274926,"lon":5.424536,"is_reserved":false,"is_disabled":false,"rental_uris":{"android":"levelo://app?vid=d2f72e45-6b0c-4b36-9924-deef3cd98510","ios":"levelo://app?vid=d2f72e45-6b0c-4b36-9924-deef3cd98510"},"vehicle_type_id":"4","last_reported":1751317775,"current_range_meters":19200,"station_id":"ce4bhn92rcd13ifvqgrg","pricing_plan_id":"cebpf4jnsgd1na2vs0mg"},{"bike_id":"bb31cf0c-ca16-409b-a771-f1772ba61197","system_id":"levelo_inurba_marseille","lat":43.29796,"lon":5.39335,"is_reserved":false,"is_disabled":false,"rental_uris":{"android":"levelo://app?vid=bb31cf0c-ca16-409b-a771-f1772ba61197","ios":"levelo://app?vid=bb31cf0c-ca16-409b-a771-f1772ba61197"},"vehicle_type_id":"4","last_reported":1751317775,"current_range_meters":19200,"station_id":"chh1huq6cuj3fo74tm60","pricing_plan_id":"cebpf4jnsgd1na2vs0mg"},{"bike_id":"3a33ebd2-49a2-4e39-92d7-f09d7dd08672","system_id":"levelo_inurba_marseille","lat":43.21217,"lon":5.35083,"is_reserved":false,"is_disabled":false,"rental_uris":{"android":"levelo://app?vid=3a33ebd2-49a2-4e39-92d7-f09d7dd08672","ios":"levelo://app?vid=3a33ebd2-49a2-4e39-92d7-f09d7dd08672"},"vehicle_type_id":"4","last_reported":1751317775,"current_range_meters":19200,"station_id":"st_cvj6sg6p6f1abm77japg","pricing_plan_id":"cebpf4jnsgd1na2vs0mg"},{"bike_id":"7cfdcbe5-5323-493b-8434-77ae240e1e02","system_id":"levelo_inurba_marseille","lat":43.31071,"lon":5.38356,"is_reserved":false,"is_disabled":false,"rental_uris":{"android":"levelo://app?vid=7cfdcbe5-5323-493b-8434-77ae240e1e02","ios":"levelo://app?vid=7cfdcbe5-5323-493b-8434-77ae240e1e02"},"vehicle_type_id":"4","last_reported":1751317775,"current_range_meters":19600,"station_id":"ce4bgv92rcd13ifvqcr0","pricing_plan_id":"cebpf4jnsgd1na2vs0mg"},{"bike_id":"fceb16de-6a79-427a-b828-bfdb30836d2e","system_id":"levelo_inurba_marseille","lat":43.23184,"lon":5.39984,"is_reserved":false,"is_disabled":false,"rental_uris":{"android":"levelo://app?vid=fceb16de-6a79-427a-b828-bfdb30836d2e","ios":"levelo://app?vid=fceb16de-6a79-427a-b828-bfdb30836d2e"},"vehicle_type_id":"4","last_reported":1751317775,"current_range_meters":19600,"station_id":"ce4bhn12rcd13ifvqgqg","pricing_plan_id":"cebpf4jnsgd1na2vs0mg"},{"bike_id":"085cb0a3-0e2b-4045-8db2-40c671535edd","system_id":"levelo_inurba_marseille","lat":43.30724,"lon":5.42446,"is_reserved":false,"is_disabled":false,"rental_uris":{"android":"levelo://app?vid=085cb0a3-0e2b-4045-8db2-40c671535edd","ios":"levelo://app?vid=085cb0a3-0e2b-4045-8db2-40c671535edd"},"vehicle_type_id":"4","last_reported":1751317775,"current_range_meters":19600,"station_id":"st_cvj6ca6bvosntc0bfgr0","pricing_plan_id":"cebpf4jnsgd1na2vs0mg"},{"bike_id":"d11fe4c9-c130-42ee-bb73-8c70d6efcfc0","system_id":"levelo_inurba_marseille","lat":43.28985,"lon":5.36658,"is_reserved":false,"is_disabled":false,"rental_uris":{"android":"levelo://app?vid=d11fe4c9-c130-42ee-bb73-8c70d6efcfc0","ios":"levelo://app?vid=d11fe4c9-c130-42ee-bb73-8c70d6efcfc0"},"vehicle_type_id":"4","last_reported":1751317775,"current_range_meters":20000,"station_id":"","pricing_plan_id":"cebpf4jnsgd1na2vs0mg"},{"bike_id":"539ed013-9e80-448a-999f-a7819f54786a","system_id":"levelo_inurba_marseille","lat":43.290309,"lon":5.375668,"is_reserved":false,"is_disabled":false,"rental_uris":{"android":"levelo://app?vid=539ed013-9e80-448a-999f-a7819f54786a","ios":"levelo://app?vid=539ed013-9e80-448a-999f-a7819f54786a"},"vehicle_type_id":"4","last_reported":1751317775,"current_range_meters":20000,"station_id":"","pricing_plan_id":"cebpf4jnsgd1na2vs0mg"},{"bike_id":"934beea3-881e-4441-a5ff-95e7b68ba97b","system_id":"levelo_inurba_marseille","lat":43.34429,"lon":5.35966,"is_reserved":false,"is_disabled":false,"rental_uris":{"android":"levelo://app?vid=934beea3-881e-4441-a5ff-95e7b68ba97b","ios":"levelo://app?vid=934beea3-881e-4441-a5ff-95e7b68ba97b"},"vehicle_type_id":"4","last_reported":1751317775,"current_range_meters":20000,"station_id":"","pricing_plan_id":"cebpf4jnsgd1na2vs0mg"},{"bike_id":"b7b4c829-ad47-4511-bb32-e6bd8754f076","system_id":"levelo_inurba_marseille","lat":43.29255,"lon":5.40907,"is_reserved":false,"is_disabled":false,"rental_uris":{"android":"levelo://app?vid=b7b4c829-ad47-4511-bb32-e6bd8754f076","ios":"levelo://app?vid=b7b4c829-ad47-4511-bb32-e6bd8754f076"},"vehicle_type_id":"4","last_reported":1751317775,"current_range_meters":20000,"station_id":"ce4bh192rcd13ifvqdc0","pricing_plan_id":"cebpf4jnsgd1na2vs0mg"},{"bike_id":"96b6ce62-3a2a-47ef-bc9f-81dd941f4690","system_id":"levelo_inurba_marseille","lat":43.29255,"lon":5.40893,"is_reserved":false,"is_disabled":false,"rental_uris":{"android":"levelo://app?vid=96b6ce62-3a2a-47ef-bc9f-81dd941f4690","ios":"levelo://app?vid=96b6ce62-3a2a-47ef-bc9f-81dd941f4690"},"vehicle_type_id":"4","last_reported":1751317775,"current_range_meters":20000,"station_id":"ce4bh192rcd13ifvqdc0","pricing_plan_id":"cebpf4jnsgd1na2vs0mg"},{"bike_id":"08697d29-f1ed-4b0a-b171-3f895d6da0cd","system_id":"levelo_inurba_marseille","lat":43.28746,"lon":5.37936,"is_reserved":false,"is_disabled":false,"rental_uris":{"android":"levelo://app?vid=08697d29-f1ed-4b0a-b171-3f895d6da0cd","ios":"levelo://app?vid=08697d29-f1ed-4b0a-b171-3f895d6da0cd"},"vehicle_type_id":"4","last_reported":1751317775,"current_range_meters":20000,"station_id":"ce4bh9p2rcd13ifvqec0","pricing_plan_id":"cebpf4jnsgd1na2vs0mg"},{"bike_id":"b0f73a1e-e68b-4c16-bb45-395cdaf5beb1","system_id":"levelo_inurba_marseille","lat":43.28658,"lon":5.36354,"is_reserved":false,"is_disabled":false,"rental_uris":{"android":"levelo://app?vid=b0f73a1e-e68b-4c16-bb45-395cdaf5beb1","ios":"levelo://app?vid=b0f73a1e-e68b-4c16-bb45-395cdaf5beb1"},"vehicle_type_id":"4","last_reported":1751317775,"current_range_meters":20000,"station_id":"ce4bhah2rcd13ifvqej0","pricing_plan_id":"cebpf4jnsgd1na2vs0mg"},{"bike_id":"a9a1c616-c54a-4a89-8bc3-4d89aa348d04","system_id":"levelo_inurba_marseille","lat":43.23187,"lon":5.39986,"is_reserved":false,"is_disabled":false,"rental_uris":{"android":"levelo://app?vid=a9a1c616-c54a-4a89-8bc3-4d89aa348d04","ios":"levelo://app?vid=a9a1c616-c54a-4a89-8bc3-4d89aa348d04"},"vehicle_type_id":"4","last_reported":1751317775,"current_range_meters":20000,"station_id":"ce4bhn12rcd13ifvqgqg","pricing_plan_id":"cebpf4jnsgd1na2vs0mg"},{"bike_id":"68734e6d-f813-4b13-bfa5-58eb7b3acd65","system_id":"levelo_inurba_marseille","lat":43.318817,"lon":5.407483,"is_reserved":false,"is_disabled":false,"rental_uris":{"android":"levelo://app?vid=68734e6d-f813-4b13-bfa5-58eb7b3acd65","ios":"levelo://app?vid=68734e6d-f813-4b13-bfa5-58eb7b3acd65"},"vehicle_type_id":"4","last_reported":1751317775,"current_range_meters":20000,"station_id":"ce4bhq12rcd13ifvqhig","pricing_plan_id":"cebpf4jnsgd1na2vs0mg"},{"bike_id":"87fc5543-3ec4-42b4-9a24-dd59e17f4f17","system_id":"levelo_inurba_marseille","lat":43.31823,"lon":5.38495,"is_reserved":false,"is_disabled":false,"rental_uris":{"android":"levelo://app?vid=87fc5543-3ec4-42b4-9a24-dd59e17f4f17","ios":"levelo://app?vid=87fc5543-3ec4-42b4-9a24-dd59e17f4f17"},"vehicle_type_id":"4","last_reported":1751317775,"current_range_meters":20400,"station_id":"","pricing_plan_id":"cebpf4jnsgd1na2vs0mg"},{"bike_id":"abbd51d5-5f62-46ef-afe9-91a3f41f700e","system_id":"levelo_inurba_marseille","lat":43.29957,"lon":5.3717,"is_reserved":false,"is_disabled":false,"rental_uris":{"android":"levelo://app?vid=abbd51d5-5f62-46ef-afe9-91a3f41f700e","ios":"levelo://app?vid=abbd51d5-5f62-46ef-afe9-91a3f41f700e"},"vehicle_type_id":"4","last_reported":1751317775,"current_range_meters":20400,"station_id":"ce4bgr92rcd13ifvqc7g","pricing_plan_id":"cebpf4jnsgd1na2vs0mg"},{"bike_id":"70acf3cf-0520-44c5-ac1d-bc719bb919d6","system_id":"levelo_inurba_marseille","lat":43.309543,"lon":5.401234,"is_reserved":false,"is_disabled":false,"rental_uris":{"android":"levelo://app?vid=70acf3cf-0520-44c5-ac1d-bc719bb919d6","ios":"levelo://app?vid=70acf3cf-0520-44c5-ac1d-bc719bb919d6"},"vehicle_type_id":"4","last_reported":1751317775,"current_range_meters":20400,"station_id":"ce4bgvp2rcd13ifvqct0","pricing_plan_id":"cebpf4jnsgd1na2vs0mg"},{"bike_id":"6ba4cf7f-e681-443a-a30f-76fc4f2551c7","system_id":"levelo_inurba_marseille","lat":43.29566,"lon":5.39969,"is_reserved":false,"is_disabled":false,"rental_uris":{"android":"levelo://app?vid=6ba4cf7f-e681-443a-a30f-76fc4f2551c7","ios":"levelo://app?vid=6ba4cf7f-e681-443a-a30f-76fc4f2551c7"},"vehicle_type_id":"4","last_reported":1751317775,"current_range_meters":20400,"station_id":"ce4bh312rcd13ifvqdj0","pricing_plan_id":"cebpf4jnsgd1na2vs0mg"},{"bike_id":"b705df74-f98e-448d-acff-cbe02a85d173","system_id":"levelo_inurba_marseille","lat":43.28335,"lon":5.3811,"is_reserved":false,"is_disabled":false,"rental_uris":{"android":"levelo://app?vid=b705df74-f98e-448d-acff-cbe02a85d173","ios":"levelo://app?vid=b705df74-f98e-448d-acff-cbe02a85d173"},"vehicle_type_id":"4","last_reported":1751317775,"current_range_meters":20400,"station_id":"ce4bh412rcd13ifvqdr0","pricing_plan_id":"cebpf4jnsgd1na2vs0mg"},{"bike_id":"c2cc3873-3136-4ba7-984d-6514f2a6bcc2","system_id":"levelo_inurba_marseille","lat":43.26692,"lon":5.3827,"is_reserved":false,"is_disabled":false,"rental_uris":{"android":"levelo://app?vid=c2cc3873-3136-4ba7-984d-6514f2a6bcc2","ios":"levelo://app?vid=c2cc3873-3136-4ba7-984d-6514f2a6bcc2"},"vehicle_type_id":"4","last_reported":1751317775,"current_range_meters":20400,"station_id":"ce4bhg92rcd13ifvqf90","pricing_plan_id":"cebpf4jnsgd1na2vs0mg"},{"bike_id":"b5bf5937-b88d-4356-b7d0-86b91338454d","system_id":"levelo_inurba_marseille","lat":43.24382,"lon":5.37069,"is_reserved":false,"is_disabled":false,"rental_uris":{"android":"levelo://app?vid=b5bf5937-b88d-4356-b7d0-86b91338454d","ios":"levelo://app?vid=b5bf5937-b88d-4356-b7d0-86b91338454d"},"vehicle_type_id":"4","last_reported":1751317775,"current_range_meters":20400,"station_id":"ce4bhhh2rcd13ifvqfk0","pricing_plan_id":"cebpf4jnsgd1na2vs0mg"},{"bike_id":"0c1b4f74-5294-4b59-932d-b742ce647d9e","system_id":"levelo_inurba_marseille","lat":43.21191,"lon":5.35067,"is_reserved":false,"is_disabled":false,"rental_uris":{"android":"levelo://app?vid=0c1b4f74-5294-4b59-932d-b742ce647d9e","ios":"levelo://app?vid=0c1b4f74-5294-4b59-932d-b742ce647d9e"},"vehicle_type_id":"4","last_reported":1751317775,"current_range_meters":20400,"station_id":"st_cvj6sg6p6f1abm77japg","pricing_plan_id":"cebpf4jnsgd1na2vs0mg"},{"bike_id":"8a74f5cd-9efa-4362-bea7-a32db4dcc85c","system_id":"levelo_inurba_marseille","lat":43.21212,"lon":5.35115,"is_reserved":false,"is_disabled":false,"rental_uris":{"android":"levelo://app?vid=8a74f5cd-9efa-4362-bea7-a32db4dcc85c","ios":"levelo://app?vid=8a74f5cd-9efa-4362-bea7-a32db4dcc85c"},"vehicle_type_id":"4","last_reported":1751317775,"current_range_meters":20400,"station_id":"st_cvj6sg6p6f1abm77japg","pricing_plan_id":"cebpf4jnsgd1na2vs0mg"},{"bike_id":"cb4930c3-9173-47a4-835b-7fffa419c306","system_id":"levelo_inurba_marseille","lat":43.30437,"lon":5.3889,"is_reserved":false,"is_disabled":false,"rental_uris":{"android":"levelo://app?vid=cb4930c3-9173-47a4-835b-7fffa419c306","ios":"levelo://app?vid=cb4930c3-9173-47a4-835b-7fffa419c306"},"vehicle_type_id":"4","last_reported":1751317775,"current_range_meters":20800,"station_id":"","pricing_plan_id":"cebpf4jnsgd1na2vs0mg"},{"bike_id":"0f4dc0e2-030b-4fa4-9cba-48b970c00563","system_id":"levelo_inurba_marseille","lat":43.30142,"lon":5.3878,"is_reserved":false,"is_disabled":false,"rental_uris":{"android":"levelo://app?vid=0f4dc0e2-030b-4fa4-9cba-48b970c00563","ios":"levelo://app?vid=0f4dc0e2-030b-4fa4-9cba-48b970c00563"},"vehicle_type_id":"4","last_reported":1751317775,"current_range_meters":20800,"station_id":"ce4bghh2rcd13ifvqb60","pricing_plan_id":"cebpf4jnsgd1na2vs0mg"},{"bike_id":"e24f3557-5450-4913-a9cb-a8b073092416","system_id":"levelo_inurba_marseille","lat":43.31171,"lon":5.38702,"is_reserved":false,"is_disabled":false,"rental_uris":{"android":"levelo://app?vid=e24f3557-5450-4913-a9cb-a8b073092416","ios":"levelo://app?vid=e24f3557-5450-4913-a9cb-a8b073092416"},"vehicle_type_id":"4","last_reported":1751317775,"current_range_meters":20800,"station_id":"ce4bgv12rcd13ifvqcp0","pricing_plan_id":"cebpf4jnsgd1na2vs0mg"},{"bike_id":"40efa825-a34c-443b-8627-3d23e3fd71b2","system_id":"levelo_inurba_marseille","lat":43.25864,"lon":5.39902,"is_reserved":false,"is_disabled":false,"rental_uris":{"android":"levelo://app?vid=40efa825-a34c-443b-8627-3d23e3fd71b2","ios":"levelo://app?vid=40efa825-a34c-443b-8627-3d23e3fd71b2"},"vehicle_type_id":"4","last_reported":1751317775,"current_range_meters":20800,"station_id":"ce4bhl92rcd13ifvqghg","pricing_plan_id":"cebpf4jnsgd1na2vs0mg"},{"bike_id":"85b63d4f-ae61-4ad4-8f6a-499d5f2c2978","system_id":"levelo_inurba_marseille","lat":43.24063,"lon":5.377596,"is_reserved":false,"is_disabled":false,"rental_uris":{"android":"levelo://app?vid=85b63d4f-ae61-4ad4-8f6a-499d5f2c2978","ios":"levelo://app?vid=85b63d4f-ae61-4ad4-8f6a-499d5f2c2978"},"vehicle_type_id":"4","last_reported":1751317775,"current_range_meters":20800,"station_id":"ce4bhnp2rcd13ifvqgvg","pricing_plan_id":"cebpf4jnsgd1na2vs0mg"},{"bike_id":"486dd11c-5594-4013-a54f-a1db6f3bc51a","system_id":"levelo_inurba_marseille","lat":43.31721,"lon":5.42397,"is_reserved":false,"is_disabled":false,"rental_uris":{"android":"levelo://app?vid=486dd11c-5594-4013-a54f-a1db6f3bc51a","ios":"levelo://app?vid=486dd11c-5594-4013-a54f-a1db6f3bc51a"},"vehicle_type_id":"4","last_reported":1751317775,"current_range_meters":20800,"station_id":"ce4bhp92rcd13ifvqhbg","pricing_plan_id":"cebpf4jnsgd1na2vs0mg"},{"bike_id":"b8d66a92-4ca1-4a94-bafa-d80a0fd7dc99","system_id":"levelo_inurba_marseille","lat":43.33606,"lon":5.41038,"is_reserved":false,"is_disabled":false,"rental_uris":{"android":"levelo://app?vid=b8d66a92-4ca1-4a94-bafa-d80a0fd7dc99","ios":"levelo://app?vid=b8d66a92-4ca1-4a94-bafa-d80a0fd7dc99"},"vehicle_type_id":"4","last_reported":1751317775,"current_range_meters":20800,"station_id":"ce4bhqh2rcd13ifvqhmg","pricing_plan_id":"cebpf4jnsgd1na2vs0mg"},{"bike_id":"2561d315-fcc8-4635-a79f-e4bd78e42d68","system_id":"levelo_inurba_marseille","lat":43.32102,"lon":5.36777,"is_reserved":false,"is_disabled":false,"rental_uris":{"android":"levelo://app?vid=2561d315-fcc8-4635-a79f-e4bd78e42d68","ios":"levelo://app?vid=2561d315-fcc8-4635-a79f-e4bd78e42d68"},"vehicle_type_id":"4","last_reported":1751317775,"current_range_meters":20800,"station_id":"ce4bhrh2rcd13ifvqhug","pricing_plan_id":"cebpf4jnsgd1na2vs0mg"},{"bike_id":"5e09ddc4-4e3c-4bf2-adca-03b5296b68da","system_id":"levelo_inurba_marseille","lat":43.28688,"lon":5.386793,"is_reserved":false,"is_disabled":false,"rental_uris":{"android":"levelo://app?vid=5e09ddc4-4e3c-4bf2-adca-03b5296b68da","ios":"levelo://app?vid=5e09ddc4-4e3c-4bf2-adca-03b5296b68da"},"vehicle_type_id":"4","last_reported":1751317775,"current_range_meters":21600,"station_id":"ce4bh492rcd13ifvqdug","pricing_plan_id":"cebpf4jnsgd1na2vs0mg"},{"bike_id":"58c4c14b-e77e-4996-acb3-695be6a4b82a","system_id":"levelo_inurba_marseille","lat":43.28108,"lon":5.37837,"is_reserved":false,"is_disabled":false,"rental_uris":{"android":"levelo://app?vid=58c4c14b-e77e-4996-acb3-695be6a4b82a","ios":"levelo://app?vid=58c4c14b-e77e-4996-acb3-695be6a4b82a"},"vehicle_type_id":"4","last_reported":1751317775,"current_range_meters":21600,"station_id":"ce4bha12rcd13ifvqee0","pricing_plan_id":"cebpf4jnsgd1na2vs0mg"},{"bike_id":"fb1fe13f-4e3c-4321-b58f-56345264a0fc","system_id":"levelo_inurba_marseille","lat":43.27383,"lon":5.36251,"is_reserved":false,"is_disabled":false,"rental_uris":{"android":"levelo://app?vid=fb1fe13f-4e3c-4321-b58f-56345264a0fc","ios":"levelo://app?vid=fb1fe13f-4e3c-4321-b58f-56345264a0fc"},"vehicle_type_id":"4","last_reported":1751317775,"current_range_meters":21600,"station_id":"ce4bhbh2rcd13ifvqeo0","pricing_plan_id":"cebpf4jnsgd1na2vs0mg"},{"bike_id":"93beb2c1-ecc0-4e54-ac76-409fd6bb9dc1","system_id":"levelo_inurba_marseille","lat":43.27429,"lon":5.39405,"is_reserved":false,"is_disabled":false,"rental_uris":{"android":"levelo://app?vid=93beb2c1-ecc0-4e54-ac76-409fd6bb9dc1","ios":"levelo://app?vid=93beb2c1-ecc0-4e54-ac76-409fd6bb9dc1"},"vehicle_type_id":"4","last_reported":1751317775,"current_range_meters":21600,"station_id":"ce4bhdp2rcd13ifvqf20","pricing_plan_id":"cebpf4jnsgd1na2vs0mg"},{"bike_id":"afb78327-cc2c-423c-9e7b-9e6a58647879","system_id":"levelo_inurba_marseille","lat":43.33685,"lon":5.3921,"is_reserved":false,"is_disabled":false,"rental_uris":{"android":"levelo://app?vid=afb78327-cc2c-423c-9e7b-9e6a58647879","ios":"levelo://app?vid=afb78327-cc2c-423c-9e7b-9e6a58647879"},"vehicle_type_id":"4","last_reported":1751317775,"current_range_meters":21600,"station_id":"ce4bhr92rcd13ifvqhsg","pricing_plan_id":"cebpf4jnsgd1na2vs0mg"},{"bike_id":"fdcc33b3-b27b-4fd9-90cb-c9421efe9db6","system_id":"levelo_inurba_marseille","lat":43.2781,"lon":5.41447,"is_reserved":false,"is_disabled":false,"rental_uris":{"android":"levelo://app?vid=fdcc33b3-b27b-4fd9-90cb-c9421efe9db6","ios":"levelo://app?vid=fdcc33b3-b27b-4fd9-90cb-c9421efe9db6"},"vehicle_type_id":"4","last_reported":1751317775,"current_range_meters":22000,"station_id":"","pricing_plan_id":"cebpf4jnsgd1na2vs0mg"},{"bike_id":"74707156-75bf-43bd-864e-1aa4be703d7d","system_id":"levelo_inurba_marseille","lat":43.30068,"lon":5.37419,"is_reserved":false,"is_disabled":false,"rental_uris":{"android":"levelo://app?vid=74707156-75bf-43bd-864e-1aa4be703d7d","ios":"levelo://app?vid=74707156-75bf-43bd-864e-1aa4be703d7d"},"vehicle_type_id":"4","last_reported":1751317775,"current_range_meters":22000,"station_id":"","pricing_plan_id":"cebpf4jnsgd1na2vs0mg"},{"bike_id":"a189ddb0-faf4-409e-a0be-2ca2f8c01715","system_id":"levelo_inurba_marseille","lat":43.31358,"lon":5.38484,"is_reserved":false,"is_disabled":false,"rental_uris":{"android":"levelo://app?vid=a189ddb0-faf4-409e-a0be-2ca2f8c01715","ios":"levelo://app?vid=a189ddb0-faf4-409e-a0be-2ca2f8c01715"},"vehicle_type_id":"4","last_reported":1751317775,"current_range_meters":22000,"station_id":"ce4bgt92rcd13ifvqcf0","pricing_plan_id":"cebpf4jnsgd1na2vs0mg"},{"bike_id":"1608cdbb-6c10-487c-a113-6852fd684d45","system_id":"levelo_inurba_marseille","lat":43.309283,"lon":5.401372,"is_reserved":false,"is_disabled":false,"rental_uris":{"android":"levelo://app?vid=1608cdbb-6c10-487c-a113-6852fd684d45","ios":"levelo://app?vid=1608cdbb-6c10-487c-a113-6852fd684d45"},"vehicle_type_id":"4","last_reported":1751317775,"current_range_meters":22000,"station_id":"ce4bgvp2rcd13ifvqct0","pricing_plan_id":"cebpf4jnsgd1na2vs0mg"},{"bike_id":"bf1dc8af-ed41-4511-88f2-837e2ce83da1","system_id":"levelo_inurba_marseille","lat":43.29276,"lon":5.38453,"is_reserved":false,"is_disabled":false,"rental_uris":{"android":"levelo://app?vid=bf1dc8af-ed41-4511-88f2-837e2ce83da1","ios":"levelo://app?vid=bf1dc8af-ed41-4511-88f2-837e2ce83da1"},"vehicle_type_id":"4","last_reported":1751317775,"current_range_meters":22000,"station_id":"ce4bh692rcd13ifvqea0","pricing_plan_id":"cebpf4jnsgd1na2vs0mg"},{"bike_id":"8f5ab26e-ec93-46d6-9c7e-11f0505b9f70","system_id":"levelo_inurba_marseille","lat":43.27368,"lon":5.36261,"is_reserved":false,"is_disabled":false,"rental_uris":{"android":"levelo://app?vid=8f5ab26e-ec93-46d6-9c7e-11f0505b9f70","ios":"levelo://app?vid=8f5ab26e-ec93-46d6-9c7e-11f0505b9f70"},"vehicle_type_id":"4","last_reported":1751317775,"current_range_meters":22000,"station_id":"ce4bhbh2rcd13ifvqeo0","pricing_plan_id":"cebpf4jnsgd1na2vs0mg"},{"bike_id":"502d81d0-77c3-4a91-9a0b-741f4cf0ef77","system_id":"levelo_inurba_marseille","lat":43.2792,"lon":5.38029,"is_reserved":false,"is_disabled":false,"rental_uris":{"android":"levelo://app?vid=502d81d0-77c3-4a91-9a0b-741f4cf0ef77","ios":"levelo://app?vid=502d81d0-77c3-4a91-9a0b-741f4cf0ef77"},"vehicle_type_id":"4","last_reported":1751317775,"current_range_meters":22000,"station_id":"ce4bhf92rcd13ifvqf50","pricing_plan_id":"cebpf4jnsgd1na2vs0mg"},{"bike_id":"18597715-4e72-4913-b79f-52f6073ce31d","system_id":"levelo_inurba_marseille","lat":43.24806,"lon":5.37464,"is_reserved":false,"is_disabled":false,"rental_uris":{"android":"levelo://app?vid=18597715-4e72-4913-b79f-52f6073ce31d","ios":"levelo://app?vid=18597715-4e72-4913-b79f-52f6073ce31d"},"vehicle_type_id":"4","last_reported":1751317775,"current_range_meters":22000,"station_id":"ce4bhgh2rcd13ifvqfb0","pricing_plan_id":"cebpf4jnsgd1na2vs0mg"},{"bike_id":"4134eee1-d07c-410a-8b4b-247bf3f8db97","system_id":"levelo_inurba_marseille","lat":43.25516,"lon":5.37673,"is_reserved":false,"is_disabled":false,"rental_uris":{"android":"levelo://app?vid=4134eee1-d07c-410a-8b4b-247bf3f8db97","ios":"levelo://app?vid=4134eee1-d07c-410a-8b4b-247bf3f8db97"},