{"last_updated":1679577275,"ttl":30,"version":"2.2","data":{"bikes":[{"bike_id":"4c9709f9-c0dc-41b1-83c4-9f522fc8da5a","system_id":"levelo_inurba_marseille","lat":43.309127,"lon":5.368436,"is_reserved":false,"is_disabled":false,"rental_uris":{"android":"levelo://app?vid=4c9709f9-c0dc-41b1-83c4-9f522fc8da5a","ios":"levelo://app?vid=4c9709f9-c0dc-41b1-83c4-9f522fc8da5a"},"vehicle_type_id":"4","last_reported":1679577275,"current_range_meters":17600,"station_id":"ce4bgn92rcd13ifvqbvg","pricing_plan_id":"free"},{"bike_id":"6f365ef8-6799-4d78-96dd-f8fe7ac43b6e","system_id":"levelo_inurba_marseille","lat":43.30904,"lon":5.36855,"is_reserved":false,"is_disabled":false,"rental_uris":{"android":"levelo://app?vid=6f365ef8-6799-4d78-96dd-f8fe7ac43b6e","ios":"levelo://app?vid=6f365ef8-6799-4d78-96dd-f8fe7ac43b6e"},"vehicle_type_id":"4","last_reported":1679577275,"current_range_meters":0,"station_id":"","pricing_plan_id":"free"},{"bike_id":"331d2e11-9135-4bc4-b31c-5becbc54e6f7","system_id":"levelo_inurba_marseille","lat":43.30887,"lon":5.37196,"is_reserved":false,"is_disabled":false,"rental_uris":{"android":"levelo://app?vid=331d2e11-9135-4bc4-b31c-5becbc54e6f7","ios":"levelo://app?vid=331d2e11-9135-4bc4-b31c-5becbc54e6f7"},"vehicle_type_id":"4","last_reported":1679577275,"current_range_meters":10800,"station_id":"","pricing_plan_id":"free"},{"bike_id":"733a25d3-c759-4af4-96ef-295c3058470b","system_id":"levelo_inurba_marseille","lat":43.314143,"lon":5.37568,"is_reserved":false,"is_disabled":false,"rental_uris":{"android":"levelo://app?vid=733a25d3-c759-4af4-96ef-295c3058470b","ios":"levelo://app?vid=733a25d3-c759-4af4-96ef-295c3058470b"},"vehicle_type_id":"4","last_reported":1679577275,"current_range_meters":0,"station_id":"","pricing_plan_id":"free"},{"bike_id":"a993c2c7-bb9c-40ff-b767-9a90fec87f3f","system_id":"levelo_inurba_marseille","lat":43.305449,"lon":5.367039,"is_reserved":false,"is_disabled":false,"rental_uris":{"android":"levelo://app?vid=a993c2c7-bb9c-40ff-b767-9a90fec87f3f","ios":"levelo://app?vid=a993c2c7-bb9c-40ff-b767-9a90fec87f3f"},"vehicle_type_id":"4","last_reported":1679577275,"current_range_meters":0,"station_id":"","pricing_plan_id":"free"},{"bike_id":"5b13cf30-e3d3-4f5e-a833-245c988c4fa6","system_id":"levelo_inurba_marseille","lat":43.30541,"lon":5.36713,"is_reserved":false,"is_disabled":false,"rental_uris":{"android":"levelo://app?vid=5b13cf30-e3d3-4f5e-a833-245c988c4fa6","ios":"levelo://app?vid=5b13cf30-e3d3-4f5e-a833-245c988c4fa6"},"vehicle_type_id":"4","last_reported":1679577275,"current_range_meters":17600,"station_id":"","pricing_plan_id":"free"},{"bike_id":"ec76be1e-40b8-4cfc-ae44-33246600a701","system_id":"levelo_inurba_marseille","lat":43.30539,"lon":5.36702,"is_reserved":false,"is_disabled":false,"rental_uris":{"android":"levelo://app?vid=ec76be1e-40b8-4cfc-ae44-33246600a701","ios":"levelo://app?vid=ec76be1e-40b8-4cfc-ae44-33246600a701"},"vehicle_type_id":"4","last_reported":1679577275,"current_range_meters":20400,"station_id":"","pricing_plan_id":"free"},{"bike_id":"0faa753f-1751-4fba-90f5-e1ea71ecff18","system_id":"levelo_inurba_marseille","lat":43.317075,"lon":5.377367,"is_reserved":false,"is_disabled":false,"rental_uris":{"android":"levelo://app?vid=0faa753f-1751-4fba-90f5-e1ea71ecff18","ios":"levelo://app?vid=0faa753f-1751-4fba-90f5-e1ea71ecff18"},"vehicle_type_id":"4","last_reported":1679577275,"current_range_meters":13600,"station_id":"ce4bgth2rcd13ifvqch0","pricing_plan_id":"free"},{"bike_id":"328fd040-421c-4c6e-af6e-97b579513570","system_id":"levelo_inurba_marseille","lat":43.317075,"lon":5.377367,"is_reserved":false,"is_disabled":false,"rental_uris":{"android":"levelo://app?vid=328fd040-421c-4c6e-af6e-97b579513570","ios":"levelo://app?vid=328fd040-421c-4c6e-af6e-97b579513570"},"vehicle_type_id":"4","last_reported":1679577275,"current_range_meters":24000,"station_id":"ce4bgth2rcd13ifvqch0","pricing_plan_id":"free"},{"bike_id":"cecf5a42-308c-4a3b-a763-abf56e33e492","system_id":"levelo_inurba_marseille","lat":43.317075,"lon":5.377367,"is_reserved":false,"is_disabled":false,"rental_uris":{"android":"levelo://app?vid=cecf5a42-308c-4a3b-a763-abf56e33e492","ios":"levelo://app?vid=cecf5a42-308c-4a3b-a763-abf56e33e492"},"vehicle_type_id":"4","last_reported":1679577275,"current_range_meters":20800,"station_id":"ce4bgth2rcd13ifvqch0","pricing_plan_id":"free"},{"bike_id":"065c1aae-c61e-45e0-9d43-c398d64ae458","system_id":"levelo_inurba_marseille","lat":43.317075,"lon":5.377367,"is_reserved":false,"is_disabled":false,"rental_uris":{"android":"levelo://app?vid=065c1aae-c61e-45e0-9d43-c398d64ae458","ios":"levelo://app?vid=065c1aae-c61e-45e0-9d43-c398d64ae458"},"vehicle_type_id":"4","last_reported":1679577275,"current_range_meters":16800,"station_id":"ce4bgth2rcd13ifvqch0","pricing_plan_id":"free"},{"bike_id":"a7a32b35-8040-403f-9bb9-f29b88d24d19","system_id":"levelo_inurba_marseille","lat":43.302211,"lon":5.366102,"is_reserved":false,"is_disabled":false,"rental_uris":{"android":"levelo://app?vid=a7a32b35-8040-403f-9bb9-f29b88d24d19","ios":"levelo://app?vid=a7a32b35-8040-403f-9bb9-f29b88d24d19"},"vehicle_type_id":"4","last_reported":1679577275,"current_range_meters":18400,"station_id":"ce4bgrh2rcd13ifvqc8g","pricing_plan_id":"free"},{"bike_id":"1e021d92-ec6e-4a39-8dbe-fd25ee4f6e5c","system_id":"levelo_inurba_marseille","lat":43.308133,"lon":5.381375,"is_reserved":false,"is_disabled":false,"rental_uris":{"android":"levelo://app?vid=1e021d92-ec6e-4a39-8dbe-fd25ee4f6e5c","ios":"levelo://app?vid=1e021d92-ec6e-4a39-8dbe-fd25ee4f6e5c"},"vehicle_type_id":"4","last_reported":1679577275,"current_range_meters":1600,"station_id":"ce4bgt12rcd13ifvqce0","pricing_plan_id":"free"},{"bike_id":"492f7b17-3408-493d-8fff-6f6aaf506135","system_id":"levelo_inurba_marseille","lat":43.30805,"lon":5.38157,"is_reserved":false,"is_disabled":false,"rental_uris":{"android":"levelo://app?vid=492f7b17-3408-493d-8fff-6f6aaf506135","ios":"levelo://app?vid=492f7b17-3408-493d-8fff-6f6aaf506135"},"vehicle_type_id":"4","last_reported":1679577275,"current_range_meters":0,"station_id":"ce4bgt12rcd13ifvqce0","pricing_plan_id":"free"},{"bike_id":"a4bf81ca-7113-4ea0-94b2-504724d6b77c","system_id":"levelo_inurba_marseille","lat":43.3014,"lon":5.37428,"is_reserved":false,"is_disabled":false,"rental_uris":{"android":"levelo://app?vid=a4bf81ca-7113-4ea0-94b2-504724d6b77c","ios":"levelo://app?vid=a4bf81ca-7113-4ea0-94b2-504724d6b77c"},"vehicle_type_id":"4","last_reported":1679577275,"current_range_meters":29600,"station_id":"","pricing_plan_id":"free"},{"bike_id":"e88fc51e-a8b6-417f-9dd3-15b4f6e768a2","system_id":"levelo_inurba_marseille","lat":43.298433,"lon":5.362774,"is_reserved":false,"is_disabled":false,"rental_uris":{"android":"levelo://app?vid=e88fc51e-a8b6-417f-9dd3-15b4f6e768a2","ios":"levelo://app?vid=e88fc51e-a8b6-417f-9dd3-15b4f6e768a2"},"vehicle_type_id":"4","last_reported":1679577275,"current_range_meters":800,"station_id":"ce4bgpp2rcd13ifvqc3g","pricing_plan_id":"free"},{"bike_id":"ef4c8bd4-4781-48e5-a181-415c9e90c5b1","system_id":"levelo_inurba_marseille","lat":43.30528,"lon":5.38432,"is_reserved":false,"is_disabled":false,"rental_uris":{"android":"levelo://app?vid=ef4c8bd4-4781-48e5-a181-415c9e90c5b1","ios":"levelo://app?vid=ef4c8bd4-4781-48e5-a181-415c9e90c5b1"},"vehicle_type_id":"4","last_reported":1679577275,"current_range_meters":14400,"station_id":"","pricing_plan_id":"free"},{"bike_id":"c14389b3-e93c-4ddb-a410-8cdd88b84756","system_id":"levelo_inurba_marseille","lat":43.311722,"lon":5.387247,"is_reserved":false,"is_disabled":false,"rental_uris":{"android":"levelo://app?vid=c14389b3-e93c-4ddb-a410-8cdd88b84756","ios":"levelo://app?vid=c14389b3-e93c-4ddb-a410-8cdd88b84756"},"vehicle_type_id":"4","last_reported":1679577275,"current_range_meters":16400,"station_id":"ce4bgv12rcd13ifvqcp0","pricing_plan_id":"free"},{"bike_id":"85b8aeb0-fd33-4eb5-af84-655504991f22","system_id":"levelo_inurba_marseille","lat":43.29785,"lon":5.37094,"is_reserved":false,"is_disabled":false,"rental_uris":{"android":"levelo://app?vid=85b8aeb0-fd33-4eb5-af84-655504991f22","ios":"levelo://app?vid=85b8aeb0-fd33-4eb5-af84-655504991f22"},"vehicle_type_id":"4","last_reported":1679577275,"current_range_meters":21200,"station_id":"","pricing_plan_id":"free"},{"bike_id":"5234f248-312a-41cf-9a09-9c2d34b6f41f","system_id":"levelo_inurba_marseille","lat":43.328371,"lon":5.366909,"is_reserved":false,"is_disabled":false,"rental_uris":{"android":"levelo://app?vid=5234f248-312a-41cf-9a09-9c2d34b6f41f","ios":"levelo://app?vid=5234f248-312a-41cf-9a09-9c2d34b6f41f"},"vehicle_type_id":"4","last_reported":1679577275,"current_range_meters":0,"station_id":"ce4bhs92rcd13ifvqi0g","pricing_plan_id":"free"},{"bike_id":"67d947f0-dbb4-4fee-803a-4bde8b48ecf4","system_id":"levelo_inurba_marseille","lat":43.296806,"lon":5.372809,"is_reserved":false,"is_disabled":false,"rental_uris":{"android":"levelo://app?vid=67d947f0-dbb4-4fee-803a-4bde8b48ecf4","ios":"levelo://app?vid=67d947f0-dbb4-4fee-803a-4bde8b48ecf4"},"vehicle_type_id":"4","last_reported":1679577275,"current_range_meters":11600,"station_id":"ce4bgk12rcd13ifvqbj0","pricing_plan_id":"free"},{"bike_id":"aa55ec82-e879-429e-a688-6bd515a8f3ea","system_id":"levelo_inurba_marseille","lat":43.295861,"lon":5.367442,"is_reserved":false,"is_disabled":false,"rental_uris":{"android":"levelo://app?vid=aa55ec82-e879-429e-a688-6bd515a8f3ea","ios":"levelo://app?vid=aa55ec82-e879-429e-a688-6bd515a8f3ea"},"vehicle_type_id":"4","last_reported":1679577275,"current_range_meters":0,"station_id":"ce4bgph2rcd13ifvqc2g","pricing_plan_id":"free"},{"bike_id":"e2ac32c1-e16f-4d42-a401-2054070eb638","system_id":"levelo_inurba_marseille","lat":43.299028,"lon":5.381509,"is_reserved":false,"is_disabled":false,"rental_uris":{"android":"levelo://app?vid=e2ac32c1-e16f-4d42-a401-2054070eb638","ios":"levelo://app?vid=e2ac32c1-e16f-4d42-a401-2054070eb638"},"vehicle_type_id":"4","last_reported":1679577275,"current_range_meters":0,"station_id":"ce4bgj12rcd13ifvqbc0","pricing_plan_id":"free"},{"bike_id":"7ddfee13-a02c-48a6-af73-c0f4e7b7b7e2","system_id":"levelo_inurba_marseille","lat":43.309589,"lon":5.390258,"is_reserved":false,"is_disabled":false,"rental_uris":{"android":"levelo://app?vid=7ddfee13-a02c-48a6-af73-c0f4e7b7b7e2","ios":"levelo://app?vid=7ddfee13-a02c-48a6-af73-c0f4e7b7b7e2"},"vehicle_type_id":"4","last_reported":1679577275,"current_range_meters":4000,"station_id":"ce4bgup2rcd13ifvqco0","pricing_plan_id":"free"},{"bike_id":"3d49ab52-7ef1-46d6-b301-376d87a269b4","system_id":"levelo_inurba_marseille","lat":43.309589,"lon":5.390258,"is_reserved":false,"is_disabled":false,"rental_uris":{"android":"levelo://app?vid=3d49ab52-7ef1-46d6-b301-376d87a269b4","ios":"levelo://app?vid=3d49ab52-7ef1-46d6-b301-376d87a269b4"},"vehicle_type_id":"4","last_reported":1679577275,"current_range_meters":27600,"station_id":"ce4bgup2rcd13ifvqco0","pricing_plan_id":"free"},{"bike_id":"410f5d71-ed17-47f7-9400-c293ac161d8b","system_id":"levelo_inurba_marseille","lat":43.30957,"lon":5.39041,"is_reserved":false,"is_disabled":false,"rental_uris":{"android":"levelo://app?vid=410f5d71-ed17-47f7-9400-c293ac161d8b","ios":"levelo://app?vid=410f5d71-ed17-47f7-9400-c293ac161d8b"},"vehicle_type_id":"4","last_reported":1679577275,"current_range_meters":0,"station_id":"","pricing_plan_id":"free"},{"bike_id":"93921379-a4ea-4f47-933f-7f4e30128522","system_id":"levelo_inurba_marseille","lat":43.309589,"lon":5.390258,"is_reserved":false,"is_disabled":false,"rental_uris":{"android":"levelo://app?vid=93921379-a4ea-4f47-933f-7f4e30128522","ios":"levelo://app?vid=93921379-a4ea-4f47-933f-7f4e30128522"},"vehicle_type_id":"4","last_reported":1679577275,"current_range_meters":30400,"station_id":"ce4bgup2rcd13ifvqco0","pricing_plan_id":"free"},{"bike_id":"480180db-92d0-4989-b7cf-4c33f94697ef","system_id":"levelo_inurba_marseille","lat":43.30959,"lon":5.39042,"is_reserved":false,"is_disabled":false,"rental_uris":{"android":"levelo://app?vid=480180db-92d0-4989-b7cf-4c33f94697ef","ios":"levelo://app?vid=480180db-92d0-4989-b7cf-4c33f94697ef"},"vehicle_type_id":"4","last_reported":1679577275,"current_range_meters":10800,"station_id":"","pricing_plan_id":"free"},{"bike_id":"26b05722-7622-45b1-95b2-c3ff8d3028a7","system_id":"levelo_inurba_marseille","lat":43.309589,"lon":5.390258,"is_reserved":false,"is_disabled":false,"rental_uris":{"android":"levelo://app?vid=26b05722-7622-45b1-95b2-c3ff8d3028a7","ios":"levelo://app?vid=26b05722-7622-45b1-95b2-c3ff8d3028a7"},"vehicle_type_id":"4","last_reported":1679577275,"current_range_meters":4000,"station_id":"ce4bgup2rcd13ifvqco0","pricing_plan_id":"free"},{"bike_id":"58816b84-aee4-4fde-86fd-b0de1d546f42","system_id":"levelo_inurba_marseille","lat":43.30961,"lon":5.39049,"is_reserved":false,"is_disabled":false,"rental_uris":{"android":"levelo://app?vid=58816b84-aee4-4fde-86fd-b0de1d546f42","ios":"levelo://app?vid=58816b84-aee4-4fde-86fd-b0de1d546f42"},"vehicle_type_id":"4","last_reported":1679577275,"current_range_meters":31200,"station_id":"","pricing_plan_id":"free"},{"bike_id":"bf33240d-0b65-44e8-8a5e-4c72419c3afc","system_id":"levelo_inurba_marseille","lat":43.29797,"lon":5.38074,"is_reserved":false,"is_disabled":false,"rental_uris":{"android":"levelo://app?vid=bf33240d-0b65-44e8-8a5e-4c72419c3afc","ios":"levelo://app?vid=bf33240d-0b65-44e8-8a5e-4c72419c3afc"},"vehicle_type_id":"4","last_reported":1679577275,"current_range_meters":9200,"station_id":"","pricing_plan_id":"free"},{"bike_id":"bc56361b-b627-42bb-b711-9ec7f7b90fdd","system_id":"levelo_inurba_marseille","lat":43.30428,"lon":5.38891,"is_reserved":false,"is_disabled":false,"rental_uris":{"android":"levelo://app?vid=bc56361b-b627-42bb-b711-9ec7f7b90fdd","ios":"levelo://app?vid=bc56361b-b627-42bb-b711-9ec7f7b90fdd"},"vehicle_type_id":"4","last_reported":1679577275,"current_range_meters":16400,"station_id":"","pricing_plan_id":"free"},{"bike_id":"d28a0126-993f-40b5-9dd9-2b7345950b53","system_id":"levelo_inurba_marseille","lat":43.304274,"lon":5.388873,"is_reserved":false,"is_disabled":false,"rental_uris":{"android":"levelo://app?vid=d28a0126-993f-40b5-9dd9-2b7345950b53","ios":"levelo://app?vid=d28a0126-993f-40b5-9dd9-2b7345950b53"},"vehicle_type_id":"4","last_reported":1679577275,"current_range_meters":26800,"station_id":"ce4bgk12rcd13ifvqbi0","pricing_plan_id":"free"},{"bike_id":"de268aa6-f5b4-4714-9b49-c55dbde2670b","system_id":"levelo_inurba_marseille","lat":43.296263,"lon":5.377094,"is_reserved":false,"is_disabled":false,"rental_uris":{"android":"levelo://app?vid=de268aa6-f5b4-4714-9b49-c55dbde2670b","ios":"levelo://app?vid=de268aa6-f5b4-4714-9b49-c55dbde2670b"},"vehicle_type_id":"4","last_reported":1679577275,"current_range_meters":29600,"station_id":"ce4bgi92rcd13ifvqb90","pricing_plan_id":"free"},{"bike_id":"9a07bc9d-ea23-4e16-880b-13388e7d27fa","system_id":"levelo_inurba_marseille","lat":43.299717,"lon":5.384845,"is_reserved":false,"is_disabled":false,"rental_uris":{"android":"levelo://app?vid=9a07bc9d-ea23-4e16-880b-13388e7d27fa","ios":"levelo://app?vid=9a07bc9d-ea23-4e16-880b-13388e7d27fa"},"vehicle_type_id":"4","last_reported":1679577275,"current_range_meters":23200,"station_id":"ce4bgj92rcd13ifvqbd0","pricing_plan_id":"free"},{"bike_id":"98e22014-f32d-4993-9e9e-83658256a961","system_id":"levelo_inurba_marseille","lat":43.299717,"lon":5.384845,"is_reserved":false,"is_disabled":false,"rental_uris":{"android":"levelo://app?vid=98e22014-f32d-4993-9e9e-83658256a961","ios":"levelo://app?vid=98e22014-f32d-4993-9e9e-83658256a961"},"vehicle_type_id":"4","last_reported":1679577275,"current_range_meters":0,"station_id":"ce4bgj92rcd13ifvqbd0","pricing_plan_id":"free"},{"bike_id":"afcef64a-8ef3-4ff1-9697-abd101aa14f5","system_id":"levelo_inurba_marseille","lat":43.299717,"lon":5.384845,"is_reserved":false,"is_disabled":false,"rental_uris":{"android":"levelo://app?vid=afcef64a-8ef3-4ff1-9697-abd101aa14f5","ios":"levelo://app?vid=afcef64a-8ef3-4ff1-9697-abd101aa14f5"},"vehicle_type_id":"4","last_reported":1679577275,"current_range_meters":0,"station_id":"ce4bgj92rcd13ifvqbd0","pricing_plan_id":"free"},{"bike_id":"8720789d-cdc7-4f5b-80da-58f16fef8d91","system_id":"levelo_inurba_marseille","lat":43.299717,"lon":5.384845,"is_reserved":false,"is_disabled":false,"rental_uris":{"android":"levelo://app?vid=8720789d-cdc7-4f5b-80da-58f16fef8d91","ios":"levelo://app?vid=8720789d-cdc7-4f5b-80da-58f16fef8d91"},"vehicle_type_id":"4","last_reported":1679577275,"current_range_meters":0,"station_id":"ce4bgj92rcd13ifvqbd0","pricing_plan_id":"free"},{"bike_id":"e8bc267a-5943-4ccf-9f3a-67e4bbf282fb","system_id":"levelo_inurba_marseille","lat":43.293063,"lon":5.371737,"is_reserved":false,"is_disabled":false,"rental_uris":{"android":"levelo://app?vid=e8bc267a-5943-4ccf-9f3a-67e4bbf282fb","ios":"levelo://app?vid=e8bc267a-5943-4ccf-9f3a-67e4bbf282fb"},"vehicle_type_id":"4","last_reported":1679577275,"current_range_meters":0,"station_id":"","pricing_plan_id":"free"},{"bike_id":"a5d9f032-4427-4d7b-a96b-8268587269eb","system_id":"levelo_inurba_marseille","lat":43.30085,"lon":5.390856,"is_reserved":false,"is_disabled":false,"rental_uris":{"android":"levelo://app?vid=a5d9f032-4427-4d7b-a96b-8268587269eb","ios":"levelo://app?vid=a5d9f032-4427-4d7b-a96b-8268587269eb"},"vehicle_type_id":"4","last_reported":1679577275,"current_range_meters":2800,"station_id":"ce4bh192rcd13ifvqdb0","pricing_plan_id":"free"},{"bike_id":"83db1aaa-8e11-4a81-a927-b521dddcf4d9","system_id":"levelo_inurba_marseille","lat":43.305994,"lon":5.393687,"is_reserved":false,"is_disabled":false,"rental_uris":{"android":"levelo://app?vid=83db1aaa-8e11-4a81-a927-b521dddcf4d9","ios":"levelo://app?vid=83db1aaa-8e11-4a81-a927-b521dddcf4d9"},"vehicle_type_id":"4","last_reported":1679577275,"current_range_meters":2400,"station_id":"ce4bh0p2rcd13ifvqd80","pricing_plan_id":"free"},{"bike_id":"57e2fbdb-ad8b-45d0-b891-6e48f4466bbb","system_id":"levelo_inurba_marseille","lat":43.305994,"lon":5.393687,"is_reserved":false,"is_disabled":false,"rental_uris":{"android":"levelo://app?vid=57e2fbdb-ad8b-45d0-b891-6e48f4466bbb","ios":"levelo://app?vid=57e2fbdb-ad8b-45d0-b891-6e48f4466bbb"},"vehicle_type_id":"4","last_reported":1679577275,"current_range_meters":8800,"station_id":"ce4bh0p2rcd13ifvqd80","pricing_plan_id":"free"},{"bike_id":"816ce528-85a2-4cee-bbae-a60da9fb583c","system_id":"levelo_inurba_marseille","lat":43.305994,"lon":5.393687,"is_reserved":false,"is_disabled":false,"rental_uris":{"android":"levelo://app?vid=816ce528-85a2-4cee-bbae-a60da9fb583c","ios":"levelo://app?vid=816ce528-85a2-4cee-bbae-a60da9fb583c"},"vehicle_type_id":"4","last_reported":1679577275,"current_range_meters":19200,"station_id":"ce4bh0p2rcd13ifvqd80","pricing_plan_id":"free"},{"bike_id":"1a797f65-52a4-4168-be6e-8a6f479994d2","system_id":"levelo_inurba_marseille","lat":43.293009,"lon":5.374584,"is_reserved":false,"is_disabled":false,"rental_uris":{"android":"levelo://app?vid=1a797f65-52a4-4168-be6e-8a6f479994d2","ios":"levelo://app?vid=1a797f65-52a4-4168-be6e-8a6f479994d2"},"vehicle_type_id":"4","last_reported":1679577275,"current_range_meters":4400,"station_id":"ce4bgi12rcd13ifvqb70","pricing_plan_id":"free"},{"bike_id":"d45ac294-039f-4b77-a5bc-61bc5c196b91","system_id":"levelo_inurba_marseille","lat":43.305994,"lon":5.393687,"is_reserved":false,"is_disabled":false,"rental_uris":{"android":"levelo://app?vid=d45ac294-039f-4b77-a5bc-61bc5c196b91","ios":"levelo://app?vid=d45ac294-039f-4b77-a5bc-61bc5c196b91"},"vehicle_type_id":"4","last_reported":1679577275,"current_range_meters":23600,"station_id":"ce4bh0p2rcd13ifvqd80","pricing_plan_id":"free"},{"bike_id":"c8d72404-a99b-4952-9467-2cd1570dac65","system_id":"levelo_inurba_marseille","lat":43.29227,"lon":5.36059,"is_reserved":false,"is_disabled":false,"rental_uris":{"android":"levelo://app?vid=c8d72404-a99b-4952-9467-2cd1570dac65","ios":"levelo://app?vid=c8d72404-a99b-4952-9467-2cd1570dac65"},"vehicle_type_id":"4","last_reported":1679577275,"current_range_meters":23600,"station_id":"ce4bhbh2rcd13ifvqeqg","pricing_plan_id":"free"},{"bike_id":"4eeab901-c62d-43e3-8aed-a7f7b9829dd2","system_id":"levelo_inurba_marseille","lat":43.292311,"lon":5.360731,"is_reserved":false,"is_disabled":false,"rental_uris":{"android":"levelo://app?vid=4eeab901-c62d-43e3-8aed-a7f7b9829dd2","ios":"levelo://app?vid=4eeab901-c62d-43e3-8aed-a7f7b9829dd2"},"vehicle_type_id":"4","last_reported":1679577275,"current_range_meters":2400,"station_id":"ce4bhbh2rcd13ifvqeqg","pricing_plan_id":"free"},{"bike_id":"4528d96c-b2d6-4758-b4b5-66c76b905ad5","system_id":"levelo_inurba_marseille","lat":43.300852,"lon":5.390859,"is_reserved":false,"is_disabled":false,"rental_uris":{"android":"levelo://app?vid=4528d96c-b2d6-4758-b4b5-66c76b905ad5","ios":"levelo://app?vid=4528d96c-b2d6-4758-b4b5-66c76b905ad5"},"vehicle_type_id":"4","last_reported":1679577275,"current_range_meters":0,"station_id":"ce4bh192rcd13ifvqdb0","pricing_plan_id":"free"},{"bike_id":"26376e48-94ca-43cd-96c2-278bf9096315","system_id":"levelo_inurba_marseille","lat":43.29221,"lon":5.36056,"is_reserved":false,"is_disabled":false,"rental_uris":{"android":"levelo://app?vid=26376e48-94ca-43cd-96c2-278bf9096315","ios":"levelo://app?vid=26376e48-94ca-43cd-96c2-278bf9096315"},"vehicle_type_id":"4","last_reported":1679577275,"current_range_meters":14000,"station_id":"ce4bhbh2rcd13ifvqeqg","pricing_plan_id":"free"},{"bike_id":"ecb59cb9-7697-43a7-9d80-23f288a62cdc","system_id":"levelo_inurba_marseille","lat":43.290779,"lon":5.371482,"is_reserved":false,"is_disabled":false,"rental_uris":{"android":"levelo://app?vid=ecb59cb9-7697-43a7-9d80-23f288a62cdc","ios":"levelo://app?vid=ecb59cb9-7697-43a7-9d80-23f288a62cdc"},"vehicle_type_id":"4","last_reported":1679577275,"current_range_meters":10400,"station_id":"ce4bh5p2rcd13ifvqe4g","pricing_plan_id":"free"},{"bike_id":"e52800df-0678-47c8-89f3-34a1ee22581d","system_id":"levelo_inurba_marseille","lat":43.302008,"lon":5.394694,"is_reserved":false,"is_disabled":false,"rental_uris":{"android":"levelo://app?vid=e52800df-0678-47c8-89f3-34a1ee22581d","ios":"levelo://app?vid=e52800df-0678-47c8-89f3-34a1ee22581d"},"vehicle_type_id":"4","last_reported":1679577275,"current_range_meters":13200,"station_id":"ce4bh0p2rcd13ifvqd70","pricing_plan_id":"free"},{"bike_id":"c8b1381b-8a40-4a01-8e46-15250b05afe8","system_id":"levelo_inurba_marseille","lat":43.302008,"lon":5.394694,"is_reserved":false,"is_disabled":false,"rental_uris":{"android":"levelo://app?vid=c8b1381b-8a40-4a01-8e46-15250b05afe8","ios":"levelo://app?vid=c8b1381b-8a40-4a01-8e46-15250b05afe8"},"vehicle_type_id":"4","last_reported":1679577275,"current_range_meters":23600,"station_id":"ce4bh0p2rcd13ifvqd70","pricing_plan_id":"free"},{"bike_id":"23f6940e-56f8-4a1c-82d1-add24db73318","system_id":"levelo_inurba_marseille","lat":43.302008,"lon":5.394694,"is_reserved":false,"is_disabled":false,"rental_uris":{"android":"levelo://app?vid=23f6940e-56f8-4a1c-82d1-add24db73318","ios":"levelo://app?vid=23f6940e-56f8-4a1c-82d1-add24db73318"},"vehicle_type_id":"4","last_reported":1679577275,"current_range_meters":2000,"station_id":"ce4bh0p2rcd13ifvqd70","pricing_plan_id":"free"},{"bike_id":"987f4c4b-6a67-4878-bbd4-5bb1b29469c6","system_id":"levelo_inurba_marseille","lat":43.29045,"lon":5.35904,"is_reserved":false,"is_disabled":false,"rental_uris":{"android":"levelo://app?vid=987f4c4b-6a67-4878-bbd4-5bb1b29469c6","ios":"levelo://app?vid=987f4c4b-6a67-4878-bbd4-5bb1b29469c6"},"vehicle_type_id":"4","last_reported":1679577275,"current_range_meters":3600,"station_id":"ce4bha92rcd13ifvqeg0","pricing_plan_id":"free"},{"bike_id":"6be9c3bc-ac93-407c-ad17-2b56a20acf90","system_id":"levelo_inurba_marseille","lat":43.290391,"lon":5.359231,"is_reserved":false,"is_disabled":false,"rental_uris":{"android":"levelo://app?vid=6be9c3bc-ac93-407c-ad17-2b56a20acf90","ios":"levelo://app?vid=6be9c3bc-ac93-407c-ad17-2b56a20acf90"},"vehicle_type_id":"4","last_reported":1679577275,"current_range_meters":21200,"station_id":"","pricing_plan_id":"free"},{"bike_id":"1763d3c2-eedd-4172-9128-ab35da3c6f17","system_id":"levelo_inurba_marseille","lat":43.290319,"lon":5.375732,"is_reserved":false,"is_disabled":false,"rental_uris":{"android":"levelo://app?vid=1763d3c2-eedd-4172-9128-ab35da3c6f17","ios":"levelo://app?vid=1763d3c2-eedd-4172-9128-ab35da3c6f17"},"vehicle_type_id":"4","last_reported":1679577275,"current_range_meters":0,"station_id":"ce4bh692rcd13ifvqe90","pricing_plan_id":"free"},{"bike_id":"117488f5-a33f-4e93-aa84-c346ad93ea61","system_id":"levelo_inurba_marseille","lat":43.290327,"lon":5.375711,"is_reserved":false,"is_disabled":false,"rental_uris":{"android":"levelo://app?vid=117488f5-a33f-4e93-aa84-c346ad93ea61","ios":"levelo://app?vid=117488f5-a33f-4e93-aa84-c346ad93ea61"},"vehicle_type_id":"4","last_reported":1679577275,"current_range_meters":4000,"station_id":"ce4bh692rcd13ifvqe90","pricing_plan_id":"free"},{"bike_id":"cf3bc6ea-8913-492f-8fbb-f04befb2df06","system_id":"levelo_inurba_marseille","lat":43.290319,"lon":5.375732,"is_reserved":false,"is_disabled":false,"rental_uris":{"android":"levelo://app?vid=cf3bc6ea-8913-492f-8fbb-f04befb2df06","ios":"levelo://app?vid=cf3bc6ea-8913-492f-8fbb-f04befb2df06"},"vehicle_type_id":"4","last_reported":1679577275,"current_range_meters":8400,"station_id":"ce4bh692rcd13ifvqe90","pricing_plan_id":"free"},{"bike_id":"98e7cb3a-deb7-47b7-8bc9-afe747ad1902","system_id":"levelo_inurba_marseille","lat":43.289184,"lon":5.366408,"is_reserved":false,"is_disabled":false,"rental_uris":{"android":"levelo://app?vid=98e7cb3a-deb7-47b7-8bc9-afe747ad1902","ios":"levelo://app?vid=98e7cb3a-deb7-47b7-8bc9-afe747ad1902"},"vehicle_type_id":"4","last_reported":1679577275,"current_range_meters":2800,"station_id":"ce4bhap2rcd13ifvqek0","pricing_plan_id":"free"},{"bike_id":"040cbc8a-bebf-4d30-9bf6-f6ccd770e9e7","system_id":"levelo_inurba_marseille","lat":43.292644,"lon":5.384257,"is_reserved":false,"is_disabled":false,"rental_uris":{"android":"levelo://app?vid=040cbc8a-bebf-4d30-9bf6-f6ccd770e9e7","ios":"levelo://app?vid=040cbc8a-bebf-4d30-9bf6-f6ccd770e9e7"},"vehicle_type_id":"4","last_reported":1679577275,"current_range_meters":800,"station_id":"ce4bh692rcd13ifvqea0","pricing_plan_id":"free"},{"bike_id":"12fec15d-74e0-45b8-8e69-9b76ebe128f9","system_id":"levelo_inurba_marseille","lat":43.292663,"lon":5.384486,"is_reserved":false,"is_disabled":false,"rental_uris":{"android":"levelo://app?vid=12fec15d-74e0-45b8-8e69-9b76ebe128f9","ios":"levelo://app?vid=12fec15d-74e0-45b8-8e69-9b76ebe128f9"},"vehicle_type_id":"4","last_reported":1679577275,"current_range_meters":0,"station_id":"ce4bh692rcd13ifvqea0","pricing_plan_id":"free"},{"bike_id":"b55e668c-f408-4eea-81dd-e229ff4d9ff2","system_id":"levelo_inurba_marseille","lat":43.291023,"lon":5.38143,"is_reserved":false,"is_disabled":false,"rental_uris":{"android":"levelo://app?vid=b55e668c-f408-4eea-81dd-e229ff4d9ff2","ios":"levelo://app?vid=b55e668c-f408-4eea-81dd-e229ff4d9ff2"},"vehicle_type_id":"4","last_reported":1679577275,"current_range_meters":8800,"station_id":"ce4bh512rcd13ifvqe2g","pricing_plan_id":"free"},{"bike_id":"29f0f363-5db5-4da8-a554-53b0b57a060b","system_id":"levelo_inurba_marseille","lat":43.290913,"lon":5.38134,"is_reserved":false,"is_disabled":false,"rental_uris":{"android":"levelo://app?vid=29f0f363-5db5-4da8-a554-53b0b57a060b","ios":"levelo://app?vid=29f0f363-5db5-4da8-a554-53b0b57a060b"},"vehicle_type_id":"4","last_reported":1679577275,"current_range_meters":18800,"station_id":"ce4bh512rcd13ifvqe2g","pricing_plan_id":"free"},{"bike_id":"f99da897-c2f8-406d-b9c9-fafe2724f1b1","system_id":"levelo_inurba_marseille","lat":43.289743,"lon":5.378304,"is_reserved":false,"is_disabled":false,"rental_uris":{"android":"levelo://app?vid=f99da897-c2f8-406d-b9c9-fafe2724f1b1","ios":"levelo://app?vid=f99da897-c2f8-406d-b9c9-fafe2724f1b1"},"vehicle_type_id":"4","last_reported":1679577275,"current_range_meters":8000,"station_id":"ce4bh9p2rcd13ifvqed0","pricing_plan_id":"free"},{"bike_id":"6db401c2-b05d-4ee7-b731-6cff66b95111","system_id":"levelo_inurba_marseille","lat":43.289743,"lon":5.378304,"is_reserved":false,"is_disabled":false,"rental_uris":{"android":"levelo://app?vid=6db401c2-b05d-4ee7-b731-6cff66b95111","ios":"levelo://app?vid=6db401c2-b05d-4ee7-b731-6cff66b95111"},"vehicle_type_id":"4","last_reported":1679577275,"current_range_meters":4000,"station_id":"ce4bh9p2rcd13ifvqed0","pricing_plan_id":"free"},{"bike_id":"1890dcde-8b50-4825-a454-0ea3648206e8","system_id":"levelo_inurba_marseille","lat":43.28856,"lon":5.358371,"is_reserved":false,"is_disabled":false,"rental_uris":{"android":"levelo://app?vid=1890dcde-8b50-4825-a454-0ea3648206e8","ios":"levelo://app?vid=1890dcde-8b50-4825-a454-0ea3648206e8"},"vehicle_type_id":"4","last_reported":1679577275,"current_range_meters":4800,"station_id":"ce4bhb12rcd13ifvqem0","pricing_plan_id":"free"},{"bike_id":"3739c2ab-1024-401e-839e-31d33f9b8f17","system_id":"levelo_inurba_marseille","lat":43.28856,"lon":5.358371,"is_reserved":false,"is_disabled":false,"rental_uris":{"android":"levelo://app?vid=3739c2ab-1024-401e-839e-31d33f9b8f17","ios":"levelo://app?vid=3739c2ab-1024-401e-839e-31d33f9b8f17"},"vehicle_type_id":"4","last_reported":1679577275,"current_range_meters":0,"station_id":"ce4bhb12rcd13ifvqem0","pricing_plan_id":"free"},{"bike_id":"3c48aa3a-2c2a-47bc-aa49-3b9d6c619592","system_id":"levelo_inurba_marseille","lat":43.30646,"lon":5.40082,"is_reserved":false,"is_disabled":false,"rental_uris":{"android":"levelo://app?vid=3c48aa3a-2c2a-47bc-aa49-3b9d6c619592","ios":"levelo://app?vid=3c48aa3a-2c2a-47bc-aa49-3b9d6c619592"},"vehicle_type_id":"4","last_reported":1679577275,"current_range_meters":31200,"station_id":"ce4bh112rcd13ifvqda0","pricing_plan_id":"free"},{"bike_id":"ddaa0138-c32d-4615-9340-4f308235be71","system_id":"levelo_inurba_marseille","lat":43.30642,"lon":5.401031,"is_reserved":false,"is_disabled":false,"rental_uris":{"android":"levelo://app?vid=ddaa0138-c32d-4615-9340-4f308235be71","ios":"levelo://app?vid=ddaa0138-c32d-4615-9340-4f308235be71"},"vehicle_type_id":"4","last_reported":1679577275,"current_range_meters":0,"station_id":"ce4bh112rcd13ifvqda0","pricing_plan_id":"free"},{"bike_id":"fc03991f-80b0-427b-b399-e1a52a1a3b31","system_id":"levelo_inurba_marseille","lat":43.30645,"lon":5.40099,"is_reserved":false,"is_disabled":false,"rental_uris":{"android":"levelo://app?vid=fc03991f-80b0-427b-b399-e1a52a1a3b31","ios":"levelo://app?vid=fc03991f-80b0-427b-b399-e1a52a1a3b31"},"vehicle_type_id":"4","last_reported":1679577275,"current_range_meters":11600,"station_id":"","pricing_plan_id":"free"},{"bike_id":"7e33b3a6-6c8e-42be-be43-918aea8e1a96","system_id":"levelo_inurba_marseille","lat":43.301117,"lon":5.398795,"is_reserved":false,"is_disabled":false,"rental_uris":{"android":"levelo://app?vid=7e33b3a6-6c8e-42be-be43-918aea8e1a96","ios":"levelo://app?vid=7e33b3a6-6c8e-42be-be43-918aea8e1a96"},"vehicle_type_id":"4","last_reported":1679577275,"current_range_meters":1200,"station_id":"ce4bh0h2rcd13ifvqd40","pricing_plan_id":"free"},{"bike_id":"39237390-65dc-4426-a181-d3a7eaab499a","system_id":"levelo_inurba_marseille","lat":43.298681,"lon":5.397225,"is_reserved":false,"is_disabled":false,"rental_uris":{"android":"levelo://app?vid=39237390-65dc-4426-a181-d3a7eaab499a","ios":"levelo://app?vid=39237390-65dc-4426-a181-d3a7eaab499a"},"vehicle_type_id":"4","last_reported":1679577275,"current_range_meters":10800,"station_id":"ce4bh0h2rcd13ifvqd50","pricing_plan_id":"free"},{"bike_id":"12db3e53-f055-4e70-8d52-e5a5aa827ad7","system_id":"levelo_inurba_marseille","lat":43.28662,"lon":5.36355,"is_reserved":false,"is_disabled":false,"rental_uris":{"android":"levelo://app?vid=12db3e53-f055-4e70-8d52-e5a5aa827ad7","ios":"levelo://app?vid=12db3e53-f055-4e70-8d52-e5a5aa827ad7"},"vehicle_type_id":"4","last_reported":1679577275,"current_range_meters":2800,"station_id":"ce4bhah2rcd13ifvqej0","pricing_plan_id":"free"},{"bike_id":"506ccfdf-b664-4975-9b97-c25972a70939","system_id":"levelo_inurba_marseille","lat":43.28662,"lon":5.36349,"is_reserved":false,"is_disabled":false,"rental_uris":{"android":"levelo://app?vid=506ccfdf-b664-4975-9b97-c25972a70939","ios":"levelo://app?vid=506ccfdf-b664-4975-9b97-c25972a70939"},"vehicle_type_id":"4","last_reported":1679577275,"current_range_meters":12400,"station_id":"","pricing_plan_id":"free"},{"bike_id":"85b136c8-053e-498c-89e7-4a9ea879bee0","system_id":"levelo_inurba_marseille","lat":43.295234,"lon":5.393994,"is_reserved":false,"is_disabled":false,"rental_uris":{"android":"levelo://app?vid=85b136c8-053e-498c-89e7-4a9ea879bee0","ios":"levelo://app?vid=85b136c8-053e-498c-89e7-4a9ea879bee0"},"vehicle_type_id":"4","last_reported":1679577275,"current_range_meters":11200,"station_id":"ce4bh212rcd13ifvqde0","pricing_plan_id":"free"},{"bike_id":"a84063ff-ab66-48f2-9540-746047e95621","system_id":"levelo_inurba_marseille","lat":43.29524,"lon":5.39403,"is_reserved":false,"is_disabled":false,"rental_uris":{"android":"levelo://app?vid=a84063ff-ab66-48f2-9540-746047e95621","ios":"levelo://app?vid=a84063ff-ab66-48f2-9540-746047e95621"},"vehicle_type_id":"4","last_reported":1679577275,"current_range_meters":10000,"station_id":"ce4bh212rcd13ifvqde0","pricing_plan_id":"free"},{"bike_id":"d62e0bec-54d2-4c45-bf39-e2b2287f3f90","system_id":"levelo_inurba_marseille","lat":43.295237,"lon":5.394103,"is_reserved":false,"is_disabled":false,"rental_uris":{"android":"levelo://app?vid=d62e0bec-54d2-4c45-bf39-e2b2287f3f90","ios":"levelo://app?vid=d62e0bec-54d2-4c45-bf39-e2b2287f3f90"},"vehicle_type_id":"4","last_reported":1679577275,"current_range_meters":9600,"station_id":"ce4bh212rcd13ifvqde0","pricing_plan_id":"free"},{"bike_id":"6f20bf7c-c7d8-4ccc-9f70-c08588ee5486","system_id":"levelo_inurba_marseille","lat":43.286039,"lon":5.370679,"is_reserved":false,"is_disabled":false,"rental_uris":{"android":"levelo://app?vid=6f20bf7c-c7d8-4ccc-9f70-c08588ee5486","ios":"levelo://app?vid=6f20bf7c-c7d8-4ccc-9f70-c08588ee5486"},"vehicle_type_id":"4","last_reported":1679577275,"current_range_meters":0,"station_id":"ce4bht12rcd13ifvqi60","pricing_plan_id":"free"},{"bike_id":"bf8e689b-57d8-419f-8b29-c32794f0a277","system_id":"levelo_inurba_marseille","lat":43.28716,"lon":5.37938,"is_reserved":false,"is_disabled":false,"rental_uris":{"android":"levelo://app?vid=bf8e689b-57d8-419f-8b29-c32794f0a277","ios":"levelo://app?vid=bf8e689b-57d8-419f-8b29-c32794f0a277"},"vehicle_type_id":"4","last_reported":1679577275,"current_range_meters":4400,"station_id":"ce4bh9p2rcd13ifvqec0","pricing_plan_id":"free"},{"bike_id":"c4cab2ae-f693-471e-b3f9-15db768760b8","system_id":"levelo_inurba_marseille","lat":43.316517,"lon":5.404375,"is_reserved":false,"is_disabled":false,"rental_uris":{"android":"levelo://app?vid=c4cab2ae-f693-471e-b3f9-15db768760b8","ios":"levelo://app?vid=c4cab2ae-f693-471e-b3f9-15db768760b8"},"vehicle_type_id":"4","last_reported":1679577275,"current_range_meters":0,"station_id":"ce4bh012rcd13ifvqd00","pricing_plan_id":"free"},{"bike_id":"b9b89b09-f02e-4b33-8296-3a7126dc0d78","system_id":"levelo_inurba_marseille","lat":43.316517,"lon":5.404375,"is_reserved":false,"is_disabled":false,"rental_uris":{"android":"levelo://app?vid=b9b89b09-f02e-4b33-8296-3a7126dc0d78","ios":"levelo://app?vid=b9b89b09-f02e-4b33-8296-3a7126dc0d78"},"vehicle_type_id":"4","last_reported":1679577275,"current_range_meters":0,"station_id":"ce4bh012rcd13ifvqd00","pricing_plan_id":"free"},{"bike_id":"70326272-d946-4696-9fea-edf415fe00bd","system_id":"levelo_inurba_marseille","lat":43.316517,"lon":5.404375,"is_reserved":false,"is_disabled":false,"rental_uris":{"android":"levelo://app?vid=70326272-d946-4696-9fea-edf415fe00bd","ios":"levelo://app?vid=70326272-d946-4696-9fea-edf415fe00bd"},"vehicle_type_id":"4","last_reported":1679577275,"current_range_meters":14000,"station_id":"ce4bh012rcd13ifvqd00","pricing_plan_id":"free"},{"bike_id":"8ea42180-e514-4289-8046-9c8580b024b0","system_id":"levelo_inurba_marseille","lat":43.28707,"lon":5.35204,"is_reserved":false,"is_disabled":false,"rental_uris":{"android":"levelo://app?vid=8ea42180-e514-4289-8046-9c8580b024b0","ios":"levelo://app?vid=8ea42180-e514-4289-8046-9c8580b024b0"},"vehicle_type_id":"4","last_reported":1679577275,"current_range_meters":4000,"station_id":"","pricing_plan_id":"free"},{"bike_id":"f082df38-2a79-4242-a13e-68ccdd413bb5","system_id":"levelo_inurba_marseille","lat":43.295578,"lon":5.397186,"is_reserved":false,"is_disabled":false,"rental_uris":{"android":"levelo://app?vid=f082df38-2a79-4242-a13e-68ccdd413bb5","ios":"levelo://app?vid=f082df38-2a79-4242-a13e-68ccdd413bb5"},"vehicle_type_id":"4","last_reported":1679577275,"current_range_meters":0,"station_id":"","pricing_plan_id":"free"},{"bike_id":"2a8fc897-fbe0-4dcf-8293-b05290223ced","system_id":"levelo_inurba_marseille","lat":43.295694,"lon":5.399726,"is_reserved":false,"is_disabled":false,"rental_uris":{"android":"levelo://app?vid=2a8fc897-fbe0-4dcf-8293-b05290223ced","ios":"levelo://app?vid=2a8fc897-fbe0-4dcf-8293-b05290223ced"},"vehicle_type_id":"4","last_reported":1679577275,"current_range_meters":0,"station_id":"","pricing_plan_id":"free"},{"bike_id":"e5a62108-ebc0-4abe-8189-141d7de28f37","system_id":"levelo_inurba_marseille","lat":43.286595,"lon":5.386795,"is_reserved":false,"is_disabled":false,"rental_uris":{"android":"levelo://app?vid=e5a62108-ebc0-4abe-8189-141d7de28f37","ios":"levelo://app?vid=e5a62108-ebc0-4abe-8189-141d7de28f37"},"vehicle_type_id":"4","last_reported":1679577275,"current_range_meters":16400,"station_id":"ce4bh492rcd13ifvqdug","pricing_plan_id":"free"},{"bike_id":"7e8bdd9a-c6a7-4abd-a07c-6a61653ee16b","system_id":"levelo_inurba_marseille","lat":43.33682,"lon":5.39198,"is_reserved":false,"is_disabled":false,"rental_uris":{"android":"levelo://app?vid=7e8bdd9a-c6a7-4abd-a07c-6a61653ee16b","ios":"levelo://app?vid=7e8bdd9a-c6a7-4abd-a07c-6a61653ee16b"},"vehicle_type_id":"4","last_reported":1679577275,"current_range_meters":28000,"station_id":"ce4bhr92rcd13ifvqhsg","pricing_plan_id":"free"},{"bike_id":"9c74f8e0-49cb-42f5-a2ba-f0656079537e","system_id":"levelo_inurba_marseille","lat":43.337168,"lon":5.391825,"is_reserved":false,"is_disabled":false,"rental_uris":{"android":"levelo://app?vid=9c74f8e0-49cb-42f5-a2ba-f0656079537e","ios":"levelo://app?vid=9c74f8e0-49cb-42f5-a2ba-f0656079537e"},"vehicle_type_id":"4","last_reported":1679577275,"current_range_meters":27200,"station_id":"ce4bhr92rcd13ifvqhsg","pricing_plan_id":"free"},{"bike_id":"20660c19-f5e3-4d44-bc59-f39ba9cda8cd","system_id":"levelo_inurba_marseille","lat":43.337153,"lon":5.391847,"is_reserved":false,"is_disabled":false,"rental_uris":{"android":"levelo://app?vid=20660c19-f5e3-4d44-bc59-f39ba9cda8cd","ios":"levelo://app?vid=20660c19-f5e3-4d44-bc59-f39ba9cda8cd"},"vehicle_type_id":"4","last_reported":1679577275,"current_range_meters":27600,"station_id":"","pricing_plan_id":"free"},{"bike_id":"c1122938-837b-4812-8228-46dfe20a3b28","system_id":"levelo_inurba_marseille","lat":43.33722,"lon":5.39181,"is_reserved":false,"is_disabled":false,"rental_uris":{"android":"levelo://app?vid=c1122938-837b-4812-8228-46dfe20a3b28","ios":"levelo://app?vid=c1122938-837b-4812-8228-46dfe20a3b28"},"vehicle_type_id":"4","last_reported":1679577275,"current_range_meters":10400,"station_id":"","pricing_plan_id":"free"},{"bike_id":"a0a664f5-79e5-4ffe-841f-78d49125cd25","system_id":"levelo_inurba_marseille","lat":43.337243,"lon":5.391823,"is_reserved":false,"is_disabled":false,"rental_uris":{"android":"levelo://app?vid=a0a664f5-79e5-4ffe-841f-78d49125cd25","ios":"levelo://app?vid=a0a664f5-79e5-4ffe-841f-78d49125cd25"},"vehicle_type_id":"4","last_reported":1679577275,"current_range_meters":29200,"station_id":"","pricing_plan_id":"free"},{"bike_id":"ab1dea5a-2419-42d6-95c7-13bdabd82064","system_id":"levelo_inurba_marseille","lat":43.284793,"lon":5.384113,"is_reserved":false,"is_disabled":false,"rental_uris":{"android":"levelo://app?vid=ab1dea5a-2419-42d6-95c7-13bdabd82064","ios":"levelo://app?vid=ab1dea5a-2419-42d6-95c7-13bdabd82064"},"vehicle_type_id":"4","last_reported":1679577275,"current_range_meters":15200,"station_id":"ce4bh512rcd13ifvqe3g","pricing_plan_id":"free"},{"bike_id":"e0077465-4be4-4d4e-ad8c-f644110c6a6e","system_id":"levelo_inurba_marseille","lat":43.288497,"lon":5.393089,"is_reserved":false,"is_disabled":false,"rental_uris":{"android":"levelo://app?vid=e0077465-4be4-4d4e-ad8c-f644110c6a6e","ios":"levelo://app?vid=e0077465-4be4-4d4e-ad8c-f644110c6a6e"},"vehicle_type_id":"4","last_reported":1679577275,"current_range_meters":0,"station_id":"ce4bh2p2rcd13ifvqdi0","pricing_plan_id":"free"},{"bike_id":"89483df2-5622-44b9-befe-66453e1af03f","system_id":"levelo_inurba_marseille","lat":43.288497,"lon":5.393089,"is_reserved":false,"is_disabled":false,"rental_uris":{"android":"levelo://app?vid=89483df2-5622-44b9-befe-66453e1af03f","ios":"levelo://app?vid=89483df2-5622-44b9-befe-66453e1af03f"},"vehicle_type_id":"4","last_reported":1679577275,"current_range_meters":0,"station_id":"ce4bh2p2rcd13ifvqdi0","pricing_plan_id":"free"},{"bike_id":"acc750ed-a87b-4f5c-bd09-d76dac69b2fb","system_id":"levelo_inurba_marseille","lat":43.288501,"lon":5.393087,"is_reserved":false,"is_disabled":false,"rental_uris":{"android":"levelo://app?vid=acc750ed-a87b-4f5c-bd09-d76dac69b2fb","ios":"levelo://app?vid=acc750ed-a87b-4f5c-bd09-d76dac69b2fb"},"vehicle_type_id":"4","last_reported":1679577275,"current_range_meters":20000,"station_id":"ce4bh2p2rcd13ifvqdi0","pricing_plan_id":"free"},{"bike_id":"f9788251-f242-4635-886d-f9dbbaf157e2","system_id":"levelo_inurba_marseille","lat":43.288497,"lon":5.393089,"is_reserved":false,"is_disabled":false,"rental_uris":{"android":"levelo://app?vid=f9788251-f242-4635-886d-f9dbbaf157e2","ios":"levelo://app?vid=f9788251-f242-4635-886d-f9dbbaf157e2"},"vehicle_type_id":"4","last_reported":1679577275,"current_range_meters":2000,"station_id":"ce4bh2p2rcd13ifvqdi0","pricing_plan_id":"free"},{"bike_id":"b0d98e6a-9fb6-4bee-8969-2f382b84f329","system_id":"levelo_inurba_marseille","lat":43.282754,"lon":5.350519,"is_reserved":false,"is_disabled":false,"rental_uris":{"android":"levelo://app?vid=b0d98e6a-9fb6-4bee-8969-2f382b84f329","ios":"levelo://app?vid=b0d98e6a-9fb6-4bee-8969-2f382b84f329"},"vehicle_type_id":"4","last_reported":1679577275,"current_range_meters":4400,"station_id":"ce4bhbp2rcd13ifvqerg","pricing_plan_id":"free"},{"bike_id":"88195ebf-3f7a-4332-bf56-17a74fe444bd","system_id":"levelo_inurba_marseille","lat":43.29041,"lon":5.399634,"is_reserved":false,"is_disabled":false,"rental_uris":{"android":"levelo://app?vid=88195ebf-3f7a-4332-bf56-17a74fe444bd","ios":"levelo://app?vid=88195ebf-3f7a-4332-bf56-17a74fe444bd"},"vehicle_type_id":"4","last_reported":1679577275,"current_range_meters":31200,"station_id":"ce4bh392rcd13ifvqdm0","pricing_plan_id":"free"},{"bike_id":"da544c27-b964-4cbe-984f-636134b84724","system_id":"levelo_inurba_marseille","lat":43.29041,"lon":5.399634,"is_reserved":false,"is_disabled":false,"rental_uris":{"android":"levelo://app?vid=da544c27-b964-4cbe-984f-636134b84724","ios":"levelo://app?vid=da544c27-b964-4cbe-984f-636134b84724"},"vehicle_type_id":"4","last_reported":1679577275,"current_range_meters":24800,"station_id":"ce4bh392rcd13ifvqdm0","pricing_plan_id":"free"},{"bike_id":"e4c06d50-f01c-44a8-b43c-f07c21565fa2","system_id":"levelo_inurba_marseille","lat":43.29041,"lon":5.399634,"is_reserved":false,"is_disabled":false,"rental_uris":{"android":"levelo://app?vid=e4c06d50-f01c-44a8-b43c-f07c21565fa2","ios":"levelo://app?vid=e4c06d50-f01c-44a8-b43c-f07c21565fa2"},"vehicle_type_id":"4","last_reported":1679577275,"current_range_meters":31600,"station_id":"ce4bh392rcd13ifvqdm0","pricing_plan_id":"free"},{"bike_id":"d809e01c-6926-4360-bc2b-92553698189e","system_id":"levelo_inurba_marseille","lat":43.29041,"lon":5.399634,"is_reserved":false,"is_disabled":false,"rental_uris":{"android":"levelo://app?vid=d809e01c-6926-4360-bc2b-92553698189e","ios":"levelo://app?vid=d809e01c-6926-4360-bc2b-92553698189e"},"vehicle_type_id":"4","last_reported":1679577275,"current_range_meters":25600,"station_id":"ce4bh392rcd13ifvqdm0","pricing_plan_id":"free"},{"bike_id":"8dc41785-d996-4c36-9257-f01cb1423de1","system_id":"levelo_inurba_marseille","lat":43.29041,"lon":5.399634,"is_reserved":false,"is_disabled":false,"rental_uris":{"android":"levelo://app?vid=8dc41785-d996-4c36-9257-f01cb1423de1","ios":"levelo://app?vid=8dc41785-d996-4c36-9257-f01cb1423de1"},"vehicle_type_id":"4","last_reported":1679577275,"current_range_meters":24400,"station_id":"ce4bh392rcd13ifvqdm0","pricing_plan_id":"free"},{"bike_id":"733aabfe-bf26-444f-bbd7-1198592044b4","system_id":"levelo_inurba_marseille","lat":43.2811,"lon":5.37831,"is_reserved":false,"is_disabled":false,"rental_uris":{"android":"levelo://app?vid=733aabfe-bf26-444f-bbd7-1198592044b4","ios":"levelo://app?vid=733aabfe-bf26-444f-bbd7-1198592044b4"},"vehicle_type_id":"4","last_reported":1679577275,"current_range_meters":15600,"station_id":"","pricing_plan_id":"free"},{"bike_id":"a0442595-b435-465e-932e-a4133544fc0a","system_id":"levelo_inurba_marseille","lat":43.28108,"lon":5.37833,"is_reserved":false,"is_disabled":false,"rental_uris":{"android":"levelo://app?vid=a0442595-b435-465e-932e-a4133544fc0a","ios":"levelo://app?vid=a0442595-b435-465e-932e-a4133544fc0a"},"vehicle_type_id":"4","last_reported":1679577275,"current_range_meters":2000,"station_id":"","pricing_plan_id":"free"},{"bike_id":"0ce8f300-cc73-4c11-bb35-856d3e35342a","system_id":"levelo_inurba_marseille","lat":43.28107,"lon":5.37829,"is_reserved":false,"is_disabled":false,"rental_uris":{"android":"levelo://app?vid=0ce8f300-cc73-4c11-bb35-856d3e35342a","ios":"levelo://app?vid=0ce8f300-cc73-4c11-bb35-856d3e35342a"},"vehicle_type_id":"4","last_reported":1679577275,"current_range_meters":18400,"station_id":"","pricing_plan_id":"free"},{"bike_id":"4be4adf4-7bbc-4e95-9e62-9621631c7fd5","system_id":"levelo_inurba_marseille","lat":43.28106,"lon":5.37829,"is_reserved":false,"is_disabled":false,"rental_uris":{"android":"levelo://app?vid=4be4adf4-7bbc-4e95-9e62-9621631c7fd5","ios":"levelo://app?vid=4be4adf4-7bbc-4e95-9e62-9621631c7fd5"},"vehicle_type_id":"4","last_reported":1679577275,"current_range_meters":6400,"station_id":"","pricing_plan_id":"free"},{"bike_id":"e9bcc95d-75a8-4159-9b0e-d16f6efc5e3c","system_id":"levelo_inurba_marseille","lat":43.28105,"lon":5.37833,"is_reserved":false,"is_disabled":false,"rental_uris":{"android":"levelo://app?vid=e9bcc95d-75a8-4159-9b0e-d16f6efc5e3c","ios":"levelo://app?vid=e9bcc95d-75a8-4159-9b0e-d16f6efc5e3c"},"vehicle_type_id":"4","last_reported":1679577275,"current_range_meters":4800,"station_id":"","pricing_plan_id":"free"},{"bike_id":"aee47c3a-e1c0-43b9-a249-42d2c92a9bab","system_id":"levelo_inurba_marseille","lat":43.296263,"lon":5.40601,"is_reserved":false,"is_disabled":false,"rental_uris":{"android":"levelo://app?vid=aee47c3a-e1c0-43b9-a249-42d2c92a9bab","ios":"levelo://app?vid=aee47c3a-e1c0-43b9-a249-42d2c92a9bab"},"vehicle_type_id":"4","last_reported":1679577275,"current_range_meters":20400,"station_id":"ce4bh0h2rcd13ifvqd60","pricing_plan_id":"free"},{"bike_id":"9c87f6c8-c98a-4b83-958c-abce7fe2d996","system_id":"levelo_inurba_marseille","lat":43.296263,"lon":5.40601,"is_reserved":false,"is_disabled":false,"rental_uris":{"android":"levelo://app?vid=9c87f6c8-c98a-4b83-958c-abce7fe2d996","ios":"levelo://app?vid=9c87f6c8-c98a-4b83-958c-abce7fe2d996"},"vehicle_type_id":"4","last_reported":1679577275,"current_range_meters":26800,"station_id":"ce4bh0h2rcd13ifvqd60","pricing_plan_id":"free"},{"bike_id":"1d42b085-2d05-4917-8141-bbdae7dce39c","system_id":"levelo_inurba_marseille","lat":43.281,"lon":5.37835,"is_reserved":false,"is_disabled":false,"rental_uris":{"android":"levelo://app?vid=1d42b085-2d05-4917-8141-bbdae7dce39c","ios":"levelo://app?vid=1d42b085-2d05-4917-8141-bbdae7dce39c"},"vehicle_type_id":"4","last_reported":1679577275,"current_range_meters":15600,"station_id":"ce4bha12rcd13ifvqee0","pricing_plan_id":"free"},{"bike_id":"94a3fe31-6664-42ff-ab91-2ade68252a90","system_id":"levelo_inurba_marseille","lat":43.296263,"lon":5.40601,"is_reserved":false,"is_disabled":false,"rental_uris":{"android":"levelo://app?vid=94a3fe31-6664-42ff-ab91-2ade68252a90","ios":"levelo://app?vid=94a3fe31-6664-42ff-ab91-2ade68252a90"},"vehicle_type_id":"4","last_reported":1679577275,"current_range_meters":4400,"station_id":"ce4bh0h2rcd13ifvqd60","pricing_plan_id":"free"},{"bike_id":"766b5447-5a30-4526-ad6c-982891fa7819","system_id":"levelo_inurba_marseille","lat":43.296263,"lon":5.40601,"is_reserved":false,"is_disabled":false,"rental_uris":{"android":"levelo://app?vid=766b5447-5a30-4526-ad6c-982891fa7819","ios":"levelo://app?vid=766b5447-5a30-4526-ad6c-982891fa7819"},"vehicle_type_id":"4","last_reported":1679577275,"current_range_meters":23600,"station_id":"ce4bh0h2rcd13ifvqd60","pricing_plan_id":"free"},{"bike_id":"b6c72833-87da-4b34-ac68-d9f2524e2e7a","system_id":"levelo_inurba_marseille","lat":43.296263,"lon":5.40601,"is_reserved":false,"is_disabled":false,"rental_uris":{"android":"levelo://app?vid=b6c72833-87da-4b34-ac68-d9f2524e2e7a","ios":"levelo://app?vid=b6c72833-87da-4b34-ac68-d9f2524e2e7a"},"vehicle_type_id":"4","last_reported":1679577275,"current_range_meters":8000,"station_id":"ce4bh0h2rcd13ifvqd60","pricing_plan_id":"free"},{"bike_id":"8d530a9b-184a-457f-98a5-496dc650e5a2","system_id":"levelo_inurba_marseille","lat":43.284462,"lon":5.392121,"is_reserved":false,"is_disabled":false,"rental_uris":{"android":"levelo://app?vid=8d530a9b-184a-457f-98a5-496dc650e5a2","ios":"levelo://app?vid=8d530a9b-184a-457f-98a5-496dc650e5a2"},"vehicle_type_id":"4","last_reported":1679577275,"current_range_meters":15600,"station_id":"ce4bhoh2rcd13ifvqh5g","pricing_plan_id":"free"},{"bike_id":"169732f2-0378-417a-ae13-a121d27d02f5","system_id":"levelo_inurba_marseille","lat":43.284462,"lon":5.392121,"is_reserved":false,"is_disabled":false,"rental_uris":{"android":"levelo://app?vid=169732f2-0378-417a-ae13-a121d27d02f5","ios":"levelo://app?vid=169732f2-0378-417a-ae13-a121d27d02f5"},"vehicle_type_id":"4","last_reported":1679577275,"current_range_meters":14800,"station_id":"ce4bhoh2rcd13ifvqh5g","pricing_plan_id":"free"},{"bike_id":"5df9bae2-3a75-4ed6-853c-9733cb70ca2e","system_id":"levelo_inurba_marseille","lat":43.284462,"lon":5.392121,"is_reserved":false,"is_disabled":false,"rental_uris":{"android":"levelo://app?vid=5df9bae2-3a75-4ed6-853c-9733cb70ca2e","ios":"levelo://app?vid=5df9bae2-3a75-4ed6-853c-9733cb70ca2e"},"vehicle_type_id":"4","last_reported":1679577275,"current_range_meters":23200,"station_id":"ce4bhoh2rcd13ifvqh5g","pricing_plan_id":"free"},{"bike_id":"d7dbf62b-06fb-4144-9779-c95494fc9bd8","system_id":"levelo_inurba_marseille","lat":43.325233,"lon":5.414318,"is_reserved":false,"is_disabled":false,"rental_uris":{"android":"levelo://app?vid=d7dbf62b-06fb-4144-9779-c95494fc9bd8","ios":"levelo://app?vid=d7dbf62b-06fb-4144-9779-c95494fc9bd8"},"vehicle_type_id":"4","last_reported":1679577275,"current_range_meters":0,"station_id":"ce4bhq12rcd13ifvqhhg","pricing_plan_id":"free"},{"bike_id":"500cbc91-2546-45c3-9ac0-fd1bed5b66c3","system_id":"levelo_inurba_marseille","lat":43.3254,"lon":5.41425,"is_reserved":false,"is_disabled":false,"rental_uris":{"android":"levelo://app?vid=500cbc91-2546-45c3-9ac0-fd1bed5b66c3","ios":"levelo://app?vid=500cbc91-2546-45c3-9ac0-fd1bed5b66c3"},"vehicle_type_id":"4","last_reported":1679577275,"current_range_meters":400,"station_id":"ce4bhq12rcd13ifvqhhg","pricing_plan_id":"free"},{"bike_id":"ee881d35-51c3-40fc-a6b2-20623cbb2e74","system_id":"levelo_inurba_marseille","lat":43.27618,"lon":5.361009,"is_reserved":false,"is_disabled":false,"rental_uris":{"android":"levelo://app?vid=ee881d35-51c3-40fc-a6b2-20623cbb2e74","ios":"levelo://app?vid=ee881d35-51c3-40fc-a6b2-20623cbb2e74"},"vehicle_type_id":"4","last_reported":1679577275,"current_range_meters":11600,"station_id":"ce4bgj92rcd13ifvqbe0","pricing_plan_id":"free"},{"bike_id":"510e93d7-5aba-4c74-85e8-d73de292cbd7","system_id":"levelo_inurba_marseille","lat":43.325233,"lon":5.414318,"is_reserved":false,"is_disabled":false,"rental_uris":{"android":"levelo://app?vid=510e93d7-5aba-4c74-85e8-d73de292cbd7","ios":"levelo://app?vid=510e93d7-5aba-4c74-85e8-d73de292cbd7"},"vehicle_type_id":"4","last_reported":1679577275,"current_range_meters":0,"station_id":"ce4bhq12rcd13ifvqhhg","pricing_plan_id":"free"},{"bike_id":"f2037a7a-3e23-4cb1-b045-81d88cb669cb","system_id":"levelo_inurba_marseille","lat":43.27618,"lon":5.361009,"is_reserved":false,"is_disabled":false,"rental_uris":{"android":"levelo://app?vid=f2037a7a-3e23-4cb1-b045-81d88cb669cb","ios":"levelo://app?vid=f2037a7a-3e23-4cb1-b045-81d88cb669cb"},"vehicle_type_id":"4","last_reported":1679577275,"current_range_meters":6400,"station_id":"ce4bgj92rcd13ifvqbe0","pricing_plan_id":"free"},{"bike_id":"59ef513b-db51-4187-b630-11dee69e6158","system_id":"levelo_inurba_marseille","lat":43.325415,"lon":5.414419,"is_reserved":false,"is_disabled":false,"rental_uris":{"android":"levelo://app?vid=59ef513b-db51-4187-b630-11dee69e6158","ios":"levelo://app?vid=59ef513b-db51-4187-b630-11dee69e6158"},"vehicle_type_id":"4","last_reported":1679577275,"current_range_meters":0,"station_id":"ce4bhq12rcd13ifvqhhg","pricing_plan_id":"free"},{"bike_id":"e0391a88-01fe-4364-8633-23e2afd96e22","system_id":"levelo_inurba_marseille","lat":43.276179,"lon":5.361009,"is_reserved":false,"is_disabled":false,"rental_uris":{"android":"levelo://app?vid=e0391a88-01fe-4364-8633-23e2afd96e22","ios":"levelo://app?vid=e0391a88-01fe-4364-8633-23e2afd96e22"},"vehicle_type_id":"4","last_reported":1679577275,"current_range_meters":4800,"station_id":"ce4bgj92rcd13ifvqbe0","pricing_plan_id":"free"},{"bike_id":"10229261-b191-4a5c-b07c-3f09fd084622","system_id":"levelo_inurba_marseille","lat":43.280784,"lon":5.396622,"is_reserved":false,"is_disabled":false,"rental_uris":{"android":"levelo://app?vid=10229261-b191-4a5c-b07c-3f09fd084622","ios":"levelo://app?vid=10229261-b191-4a5c-b07c-3f09fd084622"},"vehicle_type_id":"4","last_reported":1679577275,"current_range_meters":21600,"station_id":"ce4bho12rcd13ifvqh2g","pricing_plan_id":"free"},{"bike_id":"5cef357e-658a-466c-bc11-ce56249d74b3","system_id":"levelo_inurba_marseille","lat":43.280784,"lon":5.396622,"is_reserved":false,"is_disabled":false,"rental_uris":{"android":"levelo://app?vid=5cef357e-658a-466c-bc11-ce56249d74b3","ios":"levelo://app?vid=5cef357e-658a-466c-bc11-ce56249d74b3"},"vehicle_type_id":"4","last_reported":1679577275,"current_range_meters":5200,"station_id":"ce4bho12rcd13ifvqh2g","pricing_plan_id":"free"},{"bike_id":"1e19cad9-1344-46c4-8b4d-c11bab3c5c3c","system_id":"levelo_inurba_marseille","lat":43.273613,"lon":5.362705,"is_reserved":false,"is_disabled":false,"rental_uris":{"android":"levelo://app?vid=1e19cad9-1344-46c4-8b4d-c11bab3c5c3c","ios":"levelo://app?vid=1e19cad9-1344-46c4-8b4d-c11bab3c5c3c"},"vehicle_type_id":"4","last_reported":1679577275,"current_range_meters":2800,"station_id":"ce4bhbh2rcd13ifvqeo0","pricing_plan_id":"free"},{"bike_id":"b37b623c-ec92-4633-9524-e2a3c5236eb8","system_id":"levelo_inurba_marseille","lat":43.273613,"lon":5.362705,"is_reserved":false,"is_disabled":false,"rental_uris":{"android":"levelo://app?vid=b37b623c-ec92-4633-9524-e2a3c5236eb8","ios":"levelo://app?vid=b37b623c-ec92-4633-9524-e2a3c5236eb8"},"vehicle_type_id":"4","last_reported":1679577275,"current_range_meters":31600,"station_id":"ce4bhbh2rcd13ifvqeo0","pricing_plan_id":"free"},{"bike_id":"8be6d4cc-f7c6-44f5-8ced-a4d8c833f7f5","system_id":"levelo_inurba_marseille","lat":43.27374,"lon":5.36265,"is_reserved":false,"is_disabled":false,"rental_uris":{"android":"levelo://app?vid=8be6d4cc-f7c6-44f5-8ced-a4d8c833f7f5","ios":"levelo://app?vid=8be6d4cc-f7c6-44f5-8ced-a4d8c833f7f5"},"vehicle_type_id":"4","last_reported":1679577275,"current_range_meters":12800,"station_id":"","pricing_plan_id":"free"},{"bike_id":"0d075507-5815-44a9-b9cc-1809c078054b","system_id":"levelo_inurba_marseille","lat":43.273613,"lon":5.362705,"is_reserved":false,"is_disabled":false,"rental_uris":{"android":"levelo://app?vid=0d075507-5815-44a9-b9cc-1809c078054b","ios":"levelo://app?vid=0d075507-5815-44a9-b9cc-1809c078054b"},"vehicle_type_id":"4","last_reported":1679577275,"current_range_meters":31600,"station_id":"ce4bhbh2rcd13ifvqeo0","pricing_plan_id":"free"},{"bike_id":"c29900e5-6a60-4ad4-ab4e-196e5c2dcf27","system_id":"levelo_inurba_marseille","lat":43.273613,"lon":5.362705,"is_reserved":false,"is_disabled":false,"rental_uris":{"android":"levelo://app?vid=c29900e5-6a60-4ad4-ab4e-196e5c2dcf27","ios":"levelo://app?vid=c29900e5-6a60-4ad4-ab4e-196e5c2dcf27"},"vehicle_type_id":"4","last_reported":1679577275,"current_range_meters":28000,"station_id":"ce4bhbh2rcd13ifvqeo0","pricing_plan_id":"free"},{"bike_id":"10cdcc7e-dfe0-44d3-9e03-21bd78465d3d","system_id":"levelo_inurba_marseille","lat":43.273613,"lon":5.362705,"is_reserved":false,"is_disabled":false,"rental_uris":{"android":"levelo://app?vid=10cdcc7e-dfe0-44d3-9e03-21bd78465d3d","ios":"levelo://app?vid=10cdcc7e-dfe0-44d3-9e03-21bd78465d3d"},"vehicle_type_id":"4","last_reported":1679577275,"current_range_meters":31600,"station_id":"ce4bhbh2rcd13ifvqeo0","pricing_plan_id":"free"},{"bike_id":"d9f38b8a-c40b-45f2-bb28-0c9eab71c319","system_id":"levelo_inurba_marseille","lat":43.33612,"lon":5.410321,"is_reserved":false,"is_disabled":false,"rental_uris":{"android":"levelo://app?vid=d9f38b8a-c40b-45f2-bb28-0c9eab71c319","ios":"levelo://app?vid=d9f38b8a-c40b-45f2-bb28-0c9eab71c319"},"vehicle_type_id":"4","last_reported":1679577275,"current_range_meters":8400,"station_id":"ce4bhqh2rcd13ifvqhmg","pricing_plan_id":"free"},{"bike_id":"1f3a2855-ab40-44ac-befa-e9e8f761addd","system_id":"levelo_inurba_marseille","lat":43.336134,"lon":5.410341,"is_reserved":false,"is_disabled":false,"rental_uris":{"android":"levelo://app?vid=1f3a2855-ab40-44ac-befa-e9e8f761addd","ios":"levelo://app?vid=1f3a2855-ab40-44ac-befa-e9e8f761addd"},"vehicle_type_id":"4","last_reported":1679577275,"current_range_meters":21200,"station_id":"ce4bhqh2rcd13ifvqhmg","pricing_plan_id":"free"},{"bike_id":"7b68014d-7e14-411c-8fed-7bb898e0e4b9","system_id":"levelo_inurba_marseille","lat":43.336134,"lon":5.410341,"is_reserved":false,"is_disabled":false,"rental_uris":{"android":"levelo://app?vid=7b68014d-7e14-411c-8fed-7bb898e0e4b9","ios":"levelo://app?vid=7b68014d-7e14-411c-8fed-7bb898e0e4b9"},"vehicle_type_id":"4","last_reported":1679577275,"current_range_meters":12400,"station_id":"ce4bhqh2rcd13ifvqhmg","pricing_plan_id":"free"},{"bike_id":"37c92eb3-4605-4ec8-b204-e3b25a6f9e88","system_id":"levelo_inurba_marseille","lat":43.336055,"lon":5.410343,"is_reserved":false,"is_disabled":false,"rental_uris":{"android":"levelo://app?vid=37c92eb3-4605-4ec8-b204-e3b25a6f9e88","ios":"levelo://app?vid=37c92eb3-4605-4ec8-b204-e3b25a6f9e88"},"vehicle_type_id":"4","last_reported":1679577275,"current_range_meters":12400,"station_id":"","pricing_plan_id":"free"},{"bike_id":"ca672485-467c-4230-a8d7-f219fa3543b4","system_id":"levelo_inurba_marseille","lat":43.336133,"lon":5.41034,"is_reserved":false,"is_disabled":false,"rental_uris":{"android":"levelo://app?vid=ca672485-467c-4230-a8d7-f219fa3543b4","ios":"levelo://app?vid=ca672485-467c-4230-a8d7-f219fa3543b4"},"vehicle_type_id":"4","last_reported":1679577275,"current_range_meters":14800,"station_id":"","pricing_plan_id":"free"},{"bike_id":"0d7b26c3-df1c-47fa-bceb-fb2c7ca16cb8","system_id":"levelo_inurba_marseille","lat":43.274263,"lon":5.394041,"is_reserved":false,"is_disabled":false,"rental_uris":{"android":"levelo://app?vid=0d7b26c3-df1c-47fa-bceb-fb2c7ca16cb8","ios":"levelo://app?vid=0d7b26c3-df1c-47fa-bceb-fb2c7ca16cb8"},"vehicle_type_id":"4","last_reported":1679577275,"current_range_meters":0,"station_id":"","pricing_plan_id":"free"},{"bike_id":"8f6f7373-8170-4120-8f1d-aabdb1a00aec","system_id":"levelo_inurba_marseille","lat":43.304096,"lon":5.425385,"is_reserved":false,"is_disabled":false,"rental_uris":{"android":"levelo://app?vid=8f6f7373-8170-4120-8f1d-aabdb1a00aec","ios":"levelo://app?vid=8f6f7373-8170-4120-8f1d-aabdb1a00aec"},"vehicle_type_id":"4","last_reported":1679577275,"current_range_meters":19600,"station_id":"ce4bhoh2rcd13ifvqh6g","pricing_plan_id":"free"},{"bike_id":"d4e3cf76-8aae-4dd9-af50-4426f0a7070c","system_id":"levelo_inurba_marseille","lat":43.304154,"lon":5.425384,"is_reserved":false,"is_disabled":false,"rental_uris":{"android":"levelo://app?vid=d4e3cf76-8aae-4dd9-af50-4426f0a7070c","ios":"levelo://app?vid=d4e3cf76-8aae-4dd9-af50-4426f0a7070c"},"vehicle_type_id":"4","last_reported":1679577275,"current_range_meters":15600,"station_id":"","pricing_plan_id":"free"},{"bike_id":"904f541a-a7f0-466b-bbcf-a6d1562f844b","system_id":"levelo_inurba_marseille","lat":43.304096,"lon":5.425385,"is_reserved":false,"is_disabled":false,"rental_uris":{"android":"levelo://app?vid=904f541a-a7f0-466b-bbcf-a6d1562f844b","ios":"levelo://app?vid=904f541a-a7f0-466b-bbcf-a6d1562f844b"},"vehicle_type_id":"4","last_reported":1679577275,"current_range_meters":12400,"station_id":"ce4bhoh2rcd13ifvqh6g","pricing_plan_id":"free"},{"bike_id":"ca983cd3-7f4f-4911-8dd6-e2d8f3d9db41","system_id":"levelo_inurba_marseille","lat":43.304096,"lon":5.425385,"is_reserved":false,"is_disabled":false,"rental_uris":{"android":"levelo://app?vid=ca983cd3-7f4f-4911-8dd6-e2d8f3d9db41","ios":"levelo://app?vid=ca983cd3-7f4f-4911-8dd6-e2d8f3d9db41"},"vehicle_type_id":"4","last_reported":1679577275,"current_range_meters":4000,"station_id":"ce4bhoh2rcd13ifvqh6g","pricing_plan_id":"free"},{"bike_id":"60c79377-3684-4324-841b-d2ee828a8df1","system_id":"levelo_inurba_marseille","lat":43.278128,"lon":5.407195,"is_reserved":false,"is_disabled":false,"rental_uris":{"android":"levelo://app?vid=60c79377-3684-4324-841b-d2ee828a8df1","ios":"levelo://app?vid=60c79377-3684-4324-841b-d2ee828a8df1"},"vehicle_type_id":"4","last_reported":1679577275,"current_range_meters":17600,"station_id":"ce4bhnh2rcd13ifvqgtg","pricing_plan_id":"free"},{"bike_id":"5fa53c62-a136-43db-a2ce-9a2edc6b8f73","system_id":"levelo_inurba_marseille","lat":43.278128,"lon":5.407195,"is_reserved":false,"is_disabled":false,"rental_uris":{"android":"levelo://app?vid=5fa53c62-a136-43db-a2ce-9a2edc6b8f73","ios":"levelo://app?vid=5fa53c62-a136-43db-a2ce-9a2edc6b8f73"},"vehicle_type_id":"4","last_reported":1679577275,"current_range_meters":8400,"station_id":"ce4bhnh2rcd13ifvqgtg","pricing_plan_id":"free"},{"bike_id":"cf7aa0e5-9f43-47a3-8238-0837e5453502","system_id":"levelo_inurba_marseille","lat":43.278152,"lon":5.407166,"is_reserved":false,"is_disabled":false,"rental_uris":{"android":"levelo://app?vid=cf7aa0e5-9f43-47a3-8238-0837e5453502","ios":"levelo://app?vid=cf7aa0e5-9f43-47a3-8238-0837e5453502"},"vehicle_type_id":"4","last_reported":1679577275,"current_range_meters":12000,"station_id":"","pricing_plan_id":"free"},{"bike_id":"179c4ca9-f1e7-4697-895a-395b360d6528","system_id":"levelo_inurba_marseille","lat":43.27813,"lon":5.40715,"is_reserved":false,"is_disabled":false,"rental_uris":{"android":"levelo://app?vid=179c4ca9-f1e7-4697-895a-395b360d6528","ios":"levelo://app?vid=179c4ca9-f1e7-4697-895a-395b360d6528"},"vehicle_type_id":"4","last_reported":1679577275,"current_range_meters":24400,"station_id":"","pricing_plan_id":"free"},{"bike_id":"8c936e6f-47ce-4c46-80a6-5ce6148d0dff","system_id":"levelo_inurba_marseille","lat":43.278128,"lon":5.407195,"is_reserved":false,"is_disabled":false,"rental_uris":{"android":"levelo://app?vid=8c936e6f-47ce-4c46-80a6-5ce6148d0dff","ios":"levelo://app?vid=8c936e6f-47ce-4c46-80a6-5ce6148d0dff"},"vehicle_type_id":"4","last_reported":1679577275,"current_range_meters":6000,"station_id":"ce4bhnh2rcd13ifvqgtg","pricing_plan_id":"free"},{"bike_id":"ac4e2a19-9a62-470d-a170-ae95de4002ab","system_id":"levelo_inurba_marseille","lat":43.26954,"lon":5.38626,"is_reserved":false,"is_disabled":false,"rental_uris":{"android":"levelo://app?vid=ac4e2a19-9a62-470d-a170-ae95de4002ab","ios":"levelo://app?vid=ac4e2a19-9a62-470d-a170-ae95de4002ab"},"vehicle_type_id":"4","last_reported":1679577275,"current_range_meters":2400,"station_id":"ce4bhh92rcd13ifvqfh0","pricing_plan_id":"free"},{"bike_id":"5b096c99-0cac-41ab-8d14-26fb3eda495d","system_id":"levelo_inurba_marseille","lat":43.269467,"lon":5.386439,"is_reserved":false,"is_disabled":false,"rental_uris":{"android":"levelo://app?vid=5b096c99-0cac-41ab-8d14-26fb3eda495d","ios":"levelo://app?vid=5b096c99-0cac-41ab-8d14-26fb3eda495d"},"vehicle_type_id":"4","last_reported":1679577275,"current_range_meters":5600,"station_id":"ce4bhh92rcd13ifvqfh0","pricing_plan_id":"free"},{"bike_id":"6fe87f49-0fc5-4784-87a4-b6f5659de2af","system_id":"levelo_inurba_marseille","lat":43.324739,"lon":5.427565,"is_reserved":false,"is_disabled":false,"rental_uris":{"android":"levelo://app?vid=6fe87f49-0fc5-4784-87a4-b6f5659de2af","ios":"levelo://app?vid=6fe87f49-0fc5-4784-87a4-b6f5659de2af"},"vehicle_type_id":"4","last_reported":1679577275,"current_range_meters":400,"station_id":"","pricing_plan_id":"free"},{"bike_id":"fe8038fd-0629-44a1-9ff4-c721a232d1a2","system_id":"levelo_inurba_marseille","lat":43.269319,"lon":5.389397,"is_reserved":false,"is_disabled":false,"rental_uris":{"android":"levelo://app?vid=fe8038fd-0629-44a1-9ff4-c721a232d1a2","ios":"levelo://app?vid=fe8038fd-0629-44a1-9ff4-c721a232d1a2"},"vehicle_type_id":"4","last_reported":1679577275,"current_range_meters":5200,"station_id":"ce4bhhh2rcd13ifvqfl0","pricing_plan_id":"free"},{"bike_id":"328a8616-ff7e-43d3-8e9a-7674b9f7fa3b","system_id":"levelo_inurba_marseille","lat":43.269319,"lon":5.389397,"is_reserved":false,"is_disabled":false,"rental_uris":{"android":"levelo://app?vid=328a8616-ff7e-43d3-8e9a-7674b9f7fa3b","ios":"levelo://app?vid=328a8616-ff7e-43d3-8e9a-7674b9f7fa3b"},"vehicle_type_id":"4","last_reported":1679577275,"current_range_meters":5600,"station_id":"ce4bhhh2rcd13ifvqfl0","pricing_plan_id":"free"},{"bike_id":"ba75430b-0f8a-4c0f-808e-fd45254d16f6","system_id":"levelo_inurba_marseille","lat":43.265714,"lon":5.372891,"is_reserved":false,"is_disabled":false,"rental_uris":{"android":"levelo://app?vid=ba75430b-0f8a-4c0f-808e-fd45254d16f6","ios":"levelo://app?vid=ba75430b-0f8a-4c0f-808e-fd45254d16f6"},"vehicle_type_id":"4","last_reported":1679577275,"current_range_meters":17600,"station_id":"ce4bhg12rcd13ifvqf70","pricing_plan_id":"free"},{"bike_id":"e51466fe-15d2-4744-bc1f-b28cdac4cb6a","system_id":"levelo_inurba_marseille","lat":43.26681,"lon":5.382694,"is_reserved":false,"is_disabled":false,"rental_uris":{"android":"levelo://app?vid=e51466fe-15d2-4744-bc1f-b28cdac4cb6a","ios":"levelo://app?vid=e51466fe-15d2-4744-bc1f-b28cdac4cb6a"},"vehicle_type_id":"4","last_reported":1679577275,"current_range_meters":19200,"station_id":"ce4bhg92rcd13ifvqf90","pricing_plan_id":"free"},{"bike_id":"29ee84d2-a2d2-4bf3-83fb-9da211fdef76","system_id":"levelo_inurba_marseille","lat":43.265565,"lon":5.372903,"is_reserved":false,"is_disabled":false,"rental_uris":{"android":"levelo://app?vid=29ee84d2-a2d2-4bf3-83fb-9da211fdef76","ios":"levelo://app?vid=29ee84d2-a2d2-4bf3-83fb-9da211fdef76"},"vehicle_type_id":"4","last_reported":1679577275,"current_range_meters":5200,"station_id":"ce4bhg12rcd13ifvqf70","pricing_plan_id":"free"},{"bike_id":"a946c9af-82d6-448b-95cf-37ca2edcbdeb","system_id":"levelo_inurba_marseille","lat":43.308028,"lon":5.435241,"is_reserved":false,"is_disabled":false,"rental_uris":{"android":"levelo://app?vid=a946c9af-82d6-448b-95cf-37ca2edcbdeb","ios":"levelo://app?vid=a946c9af-82d6-448b-95cf-37ca2edcbdeb"},"vehicle_type_id":"4","last_reported":1679577275,"current_range_meters":26400,"station_id":"ce4bhph2rcd13ifvqheg","pricing_plan_id":"free"},{"bike_id":"a14de34e-5230-4355-9f77-b3f5e1378647","system_id":"levelo_inurba_marseille","lat":43.331819,"lon":5.431759,"is_reserved":false,"is_disabled":false,"rental_uris":{"android":"levelo://app?vid=a14de34e-5230-4355-9f77-b3f5e1378647","ios":"levelo://app?vid=a14de34e-5230-4355-9f77-b3f5e1378647"},"vehicle_type_id":"4","last_reported":1679577275,"current_range_meters":17600,"station_id":"","pricing_plan_id":"free"},{"bike_id":"65ce5071-afcd-4c4d-a2f1-3ee23fa69f38","system_id":"levelo_inurba_marseille","lat":43.261782,"lon":5.374515,"is_reserved":false,"is_disabled":false,"rental_uris":{"android":"levelo://app?vid=65ce5071-afcd-4c4d-a2f1-3ee23fa69f38","ios":"levelo://app?vid=65ce5071-afcd-4c4d-a2f1-3ee23fa69f38"},"vehicle_type_id":"4","last_reported":1679577275,"current_range_meters":16800,"station_id":"ce4bhgp2rcd13ifvqfc0","pricing_plan_id":"free"},{"bike_id":"e7e5a197-d221-4ffb-abf3-0750a561a04c","system_id":"levelo_inurba_marseille","lat":43.26202,"lon":5.379299,"is_reserved":false,"is_disabled":false,"rental_uris":{"android":"levelo://app?vid=e7e5a197-d221-4ffb-abf3-0750a561a04c","ios":"levelo://app?vid=e7e5a197-d221-4ffb-abf3-0750a561a04c"},"vehicle_type_id":"4","last_reported":1679577275,"current_range_meters":0,"station_id":"ce4bhjp2rcd13ifvqg90","pricing_plan_id":"free"},{"bike_id":"58eb5dc3-f9f6-4498-b134-52ca809ad95d","system_id":"levelo_inurba_marseille","lat":43.260912,"lon":5.397584,"is_reserved":false,"is_disabled":false,"rental_uris":{"android":"levelo://app?vid=58eb5dc3-f9f6-4498-b134-52ca809ad95d","ios":"levelo://app?vid=58eb5dc3-f9f6-4498-b134-52ca809ad95d"},"vehicle_type_id":"4","last_reported":1679577275,"current_range_meters":30400,"station_id":"ce4bhi12rcd13ifvqfq0","pricing_plan_id":"free"},{"bike_id":"7b0c8245-235c-411a-b538-255ff551a30b","system_id":"levelo_inurba_marseille","lat":43.270721,"lon":5.422764,"is_reserved":false,"is_disabled":false,"rental_uris":{"android":"levelo://app?vid=7b0c8245-235c-411a-b538-255ff551a30b","ios":"levelo://app?vid=7b0c8245-235c-411a-b538-255ff551a30b"},"vehicle_type_id":"4","last_reported":1679577275,"current_range_meters":19600,"station_id":"ce4bhk92rcd13ifvqgb0","pricing_plan_id":"free"},{"bike_id":"cafba8f4-b609-4681-a26c-fd97e9f3a648","system_id":"levelo_inurba_marseille","lat":43.270721,"lon":5.422764,"is_reserved":false,"is_disabled":false,"rental_uris":{"android":"levelo://app?vid=cafba8f4-b609-4681-a26c-fd97e9f3a648","ios":"levelo://app?vid=cafba8f4-b609-4681-a26c-fd97e9f3a648"},"vehicle_type_id":"4","last_reported":1679577275,"current_range_meters":14800,"station_id":"ce4bhk92rcd13ifvqgb0","pricing_plan_id":"free"},{"bike_id":"eff1f6e5-eed4-4519-a599-0090beffb324","system_id":"levelo_inurba_marseille","lat":43.250023,"lon":5.38919,"is_reserved":false,"is_disabled":false,"rental_uris":{"android":"levelo://app?vid=eff1f6e5-eed4-4519-a599-0090beffb324","ios":"levelo://app?vid=eff1f6e5-eed4-4519-a599-0090beffb324"},"vehicle_type_id":"4","last_reported":1679577275,"current_range_meters":0,"station_id":"ce4bhgp2rcd13ifvqfd0","pricing_plan_id":"free"},{"bike_id":"41a0d91c-40ee-4eba-b272-79f0987c7f4f","system_id":"levelo_inurba_marseille","lat":43.25007,"lon":5.3891,"is_reserved":false,"is_disabled":false,"rental_uris":{"android":"levelo://app?vid=41a0d91c-40ee-4eba-b272-79f0987c7f4f","ios":"levelo://app?vid=41a0d91c-40ee-4eba-b272-79f0987c7f4f"},"vehicle_type_id":"4","last_reported":1679577275,"current_range_meters":20000,"station_id":"ce4bhgp2rcd13ifvqfd0","pricing_plan_id":"free"},{"bike_id":"4880d5ae-f082-468a-8abd-b0da6ea9bfe9","system_id":"levelo_inurba_marseille","lat":43.250009,"lon":5.389195,"is_reserved":false,"is_disabled":false,"rental_uris":{"android":"levelo://app?vid=4880d5ae-f082-468a-8abd-b0da6ea9bfe9","ios":"levelo://app?vid=4880d5ae-f082-468a-8abd-b0da6ea9bfe9"},"vehicle_type_id":"4","last_reported":1679577275,"current_range_meters":18800,"station_id":"ce4bhgp2rcd13ifvqfd0","pricing_plan_id":"free"},{"bike_id":"6d2f8f2b-d62c-4a4e-a062-dac4dd735064","system_id":"levelo_inurba_marseille","lat":43.24693,"lon":5.382096,"is_reserved":false,"is_disabled":false,"rental_uris":{"android":"levelo://app?vid=6d2f8f2b-d62c-4a4e-a062-dac4dd735064","ios":"levelo://app?vid=6d2f8f2b-d62c-4a4e-a062-dac4dd735064"},"vehicle_type_id":"4","last_reported":1679577275,"current_range_meters":14400,"station_id":"ce4bhih2rcd13ifvqfr0","pricing_plan_id":"free"},{"bike_id":"3e0f2867-0147-44de-a331-a48834d5f72c","system_id":"levelo_inurba_marseille","lat":43.2512,"lon":5.40326,"is_reserved":false,"is_disabled":false,"rental_uris":{"android":"levelo://app?vid=3e0f2867-0147-44de-a331-a48834d5f72c","ios":"levelo://app?vid=3e0f2867-0147-44de-a331-a48834d5f72c"},"vehicle_type_id":"4","last_reported":1679577275,"current_range_meters":0,"station_id":"ce4bhlh2rcd13ifvqgig","pricing_plan_id":"free"},{"bike_id":"f9bb892f-be32-4511-a6ca-c9ff8882abd0","system_id":"levelo_inurba_marseille","lat":43.25112,"lon":5.40317,"is_reserved":false,"is_disabled":false,"rental_uris":{"android":"levelo://app?vid=f9bb892f-be32-4511-a6ca-c9ff8882abd0","ios":"levelo://app?vid=f9bb892f-be32-4511-a6ca-c9ff8882abd0"},"vehicle_type_id":"4","last_reported":1679577275,"current_range_meters":6000,"station_id":"","pricing_plan_id":"free"},{"bike_id":"132d5cef-4855-4fe7-a5cc-248c1204f029","system_id":"levelo_inurba_marseille","lat":43.24384,"lon":5.3706,"is_reserved":false,"is_disabled":false,"rental_uris":{"android":"levelo://app?vid=132d5cef-4855-4fe7-a5cc-248c1204f029","ios":"levelo://app?vid=132d5cef-4855-4fe7-a5cc-248c1204f029"},"vehicle_type_id":"4","last_reported":1679577275,"current_range_meters":0,"station_id":"ce4bhhh2rcd13ifvqfk0","pricing_plan_id":"free"},{"bike_id":"ecf5240a-47a0-4cd4-b306-f231c93f2563","system_id":"levelo_inurba_marseille","lat":43.2413,"lon":5.37702,"is_reserved":false,"is_disabled":false,"rental_uris":{"android":"levelo://app?vid=ecf5240a-47a0-4cd4-b306-f231c93f2563","ios":"levelo://app?vid=ecf5240a-47a0-4cd4-b306-f231c93f2563"},"vehicle_type_id":"4","last_reported":1679577275,"current_range_meters":400,"station_id":"","pricing_plan_id":"free"},{"bike_id":"7214a30c-618e-4862-a56a-629f2a6923d9","system_id":"levelo_inurba_marseille","lat":43.240623,"lon":5.377642,"is_reserved":false,"is_disabled":false,"rental_uris":{"android":"levelo://app?vid=7214a30c-618e-4862-a56a-629f2a6923d9","ios":"levelo://app?vid=7214a30c-618e-4862-a56a-629f2a6923d9"},"vehicle_type_id":"4","last_reported":1679577275,"current_range_meters":0,"station_id":"ce4bhnp2rcd13ifvqgvg","pricing_plan_id":"free"},{"bike_id":"3c99a210-0c9c-45f5-a82b-7b4aff843c39","system_id":"levelo_inurba_marseille","lat":43.23966,"lon":5.36628,"is_reserved":false,"is_disabled":false,"rental_uris":{"android":"levelo://app?vid=3c99a210-0c9c-45f5-a82b-7b4aff843c39","ios":"levelo://app?vid=3c99a210-0c9c-45f5-a82b-7b4aff843c39"},"vehicle_type_id":"4","last_reported":1679577275,"current_range_meters":15600,"station_id":"ce4bhi12rcd13ifvqfp0","pricing_plan_id":"free"},{"bike_id":"6f3d5520-6eb9-4a2a-bc58-b80c9f993d82","system_id":"levelo_inurba_marseille","lat":43.24174,"lon":5.39717,"is_reserved":false,"is_disabled":false,"rental_uris":{"android":"levelo://app?vid=6f3d5520-6eb9-4a2a-bc58-b80c9f993d82","ios":"levelo://app?vid=6f3d5520-6eb9-4a2a-bc58-b80c9f993d82"},"vehicle_type_id":"4","last_reported":1679577275,"current_range_meters":14000,"station_id":"","pricing_plan_id":"free"},{"bike_id":"108aa967-3521-463a-aee7-062a5c868cc6","system_id":"levelo_inurba_marseille","lat":43.231919,"lon":5.355532,"is_reserved":false,"is_disabled":false,"rental_uris":{"android":"levelo://app?vid=108aa967-3521-463a-aee7-062a5c868cc6","ios":"levelo://app?vid=108aa967-3521-463a-aee7-062a5c868cc6"},"vehicle_type_id":"4","last_reported":1679577275,"current_range_meters":31600,"station_id":"ce4bhu92rcd13ifvqi70","pricing_plan_id":"free"},{"bike_id":"6916cc09-ef2f-4e78-b019-f46de5fe537f","system_id":"levelo_inurba_marseille","lat":43.231919,"lon":5.355532,"is_reserved":false,"is_disabled":false,"rental_uris":{"android":"levelo://app?vid=6916cc09-ef2f-4e78-b019-f46de5fe537f","ios":"levelo://app?vid=6916cc09-ef2f-4e78-b019-f46de5fe537f"},"vehicle_type_id":"4","last_reported":1679577275,"current_range_meters":29600,"station_id":"ce4bhu92rcd13ifvqi70","pricing_plan_id":"free"},{"bike_id":"ca3f1582-ad7f-4964-be95-4b6686f8048e","system_id":"levelo_inurba_marseille","lat":43.231919,"lon":5.355532,"is_reserved":false,"is_disabled":false,"rental_uris":{"android":"levelo://app?vid=ca3f1582-ad7f-4964-be95-4b6686f8048e","ios":"levelo://app?vid=ca3f1582-ad7f-4964-be95-4b6686f8048e"},"vehicle_type_id":"4","last_reported":1679577275,"current_range_meters":28800,"station_id":"ce4bhu92rcd13ifvqi70","pricing_plan_id":"free"}]}}