{"last_updated":1715540760,"ttl":30,"version":"2.2","data":{"bikes":[{"bike_id":"bf9c276b-87fc-4e1c-bdbd-9ba1a09e3c0c","system_id":"levelo_inurba_marseille","lat":43.31342,"lon":5.36712,"is_reserved":false,"is_disabled":false,"rental_uris":{"android":"levelo://app?vid=bf9c276b-87fc-4e1c-bdbd-9ba1a09e3c0c","ios":"levelo://app?vid=bf9c276b-87fc-4e1c-bdbd-9ba1a09e3c0c"},"vehicle_type_id":"4","last_reported":1715540760,"current_range_meters":28000,"station_id":"ce4bgr92rcd13ifvqc6g","pricing_plan_id":"cebpf4jnsgd1na2vs0mg"},{"bike_id":"3a70ba63-25f4-435b-ac9b-fc2c3c10bb91","system_id":"levelo_inurba_marseille","lat":43.31221,"lon":5.36842,"is_reserved":false,"is_disabled":false,"rental_uris":{"android":"levelo://app?vid=3a70ba63-25f4-435b-ac9b-fc2c3c10bb91","ios":"levelo://app?vid=3a70ba63-25f4-435b-ac9b-fc2c3c10bb91"},"vehicle_type_id":"4","last_reported":1715540760,"current_range_meters":22400,"station_id":"ce4bgl92rcd13ifvqbq0","pricing_plan_id":"cebpf4jnsgd1na2vs0mg"},{"bike_id":"4d1a3e02-7775-4591-8529-71c7a380149e","system_id":"levelo_inurba_marseille","lat":43.312239,"lon":5.368562,"is_reserved":false,"is_disabled":false,"rental_uris":{"android":"levelo://app?vid=4d1a3e02-7775-4591-8529-71c7a380149e","ios":"levelo://app?vid=4d1a3e02-7775-4591-8529-71c7a380149e"},"vehicle_type_id":"4","last_reported":1715540760,"current_range_meters":0,"station_id":"ce4bgl92rcd13ifvqbq0","pricing_plan_id":"cebpf4jnsgd1na2vs0mg"},{"bike_id":"5c82c1b5-6cf5-41c7-91f6-2af14c9833be","system_id":"levelo_inurba_marseille","lat":43.309076,"lon":5.368465,"is_reserved":false,"is_disabled":false,"rental_uris":{"android":"levelo://app?vid=5c82c1b5-6cf5-41c7-91f6-2af14c9833be","ios":"levelo://app?vid=5c82c1b5-6cf5-41c7-91f6-2af14c9833be"},"vehicle_type_id":"4","last_reported":1715540760,"current_range_meters":9600,"station_id":"ce4bgn92rcd13ifvqbvg","pricing_plan_id":"cebpf4jnsgd1na2vs0mg"},{"bike_id":"afb7243c-f009-4d00-884e-1b3b24d9d34d","system_id":"levelo_inurba_marseille","lat":43.309076,"lon":5.368465,"is_reserved":false,"is_disabled":false,"rental_uris":{"android":"levelo://app?vid=afb7243c-f009-4d00-884e-1b3b24d9d34d","ios":"levelo://app?vid=afb7243c-f009-4d00-884e-1b3b24d9d34d"},"vehicle_type_id":"4","last_reported":1715540760,"current_range_meters":4400,"station_id":"ce4bgn92rcd13ifvqbvg","pricing_plan_id":"cebpf4jnsgd1na2vs0mg"},{"bike_id":"f99c967f-8d51-4800-88f5-a3a10d232e54","system_id":"levelo_inurba_marseille","lat":43.314811,"lon":5.373103,"is_reserved":false,"is_disabled":false,"rental_uris":{"android":"levelo://app?vid=f99c967f-8d51-4800-88f5-a3a10d232e54","ios":"levelo://app?vid=f99c967f-8d51-4800-88f5-a3a10d232e54"},"vehicle_type_id":"4","last_reported":1715540760,"current_range_meters":2400,"station_id":"ce4bgt12rcd13ifvqcd0","pricing_plan_id":"cebpf4jnsgd1na2vs0mg"},{"bike_id":"91460a1d-f9dd-4b6b-b19e-aae04b817779","system_id":"levelo_inurba_marseille","lat":43.314811,"lon":5.373103,"is_reserved":false,"is_disabled":false,"rental_uris":{"android":"levelo://app?vid=91460a1d-f9dd-4b6b-b19e-aae04b817779","ios":"levelo://app?vid=91460a1d-f9dd-4b6b-b19e-aae04b817779"},"vehicle_type_id":"4","last_reported":1715540760,"current_range_meters":4800,"station_id":"ce4bgt12rcd13ifvqcd0","pricing_plan_id":"cebpf4jnsgd1na2vs0mg"},{"bike_id":"40b59049-1af7-4a76-ab9f-2b090e3d13df","system_id":"levelo_inurba_marseille","lat":43.314811,"lon":5.373104,"is_reserved":false,"is_disabled":false,"rental_uris":{"android":"levelo://app?vid=40b59049-1af7-4a76-ab9f-2b090e3d13df","ios":"levelo://app?vid=40b59049-1af7-4a76-ab9f-2b090e3d13df"},"vehicle_type_id":"4","last_reported":1715540760,"current_range_meters":8400,"station_id":"ce4bgt12rcd13ifvqcd0","pricing_plan_id":"cebpf4jnsgd1na2vs0mg"},{"bike_id":"b9ef87ef-0767-4aaf-9a3b-524569f64294","system_id":"levelo_inurba_marseille","lat":43.311125,"lon":5.377624,"is_reserved":false,"is_disabled":false,"rental_uris":{"android":"levelo://app?vid=b9ef87ef-0767-4aaf-9a3b-524569f64294","ios":"levelo://app?vid=b9ef87ef-0767-4aaf-9a3b-524569f64294"},"vehicle_type_id":"4","last_reported":1715540760,"current_range_meters":6800,"station_id":"ce4bgt92rcd13ifvqcg0","pricing_plan_id":"cebpf4jnsgd1na2vs0mg"},{"bike_id":"9830990c-16a0-4f3d-93ac-77c4ef953c02","system_id":"levelo_inurba_marseille","lat":43.30887,"lon":5.372,"is_reserved":false,"is_disabled":false,"rental_uris":{"android":"levelo://app?vid=9830990c-16a0-4f3d-93ac-77c4ef953c02","ios":"levelo://app?vid=9830990c-16a0-4f3d-93ac-77c4ef953c02"},"vehicle_type_id":"4","last_reported":1715540760,"current_range_meters":0,"station_id":"ce4bguh2rcd13ifvqckg","pricing_plan_id":"cebpf4jnsgd1na2vs0mg"},{"bike_id":"029db4bb-e798-428e-bedb-a9ff4a1fcf4d","system_id":"levelo_inurba_marseille","lat":43.305714,"lon":5.365633,"is_reserved":false,"is_disabled":false,"rental_uris":{"android":"levelo://app?vid=029db4bb-e798-428e-bedb-a9ff4a1fcf4d","ios":"levelo://app?vid=029db4bb-e798-428e-bedb-a9ff4a1fcf4d"},"vehicle_type_id":"4","last_reported":1715540760,"current_range_meters":0,"station_id":"ce4bgs12rcd13ifvqcag","pricing_plan_id":"cebpf4jnsgd1na2vs0mg"},{"bike_id":"e774366e-ed6f-41b0-be80-0dbba613a6c1","system_id":"levelo_inurba_marseille","lat":43.30544,"lon":5.36538,"is_reserved":false,"is_disabled":false,"rental_uris":{"android":"levelo://app?vid=e774366e-ed6f-41b0-be80-0dbba613a6c1","ios":"levelo://app?vid=e774366e-ed6f-41b0-be80-0dbba613a6c1"},"vehicle_type_id":"4","last_reported":1715540760,"current_range_meters":0,"station_id":"ce4bgs12rcd13ifvqcag","pricing_plan_id":"cebpf4jnsgd1na2vs0mg"},{"bike_id":"922c5e65-7b43-4a38-888a-24e1feab8438","system_id":"levelo_inurba_marseille","lat":43.305714,"lon":5.365633,"is_reserved":false,"is_disabled":false,"rental_uris":{"android":"levelo://app?vid=922c5e65-7b43-4a38-888a-24e1feab8438","ios":"levelo://app?vid=922c5e65-7b43-4a38-888a-24e1feab8438"},"vehicle_type_id":"4","last_reported":1715540760,"current_range_meters":12000,"station_id":"ce4bgs12rcd13ifvqcag","pricing_plan_id":"cebpf4jnsgd1na2vs0mg"},{"bike_id":"92883da5-14a1-4060-a50b-2d8a8d0607a2","system_id":"levelo_inurba_marseille","lat":43.305706,"lon":5.365654,"is_reserved":false,"is_disabled":false,"rental_uris":{"android":"levelo://app?vid=92883da5-14a1-4060-a50b-2d8a8d0607a2","ios":"levelo://app?vid=92883da5-14a1-4060-a50b-2d8a8d0607a2"},"vehicle_type_id":"4","last_reported":1715540760,"current_range_meters":12000,"station_id":"ce4bgs12rcd13ifvqcag","pricing_plan_id":"cebpf4jnsgd1na2vs0mg"},{"bike_id":"654e211e-89c1-4c84-917e-d3a1270d3109","system_id":"levelo_inurba_marseille","lat":43.305368,"lon":5.367343,"is_reserved":false,"is_disabled":false,"rental_uris":{"android":"levelo://app?vid=654e211e-89c1-4c84-917e-d3a1270d3109","ios":"levelo://app?vid=654e211e-89c1-4c84-917e-d3a1270d3109"},"vehicle_type_id":"4","last_reported":1715540760,"current_range_meters":10400,"station_id":"ce4bgrp2rcd13ifvqc9g","pricing_plan_id":"cebpf4jnsgd1na2vs0mg"},{"bike_id":"d386870a-4edc-4074-95ec-f307b1e3106a","system_id":"levelo_inurba_marseille","lat":43.305989,"lon":5.37225,"is_reserved":false,"is_disabled":false,"rental_uris":{"android":"levelo://app?vid=d386870a-4edc-4074-95ec-f307b1e3106a","ios":"levelo://app?vid=d386870a-4edc-4074-95ec-f307b1e3106a"},"vehicle_type_id":"4","last_reported":1715540760,"current_range_meters":8400,"station_id":"ce4bgqh2rcd13ifvqc4g","pricing_plan_id":"cebpf4jnsgd1na2vs0mg"},{"bike_id":"7f04f73f-373e-4809-8821-6fce7302850c","system_id":"levelo_inurba_marseille","lat":43.311131,"lon":5.377651,"is_reserved":false,"is_disabled":false,"rental_uris":{"android":"levelo://app?vid=7f04f73f-373e-4809-8821-6fce7302850c","ios":"levelo://app?vid=7f04f73f-373e-4809-8821-6fce7302850c"},"vehicle_type_id":"4","last_reported":1715540760,"current_range_meters":0,"station_id":"ce4bgt92rcd13ifvqcg0","pricing_plan_id":"cebpf4jnsgd1na2vs0mg"},{"bike_id":"20569ac8-bce2-49ad-aa56-edd86013e30c","system_id":"levelo_inurba_marseille","lat":43.311125,"lon":5.377624,"is_reserved":false,"is_disabled":false,"rental_uris":{"android":"levelo://app?vid=20569ac8-bce2-49ad-aa56-edd86013e30c","ios":"levelo://app?vid=20569ac8-bce2-49ad-aa56-edd86013e30c"},"vehicle_type_id":"4","last_reported":1715540760,"current_range_meters":31200,"station_id":"ce4bgt92rcd13ifvqcg0","pricing_plan_id":"cebpf4jnsgd1na2vs0mg"},{"bike_id":"f0285697-ee5c-4e06-9d59-af9dadefd921","system_id":"levelo_inurba_marseille","lat":43.310997,"lon":5.3778,"is_reserved":false,"is_disabled":false,"rental_uris":{"android":"levelo://app?vid=f0285697-ee5c-4e06-9d59-af9dadefd921","ios":"levelo://app?vid=f0285697-ee5c-4e06-9d59-af9dadefd921"},"vehicle_type_id":"4","last_reported":1715540760,"current_range_meters":0,"station_id":"ce4bgt92rcd13ifvqcg0","pricing_plan_id":"cebpf4jnsgd1na2vs0mg"},{"bike_id":"a8420d12-5ea1-4553-ba77-74153419b9a1","system_id":"levelo_inurba_marseille","lat":43.307945,"lon":5.376487,"is_reserved":false,"is_disabled":false,"rental_uris":{"android":"levelo://app?vid=a8420d12-5ea1-4553-ba77-74153419b9a1","ios":"levelo://app?vid=a8420d12-5ea1-4553-ba77-74153419b9a1"},"vehicle_type_id":"4","last_reported":1715540760,"current_range_meters":30400,"station_id":"ce4bgv92rcd13ifvqcq0","pricing_plan_id":"cebpf4jnsgd1na2vs0mg"},{"bike_id":"57e96d4e-aa35-4a7e-8ac8-a7cd46ff08fa","system_id":"levelo_inurba_marseille","lat":43.307945,"lon":5.376487,"is_reserved":false,"is_disabled":false,"rental_uris":{"android":"levelo://app?vid=57e96d4e-aa35-4a7e-8ac8-a7cd46ff08fa","ios":"levelo://app?vid=57e96d4e-aa35-4a7e-8ac8-a7cd46ff08fa"},"vehicle_type_id":"4","last_reported":1715540760,"current_range_meters":0,"station_id":"ce4bgv92rcd13ifvqcq0","pricing_plan_id":"cebpf4jnsgd1na2vs0mg"},{"bike_id":"f0cea8f3-6f46-44c3-804d-742aca6c4c97","system_id":"levelo_inurba_marseille","lat":43.317075,"lon":5.377367,"is_reserved":false,"is_disabled":false,"rental_uris":{"android":"levelo://app?vid=f0cea8f3-6f46-44c3-804d-742aca6c4c97","ios":"levelo://app?vid=f0cea8f3-6f46-44c3-804d-742aca6c4c97"},"vehicle_type_id":"4","last_reported":1715540760,"current_range_meters":10400,"station_id":"ce4bgth2rcd13ifvqch0","pricing_plan_id":"cebpf4jnsgd1na2vs0mg"},{"bike_id":"cd2932bd-7570-4489-8484-d3e663f6c2c6","system_id":"levelo_inurba_marseille","lat":43.303046,"lon":5.368981,"is_reserved":false,"is_disabled":false,"rental_uris":{"android":"levelo://app?vid=cd2932bd-7570-4489-8484-d3e663f6c2c6","ios":"levelo://app?vid=cd2932bd-7570-4489-8484-d3e663f6c2c6"},"vehicle_type_id":"4","last_reported":1715540760,"current_range_meters":800,"station_id":"ce4bgqh2rcd13ifvqc5g","pricing_plan_id":"cebpf4jnsgd1na2vs0mg"},{"bike_id":"07ac659f-0654-4836-b945-85674c40501b","system_id":"levelo_inurba_marseille","lat":43.303046,"lon":5.368981,"is_reserved":false,"is_disabled":false,"rental_uris":{"android":"levelo://app?vid=07ac659f-0654-4836-b945-85674c40501b","ios":"levelo://app?vid=07ac659f-0654-4836-b945-85674c40501b"},"vehicle_type_id":"4","last_reported":1715540760,"current_range_meters":20400,"station_id":"ce4bgqh2rcd13ifvqc5g","pricing_plan_id":"cebpf4jnsgd1na2vs0mg"},{"bike_id":"a37cdda5-216b-490e-9d2b-eead123fc9e0","system_id":"levelo_inurba_marseille","lat":43.315289,"lon":5.380349,"is_reserved":false,"is_disabled":false,"rental_uris":{"android":"levelo://app?vid=a37cdda5-216b-490e-9d2b-eead123fc9e0","ios":"levelo://app?vid=a37cdda5-216b-490e-9d2b-eead123fc9e0"},"vehicle_type_id":"4","last_reported":1715540760,"current_range_meters":8400,"station_id":"ce4bhsp2rcd13ifvqi50","pricing_plan_id":"cebpf4jnsgd1na2vs0mg"},{"bike_id":"18313c9c-b776-4885-b3c4-d3aac89341ba","system_id":"levelo_inurba_marseille","lat":43.301939,"lon":5.366286,"is_reserved":false,"is_disabled":false,"rental_uris":{"android":"levelo://app?vid=18313c9c-b776-4885-b3c4-d3aac89341ba","ios":"levelo://app?vid=18313c9c-b776-4885-b3c4-d3aac89341ba"},"vehicle_type_id":"4","last_reported":1715540760,"current_range_meters":0,"station_id":"ce4bgrh2rcd13ifvqc8g","pricing_plan_id":"cebpf4jnsgd1na2vs0mg"},{"bike_id":"2db661b7-a72d-40f0-a084-cd17736acba4","system_id":"levelo_inurba_marseille","lat":43.308012,"lon":5.381511,"is_reserved":false,"is_disabled":false,"rental_uris":{"android":"levelo://app?vid=2db661b7-a72d-40f0-a084-cd17736acba4","ios":"levelo://app?vid=2db661b7-a72d-40f0-a084-cd17736acba4"},"vehicle_type_id":"4","last_reported":1715540760,"current_range_meters":15200,"station_id":"ce4bgt12rcd13ifvqce0","pricing_plan_id":"cebpf4jnsgd1na2vs0mg"},{"bike_id":"3cc7b6a8-9842-4d17-aa28-deca5fc5da7f","system_id":"levelo_inurba_marseille","lat":43.308012,"lon":5.381511,"is_reserved":false,"is_disabled":false,"rental_uris":{"android":"levelo://app?vid=3cc7b6a8-9842-4d17-aa28-deca5fc5da7f","ios":"levelo://app?vid=3cc7b6a8-9842-4d17-aa28-deca5fc5da7f"},"vehicle_type_id":"4","last_reported":1715540760,"current_range_meters":15600,"station_id":"ce4bgt12rcd13ifvqce0","pricing_plan_id":"cebpf4jnsgd1na2vs0mg"},{"bike_id":"a88e2bcf-3409-4c9d-803f-5a14ac8a965b","system_id":"levelo_inurba_marseille","lat":43.308012,"lon":5.381511,"is_reserved":false,"is_disabled":false,"rental_uris":{"android":"levelo://app?vid=a88e2bcf-3409-4c9d-803f-5a14ac8a965b","ios":"levelo://app?vid=a88e2bcf-3409-4c9d-803f-5a14ac8a965b"},"vehicle_type_id":"4","last_reported":1715540760,"current_range_meters":6800,"station_id":"ce4bgt12rcd13ifvqce0","pricing_plan_id":"cebpf4jnsgd1na2vs0mg"},{"bike_id":"e7e281f5-a277-4018-b388-dd9df87eeab7","system_id":"levelo_inurba_marseille","lat":43.308012,"lon":5.381511,"is_reserved":false,"is_disabled":false,"rental_uris":{"android":"levelo://app?vid=e7e281f5-a277-4018-b388-dd9df87eeab7","ios":"levelo://app?vid=e7e281f5-a277-4018-b388-dd9df87eeab7"},"vehicle_type_id":"4","last_reported":1715540760,"current_range_meters":5600,"station_id":"ce4bgt12rcd13ifvqce0","pricing_plan_id":"cebpf4jnsgd1na2vs0mg"},{"bike_id":"950062fa-3a7b-463b-9e6c-f55aa078604c","system_id":"levelo_inurba_marseille","lat":43.30305,"lon":5.37621,"is_reserved":false,"is_disabled":false,"rental_uris":{"android":"levelo://app?vid=950062fa-3a7b-463b-9e6c-f55aa078604c","ios":"levelo://app?vid=950062fa-3a7b-463b-9e6c-f55aa078604c"},"vehicle_type_id":"4","last_reported":1715540760,"current_range_meters":17200,"station_id":"","pricing_plan_id":"cebpf4jnsgd1na2vs0mg"},{"bike_id":"4eb37566-cfb5-4c86-a3ea-ad0e279d9efa","system_id":"levelo_inurba_marseille","lat":43.324771,"lon":5.36557,"is_reserved":false,"is_disabled":false,"rental_uris":{"android":"levelo://app?vid=4eb37566-cfb5-4c86-a3ea-ad0e279d9efa","ios":"levelo://app?vid=4eb37566-cfb5-4c86-a3ea-ad0e279d9efa"},"vehicle_type_id":"4","last_reported":1715540760,"current_range_meters":22000,"station_id":"ce4bhs12rcd13ifvqhvg","pricing_plan_id":"cebpf4jnsgd1na2vs0mg"},{"bike_id":"e462428f-8777-46bf-be71-6ec0eeb2736e","system_id":"levelo_inurba_marseille","lat":43.324771,"lon":5.36557,"is_reserved":false,"is_disabled":false,"rental_uris":{"android":"levelo://app?vid=e462428f-8777-46bf-be71-6ec0eeb2736e","ios":"levelo://app?vid=e462428f-8777-46bf-be71-6ec0eeb2736e"},"vehicle_type_id":"4","last_reported":1715540760,"current_range_meters":11200,"station_id":"ce4bhs12rcd13ifvqhvg","pricing_plan_id":"cebpf4jnsgd1na2vs0mg"},{"bike_id":"43671154-6e2a-41f7-a74e-cc016c296fcd","system_id":"levelo_inurba_marseille","lat":43.324771,"lon":5.36557,"is_reserved":false,"is_disabled":false,"rental_uris":{"android":"levelo://app?vid=43671154-6e2a-41f7-a74e-cc016c296fcd","ios":"levelo://app?vid=43671154-6e2a-41f7-a74e-cc016c296fcd"},"vehicle_type_id":"4","last_reported":1715540760,"current_range_meters":25200,"station_id":"ce4bhs12rcd13ifvqhvg","pricing_plan_id":"cebpf4jnsgd1na2vs0mg"},{"bike_id":"68c31631-8922-423d-ab80-6114d95ceaa2","system_id":"levelo_inurba_marseille","lat":43.324771,"lon":5.36557,"is_reserved":false,"is_disabled":false,"rental_uris":{"android":"levelo://app?vid=68c31631-8922-423d-ab80-6114d95ceaa2","ios":"levelo://app?vid=68c31631-8922-423d-ab80-6114d95ceaa2"},"vehicle_type_id":"4","last_reported":1715540760,"current_range_meters":2800,"station_id":"ce4bhs12rcd13ifvqhvg","pricing_plan_id":"cebpf4jnsgd1na2vs0mg"},{"bike_id":"26bd8217-5511-4bf1-a4d4-7323f3ee6d22","system_id":"levelo_inurba_marseille","lat":43.324771,"lon":5.36557,"is_reserved":false,"is_disabled":false,"rental_uris":{"android":"levelo://app?vid=26bd8217-5511-4bf1-a4d4-7323f3ee6d22","ios":"levelo://app?vid=26bd8217-5511-4bf1-a4d4-7323f3ee6d22"},"vehicle_type_id":"4","last_reported":1715540760,"current_range_meters":15200,"station_id":"ce4bhs12rcd13ifvqhvg","pricing_plan_id":"cebpf4jnsgd1na2vs0mg"},{"bike_id":"1d3de0b0-7934-4fcc-b39a-497c4cf68f7b","system_id":"levelo_inurba_marseille","lat":43.324771,"lon":5.36557,"is_reserved":false,"is_disabled":false,"rental_uris":{"android":"levelo://app?vid=1d3de0b0-7934-4fcc-b39a-497c4cf68f7b","ios":"levelo://app?vid=1d3de0b0-7934-4fcc-b39a-497c4cf68f7b"},"vehicle_type_id":"4","last_reported":1715540760,"current_range_meters":20800,"station_id":"ce4bhs12rcd13ifvqhvg","pricing_plan_id":"cebpf4jnsgd1na2vs0mg"},{"bike_id":"b0ae57a5-47d8-43f1-a382-5843f5a2c0bd","system_id":"levelo_inurba_marseille","lat":43.324771,"lon":5.36557,"is_reserved":false,"is_disabled":false,"rental_uris":{"android":"levelo://app?vid=b0ae57a5-47d8-43f1-a382-5843f5a2c0bd","ios":"levelo://app?vid=b0ae57a5-47d8-43f1-a382-5843f5a2c0bd"},"vehicle_type_id":"4","last_reported":1715540760,"current_range_meters":800,"station_id":"ce4bhs12rcd13ifvqhvg","pricing_plan_id":"cebpf4jnsgd1na2vs0mg"},{"bike_id":"7279300e-a5c4-4f3b-858a-e2bd296be7c9","system_id":"levelo_inurba_marseille","lat":43.324771,"lon":5.36557,"is_reserved":false,"is_disabled":false,"rental_uris":{"android":"levelo://app?vid=7279300e-a5c4-4f3b-858a-e2bd296be7c9","ios":"levelo://app?vid=7279300e-a5c4-4f3b-858a-e2bd296be7c9"},"vehicle_type_id":"4","last_reported":1715540760,"current_range_meters":13600,"station_id":"ce4bhs12rcd13ifvqhvg","pricing_plan_id":"cebpf4jnsgd1na2vs0mg"},{"bike_id":"237b19c4-af93-4f0b-8df7-a29b40704832","system_id":"levelo_inurba_marseille","lat":43.324771,"lon":5.36557,"is_reserved":false,"is_disabled":false,"rental_uris":{"android":"levelo://app?vid=237b19c4-af93-4f0b-8df7-a29b40704832","ios":"levelo://app?vid=237b19c4-af93-4f0b-8df7-a29b40704832"},"vehicle_type_id":"4","last_reported":1715540760,"current_range_meters":27600,"station_id":"ce4bhs12rcd13ifvqhvg","pricing_plan_id":"cebpf4jnsgd1na2vs0mg"},{"bike_id":"de363a9b-b8dd-4f25-97c4-05ca23eea0b0","system_id":"levelo_inurba_marseille","lat":43.324771,"lon":5.36557,"is_reserved":false,"is_disabled":false,"rental_uris":{"android":"levelo://app?vid=de363a9b-b8dd-4f25-97c4-05ca23eea0b0","ios":"levelo://app?vid=de363a9b-b8dd-4f25-97c4-05ca23eea0b0"},"vehicle_type_id":"4","last_reported":1715540760,"current_range_meters":26400,"station_id":"ce4bhs12rcd13ifvqhvg","pricing_plan_id":"cebpf4jnsgd1na2vs0mg"},{"bike_id":"ab294a79-14d3-426e-b97b-f105f6a1e37c","system_id":"levelo_inurba_marseille","lat":43.324771,"lon":5.36557,"is_reserved":false,"is_disabled":false,"rental_uris":{"android":"levelo://app?vid=ab294a79-14d3-426e-b97b-f105f6a1e37c","ios":"levelo://app?vid=ab294a79-14d3-426e-b97b-f105f6a1e37c"},"vehicle_type_id":"4","last_reported":1715540760,"current_range_meters":27600,"station_id":"ce4bhs12rcd13ifvqhvg","pricing_plan_id":"cebpf4jnsgd1na2vs0mg"},{"bike_id":"4a9a9665-1cd2-49ce-8806-5d25ff857789","system_id":"levelo_inurba_marseille","lat":43.324771,"lon":5.36557,"is_reserved":false,"is_disabled":false,"rental_uris":{"android":"levelo://app?vid=4a9a9665-1cd2-49ce-8806-5d25ff857789","ios":"levelo://app?vid=4a9a9665-1cd2-49ce-8806-5d25ff857789"},"vehicle_type_id":"4","last_reported":1715540760,"current_range_meters":16400,"station_id":"ce4bhs12rcd13ifvqhvg","pricing_plan_id":"cebpf4jnsgd1na2vs0mg"},{"bike_id":"27864151-07c6-46e0-bb7f-76413df57206","system_id":"levelo_inurba_marseille","lat":43.32491,"lon":5.365571,"is_reserved":false,"is_disabled":false,"rental_uris":{"android":"levelo://app?vid=27864151-07c6-46e0-bb7f-76413df57206","ios":"levelo://app?vid=27864151-07c6-46e0-bb7f-76413df57206"},"vehicle_type_id":"4","last_reported":1715540760,"current_range_meters":15600,"station_id":"ce4bhs12rcd13ifvqhvg","pricing_plan_id":"cebpf4jnsgd1na2vs0mg"},{"bike_id":"69fdb59b-b839-49c7-9ef0-3f838ed5e998","system_id":"levelo_inurba_marseille","lat":43.310804,"lon":5.38359,"is_reserved":false,"is_disabled":false,"rental_uris":{"android":"levelo://app?vid=69fdb59b-b839-49c7-9ef0-3f838ed5e998","ios":"levelo://app?vid=69fdb59b-b839-49c7-9ef0-3f838ed5e998"},"vehicle_type_id":"4","last_reported":1715540760,"current_range_meters":6000,"station_id":"ce4bgv92rcd13ifvqcr0","pricing_plan_id":"cebpf4jnsgd1na2vs0mg"},{"bike_id":"5a060ff6-f03d-40f4-bb03-a175c8e25d5e","system_id":"levelo_inurba_marseille","lat":43.310804,"lon":5.38359,"is_reserved":false,"is_disabled":false,"rental_uris":{"android":"levelo://app?vid=5a060ff6-f03d-40f4-bb03-a175c8e25d5e","ios":"levelo://app?vid=5a060ff6-f03d-40f4-bb03-a175c8e25d5e"},"vehicle_type_id":"4","last_reported":1715540760,"current_range_meters":25600,"station_id":"ce4bgv92rcd13ifvqcr0","pricing_plan_id":"cebpf4jnsgd1na2vs0mg"},{"bike_id":"33531eb2-a914-4029-9236-a417e697981b","system_id":"levelo_inurba_marseille","lat":43.302784,"lon":5.377158,"is_reserved":false,"is_disabled":false,"rental_uris":{"android":"levelo://app?vid=33531eb2-a914-4029-9236-a417e697981b","ios":"levelo://app?vid=33531eb2-a914-4029-9236-a417e697981b"},"vehicle_type_id":"4","last_reported":1715540760,"current_range_meters":0,"station_id":"ce4bguh2rcd13ifvqcj0","pricing_plan_id":"cebpf4jnsgd1na2vs0mg"},{"bike_id":"92506989-a1b9-49c1-a2c2-35129f0f4cd7","system_id":"levelo_inurba_marseille","lat":43.301429,"lon":5.37413,"is_reserved":false,"is_disabled":false,"rental_uris":{"android":"levelo://app?vid=92506989-a1b9-49c1-a2c2-35129f0f4cd7","ios":"levelo://app?vid=92506989-a1b9-49c1-a2c2-35129f0f4cd7"},"vehicle_type_id":"4","last_reported":1715540760,"current_range_meters":11600,"station_id":"ce4bgs92rcd13ifvqcc0","pricing_plan_id":"cebpf4jnsgd1na2vs0mg"},{"bike_id":"39d474d5-4e9b-4333-b9be-7c791e591f7f","system_id":"levelo_inurba_marseille","lat":43.319935,"lon":5.381699,"is_reserved":false,"is_disabled":false,"rental_uris":{"android":"levelo://app?vid=39d474d5-4e9b-4333-b9be-7c791e591f7f","ios":"levelo://app?vid=39d474d5-4e9b-4333-b9be-7c791e591f7f"},"vehicle_type_id":"4","last_reported":1715540760,"current_range_meters":12400,"station_id":"ce4bhr12rcd13ifvqhpg","pricing_plan_id":"cebpf4jnsgd1na2vs0mg"},{"bike_id":"74c1be8a-5439-4116-8ee0-b58b150fd1e3","system_id":"levelo_inurba_marseille","lat":43.319935,"lon":5.381699,"is_reserved":false,"is_disabled":false,"rental_uris":{"android":"levelo://app?vid=74c1be8a-5439-4116-8ee0-b58b150fd1e3","ios":"levelo://app?vid=74c1be8a-5439-4116-8ee0-b58b150fd1e3"},"vehicle_type_id":"4","last_reported":1715540760,"current_range_meters":3600,"station_id":"ce4bhr12rcd13ifvqhpg","pricing_plan_id":"cebpf4jnsgd1na2vs0mg"},{"bike_id":"ea4018b7-6646-4468-8627-0a26ea04f7ca","system_id":"levelo_inurba_marseille","lat":43.319935,"lon":5.381699,"is_reserved":false,"is_disabled":false,"rental_uris":{"android":"levelo://app?vid=ea4018b7-6646-4468-8627-0a26ea04f7ca","ios":"levelo://app?vid=ea4018b7-6646-4468-8627-0a26ea04f7ca"},"vehicle_type_id":"4","last_reported":1715540760,"current_range_meters":800,"station_id":"ce4bhr12rcd13ifvqhpg","pricing_plan_id":"cebpf4jnsgd1na2vs0mg"},{"bike_id":"c5b61f3f-8ad6-416b-a2ca-c0144cdd8adf","system_id":"levelo_inurba_marseille","lat":43.31352,"lon":5.38498,"is_reserved":false,"is_disabled":false,"rental_uris":{"android":"levelo://app?vid=c5b61f3f-8ad6-416b-a2ca-c0144cdd8adf","ios":"levelo://app?vid=c5b61f3f-8ad6-416b-a2ca-c0144cdd8adf"},"vehicle_type_id":"4","last_reported":1715540760,"current_range_meters":25600,"station_id":"ce4bgt92rcd13ifvqcf0","pricing_plan_id":"cebpf4jnsgd1na2vs0mg"},{"bike_id":"a7491aa1-ba86-4c34-850e-77a48fcfbaf0","system_id":"levelo_inurba_marseille","lat":43.29989,"lon":5.371966,"is_reserved":false,"is_disabled":false,"rental_uris":{"android":"levelo://app?vid=a7491aa1-ba86-4c34-850e-77a48fcfbaf0","ios":"levelo://app?vid=a7491aa1-ba86-4c34-850e-77a48fcfbaf0"},"vehicle_type_id":"4","last_reported":1715540760,"current_range_meters":0,"station_id":"ce4bgr92rcd13ifvqc7g","pricing_plan_id":"cebpf4jnsgd1na2vs0mg"},{"bike_id":"f7521637-4f75-408b-8ac8-2a2f3a504e88","system_id":"levelo_inurba_marseille","lat":43.29943,"lon":5.36528,"is_reserved":false,"is_disabled":false,"rental_uris":{"android":"levelo://app?vid=f7521637-4f75-408b-8ac8-2a2f3a504e88","ios":"levelo://app?vid=f7521637-4f75-408b-8ac8-2a2f3a504e88"},"vehicle_type_id":"4","last_reported":1715540760,"current_range_meters":0,"station_id":"ce4bgm92rcd13ifvqbr0","pricing_plan_id":"cebpf4jnsgd1na2vs0mg"},{"bike_id":"43fcf1a4-0e8d-4505-9afe-59ad11ed62aa","system_id":"levelo_inurba_marseille","lat":43.299222,"lon":5.365554,"is_reserved":false,"is_disabled":false,"rental_uris":{"android":"levelo://app?vid=43fcf1a4-0e8d-4505-9afe-59ad11ed62aa","ios":"levelo://app?vid=43fcf1a4-0e8d-4505-9afe-59ad11ed62aa"},"vehicle_type_id":"4","last_reported":1715540760,"current_range_meters":0,"station_id":"ce4bgm92rcd13ifvqbr0","pricing_plan_id":"cebpf4jnsgd1na2vs0mg"},{"bike_id":"f135e227-4a75-4825-ade5-aa42dd5e8df5","system_id":"levelo_inurba_marseille","lat":43.298433,"lon":5.362774,"is_reserved":false,"is_disabled":false,"rental_uris":{"android":"levelo://app?vid=f135e227-4a75-4825-ade5-aa42dd5e8df5","ios":"levelo://app?vid=f135e227-4a75-4825-ade5-aa42dd5e8df5"},"vehicle_type_id":"4","last_reported":1715540760,"current_range_meters":400,"station_id":"ce4bgpp2rcd13ifvqc3g","pricing_plan_id":"cebpf4jnsgd1na2vs0mg"},{"bike_id":"83a2c810-8ba8-42c4-b4df-0a00fc270c76","system_id":"levelo_inurba_marseille","lat":43.29957,"lon":5.37191,"is_reserved":false,"is_disabled":false,"rental_uris":{"android":"levelo://app?vid=83a2c810-8ba8-42c4-b4df-0a00fc270c76","ios":"levelo://app?vid=83a2c810-8ba8-42c4-b4df-0a00fc270c76"},"vehicle_type_id":"4","last_reported":1715540760,"current_range_meters":0,"station_id":"ce4bgr92rcd13ifvqc7g","pricing_plan_id":"cebpf4jnsgd1na2vs0mg"},{"bike_id":"860469e0-666f-4082-bf03-0a6e819dc473","system_id":"levelo_inurba_marseille","lat":43.298433,"lon":5.362774,"is_reserved":false,"is_disabled":false,"rental_uris":{"android":"levelo://app?vid=860469e0-666f-4082-bf03-0a6e819dc473","ios":"levelo://app?vid=860469e0-666f-4082-bf03-0a6e819dc473"},"vehicle_type_id":"4","last_reported":1715540760,"current_range_meters":0,"station_id":"ce4bgpp2rcd13ifvqc3g","pricing_plan_id":"cebpf4jnsgd1na2vs0mg"},{"bike_id":"dcf17d9a-007b-46a3-ae0f-a30939c9d768","system_id":"levelo_inurba_marseille","lat":43.305364,"lon":5.384119,"is_reserved":false,"is_disabled":false,"rental_uris":{"android":"levelo://app?vid=dcf17d9a-007b-46a3-ae0f-a30939c9d768","ios":"levelo://app?vid=dcf17d9a-007b-46a3-ae0f-a30939c9d768"},"vehicle_type_id":"4","last_reported":1715540760,"current_range_meters":9600,"station_id":"ce4bgg92rcd13ifvqb30","pricing_plan_id":"cebpf4jnsgd1na2vs0mg"},{"bike_id":"a5ffbe75-8afe-49bc-a40c-ca9e7100360d","system_id":"levelo_inurba_marseille","lat":43.305364,"lon":5.384119,"is_reserved":false,"is_disabled":false,"rental_uris":{"android":"levelo://app?vid=a5ffbe75-8afe-49bc-a40c-ca9e7100360d","ios":"levelo://app?vid=a5ffbe75-8afe-49bc-a40c-ca9e7100360d"},"vehicle_type_id":"4","last_reported":1715540760,"current_range_meters":2400,"station_id":"ce4bgg92rcd13ifvqb30","pricing_plan_id":"cebpf4jnsgd1na2vs0mg"},{"bike_id":"2a3174ea-6c0e-47fa-867b-d0040386565c","system_id":"levelo_inurba_marseille","lat":43.298433,"lon":5.362774,"is_reserved":false,"is_disabled":false,"rental_uris":{"android":"levelo://app?vid=2a3174ea-6c0e-47fa-867b-d0040386565c","ios":"levelo://app?vid=2a3174ea-6c0e-47fa-867b-d0040386565c"},"vehicle_type_id":"4","last_reported":1715540760,"current_range_meters":4800,"station_id":"ce4bgpp2rcd13ifvqc3g","pricing_plan_id":"cebpf4jnsgd1na2vs0mg"},{"bike_id":"a8c8f744-1e90-4aa0-baab-c6af46195959","system_id":"levelo_inurba_marseille","lat":43.31178,"lon":5.38713,"is_reserved":false,"is_disabled":false,"rental_uris":{"android":"levelo://app?vid=a8c8f744-1e90-4aa0-baab-c6af46195959","ios":"levelo://app?vid=a8c8f744-1e90-4aa0-baab-c6af46195959"},"vehicle_type_id":"4","last_reported":1715540760,"current_range_meters":0,"station_id":"ce4bgv12rcd13ifvqcp0","pricing_plan_id":"cebpf4jnsgd1na2vs0mg"},{"bike_id":"11589c3c-99b7-49aa-be2b-63d488cd380b","system_id":"levelo_inurba_marseille","lat":43.31187,"lon":5.38722,"is_reserved":false,"is_disabled":false,"rental_uris":{"android":"levelo://app?vid=11589c3c-99b7-49aa-be2b-63d488cd380b","ios":"levelo://app?vid=11589c3c-99b7-49aa-be2b-63d488cd380b"},"vehicle_type_id":"4","last_reported":1715540760,"current_range_meters":0,"station_id":"ce4bgv12rcd13ifvqcp0","pricing_plan_id":"cebpf4jnsgd1na2vs0mg"},{"bike_id":"81e0cfb8-f6a1-4da0-9180-3bd323d60c59","system_id":"levelo_inurba_marseille","lat":43.297794,"lon":5.370888,"is_reserved":false,"is_disabled":false,"rental_uris":{"android":"levelo://app?vid=81e0cfb8-f6a1-4da0-9180-3bd323d60c59","ios":"levelo://app?vid=81e0cfb8-f6a1-4da0-9180-3bd323d60c59"},"vehicle_type_id":"4","last_reported":1715540760,"current_range_meters":10000,"station_id":"ce4bgop2rcd13ifvqc1g","pricing_plan_id":"cebpf4jnsgd1na2vs0mg"},{"bike_id":"7070e582-e1a7-4d4d-a48b-77174caa0ccb","system_id":"levelo_inurba_marseille","lat":43.32787,"lon":5.36578,"is_reserved":false,"is_disabled":false,"rental_uris":{"android":"levelo://app?vid=7070e582-e1a7-4d4d-a48b-77174caa0ccb","ios":"levelo://app?vid=7070e582-e1a7-4d4d-a48b-77174caa0ccb"},"vehicle_type_id":"4","last_reported":1715540760,"current_range_meters":4000,"station_id":"","pricing_plan_id":"cebpf4jnsgd1na2vs0mg"},{"bike_id":"e6518aec-4447-4831-9a33-797b739846c3","system_id":"levelo_inurba_marseille","lat":43.322872,"lon":5.382756,"is_reserved":false,"is_disabled":false,"rental_uris":{"android":"levelo://app?vid=e6518aec-4447-4831-9a33-797b739846c3","ios":"levelo://app?vid=e6518aec-4447-4831-9a33-797b739846c3"},"vehicle_type_id":"4","last_reported":1715540760,"current_range_meters":7200,"station_id":"ce4bhr12rcd13ifvqhqg","pricing_plan_id":"cebpf4jnsgd1na2vs0mg"},{"bike_id":"38b1639f-0b7b-4041-8f45-51cfa44eaefb","system_id":"levelo_inurba_marseille","lat":43.297163,"lon":5.365866,"is_reserved":false,"is_disabled":false,"rental_uris":{"android":"levelo://app?vid=38b1639f-0b7b-4041-8f45-51cfa44eaefb","ios":"levelo://app?vid=38b1639f-0b7b-4041-8f45-51cfa44eaefb"},"vehicle_type_id":"4","last_reported":1715540760,"current_range_meters":0,"station_id":"ce4bgn12rcd13ifvqbt0","pricing_plan_id":"cebpf4jnsgd1na2vs0mg"},{"bike_id":"b04bec95-6c6a-4600-976f-f23ecfbbab48","system_id":"levelo_inurba_marseille","lat":43.32798,"lon":5.36086,"is_reserved":false,"is_disabled":false,"rental_uris":{"android":"levelo://app?vid=b04bec95-6c6a-4600-976f-f23ecfbbab48","ios":"levelo://app?vid=b04bec95-6c6a-4600-976f-f23ecfbbab48"},"vehicle_type_id":"4","last_reported":1715540760,"current_range_meters":0,"station_id":"","pricing_plan_id":"cebpf4jnsgd1na2vs0mg"},{"bike_id":"d2419a61-ff5a-41a4-a6f3-fc4ec57eae2c","system_id":"levelo_inurba_marseille","lat":43.296131,"lon":5.370791,"is_reserved":false,"is_disabled":false,"rental_uris":{"android":"levelo://app?vid=d2419a61-ff5a-41a4-a6f3-fc4ec57eae2c","ios":"levelo://app?vid=d2419a61-ff5a-41a4-a6f3-fc4ec57eae2c"},"vehicle_type_id":"4","last_reported":1715540760,"current_range_meters":4400,"station_id":"ce4bgnh2rcd13ifvqc0g","pricing_plan_id":"cebpf4jnsgd1na2vs0mg"},{"bike_id":"af5ebbe4-05ff-4eb1-9124-9ff401a487fb","system_id":"levelo_inurba_marseille","lat":43.296935,"lon":5.376544,"is_reserved":false,"is_disabled":false,"rental_uris":{"android":"levelo://app?vid=af5ebbe4-05ff-4eb1-9124-9ff401a487fb","ios":"levelo://app?vid=af5ebbe4-05ff-4eb1-9124-9ff401a487fb"},"vehicle_type_id":"4","last_reported":1715540760,"current_range_meters":0,"station_id":"ce4bgkh2rcd13ifvqbl0","pricing_plan_id":"cebpf4jnsgd1na2vs0mg"},{"bike_id":"7d966f14-db05-47d1-8b90-380ee28ab99e","system_id":"levelo_inurba_marseille","lat":43.295726,"lon":5.367147,"is_reserved":false,"is_disabled":false,"rental_uris":{"android":"levelo://app?vid=7d966f14-db05-47d1-8b90-380ee28ab99e","ios":"levelo://app?vid=7d966f14-db05-47d1-8b90-380ee28ab99e"},"vehicle_type_id":"4","last_reported":1715540760,"current_range_meters":2400,"station_id":"ce4bgph2rcd13ifvqc2g","pricing_plan_id":"cebpf4jnsgd1na2vs0mg"},{"bike_id":"f7672e33-be75-4da3-b0cb-5acfbe830556","system_id":"levelo_inurba_marseille","lat":43.309589,"lon":5.390258,"is_reserved":false,"is_disabled":false,"rental_uris":{"android":"levelo://app?vid=f7672e33-be75-4da3-b0cb-5acfbe830556","ios":"levelo://app?vid=f7672e33-be75-4da3-b0cb-5acfbe830556"},"vehicle_type_id":"4","last_reported":1715540760,"current_range_meters":0,"station_id":"ce4bgup2rcd13ifvqco0","pricing_plan_id":"cebpf4jnsgd1na2vs0mg"},{"bike_id":"ba46faa4-321c-4efe-876c-7dd9b4e09d98","system_id":"levelo_inurba_marseille","lat":43.296921,"lon":5.376579,"is_reserved":false,"is_disabled":false,"rental_uris":{"android":"levelo://app?vid=ba46faa4-321c-4efe-876c-7dd9b4e09d98","ios":"levelo://app?vid=ba46faa4-321c-4efe-876c-7dd9b4e09d98"},"vehicle_type_id":"4","last_reported":1715540760,"current_range_meters":29600,"station_id":"ce4bgkh2rcd13ifvqbl0","pricing_plan_id":"cebpf4jnsgd1na2vs0mg"},{"bike_id":"8c5d0ed8-42ed-40cb-a936-579009a59b9e","system_id":"levelo_inurba_marseille","lat":43.317557,"lon":5.390173,"is_reserved":false,"is_disabled":false,"rental_uris":{"android":"levelo://app?vid=8c5d0ed8-42ed-40cb-a936-579009a59b9e","ios":"levelo://app?vid=8c5d0ed8-42ed-40cb-a936-579009a59b9e"},"vehicle_type_id":"4","last_reported":1715540760,"current_range_meters":8400,"station_id":"ce4bhqp2rcd13ifvqhng","pricing_plan_id":"cebpf4jnsgd1na2vs0mg"},{"bike_id":"cbe5f818-73fd-41ad-b7e0-f8f18f7a3eca","system_id":"levelo_inurba_marseille","lat":43.317557,"lon":5.390173,"is_reserved":false,"is_disabled":false,"rental_uris":{"android":"levelo://app?vid=cbe5f818-73fd-41ad-b7e0-f8f18f7a3eca","ios":"levelo://app?vid=cbe5f818-73fd-41ad-b7e0-f8f18f7a3eca"},"vehicle_type_id":"4","last_reported":1715540760,"current_range_meters":12400,"station_id":"ce4bhqp2rcd13ifvqhng","pricing_plan_id":"cebpf4jnsgd1na2vs0mg"},{"bike_id":"8aa41c21-d1fa-4eb8-a69d-94ab068f2ea2","system_id":"levelo_inurba_marseille","lat":43.317557,"lon":5.390173,"is_reserved":false,"is_disabled":false,"rental_uris":{"android":"levelo://app?vid=8aa41c21-d1fa-4eb8-a69d-94ab068f2ea2","ios":"levelo://app?vid=8aa41c21-d1fa-4eb8-a69d-94ab068f2ea2"},"vehicle_type_id":"4","last_reported":1715540760,"current_range_meters":0,"station_id":"ce4bhqp2rcd13ifvqhng","pricing_plan_id":"cebpf4jnsgd1na2vs0mg"},{"bike_id":"4a4f8cef-ce4a-471b-857f-dbef00b54203","system_id":"levelo_inurba_marseille","lat":43.298037,"lon":5.381066,"is_reserved":false,"is_disabled":false,"rental_uris":{"android":"levelo://app?vid=4a4f8cef-ce4a-471b-857f-dbef00b54203","ios":"levelo://app?vid=4a4f8cef-ce4a-471b-857f-dbef00b54203"},"vehicle_type_id":"4","last_reported":1715540760,"current_range_meters":0,"station_id":"ce4bgip2rcd13ifvqbb0","pricing_plan_id":"cebpf4jnsgd1na2vs0mg"},{"bike_id":"3cb7f059-57c3-47db-96ba-5dc23131e21e","system_id":"levelo_inurba_marseille","lat":43.298037,"lon":5.381066,"is_reserved":false,"is_disabled":false,"rental_uris":{"android":"levelo://app?vid=3cb7f059-57c3-47db-96ba-5dc23131e21e","ios":"levelo://app?vid=3cb7f059-57c3-47db-96ba-5dc23131e21e"},"vehicle_type_id":"4","last_reported":1715540760,"current_range_meters":2800,"station_id":"ce4bgip2rcd13ifvqbb0","pricing_plan_id":"cebpf4jnsgd1na2vs0mg"},{"bike_id":"9d9a9a06-0fd8-4b72-8300-d4df57337aa4","system_id":"levelo_inurba_marseille","lat":43.304274,"lon":5.388873,"is_reserved":false,"is_disabled":false,"rental_uris":{"android":"levelo://app?vid=9d9a9a06-0fd8-4b72-8300-d4df57337aa4","ios":"levelo://app?vid=9d9a9a06-0fd8-4b72-8300-d4df57337aa4"},"vehicle_type_id":"4","last_reported":1715540760,"current_range_meters":14400,"station_id":"ce4bgk12rcd13ifvqbi0","pricing_plan_id":"cebpf4jnsgd1na2vs0mg"},{"bike_id":"40a40235-1bba-4416-89a9-d5ca9cebe478","system_id":"levelo_inurba_marseille","lat":43.295748,"lon":5.37522,"is_reserved":false,"is_disabled":false,"rental_uris":{"android":"levelo://app?vid=40a40235-1bba-4416-89a9-d5ca9cebe478","ios":"levelo://app?vid=40a40235-1bba-4416-89a9-d5ca9cebe478"},"vehicle_type_id":"4","last_reported":1715540760,"current_range_meters":0,"station_id":"ce4bgh92rcd13ifvqb50","pricing_plan_id":"cebpf4jnsgd1na2vs0mg"},{"bike_id":"9b5ab750-9e61-47de-8eac-ae9647d1fe99","system_id":"levelo_inurba_marseille","lat":43.29738,"lon":5.38019,"is_reserved":false,"is_disabled":false,"rental_uris":{"android":"levelo://app?vid=9b5ab750-9e61-47de-8eac-ae9647d1fe99","ios":"levelo://app?vid=9b5ab750-9e61-47de-8eac-ae9647d1fe99"},"vehicle_type_id":"4","last_reported":1715540760,"current_range_meters":20000,"station_id":"","pricing_plan_id":"cebpf4jnsgd1na2vs0mg"},{"bike_id":"fceffd0c-3327-442f-8b35-60581ccc0198","system_id":"levelo_inurba_marseille","lat":43.295923,"lon":5.376631,"is_reserved":false,"is_disabled":false,"rental_uris":{"android":"levelo://app?vid=fceffd0c-3327-442f-8b35-60581ccc0198","ios":"levelo://app?vid=fceffd0c-3327-442f-8b35-60581ccc0198"},"vehicle_type_id":"4","last_reported":1715540760,"current_range_meters":0,"station_id":"ce4bgi92rcd13ifvqb90","pricing_plan_id":"cebpf4jnsgd1na2vs0mg"},{"bike_id":"6fe06eeb-25f6-4f5e-a9f8-b8c302b08255","system_id":"levelo_inurba_marseille","lat":43.299707,"lon":5.384859,"is_reserved":false,"is_disabled":false,"rental_uris":{"android":"levelo://app?vid=6fe06eeb-25f6-4f5e-a9f8-b8c302b08255","ios":"levelo://app?vid=6fe06eeb-25f6-4f5e-a9f8-b8c302b08255"},"vehicle_type_id":"4","last_reported":1715540760,"current_range_meters":16800,"station_id":"ce4bgj92rcd13ifvqbd0","pricing_plan_id":"cebpf4jnsgd1na2vs0mg"},{"bike_id":"33d755fd-6b53-4fe2-b558-e90579334fdc","system_id":"levelo_inurba_marseille","lat":43.299826,"lon":5.384825,"is_reserved":false,"is_disabled":false,"rental_uris":{"android":"levelo://app?vid=33d755fd-6b53-4fe2-b558-e90579334fdc","ios":"levelo://app?vid=33d755fd-6b53-4fe2-b558-e90579334fdc"},"vehicle_type_id":"4","last_reported":1715540760,"current_range_meters":14000,"station_id":"ce4bgj92rcd13ifvqbd0","pricing_plan_id":"cebpf4jnsgd1na2vs0mg"},{"bike_id":"b7a808eb-dc38-4ac8-b035-ebfb2dca1634","system_id":"levelo_inurba_marseille","lat":43.29597,"lon":5.37716,"is_reserved":false,"is_disabled":false,"rental_uris":{"android":"levelo://app?vid=b7a808eb-dc38-4ac8-b035-ebfb2dca1634","ios":"levelo://app?vid=b7a808eb-dc38-4ac8-b035-ebfb2dca1634"},"vehicle_type_id":"4","last_reported":1715540760,"current_range_meters":18400,"station_id":"ce4bgi92rcd13ifvqb90","pricing_plan_id":"cebpf4jnsgd1na2vs0mg"},{"bike_id":"ad9dfb44-9625-4d41-84c6-60120ac227ab","system_id":"levelo_inurba_marseille","lat":43.299724,"lon":5.384848,"is_reserved":false,"is_disabled":false,"rental_uris":{"android":"levelo://app?vid=ad9dfb44-9625-4d41-84c6-60120ac227ab","ios":"levelo://app?vid=ad9dfb44-9625-4d41-84c6-60120ac227ab"},"vehicle_type_id":"4","last_reported":1715540760,"current_range_meters":6800,"station_id":"ce4bgj92rcd13ifvqbd0","pricing_plan_id":"cebpf4jnsgd1na2vs0mg"},{"bike_id":"7666977b-8461-474c-9e17-fbb8698e60a3","system_id":"levelo_inurba_marseille","lat":43.299707,"lon":5.384859,"is_reserved":false,"is_disabled":false,"rental_uris":{"android":"levelo://app?vid=7666977b-8461-474c-9e17-fbb8698e60a3","ios":"levelo://app?vid=7666977b-8461-474c-9e17-fbb8698e60a3"},"vehicle_type_id":"4","last_reported":1715540760,"current_range_meters":0,"station_id":"ce4bgj92rcd13ifvqbd0","pricing_plan_id":"cebpf4jnsgd1na2vs0mg"},{"bike_id":"6fef6dcb-7ef7-4b78-9dc9-5cae4f709ba7","system_id":"levelo_inurba_marseille","lat":43.29972,"lon":5.3849,"is_reserved":false,"is_disabled":false,"rental_uris":{"android":"levelo://app?vid=6fef6dcb-7ef7-4b78-9dc9-5cae4f709ba7","ios":"levelo://app?vid=6fef6dcb-7ef7-4b78-9dc9-5cae4f709ba7"},"vehicle_type_id":"4","last_reported":1715540760,"current_range_meters":10000,"station_id":"ce4bgj92rcd13ifvqbd0","pricing_plan_id":"cebpf4jnsgd1na2vs0mg"},{"bike_id":"f560dc0b-3e4b-4c13-aa33-39851e75304b","system_id":"levelo_inurba_marseille","lat":43.295279,"lon":5.375048,"is_reserved":false,"is_disabled":false,"rental_uris":{"android":"levelo://app?vid=f560dc0b-3e4b-4c13-aa33-39851e75304b","ios":"levelo://app?vid=f560dc0b-3e4b-4c13-aa33-39851e75304b"},"vehicle_type_id":"4","last_reported":1715540760,"current_range_meters":8800,"station_id":"ce4bgkp2rcd13ifvqbmg","pricing_plan_id":"cebpf4jnsgd1na2vs0mg"},{"bike_id":"d324bf2c-2b92-4ce4-80cf-d6c193c038c4","system_id":"levelo_inurba_marseille","lat":43.29968,"lon":5.38491,"is_reserved":false,"is_disabled":false,"rental_uris":{"android":"levelo://app?vid=d324bf2c-2b92-4ce4-80cf-d6c193c038c4","ios":"levelo://app?vid=d324bf2c-2b92-4ce4-80cf-d6c193c038c4"},"vehicle_type_id":"4","last_reported":1715540760,"current_range_meters":27200,"station_id":"","pricing_plan_id":"cebpf4jnsgd1na2vs0mg"},{"bike_id":"3717333c-a597-404c-b14c-9263f105c5f2","system_id":"levelo_inurba_marseille","lat":43.29967,"lon":5.38492,"is_reserved":false,"is_disabled":false,"rental_uris":{"android":"levelo://app?vid=3717333c-a597-404c-b14c-9263f105c5f2","ios":"levelo://app?vid=3717333c-a597-404c-b14c-9263f105c5f2"},"vehicle_type_id":"4","last_reported":1715540760,"current_range_meters":9600,"station_id":"ce4bgj92rcd13ifvqbd0","pricing_plan_id":"cebpf4jnsgd1na2vs0mg"},{"bike_id":"23b60fc7-31a3-4a98-86ab-dee402c26543","system_id":"levelo_inurba_marseille","lat":43.299717,"lon":5.384845,"is_reserved":false,"is_disabled":false,"rental_uris":{"android":"levelo://app?vid=23b60fc7-31a3-4a98-86ab-dee402c26543","ios":"levelo://app?vid=23b60fc7-31a3-4a98-86ab-dee402c26543"},"vehicle_type_id":"4","last_reported":1715540760,"current_range_meters":0,"station_id":"ce4bgj92rcd13ifvqbd0","pricing_plan_id":"cebpf4jnsgd1na2vs0mg"},{"bike_id":"c9ee70a0-36c6-49d3-b15b-408e6c137769","system_id":"levelo_inurba_marseille","lat":43.299717,"lon":5.384845,"is_reserved":false,"is_disabled":false,"rental_uris":{"android":"levelo://app?vid=c9ee70a0-36c6-49d3-b15b-408e6c137769","ios":"levelo://app?vid=c9ee70a0-36c6-49d3-b15b-408e6c137769"},"vehicle_type_id":"4","last_reported":1715540760,"current_range_meters":24400,"station_id":"ce4bgj92rcd13ifvqbd0","pricing_plan_id":"cebpf4jnsgd1na2vs0mg"},{"bike_id":"4d0a7268-6135-4bfa-8b8b-ce9c5307ab73","system_id":"levelo_inurba_marseille","lat":43.299717,"lon":5.384845,"is_reserved":false,"is_disabled":false,"rental_uris":{"android":"levelo://app?vid=4d0a7268-6135-4bfa-8b8b-ce9c5307ab73","ios":"levelo://app?vid=4d0a7268-6135-4bfa-8b8b-ce9c5307ab73"},"vehicle_type_id":"4","last_reported":1715540760,"current_range_meters":28000,"station_id":"ce4bgj92rcd13ifvqbd0","pricing_plan_id":"cebpf4jnsgd1na2vs0mg"},{"bike_id":"784e3251-c1b8-4b7b-a07c-1a3fea0e9609","system_id":"levelo_inurba_marseille","lat":43.299717,"lon":5.384845,"is_reserved":false,"is_disabled":false,"rental_uris":{"android":"levelo://app?vid=784e3251-c1b8-4b7b-a07c-1a3fea0e9609","ios":"levelo://app?vid=784e3251-c1b8-4b7b-a07c-1a3fea0e9609"},"vehicle_type_id":"4","last_reported":1715540760,"current_range_meters":11600,"station_id":"ce4bgj92rcd13ifvqbd0","pricing_plan_id":"cebpf4jnsgd1na2vs0mg"},{"bike_id":"75ed0541-0f84-4ead-9b0d-a3b7e3ca483e","system_id":"levelo_inurba_marseille","lat":43.299717,"lon":5.384845,"is_reserved":false,"is_disabled":false,"rental_uris":{"android":"levelo://app?vid=75ed0541-0f84-4ead-9b0d-a3b7e3ca483e","ios":"levelo://app?vid=75ed0541-0f84-4ead-9b0d-a3b7e3ca483e"},"vehicle_type_id":"4","last_reported":1715540760,"current_range_meters":16000,"station_id":"ce4bgj92rcd13ifvqbd0","pricing_plan_id":"cebpf4jnsgd1na2vs0mg"},{"bike_id":"b164390a-2b5f-4668-b13f-08685e08267a","system_id":"levelo_inurba_marseille","lat":43.303002,"lon":5.392142,"is_reserved":false,"is_disabled":false,"rental_uris":{"android":"levelo://app?vid=b164390a-2b5f-4668-b13f-08685e08267a","ios":"levelo://app?vid=b164390a-2b5f-4668-b13f-08685e08267a"},"vehicle_type_id":"4","last_reported":1715540760,"current_range_meters":8800,"station_id":"ce4bgkh2rcd13ifvqbk0","pricing_plan_id":"cebpf4jnsgd1na2vs0mg"},{"bike_id":"fe062707-5805-428a-8745-3ae02dc90e84","system_id":"levelo_inurba_marseille","lat":43.32367,"lon":5.388836,"is_reserved":false,"is_disabled":false,"rental_uris":{"android":"levelo://app?vid=fe062707-5805-428a-8745-3ae02dc90e84","ios":"levelo://app?vid=fe062707-5805-428a-8745-3ae02dc90e84"},"vehicle_type_id":"4","last_reported":1715540760,"current_range_meters":6800,"station_id":"ce4bhqp2rcd13ifvqhog","pricing_plan_id":"cebpf4jnsgd1na2vs0mg"},{"bike_id":"cfcfe417-fbd7-4a61-bb14-b301e1b66302","system_id":"levelo_inurba_marseille","lat":43.32367,"lon":5.388836,"is_reserved":false,"is_disabled":false,"rental_uris":{"android":"levelo://app?vid=cfcfe417-fbd7-4a61-bb14-b301e1b66302","ios":"levelo://app?vid=cfcfe417-fbd7-4a61-bb14-b301e1b66302"},"vehicle_type_id":"4","last_reported":1715540760,"current_range_meters":0,"station_id":"ce4bhqp2rcd13ifvqhog","pricing_plan_id":"cebpf4jnsgd1na2vs0mg"},{"bike_id":"a7f8e439-9357-42bb-a5d4-98d4810970ee","system_id":"levelo_inurba_marseille","lat":43.293009,"lon":5.374584,"is_reserved":false,"is_disabled":false,"rental_uris":{"android":"levelo://app?vid=a7f8e439-9357-42bb-a5d4-98d4810970ee","ios":"levelo://app?vid=a7f8e439-9357-42bb-a5d4-98d4810970ee"},"vehicle_type_id":"4","last_reported":1715540760,"current_range_meters":400,"station_id":"ce4bgi12rcd13ifvqb70","pricing_plan_id":"cebpf4jnsgd1na2vs0mg"},{"bike_id":"842f7e48-a0dc-482c-a3e8-ee0f88f00f0e","system_id":"levelo_inurba_marseille","lat":43.29601,"lon":5.381084,"is_reserved":false,"is_disabled":false,"rental_uris":{"android":"levelo://app?vid=842f7e48-a0dc-482c-a3e8-ee0f88f00f0e","ios":"levelo://app?vid=842f7e48-a0dc-482c-a3e8-ee0f88f00f0e"},"vehicle_type_id":"4","last_reported":1715540760,"current_range_meters":8400,"station_id":"ce4bgl12rcd13ifvqbo0","pricing_plan_id":"cebpf4jnsgd1na2vs0mg"},{"bike_id":"ae6762bc-7f13-4f6f-8ac2-f2042423b49b","system_id":"levelo_inurba_marseille","lat":43.295995,"lon":5.381033,"is_reserved":false,"is_disabled":false,"rental_uris":{"android":"levelo://app?vid=ae6762bc-7f13-4f6f-8ac2-f2042423b49b","ios":"levelo://app?vid=ae6762bc-7f13-4f6f-8ac2-f2042423b49b"},"vehicle_type_id":"4","last_reported":1715540760,"current_range_meters":0,"station_id":"ce4bgl12rcd13ifvqbo0","pricing_plan_id":"cebpf4jnsgd1na2vs0mg"},{"bike_id":"361c5e19-86c3-4bf9-b66b-0bcaf81df1e5","system_id":"levelo_inurba_marseille","lat":43.295928,"lon":5.381076,"is_reserved":false,"is_disabled":false,"rental_uris":{"android":"levelo://app?vid=361c5e19-86c3-4bf9-b66b-0bcaf81df1e5","ios":"levelo://app?vid=361c5e19-86c3-4bf9-b66b-0bcaf81df1e5"},"vehicle_type_id":"4","last_reported":1715540760,"current_range_meters":0,"station_id":"ce4bgl12rcd13ifvqbo0","pricing_plan_id":"cebpf4jnsgd1na2vs0mg"},{"bike_id":"92de0efd-40a0-48e2-ac21-685bcaa866a6","system_id":"levelo_inurba_marseille","lat":43.29602,"lon":5.381084,"is_reserved":false,"is_disabled":false,"rental_uris":{"android":"levelo://app?vid=92de0efd-40a0-48e2-ac21-685bcaa866a6","ios":"levelo://app?vid=92de0efd-40a0-48e2-ac21-685bcaa866a6"},"vehicle_type_id":"4","last_reported":1715540760,"current_range_meters":6000,"station_id":"ce4bgl12rcd13ifvqbo0","pricing_plan_id":"cebpf4jnsgd1na2vs0mg"},{"bike_id":"dd1c3477-8263-47a6-a8b9-256b138572d3","system_id":"levelo_inurba_marseille","lat":43.29601,"lon":5.381084,"is_reserved":false,"is_disabled":false,"rental_uris":{"android":"levelo://app?vid=dd1c3477-8263-47a6-a8b9-256b138572d3","ios":"levelo://app?vid=dd1c3477-8263-47a6-a8b9-256b138572d3"},"vehicle_type_id":"4","last_reported":1715540760,"current_range_meters":20000,"station_id":"ce4bgl12rcd13ifvqbo0","pricing_plan_id":"cebpf4jnsgd1na2vs0mg"},{"bike_id":"63ad3f4b-90a3-4846-a677-4b2eb6228a0f","system_id":"levelo_inurba_marseille","lat":43.293249,"lon":5.371578,"is_reserved":false,"is_disabled":false,"rental_uris":{"android":"levelo://app?vid=63ad3f4b-90a3-4846-a677-4b2eb6228a0f","ios":"levelo://app?vid=63ad3f4b-90a3-4846-a677-4b2eb6228a0f"},"vehicle_type_id":"4","last_reported":1715540760,"current_range_meters":25600,"station_id":"ce4bgh92rcd13ifvqb40","pricing_plan_id":"cebpf4jnsgd1na2vs0mg"},{"bike_id":"e512b777-7e82-4c3f-9892-160dd750872d","system_id":"levelo_inurba_marseille","lat":43.292749,"lon":5.368398,"is_reserved":false,"is_disabled":false,"rental_uris":{"android":"levelo://app?vid=e512b777-7e82-4c3f-9892-160dd750872d","ios":"levelo://app?vid=e512b777-7e82-4c3f-9892-160dd750872d"},"vehicle_type_id":"4","last_reported":1715540760,"current_range_meters":3200,"station_id":"ce4bhbp2rcd13ifvqesg","pricing_plan_id":"cebpf4jnsgd1na2vs0mg"},{"bike_id":"030146d6-9693-47a5-b089-1a8a70c63731","system_id":"levelo_inurba_marseille","lat":43.292749,"lon":5.368402,"is_reserved":false,"is_disabled":false,"rental_uris":{"android":"levelo://app?vid=030146d6-9693-47a5-b089-1a8a70c63731","ios":"levelo://app?vid=030146d6-9693-47a5-b089-1a8a70c63731"},"vehicle_type_id":"4","last_reported":1715540760,"current_range_meters":22000,"station_id":"ce4bhbp2rcd13ifvqesg","pricing_plan_id":"cebpf4jnsgd1na2vs0mg"},{"bike_id":"ea1eec56-4d5e-4bda-970d-1d6e67327bec","system_id":"levelo_inurba_marseille","lat":43.292749,"lon":5.368402,"is_reserved":false,"is_disabled":false,"rental_uris":{"android":"levelo://app?vid=ea1eec56-4d5e-4bda-970d-1d6e67327bec","ios":"levelo://app?vid=ea1eec56-4d5e-4bda-970d-1d6e67327bec"},"vehicle_type_id":"4","last_reported":1715540760,"current_range_meters":24800,"station_id":"ce4bhbp2rcd13ifvqesg","pricing_plan_id":"cebpf4jnsgd1na2vs0mg"},{"bike_id":"85ccc75e-c94f-4b3c-b44c-c53921643630","system_id":"levelo_inurba_marseille","lat":43.32871,"lon":5.38359,"is_reserved":false,"is_disabled":false,"rental_uris":{"android":"levelo://app?vid=85ccc75e-c94f-4b3c-b44c-c53921643630","ios":"levelo://app?vid=85ccc75e-c94f-4b3c-b44c-c53921643630"},"vehicle_type_id":"4","last_reported":1715540760,"current_range_meters":9600,"station_id":"","pricing_plan_id":"cebpf4jnsgd1na2vs0mg"},{"bike_id":"27bd8218-fa86-48ec-8408-2c74668b7c54","system_id":"levelo_inurba_marseille","lat":43.292749,"lon":5.368402,"is_reserved":false,"is_disabled":false,"rental_uris":{"android":"levelo://app?vid=27bd8218-fa86-48ec-8408-2c74668b7c54","ios":"levelo://app?vid=27bd8218-fa86-48ec-8408-2c74668b7c54"},"vehicle_type_id":"4","last_reported":1715540760,"current_range_meters":2800,"station_id":"ce4bhbp2rcd13ifvqesg","pricing_plan_id":"cebpf4jnsgd1na2vs0mg"},{"bike_id":"9055da44-f446-49bd-9a27-4f446df67a12","system_id":"levelo_inurba_marseille","lat":43.292749,"lon":5.368398,"is_reserved":false,"is_disabled":false,"rental_uris":{"android":"levelo://app?vid=9055da44-f446-49bd-9a27-4f446df67a12","ios":"levelo://app?vid=9055da44-f446-49bd-9a27-4f446df67a12"},"vehicle_type_id":"4","last_reported":1715540760,"current_range_meters":10400,"station_id":"ce4bhbp2rcd13ifvqesg","pricing_plan_id":"cebpf4jnsgd1na2vs0mg"},{"bike_id":"a18905de-2a0a-4b78-94ba-3b8b9e20e235","system_id":"levelo_inurba_marseille","lat":43.305994,"lon":5.393687,"is_reserved":false,"is_disabled":false,"rental_uris":{"android":"levelo://app?vid=a18905de-2a0a-4b78-94ba-3b8b9e20e235","ios":"levelo://app?vid=a18905de-2a0a-4b78-94ba-3b8b9e20e235"},"vehicle_type_id":"4","last_reported":1715540760,"current_range_meters":1600,"station_id":"ce4bh0p2rcd13ifvqd80","pricing_plan_id":"cebpf4jnsgd1na2vs0mg"},{"bike_id":"eb5c96b9-04cb-4bc6-b1f4-a8c59f67c9b9","system_id":"levelo_inurba_marseille","lat":43.293009,"lon":5.374584,"is_reserved":false,"is_disabled":false,"rental_uris":{"android":"levelo://app?vid=eb5c96b9-04cb-4bc6-b1f4-a8c59f67c9b9","ios":"levelo://app?vid=eb5c96b9-04cb-4bc6-b1f4-a8c59f67c9b9"},"vehicle_type_id":"4","last_reported":1715540760,"current_range_meters":0,"station_id":"ce4bgi12rcd13ifvqb70","pricing_plan_id":"cebpf4jnsgd1na2vs0mg"},{"bike_id":"efb81b70-1eea-49c8-b253-63c3f6bcaa8e","system_id":"levelo_inurba_marseille","lat":43.305994,"lon":5.393687,"is_reserved":false,"is_disabled":false,"rental_uris":{"android":"levelo://app?vid=efb81b70-1eea-49c8-b253-63c3f6bcaa8e","ios":"levelo://app?vid=efb81b70-1eea-49c8-b253-63c3f6bcaa8e"},"vehicle_type_id":"4","last_reported":1715540760,"current_range_meters":8400,"station_id":"ce4bh0p2rcd13ifvqd80","pricing_plan_id":"cebpf4jnsgd1na2vs0mg"},{"bike_id":"379b3912-52e4-48d9-8ac0-f4878c0434d9","system_id":"levelo_inurba_marseille","lat":43.305994,"lon":5.393687,"is_reserved":false,"is_disabled":false,"rental_uris":{"android":"levelo://app?vid=379b3912-52e4-48d9-8ac0-f4878c0434d9","ios":"levelo://app?vid=379b3912-52e4-48d9-8ac0-f4878c0434d9"},"vehicle_type_id":"4","last_reported":1715540760,"current_range_meters":9200,"station_id":"ce4bh0p2rcd13ifvqd80","pricing_plan_id":"cebpf4jnsgd1na2vs0mg"},{"bike_id":"41ffe99f-4636-4fc9-867f-a4b2e75041fc","system_id":"levelo_inurba_marseille","lat":43.306,"lon":5.39364,"is_reserved":false,"is_disabled":false,"rental_uris":{"android":"levelo://app?vid=41ffe99f-4636-4fc9-867f-a4b2e75041fc","ios":"levelo://app?vid=41ffe99f-4636-4fc9-867f-a4b2e75041fc"},"vehicle_type_id":"4","last_reported":1715540760,"current_range_meters":0,"station_id":"ce4bh0p2rcd13ifvqd80","pricing_plan_id":"cebpf4jnsgd1na2vs0mg"},{"bike_id":"e6220701-25e7-4ed7-8a42-56111e7bde3b","system_id":"levelo_inurba_marseille","lat":43.302008,"lon":5.394694,"is_reserved":false,"is_disabled":false,"rental_uris":{"android":"levelo://app?vid=e6220701-25e7-4ed7-8a42-56111e7bde3b","ios":"levelo://app?vid=e6220701-25e7-4ed7-8a42-56111e7bde3b"},"vehicle_type_id":"4","last_reported":1715540760,"current_range_meters":2000,"station_id":"ce4bh0p2rcd13ifvqd70","pricing_plan_id":"cebpf4jnsgd1na2vs0mg"},{"bike_id":"3629c505-905a-4be9-bc44-e87756d1a919","system_id":"levelo_inurba_marseille","lat":43.305994,"lon":5.393687,"is_reserved":false,"is_disabled":false,"rental_uris":{"android":"levelo://app?vid=3629c505-905a-4be9-bc44-e87756d1a919","ios":"levelo://app?vid=3629c505-905a-4be9-bc44-e87756d1a919"},"vehicle_type_id":"4","last_reported":1715540760,"current_range_meters":8800,"station_id":"ce4bh0p2rcd13ifvqd80","pricing_plan_id":"cebpf4jnsgd1na2vs0mg"},{"bike_id":"1843db22-7c36-42d8-880b-58adf86b02ce","system_id":"levelo_inurba_marseille","lat":43.30299,"lon":5.3921,"is_reserved":false,"is_disabled":false,"rental_uris":{"android":"levelo://app?vid=1843db22-7c36-42d8-880b-58adf86b02ce","ios":"levelo://app?vid=1843db22-7c36-42d8-880b-58adf86b02ce"},"vehicle_type_id":"4","last_reported":1715540760,"current_range_meters":10000,"station_id":"","pricing_plan_id":"cebpf4jnsgd1na2vs0mg"},{"bike_id":"7667ef9c-713d-42b3-ac12-241ec577151d","system_id":"levelo_inurba_marseille","lat":43.302997,"lon":5.39215,"is_reserved":false,"is_disabled":false,"rental_uris":{"android":"levelo://app?vid=7667ef9c-713d-42b3-ac12-241ec577151d","ios":"levelo://app?vid=7667ef9c-713d-42b3-ac12-241ec577151d"},"vehicle_type_id":"4","last_reported":1715540760,"current_range_meters":0,"station_id":"ce4bgkh2rcd13ifvqbk0","pricing_plan_id":"cebpf4jnsgd1na2vs0mg"},{"bike_id":"d4035239-465b-420d-861a-c3f21178746c","system_id":"levelo_inurba_marseille","lat":43.303002,"lon":5.392142,"is_reserved":false,"is_disabled":false,"rental_uris":{"android":"levelo://app?vid=d4035239-465b-420d-861a-c3f21178746c","ios":"levelo://app?vid=d4035239-465b-420d-861a-c3f21178746c"},"vehicle_type_id":"4","last_reported":1715540760,"current_range_meters":0,"station_id":"ce4bgkh2rcd13ifvqbk0","pricing_plan_id":"cebpf4jnsgd1na2vs0mg"},{"bike_id":"520e972c-0f08-4f2e-b5dd-b7ee1ed552e9","system_id":"levelo_inurba_marseille","lat":43.298764,"lon":5.388973,"is_reserved":false,"is_disabled":false,"rental_uris":{"android":"levelo://app?vid=520e972c-0f08-4f2e-b5dd-b7ee1ed552e9","ios":"levelo://app?vid=520e972c-0f08-4f2e-b5dd-b7ee1ed552e9"},"vehicle_type_id":"4","last_reported":1715540760,"current_range_meters":5600,"station_id":"ce4bh392rcd13ifvqdl0","pricing_plan_id":"cebpf4jnsgd1na2vs0mg"},{"bike_id":"0386a323-38a3-45a2-b41a-420d0c2f4cb0","system_id":"levelo_inurba_marseille","lat":43.291671,"lon":5.371575,"is_reserved":false,"is_disabled":false,"rental_uris":{"android":"levelo://app?vid=0386a323-38a3-45a2-b41a-420d0c2f4cb0","ios":"levelo://app?vid=0386a323-38a3-45a2-b41a-420d0c2f4cb0"},"vehicle_type_id":"4","last_reported":1715540760,"current_range_meters":0,"station_id":"ce4bha92rcd13ifvqeh0","pricing_plan_id":"cebpf4jnsgd1na2vs0mg"},{"bike_id":"3ab60572-abe4-488d-8f3d-b7136adb3fdf","system_id":"levelo_inurba_marseille","lat":43.298764,"lon":5.388973,"is_reserved":false,"is_disabled":false,"rental_uris":{"android":"levelo://app?vid=3ab60572-abe4-488d-8f3d-b7136adb3fdf","ios":"levelo://app?vid=3ab60572-abe4-488d-8f3d-b7136adb3fdf"},"vehicle_type_id":"4","last_reported":1715540760,"current_range_meters":7200,"station_id":"ce4bh392rcd13ifvqdl0","pricing_plan_id":"cebpf4jnsgd1na2vs0mg"},{"bike_id":"724d7077-74fa-425d-b5a7-cd6a95b9e75e","system_id":"levelo_inurba_marseille","lat":43.298764,"lon":5.388973,"is_reserved":false,"is_disabled":false,"rental_uris":{"android":"levelo://app?vid=724d7077-74fa-425d-b5a7-cd6a95b9e75e","ios":"levelo://app?vid=724d7077-74fa-425d-b5a7-cd6a95b9e75e"},"vehicle_type_id":"4","last_reported":1715540760,"current_range_meters":10400,"station_id":"ce4bh392rcd13ifvqdl0","pricing_plan_id":"cebpf4jnsgd1na2vs0mg"},{"bike_id":"3d6b2480-c345-428a-a4a7-be8d328ca983","system_id":"levelo_inurba_marseille","lat":43.29874,"lon":5.38914,"is_reserved":false,"is_disabled":false,"rental_uris":{"android":"levelo://app?vid=3d6b2480-c345-428a-a4a7-be8d328ca983","ios":"levelo://app?vid=3d6b2480-c345-428a-a4a7-be8d328ca983"},"vehicle_type_id":"4","last_reported":1715540760,"current_range_meters":0,"station_id":"ce4bh392rcd13ifvqdl0","pricing_plan_id":"cebpf4jnsgd1na2vs0mg"},{"bike_id":"63362b1a-a0aa-48e0-adaa-8a62d3b830da","system_id":"levelo_inurba_marseille","lat":43.29869,"lon":5.38912,"is_reserved":false,"is_disabled":false,"rental_uris":{"android":"levelo://app?vid=63362b1a-a0aa-48e0-adaa-8a62d3b830da","ios":"levelo://app?vid=63362b1a-a0aa-48e0-adaa-8a62d3b830da"},"vehicle_type_id":"4","last_reported":1715540760,"current_range_meters":3200,"station_id":"ce4bh392rcd13ifvqdl0","pricing_plan_id":"cebpf4jnsgd1na2vs0mg"},{"bike_id":"c1356cd6-ff17-47fe-b7e1-e27d996b26ff","system_id":"levelo_inurba_marseille","lat":43.298764,"lon":5.388973,"is_reserved":false,"is_disabled":false,"rental_uris":{"android":"levelo://app?vid=c1356cd6-ff17-47fe-b7e1-e27d996b26ff","ios":"levelo://app?vid=c1356cd6-ff17-47fe-b7e1-e27d996b26ff"},"vehicle_type_id":"4","last_reported":1715540760,"current_range_meters":3600,"station_id":"ce4bh392rcd13ifvqdl0","pricing_plan_id":"cebpf4jnsgd1na2vs0mg"},{"bike_id":"460abc47-c933-4ec2-bc6a-00a6b9702b9b","system_id":"levelo_inurba_marseille","lat":43.313291,"lon":5.396838,"is_reserved":false,"is_disabled":false,"rental_uris":{"android":"levelo://app?vid=460abc47-c933-4ec2-bc6a-00a6b9702b9b","ios":"levelo://app?vid=460abc47-c933-4ec2-bc6a-00a6b9702b9b"},"vehicle_type_id":"4","last_reported":1715540760,"current_range_meters":16400,"station_id":"ce4bgvp2rcd13ifvqcu0","pricing_plan_id":"cebpf4jnsgd1na2vs0mg"},{"bike_id":"a63dc28d-1db8-4ac4-8b6c-6273bbc80867","system_id":"levelo_inurba_marseille","lat":43.313291,"lon":5.396838,"is_reserved":false,"is_disabled":false,"rental_uris":{"android":"levelo://app?vid=a63dc28d-1db8-4ac4-8b6c-6273bbc80867","ios":"levelo://app?vid=a63dc28d-1db8-4ac4-8b6c-6273bbc80867"},"vehicle_type_id":"4","last_reported":1715540760,"current_range_meters":1200,"station_id":"ce4bgvp2rcd13ifvqcu0","pricing_plan_id":"cebpf4jnsgd1na2vs0mg"},{"bike_id":"c99c2d4d-0244-465a-8fc9-0233344d12f4","system_id":"levelo_inurba_marseille","lat":43.309038,"lon":5.396546,"is_reserved":false,"is_disabled":false,"rental_uris":{"android":"levelo://app?vid=c99c2d4d-0244-465a-8fc9-0233344d12f4","ios":"levelo://app?vid=c99c2d4d-0244-465a-8fc9-0233344d12f4"},"vehicle_type_id":"4","last_reported":1715540760,"current_range_meters":14000,"station_id":"ce4bh012rcd13ifvqcv0","pricing_plan_id":"cebpf4jnsgd1na2vs0mg"},{"bike_id":"9b07692f-8165-4e09-bc27-f2dda30af358","system_id":"levelo_inurba_marseille","lat":43.309038,"lon":5.396546,"is_reserved":false,"is_disabled":false,"rental_uris":{"android":"levelo://app?vid=9b07692f-8165-4e09-bc27-f2dda30af358","ios":"levelo://app?vid=9b07692f-8165-4e09-bc27-f2dda30af358"},"vehicle_type_id":"4","last_reported":1715540760,"current_range_meters":14400,"station_id":"ce4bh012rcd13ifvqcv0","pricing_plan_id":"cebpf4jnsgd1na2vs0mg"},{"bike_id":"7f230ac0-56d1-4071-96d4-32afa2192ae0","system_id":"levelo_inurba_marseille","lat":43.29529,"lon":5.385581,"is_reserved":false,"is_disabled":false,"rental_uris":{"android":"levelo://app?vid=7f230ac0-56d1-4071-96d4-32afa2192ae0","ios":"levelo://app?vid=7f230ac0-56d1-4071-96d4-32afa2192ae0"},"vehicle_type_id":"4","last_reported":1715540760,"current_range_meters":17600,"station_id":"ce4bgih2rcd13ifvqba0","pricing_plan_id":"cebpf4jnsgd1na2vs0mg"},{"bike_id":"c4bbff0e-dc07-42a0-9e9e-4cfcc370c008","system_id":"levelo_inurba_marseille","lat":43.294162,"lon":5.386292,"is_reserved":false,"is_disabled":false,"rental_uris":{"android":"levelo://app?vid=c4bbff0e-dc07-42a0-9e9e-4cfcc370c008","ios":"levelo://app?vid=c4bbff0e-dc07-42a0-9e9e-4cfcc370c008"},"vehicle_type_id":"4","last_reported":1715540760,"current_range_meters":28000,"station_id":"ce4bh2h2rcd13ifvqdh0","pricing_plan_id":"cebpf4jnsgd1na2vs0mg"},{"bike_id":"189c0ad1-d6b3-4ce1-adec-f5d99ea222e7","system_id":"levelo_inurba_marseille","lat":43.29529,"lon":5.385581,"is_reserved":false,"is_disabled":false,"rental_uris":{"android":"levelo://app?vid=189c0ad1-d6b3-4ce1-adec-f5d99ea222e7","ios":"levelo://app?vid=189c0ad1-d6b3-4ce1-adec-f5d99ea222e7"},"vehicle_type_id":"4","last_reported":1715540760,"current_range_meters":4800,"station_id":"ce4bgih2rcd13ifvqba0","pricing_plan_id":"cebpf4jnsgd1na2vs0mg"},{"bike_id":"f3631fb4-1eae-45ec-a2b7-271192b32a5d","system_id":"levelo_inurba_marseille","lat":43.290779,"lon":5.371482,"is_reserved":false,"is_disabled":false,"rental_uris":{"android":"levelo://app?vid=f3631fb4-1eae-45ec-a2b7-271192b32a5d","ios":"levelo://app?vid=f3631fb4-1eae-45ec-a2b7-271192b32a5d"},"vehicle_type_id":"4","last_reported":1715540760,"current_range_meters":0,"station_id":"ce4bh5p2rcd13ifvqe4g","pricing_plan_id":"cebpf4jnsgd1na2vs0mg"},{"bike_id":"f6aa963a-5daa-49f3-b567-2db61c619ccc","system_id":"levelo_inurba_marseille","lat":43.301117,"lon":5.398795,"is_reserved":false,"is_disabled":false,"rental_uris":{"android":"levelo://app?vid=f6aa963a-5daa-49f3-b567-2db61c619ccc","ios":"levelo://app?vid=f6aa963a-5daa-49f3-b567-2db61c619ccc"},"vehicle_type_id":"4","last_reported":1715540760,"current_range_meters":400,"station_id":"ce4bh0h2rcd13ifvqd40","pricing_plan_id":"cebpf4jnsgd1na2vs0mg"},{"bike_id":"4ebd8623-2a4f-482a-a17d-ff0415ec2051","system_id":"levelo_inurba_marseille","lat":43.290779,"lon":5.371482,"is_reserved":false,"is_disabled":false,"rental_uris":{"android":"levelo://app?vid=4ebd8623-2a4f-482a-a17d-ff0415ec2051","ios":"levelo://app?vid=4ebd8623-2a4f-482a-a17d-ff0415ec2051"},"vehicle_type_id":"4","last_reported":1715540760,"current_range_meters":27600,"station_id":"ce4bh5p2rcd13ifvqe4g","pricing_plan_id":"cebpf4jnsgd1na2vs0mg"},{"bike_id":"141e03ef-b2e6-4b0d-af34-8db0c5cbd1bc","system_id":"levelo_inurba_marseille","lat":43.290631,"lon":5.359244,"is_reserved":false,"is_disabled":false,"rental_uris":{"android":"levelo://app?vid=141e03ef-b2e6-4b0d-af34-8db0c5cbd1bc","ios":"levelo://app?vid=141e03ef-b2e6-4b0d-af34-8db0c5cbd1bc"},"vehicle_type_id":"4","last_reported":1715540760,"current_range_meters":22400,"station_id":"ce4bha92rcd13ifvqeg0","pricing_plan_id":"cebpf4jnsgd1na2vs0mg"},{"bike_id":"7e3d47fc-7880-45bc-9aee-9f7047e81257","system_id":"levelo_inurba_marseille","lat":43.290624,"lon":5.359245,"is_reserved":false,"is_disabled":false,"rental_uris":{"android":"levelo://app?vid=7e3d47fc-7880-45bc-9aee-9f7047e81257","ios":"levelo://app?vid=7e3d47fc-7880-45bc-9aee-9f7047e81257"},"vehicle_type_id":"4","last_reported":1715540760,"current_range_meters":13200,"station_id":"ce4bha92rcd13ifvqeg0","pricing_plan_id":"cebpf4jnsgd1na2vs0mg"},{"bike_id":"ed26acd6-d0c5-4f71-a16b-3adf9a382e34","system_id":"levelo_inurba_marseille","lat":43.29034,"lon":5.37546,"is_reserved":false,"is_disabled":false,"rental_uris":{"android":"levelo://app?vid=ed26acd6-d0c5-4f71-a16b-3adf9a382e34","ios":"levelo://app?vid=ed26acd6-d0c5-4f71-a16b-3adf9a382e34"},"vehicle_type_id":"4","last_reported":1715540760,"current_range_meters":13600,"station_id":"ce4bh692rcd13ifvqe90","pricing_plan_id":"cebpf4jnsgd1na2vs0mg"},{"bike_id":"2044d652-5823-4afb-93da-754c9a628dd1","system_id":"levelo_inurba_marseille","lat":43.294153,"lon":5.386305,"is_reserved":false,"is_disabled":false,"rental_uris":{"android":"levelo://app?vid=2044d652-5823-4afb-93da-754c9a628dd1","ios":"levelo://app?vid=2044d652-5823-4afb-93da-754c9a628dd1"},"vehicle_type_id":"4","last_reported":1715540760,"current_range_meters":16400,"station_id":"ce4bh2h2rcd13ifvqdh0","pricing_plan_id":"cebpf4jnsgd1na2vs0mg"},{"bike_id":"608e5e22-62d8-4b14-8ac0-934a3f05afe7","system_id":"levelo_inurba_marseille","lat":43.289444,"lon":5.366501,"is_reserved":false,"is_disabled":false,"rental_uris":{"android":"levelo://app?vid=608e5e22-62d8-4b14-8ac0-934a3f05afe7","ios":"levelo://app?vid=608e5e22-62d8-4b14-8ac0-934a3f05afe7"},"vehicle_type_id":"4","last_reported":1715540760,"current_range_meters":17200,"station_id":"","pricing_plan_id":"cebpf4jnsgd1na2vs0mg"},{"bike_id":"0526f49a-cf69-4106-aa20-fbf4cfeb01f6","system_id":"levelo_inurba_marseille","lat":43.294162,"lon":5.386292,"is_reserved":false,"is_disabled":false,"rental_uris":{"android":"levelo://app?vid=0526f49a-cf69-4106-aa20-fbf4cfeb01f6","ios":"levelo://app?vid=0526f49a-cf69-4106-aa20-fbf4cfeb01f6"},"vehicle_type_id":"4","last_reported":1715540760,"current_range_meters":2000,"station_id":"ce4bh2h2rcd13ifvqdh0","pricing_plan_id":"cebpf4jnsgd1na2vs0mg"},{"bike_id":"0117513f-428f-4dfe-af4c-06ff9ed2b171","system_id":"levelo_inurba_marseille","lat":43.294162,"lon":5.386292,"is_reserved":false,"is_disabled":false,"rental_uris":{"android":"levelo://app?vid=0117513f-428f-4dfe-af4c-06ff9ed2b171","ios":"levelo://app?vid=0117513f-428f-4dfe-af4c-06ff9ed2b171"},"vehicle_type_id":"4","last_reported":1715540760,"current_range_meters":11200,"station_id":"ce4bh2h2rcd13ifvqdh0","pricing_plan_id":"cebpf4jnsgd1na2vs0mg"},{"bike_id":"e2ddfd69-cc0a-4c4e-b38b-c14c8618f9e8","system_id":"levelo_inurba_marseille","lat":43.294162,"lon":5.386292,"is_reserved":false,"is_disabled":false,"rental_uris":{"android":"levelo://app?vid=e2ddfd69-cc0a-4c4e-b38b-c14c8618f9e8","ios":"levelo://app?vid=e2ddfd69-cc0a-4c4e-b38b-c14c8618f9e8"},"vehicle_type_id":"4","last_reported":1715540760,"current_range_meters":0,"station_id":"ce4bh2h2rcd13ifvqdh0","pricing_plan_id":"cebpf4jnsgd1na2vs0mg"},{"bike_id":"261f3b21-5ddd-4609-805a-3bd91b3b1a83","system_id":"levelo_inurba_marseille","lat":43.294162,"lon":5.386292,"is_reserved":false,"is_disabled":false,"rental_uris":{"android":"levelo://app?vid=261f3b21-5ddd-4609-805a-3bd91b3b1a83","ios":"levelo://app?vid=261f3b21-5ddd-4609-805a-3bd91b3b1a83"},"vehicle_type_id":"4","last_reported":1715540760,"current_range_meters":30800,"station_id":"ce4bh2h2rcd13ifvqdh0","pricing_plan_id":"cebpf4jnsgd1na2vs0mg"},{"bike_id":"00c73e74-95f4-4b59-a8ea-4929a5be5c14","system_id":"levelo_inurba_marseille","lat":43.28934,"lon":5.36391,"is_reserved":false,"is_disabled":false,"rental_uris":{"android":"levelo://app?vid=00c73e74-95f4-4b59-a8ea-4929a5be5c14","ios":"levelo://app?vid=00c73e74-95f4-4b59-a8ea-4929a5be5c14"},"vehicle_type_id":"4","last_reported":1715540760,"current_range_meters":0,"station_id":"ce4bhc92rcd13ifvqetg","pricing_plan_id":"cebpf4jnsgd1na2vs0mg"},{"bike_id":"cf08bd9c-9911-4ae1-b584-dd25f218e08a","system_id":"levelo_inurba_marseille","lat":43.292642,"lon":5.384254,"is_reserved":false,"is_disabled":false,"rental_uris":{"android":"levelo://app?vid=cf08bd9c-9911-4ae1-b584-dd25f218e08a","ios":"levelo://app?vid=cf08bd9c-9911-4ae1-b584-dd25f218e08a"},"vehicle_type_id":"4","last_reported":1715540760,"current_range_meters":5600,"station_id":"ce4bh692rcd13ifvqea0","pricing_plan_id":"cebpf4jnsgd1na2vs0mg"},{"bike_id":"2b1b675d-1d39-477f-b7a8-1d34a4095ff8","system_id":"levelo_inurba_marseille","lat":43.304296,"lon":5.397513,"is_reserved":false,"is_disabled":false,"rental_uris":{"android":"levelo://app?vid=2b1b675d-1d39-477f-b7a8-1d34a4095ff8","ios":"levelo://app?vid=2b1b675d-1d39-477f-b7a8-1d34a4095ff8"},"vehicle_type_id":"4","last_reported":1715540760,"current_range_meters":17600,"station_id":"ce4bh092rcd13ifvqd20","pricing_plan_id":"cebpf4jnsgd1na2vs0mg"},{"bike_id":"7c0fc3a0-a06c-471c-b8a9-215c3239ac61","system_id":"levelo_inurba_marseille","lat":43.292642,"lon":5.384254,"is_reserved":false,"is_disabled":false,"rental_uris":{"android":"levelo://app?vid=7c0fc3a0-a06c-471c-b8a9-215c3239ac61","ios":"levelo://app?vid=7c0fc3a0-a06c-471c-b8a9-215c3239ac61"},"vehicle_type_id":"4","last_reported":1715540760,"current_range_meters":25600,"station_id":"ce4bh692rcd13ifvqea0","pricing_plan_id":"cebpf4jnsgd1na2vs0mg"},{"bike_id":"5ae01cca-8224-4761-b49b-42c719047912","system_id":"levelo_inurba_marseille","lat":43.304274,"lon":5.397513,"is_reserved":false,"is_disabled":false,"rental_uris":{"android":"levelo://app?vid=5ae01cca-8224-4761-b49b-42c719047912","ios":"levelo://app?vid=5ae01cca-8224-4761-b49b-42c719047912"},"vehicle_type_id":"4","last_reported":1715540760,"current_range_meters":26000,"station_id":"ce4bh092rcd13ifvqd20","pricing_plan_id":"cebpf4jnsgd1na2vs0mg"},{"bike_id":"b0e7bd4a-0735-4a1b-adcd-cfeabf84cc25","system_id":"levelo_inurba_marseille","lat":43.30422,"lon":5.39748,"is_reserved":false,"is_disabled":false,"rental_uris":{"android":"levelo://app?vid=b0e7bd4a-0735-4a1b-adcd-cfeabf84cc25","ios":"levelo://app?vid=b0e7bd4a-0735-4a1b-adcd-cfeabf84cc25"},"vehicle_type_id":"4","last_reported":1715540760,"current_range_meters":0,"station_id":"ce4bh092rcd13ifvqd20","pricing_plan_id":"cebpf4jnsgd1na2vs0mg"},{"bike_id":"e1879c55-9216-43bf-af94-e1e73d3d7d99","system_id":"levelo_inurba_marseille","lat":43.304296,"lon":5.397513,"is_reserved":false,"is_disabled":false,"rental_uris":{"android":"levelo://app?vid=e1879c55-9216-43bf-af94-e1e73d3d7d99","ios":"levelo://app?vid=e1879c55-9216-43bf-af94-e1e73d3d7d99"},"vehicle_type_id":"4","last_reported":1715540760,"current_range_meters":6000,"station_id":"ce4bh092rcd13ifvqd20","pricing_plan_id":"cebpf4jnsgd1na2vs0mg"},{"bike_id":"2a68e5a1-3fb5-420d-8e50-09162f39d2d1","system_id":"levelo_inurba_marseille","lat":43.292644,"lon":5.384257,"is_reserved":false,"is_disabled":false,"rental_uris":{"android":"levelo://app?vid=2a68e5a1-3fb5-420d-8e50-09162f39d2d1","ios":"levelo://app?vid=2a68e5a1-3fb5-420d-8e50-09162f39d2d1"},"vehicle_type_id":"4","last_reported":1715540760,"current_range_meters":28000,"station_id":"ce4bh692rcd13ifvqea0","pricing_plan_id":"cebpf4jnsgd1na2vs0mg"},{"bike_id":"c5e8dc34-a64d-490a-86fb-3b6b675310a2","system_id":"levelo_inurba_marseille","lat":43.304296,"lon":5.397513,"is_reserved":false,"is_disabled":false,"rental_uris":{"android":"levelo://app?vid=c5e8dc34-a64d-490a-86fb-3b6b675310a2","ios":"levelo://app?vid=c5e8dc34-a64d-490a-86fb-3b6b675310a2"},"vehicle_type_id":"4","last_reported":1715540760,"current_range_meters":1600,"station_id":"ce4bh092rcd13ifvqd20","pricing_plan_id":"cebpf4jnsgd1na2vs0mg"},{"bike_id":"700d2e87-8eb2-461a-b65c-4965dc889b37","system_id":"levelo_inurba_marseille","lat":43.304296,"lon":5.397513,"is_reserved":false,"is_disabled":false,"rental_uris":{"android":"levelo://app?vid=700d2e87-8eb2-461a-b65c-4965dc889b37","ios":"levelo://app?vid=700d2e87-8eb2-461a-b65c-4965dc889b37"},"vehicle_type_id":"4","last_reported":1715540760,"current_range_meters":400,"station_id":"ce4bh092rcd13ifvqd20","pricing_plan_id":"cebpf4jnsgd1na2vs0mg"},{"bike_id":"c2af9a46-6e6e-4b26-88fc-8a97417ddcd9","system_id":"levelo_inurba_marseille","lat":43.292642,"lon":5.384254,"is_reserved":false,"is_disabled":false,"rental_uris":{"android":"levelo://app?vid=c2af9a46-6e6e-4b26-88fc-8a97417ddcd9","ios":"levelo://app?vid=c2af9a46-6e6e-4b26-88fc-8a97417ddcd9"},"vehicle_type_id":"4","last_reported":1715540760,"current_range_meters":29600,"station_id":"ce4bh692rcd13ifvqea0","pricing_plan_id":"cebpf4jnsgd1na2vs0mg"},{"bike_id":"8d49cafe-395a-4df8-a0ab-c866f01bdc85","system_id":"levelo_inurba_marseille","lat":43.292498,"lon":5.384388,"is_reserved":false,"is_disabled":false,"rental_uris":{"android":"levelo://app?vid=8d49cafe-395a-4df8-a0ab-c866f01bdc85","ios":"levelo://app?vid=8d49cafe-395a-4df8-a0ab-c866f01bdc85"},"vehicle_type_id":"4","last_reported":1715540760,"current_range_meters":0,"station_id":"ce4bh692rcd13ifvqea0","pricing_plan_id":"cebpf4jnsgd1na2vs0mg"},{"bike_id":"96d83050-1089-4ad9-949d-dc652488fd4b","system_id":"levelo_inurba_marseille","lat":43.29253,"lon":5.3845,"is_reserved":false,"is_disabled":false,"rental_uris":{"android":"levelo://app?vid=96d83050-1089-4ad9-949d-dc652488fd4b","ios":"levelo://app?vid=96d83050-1089-4ad9-949d-dc652488fd4b"},"vehicle_type_id":"4","last_reported":1715540760,"current_range_meters":0,"station_id":"ce4bh692rcd13ifvqea0","pricing_plan_id":"cebpf4jnsgd1na2vs0mg"},{"bike_id":"b6676c02-ab54-473e-afa0-4c0b01319d8c","system_id":"levelo_inurba_marseille","lat":43.292642,"lon":5.384254,"is_reserved":false,"is_disabled":false,"rental_uris":{"android":"levelo://app?vid=b6676c02-ab54-473e-afa0-4c0b01319d8c","ios":"levelo://app?vid=b6676c02-ab54-473e-afa0-4c0b01319d8c"},"vehicle_type_id":"4","last_reported":1715540760,"current_range_meters":27600,"station_id":"ce4bh692rcd13ifvqea0","pricing_plan_id":"cebpf4jnsgd1na2vs0mg"},{"bike_id":"c88a17dd-c0b9-4f96-bc26-ff8e6ac3d373","system_id":"levelo_inurba_marseille","lat":43.290103,"lon":5.356114,"is_reserved":false,"is_disabled":false,"rental_uris":{"android":"levelo://app?vid=c88a17dd-c0b9-4f96-bc26-ff8e6ac3d373","ios":"levelo://app?vid=c88a17dd-c0b9-4f96-bc26-ff8e6ac3d373"},"vehicle_type_id":"4","last_reported":1715540760,"current_range_meters":0,"station_id":"ce4bhb92rcd13ifvqen0","pricing_plan_id":"cebpf4jnsgd1na2vs0mg"},{"bike_id":"8d3f1418-4ea9-4dc2-a376-c5117f297323","system_id":"levelo_inurba_marseille","lat":43.290995,"lon":5.381361,"is_reserved":false,"is_disabled":false,"rental_uris":{"android":"levelo://app?vid=8d3f1418-4ea9-4dc2-a376-c5117f297323","ios":"levelo://app?vid=8d3f1418-4ea9-4dc2-a376-c5117f297323"},"vehicle_type_id":"4","last_reported":1715540760,"current_range_meters":6800,"station_id":"ce4bh512rcd13ifvqe2g","pricing_plan_id":"cebpf4jnsgd1na2vs0mg"},{"bike_id":"29e3e248-06fd-4ee6-a199-80ab1ea642cf","system_id":"levelo_inurba_marseille","lat":43.290995,"lon":5.381361,"is_reserved":false,"is_disabled":false,"rental_uris":{"android":"levelo://app?vid=29e3e248-06fd-4ee6-a199-80ab1ea642cf","ios":"levelo://app?vid=29e3e248-06fd-4ee6-a199-80ab1ea642cf"},"vehicle_type_id":"4","last_reported":1715540760,"current_range_meters":4400,"station_id":"ce4bh512rcd13ifvqe2g","pricing_plan_id":"cebpf4jnsgd1na2vs0mg"},{"bike_id":"6ec6dffd-aa9e-46e4-ae54-cb7b1089ab03","system_id":"levelo_inurba_marseille","lat":43.33017,"lon":5.39031,"is_reserved":false,"is_disabled":false,"rental_uris":{"android":"levelo://app?vid=6ec6dffd-aa9e-46e4-ae54-cb7b1089ab03","ios":"levelo://app?vid=6ec6dffd-aa9e-46e4-ae54-cb7b1089ab03"},"vehicle_type_id":"4","last_reported":1715540760,"current_range_meters":6400,"station_id":"ce4bhr92rcd13ifvqhrg","pricing_plan_id":"cebpf4jnsgd1na2vs0mg"},{"bike_id":"47ac6b1a-5f66-4d3a-9095-12d28a7f7216","system_id":"levelo_inurba_marseille","lat":43.29777,"lon":5.3934,"is_reserved":false,"is_disabled":false,"rental_uris":{"android":"levelo://app?vid=47ac6b1a-5f66-4d3a-9095-12d28a7f7216","ios":"levelo://app?vid=47ac6b1a-5f66-4d3a-9095-12d28a7f7216"},"vehicle_type_id":"4","last_reported":1715540760,"current_range_meters":0,"station_id":"chh1huq6cuj3fo74tm60","pricing_plan_id":"cebpf4jnsgd1na2vs0mg"},{"bike_id":"0c4f01d5-b35e-43f9-892a-0d94845a8f8c","system_id":"levelo_inurba_marseille","lat":43.330442,"lon":5.389148,"is_reserved":false,"is_disabled":false,"rental_uris":{"android":"levelo://app?vid=0c4f01d5-b35e-43f9-892a-0d94845a8f8c","ios":"levelo://app?vid=0c4f01d5-b35e-43f9-892a-0d94845a8f8c"},"vehicle_type_id":"4","last_reported":1715540760,"current_range_meters":24000,"station_id":"ce4bhr92rcd13ifvqhrg","pricing_plan_id":"cebpf4jnsgd1na2vs0mg"},{"bike_id":"d0faf376-a848-42d9-825a-14ed3ee184c8","system_id":"levelo_inurba_marseille","lat":43.297815,"lon":5.393548,"is_reserved":false,"is_disabled":false,"rental_uris":{"android":"levelo://app?vid=d0faf376-a848-42d9-825a-14ed3ee184c8","ios":"levelo://app?vid=d0faf376-a848-42d9-825a-14ed3ee184c8"},"vehicle_type_id":"4","last_reported":1715540760,"current_range_meters":21200,"station_id":"chh1huq6cuj3fo74tm60","pricing_plan_id":"cebpf4jnsgd1na2vs0mg"},{"bike_id":"e0f72dd5-4c8c-4804-a494-a724e7d6c3b3","system_id":"levelo_inurba_marseille","lat":43.28858,"lon":5.37237,"is_reserved":false,"is_disabled":false,"rental_uris":{"android":"levelo://app?vid=e0f72dd5-4c8c-4804-a494-a724e7d6c3b3","ios":"levelo://app?vid=e0f72dd5-4c8c-4804-a494-a724e7d6c3b3"},"vehicle_type_id":"4","last_reported":1715540760,"current_range_meters":14800,"station_id":"","pricing_plan_id":"cebpf4jnsgd1na2vs0mg"},{"bike_id":"e73e76e2-dd41-4fe9-b191-5528b8019d98","system_id":"levelo_inurba_marseille","lat":43.297815,"lon":5.393548,"is_reserved":false,"is_disabled":false,"rental_uris":{"android":"levelo://app?vid=e73e76e2-dd41-4fe9-b191-5528b8019d98","ios":"levelo://app?vid=e73e76e2-dd41-4fe9-b191-5528b8019d98"},"vehicle_type_id":"4","last_reported":1715540760,"current_range_meters":2800,"station_id":"chh1huq6cuj3fo74tm60","pricing_plan_id":"cebpf4jnsgd1na2vs0mg"},{"bike_id":"993cfa4f-4c85-43ca-a689-1df2470b72c8","system_id":"levelo_inurba_marseille","lat":43.289743,"lon":5.378304,"is_reserved":false,"is_disabled":false,"rental_uris":{"android":"levelo://app?vid=993cfa4f-4c85-43ca-a689-1df2470b72c8","ios":"levelo://app?vid=993cfa4f-4c85-43ca-a689-1df2470b72c8"},"vehicle_type_id":"4","last_reported":1715540760,"current_range_meters":23600,"station_id":"ce4bh9p2rcd13ifvqed0","pricing_plan_id":"cebpf4jnsgd1na2vs0mg"},{"bike_id":"f5bca667-983c-4199-8a77-9d63e9732643","system_id":"levelo_inurba_marseille","lat":43.288085,"lon":5.3654,"is_reserved":false,"is_disabled":false,"rental_uris":{"android":"levelo://app?vid=f5bca667-983c-4199-8a77-9d63e9732643","ios":"levelo://app?vid=f5bca667-983c-4199-8a77-9d63e9732643"},"vehicle_type_id":"4","last_reported":1715540760,"current_range_meters":0,"station_id":"","pricing_plan_id":"cebpf4jnsgd1na2vs0mg"},{"bike_id":"a6fe3be9-2ae1-42ce-9d62-911bb3dea5fa","system_id":"levelo_inurba_marseille","lat":43.28856,"lon":5.358371,"is_reserved":false,"is_disabled":false,"rental_uris":{"android":"levelo://app?vid=a6fe3be9-2ae1-42ce-9d62-911bb3dea5fa","ios":"levelo://app?vid=a6fe3be9-2ae1-42ce-9d62-911bb3dea5fa"},"vehicle_type_id":"4","last_reported":1715540760,"current_range_meters":25200,"station_id":"ce4bhb12rcd13ifvqem0","pricing_plan_id":"cebpf4jnsgd1na2vs0mg"},{"bike_id":"52667f05-bfba-4f32-bbdc-d278b1a735f9","system_id":"levelo_inurba_marseille","lat":43.312609,"lon":5.401662,"is_reserved":false,"is_disabled":false,"rental_uris":{"android":"levelo://app?vid=52667f05-bfba-4f32-bbdc-d278b1a735f9","ios":"levelo://app?vid=52667f05-bfba-4f32-bbdc-d278b1a735f9"},"vehicle_type_id":"4","last_reported":1715540760,"current_range_meters":28400,"station_id":"ce4bh092rcd13ifvqd30","pricing_plan_id":"cebpf4jnsgd1na2vs0mg"},{"bike_id":"cec67d2e-905a-4cbd-af4d-3631c4cf4948","system_id":"levelo_inurba_marseille","lat":43.30923,"lon":5.40141,"is_reserved":false,"is_disabled":false,"rental_uris":{"android":"levelo://app?vid=cec67d2e-905a-4cbd-af4d-3631c4cf4948","ios":"levelo://app?vid=cec67d2e-905a-4cbd-af4d-3631c4cf4948"},"vehicle_type_id":"4","last_reported":1715540760,"current_range_meters":0,"station_id":"ce4bgvp2rcd13ifvqct0","pricing_plan_id":"cebpf4jnsgd1na2vs0mg"},{"bike_id":"f7932a42-aa5c-439b-b535-65dd8ccd41cf","system_id":"levelo_inurba_marseille","lat":43.33751,"lon":5.37493,"is_reserved":false,"is_disabled":false,"rental_uris":{"android":"levelo://app?vid=f7932a42-aa5c-439b-b535-65dd8ccd41cf","ios":"levelo://app?vid=f7932a42-aa5c-439b-b535-65dd8ccd41cf"},"vehicle_type_id":"4","last_reported":1715540760,"current_range_meters":29600,"station_id":"","pricing_plan_id":"cebpf4jnsgd1na2vs0mg"},{"bike_id":"91d9714b-b35f-47ce-8f34-022bf351236f","system_id":"levelo_inurba_marseille","lat":43.33762,"lon":5.37436,"is_reserved":false,"is_disabled":false,"rental_uris":{"android":"levelo://app?vid=91d9714b-b35f-47ce-8f34-022bf351236f","ios":"levelo://app?vid=91d9714b-b35f-47ce-8f34-022bf351236f"},"vehicle_type_id":"4","last_reported":1715540760,"current_range_meters":20000,"station_id":"","pricing_plan_id":"cebpf4jnsgd1na2vs0mg"},{"bike_id":"8430f5ea-f42f-4faa-ac00-ab028bc86e37","system_id":"levelo_inurba_marseille","lat":43.30642,"lon":5.401031,"is_reserved":false,"is_disabled":false,"rental_uris":{"android":"levelo://app?vid=8430f5ea-f42f-4faa-ac00-ab028bc86e37","ios":"levelo://app?vid=8430f5ea-f42f-4faa-ac00-ab028bc86e37"},"vehicle_type_id":"4","last_reported":1715540760,"current_range_meters":13200,"station_id":"ce4bh112rcd13ifvqda0","pricing_plan_id":"cebpf4jnsgd1na2vs0mg"},{"bike_id":"a4cc72da-ba19-4e7f-b681-6578293aff10","system_id":"levelo_inurba_marseille","lat":43.306412,"lon":5.401035,"is_reserved":false,"is_disabled":false,"rental_uris":{"android":"levelo://app?vid=a4cc72da-ba19-4e7f-b681-6578293aff10","ios":"levelo://app?vid=a4cc72da-ba19-4e7f-b681-6578293aff10"},"vehicle_type_id":"4","last_reported":1715540760,"current_range_meters":15600,"station_id":"ce4bh112rcd13ifvqda0","pricing_plan_id":"cebpf4jnsgd1na2vs0mg"},{"bike_id":"f098a7ce-07e0-456c-abb0-25b2348525f0","system_id":"levelo_inurba_marseille","lat":43.301117,"lon":5.398795,"is_reserved":false,"is_disabled":false,"rental_uris":{"android":"levelo://app?vid=f098a7ce-07e0-456c-abb0-25b2348525f0","ios":"levelo://app?vid=f098a7ce-07e0-456c-abb0-25b2348525f0"},"vehicle_type_id":"4","last_reported":1715540760,"current_range_meters":14800,"station_id":"ce4bh0h2rcd13ifvqd40","pricing_plan_id":"cebpf4jnsgd1na2vs0mg"},{"bike_id":"a7ffc4ca-76c7-41fd-afb8-8da3e147e552","system_id":"levelo_inurba_marseille","lat":43.30138,"lon":5.39851,"is_reserved":false,"is_disabled":false,"rental_uris":{"android":"levelo://app?vid=a7ffc4ca-76c7-41fd-afb8-8da3e147e552","ios":"levelo://app?vid=a7ffc4ca-76c7-41fd-afb8-8da3e147e552"},"vehicle_type_id":"4","last_reported":1715540760,"current_range_meters":0,"station_id":"ce4bh0h2rcd13ifvqd40","pricing_plan_id":"cebpf4jnsgd1na2vs0mg"},{"bike_id":"c09d8909-52ff-4c98-b4b5-55d7c0cbe0dc","system_id":"levelo_inurba_marseille","lat":43.306412,"lon":5.401035,"is_reserved":false,"is_disabled":false,"rental_uris":{"android":"levelo://app?vid=c09d8909-52ff-4c98-b4b5-55d7c0cbe0dc","ios":"levelo://app?vid=c09d8909-52ff-4c98-b4b5-55d7c0cbe0dc"},"vehicle_type_id":"4","last_reported":1715540760,"current_range_meters":21600,"station_id":"ce4bh112rcd13ifvqda0","pricing_plan_id":"cebpf4jnsgd1na2vs0mg"},{"bike_id":"6bd41076-ccc6-4b33-a01e-5a51bd4aa0c9","system_id":"levelo_inurba_marseille","lat":43.301117,"lon":5.398795,"is_reserved":false,"is_disabled":false,"rental_uris":{"android":"levelo://app?vid=6bd41076-ccc6-4b33-a01e-5a51bd4aa0c9","ios":"levelo://app?vid=6bd41076-ccc6-4b33-a01e-5a51bd4aa0c9"},"vehicle_type_id":"4","last_reported":1715540760,"current_range_meters":24800,"station_id":"ce4bh0h2rcd13ifvqd40","pricing_plan_id":"cebpf4jnsgd1na2vs0mg"},{"bike_id":"f096d411-dd11-4dac-8389-f91a7ac9c0fe","system_id":"levelo_inurba_marseille","lat":43.301117,"lon":5.398795,"is_reserved":false,"is_disabled":false,"rental_uris":{"android":"levelo://app?vid=f096d411-dd11-4dac-8389-f91a7ac9c0fe","ios":"levelo://app?vid=f096d411-dd11-4dac-8389-f91a7ac9c0fe"},"vehicle_type_id":"4","last_reported":1715540760,"current_range_meters":18400,"station_id":"ce4bh0h2rcd13ifvqd40","pricing_plan_id":"cebpf4jnsgd1na2vs0mg"},{"bike_id":"5e8189e8-232d-4f03-9743-76fbbb6fa4d3","system_id":"levelo_inurba_marseille","lat":43.301117,"lon":5.398795,"is_reserved":false,"is_disabled":false,"rental_uris":{"android":"levelo://app?vid=5e8189e8-232d-4f03-9743-76fbbb6fa4d3","ios":"levelo://app?vid=5e8189e8-232d-4f03-9743-76fbbb6fa4d3"},"vehicle_type_id":"4","last_reported":1715540760,"current_range_meters":0,"station_id":"ce4bh0h2rcd13ifvqd40","pricing_plan_id":"cebpf4jnsgd1na2vs0mg"},{"bike_id":"2d5de5a4-5efc-4496-bebd-75a5818cf55d","system_id":"levelo_inurba_marseille","lat":43.289743,"lon":5.378304,"is_reserved":false,"is_disabled":false,"rental_uris":{"android":"levelo://app?vid=2d5de5a4-5efc-4496-bebd-75a5818cf55d","ios":"levelo://app?vid=2d5de5a4-5efc-4496-bebd-75a5818cf55d"},"vehicle_type_id":"4","last_reported":1715540760,"current_range_meters":27200,"station_id":"ce4bh9p2rcd13ifvqed0","pricing_plan_id":"cebpf4jnsgd1na2vs0mg"},{"bike_id":"06ca08e3-0f6d-4ebc-885e-e0c65a830003","system_id":"levelo_inurba_marseille","lat":43.301117,"lon":5.398795,"is_reserved":false,"is_disabled":false,"rental_uris":{"android":"levelo://app?vid=06ca08e3-0f6d-4ebc-885e-e0c65a830003","ios":"levelo://app?vid=06ca08e3-0f6d-4ebc-885e-e0c65a830003"},"vehicle_type_id":"4","last_reported":1715540760,"current_range_meters":12000,"station_id":"ce4bh0h2rcd13ifvqd40","pricing_plan_id":"cebpf4jnsgd1na2vs0mg"},{"bike_id":"6eb844eb-093a-455d-8d73-f8b809cf194d","system_id":"levelo_inurba_marseille","lat":43.301117,"lon":5.398795,"is_reserved":false,"is_disabled":false,"rental_uris":{"android":"levelo://app?vid=6eb844eb-093a-455d-8d73-f8b809cf194d","ios":"levelo://app?vid=6eb844eb-093a-455d-8d73-f8b809cf194d"},"vehicle_type_id":"4","last_reported":1715540760,"current_range_meters":17600,"station_id":"ce4bh0h2rcd13ifvqd40","pricing_plan_id":"cebpf4jnsgd1na2vs0mg"},{"bike_id":"a5cf9a9e-a94f-4f42-8b82-e5573e42d58b","system_id":"levelo_inurba_marseille","lat":43.301117,"lon":5.398795,"is_reserved":false,"is_disabled":false,"rental_uris":{"android":"levelo://app?vid=a5cf9a9e-a94f-4f42-8b82-e5573e42d58b","ios":"levelo://app?vid=a5cf9a9e-a94f-4f42-8b82-e5573e42d58b"},"vehicle_type_id":"4","last_reported":1715540760,"current_range_meters":6800,"station_id":"ce4bh0h2rcd13ifvqd40","pricing_plan_id":"cebpf4jnsgd1na2vs0mg"},{"bike_id":"91266183-f089-41f9-b680-9b6f42362c41","system_id":"levelo_inurba_marseille","lat":43.28714,"lon":5.360948,"is_reserved":false,"is_disabled":false,"rental_uris":{"android":"levelo://app?vid=91266183-f089-41f9-b680-9b6f42362c41","ios":"levelo://app?vid=91266183-f089-41f9-b680-9b6f42362c41"},"vehicle_type_id":"4","last_reported":1715540760,"current_range_meters":19600,"station_id":"","pricing_plan_id":"cebpf4jnsgd1na2vs0mg"},{"bike_id":"a01cb5e7-7613-4a43-86eb-8f97d41a0f3e","system_id":"levelo_inurba_marseille","lat":43.28727,"lon":5.36078,"is_reserved":false,"is_disabled":false,"rental_uris":{"android":"levelo://app?vid=a01cb5e7-7613-4a43-86eb-8f97d41a0f3e","ios":"levelo://app?vid=a01cb5e7-7613-4a43-86eb-8f97d41a0f3e"},"vehicle_type_id":"4","last_reported":1715540760,"current_range_meters":21200,"station_id":"cki0cbj6b192h4jlfktg","pricing_plan_id":"cebpf4jnsgd1na2vs0mg"},{"bike_id":"071a6c22-3667-4dd5-bcd6-7f4fca7aee76","system_id":"levelo_inurba_marseille","lat":43.28727,"lon":5.36078,"is_reserved":false,"is_disabled":false,"rental_uris":{"android":"levelo://app?vid=071a6c22-3667-4dd5-bcd6-7f4fca7aee76","ios":"levelo://app?vid=071a6c22-3667-4dd5-bcd6-7f4fca7aee76"},"vehicle_type_id":"4","last_reported":1715540760,"current_range_meters":3600,"station_id":"cki0cbj6b192h4jlfktg","pricing_plan_id":"cebpf4jnsgd1na2vs0mg"},{"bike_id":"2b0b64ee-f8b7-4b50-a070-32c743b930a2","system_id":"levelo_inurba_marseille","lat":43.286961,"lon":5.373785,"is_reserved":false,"is_disabled":false,"rental_uris":{"android":"levelo://app?vid=2b0b64ee-f8b7-4b50-a070-32c743b930a2","ios":"levelo://app?vid=2b0b64ee-f8b7-4b50-a070-32c743b930a2"},"vehicle_type_id":"4","last_reported":1715540760,"current_range_meters":6800,"station_id":"ce4bh3p2rcd13ifvqdq0","pricing_plan_id":"cebpf4jnsgd1na2vs0mg"},{"bike_id":"7dfd6f99-d433-4c9e-88d6-5e9f6965fd1b","system_id":"levelo_inurba_marseille","lat":43.29875,"lon":5.39734,"is_reserved":false,"is_disabled":false,"rental_uris":{"android":"levelo://app?vid=7dfd6f99-d433-4c9e-88d6-5e9f6965fd1b","ios":"levelo://app?vid=7dfd6f99-d433-4c9e-88d6-5e9f6965fd1b"},"vehicle_type_id":"4","last_reported":1715540760,"current_range_meters":1200,"station_id":"ce4bh0h2rcd13ifvqd50","pricing_plan_id":"cebpf4jnsgd1na2vs0mg"},{"bike_id":"ed251ff3-0fd4-4aea-b399-f80f5ba95139","system_id":"levelo_inurba_marseille","lat":43.29864,"lon":5.39737,"is_reserved":false,"is_disabled":false,"rental_uris":{"android":"levelo://app?vid=ed251ff3-0fd4-4aea-b399-f80f5ba95139","ios":"levelo://app?vid=ed251ff3-0fd4-4aea-b399-f80f5ba95139"},"vehicle_type_id":"4","last_reported":1715540760,"current_range_meters":18000,"station_id":"ce4bh0h2rcd13ifvqd50","pricing_plan_id":"cebpf4jnsgd1na2vs0mg"},{"bike_id":"56837cf8-268a-4c84-92a2-5c60c2c622f7","system_id":"levelo_inurba_marseille","lat":43.286593,"lon":5.363346,"is_reserved":false,"is_disabled":false,"rental_uris":{"android":"levelo://app?vid=56837cf8-268a-4c84-92a2-5c60c2c622f7","ios":"levelo://app?vid=56837cf8-268a-4c84-92a2-5c60c2c622f7"},"vehicle_type_id":"4","last_reported":1715540760,"current_range_meters":9200,"station_id":"ce4bhah2rcd13ifvqej0","pricing_plan_id":"cebpf4jnsgd1na2vs0mg"},{"bike_id":"9e68bcf8-7716-44c2-8206-336776e8c16c","system_id":"levelo_inurba_marseille","lat":43.286593,"lon":5.363346,"is_reserved":false,"is_disabled":false,"rental_uris":{"android":"levelo://app?vid=9e68bcf8-7716-44c2-8206-336776e8c16c","ios":"levelo://app?vid=9e68bcf8-7716-44c2-8206-336776e8c16c"},"vehicle_type_id":"4","last_reported":1715540760,"current_range_meters":8400,"station_id":"ce4bhah2rcd13ifvqej0","pricing_plan_id":"cebpf4jnsgd1na2vs0mg"},{"bike_id":"b300c2fc-429f-4de6-a30a-34a7187b692e","system_id":"levelo_inurba_marseille","lat":43.286591,"lon":5.363346,"is_reserved":false,"is_disabled":false,"rental_uris":{"android":"levelo://app?vid=b300c2fc-429f-4de6-a30a-34a7187b692e","ios":"levelo://app?vid=b300c2fc-429f-4de6-a30a-34a7187b692e"},"vehicle_type_id":"4","last_reported":1715540760,"current_range_meters":12000,"station_id":"ce4bhah2rcd13ifvqej0","pricing_plan_id":"cebpf4jnsgd1na2vs0mg"},{"bike_id":"ea9b3b68-4f7c-4efe-9ac7-70f637130e04","system_id":"levelo_inurba_marseille","lat":43.28659,"lon":5.36347,"is_reserved":false,"is_disabled":false,"rental_uris":{"android":"levelo://app?vid=ea9b3b68-4f7c-4efe-9ac7-70f637130e04","ios":"levelo://app?vid=ea9b3b68-4f7c-4efe-9ac7-70f637130e04"},"vehicle_type_id":"4","last_reported":1715540760,"current_range_meters":0,"station_id":"ce4bhah2rcd13ifvqej0","pricing_plan_id":"cebpf4jnsgd1na2vs0mg"},{"bike_id":"97ccab17-e1ae-44c6-a6da-25d9c9aadd51","system_id":"levelo_inurba_marseille","lat":43.286961,"lon":5.373785,"is_reserved":false,"is_disabled":false,"rental_uris":{"android":"levelo://app?vid=97ccab17-e1ae-44c6-a6da-25d9c9aadd51","ios":"levelo://app?vid=97ccab17-e1ae-44c6-a6da-25d9c9aadd51"},"vehicle_type_id":"4","last_reported":1715540760,"current_range_meters":15200,"station_id":"ce4bh3p2rcd13ifvqdq0","pricing_plan_id":"cebpf4jnsgd1na2vs0mg"},{"bike_id":"fee69ebd-02c4-4ec8-b0dd-4a290dad403e","system_id":"levelo_inurba_marseille","lat":43.29512,"lon":5.39398,"is_reserved":false,"is_disabled":false,"rental_uris":{"android":"levelo://app?vid=fee69ebd-02c4-4ec8-b0dd-4a290dad403e","ios":"levelo://app?vid=fee69ebd-02c4-4ec8-b0dd-4a290dad403e"},"vehicle_type_id":"4","last_reported":1715540760,"current_range_meters":0,"station_id":"ce4bh292rcd13ifvqdf0","pricing_plan_id":"cebpf4jnsgd1na2vs0mg"},{"bike_id":"6d7cd442-109b-4cd8-bcab-2e41dd3e1825","system_id":"levelo_inurba_marseille","lat":43.295196,"lon":5.39397,"is_reserved":false,"is_disabled":false,"rental_uris":{"android":"levelo://app?vid=6d7cd442-109b-4cd8-bcab-2e41dd3e1825","ios":"levelo://app?vid=6d7cd442-109b-4cd8-bcab-2e41dd3e1825"},"vehicle_type_id":"4","last_reported":1715540760,"current_range_meters":4400,"station_id":"ce4bh292rcd13ifvqdf0","pricing_plan_id":"cebpf4jnsgd1na2vs0mg"},{"bike_id":"329ff9f7-3a49-46ac-9982-1c736d4a2bec","system_id":"levelo_inurba_marseille","lat":43.295194,"lon":5.39397,"is_reserved":false,"is_disabled":false,"rental_uris":{"android":"levelo://app?vid=329ff9f7-3a49-46ac-9982-1c736d4a2bec","ios":"levelo://app?vid=329ff9f7-3a49-46ac-9982-1c736d4a2bec"},"vehicle_type_id":"4","last_reported":1715540760,"current_range_meters":0,"station_id":"ce4bh292rcd13ifvqdf0","pricing_plan_id":"cebpf4jnsgd1na2vs0mg"},{"bike_id":"c489addf-4d5a-4d71-bc70-677614fe2590","system_id":"levelo_inurba_marseille","lat":43.29508,"lon":5.39404,"is_reserved":false,"is_disabled":false,"rental_uris":{"android":"levelo://app?vid=c489addf-4d5a-4d71-bc70-677614fe2590","ios":"levelo://app?vid=c489addf-4d5a-4d71-bc70-677614fe2590"},"vehicle_type_id":"4","last_reported":1715540760,"current_range_meters":0,"station_id":"ce4bh292rcd13ifvqdf0","pricing_plan_id":"cebpf4jnsgd1na2vs0mg"},{"bike_id":"37183a7c-562d-4e08-a10d-ac6d7b352245","system_id":"levelo_inurba_marseille","lat":43.289307,"lon":5.38406,"is_reserved":false,"is_disabled":false,"rental_uris":{"android":"levelo://app?vid=37183a7c-562d-4e08-a10d-ac6d7b352245","ios":"levelo://app?vid=37183a7c-562d-4e08-a10d-ac6d7b352245"},"vehicle_type_id":"4","last_reported":1715540760,"current_range_meters":25600,"station_id":"ce4bh612rcd13ifvqe6g","pricing_plan_id":"cebpf4jnsgd1na2vs0mg"},{"bike_id":"68066396-062f-483a-b6c3-832a9e92dff6","system_id":"levelo_inurba_marseille","lat":43.2881,"lon":5.353425,"is_reserved":false,"is_disabled":false,"rental_uris":{"android":"levelo://app?vid=68066396-062f-483a-b6c3-832a9e92dff6","ios":"levelo://app?vid=68066396-062f-483a-b6c3-832a9e92dff6"},"vehicle_type_id":"4","last_reported":1715540760,"current_range_meters":14000,"station_id":"ce4bhch2rcd13ifvqeug","pricing_plan_id":"cebpf4jnsgd1na2vs0mg"},{"bike_id":"2b9940b9-effa-4397-9579-62f5e7233d48","system_id":"levelo_inurba_marseille","lat":43.30242,"lon":5.40051,"is_reserved":false,"is_disabled":false,"rental_uris":{"android":"levelo://app?vid=2b9940b9-effa-4397-9579-62f5e7233d48","ios":"levelo://app?vid=2b9940b9-effa-4397-9579-62f5e7233d48"},"vehicle_type_id":"4","last_reported":1715540760,"current_range_meters":0,"station_id":"ce4bgvh2rcd13ifvqcs0","pricing_plan_id":"cebpf4jnsgd1na2vs0mg"},{"bike_id":"6d0059ee-c5e0-4243-99db-fc578b4f0eaa","system_id":"levelo_inurba_marseille","lat":43.30247,"lon":5.40061,"is_reserved":false,"is_disabled":false,"rental_uris":{"android":"levelo://app?vid=6d0059ee-c5e0-4243-99db-fc578b4f0eaa","ios":"levelo://app?vid=6d0059ee-c5e0-4243-99db-fc578b4f0eaa"},"vehicle_type_id":"4","last_reported":1715540760,"current_range_meters":2800,"station_id":"ce4bgvh2rcd13ifvqcs0","pricing_plan_id":"cebpf4jnsgd1na2vs0mg"},{"bike_id":"3e6ca19a-eff4-4e16-b1b1-c4aefec6e7f9","system_id":"levelo_inurba_marseille","lat":43.302759,"lon":5.400793,"is_reserved":false,"is_disabled":false,"rental_uris":{"android":"levelo://app?vid=3e6ca19a-eff4-4e16-b1b1-c4aefec6e7f9","ios":"levelo://app?vid=3e6ca19a-eff4-4e16-b1b1-c4aefec6e7f9"},"vehicle_type_id":"4","last_reported":1715540760,"current_range_meters":4000,"station_id":"ce4bgvh2rcd13ifvqcs0","pricing_plan_id":"cebpf4jnsgd1na2vs0mg"},{"bike_id":"62ed2dc4-0014-4dcd-8762-3043a7bb64e3","system_id":"levelo_inurba_marseille","lat":43.302759,"lon":5.400793,"is_reserved":false,"is_disabled":false,"rental_uris":{"android":"levelo://app?vid=62ed2dc4-0014-4dcd-8762-3043a7bb64e3","ios":"levelo://app?vid=62ed2dc4-0014-4dcd-8762-3043a7bb64e3"},"vehicle_type_id":"4","last_reported":1715540760,"current_range_meters":13200,"station_id":"ce4bgvh2rcd13ifvqcs0","pricing_plan_id":"cebpf4jnsgd1na2vs0mg"},{"bike_id":"74ef5bbf-0821-43b2-bcff-82b586f306d7","system_id":"levelo_inurba_marseille","lat":43.290336,"lon":5.386425,"is_reserved":false,"is_disabled":false,"rental_uris":{"android":"levelo://app?vid=74ef5bbf-0821-43b2-bcff-82b586f306d7","ios":"levelo://app?vid=74ef5bbf-0821-43b2-bcff-82b586f306d7"},"vehicle_type_id":"4","last_reported":1715540760,"current_range_meters":25600,"station_id":"ce4bh4p2rcd13ifvqe0g","pricing_plan_id":"cebpf4jnsgd1na2vs0mg"},{"bike_id":"1bbf41eb-8ffa-4ed0-b4b9-3593772217a5","system_id":"levelo_inurba_marseille","lat":43.290345,"lon":5.38646,"is_reserved":false,"is_disabled":false,"rental_uris":{"android":"levelo://app?vid=1bbf41eb-8ffa-4ed0-b4b9-3593772217a5","ios":"levelo://app?vid=1bbf41eb-8ffa-4ed0-b4b9-3593772217a5"},"vehicle_type_id":"4","last_reported":1715540760,"current_range_meters":4800,"station_id":"ce4bh4p2rcd13ifvqe0g","pricing_plan_id":"cebpf4jnsgd1na2vs0mg"},{"bike_id":"2dda0849-e86e-40e8-84a3-34860a168adc","system_id":"levelo_inurba_marseille","lat":43.28922,"lon":5.38405,"is_reserved":false,"is_disabled":false,"rental_uris":{"android":"levelo://app?vid=2dda0849-e86e-40e8-84a3-34860a168adc","ios":"levelo://app?vid=2dda0849-e86e-40e8-84a3-34860a168adc"},"vehicle_type_id":"4","last_reported":1715540760,"current_range_meters":0,"station_id":"ce4bh612rcd13ifvqe6g","pricing_plan_id":"cebpf4jnsgd1na2vs0mg"},{"bike_id":"7a827624-547f-4d4f-ac81-c0eeedbb8ce9","system_id":"levelo_inurba_marseille","lat":43.290336,"lon":5.386425,"is_reserved":false,"is_disabled":false,"rental_uris":{"android":"levelo://app?vid=7a827624-547f-4d4f-ac81-c0eeedbb8ce9","ios":"levelo://app?vid=7a827624-547f-4d4f-ac81-c0eeedbb8ce9"},"vehicle_type_id":"4","last_reported":1715540760,"current_range_meters":8400,"station_id":"ce4bh4p2rcd13ifvqe0g","pricing_plan_id":"cebpf4jnsgd1na2vs0mg"},{"bike_id":"3a30a4e0-38b3-4833-9863-b1e8c58876d1","system_id":"levelo_inurba_marseille","lat":43.290336,"lon":5.386425,"is_reserved":false,"is_disabled":false,"rental_uris":{"android":"levelo://app?vid=3a30a4e0-38b3-4833-9863-b1e8c58876d1","ios":"levelo://app?vid=3a30a4e0-38b3-4833-9863-b1e8c58876d1"},"vehicle_type_id":"4","last_reported":1715540760,"current_range_meters":9200,"station_id":"ce4bh4p2rcd13ifvqe0g","pricing_plan_id":"cebpf4jnsgd1na2vs0mg"},{"bike_id":"a5b6029e-f61d-4fb1-9839-4840d73b6381","system_id":"levelo_inurba_marseille","lat":43.30247,"lon":5.40072,"is_reserved":false,"is_disabled":false,"rental_uris":{"android":"levelo://app?vid=a5b6029e-f61d-4fb1-9839-4840d73b6381","ios":"levelo://app?vid=a5b6029e-f61d-4fb1-9839-4840d73b6381"},"vehicle_type_id":"4","last_reported":1715540760,"current_range_meters":2800,"station_id":"ce4bgvh2rcd13ifvqcs0","pricing_plan_id":"cebpf4jnsgd1na2vs0mg"},{"bike_id":"c2aafcb2-86be-4093-96a6-003f61357550","system_id":"levelo_inurba_marseille","lat":43.289133,"lon":5.38409,"is_reserved":false,"is_disabled":false,"rental_uris":{"android":"levelo://app?vid=c2aafcb2-86be-4093-96a6-003f61357550","ios":"levelo://app?vid=c2aafcb2-86be-4093-96a6-003f61357550"},"vehicle_type_id":"4","last_reported":1715540760,"current_range_meters":0,"station_id":"ce4bh612rcd13ifvqe6g","pricing_plan_id":"cebpf4jnsgd1na2vs0mg"},{"bike_id":"6b9e2d6c-c6b6-4d3f-a3e9-f22b33a15bd2","system_id":"levelo_inurba_marseille","lat":43.286039,"lon":5.370679,"is_reserved":false,"is_disabled":false,"rental_uris":{"android":"levelo://app?vid=6b9e2d6c-c6b6-4d3f-a3e9-f22b33a15bd2","ios":"levelo://app?vid=6b9e2d6c-c6b6-4d3f-a3e9-f22b33a15bd2"},"vehicle_type_id":"4","last_reported":1715540760,"current_range_meters":24800,"station_id":"ce4bht12rcd13ifvqi60","pricing_plan_id":"cebpf4jnsgd1na2vs0mg"},