{"last_updated":1744744084,"ttl":60,"version":"2.2","data":{"bikes":[{"bike_id":"a29ba533-0d15-4d4b-8079-8197fd091ea4","system_id":"levelo_inurba_marseille","lat":43.29365,"lon":5.37842,"is_reserved":false,"is_disabled":false,"rental_uris":{"android":"levelo://app?vid=a29ba533-0d15-4d4b-8079-8197fd091ea4","ios":"levelo://app?vid=a29ba533-0d15-4d4b-8079-8197fd091ea4"},"vehicle_type_id":"4","last_reported":1744744084,"current_range_meters":2800,"station_id":"ce4bgjh2rcd13ifvqbf0","pricing_plan_id":"cebpf4jnsgd1na2vs0mg"},{"bike_id":"8d0e3a0b-6d2d-4a52-8635-fac22553c618","system_id":"levelo_inurba_marseille","lat":43.33273,"lon":5.37845,"is_reserved":false,"is_disabled":false,"rental_uris":{"android":"levelo://app?vid=8d0e3a0b-6d2d-4a52-8635-fac22553c618","ios":"levelo://app?vid=8d0e3a0b-6d2d-4a52-8635-fac22553c618"},"vehicle_type_id":"4","last_reported":1744744084,"current_range_meters":2800,"station_id":"","pricing_plan_id":"cebpf4jnsgd1na2vs0mg"},{"bike_id":"3289406c-014c-4667-95e8-ffc11b8f5cda","system_id":"levelo_inurba_marseille","lat":43.29527,"lon":5.38543,"is_reserved":false,"is_disabled":false,"rental_uris":{"android":"levelo://app?vid=3289406c-014c-4667-95e8-ffc11b8f5cda","ios":"levelo://app?vid=3289406c-014c-4667-95e8-ffc11b8f5cda"},"vehicle_type_id":"4","last_reported":1744744084,"current_range_meters":2800,"station_id":"ce4bgih2rcd13ifvqba0","pricing_plan_id":"cebpf4jnsgd1na2vs0mg"},{"bike_id":"7307aff8-4a2d-4a44-b38b-e4382512adcb","system_id":"levelo_inurba_marseille","lat":43.28402,"lon":5.37551,"is_reserved":false,"is_disabled":false,"rental_uris":{"android":"levelo://app?vid=7307aff8-4a2d-4a44-b38b-e4382512adcb","ios":"levelo://app?vid=7307aff8-4a2d-4a44-b38b-e4382512adcb"},"vehicle_type_id":"4","last_reported":1744744084,"current_range_meters":2800,"station_id":"ce4bh412rcd13ifvqds0","pricing_plan_id":"cebpf4jnsgd1na2vs0mg"},{"bike_id":"abcab93e-aec2-4587-befa-fd6c575eb7d3","system_id":"levelo_inurba_marseille","lat":43.29783,"lon":5.39339,"is_reserved":false,"is_disabled":false,"rental_uris":{"android":"levelo://app?vid=abcab93e-aec2-4587-befa-fd6c575eb7d3","ios":"levelo://app?vid=abcab93e-aec2-4587-befa-fd6c575eb7d3"},"vehicle_type_id":"4","last_reported":1744744084,"current_range_meters":2800,"station_id":"chh1huq6cuj3fo74tm60","pricing_plan_id":"cebpf4jnsgd1na2vs0mg"},{"bike_id":"529a1c70-dcdc-420a-8199-d3437f56c524","system_id":"levelo_inurba_marseille","lat":43.29309,"lon":5.37175,"is_reserved":false,"is_disabled":false,"rental_uris":{"android":"levelo://app?vid=529a1c70-dcdc-420a-8199-d3437f56c524","ios":"levelo://app?vid=529a1c70-dcdc-420a-8199-d3437f56c524"},"vehicle_type_id":"4","last_reported":1744744084,"current_range_meters":2800,"station_id":"ce4bgh92rcd13ifvqb40","pricing_plan_id":"cebpf4jnsgd1na2vs0mg"},{"bike_id":"1c4e1731-9e75-4639-afec-6afd31db6cdf","system_id":"levelo_inurba_marseille","lat":43.30528,"lon":5.38444,"is_reserved":false,"is_disabled":false,"rental_uris":{"android":"levelo://app?vid=1c4e1731-9e75-4639-afec-6afd31db6cdf","ios":"levelo://app?vid=1c4e1731-9e75-4639-afec-6afd31db6cdf"},"vehicle_type_id":"4","last_reported":1744744084,"current_range_meters":3200,"station_id":"ce4bgg92rcd13ifvqb30","pricing_plan_id":"cebpf4jnsgd1na2vs0mg"},{"bike_id":"a548bab6-7dfb-457a-9a75-63b9e34d65d0","system_id":"levelo_inurba_marseille","lat":43.23179,"lon":5.39992,"is_reserved":false,"is_disabled":false,"rental_uris":{"android":"levelo://app?vid=a548bab6-7dfb-457a-9a75-63b9e34d65d0","ios":"levelo://app?vid=a548bab6-7dfb-457a-9a75-63b9e34d65d0"},"vehicle_type_id":"4","last_reported":1744744084,"current_range_meters":3200,"station_id":"ce4bhn12rcd13ifvqgqg","pricing_plan_id":"cebpf4jnsgd1na2vs0mg"},{"bike_id":"03bbc2d7-65a9-43e4-9bd0-111183a97135","system_id":"levelo_inurba_marseille","lat":43.299591,"lon":5.384742,"is_reserved":false,"is_disabled":false,"rental_uris":{"android":"levelo://app?vid=03bbc2d7-65a9-43e4-9bd0-111183a97135","ios":"levelo://app?vid=03bbc2d7-65a9-43e4-9bd0-111183a97135"},"vehicle_type_id":"4","last_reported":1744744084,"current_range_meters":3600,"station_id":"ce4bh292rcd13ifvqdg0","pricing_plan_id":"cebpf4jnsgd1na2vs0mg"},{"bike_id":"dfc6b954-67ae-460e-a08e-ac9ca47bd9a6","system_id":"levelo_inurba_marseille","lat":43.29008,"lon":5.35614,"is_reserved":false,"is_disabled":false,"rental_uris":{"android":"levelo://app?vid=dfc6b954-67ae-460e-a08e-ac9ca47bd9a6","ios":"levelo://app?vid=dfc6b954-67ae-460e-a08e-ac9ca47bd9a6"},"vehicle_type_id":"4","last_reported":1744744084,"current_range_meters":3600,"station_id":"ce4bhb92rcd13ifvqen0","pricing_plan_id":"cebpf4jnsgd1na2vs0mg"},{"bike_id":"f68404c5-0795-4888-ad42-95154d8515b2","system_id":"levelo_inurba_marseille","lat":43.28607,"lon":5.35152,"is_reserved":false,"is_disabled":false,"rental_uris":{"android":"levelo://app?vid=f68404c5-0795-4888-ad42-95154d8515b2","ios":"levelo://app?vid=f68404c5-0795-4888-ad42-95154d8515b2"},"vehicle_type_id":"4","last_reported":1744744084,"current_range_meters":3600,"station_id":"ce4bhch2rcd13ifvqeug","pricing_plan_id":"cebpf4jnsgd1na2vs0mg"},{"bike_id":"16e0cf51-3c37-4141-a7f6-69589eba4745","system_id":"levelo_inurba_marseille","lat":43.275667,"lon":5.384292,"is_reserved":false,"is_disabled":false,"rental_uris":{"android":"levelo://app?vid=16e0cf51-3c37-4141-a7f6-69589eba4745","ios":"levelo://app?vid=16e0cf51-3c37-4141-a7f6-69589eba4745"},"vehicle_type_id":"4","last_reported":1744744084,"current_range_meters":3600,"station_id":"ce4bhh92rcd13ifvqfi0","pricing_plan_id":"cebpf4jnsgd1na2vs0mg"},{"bike_id":"cbdc864f-57ee-4d75-a97e-7a0b80ba494b","system_id":"levelo_inurba_marseille","lat":43.31078,"lon":5.38347,"is_reserved":false,"is_disabled":false,"rental_uris":{"android":"levelo://app?vid=cbdc864f-57ee-4d75-a97e-7a0b80ba494b","ios":"levelo://app?vid=cbdc864f-57ee-4d75-a97e-7a0b80ba494b"},"vehicle_type_id":"4","last_reported":1744744084,"current_range_meters":3600,"station_id":"ce4bgv92rcd13ifvqcr0","pricing_plan_id":"cebpf4jnsgd1na2vs0mg"},{"bike_id":"096c0b15-6b3c-4077-a21e-f7f3bab2cd04","system_id":"levelo_inurba_marseille","lat":43.31167,"lon":5.38722,"is_reserved":false,"is_disabled":false,"rental_uris":{"android":"levelo://app?vid=096c0b15-6b3c-4077-a21e-f7f3bab2cd04","ios":"levelo://app?vid=096c0b15-6b3c-4077-a21e-f7f3bab2cd04"},"vehicle_type_id":"4","last_reported":1744744084,"current_range_meters":3600,"station_id":"ce4bgv12rcd13ifvqcp0","pricing_plan_id":"cebpf4jnsgd1na2vs0mg"},{"bike_id":"514d7c94-b2f4-49dc-9224-8283be863d7b","system_id":"levelo_inurba_marseille","lat":43.29898,"lon":5.43662,"is_reserved":false,"is_disabled":false,"rental_uris":{"android":"levelo://app?vid=514d7c94-b2f4-49dc-9224-8283be863d7b","ios":"levelo://app?vid=514d7c94-b2f4-49dc-9224-8283be863d7b"},"vehicle_type_id":"4","last_reported":1744744084,"current_range_meters":4000,"station_id":"ce4bhpp2rcd13ifvqhfg","pricing_plan_id":"cebpf4jnsgd1na2vs0mg"},{"bike_id":"207b15a7-69f1-4c4a-a29d-f91df1564475","system_id":"levelo_inurba_marseille","lat":43.2406,"lon":5.37711,"is_reserved":false,"is_disabled":false,"rental_uris":{"android":"levelo://app?vid=207b15a7-69f1-4c4a-a29d-f91df1564475","ios":"levelo://app?vid=207b15a7-69f1-4c4a-a29d-f91df1564475"},"vehicle_type_id":"4","last_reported":1744744084,"current_range_meters":4000,"station_id":"ce4bhnp2rcd13ifvqgvg","pricing_plan_id":"cebpf4jnsgd1na2vs0mg"},{"bike_id":"760b1346-517a-429e-93de-2c9e451fdc61","system_id":"levelo_inurba_marseille","lat":43.30604,"lon":5.37237,"is_reserved":false,"is_disabled":false,"rental_uris":{"android":"levelo://app?vid=760b1346-517a-429e-93de-2c9e451fdc61","ios":"levelo://app?vid=760b1346-517a-429e-93de-2c9e451fdc61"},"vehicle_type_id":"4","last_reported":1744744084,"current_range_meters":4400,"station_id":"ce4bgqh2rcd13ifvqc4g","pricing_plan_id":"cebpf4jnsgd1na2vs0mg"},{"bike_id":"66d9901e-dd09-493e-abc0-647b0a2cb05d","system_id":"levelo_inurba_marseille","lat":43.21769,"lon":5.34601,"is_reserved":false,"is_disabled":false,"rental_uris":{"android":"levelo://app?vid=66d9901e-dd09-493e-abc0-647b0a2cb05d","ios":"levelo://app?vid=66d9901e-dd09-493e-abc0-647b0a2cb05d"},"vehicle_type_id":"4","last_reported":1744744084,"current_range_meters":4400,"station_id":"st_cvj6r9ubvosntc0bgbag","pricing_plan_id":"cebpf4jnsgd1na2vs0mg"},{"bike_id":"a13f0598-68a4-435a-98e0-8f94eb0d36ca","system_id":"levelo_inurba_marseille","lat":43.30329,"lon":5.40425,"is_reserved":false,"is_disabled":false,"rental_uris":{"android":"levelo://app?vid=a13f0598-68a4-435a-98e0-8f94eb0d36ca","ios":"levelo://app?vid=a13f0598-68a4-435a-98e0-8f94eb0d36ca"},"vehicle_type_id":"4","last_reported":1744744084,"current_range_meters":4800,"station_id":"ce4bh012rcd13ifvqd10","pricing_plan_id":"cebpf4jnsgd1na2vs0mg"},{"bike_id":"bb3fa259-4909-465e-99f8-7d363c8fd144","system_id":"levelo_inurba_marseille","lat":43.30642,"lon":5.40102,"is_reserved":false,"is_disabled":false,"rental_uris":{"android":"levelo://app?vid=bb3fa259-4909-465e-99f8-7d363c8fd144","ios":"levelo://app?vid=bb3fa259-4909-465e-99f8-7d363c8fd144"},"vehicle_type_id":"4","last_reported":1744744084,"current_range_meters":5600,"station_id":"ce4bh112rcd13ifvqda0","pricing_plan_id":"cebpf4jnsgd1na2vs0mg"},{"bike_id":"b513ab54-0755-42a7-96e9-9704536d9b66","system_id":"levelo_inurba_marseille","lat":43.25502,"lon":5.3765,"is_reserved":false,"is_disabled":false,"rental_uris":{"android":"levelo://app?vid=b513ab54-0755-42a7-96e9-9704536d9b66","ios":"levelo://app?vid=b513ab54-0755-42a7-96e9-9704536d9b66"},"vehicle_type_id":"4","last_reported":1744744084,"current_range_meters":5600,"station_id":"ce4bhh12rcd13ifvqff0","pricing_plan_id":"cebpf4jnsgd1na2vs0mg"},{"bike_id":"40cf2d4a-ffea-47fa-8706-141e6e9fdc36","system_id":"levelo_inurba_marseille","lat":43.288254,"lon":5.392574,"is_reserved":false,"is_disabled":false,"rental_uris":{"android":"levelo://app?vid=40cf2d4a-ffea-47fa-8706-141e6e9fdc36","ios":"levelo://app?vid=40cf2d4a-ffea-47fa-8706-141e6e9fdc36"},"vehicle_type_id":"4","last_reported":1744744084,"current_range_meters":5600,"station_id":"ce4bh0h2rcd13ifvqd40","pricing_plan_id":"cebpf4jnsgd1na2vs0mg"},{"bike_id":"5436b789-4409-4b3f-921a-1f84ea402a51","system_id":"levelo_inurba_marseille","lat":43.29553,"lon":5.42298,"is_reserved":false,"is_disabled":false,"rental_uris":{"android":"levelo://app?vid=5436b789-4409-4b3f-921a-1f84ea402a51","ios":"levelo://app?vid=5436b789-4409-4b3f-921a-1f84ea402a51"},"vehicle_type_id":"4","last_reported":1744744084,"current_range_meters":5600,"station_id":"ce4bhph2rcd13ifvqhdg","pricing_plan_id":"cebpf4jnsgd1na2vs0mg"},{"bike_id":"255ef828-9d25-466e-b3f3-aaeedcb04d05","system_id":"levelo_inurba_marseille","lat":43.28853,"lon":5.39304,"is_reserved":false,"is_disabled":false,"rental_uris":{"android":"levelo://app?vid=255ef828-9d25-466e-b3f3-aaeedcb04d05","ios":"levelo://app?vid=255ef828-9d25-466e-b3f3-aaeedcb04d05"},"vehicle_type_id":"4","last_reported":1744744084,"current_range_meters":5600,"station_id":"ce4bh2p2rcd13ifvqdi0","pricing_plan_id":"cebpf4jnsgd1na2vs0mg"},{"bike_id":"aadbb456-3ced-4608-8b71-1c88155ca242","system_id":"levelo_inurba_marseille","lat":43.28007,"lon":5.40009,"is_reserved":false,"is_disabled":false,"rental_uris":{"android":"levelo://app?vid=aadbb456-3ced-4608-8b71-1c88155ca242","ios":"levelo://app?vid=aadbb456-3ced-4608-8b71-1c88155ca242"},"vehicle_type_id":"4","last_reported":1744744084,"current_range_meters":5600,"station_id":"ce4bho92rcd13ifvqh4g","pricing_plan_id":"cebpf4jnsgd1na2vs0mg"},{"bike_id":"1064b9a7-5947-42b0-b3ab-02b74ee64902","system_id":"levelo_inurba_marseille","lat":43.250082,"lon":5.389117,"is_reserved":false,"is_disabled":true,"rental_uris":{"android":"levelo://app?vid=1064b9a7-5947-42b0-b3ab-02b74ee64902","ios":"levelo://app?vid=1064b9a7-5947-42b0-b3ab-02b74ee64902"},"vehicle_type_id":"4","last_reported":1744744084,"current_range_meters":5600,"station_id":"ce4bhgp2rcd13ifvqfd0","pricing_plan_id":"cebpf4jnsgd1na2vs0mg"},{"bike_id":"a29d30e8-4722-4492-9554-138a060c22f6","system_id":"levelo_inurba_marseille","lat":43.29972,"lon":5.38486,"is_reserved":false,"is_disabled":false,"rental_uris":{"android":"levelo://app?vid=a29d30e8-4722-4492-9554-138a060c22f6","ios":"levelo://app?vid=a29d30e8-4722-4492-9554-138a060c22f6"},"vehicle_type_id":"4","last_reported":1744744084,"current_range_meters":5600,"station_id":"ce4bgj92rcd13ifvqbd0","pricing_plan_id":"cebpf4jnsgd1na2vs0mg"},{"bike_id":"6e813554-554a-49dd-9009-02d95efd3de7","system_id":"levelo_inurba_marseille","lat":43.32427,"lon":5.3911,"is_reserved":false,"is_disabled":false,"rental_uris":{"android":"levelo://app?vid=6e813554-554a-49dd-9009-02d95efd3de7","ios":"levelo://app?vid=6e813554-554a-49dd-9009-02d95efd3de7"},"vehicle_type_id":"4","last_reported":1744744084,"current_range_meters":6400,"station_id":"","pricing_plan_id":"cebpf4jnsgd1na2vs0mg"},{"bike_id":"199910c8-c965-4472-894a-547fa8667c6b","system_id":"levelo_inurba_marseille","lat":43.28462,"lon":5.35893,"is_reserved":false,"is_disabled":false,"rental_uris":{"android":"levelo://app?vid=199910c8-c965-4472-894a-547fa8667c6b","ios":"levelo://app?vid=199910c8-c965-4472-894a-547fa8667c6b"},"vehicle_type_id":"4","last_reported":1744744084,"current_range_meters":6400,"station_id":"ce4bhah2rcd13ifvqei0","pricing_plan_id":"cebpf4jnsgd1na2vs0mg"},{"bike_id":"5e4f8eca-ff98-43e8-ab8b-a43a91978089","system_id":"levelo_inurba_marseille","lat":43.32536,"lon":5.41428,"is_reserved":false,"is_disabled":false,"rental_uris":{"android":"levelo://app?vid=5e4f8eca-ff98-43e8-ab8b-a43a91978089","ios":"levelo://app?vid=5e4f8eca-ff98-43e8-ab8b-a43a91978089"},"vehicle_type_id":"4","last_reported":1744744084,"current_range_meters":6800,"station_id":"ce4bhq12rcd13ifvqhhg","pricing_plan_id":"cebpf4jnsgd1na2vs0mg"},{"bike_id":"e458d5a4-35ee-45f4-8308-6cd4ef90f061","system_id":"levelo_inurba_marseille","lat":43.306428,"lon":5.400944,"is_reserved":false,"is_disabled":false,"rental_uris":{"android":"levelo://app?vid=e458d5a4-35ee-45f4-8308-6cd4ef90f061","ios":"levelo://app?vid=e458d5a4-35ee-45f4-8308-6cd4ef90f061"},"vehicle_type_id":"4","last_reported":1744744084,"current_range_meters":6800,"station_id":"ce4bh112rcd13ifvqda0","pricing_plan_id":"cebpf4jnsgd1na2vs0mg"},{"bike_id":"d763ea3c-7f80-42bb-ac05-964729d9efef","system_id":"levelo_inurba_marseille","lat":43.30796,"lon":5.38171,"is_reserved":false,"is_disabled":false,"rental_uris":{"android":"levelo://app?vid=d763ea3c-7f80-42bb-ac05-964729d9efef","ios":"levelo://app?vid=d763ea3c-7f80-42bb-ac05-964729d9efef"},"vehicle_type_id":"4","last_reported":1744744084,"current_range_meters":6800,"station_id":"ce4bgt12rcd13ifvqce0","pricing_plan_id":"cebpf4jnsgd1na2vs0mg"},{"bike_id":"8fb9e7bc-8a04-4f5d-9440-892df4b1b295","system_id":"levelo_inurba_marseille","lat":43.309546,"lon":5.390222,"is_reserved":false,"is_disabled":true,"rental_uris":{"android":"levelo://app?vid=8fb9e7bc-8a04-4f5d-9440-892df4b1b295","ios":"levelo://app?vid=8fb9e7bc-8a04-4f5d-9440-892df4b1b295"},"vehicle_type_id":"4","last_reported":1744744084,"current_range_meters":6800,"station_id":"ce4bgup2rcd13ifvqco0","pricing_plan_id":"cebpf4jnsgd1na2vs0mg"},{"bike_id":"cbc427fb-38a2-4977-bce5-5c0b23cf8f99","system_id":"levelo_inurba_marseille","lat":43.28285,"lon":5.35097,"is_reserved":false,"is_disabled":false,"rental_uris":{"android":"levelo://app?vid=cbc427fb-38a2-4977-bce5-5c0b23cf8f99","ios":"levelo://app?vid=cbc427fb-38a2-4977-bce5-5c0b23cf8f99"},"vehicle_type_id":"4","last_reported":1744744084,"current_range_meters":6800,"station_id":"ce4bhbp2rcd13ifvqerg","pricing_plan_id":"cebpf4jnsgd1na2vs0mg"},{"bike_id":"0e262e1d-d85f-4b85-9573-166962666f8f","system_id":"levelo_inurba_marseille","lat":43.27082,"lon":5.42272,"is_reserved":false,"is_disabled":false,"rental_uris":{"android":"levelo://app?vid=0e262e1d-d85f-4b85-9573-166962666f8f","ios":"levelo://app?vid=0e262e1d-d85f-4b85-9573-166962666f8f"},"vehicle_type_id":"4","last_reported":1744744084,"current_range_meters":6800,"station_id":"ce4bhk92rcd13ifvqgb0","pricing_plan_id":"cebpf4jnsgd1na2vs0mg"},{"bike_id":"45c77ecd-980e-4383-ab9a-31be7a98a675","system_id":"levelo_inurba_marseille","lat":43.24061,"lon":5.37722,"is_reserved":false,"is_disabled":false,"rental_uris":{"android":"levelo://app?vid=45c77ecd-980e-4383-ab9a-31be7a98a675","ios":"levelo://app?vid=45c77ecd-980e-4383-ab9a-31be7a98a675"},"vehicle_type_id":"4","last_reported":1744744084,"current_range_meters":6800,"station_id":"ce4bhnp2rcd13ifvqgvg","pricing_plan_id":"cebpf4jnsgd1na2vs0mg"},{"bike_id":"d64aa8f0-0884-41cf-84e6-ae25f8a6ae2a","system_id":"levelo_inurba_marseille","lat":43.28552,"lon":5.3776,"is_reserved":false,"is_disabled":false,"rental_uris":{"android":"levelo://app?vid=d64aa8f0-0884-41cf-84e6-ae25f8a6ae2a","ios":"levelo://app?vid=d64aa8f0-0884-41cf-84e6-ae25f8a6ae2a"},"vehicle_type_id":"4","last_reported":1744744084,"current_range_meters":6800,"station_id":"","pricing_plan_id":"cebpf4jnsgd1na2vs0mg"},{"bike_id":"a80e51e8-b9b7-4ef2-ae4a-c07765b39d73","system_id":"levelo_inurba_marseille","lat":43.28452,"lon":5.35881,"is_reserved":false,"is_disabled":false,"rental_uris":{"android":"levelo://app?vid=a80e51e8-b9b7-4ef2-ae4a-c07765b39d73","ios":"levelo://app?vid=a80e51e8-b9b7-4ef2-ae4a-c07765b39d73"},"vehicle_type_id":"4","last_reported":1744744084,"current_range_meters":7200,"station_id":"ce4bhah2rcd13ifvqei0","pricing_plan_id":"cebpf4jnsgd1na2vs0mg"},{"bike_id":"e0cfe12a-a544-49a5-9087-f95e5c44e445","system_id":"levelo_inurba_marseille","lat":43.30537,"lon":5.36553,"is_reserved":false,"is_disabled":false,"rental_uris":{"android":"levelo://app?vid=e0cfe12a-a544-49a5-9087-f95e5c44e445","ios":"levelo://app?vid=e0cfe12a-a544-49a5-9087-f95e5c44e445"},"vehicle_type_id":"4","last_reported":1744744084,"current_range_meters":7200,"station_id":"ce4bgs12rcd13ifvqcag","pricing_plan_id":"cebpf4jnsgd1na2vs0mg"},{"bike_id":"7a2e094b-19fc-4112-8f78-d6e65b66137c","system_id":"levelo_inurba_marseille","lat":43.30315,"lon":5.40449,"is_reserved":false,"is_disabled":false,"rental_uris":{"android":"levelo://app?vid=7a2e094b-19fc-4112-8f78-d6e65b66137c","ios":"levelo://app?vid=7a2e094b-19fc-4112-8f78-d6e65b66137c"},"vehicle_type_id":"4","last_reported":1744744084,"current_range_meters":7200,"station_id":"ce4bh012rcd13ifvqd10","pricing_plan_id":"cebpf4jnsgd1na2vs0mg"},{"bike_id":"5737e16f-b634-490e-bf1e-d54b06897554","system_id":"levelo_inurba_marseille","lat":43.29524,"lon":5.39058,"is_reserved":false,"is_disabled":false,"rental_uris":{"android":"levelo://app?vid=5737e16f-b634-490e-bf1e-d54b06897554","ios":"levelo://app?vid=5737e16f-b634-490e-bf1e-d54b06897554"},"vehicle_type_id":"4","last_reported":1744744084,"current_range_meters":7200,"station_id":"ce4bh3p2rcd13ifvqdp0","pricing_plan_id":"cebpf4jnsgd1na2vs0mg"},{"bike_id":"8374ecc5-0b69-407b-88bb-a0fdea92e8be","system_id":"levelo_inurba_marseille","lat":43.27913,"lon":5.39593,"is_reserved":false,"is_disabled":false,"rental_uris":{"android":"levelo://app?vid=8374ecc5-0b69-407b-88bb-a0fdea92e8be","ios":"levelo://app?vid=8374ecc5-0b69-407b-88bb-a0fdea92e8be"},"vehicle_type_id":"4","last_reported":1744744084,"current_range_meters":7200,"station_id":"ce4bhf92rcd13ifvqf40","pricing_plan_id":"cebpf4jnsgd1na2vs0mg"},{"bike_id":"4e6524b6-5132-41d3-a759-888a060ccf51","system_id":"levelo_inurba_marseille","lat":43.30047,"lon":5.36501,"is_reserved":false,"is_disabled":false,"rental_uris":{"android":"levelo://app?vid=4e6524b6-5132-41d3-a759-888a060ccf51","ios":"levelo://app?vid=4e6524b6-5132-41d3-a759-888a060ccf51"},"vehicle_type_id":"4","last_reported":1744744084,"current_range_meters":7200,"station_id":"","pricing_plan_id":"cebpf4jnsgd1na2vs0mg"},{"bike_id":"2f93173f-d02c-4e29-ab59-1fff882697d7","system_id":"levelo_inurba_marseille","lat":43.24056,"lon":5.37774,"is_reserved":false,"is_disabled":false,"rental_uris":{"android":"levelo://app?vid=2f93173f-d02c-4e29-ab59-1fff882697d7","ios":"levelo://app?vid=2f93173f-d02c-4e29-ab59-1fff882697d7"},"vehicle_type_id":"4","last_reported":1744744084,"current_range_meters":7200,"station_id":"ce4bhnp2rcd13ifvqgvg","pricing_plan_id":"cebpf4jnsgd1na2vs0mg"},{"bike_id":"91f80bca-9578-479a-95f0-b0c0f525d445","system_id":"levelo_inurba_marseille","lat":43.308033,"lon":5.381437,"is_reserved":false,"is_disabled":false,"rental_uris":{"android":"levelo://app?vid=91f80bca-9578-479a-95f0-b0c0f525d445","ios":"levelo://app?vid=91f80bca-9578-479a-95f0-b0c0f525d445"},"vehicle_type_id":"4","last_reported":1744744084,"current_range_meters":8000,"station_id":"ce4bgih2rcd13ifvqba0","pricing_plan_id":"cebpf4jnsgd1na2vs0mg"},{"bike_id":"3b784f87-fefd-46c9-8df6-1b4f02e70388","system_id":"levelo_inurba_marseille","lat":43.28663,"lon":5.36337,"is_reserved":false,"is_disabled":false,"rental_uris":{"android":"levelo://app?vid=3b784f87-fefd-46c9-8df6-1b4f02e70388","ios":"levelo://app?vid=3b784f87-fefd-46c9-8df6-1b4f02e70388"},"vehicle_type_id":"4","last_reported":1744744084,"current_range_meters":8000,"station_id":"ce4bhah2rcd13ifvqej0","pricing_plan_id":"cebpf4jnsgd1na2vs0mg"},{"bike_id":"01fdcaba-c972-4724-a83b-1b56f9071574","system_id":"levelo_inurba_marseille","lat":43.29262,"lon":5.38427,"is_reserved":false,"is_disabled":false,"rental_uris":{"android":"levelo://app?vid=01fdcaba-c972-4724-a83b-1b56f9071574","ios":"levelo://app?vid=01fdcaba-c972-4724-a83b-1b56f9071574"},"vehicle_type_id":"4","last_reported":1744744084,"current_range_meters":8000,"station_id":"ce4bh692rcd13ifvqea0","pricing_plan_id":"cebpf4jnsgd1na2vs0mg"},{"bike_id":"58ef087a-8ebb-40f7-8af1-f684c9599855","system_id":"levelo_inurba_marseille","lat":43.29,"lon":5.35613,"is_reserved":false,"is_disabled":false,"rental_uris":{"android":"levelo://app?vid=58ef087a-8ebb-40f7-8af1-f684c9599855","ios":"levelo://app?vid=58ef087a-8ebb-40f7-8af1-f684c9599855"},"vehicle_type_id":"4","last_reported":1744744084,"current_range_meters":8000,"station_id":"ce4bhb92rcd13ifvqen0","pricing_plan_id":"cebpf4jnsgd1na2vs0mg"},{"bike_id":"00accd0e-8be6-4216-99b5-c09862f21868","system_id":"levelo_inurba_marseille","lat":43.29791,"lon":5.39336,"is_reserved":false,"is_disabled":false,"rental_uris":{"android":"levelo://app?vid=00accd0e-8be6-4216-99b5-c09862f21868","ios":"levelo://app?vid=00accd0e-8be6-4216-99b5-c09862f21868"},"vehicle_type_id":"4","last_reported":1744744084,"current_range_meters":8000,"station_id":"chh1huq6cuj3fo74tm60","pricing_plan_id":"cebpf4jnsgd1na2vs0mg"},{"bike_id":"ad4f0053-cdc4-4b5c-b1fa-51d4ed7339eb","system_id":"levelo_inurba_marseille","lat":43.28668,"lon":5.38659,"is_reserved":false,"is_disabled":false,"rental_uris":{"android":"levelo://app?vid=ad4f0053-cdc4-4b5c-b1fa-51d4ed7339eb","ios":"levelo://app?vid=ad4f0053-cdc4-4b5c-b1fa-51d4ed7339eb"},"vehicle_type_id":"4","last_reported":1744744084,"current_range_meters":8400,"station_id":"ce4bh492rcd13ifvqdug","pricing_plan_id":"cebpf4jnsgd1na2vs0mg"},{"bike_id":"64b8a87c-c850-4d42-aa8f-a55feb84c1c2","system_id":"levelo_inurba_marseille","lat":43.27998,"lon":5.40013,"is_reserved":false,"is_disabled":false,"rental_uris":{"android":"levelo://app?vid=64b8a87c-c850-4d42-aa8f-a55feb84c1c2","ios":"levelo://app?vid=64b8a87c-c850-4d42-aa8f-a55feb84c1c2"},"vehicle_type_id":"4","last_reported":1744744084,"current_range_meters":8400,"station_id":"ce4bho92rcd13ifvqh4g","pricing_plan_id":"cebpf4jnsgd1na2vs0mg"},{"bike_id":"feda5540-db56-4516-910d-d10c14453b66","system_id":"levelo_inurba_marseille","lat":43.31492,"lon":5.37298,"is_reserved":false,"is_disabled":false,"rental_uris":{"android":"levelo://app?vid=feda5540-db56-4516-910d-d10c14453b66","ios":"levelo://app?vid=feda5540-db56-4516-910d-d10c14453b66"},"vehicle_type_id":"4","last_reported":1744744084,"current_range_meters":8400,"station_id":"ce4bgt12rcd13ifvqcd0","pricing_plan_id":"cebpf4jnsgd1na2vs0mg"},{"bike_id":"c273cedc-5337-4dec-91b4-1636fd7d09ad","system_id":"levelo_inurba_marseille","lat":43.3143,"lon":5.37598,"is_reserved":false,"is_disabled":false,"rental_uris":{"android":"levelo://app?vid=c273cedc-5337-4dec-91b4-1636fd7d09ad","ios":"levelo://app?vid=c273cedc-5337-4dec-91b4-1636fd7d09ad"},"vehicle_type_id":"4","last_reported":1744744084,"current_range_meters":8400,"station_id":"","pricing_plan_id":"cebpf4jnsgd1na2vs0mg"},{"bike_id":"cae589eb-10af-4a8f-8ef6-1f6b43e97ea4","system_id":"levelo_inurba_marseille","lat":43.31068,"lon":5.38351,"is_reserved":false,"is_disabled":false,"rental_uris":{"android":"levelo://app?vid=cae589eb-10af-4a8f-8ef6-1f6b43e97ea4","ios":"levelo://app?vid=cae589eb-10af-4a8f-8ef6-1f6b43e97ea4"},"vehicle_type_id":"4","last_reported":1744744084,"current_range_meters":8400,"station_id":"ce4bgv92rcd13ifvqcr0","pricing_plan_id":"cebpf4jnsgd1na2vs0mg"},{"bike_id":"528dbbf8-78f7-4df1-a2d7-756ab21d3571","system_id":"levelo_inurba_marseille","lat":43.26215,"lon":5.37446,"is_reserved":false,"is_disabled":false,"rental_uris":{"android":"levelo://app?vid=528dbbf8-78f7-4df1-a2d7-756ab21d3571","ios":"levelo://app?vid=528dbbf8-78f7-4df1-a2d7-756ab21d3571"},"vehicle_type_id":"4","last_reported":1744744084,"current_range_meters":8400,"station_id":"ce4bhgp2rcd13ifvqfc0","pricing_plan_id":"cebpf4jnsgd1na2vs0mg"},{"bike_id":"427689a9-0cd4-4119-82a4-9e9bd7ecd185","system_id":"levelo_inurba_marseille","lat":43.28628,"lon":5.37055,"is_reserved":false,"is_disabled":false,"rental_uris":{"android":"levelo://app?vid=427689a9-0cd4-4119-82a4-9e9bd7ecd185","ios":"levelo://app?vid=427689a9-0cd4-4119-82a4-9e9bd7ecd185"},"vehicle_type_id":"4","last_reported":1744744084,"current_range_meters":8400,"station_id":"ce4bht12rcd13ifvqi60","pricing_plan_id":"cebpf4jnsgd1na2vs0mg"},{"bike_id":"3269506f-cecc-4917-a8c4-c3d4966683d8","system_id":"levelo_inurba_marseille","lat":43.29311,"lon":5.37178,"is_reserved":false,"is_disabled":false,"rental_uris":{"android":"levelo://app?vid=3269506f-cecc-4917-a8c4-c3d4966683d8","ios":"levelo://app?vid=3269506f-cecc-4917-a8c4-c3d4966683d8"},"vehicle_type_id":"4","last_reported":1744744084,"current_range_meters":8400,"station_id":"ce4bgh92rcd13ifvqb40","pricing_plan_id":"cebpf4jnsgd1na2vs0mg"},{"bike_id":"a668abbc-a092-49f5-9124-b0b71b0d2e46","system_id":"levelo_inurba_marseille","lat":43.22941,"lon":5.35386,"is_reserved":false,"is_disabled":false,"rental_uris":{"android":"levelo://app?vid=a668abbc-a092-49f5-9124-b0b71b0d2e46","ios":"levelo://app?vid=a668abbc-a092-49f5-9124-b0b71b0d2e46"},"vehicle_type_id":"4","last_reported":1744744084,"current_range_meters":8400,"station_id":"cpo3532slgdg3j2ikp40","pricing_plan_id":"cebpf4jnsgd1na2vs0mg"},{"bike_id":"899c6e37-c54f-48ae-9b5a-a7673cc4be57","system_id":"levelo_inurba_marseille","lat":43.30094,"lon":5.39079,"is_reserved":false,"is_disabled":false,"rental_uris":{"android":"levelo://app?vid=899c6e37-c54f-48ae-9b5a-a7673cc4be57","ios":"levelo://app?vid=899c6e37-c54f-48ae-9b5a-a7673cc4be57"},"vehicle_type_id":"4","last_reported":1744744084,"current_range_meters":8400,"station_id":"ce4bh192rcd13ifvqdb0","pricing_plan_id":"cebpf4jnsgd1na2vs0mg"},{"bike_id":"14726489-e0ca-4890-881d-965e4e512a49","system_id":"levelo_inurba_marseille","lat":43.25726,"lon":5.4111,"is_reserved":false,"is_disabled":false,"rental_uris":{"android":"levelo://app?vid=14726489-e0ca-4890-881d-965e4e512a49","ios":"levelo://app?vid=14726489-e0ca-4890-881d-965e4e512a49"},"vehicle_type_id":"4","last_reported":1744744084,"current_range_meters":8800,"station_id":"ce4bhkp2rcd13ifvqgd0","pricing_plan_id":"cebpf4jnsgd1na2vs0mg"},{"bike_id":"347598f2-7636-431d-aa2a-ee922a6e92de","system_id":"levelo_inurba_marseille","lat":43.28973,"lon":5.36386,"is_reserved":false,"is_disabled":false,"rental_uris":{"android":"levelo://app?vid=347598f2-7636-431d-aa2a-ee922a6e92de","ios":"levelo://app?vid=347598f2-7636-431d-aa2a-ee922a6e92de"},"vehicle_type_id":"4","last_reported":1744744084,"current_range_meters":8800,"station_id":"ce4bhc92rcd13ifvqetg","pricing_plan_id":"cebpf4jnsgd1na2vs0mg"},{"bike_id":"e4257eb6-3279-499f-8a4a-e01750851d1b","system_id":"levelo_inurba_marseille","lat":43.2799,"lon":5.41649,"is_reserved":false,"is_disabled":false,"rental_uris":{"android":"levelo://app?vid=e4257eb6-3279-499f-8a4a-e01750851d1b","ios":"levelo://app?vid=e4257eb6-3279-499f-8a4a-e01750851d1b"},"vehicle_type_id":"4","last_reported":1744744084,"current_range_meters":8800,"station_id":"ce4bho12rcd13ifvqh1g","pricing_plan_id":"cebpf4jnsgd1na2vs0mg"},{"bike_id":"1395488a-de73-4c0c-99f8-ead07ddbb67d","system_id":"levelo_inurba_marseille","lat":43.240006,"lon":5.366901,"is_reserved":false,"is_disabled":false,"rental_uris":{"android":"levelo://app?vid=1395488a-de73-4c0c-99f8-ead07ddbb67d","ios":"levelo://app?vid=1395488a-de73-4c0c-99f8-ead07ddbb67d"},"vehicle_type_id":"4","last_reported":1744744084,"current_range_meters":8800,"station_id":"","pricing_plan_id":"cebpf4jnsgd1na2vs0mg"},{"bike_id":"06743a34-10e1-4e1d-b340-d62c8125181a","system_id":"levelo_inurba_marseille","lat":43.31121,"lon":5.37767,"is_reserved":false,"is_disabled":false,"rental_uris":{"android":"levelo://app?vid=06743a34-10e1-4e1d-b340-d62c8125181a","ios":"levelo://app?vid=06743a34-10e1-4e1d-b340-d62c8125181a"},"vehicle_type_id":"4","last_reported":1744744084,"current_range_meters":8800,"station_id":"ce4bgt92rcd13ifvqcg0","pricing_plan_id":"cebpf4jnsgd1na2vs0mg"},{"bike_id":"50e242b0-71fd-43c2-abdb-c62549ed7ca5","system_id":"levelo_inurba_marseille","lat":43.29419,"lon":5.38622,"is_reserved":false,"is_disabled":false,"rental_uris":{"android":"levelo://app?vid=50e242b0-71fd-43c2-abdb-c62549ed7ca5","ios":"levelo://app?vid=50e242b0-71fd-43c2-abdb-c62549ed7ca5"},"vehicle_type_id":"4","last_reported":1744744084,"current_range_meters":8800,"station_id":"ce4bgt92rcd13ifvqcf0","pricing_plan_id":"cebpf4jnsgd1na2vs0mg"},{"bike_id":"27a55245-8dd2-4f1a-af63-95a9d7b71690","system_id":"levelo_inurba_marseille","lat":43.31077,"lon":5.37849,"is_reserved":false,"is_disabled":false,"rental_uris":{"android":"levelo://app?vid=27a55245-8dd2-4f1a-af63-95a9d7b71690","ios":"levelo://app?vid=27a55245-8dd2-4f1a-af63-95a9d7b71690"},"vehicle_type_id":"4","last_reported":1744744084,"current_range_meters":8800,"station_id":"","pricing_plan_id":"cebpf4jnsgd1na2vs0mg"},{"bike_id":"846d658d-5837-4569-8efe-01bbc74a9af1","system_id":"levelo_inurba_marseille","lat":43.27929,"lon":5.41054,"is_reserved":false,"is_disabled":false,"rental_uris":{"android":"levelo://app?vid=846d658d-5837-4569-8efe-01bbc74a9af1","ios":"levelo://app?vid=846d658d-5837-4569-8efe-01bbc74a9af1"},"vehicle_type_id":"4","last_reported":1744744084,"current_range_meters":9200,"station_id":"ce4bhnp2rcd13ifvqh0g","pricing_plan_id":"cebpf4jnsgd1na2vs0mg"},{"bike_id":"851ab615-e64d-4671-a5b4-5d52176bc4da","system_id":"levelo_inurba_marseille","lat":43.290242,"lon":5.386425,"is_reserved":false,"is_disabled":false,"rental_uris":{"android":"levelo://app?vid=851ab615-e64d-4671-a5b4-5d52176bc4da","ios":"levelo://app?vid=851ab615-e64d-4671-a5b4-5d52176bc4da"},"vehicle_type_id":"4","last_reported":1744744084,"current_range_meters":9200,"station_id":"ce4bhg92rcd13ifvqf90","pricing_plan_id":"cebpf4jnsgd1na2vs0mg"},{"bike_id":"a0636e31-c89e-4ae1-aea4-880988d0da0e","system_id":"levelo_inurba_marseille","lat":43.29561,"lon":5.42276,"is_reserved":false,"is_disabled":false,"rental_uris":{"android":"levelo://app?vid=a0636e31-c89e-4ae1-aea4-880988d0da0e","ios":"levelo://app?vid=a0636e31-c89e-4ae1-aea4-880988d0da0e"},"vehicle_type_id":"4","last_reported":1744744084,"current_range_meters":9200,"station_id":"ce4bhph2rcd13ifvqhdg","pricing_plan_id":"cebpf4jnsgd1na2vs0mg"},{"bike_id":"9ac103ba-1968-453c-8307-f3bd0b7d0531","system_id":"levelo_inurba_marseille","lat":43.28723,"lon":5.37949,"is_reserved":false,"is_disabled":false,"rental_uris":{"android":"levelo://app?vid=9ac103ba-1968-453c-8307-f3bd0b7d0531","ios":"levelo://app?vid=9ac103ba-1968-453c-8307-f3bd0b7d0531"},"vehicle_type_id":"4","last_reported":1744744084,"current_range_meters":9200,"station_id":"ce4bh9p2rcd13ifvqec0","pricing_plan_id":"cebpf4jnsgd1na2vs0mg"},{"bike_id":"45152fd8-c07c-4d52-b7a7-6670add35e00","system_id":"levelo_inurba_marseille","lat":43.26117,"lon":5.4206,"is_reserved":false,"is_disabled":false,"rental_uris":{"android":"levelo://app?vid=45152fd8-c07c-4d52-b7a7-6670add35e00","ios":"levelo://app?vid=45152fd8-c07c-4d52-b7a7-6670add35e00"},"vehicle_type_id":"4","last_reported":1744744084,"current_range_meters":9200,"station_id":"","pricing_plan_id":"cebpf4jnsgd1na2vs0mg"},{"bike_id":"797dd5e2-da39-473a-b854-cceac2c9f546","system_id":"levelo_inurba_marseille","lat":43.28741,"lon":5.36087,"is_reserved":false,"is_disabled":false,"rental_uris":{"android":"levelo://app?vid=797dd5e2-da39-473a-b854-cceac2c9f546","ios":"levelo://app?vid=797dd5e2-da39-473a-b854-cceac2c9f546"},"vehicle_type_id":"4","last_reported":1744744084,"current_range_meters":9200,"station_id":"cki0cbj6b192h4jlfktg","pricing_plan_id":"cebpf4jnsgd1na2vs0mg"},{"bike_id":"73a348a8-bf3e-4157-bd3c-c69a8de432a3","system_id":"levelo_inurba_marseille","lat":43.29373,"lon":5.37834,"is_reserved":false,"is_disabled":false,"rental_uris":{"android":"levelo://app?vid=73a348a8-bf3e-4157-bd3c-c69a8de432a3","ios":"levelo://app?vid=73a348a8-bf3e-4157-bd3c-c69a8de432a3"},"vehicle_type_id":"4","last_reported":1744744084,"current_range_meters":9200,"station_id":"ce4bgjh2rcd13ifvqbf0","pricing_plan_id":"cebpf4jnsgd1na2vs0mg"},{"bike_id":"8ad01582-139e-4521-af2b-dd4aedd66d09","system_id":"levelo_inurba_marseille","lat":43.25094,"lon":5.39513,"is_reserved":false,"is_disabled":false,"rental_uris":{"android":"levelo://app?vid=8ad01582-139e-4521-af2b-dd4aedd66d09","ios":"levelo://app?vid=8ad01582-139e-4521-af2b-dd4aedd66d09"},"vehicle_type_id":"4","last_reported":1744744084,"current_range_meters":9600,"station_id":"ce4bhm12rcd13ifvqgkg","pricing_plan_id":"cebpf4jnsgd1na2vs0mg"},{"bike_id":"26524d11-ba40-4c37-a632-dbcc9b84e9d5","system_id":"levelo_inurba_marseille","lat":43.31323,"lon":5.39716,"is_reserved":false,"is_disabled":false,"rental_uris":{"android":"levelo://app?vid=26524d11-ba40-4c37-a632-dbcc9b84e9d5","ios":"levelo://app?vid=26524d11-ba40-4c37-a632-dbcc9b84e9d5"},"vehicle_type_id":"4","last_reported":1744744084,"current_range_meters":9600,"station_id":"ce4bgvp2rcd13ifvqcu0","pricing_plan_id":"cebpf4jnsgd1na2vs0mg"},{"bike_id":"b7ab99ba-94bb-4274-aca7-e6131d0e5ab1","system_id":"levelo_inurba_marseille","lat":43.241666,"lon":5.364388,"is_reserved":false,"is_disabled":false,"rental_uris":{"android":"levelo://app?vid=b7ab99ba-94bb-4274-aca7-e6131d0e5ab1","ios":"levelo://app?vid=b7ab99ba-94bb-4274-aca7-e6131d0e5ab1"},"vehicle_type_id":"4","last_reported":1744744084,"current_range_meters":9600,"station_id":"cpo36qri1sfpv3e86is0","pricing_plan_id":"cebpf4jnsgd1na2vs0mg"},{"bike_id":"82501cfc-4ca6-487d-9cd8-14474f702f7d","system_id":"levelo_inurba_marseille","lat":43.30312,"lon":5.40453,"is_reserved":false,"is_disabled":false,"rental_uris":{"android":"levelo://app?vid=82501cfc-4ca6-487d-9cd8-14474f702f7d","ios":"levelo://app?vid=82501cfc-4ca6-487d-9cd8-14474f702f7d"},"vehicle_type_id":"4","last_reported":1744744084,"current_range_meters":9600,"station_id":"ce4bh012rcd13ifvqd10","pricing_plan_id":"cebpf4jnsgd1na2vs0mg"},{"bike_id":"fb6569c4-0d7d-4013-a91d-dd4d719feff6","system_id":"levelo_inurba_marseille","lat":43.284175,"lon":5.375196,"is_reserved":false,"is_disabled":false,"rental_uris":{"android":"levelo://app?vid=fb6569c4-0d7d-4013-a91d-dd4d719feff6","ios":"levelo://app?vid=fb6569c4-0d7d-4013-a91d-dd4d719feff6"},"vehicle_type_id":"4","last_reported":1744744084,"current_range_meters":9600,"station_id":"ce4bh412rcd13ifvqds0","pricing_plan_id":"cebpf4jnsgd1na2vs0mg"},{"bike_id":"d58527c2-d6a1-4dd7-be11-4fd470d2d749","system_id":"levelo_inurba_marseille","lat":43.308,"lon":5.3816,"is_reserved":false,"is_disabled":false,"rental_uris":{"android":"levelo://app?vid=d58527c2-d6a1-4dd7-be11-4fd470d2d749","ios":"levelo://app?vid=d58527c2-d6a1-4dd7-be11-4fd470d2d749"},"vehicle_type_id":"4","last_reported":1744744084,"current_range_meters":9600,"station_id":"ce4bgt12rcd13ifvqce0","pricing_plan_id":"cebpf4jnsgd1na2vs0mg"},{"bike_id":"ecc26774-7f80-4834-883f-3a8990a5fcbe","system_id":"levelo_inurba_marseille","lat":43.239383,"lon":5.366022,"is_reserved":false,"is_disabled":false,"rental_uris":{"android":"levelo://app?vid=ecc26774-7f80-4834-883f-3a8990a5fcbe","ios":"levelo://app?vid=ecc26774-7f80-4834-883f-3a8990a5fcbe"},"vehicle_type_id":"4","last_reported":1744744084,"current_range_meters":9600,"station_id":"ce4bhi12rcd13ifvqfp0","pricing_plan_id":"cebpf4jnsgd1na2vs0mg"},{"bike_id":"6086be1f-2f41-4b8c-9ce9-011bcea915da","system_id":"levelo_inurba_marseille","lat":43.31324,"lon":5.37347,"is_reserved":false,"is_disabled":false,"rental_uris":{"android":"levelo://app?vid=6086be1f-2f41-4b8c-9ce9-011bcea915da","ios":"levelo://app?vid=6086be1f-2f41-4b8c-9ce9-011bcea915da"},"vehicle_type_id":"4","last_reported":1744744084,"current_range_meters":9600,"station_id":"","pricing_plan_id":"cebpf4jnsgd1na2vs0mg"},{"bike_id":"6521f2f5-f002-4d26-8bef-5024bc88f8bd","system_id":"levelo_inurba_marseille","lat":43.27813,"lon":5.40711,"is_reserved":false,"is_disabled":false,"rental_uris":{"android":"levelo://app?vid=6521f2f5-f002-4d26-8bef-5024bc88f8bd","ios":"levelo://app?vid=6521f2f5-f002-4d26-8bef-5024bc88f8bd"},"vehicle_type_id":"4","last_reported":1744744084,"current_range_meters":9600,"station_id":"ce4bhnh2rcd13ifvqgtg","pricing_plan_id":"cebpf4jnsgd1na2vs0mg"},{"bike_id":"e1103876-639d-4bb4-8300-d22110ae76d3","system_id":"levelo_inurba_marseille","lat":43.27311,"lon":5.4107,"is_reserved":false,"is_disabled":false,"rental_uris":{"android":"levelo://app?vid=e1103876-639d-4bb4-8300-d22110ae76d3","ios":"levelo://app?vid=e1103876-639d-4bb4-8300-d22110ae76d3"},"vehicle_type_id":"4","last_reported":1744744084,"current_range_meters":9600,"station_id":"","pricing_plan_id":"cebpf4jnsgd1na2vs0mg"},{"bike_id":"f69d7590-3eac-45d3-b1d1-88adeb4d11ec","system_id":"levelo_inurba_marseille","lat":43.30285,"lon":5.37701,"is_reserved":false,"is_disabled":false,"rental_uris":{"android":"levelo://app?vid=f69d7590-3eac-45d3-b1d1-88adeb4d11ec","ios":"levelo://app?vid=f69d7590-3eac-45d3-b1d1-88adeb4d11ec"},"vehicle_type_id":"4","last_reported":1744744084,"current_range_meters":9600,"station_id":"ce4bguh2rcd13ifvqcj0","pricing_plan_id":"cebpf4jnsgd1na2vs0mg"},{"bike_id":"4ca1fc76-01c8-4686-94a5-a46dd951837f","system_id":"levelo_inurba_marseille","lat":43.27828,"lon":5.40717,"is_reserved":false,"is_disabled":false,"rental_uris":{"android":"levelo://app?vid=4ca1fc76-01c8-4686-94a5-a46dd951837f","ios":"levelo://app?vid=4ca1fc76-01c8-4686-94a5-a46dd951837f"},"vehicle_type_id":"4","last_reported":1744744084,"current_range_meters":9600,"station_id":"ce4bhnh2rcd13ifvqgtg","pricing_plan_id":"cebpf4jnsgd1na2vs0mg"},{"bike_id":"28c4ed59-df29-4c19-a333-5bd6776c46ba","system_id":"levelo_inurba_marseille","lat":43.29251,"lon":5.40903,"is_reserved":false,"is_disabled":false,"rental_uris":{"android":"levelo://app?vid=28c4ed59-df29-4c19-a333-5bd6776c46ba","ios":"levelo://app?vid=28c4ed59-df29-4c19-a333-5bd6776c46ba"},"vehicle_type_id":"4","last_reported":1744744084,"current_range_meters":10000,"station_id":"ce4bh192rcd13ifvqdc0","pricing_plan_id":"cebpf4jnsgd1na2vs0mg"},{"bike_id":"798e126f-63d8-4575-978b-d37135d7f439","system_id":"levelo_inurba_marseille","lat":43.304218,"lon":5.412539,"is_reserved":false,"is_disabled":false,"rental_uris":{"android":"levelo://app?vid=798e126f-63d8-4575-978b-d37135d7f439","ios":"levelo://app?vid=798e126f-63d8-4575-978b-d37135d7f439"},"vehicle_type_id":"4","last_reported":1744744084,"current_range_meters":10000,"station_id":"ce4bhop2rcd13ifvqh8g","pricing_plan_id":"cebpf4jnsgd1na2vs0mg"},{"bike_id":"9f73844e-e148-4480-8314-31e605b5fddf","system_id":"levelo_inurba_marseille","lat":43.2862,"lon":5.35137,"is_reserved":false,"is_disabled":false,"rental_uris":{"android":"levelo://app?vid=9f73844e-e148-4480-8314-31e605b5fddf","ios":"levelo://app?vid=9f73844e-e148-4480-8314-31e605b5fddf"},"vehicle_type_id":"4","last_reported":1744744084,"current_range_meters":10000,"station_id":"ce4bhch2rcd13ifvqeug","pricing_plan_id":"cebpf4jnsgd1na2vs0mg"},{"bike_id":"e5a9eac7-5076-4439-8278-200c7d18a15e","system_id":"levelo_inurba_marseille","lat":43.29199,"lon":5.39333,"is_reserved":false,"is_disabled":false,"rental_uris":{"android":"levelo://app?vid=e5a9eac7-5076-4439-8278-200c7d18a15e","ios":"levelo://app?vid=e5a9eac7-5076-4439-8278-200c7d18a15e"},"vehicle_type_id":"4","last_reported":1744744084,"current_range_meters":10000,"station_id":"ce4bh192rcd13ifvqdd0","pricing_plan_id":"cebpf4jnsgd1na2vs0mg"},{"bike_id":"4a2fdfe9-5135-4bdb-800a-463a15252b7b","system_id":"levelo_inurba_marseille","lat":43.28144,"lon":5.42644,"is_reserved":false,"is_disabled":false,"rental_uris":{"android":"levelo://app?vid=4a2fdfe9-5135-4bdb-800a-463a15252b7b","ios":"levelo://app?vid=4a2fdfe9-5135-4bdb-800a-463a15252b7b"},"vehicle_type_id":"4","last_reported":1744744084,"current_range_meters":10000,"station_id":"ce4bhnh2rcd13ifvqgug","pricing_plan_id":"cebpf4jnsgd1na2vs0mg"},{"bike_id":"49e30762-55ae-4381-9328-4f032f4649a4","system_id":"levelo_inurba_marseille","lat":43.29569,"lon":5.37523,"is_reserved":false,"is_disabled":false,"rental_uris":{"android":"levelo://app?vid=49e30762-55ae-4381-9328-4f032f4649a4","ios":"levelo://app?vid=49e30762-55ae-4381-9328-4f032f4649a4"},"vehicle_type_id":"4","last_reported":1744744084,"current_range_meters":10000,"station_id":"ce4bgh92rcd13ifvqb50","pricing_plan_id":"cebpf4jnsgd1na2vs0mg"},{"bike_id":"3f521ab3-3435-46dc-b645-a53273b6428a","system_id":"levelo_inurba_marseille","lat":43.29264,"lon":5.40895,"is_reserved":false,"is_disabled":false,"rental_uris":{"android":"levelo://app?vid=3f521ab3-3435-46dc-b645-a53273b6428a","ios":"levelo://app?vid=3f521ab3-3435-46dc-b645-a53273b6428a"},"vehicle_type_id":"4","last_reported":1744744084,"current_range_meters":10000,"station_id":"ce4bh192rcd13ifvqdc0","pricing_plan_id":"cebpf4jnsgd1na2vs0mg"},{"bike_id":"37342bdf-d586-43ba-a25b-da22b3393da6","system_id":"levelo_inurba_marseille","lat":43.2917,"lon":5.37506,"is_reserved":false,"is_disabled":false,"rental_uris":{"android":"levelo://app?vid=37342bdf-d586-43ba-a25b-da22b3393da6","ios":"levelo://app?vid=37342bdf-d586-43ba-a25b-da22b3393da6"},"vehicle_type_id":"4","last_reported":1744744084,"current_range_meters":10000,"station_id":"","pricing_plan_id":"cebpf4jnsgd1na2vs0mg"},{"bike_id":"87d3cb23-74e5-4d1f-a783-4ecae9b406fe","system_id":"levelo_inurba_marseille","lat":43.31357,"lon":5.38505,"is_reserved":false,"is_disabled":false,"rental_uris":{"android":"levelo://app?vid=87d3cb23-74e5-4d1f-a783-4ecae9b406fe","ios":"levelo://app?vid=87d3cb23-74e5-4d1f-a783-4ecae9b406fe"},"vehicle_type_id":"4","last_reported":1744744084,"current_range_meters":10000,"station_id":"ce4bgt92rcd13ifvqcf0","pricing_plan_id":"cebpf4jnsgd1na2vs0mg"},{"bike_id":"c5574605-42c7-437f-9438-ce8ae5011f0c","system_id":"levelo_inurba_marseille","lat":43.30544,"lon":5.367,"is_reserved":false,"is_disabled":false,"rental_uris":{"android":"levelo://app?vid=c5574605-42c7-437f-9438-ce8ae5011f0c","ios":"levelo://app?vid=c5574605-42c7-437f-9438-ce8ae5011f0c"},"vehicle_type_id":"4","last_reported":1744744084,"current_range_meters":10800,"station_id":"ce4bgrp2rcd13ifvqc9g","pricing_plan_id":"cebpf4jnsgd1na2vs0mg"},{"bike_id":"cc019aaa-33a8-42d2-a2d4-ef26fcdd651f","system_id":"levelo_inurba_marseille","lat":43.30811,"lon":5.37318,"is_reserved":false,"is_disabled":false,"rental_uris":{"android":"levelo://app?vid=cc019aaa-33a8-42d2-a2d4-ef26fcdd651f","ios":"levelo://app?vid=cc019aaa-33a8-42d2-a2d4-ef26fcdd651f"},"vehicle_type_id":"4","last_reported":1744744084,"current_range_meters":10800,"station_id":"","pricing_plan_id":"cebpf4jnsgd1na2vs0mg"},{"bike_id":"18022c48-0bf9-4500-8ed3-422b2f0b898d","system_id":"levelo_inurba_marseille","lat":43.29278,"lon":5.40126,"is_reserved":false,"is_disabled":false,"rental_uris":{"android":"levelo://app?vid=18022c48-0bf9-4500-8ed3-422b2f0b898d","ios":"levelo://app?vid=18022c48-0bf9-4500-8ed3-422b2f0b898d"},"vehicle_type_id":"4","last_reported":1744744084,"current_range_meters":10800,"station_id":"ce4bh312rcd13ifvqdk0","pricing_plan_id":"cebpf4jnsgd1na2vs0mg"},{"bike_id":"ef28e595-22b1-4e7c-8f9f-3d030b1f53eb","system_id":"levelo_inurba_marseille","lat":43.30142,"lon":5.37538,"is_reserved":false,"is_disabled":false,"rental_uris":{"android":"levelo://app?vid=ef28e595-22b1-4e7c-8f9f-3d030b1f53eb","ios":"levelo://app?vid=ef28e595-22b1-4e7c-8f9f-3d030b1f53eb"},"vehicle_type_id":"4","last_reported":1744744084,"current_range_meters":10800,"station_id":"","pricing_plan_id":"cebpf4jnsgd1na2vs0mg"},{"bike_id":"efd624b6-d3e3-4ca9-ae6e-63f25876fc65","system_id":"levelo_inurba_marseille","lat":43.31071,"lon":5.38352,"is_reserved":false,"is_disabled":false,"rental_uris":{"android":"levelo://app?vid=efd624b6-d3e3-4ca9-ae6e-63f25876fc65","ios":"levelo://app?vid=efd624b6-d3e3-4ca9-ae6e-63f25876fc65"},"vehicle_type_id":"4","last_reported":1744744084,"current_range_meters":10800,"station_id":"ce4bh692rcd13ifvqe90","pricing_plan_id":"cebpf4jnsgd1na2vs0mg"},{"bike_id":"5edfcb33-f5b3-40ad-8c59-c96eb2bba229","system_id":"levelo_inurba_marseille","lat":43.30423,"lon":5.39741,"is_reserved":false,"is_disabled":false,"rental_uris":{"android":"levelo://app?vid=5edfcb33-f5b3-40ad-8c59-c96eb2bba229","ios":"levelo://app?vid=5edfcb33-f5b3-40ad-8c59-c96eb2bba229"},"vehicle_type_id":"4","last_reported":1744744084,"current_range_meters":10800,"station_id":"ce4bh092rcd13ifvqd20","pricing_plan_id":"cebpf4jnsgd1na2vs0mg"},{"bike_id":"239cd7f4-917e-4c24-bd0a-f985f6b10e66","system_id":"levelo_inurba_marseille","lat":43.31336,"lon":5.39694,"is_reserved":false,"is_disabled":false,"rental_uris":{"android":"levelo://app?vid=239cd7f4-917e-4c24-bd0a-f985f6b10e66","ios":"levelo://app?vid=239cd7f4-917e-4c24-bd0a-f985f6b10e66"},"vehicle_type_id":"4","last_reported":1744744084,"current_range_meters":10800,"station_id":"ce4bgvp2rcd13ifvqcu0","pricing_plan_id":"cebpf4jnsgd1na2vs0mg"},{"bike_id":"288e7a5f-2cfb-4301-9dae-a03607404f51","system_id":"levelo_inurba_marseille","lat":43.334664,"lon":5.400871,"is_reserved":false,"is_disabled":false,"rental_uris":{"android":"levelo://app?vid=288e7a5f-2cfb-4301-9dae-a03607404f51","ios":"levelo://app?vid=288e7a5f-2cfb-4301-9dae-a03607404f51"},"vehicle_type_id":"4","last_reported":1744744084,"current_range_meters":11200,"station_id":"","pricing_plan_id":"cebpf4jnsgd1na2vs0mg"},{"bike_id":"d24977b1-e010-4217-8258-5368307000a2","system_id":"levelo_inurba_marseille","lat":43.23963,"lon":5.36627,"is_reserved":false,"is_disabled":false,"rental_uris":{"android":"levelo://app?vid=d24977b1-e010-4217-8258-5368307000a2","ios":"levelo://app?vid=d24977b1-e010-4217-8258-5368307000a2"},"vehicle_type_id":"4","last_reported":1744744084,"current_range_meters":11200,"station_id":"ce4bhi12rcd13ifvqfp0","pricing_plan_id":"cebpf4jnsgd1na2vs0mg"},{"bike_id":"7ca5fc71-e75b-49aa-87e6-6273562461c3","system_id":"levelo_inurba_marseille","lat":43.29276,"lon":5.38439,"is_reserved":false,"is_disabled":false,"rental_uris":{"android":"levelo://app?vid=7ca5fc71-e75b-49aa-87e6-6273562461c3","ios":"levelo://app?vid=7ca5fc71-e75b-49aa-87e6-6273562461c3"},"vehicle_type_id":"4","last_reported":1744744084,"current_range_meters":11200,"station_id":"ce4bh692rcd13ifvqea0","pricing_plan_id":"cebpf4jnsgd1na2vs0mg"},{"bike_id":"b60152f8-be2a-4b9e-9f26-3bb4b2b8c03f","system_id":"levelo_inurba_marseille","lat":43.29914,"lon":5.37468,"is_reserved":false,"is_disabled":false,"rental_uris":{"android":"levelo://app?vid=b60152f8-be2a-4b9e-9f26-3bb4b2b8c03f","ios":"levelo://app?vid=b60152f8-be2a-4b9e-9f26-3bb4b2b8c03f"},"vehicle_type_id":"4","last_reported":1744744084,"current_range_meters":11200,"station_id":"ce4bgjh2rcd13ifvqbg0","pricing_plan_id":"cebpf4jnsgd1na2vs0mg"},{"bike_id":"d3a0fbcc-8789-46e3-ad8a-8c877abb0794","system_id":"levelo_inurba_marseille","lat":43.2989,"lon":5.39732,"is_reserved":false,"is_disabled":false,"rental_uris":{"android":"levelo://app?vid=d3a0fbcc-8789-46e3-ad8a-8c877abb0794","ios":"levelo://app?vid=d3a0fbcc-8789-46e3-ad8a-8c877abb0794"},"vehicle_type_id":"4","last_reported":1744744084,"current_range_meters":11600,"station_id":"ce4bh0h2rcd13ifvqd50","pricing_plan_id":"cebpf4jnsgd1na2vs0mg"},{"bike_id":"9a222779-64f5-48f5-893f-a602ce523d8e","system_id":"levelo_inurba_marseille","lat":43.292662,"lon":5.384406,"is_reserved":false,"is_disabled":false,"rental_uris":{"android":"levelo://app?vid=9a222779-64f5-48f5-893f-a602ce523d8e","ios":"levelo://app?vid=9a222779-64f5-48f5-893f-a602ce523d8e"},"vehicle_type_id":"4","last_reported":1744744084,"current_range_meters":11600,"station_id":"ce4bhpp2rcd13ifvqhfg","pricing_plan_id":"cebpf4jnsgd1na2vs0mg"},{"bike_id":"67b8b104-236a-4394-b94f-861dcb2e1074","system_id":"levelo_inurba_marseille","lat":43.2438,"lon":5.37059,"is_reserved":false,"is_disabled":false,"rental_uris":{"android":"levelo://app?vid=67b8b104-236a-4394-b94f-861dcb2e1074","ios":"levelo://app?vid=67b8b104-236a-4394-b94f-861dcb2e1074"},"vehicle_type_id":"4","last_reported":1744744084,"current_range_meters":11600,"station_id":"ce4bhhh2rcd13ifvqfk0","pricing_plan_id":"cebpf4jnsgd1na2vs0mg"},{"bike_id":"d2d37f01-fa46-4fbc-a721-7789f4003663","system_id":"levelo_inurba_marseille","lat":43.24971,"lon":5.38978,"is_reserved":false,"is_disabled":false,"rental_uris":{"android":"levelo://app?vid=d2d37f01-fa46-4fbc-a721-7789f4003663","ios":"levelo://app?vid=d2d37f01-fa46-4fbc-a721-7789f4003663"},"vehicle_type_id":"4","last_reported":1744744084,"current_range_meters":11600,"station_id":"","pricing_plan_id":"cebpf4jnsgd1na2vs0mg"},{"bike_id":"2ec1e437-5a23-4fcb-b9d7-0ae33e3d49ea","system_id":"levelo_inurba_marseille","lat":43.2406,"lon":5.37767,"is_reserved":false,"is_disabled":false,"rental_uris":{"android":"levelo://app?vid=2ec1e437-5a23-4fcb-b9d7-0ae33e3d49ea","ios":"levelo://app?vid=2ec1e437-5a23-4fcb-b9d7-0ae33e3d49ea"},"vehicle_type_id":"4","last_reported":1744744084,"current_range_meters":12000,"station_id":"ce4bhnp2rcd13ifvqgvg","pricing_plan_id":"cebpf4jnsgd1na2vs0mg"},{"bike_id":"68bb5c2f-fd19-492d-b0bb-5841e6724b4a","system_id":"levelo_inurba_marseille","lat":43.2293,"lon":5.35385,"is_reserved":false,"is_disabled":false,"rental_uris":{"android":"levelo://app?vid=68bb5c2f-fd19-492d-b0bb-5841e6724b4a","ios":"levelo://app?vid=68bb5c2f-fd19-492d-b0bb-5841e6724b4a"},"vehicle_type_id":"4","last_reported":1744744084,"current_range_meters":12000,"station_id":"cpo3532slgdg3j2ikp40","pricing_plan_id":"cebpf4jnsgd1na2vs0mg"},{"bike_id":"67c5df41-b8f9-479f-8eb4-01212bb809db","system_id":"levelo_inurba_marseille","lat":43.29301,"lon":5.37176,"is_reserved":false,"is_disabled":true,"rental_uris":{"android":"levelo://app?vid=67c5df41-b8f9-479f-8eb4-01212bb809db","ios":"levelo://app?vid=67c5df41-b8f9-479f-8eb4-01212bb809db"},"vehicle_type_id":"4","last_reported":1744744084,"current_range_meters":12000,"station_id":"ce4bgh92rcd13ifvqb40","pricing_plan_id":"cebpf4jnsgd1na2vs0mg"},{"bike_id":"2797dcdb-c4e1-48b2-82d6-5677d371fa39","system_id":"levelo_inurba_marseille","lat":43.24166,"lon":5.36393,"is_reserved":false,"is_disabled":false,"rental_uris":{"android":"levelo://app?vid=2797dcdb-c4e1-48b2-82d6-5677d371fa39","ios":"levelo://app?vid=2797dcdb-c4e1-48b2-82d6-5677d371fa39"},"vehicle_type_id":"4","last_reported":1744744084,"current_range_meters":12000,"station_id":"cpo36qri1sfpv3e86is0","pricing_plan_id":"cebpf4jnsgd1na2vs0mg"},{"bike_id":"27c855e2-bfe9-41bf-9835-0161509e43cf","system_id":"levelo_inurba_marseille","lat":43.30889,"lon":5.3965,"is_reserved":false,"is_disabled":false,"rental_uris":{"android":"levelo://app?vid=27c855e2-bfe9-41bf-9835-0161509e43cf","ios":"levelo://app?vid=27c855e2-bfe9-41bf-9835-0161509e43cf"},"vehicle_type_id":"4","last_reported":1744744084,"current_range_meters":12000,"station_id":"ce4bh012rcd13ifvqcv0","pricing_plan_id":"cebpf4jnsgd1na2vs0mg"},{"bike_id":"a8248305-bf11-4a59-a3ae-31fdbfe7540f","system_id":"levelo_inurba_marseille","lat":43.29456,"lon":5.3963,"is_reserved":false,"is_disabled":false,"rental_uris":{"android":"levelo://app?vid=a8248305-bf11-4a59-a3ae-31fdbfe7540f","ios":"levelo://app?vid=a8248305-bf11-4a59-a3ae-31fdbfe7540f"},"vehicle_type_id":"4","last_reported":1744744084,"current_range_meters":12000,"station_id":"","pricing_plan_id":"cebpf4jnsgd1na2vs0mg"},{"bike_id":"791a504b-4c70-41f6-ba42-5426811bca90","system_id":"levelo_inurba_marseille","lat":43.31274,"lon":5.40165,"is_reserved":false,"is_disabled":false,"rental_uris":{"android":"levelo://app?vid=791a504b-4c70-41f6-ba42-5426811bca90","ios":"levelo://app?vid=791a504b-4c70-41f6-ba42-5426811bca90"},"vehicle_type_id":"4","last_reported":1744744084,"current_range_meters":12000,"station_id":"ce4bh092rcd13ifvqd30","pricing_plan_id":"cebpf4jnsgd1na2vs0mg"},{"bike_id":"630d2cd3-c24d-4d53-a7b8-2e1786938dcf","system_id":"levelo_inurba_marseille","lat":43.280415,"lon":5.400642,"is_reserved":false,"is_disabled":false,"rental_uris":{"android":"levelo://app?vid=630d2cd3-c24d-4d53-a7b8-2e1786938dcf","ios":"levelo://app?vid=630d2cd3-c24d-4d53-a7b8-2e1786938dcf"},"vehicle_type_id":"4","last_reported":1744744084,"current_range_meters":12000,"station_id":"ce4bho92rcd13ifvqh4g","pricing_plan_id":"cebpf4jnsgd1na2vs0mg"},{"bike_id":"03c8cee0-a6a5-48f4-b783-f14451736b24","system_id":"levelo_inurba_marseille","lat":43.27211,"lon":5.40963,"is_reserved":false,"is_disabled":false,"rental_uris":{"android":"levelo://app?vid=03c8cee0-a6a5-48f4-b783-f14451736b24","ios":"levelo://app?vid=03c8cee0-a6a5-48f4-b783-f14451736b24"},"vehicle_type_id":"4","last_reported":1744744084,"current_range_meters":12000,"station_id":"","pricing_plan_id":"cebpf4jnsgd1na2vs0mg"},{"bike_id":"075fcdf5-b249-40b2-bc7e-7ad517887fb8","system_id":"levelo_inurba_marseille","lat":43.27503,"lon":5.42437,"is_reserved":false,"is_disabled":false,"rental_uris":{"android":"levelo://app?vid=075fcdf5-b249-40b2-bc7e-7ad517887fb8","ios":"levelo://app?vid=075fcdf5-b249-40b2-bc7e-7ad517887fb8"},"vehicle_type_id":"4","last_reported":1744744084,"current_range_meters":12000,"station_id":"ce4bhn92rcd13ifvqgrg","pricing_plan_id":"cebpf4jnsgd1na2vs0mg"},{"bike_id":"40b7e8d3-9afe-49be-9aed-ec6238a0df76","system_id":"levelo_inurba_marseille","lat":43.31163,"lon":5.38726,"is_reserved":false,"is_disabled":false,"rental_uris":{"android":"levelo://app?vid=40b7e8d3-9afe-49be-9aed-ec6238a0df76","ios":"levelo://app?vid=40b7e8d3-9afe-49be-9aed-ec6238a0df76"},"vehicle_type_id":"4","last_reported":1744744084,"current_range_meters":12400,"station_id":"ce4bgv12rcd13ifvqcp0","pricing_plan_id":"cebpf4jnsgd1na2vs0mg"},{"bike_id":"982b1a86-cd40-472c-8020-39a4110d0e44","system_id":"levelo_inurba_marseille","lat":43.31064,"lon":5.38357,"is_reserved":false,"is_disabled":false,"rental_uris":{"android":"levelo://app?vid=982b1a86-cd40-472c-8020-39a4110d0e44","ios":"levelo://app?vid=982b1a86-cd40-472c-8020-39a4110d0e44"},"vehicle_type_id":"4","last_reported":1744744084,"current_range_meters":12400,"station_id":"ce4bgv92rcd13ifvqcr0","pricing_plan_id":"cebpf4jnsgd1na2vs0mg"},{"bike_id":"bf1cf425-af5d-407a-8fcb-235585cefabb","system_id":"levelo_inurba_marseille","lat":43.2917,"lon":5.37156,"is_reserved":false,"is_disabled":false,"rental_uris":{"android":"levelo://app?vid=bf1cf425-af5d-407a-8fcb-235585cefabb","ios":"levelo://app?vid=bf1cf425-af5d-407a-8fcb-235585cefabb"},"vehicle_type_id":"4","last_reported":1744744084,"current_range_meters":12400,"station_id":"ce4bha92rcd13ifvqeh0","pricing_plan_id":"cebpf4jnsgd1na2vs0mg"},{"bike_id":"57086b73-59bd-4c71-a95b-7bbf7501cca8","system_id":"levelo_inurba_marseille","lat":43.29006,"lon":5.35618,"is_reserved":false,"is_disabled":false,"rental_uris":{"android":"levelo://app?vid=57086b73-59bd-4c71-a95b-7bbf7501cca8","ios":"levelo://app?vid=57086b73-59bd-4c71-a95b-7bbf7501cca8"},"vehicle_type_id":"4","last_reported":1744744084,"current_range_meters":12400,"station_id":"ce4bhb92rcd13ifvqen0","pricing_plan_id":"cebpf4jnsgd1na2vs0mg"},{"bike_id":"9524304f-b33f-4446-9053-0f09b51a7076","system_id":"levelo_inurba_marseille","lat":43.26057,"lon":5.39406,"is_reserved":false,"is_disabled":false,"rental_uris":{"android":"levelo://app?vid=9524304f-b33f-4446-9053-0f09b51a7076","ios":"levelo://app?vid=9524304f-b33f-4446-9053-0f09b51a7076"},"vehicle_type_id":"4","last_reported":1744744084,"current_range_meters":12800,"station_id":"ce4bhh92rcd13ifvqfj0","pricing_plan_id":"cebpf4jnsgd1na2vs0mg"},{"bike_id":"4563e843-f513-4573-bb2c-991d55d1a34c","system_id":"levelo_inurba_marseille","lat":43.24813,"lon":5.37448,"is_reserved":false,"is_disabled":false,"rental_uris":{"android":"levelo://app?vid=4563e843-f513-4573-bb2c-991d55d1a34c","ios":"levelo://app?vid=4563e843-f513-4573-bb2c-991d55d1a34c"},"vehicle_type_id":"4","last_reported":1744744084,"current_range_meters":12800,"station_id":"ce4bhgh2rcd13ifvqfb0","pricing_plan_id":"cebpf4jnsgd1na2vs0mg"},{"bike_id":"b234a4d9-bf6b-4795-96e0-bf7aed1cb0ef","system_id":"levelo_inurba_marseille","lat":43.24401,"lon":5.37051,"is_reserved":false,"is_disabled":false,"rental_uris":{"android":"levelo://app?vid=b234a4d9-bf6b-4795-96e0-bf7aed1cb0ef","ios":"levelo://app?vid=b234a4d9-bf6b-4795-96e0-bf7aed1cb0ef"},"vehicle_type_id":"4","last_reported":1744744084,"current_range_meters":12800,"station_id":"ce4bhhh2rcd13ifvqfk0","pricing_plan_id":"cebpf4jnsgd1na2vs0mg"},{"bike_id":"dd8f0ff9-117f-4fd9-bc7c-ef5d85c7f322","system_id":"levelo_inurba_marseille","lat":43.31997,"lon":5.38162,"is_reserved":false,"is_disabled":false,"rental_uris":{"android":"levelo://app?vid=dd8f0ff9-117f-4fd9-bc7c-ef5d85c7f322","ios":"levelo://app?vid=dd8f0ff9-117f-4fd9-bc7c-ef5d85c7f322"},"vehicle_type_id":"4","last_reported":1744744084,"current_range_meters":12800,"station_id":"ce4bhr12rcd13ifvqhpg","pricing_plan_id":"cebpf4jnsgd1na2vs0mg"},{"bike_id":"bb41c0a9-1261-4936-b128-0d8a521f281f","system_id":"levelo_inurba_marseille","lat":43.28697,"lon":5.374,"is_reserved":false,"is_disabled":false,"rental_uris":{"android":"levelo://app?vid=bb41c0a9-1261-4936-b128-0d8a521f281f","ios":"levelo://app?vid=bb41c0a9-1261-4936-b128-0d8a521f281f"},"vehicle_type_id":"4","last_reported":1744744084,"current_range_meters":12800,"station_id":"ce4bh3p2rcd13ifvqdq0","pricing_plan_id":"cebpf4jnsgd1na2vs0mg"},{"bike_id":"ac93b782-2c24-4c21-8bf5-8e2a67f7cc1b","system_id":"levelo_inurba_marseille","lat":43.27586,"lon":5.38423,"is_reserved":false,"is_disabled":false,"rental_uris":{"android":"levelo://app?vid=ac93b782-2c24-4c21-8bf5-8e2a67f7cc1b","ios":"levelo://app?vid=ac93b782-2c24-4c21-8bf5-8e2a67f7cc1b"},"vehicle_type_id":"4","last_reported":1744744084,"current_range_meters":12800,"station_id":"ce4bhh92rcd13ifvqfi0","pricing_plan_id":"cebpf4jnsgd1na2vs0mg"},{"bike_id":"d4b18afd-00cb-4154-bfe1-bc0d0245968c","system_id":"levelo_inurba_marseille","lat":43.30878,"lon":5.39624,"is_reserved":false,"is_disabled":false,"rental_uris":{"android":"levelo://app?vid=d4b18afd-00cb-4154-bfe1-bc0d0245968c","ios":"levelo://app?vid=d4b18afd-00cb-4154-bfe1-bc0d0245968c"},"vehicle_type_id":"4","last_reported":1744744084,"current_range_meters":13600,"station_id":"ce4bh012rcd13ifvqcv0","pricing_plan_id":"cebpf4jnsgd1na2vs0mg"},{"bike_id":"8c9323a4-884e-40ce-9c38-3aa09ef74228","system_id":"levelo_inurba_marseille","lat":43.31326,"lon":5.39709,"is_reserved":false,"is_disabled":false,"rental_uris":{"android":"levelo://app?vid=8c9323a4-884e-40ce-9c38-3aa09ef74228","ios":"levelo://app?vid=8c9323a4-884e-40ce-9c38-3aa09ef74228"},"vehicle_type_id":"4","last_reported":1744744084,"current_range_meters":13600,"station_id":"ce4bgvp2rcd13ifvqcu0","pricing_plan_id":"cebpf4jnsgd1na2vs0mg"},{"bike_id":"4bf95762-f540-4a84-9062-209f02f6ed6a","system_id":"levelo_inurba_marseille","lat":43.29268,"lon":5.38427,"is_reserved":false,"is_disabled":true,"rental_uris":{"android":"levelo://app?vid=4bf95762-f540-4a84-9062-209f02f6ed6a","ios":"levelo://app?vid=4bf95762-f540-4a84-9062-209f02f6ed6a"},"vehicle_type_id":"4","last_reported":1744744084,"current_range_meters":13600,"station_id":"ce4bh692rcd13ifvqea0","pricing_plan_id":"cebpf4jnsgd1na2vs0mg"},{"bike_id":"978f93e0-7c36-422d-9406-98e4e6340151","system_id":"levelo_inurba_marseille","lat":43.27922,"lon":5.39584,"is_reserved":false,"is_disabled":false,"rental_uris":{"android":"levelo://app?vid=978f93e0-7c36-422d-9406-98e4e6340151","ios":"levelo://app?vid=978f93e0-7c36-422d-9406-98e4e6340151"},"vehicle_type_id":"4","last_reported":1744744084,"current_range_meters":13600,"station_id":"ce4bhf92rcd13ifvqf40","pricing_plan_id":"cebpf4jnsgd1na2vs0mg"},{"bike_id":"3eb5b6b7-e9e1-4e1f-ab1e-c5961bc4fd70","system_id":"levelo_inurba_marseille","lat":43.29805,"lon":5.38089,"is_reserved":false,"is_disabled":false,"rental_uris":{"android":"levelo://app?vid=3eb5b6b7-e9e1-4e1f-ab1e-c5961bc4fd70","ios":"levelo://app?vid=3eb5b6b7-e9e1-4e1f-ab1e-c5961bc4fd70"},"vehicle_type_id":"4","last_reported":1744744084,"current_range_meters":13600,"station_id":"ce4bgip2rcd13ifvqbb0","pricing_plan_id":"cebpf4jnsgd1na2vs0mg"},{"bike_id":"42e82615-2540-42aa-ad0b-590718c410dc","system_id":"levelo_inurba_marseille","lat":43.29538,"lon":5.38546,"is_reserved":false,"is_disabled":false,"rental_uris":{"android":"levelo://app?vid=42e82615-2540-42aa-ad0b-590718c410dc","ios":"levelo://app?vid=42e82615-2540-42aa-ad0b-590718c410dc"},"vehicle_type_id":"4","last_reported":1744744084,"current_range_meters":13600,"station_id":"ce4bgih2rcd13ifvqba0","pricing_plan_id":"cebpf4jnsgd1na2vs0mg"},{"bike_id":"3f43a50c-05da-4e00-b1e1-be54458029bc","system_id":"levelo_inurba_marseille","lat":43.284771,"lon":5.357758,"is_reserved":false,"is_disabled":false,"rental_uris":{"android":"levelo://app?vid=3f43a50c-05da-4e00-b1e1-be54458029bc","ios":"levelo://app?vid=3f43a50c-05da-4e00-b1e1-be54458029bc"},"vehicle_type_id":"4","last_reported":1744744084,"current_range_meters":13600,"station_id":"ce4bhbp2rcd13ifvqerg","pricing_plan_id":"cebpf4jnsgd1na2vs0mg"},{"bike_id":"a8132d22-4ce6-4e24-9e2c-e02042e4181b","system_id":"levelo_inurba_marseille","lat":43.21754,"lon":5.34602,"is_reserved":false,"is_disabled":false,"rental_uris":{"android":"levelo://app?vid=a8132d22-4ce6-4e24-9e2c-e02042e4181b","ios":"levelo://app?vid=a8132d22-4ce6-4e24-9e2c-e02042e4181b"},"vehicle_type_id":"4","last_reported":1744744084,"current_range_meters":14000,"station_id":"st_cvj6r9ubvosntc0bgbag","pricing_plan_id":"cebpf4jnsgd1na2vs0mg"},{"bike_id":"b32b76a7-565f-47d8-9b16-c22d8d52da8b","system_id":"levelo_inurba_marseille","lat":43.28169,"lon":5.42624,"is_reserved":false,"is_disabled":false,"rental_uris":{"android":"levelo://app?vid=b32b76a7-565f-47d8-9b16-c22d8d52da8b","ios":"levelo://app?vid=b32b76a7-565f-47d8-9b16-c22d8d52da8b"},"vehicle_type_id":"4","last_reported":1744744084,"current_range_meters":14000,"station_id":"ce4bhnh2rcd13ifvqgug","pricing_plan_id":"cebpf4jnsgd1na2vs0mg"},{"bike_id":"cc456307-4e57-4741-8544-99c65b3016d0","system_id":"levelo_inurba_marseille","lat":43.26562,"lon":5.3902,"is_reserved":false,"is_disabled":false,"rental_uris":{"android":"levelo://app?vid=cc456307-4e57-4741-8544-99c65b3016d0","ios":"levelo://app?vid=cc456307-4e57-4741-8544-99c65b3016d0"},"vehicle_type_id":"4","last_reported":1744744084,"current_range_meters":14000,"station_id":"ce4bhe12rcd13ifvqf30","pricing_plan_id":"cebpf4jnsgd1na2vs0mg"},{"bike_id":"0315488a-ccbe-4287-82d0-bcd151af324b","system_id":"levelo_inurba_marseille","lat":43.31327,"lon":5.39713,"is_reserved":false,"is_disabled":false,"rental_uris":{"android":"levelo://app?vid=0315488a-ccbe-4287-82d0-bcd151af324b","ios":"levelo://app?vid=0315488a-ccbe-4287-82d0-bcd151af324b"},"vehicle_type_id":"4","last_reported":1744744084,"current_range_meters":14000,"station_id":"ce4bgvp2rcd13ifvqcu0","pricing_plan_id":"cebpf4jnsgd1na2vs0mg"},{"bike_id":"31ec0d9b-2863-4f99-981c-cc4e7c4c68bd","system_id":"levelo_inurba_marseille","lat":43.29277,"lon":5.38422,"is_reserved":false,"is_disabled":true,"rental_uris":{"android":"levelo://app?vid=31ec0d9b-2863-4f99-981c-cc4e7c4c68bd","ios":"levelo://app?vid=31ec0d9b-2863-4f99-981c-cc4e7c4c68bd"},"vehicle_type_id":"4","last_reported":1744744084,"current_range_meters":14000,"station_id":"ce4bh692rcd13ifvqea0","pricing_plan_id":"cebpf4jnsgd1na2vs0mg"},{"bike_id":"45c6b552-68fd-454d-84d3-cf79221aaee4","system_id":"levelo_inurba_marseille","lat":43.29848,"lon":5.40881,"is_reserved":false,"is_disabled":false,"rental_uris":{"android":"levelo://app?vid=45c6b552-68fd-454d-84d3-cf79221aaee4","ios":"levelo://app?vid=45c6b552-68fd-454d-84d3-cf79221aaee4"},"vehicle_type_id":"4","last_reported":1744744084,"current_range_meters":14000,"station_id":"","pricing_plan_id":"cebpf4jnsgd1na2vs0mg"},{"bike_id":"c51c2dea-c532-4dbf-806a-d7d00501aa97","system_id":"levelo_inurba_marseille","lat":43.30564,"lon":5.36538,"is_reserved":false,"is_disabled":false,"rental_uris":{"android":"levelo://app?vid=c51c2dea-c532-4dbf-806a-d7d00501aa97","ios":"levelo://app?vid=c51c2dea-c532-4dbf-806a-d7d00501aa97"},"vehicle_type_id":"4","last_reported":1744744084,"current_range_meters":14000,"station_id":"ce4bgs12rcd13ifvqcag","pricing_plan_id":"cebpf4jnsgd1na2vs0mg"},{"bike_id":"27687195-8580-4389-a448-21475d4f5664","system_id":"levelo_inurba_marseille","lat":43.29885,"lon":5.38905,"is_reserved":false,"is_disabled":false,"rental_uris":{"android":"levelo://app?vid=27687195-8580-4389-a448-21475d4f5664","ios":"levelo://app?vid=27687195-8580-4389-a448-21475d4f5664"},"vehicle_type_id":"4","last_reported":1744744084,"current_range_meters":14000,"station_id":"ce4bh392rcd13ifvqdl0","pricing_plan_id":"cebpf4jnsgd1na2vs0mg"},{"bike_id":"4b8e9d8b-f41f-4a22-bad5-c46b798a1cd0","system_id":"levelo_inurba_marseille","lat":43.31165,"lon":5.38726,"is_reserved":false,"is_disabled":false,"rental_uris":{"android":"levelo://app?vid=4b8e9d8b-f41f-4a22-bad5-c46b798a1cd0","ios":"levelo://app?vid=4b8e9d8b-f41f-4a22-bad5-c46b798a1cd0"},"vehicle_type_id":"4","last_reported":1744744084,"current_range_meters":14000,"station_id":"ce4bgv12rcd13ifvqcp0","pricing_plan_id":"cebpf4jnsgd1na2vs0mg"},{"bike_id":"2e88876f-85ac-4812-8f89-26d5d7ddc45c","system_id":"levelo_inurba_marseille","lat":43.26938,"lon":5.40253,"is_reserved":false,"is_disabled":false,"rental_uris":{"android":"levelo://app?vid=2e88876f-85ac-4812-8f89-26d5d7ddc45c","ios":"levelo://app?vid=2e88876f-85ac-4812-8f89-26d5d7ddc45c"},"vehicle_type_id":"4","last_reported":1744744084,"current_range_meters":14400,"station_id":"cjm6bp8fraef2m0cb0m0","pricing_plan_id":"cebpf4jnsgd1na2vs0mg"},{"bike_id":"7eacb872-0584-4b06-8fad-feb612d3799a","system_id":"levelo_inurba_marseille","lat":43.29688,"lon":5.38159,"is_reserved":false,"is_disabled":false,"rental_uris":{"android":"levelo://app?vid=7eacb872-0584-4b06-8fad-feb612d3799a","ios":"levelo://app?vid=7eacb872-0584-4b06-8fad-feb612d3799a"},"vehicle_type_id":"4","last_reported":1744744084,"current_range_meters":14400,"station_id":"","pricing_plan_id":"cebpf4jnsgd1na2vs0mg"},{"bike_id":"5a1c9d02-8e29-40df-a727-6082bf52d102","system_id":"levelo_inurba_marseille","lat":43.29573,"lon":5.37518,"is_reserved":false,"is_disabled":false,"rental_uris":{"android":"levelo://app?vid=5a1c9d02-8e29-40df-a727-6082bf52d102","ios":"levelo://app?vid=5a1c9d02-8e29-40df-a727-6082bf52d102"},"vehicle_type_id":"4","last_reported":1744744084,"current_range_meters":14000,"station_id":"ce4bgh92rcd13ifvqb50","pricing_plan_id":"cebpf4jnsgd1na2vs0mg"},{"bike_id":"93872e57-e84b-4efe-b1f0-6d9f342332b9","system_id":"levelo_inurba_marseille","lat":43.24811,"lon":5.37448,"is_reserved":false,"is_disabled":false,"rental_uris":{"android":"levelo://app?vid=93872e57-e84b-4efe-b1f0-6d9f342332b9","ios":"levelo://app?vid=93872e57-e84b-4efe-b1f0-6d9f342332b9"},"vehicle_type_id":"4","last_reported":1744744084,"current_range_meters":14400,"station_id":"ce4bhgh2rcd13ifvqfb0","pricing_plan_id":"cebpf4jnsgd1na2vs0mg"},{"bike_id":"ba85b89a-d406-4f09-b4a2-d1c9dbfe70d6","system_id":"levelo_inurba_marseille","lat":43.23205,"lon":5.39987,"is_reserved":false,"is_disabled":false,"rental_uris":{"android":"levelo://app?vid=ba85b89a-d406-4f09-b4a2-d1c9dbfe70d6","ios":"levelo://app?vid=ba85b89a-d406-4f09-b4a2-d1c9dbfe70d6"},"vehicle_type_id":"4","last_reported":1744744084,"current_range_meters":14800,"station_id":"ce4bhn12rcd13ifvqgqg","pricing_plan_id":"cebpf4jnsgd1na2vs0mg"},{"bike_id":"65939060-bb8f-4a23-b34c-33e31f1b6027","system_id":"levelo_inurba_marseille","lat":43.27183,"lon":5.40982,"is_reserved":false,"is_disabled":false,"rental_uris":{"android":"levelo://app?vid=65939060-bb8f-4a23-b34c-33e31f1b6027","ios":"levelo://app?vid=65939060-bb8f-4a23-b34c-33e31f1b6027"},"vehicle_type_id":"4","last_reported":1744744084,"current_range_meters":14800,"station_id":"ce4bhl12rcd13ifvqgf0","pricing_plan_id":"cebpf4jnsgd1na2vs0mg"},{"bike_id":"4aef0fa6-a0da-4fa2-9099-9fa1ba81c16a","system_id":"levelo_inurba_marseille","lat":43.28178,"lon":5.40441,"is_reserved":false,"is_disabled":false,"rental_uris":{"android":"levelo://app?vid=4aef0fa6-a0da-4fa2-9099-9fa1ba81c16a","ios":"levelo://app?vid=4aef0fa6-a0da-4fa2-9099-9fa1ba81c16a"},"vehicle_type_id":"4","last_reported":1744744084,"current_range_meters":15200,"station_id":"","pricing_plan_id":"cebpf4jnsgd1na2vs0mg"},{"bike_id":"ed05bfd3-9929-4c8d-932a-823ab1bf1fc0","system_id":"levelo_inurba_marseille","lat":43.33726,"lon":5.39189,"is_reserved":false,"is_disabled":false,"rental_uris":{"android":"levelo://app?vid=ed05bfd3-9929-4c8d-932a-823ab1bf1fc0","ios":"levelo://app?vid=ed05bfd3-9929-4c8d-932a-823ab1bf1fc0"},"vehicle_type_id":"4","last_reported":1744744084,"current_range_meters":15200,"station_id":"ce4bhr92rcd13ifvqhsg","pricing_plan_id":"cebpf4jnsgd1na2vs0mg"},{"bike_id":"6dbfe3cf-dca5-4755-9ea8-e38e388c9cb5","system_id":"levelo_inurba_marseille","lat":43.292,"lon":5.39337,"is_reserved":false,"is_disabled":false,"rental_uris":{"android":"levelo://app?vid=6dbfe3cf-dca5-4755-9ea8-e38e388c9cb5","ios":"levelo://app?vid=6dbfe3cf-dca5-4755-9ea8-e38e388c9cb5"},"vehicle_type_id":"4","last_reported":1744744084,"current_range_meters":15200,"station_id":"ce4bh192rcd13ifvqdd0","pricing_plan_id":"cebpf4jnsgd1na2vs0mg"},{"bike_id":"534958ad-6ab3-4d7c-8a52-aecc2b75b380","system_id":"levelo_inurba_marseille","lat":43.30422,"lon":5.39738,"is_reserved":false,"is_disabled":false,"rental_uris":{"android":"levelo://app?vid=534958ad-6ab3-4d7c-8a52-aecc2b75b380","ios":"levelo://app?vid=534958ad-6ab3-4d7c-8a52-aecc2b75b380"},"vehicle_type_id":"4","last_reported":1744744084,"current_range_meters":15200,"station_id":"ce4bh092rcd13ifvqd20","pricing_plan_id":"cebpf4jnsgd1na2vs0mg"},{"bike_id":"5a42249c-950c-48e4-b8b0-9eef70fa9514","system_id":"levelo_inurba_marseille","lat":43.28945,"lon":5.36407,"is_reserved":false,"is_disabled":false,"rental_uris":{"android":"levelo://app?vid=5a42249c-950c-48e4-b8b0-9eef70fa9514","ios":"levelo://app?vid=5a42249c-950c-48e4-b8b0-9eef70fa9514"},"vehicle_type_id":"4","last_reported":1744744084,"current_range_meters":16000,"station_id":"ce4bhc92rcd13ifvqetg","pricing_plan_id":"cebpf4jnsgd1na2vs0mg"},{"bike_id":"55b31d5e-102a-448f-ab81-1d9e5a49a7a7","system_id":"levelo_inurba_marseille","lat":43.29266,"lon":5.38436,"is_reserved":false,"is_disabled":false,"rental_uris":{"android":"levelo://app?vid=55b31d5e-102a-448f-ab81-1d9e5a49a7a7","ios":"levelo://app?vid=55b31d5e-102a-448f-ab81-1d9e5a49a7a7"},"vehicle_type_id":"4","last_reported":1744744084,"current_range_meters":16000,"station_id":"ce4bh692rcd13ifvqea0","pricing_plan_id":"cebpf4jnsgd1na2vs0mg"},{"bike_id":"f14bce7a-b864-41f9-b089-fed11ce290ed","system_id":"levelo_inurba_marseille","lat":43.24076,"lon":5.37729,"is_reserved":false,"is_disabled":false,"rental_uris":{"android":"levelo://app?vid=f14bce7a-b864-41f9-b089-fed11ce290ed","ios":"levelo://app?vid=f14bce7a-b864-41f9-b089-fed11ce290ed"},"vehicle_type_id":"4","last_reported":1744744084,"current_range_meters":16000,"station_id":"ce4bhnp2rcd13ifvqgvg","pricing_plan_id":"cebpf4jnsgd1na2vs0mg"},{"bike_id":"b0b19754-995f-4d4b-bc89-b97285ed65c0","system_id":"levelo_inurba_marseille","lat":43.25554,"lon":5.37598,"is_reserved":false,"is_disabled":false,"rental_uris":{"android":"levelo://app?vid=b0b19754-995f-4d4b-bc89-b97285ed65c0","ios":"levelo://app?vid=b0b19754-995f-4d4b-bc89-b97285ed65c0"},"vehicle_type_id":"4","last_reported":1744744084,"current_range_meters":16000,"station_id":"","pricing_plan_id":"cebpf4jnsgd1na2vs0mg"},{"bike_id":"58f96e4d-6e00-480e-93e6-7b8598095115","system_id":"levelo_inurba_marseille","lat":43.31327,"lon":5.39691,"is_reserved":false,"is_disabled":false,"rental_uris":{"android":"levelo://app?vid=58f96e4d-6e00-480e-93e6-7b8598095115","ios":"levelo://app?vid=58f96e4d-6e00-480e-93e6-7b8598095115"},"vehicle_type_id":"4","last_reported":1744744084,"current_range_meters":16000,"station_id":"ce4bgvp2rcd13ifvqcu0","pricing_plan_id":"cebpf4jnsgd1na2vs0mg"},{"bike_id":"9df4d04c-49c0-4cc9-90fb-8c204c2453c2","system_id":"levelo_inurba_marseille","lat":43.25933,"lon":5.40901,"is_reserved":false,"is_disabled":false,"rental_uris":{"android":"levelo://app?vid=9df4d04c-49c0-4cc9-90fb-8c204c2453c2","ios":"levelo://app?vid=9df4d04c-49c0-4cc9-90fb-8c204c2453c2"},"vehicle_type_id":"4","last_reported":1744744084,"current_range_meters":16000,"station_id":"ce4bhm92rcd13ifvqglg","pricing_plan_id":"cebpf4jnsgd1na2vs0mg"},{"bike_id":"25732aa9-76d1-4c83-b5c5-f80b6e9319f7","system_id":"levelo_inurba_marseille","lat":43.2943,"lon":5.38627,"is_reserved":false,"is_disabled":false,"rental_uris":{"android":"levelo://app?vid=25732aa9-76d1-4c83-b5c5-f80b6e9319f7","ios":"levelo://app?vid=25732aa9-76d1-4c83-b5c5-f80b6e9319f7"},"vehicle_type_id":"4","last_reported":1744744084,"current_range_meters":16000,"station_id":"ce4bh2h2rcd13ifvqdh0","pricing_plan_id":"cebpf4jnsgd1na2vs0mg"},{"bike_id":"a64c1bf8-86bc-4c11-9879-81cd45d3d031","system_id":"levelo_inurba_marseille","lat":43.31352,"lon":5.39712,"is_reserved":false,"is_disabled":true,"rental_uris":{"android":"levelo://app?vid=a64c1bf8-86bc-4c11-9879-81cd45d3d031","ios":"levelo://app?vid=a64c1bf8-86bc-4c11-9879-81cd45d3d031"},"vehicle_type_id":"4","last_reported":1744744084,"current_range_meters":16000,"station_id":"ce4bgvp2rcd13ifvqcu0","pricing_plan_id":"cebpf4jnsgd1na2vs0mg"},{"bike_id":"6bc372e9-b402-41f4-a9c5-f4ad4f270fbb","system_id":"levelo_inurba_marseille","lat":43.30794,"lon":5.38165,"is_reserved":false,"is_disabled":false,"rental_uris":{"android":"levelo://app?vid=6bc372e9-b402-41f4-a9c5-f4ad4f270fbb","ios":"levelo://app?vid=6bc372e9-b402-41f4-a9c5-f4ad4f270fbb"},"vehicle_type_id":"4","last_reported":1744744084,"current_range_meters":16400,"station_id":"ce4bgt12rcd13ifvqce0","pricing_plan_id":"cebpf4jnsgd1na2vs0mg"},{"bike_id":"5986b73f-3ec2-4921-a6cc-7103bcf6c0be","system_id":"levelo_inurba_marseille","lat":43.30138,"lon":5.3879,"is_reserved":false,"is_disabled":false,"rental_uris":{"android":"levelo://app?vid=5986b73f-3ec2-4921-a6cc-7103bcf6c0be","ios":"levelo://app?vid=5986b73f-3ec2-4921-a6cc-7103bcf6c0be"},"vehicle_type_id":"4","last_reported":1744744084,"current_range_meters":16400,"station_id":"ce4bghh2rcd13ifvqb60","pricing_plan_id":"cebpf4jnsgd1na2vs0mg"},{"bike_id":"a910b683-7bf6-43f8-897e-48da1979c253","system_id":"levelo_inurba_marseille","lat":43.27405,"lon":5.39387,"is_reserved":false,"is_disabled":false,"rental_uris":{"android":"levelo://app?vid=a910b683-7bf6-43f8-897e-48da1979c253","ios":"levelo://app?vid=a910b683-7bf6-43f8-897e-48da1979c253"},"vehicle_type_id":"4","last_reported":1744744084,"current_range_meters":16400,"station_id":"ce4bhdp2rcd13ifvqf20","pricing_plan_id":"cebpf4jnsgd1na2vs0mg"},{"bike_id":"98b073a9-6f8e-4345-ad47-65369c5611d5","system_id":"levelo_inurba_marseille","lat":43.28709,"lon":5.37391,"is_reserved":false,"is_disabled":false,"rental_uris":{"android":"levelo://app?vid=98b073a9-6f8e-4345-ad47-65369c5611d5","ios":"levelo://app?vid=98b073a9-6f8e-4345-ad47-65369c5611d5"},"vehicle_type_id":"4","last_reported":1744744084,"current_range_meters":16400,"station_id":"ce4bh3p2rcd13ifvqdq0","pricing_plan_id":"cebpf4jnsgd1na2vs0mg"},{"bike_id":"38868a56-30d5-45ad-9c59-dcf5055a7b48","system_id":"levelo_inurba_marseille","lat":43.27662,"lon":5.3887,"is_reserved":false,"is_disabled":false,"rental_uris":{"android":"levelo://app?vid=38868a56-30d5-45ad-9c59-dcf5055a7b48","ios":"levelo://app?vid=38868a56-30d5-45ad-9c59-dcf5055a7b48"},"vehicle_type_id":"4","last_reported":1744744084,"current_range_meters":16400,"station_id":"ce4bhi12rcd13ifvqfo0","pricing_plan_id":"cebpf4jnsgd1na2vs0mg"},{"bike_id":"35fb265f-b033-4ce3-a066-a3358a3645eb","system_id":"levelo_inurba_marseille","lat":43.28631,"lon":5.35111,"is_reserved":false,"is_disabled":false,"rental_uris":{"android":"levelo://app?vid=35fb265f-b033-4ce3-a066-a3358a3645eb","ios":"levelo://app?vid=35fb265f-b033-4ce3-a066-a3358a3645eb"},"vehicle_type_id":"4","last_reported":1744744084,"current_range_meters":16400,"station_id":"ce4bhch2rcd13ifvqeug","pricing_plan_id":"cebpf4jnsgd1na2vs0mg"},{"bike_id":"94be5298-abd1-4415-8ed6-ff0bb777683c","system_id":"levelo_inurba_marseille","lat":43.29266,"lon":5.38449,"is_reserved":false,"is_disabled":false,"rental_uris":{"android":"levelo://app?vid=94be5298-abd1-4415-8ed6-ff0bb777683c","ios":"levelo://app?vid=94be5298-abd1-4415-8ed6-ff0bb777683c"},"vehicle_type_id":"4","last_reported":1744744084,"current_range_meters":16400,"station_id":"ce4bh692rcd13ifvqea0","pricing_plan_id":"cebpf4jnsgd1na2vs0mg"},{"bike_id":"32914e51-bb2b-4ce3-b069-f3bfc6bc1f01","system_id":"levelo_inurba_marseille","lat":43.28619,"lon":5.351087,"is_reserved":false,"is_disabled":false,"rental_uris":{"android":"levelo://app?vid=32914e51-bb2b-4ce3-b069-f3bfc6bc1f01","ios":"levelo://app?vid=32914e51-bb2b-4ce3-b069-f3bfc6bc1f01"},"vehicle_type_id":"4","last_reported":1744744084,"current_range_meters":16400,"station_id":"ce4bhch2rcd13ifvqeug","pricing_plan_id":"cebpf4jnsgd1na2vs0mg"},{"bike_id":"69bb4b70-dcca-4889-a94a-a4491966ad4b","system_id":"levelo_inurba_marseille","lat":43.247955,"lon":5.374512,"is_reserved":false,"is_disabled":false,"rental_uris":{"android":"levelo://app?vid=69bb4b70-dcca-4889-a94a-a4491966ad4b","ios":"levelo://app?vid=69bb4b70-dcca-4889-a94a-a4491966ad4b"},"vehicle_type_id":"4","last_reported":1744744084,"current_range_meters":16800,"station_id":"ce4bha12rcd13ifvqef0","pricing_plan_id":"cebpf4jnsgd1na2vs0mg"},{"bike_id":"70da46d5-305c-46c7-98c6-a6e867915d7d","system_id":"levelo_inurba_marseille","lat":43.29622,"lon":5.37711,"is_reserved":false,"is_disabled":false,"rental_uris":{"android":"levelo://app?vid=70da46d5-305c-46c7-98c6-a6e867915d7d","ios":"levelo://app?vid=70da46d5-305c-46c7-98c6-a6e867915d7d"},"vehicle_type_id":"4","last_reported":1744744084,"current_range_meters":16800,"station_id":"ce4bgi92rcd13ifvqb90","pricing_plan_id":"cebpf4jnsgd1na2vs0mg"},{"bike_id":"09651454-ba98-489f-84d4-7c0b820526b4","system_id":"levelo_inurba_marseille","lat":43.31215,"lon":5.36819,"is_reserved":false,"is_disabled":true,"rental_uris":{"android":"levelo://app?vid=09651454-ba98-489f-84d4-7c0b820526b4","ios":"levelo://app?vid=09651454-ba98-489f-84d4-7c0b820526b4"},"vehicle_type_id":"4","last_reported":1744744084,"current_range_meters":16800,"station_id":"ce4bgl92rcd13ifvqbq0","pricing_plan_id":"cebpf4jnsgd1na2vs0mg"},{"bike_id":"889e5f0e-836f-416e-9071-263d48ad5753","system_id":"levelo_inurba_marseille","lat":43.2954,"lon":5.38536,"is_reserved":false,"is_disabled":false,"rental_uris":{"android":"levelo://app?vid=889e5f0e-836f-416e-9071-263d48ad5753","ios":"levelo://app?vid=889e5f0e-836f-416e-9071-263d48ad5753"},"vehicle_type_id":"4","last_reported":1744744084,"current_range_meters":16800,"station_id":"ce4bgih2rcd13ifvqba0","pricing_plan_id":"cebpf4jnsgd1na2vs0mg"},{"bike_id":"f85818c8-7106-4f53-997c-669fd6ff6042","system_id":"levelo_inurba_marseille","lat":43.289379,"lon":5.363901,"is_reserved":false,"is_disabled":false,"rental_uris":{"android":"levelo://app?vid=f85818c8-7106-4f53-997c-669fd6ff6042","ios":"levelo://app?vid=f85818c8-7106-4f53-997c-669fd6ff6042"},"vehicle_type_id":"4","last_reported":1744744084,"current_range_meters":16800,"station_id":"ce4bhc92rcd13ifvqetg","pricing_plan_id":"cebpf4jnsgd1na2vs0mg"},{"bike_id":"f7a098b3-954b-4b4a-9684-54abea7119bf","system_id":"levelo_inurba_marseille","lat":43.293092,"lon":5.371846,"is_reserved":false,"is_disabled":false,"rental_uris":{"android":"levelo://app?vid=f7a098b3-954b-4b4a-9684-54abea7119bf","ios":"levelo://app?vid=f7a098b3-954b-4b4a-9684-54abea7119bf"},"vehicle_type_id":"4","last_reported":1744744084,"current_range_meters":16800,"station_id":"ce4bgh92rcd13ifvqb40","pricing_plan_id":"cebpf4jnsgd1na2vs0mg"},{"bike_id":"ef9a3c6b-98ce-42f1-93a1-07ec5fc6435d","system_id":"levelo_inurba_marseille","lat":43.29265,"lon":5.37603,"is_reserved":false,"is_disabled":false,"rental_uris":{"android":"levelo://app?vid=ef9a3c6b-98ce-42f1-93a1-07ec5fc6435d","ios":"levelo://app?vid=ef9a3c6b-98ce-42f1-93a1-07ec5fc6435d"},"vehicle_type_id":"4","last_reported":1744744084,"current_range_meters":16800,"station_id":"ce4bgi12rcd13ifvqb80","pricing_plan_id":"cebpf4jnsgd1na2vs0mg"},{"bike_id":"6f23923f-fc67-460a-b0b8-5119c016d5b0","system_id":"levelo_inurba_marseille","lat":43.26921,"lon":5.38935,"is_reserved":false,"is_disabled":true,"rental_uris":{"android":"levelo://app?vid=6f23923f-fc67-460a-b0b8-5119c016d5b0","ios":"levelo://app?vid=6f23923f-fc67-460a-b0b8-5119c016d5b0"},"vehicle_type_id":"4","last_reported":1744744084,"current_range_meters":16800,"station_id":"ce4bhhh2rcd13ifvqfl0","pricing_plan_id":"cebpf4jnsgd1na2vs0mg"},{"bike_id":"857ff0ed-8bc6-43b2-87aa-4266c1d75649","system_id":"levelo_inurba_marseille","lat":43.3108,"lon":5.40078,"is_reserved":false,"is_disabled":false,"rental_uris":{"android":"levelo://app?vid=857ff0ed-8bc6-43b2-87aa-4266c1d75649","ios":"levelo://app?vid=857ff0ed-8bc6-43b2-87aa-4266c1d75649"},"vehicle_type_id":"4","last_reported":1744744084,"current_range_meters":16800,"station_id":"","pricing_plan_id":"cebpf4jnsgd1na2vs0mg"},{"bike_id":"f62d3159-f7e6-4195-8664-c61d351bb924","system_id":"levelo_inurba_marseille","lat":43.29898,"lon":5.43662,"is_reserved":false,"is_disabled":false,"rental_uris":{"android":"levelo://app?vid=f62d3159-f7e6-4195-8664-c61d351bb924","ios":"levelo://app?vid=f62d3159-f7e6-4195-8664-c61d351bb924"},"vehicle_type_id":"4","last_reported":1744744084,"current_range_meters":16800,"station_id":"ce4bhpp2rcd13ifvqhfg","pricing_plan_id":"cebpf4jnsgd1na2vs0mg"},{"bike_id":"40ebf9d1-e4d4-40fd-a97b-1ec5327c8e55","system_id":"levelo_inurba_marseille","lat":43.2319,"lon":5.39986,"is_reserved":false,"is_disabled":false,"rental_uris":{"android":"levelo://app?vid=40ebf9d1-e4d4-40fd-a97b-1ec5327c8e55","ios":"levelo://app?vid=40ebf9d1-e4d4-40fd-a97b-1ec5327c8e55"},"vehicle_type_id":"4","last_reported":1744744084,"current_range_meters":17200,"station_id":"ce4bhn12rcd13ifvqgqg","pricing_plan_id":"cebpf4jnsgd1na2vs0mg"},{"bike_id":"a8b3e76f-e2d3-4c6f-85eb-db724bb9b291","system_id":"levelo_inurba_marseille","lat":43.25492,"lon":5.37653,"is_reserved":false,"is_disabled":false,"rental_uris":{"android":"levelo://app?vid=a8b3e76f-e2d3-4c6f-85eb-db724bb9b291","ios":"levelo://app?vid=a8b3e76f-e2d3-4c6f-85eb-db724bb9b291"},"vehicle_type_id":"4","last_reported":1744744084,"current_range_meters":17200,"station_id":"ce4bhh12rcd13ifvqff0","pricing_plan_id":"cebpf4jnsgd1na2vs0mg"},{"bike_id":"834ec9e1-9d50-4bee-85ae-d1db335c55e5","system_id":"levelo_inurba_marseille","lat":43.31763,"lon":5.36467,"is_reserved":false,"is_disabled":false,"rental_uris":{"android":"levelo://app?vid=834ec9e1-9d50-4bee-85ae-d1db335c55e5","ios":"levelo://app?vid=834ec9e1-9d50-4bee-85ae-d1db335c55e5"},"vehicle_type_id":"4","last_reported":1744744084,"current_range_meters":17200,"station_id":"","pricing_plan_id":"cebpf4jnsgd1na2vs0mg"},{"bike_id":"4c470df7-4cbb-413f-b587-893637313088","system_id":"levelo_inurba_marseille","lat":43.25135,"lon":5.40312,"is_reserved":false,"is_disabled":false,"rental_uris":{"android":"levelo://app?vid=4c470df7-4cbb-413f-b587-893637313088","ios":"levelo://app?vid=4c470df7-4cbb-413f-b587-893637313088"},"vehicle_type_id":"4","last_reported":1744744084,"current_range_meters":17200,"station_id":"ce4bhlh2rcd13ifvqgig","pricing_plan_id":"cebpf4jnsgd1na2vs0mg"},{"bike_id":"b50816d5-4465-44fb-a186-ceccc98abcb1","system_id":"levelo_inurba_marseille","lat":43.27204,"lon":5.40969,"is_reserved":false,"is_disabled":false,"rental_uris":{"android":"levelo://app?vid=b50816d5-4465-44fb-a186-ceccc98abcb1","ios":"levelo://app?vid=b50816d5-4465-44fb-a186-ceccc98abcb1"},"vehicle_type_id":"4","last_reported":1744744084,"current_range_meters":17200,"station_id":"ce4bhl12rcd13ifvqgf0","pricing_plan_id":"cebpf4jnsgd1na2vs0mg"},{"bike_id":"36d6c5ce-ef2e-4add-9724-30def32785e6","system_id":"levelo_inurba_marseille","lat":43.27811,"lon":5.40719,"is_reserved":false,"is_disabled":false,"rental_uris":{"android":"levelo://app?vid=36d6c5ce-ef2e-4add-9724-30def32785e6","ios":"levelo://app?vid=36d6c5ce-ef2e-4add-9724-30def32785e6"},"vehicle_type_id":"4","last_reported":1744744084,"current_range_meters":17200,"station_id":"ce4bhnh2rcd13ifvqgtg","pricing_plan_id":"cebpf4jnsgd1na2vs0mg"},{"bike_id":"22360d30-36b9-4e98-8651-f94b98f596d4","system_id":"levelo_inurba_marseille","lat":43.30352,"lon":5.41868,"is_reserved":false,"is_disabled":false,"rental_uris":{"android":"levelo://app?vid=22360d30-36b9-4e98-8651-f94b98f596d4","ios":"levelo://app?vid=22360d30-36b9-4e98-8651-f94b98f596d4"},"vehicle_type_id":"4","last_reported":1744744084,"current_range_meters":17200,"station_id":"ce4bhop2rcd13ifvqh7g","pricing_plan_id":"cebpf4jnsgd1na2vs0mg"},{"bike_id":"a0ddb0a5-f7f0-4281-aa27-9e82747cc573","system_id":"levelo_inurba_marseille","lat":43.33781,"lon":5.3749,"is_reserved":false,"is_disabled":false,"rental_uris":{"android":"levelo://app?vid=a0ddb0a5-f7f0-4281-aa27-9e82747cc573","ios":"levelo://app?vid=a0ddb0a5-f7f0-4281-aa27-9e82747cc573"},"vehicle_type_id":"4","last_reported":1744744084,"current_range_meters":17200,"station_id":"","pricing_plan_id":"cebpf4jnsgd1na2vs0mg"},{"bike_id":"15839d76-0879-42d7-9bf8-b60f30413855","system_id":"levelo_inurba_marseille","lat":43.29299,"lon":5.36834,"is_reserved":false,"is_disabled":true,"rental_uris":{"android":"levelo://app?vid=15839d76-0879-42d7-9bf8-b60f30413855","ios":"levelo://app?vid=15839d76-0879-42d7-9bf8-b60f30413855"},"vehicle_type_id":"4","last_reported":1744744084,"current_range_meters":17200,"station_id":"ce4bhbp2rcd13ifvqesg","pricing_plan_id":"cebpf4jnsgd1na2vs0mg"},{"bike_id":"e98619ae-1cbf-4312-993a-cf2e62ab486c","system_id":"levelo_inurba_marseille","lat":43.27907,"lon":5.39586,"is_reserved":false,"is_disabled":false,"rental_uris":{"android":"levelo://app?vid=e98619ae-1cbf-4312-993a-cf2e62ab486c","ios":"levelo://app?vid=e98619ae-1cbf-4312-993a-cf2e62ab486c"},"vehicle_type_id":"4","last_reported":1744744084,"current_range_meters":17600,"station_id":"ce4bhf92rcd13ifvqf40","pricing_plan_id":"cebpf4jnsgd1na2vs0mg"},{"bike_id":"d34693e3-4b7f-4ed5-8929-fa8011f280b8","system_id":"levelo_inurba_marseille","lat":43.28401,"lon":5.37516,"is_reserved":false,"is_disabled":false,"rental_uris":{"android":"levelo://app?vid=d34693e3-4b7f-4ed5-8929-fa8011f280b8","ios":"levelo://app?vid=d34693e3-4b7f-4ed5-8929-fa8011f280b8"},"vehicle_type_id":"4","last_reported":1744744084,"current_range_meters":17600,"station_id":"ce4bh412rcd13ifvqds0","pricing_plan_id":"cebpf4jnsgd1na2vs0mg"},{"bike_id":"0fdde2d8-8704-4cb8-bf3a-05cc3991d677","system_id":"levelo_inurba_marseille","lat":43.292624,"lon":5.38426,"is_reserved":false,"is_disabled":false,"rental_uris":{"android":"levelo://app?vid=0fdde2d8-8704-4cb8-bf3a-05cc3991d677","ios":"levelo://app?vid=0fdde2d8-8704-4cb8-bf3a-05cc3991d677"},"vehicle_type_id":"4","last_reported":1744744084,"current_range_meters":17600,"station_id":"ce4bgi92rcd13ifvqb90","pricing_plan_id":"cebpf4jnsgd1na2vs0mg"},{"bike_id":"a8801c28-b825-4c7b-a7f1-37c3c4c86211","system_id":"levelo_inurba_marseille","lat":43.26056,"lon":5.39398,"is_reserved":false,"is_disabled":false,"rental_uris":{"android":"levelo://app?vid=a8801c28-b825-4c7b-a7f1-37c3c4c86211","ios":"levelo://app?vid=a8801c28-b825-4c7b-a7f1-37c3c4c86211"},"vehicle_type_id":"4","last_reported":1744744084,"current_range_meters":17600,"station_id":"ce4bhh92rcd13ifvqfj0","pricing_plan_id":"cebpf4jnsgd1na2vs0mg"},{"bike_id":"5bb33197-3b78-462f-9f25-375cd830d0ad","system_id":"levelo_inurba_marseille","lat":43.24543,"lon":5.39532,"is_reserved":false,"is_disabled":false,"rental_uris":{"android":"levelo://app?vid=5bb33197-3b78-462f-9f25-375cd830d0ad","ios":"levelo://app?vid=5bb33197-3b78-462f-9f25-375cd830d0ad"},"vehicle_type_id":"4","last_reported":1744744084,"current_range_meters":17600,"station_id":"ce4bhlp2rcd13ifvqgjg","pricing_plan_id":"cebpf4jnsgd1na2vs0mg"},{"bike_id":"8f9d4d7e-4c48-459b-8d7a-83d2d51c6944","system_id":"levelo_inurba_marseille","lat":43.3046,"lon":5.37919,"is_reserved":false,"is_disabled":false,"rental_uris":{"android":"levelo://app?vid=8f9d4d7e-4c48-459b-8d7a-83d2d51c6944","ios":"levelo://app?vid=8f9d4d7e-4c48-459b-8d7a-83d2d51c6944"},"vehicle_type_id":"4","last_reported":1744744084,"current_range_meters":17600,"station_id":"ce4bgup2rcd13ifvqcn0","pricing_plan_id":"cebpf4jnsgd1na2vs0mg"},{"bike_id":"ac970bb3-90dc-4094-8656-acfc9f25827f","system_id":"levelo_inurba_marseille","lat":43.30101,"lon":5.39076,"is_reserved":false,"is_disabled":false,"rental_uris":{"android":"levelo://app?vid=ac970bb3-90dc-4094-8656-acfc9f25827f","ios":"levelo://app?vid=ac970bb3-90dc-4094-8656-acfc9f25827f"},"vehicle_type_id":"4","last_reported":1744744084,"current_range_meters":18000,"station_id":"ce4bh192rcd13ifvqdb0","pricing_plan_id":"cebpf4jnsgd1na2vs0mg"},{"bike_id":"f59a92fa-385e-46f6-8092-4a43ba6a74ff","system_id":"levelo_inurba_marseille","lat":43.30208,"lon":5.39473,"is_reserved":false,"is_disabled":false,"rental_uris":{"android":"levelo://app?vid=f59a92fa-385e-46f6-8092-4a43ba6a74ff","ios":"levelo://app?vid=f59a92fa-385e-46f6-8092-4a43ba6a74ff"},"vehicle_type_id":"4","last_reported":1744744084,"current_range_meters":18000,"station_id":"ce4bh0p2rcd13ifvqd70","pricing_plan_id":"cebpf4jnsgd1na2vs0mg"},{"bike_id":"1fa08082-2cd8-40da-affd-73bcc9f58b7b","system_id":"levelo_inurba_marseille","lat":43.30887,"lon":5.39655,"is_reserved":false,"is_disabled":false,"rental_uris":{"android":"levelo://app?vid=1fa08082-2cd8-40da-affd-73bcc9f58b7b","ios":"levelo://app?vid=1fa08082-2cd8-40da-affd-73bcc9f58b7b"},"vehicle_type_id":"4","last_reported":1744744084,"current_range_meters":18800,"station_id":"ce4bh012rcd13ifvqcv0","pricing_plan_id":"cebpf4jnsgd1na2vs0mg"},{"bike_id":"5554d3d3-945f-4011-be8b-6b67c85541ca","system_id":"levelo_inurba_marseille","lat":43.28155,"lon":5.42651,"is_reserved":false,"is_disabled":false,"rental_uris":{"android":"levelo://app?vid=5554d3d3-945f-4011-be8b-6b67c85541ca","ios":"levelo://app?vid=5554d3d3-945f-4011-be8b-6b67c85541ca"},"vehicle_type_id":"4","last_reported":1744744084,"current_range_meters":18800,"station_id":"ce4bhnh2rcd13ifvqgug","pricing_plan_id":"cebpf4jnsgd1na2vs0mg"},{"bike_id":"f556879c-5c9c-404c-bfda-1bbcb0880b98","system_id":"levelo_inurba_marseille","lat":43.29533,"lon":5.37508,"is_reserved":false,"is_disabled":true,"rental_uris":{"android":"levelo://app?vid=f556879c-5c9c-404c-bfda-1bbcb0880b98","ios":"levelo://app?vid=f556879c-5c9c-404c-bfda-1bbcb0880b98"},"vehicle_type_id":"4","last_reported":1744744084,"current_range_meters":18800,"station_id":"ce4bgkp2rcd13ifvqbmg","pricing_plan_id":"cebpf4jnsgd1na2vs0mg"},{"bike_id":"6bf5a380-400e-4cd6-bc1e-356afac9ee45","system_id":"levelo_inurba_marseille","lat":43.24156,"lon":5.36422,"is_reserved":false,"is_disabled":false,"rental_uris":{"android":"levelo://app?vid=6bf5a380-400e-4cd6-bc1e-356afac9ee45","ios":"levelo://app?vid=6bf5a380-400e-4cd6-bc1e-356afac9ee45"},"vehicle_type_id":"4","last_reported":1744744084,"current_range_meters":18800,"station_id":"cpo36qri1sfpv3e86is0","pricing_plan_id":"cebpf4jnsgd1na2vs0mg"},{"bike_id":"ad954633-cbff-4cf3-b46c-9190d1a5c3ba","system_id":"levelo_inurba_marseille","lat":43.28698,"lon":5.3739,"is_reserved":false,"is_disabled":false,"rental_uris":{"android":"levelo://app?vid=ad954633-cbff-4cf3-b46c-9190d1a5c3ba","ios":"levelo://app?vid=ad954633-cbff-4cf3-b46c-9190d1a5c3ba"},"vehicle_type_id":"4","last_reported":1744744084,"current_range_meters":18800,"station_id":"ce4bh3p2rcd13ifvqdq0","pricing_plan_id":"cebpf4jnsgd1na2vs0mg"},{"bike_id":"1094635f-ae35-41e8-9285-df6ec8188bee","system_id":"levelo_inurba_marseille","lat":43.29874,"lon":5.389,"is_reserved":false,"is_disabled":false,"rental_uris":{"android":"levelo://app?vid=1094635f-ae35-41e8-9285-df6ec8188bee","ios":"levelo://app?vid=1094635f-ae35-41e8-9285-df6ec8188bee"},"vehicle_type_id":"4","last_reported":1744744084,"current_range_meters":18800,"station_id":"ce4bh392rcd13ifvqdl0","pricing_plan_id":"cebpf4jnsgd1na2vs0mg"},{"bike_id":"4c0ede51-6b22-44f8-8575-b86906a20779","system_id":"levelo_inurba_marseille","lat":43.21759,"lon":5.34599,"is_reserved":false,"is_disabled":false,"rental_uris":{"android":"levelo://app?vid=4c0ede51-6b22-44f8-8575-b86906a20779","ios":"levelo://app?vid=4c0ede51-6b22-44f8-8575-b86906a20779"},"vehicle_type_id":"4","last_reported":1744744084,"current_range_meters":18800,"station_id":"st_cvj6r9ubvosntc0bgbag","pricing_plan_id":"cebpf4jnsgd1na2vs0mg"},{"bike_id":"1d42bf00-ac3d-4bcd-b058-d356740cab40","system_id":"levelo_inurba_marseille","lat":43.30805,"lon":5.37667,"is_reserved":false,"is_disabled":false,"rental_uris":{"android":"levelo://app?vid=1d42bf00-ac3d-4bcd-b058-d356740cab40","ios":"levelo://app?vid=1d42bf00-ac3d-4bcd-b058-d356740cab40"},"vehicle_type_id":"4","last_reported":1744744084,"current_range_meters":18800,"station_id":"ce4bgv92rcd13ifvqcq0","pricing_plan_id":"cebpf4jnsgd1na2vs0mg"},{"bike_id":"34b07e5d-f98f-477a-88dc-9238ad87377b","system_id":"levelo_inurba_marseille","lat":43.29254,"lon":5.38455,"is_reserved":false,"is_disabled":false,"rental_uris":{"android":"levelo://app?vid=34b07e5d-f98f-477a-88dc-9238ad87377b","ios":"levelo://app?vid=34b07e5d-f98f-477a-88dc-9238ad87377b"},"vehicle_type_id":"4","last_reported":1744744084,"current_range_meters":18800,"station_id":"ce4bh692rcd13ifvqea0","pricing_plan_id":"cebpf4jnsgd1na2vs0mg"},{"bike_id":"4d4efbb0-c970-4483-a7bf-fa123c3387d5","system_id":"levelo_inurba_marseille","lat":43.29877,"lon":5.39741,"is_reserved":false,"is_disabled":false,"rental_uris":{"android":"levelo://app?vid=4d4efbb0-c970-4483-a7bf-fa123c3387d5","ios":"levelo://app?vid=4d4efbb0-c970-4483-a7bf-fa123c3387d5"},"vehicle_type_id":"4","last_reported":1744744084,"current_range_meters":18800,"station_id":"ce4bh0h2rcd13ifvqd50","pricing_plan_id":"cebpf4jnsgd1na2vs0mg"},{"bike_id":"e7816af6-b51f-4a54-bfd2-977771406aea","system_id":"levelo_inurba_marseille","lat":43.23153,"lon":5.43717,"is_reserved":false,"is_disabled":false,"rental_uris":{"android":"levelo://app?vid=e7816af6-b51f-4a54-bfd2-977771406aea","ios":"levelo://app?vid=e7816af6-b51f-4a54-bfd2-977771406aea"},"vehicle_type_id":"4","last_reported":1744744084,"current_range_meters":18800,"station_id":"ce4bhmp2rcd13ifvqgog","pricing_plan_id":"cebpf4jnsgd1na2vs0mg"},{"bike_id":"fa8b5d88-c56b-4501-99c1-1b5a6dfd1f66","system_id":"levelo_inurba_marseille","lat":43.21189,"lon":5.35075,"is_reserved":false,"is_disabled":false,"rental_uris":{"android":"levelo://app?vid=fa8b5d88-c56b-4501-99c1-1b5a6dfd1f66","ios":"levelo://app?vid=fa8b5d88-c56b-4501-99c1-1b5a6dfd1f66"},"vehicle_type_id":"4","last_reported":1744744084,"current_range_meters":18800,"station_id":"st_cvj6sg6p6f1abm77japg","pricing_plan_id":"cebpf4jnsgd1na2vs0mg"},{"bike_id":"4cc60183-f086-4946-9e35-7a75728daa73","system_id":"levelo_inurba_marseille","lat":43.25721,"lon":5.38667,"is_reserved":false,"is_disabled":false,"rental_uris":{"android":"levelo://app?vid=4cc60183-f086-4946-9e35-7a75728daa73","ios":"levelo://app?vid=4cc60183-f086-4946-9e35-7a75728daa73"},"vehicle_type_id":"4","last_reported":1744744084,"current_range_meters":18800,"station_id":"","pricing_plan_id":"cebpf4jnsgd1na2vs0mg"},{"bike_id":"7684466d-8a32-4552-a249-bb575dd7ed8f","system_id":"levelo_inurba_marseille","lat":43.23186,"lon":5.39982,"is_reserved":false,"is_disabled":false,"rental_uris":{"android":"levelo://app?vid=7684466d-8a32-4552-a249-bb575dd7ed8f","ios":"levelo://app?vid=7684466d-8a32-4552-a249-bb575dd7ed8f"},"vehicle_type_id":"4","last_reported":1744744084,"current_range_meters":19200,"station_id":"ce4bhn12rcd13ifvqgqg","pricing_plan_id":"cebpf4jnsgd1na2vs0mg"},{"bike_id":"ee76b054-8286-40b3-81fc-296cdfe4a09b","system_id":"levelo_inurba_marseille","lat":43.29622,"lon":5.37167,"is_reserved":false,"is_disabled":false,"rental_uris":{"android":"levelo://app?vid=ee76b054-8286-40b3-81fc-296cdfe4a09b","ios":"levelo://app?vid=ee76b054-8286-40b3-81fc-296cdfe4a09b"},"vehicle_type_id":"4","last_reported":1744744084,"current_range_meters":19200,"station_id":"ce4bgnh2rcd13ifvqc0g","pricing_plan_id":"cebpf4jnsgd1na2vs0mg"},{"bike_id":"817164bb-8602-4924-a32b-d3df50c3503c","system_id":"levelo_inurba_marseille","lat":43.30885,"lon":5.39645,"is_reserved":false,"is_disabled":false,"rental_uris":{"android":"levelo://app?vid=817164bb-8602-4924-a32b-d3df50c3503c","ios":"levelo://app?vid=817164bb-8602-4924-a32b-d3df50c3503c"},"vehicle_type_id":"4","last_reported":1744744084,"current_range_meters":19200,"station_id":"ce4bh012rcd13ifvqcv0","pricing_plan_id":"cebpf4jnsgd1na2vs0mg"},{"bike_id":"9e899420-9c70-454a-9658-a7c28bcc6565","system_id":"levelo_inurba_marseille","lat":43.31713,"lon":5.43711,"is_reserved":false,"is_disabled":false,"rental_uris":{"android":"levelo://app?vid=9e899420-9c70-454a-9658-a7c28bcc6565","ios":"levelo://app?vid=9e899420-9c70-454a-9658-a7c28bcc6565"},"vehicle_type_id":"4","last_reported":1744744084,"current_range_meters":19200,"station_id":"ce4bhp92rcd13ifvqhcg","pricing_plan_id":"cebpf4jnsgd1na2vs0mg"},{"bike_id":"b3f6acec-69a4-4dbd-8623-8770636f3ede","system_id":"levelo_inurba_marseille","lat":43.31291,"lon":5.40166,"is_reserved":false,"is_disabled":false,"rental_uris":{"android":"levelo://app?vid=b3f6acec-69a4-4dbd-8623-8770636f3ede","ios":"levelo://app?vid=b3f6acec-69a4-4dbd-8623-8770636f3ede"},"vehicle_type_id":"4","last_reported":1744744084,"current_range_meters":19200,"station_id":"ce4bh092rcd13ifvqd30","pricing_plan_id":"cebpf4jnsgd1na2vs0mg"},{"bike_id":"37af77cd-da0b-4d48-87c4-b37ee2687136","system_id":"levelo_inurba_marseille","lat":43.28864,"lon":5.35948,"is_reserved":false,"is_disabled":false,"rental_uris":{"android":"levelo://app?vid=37af77cd-da0b-4d48-87c4-b37ee2687136","ios":"levelo://app?vid=37af77cd-da0b-4d48-87c4-b37ee2687136"},"vehicle_type_id":"4","last_reported":1744744084,"current_range_meters":19200,"station_id":"","pricing_plan_id":"cebpf4jnsgd1na2vs0mg"},{"bike_id":"1e2a9528-fa25-4b9e-9b6a-eacdd063d9c6","system_id":"levelo_inurba_marseille","lat":43.29765,"lon":5.371337,"is_reserved":false,"is_disabled":false,"rental_uris":{"android":"levelo://app?vid=1e2a9528-fa25-4b9e-9b6a-eacdd063d9c6","ios":"levelo://app?vid=1e2a9528-fa25-4b9e-9b6a-eacdd063d9c6"},"vehicle_type_id":"4","last_reported":1744744084,"current_range_meters":19200,"station_id":"ce4bgop2rcd13ifvqc1g","pricing_plan_id":"cebpf4jnsgd1na2vs0mg"},{"bike_id":"dce739b5-7c7d-4e4a-81ce-b45e0a7e8bbc","system_id":"levelo_inurba_marseille","lat":43.27071,"lon":5.42278,"is_reserved":false,"is_disabled":false,"rental_uris":{"android":"levelo://app?vid=dce739b5-7c7d-4e4a-81ce-b45e0a7e8bbc","ios":"levelo://app?vid=dce739b5-7c7d-4e4a-81ce-b45e0a7e8bbc"},"vehicle_type_id":"4","last_reported":1744744084,"current_range_meters":19200,"station_id":"ce4bhk92rcd13ifvqgb0","pricing_plan_id":"cebpf4jnsgd1na2vs0mg"},{"bike_id":"174c2c9b-2f0a-47fb-998b-9f7260f2f135","system_id":"levelo_inurba_marseille","lat":43.30733,"lon":5.42441,"is_reserved":false,"is_disabled":false,"rental_uris":{"android":"levelo://app?vid=174c2c9b-2f0a-47fb-998b-9f7260f2f135","ios":"levelo://app?vid=174c2c9b-2f0a-47fb-998b-9f7260f2f135"},