{"last_updated":1728807079,"ttl":60,"version":"2.2","data":{"bikes":[{"bike_id":"a88cc3d5-4214-4799-a463-c01d33dbb23e","system_id":"levelo_inurba_marseille","lat":43.25001,"lon":5.38907,"is_reserved":false,"is_disabled":false,"rental_uris":{"android":"levelo://app?vid=a88cc3d5-4214-4799-a463-c01d33dbb23e","ios":"levelo://app?vid=a88cc3d5-4214-4799-a463-c01d33dbb23e"},"vehicle_type_id":"4","last_reported":1728807079,"current_range_meters":16800,"station_id":"ce4bhgp2rcd13ifvqfd0","pricing_plan_id":"cebpf4jnsgd1na2vs0mg"},{"bike_id":"8a36bb65-dd05-437f-adaf-66c35c91f8ff","system_id":"levelo_inurba_marseille","lat":43.2417,"lon":5.36397,"is_reserved":false,"is_disabled":false,"rental_uris":{"android":"levelo://app?vid=8a36bb65-dd05-437f-adaf-66c35c91f8ff","ios":"levelo://app?vid=8a36bb65-dd05-437f-adaf-66c35c91f8ff"},"vehicle_type_id":"4","last_reported":1728807079,"current_range_meters":36400,"station_id":"cpo36qri1sfpv3e86is0","pricing_plan_id":"cebpf4jnsgd1na2vs0mg"},{"bike_id":"cd29e897-373d-4a92-b22f-dbf38723755f","system_id":"levelo_inurba_marseille","lat":43.31518,"lon":5.38047,"is_reserved":false,"is_disabled":false,"rental_uris":{"android":"levelo://app?vid=cd29e897-373d-4a92-b22f-dbf38723755f","ios":"levelo://app?vid=cd29e897-373d-4a92-b22f-dbf38723755f"},"vehicle_type_id":"4","last_reported":1728807079,"current_range_meters":27200,"station_id":"ce4bhsp2rcd13ifvqi50","pricing_plan_id":"cebpf4jnsgd1na2vs0mg"},{"bike_id":"e470a5a0-8947-4479-9afe-e2c3f46cc3da","system_id":"levelo_inurba_marseille","lat":43.29416,"lon":5.38622,"is_reserved":false,"is_disabled":false,"rental_uris":{"android":"levelo://app?vid=e470a5a0-8947-4479-9afe-e2c3f46cc3da","ios":"levelo://app?vid=e470a5a0-8947-4479-9afe-e2c3f46cc3da"},"vehicle_type_id":"4","last_reported":1728807079,"current_range_meters":30400,"station_id":"ce4bh2h2rcd13ifvqdh0","pricing_plan_id":"cebpf4jnsgd1na2vs0mg"},{"bike_id":"480c36bc-dd66-41df-b09a-76735c76211b","system_id":"levelo_inurba_marseille","lat":43.279906,"lon":5.416585,"is_reserved":false,"is_disabled":false,"rental_uris":{"android":"levelo://app?vid=480c36bc-dd66-41df-b09a-76735c76211b","ios":"levelo://app?vid=480c36bc-dd66-41df-b09a-76735c76211b"},"vehicle_type_id":"4","last_reported":1728807079,"current_range_meters":36400,"station_id":"ce4bho12rcd13ifvqh1g","pricing_plan_id":"cebpf4jnsgd1na2vs0mg"},{"bike_id":"d6bcf4b0-6811-4d0a-b3da-63d50e85e127","system_id":"levelo_inurba_marseille","lat":43.281101,"lon":5.378346,"is_reserved":false,"is_disabled":false,"rental_uris":{"android":"levelo://app?vid=d6bcf4b0-6811-4d0a-b3da-63d50e85e127","ios":"levelo://app?vid=d6bcf4b0-6811-4d0a-b3da-63d50e85e127"},"vehicle_type_id":"4","last_reported":1728807079,"current_range_meters":27200,"station_id":"ce4bha12rcd13ifvqee0","pricing_plan_id":"cebpf4jnsgd1na2vs0mg"},{"bike_id":"102471ee-d485-4122-8a0e-2f43e101d172","system_id":"levelo_inurba_marseille","lat":43.28724,"lon":5.36089,"is_reserved":false,"is_disabled":false,"rental_uris":{"android":"levelo://app?vid=102471ee-d485-4122-8a0e-2f43e101d172","ios":"levelo://app?vid=102471ee-d485-4122-8a0e-2f43e101d172"},"vehicle_type_id":"4","last_reported":1728807079,"current_range_meters":36800,"station_id":"cki0cbj6b192h4jlfktg","pricing_plan_id":"cebpf4jnsgd1na2vs0mg"},{"bike_id":"5eed5274-8a1f-4d73-bcad-e2fdf847a1da","system_id":"levelo_inurba_marseille","lat":43.30793,"lon":5.43523,"is_reserved":false,"is_disabled":false,"rental_uris":{"android":"levelo://app?vid=5eed5274-8a1f-4d73-bcad-e2fdf847a1da","ios":"levelo://app?vid=5eed5274-8a1f-4d73-bcad-e2fdf847a1da"},"vehicle_type_id":"4","last_reported":1728807079,"current_range_meters":38800,"station_id":"ce4bhph2rcd13ifvqheg","pricing_plan_id":"cebpf4jnsgd1na2vs0mg"},{"bike_id":"0cd993dc-190c-4d56-bce5-0c30cce473ad","system_id":"levelo_inurba_marseille","lat":43.33021,"lon":5.39034,"is_reserved":false,"is_disabled":false,"rental_uris":{"android":"levelo://app?vid=0cd993dc-190c-4d56-bce5-0c30cce473ad","ios":"levelo://app?vid=0cd993dc-190c-4d56-bce5-0c30cce473ad"},"vehicle_type_id":"4","last_reported":1728807079,"current_range_meters":38800,"station_id":"ce4bhr92rcd13ifvqhrg","pricing_plan_id":"cebpf4jnsgd1na2vs0mg"},{"bike_id":"e49be7dd-1e95-4af1-8431-31f4173ce85d","system_id":"levelo_inurba_marseille","lat":43.32106,"lon":5.3677,"is_reserved":false,"is_disabled":false,"rental_uris":{"android":"levelo://app?vid=e49be7dd-1e95-4af1-8431-31f4173ce85d","ios":"levelo://app?vid=e49be7dd-1e95-4af1-8431-31f4173ce85d"},"vehicle_type_id":"4","last_reported":1728807079,"current_range_meters":37600,"station_id":"ce4bhrh2rcd13ifvqhug","pricing_plan_id":"cebpf4jnsgd1na2vs0mg"},{"bike_id":"6143dcf9-c681-4212-af02-af18735f4829","system_id":"levelo_inurba_marseille","lat":43.28408,"lon":5.37518,"is_reserved":false,"is_disabled":false,"rental_uris":{"android":"levelo://app?vid=6143dcf9-c681-4212-af02-af18735f4829","ios":"levelo://app?vid=6143dcf9-c681-4212-af02-af18735f4829"},"vehicle_type_id":"4","last_reported":1728807079,"current_range_meters":37600,"station_id":"ce4bh412rcd13ifvqds0","pricing_plan_id":"cebpf4jnsgd1na2vs0mg"},{"bike_id":"61432fa4-e69a-43e1-a752-60da459a1e2e","system_id":"levelo_inurba_marseille","lat":43.33726,"lon":5.39181,"is_reserved":false,"is_disabled":false,"rental_uris":{"android":"levelo://app?vid=61432fa4-e69a-43e1-a752-60da459a1e2e","ios":"levelo://app?vid=61432fa4-e69a-43e1-a752-60da459a1e2e"},"vehicle_type_id":"4","last_reported":1728807079,"current_range_meters":33200,"station_id":"ce4bhr92rcd13ifvqhsg","pricing_plan_id":"cebpf4jnsgd1na2vs0mg"},{"bike_id":"ee13116e-270f-4a48-89ca-2015d0557abc","system_id":"levelo_inurba_marseille","lat":43.29561,"lon":5.42294,"is_reserved":false,"is_disabled":false,"rental_uris":{"android":"levelo://app?vid=ee13116e-270f-4a48-89ca-2015d0557abc","ios":"levelo://app?vid=ee13116e-270f-4a48-89ca-2015d0557abc"},"vehicle_type_id":"4","last_reported":1728807079,"current_range_meters":28400,"station_id":"ce4bhph2rcd13ifvqhdg","pricing_plan_id":"cebpf4jnsgd1na2vs0mg"},{"bike_id":"440613dc-20eb-4b51-a343-b6c494f3ed47","system_id":"levelo_inurba_marseille","lat":43.27173,"lon":5.40996,"is_reserved":false,"is_disabled":false,"rental_uris":{"android":"levelo://app?vid=440613dc-20eb-4b51-a343-b6c494f3ed47","ios":"levelo://app?vid=440613dc-20eb-4b51-a343-b6c494f3ed47"},"vehicle_type_id":"4","last_reported":1728807079,"current_range_meters":37600,"station_id":"ce4bhl12rcd13ifvqgf0","pricing_plan_id":"cebpf4jnsgd1na2vs0mg"},{"bike_id":"1ec97b21-f243-4db4-b95a-2e9147c66673","system_id":"levelo_inurba_marseille","lat":43.29003,"lon":5.35609,"is_reserved":false,"is_disabled":false,"rental_uris":{"android":"levelo://app?vid=1ec97b21-f243-4db4-b95a-2e9147c66673","ios":"levelo://app?vid=1ec97b21-f243-4db4-b95a-2e9147c66673"},"vehicle_type_id":"4","last_reported":1728807079,"current_range_meters":36800,"station_id":"ce4bhb92rcd13ifvqen0","pricing_plan_id":"cebpf4jnsgd1na2vs0mg"},{"bike_id":"c5c33660-077d-4f97-b2f0-40691ac09116","system_id":"levelo_inurba_marseille","lat":43.2439,"lon":5.37064,"is_reserved":false,"is_disabled":false,"rental_uris":{"android":"levelo://app?vid=c5c33660-077d-4f97-b2f0-40691ac09116","ios":"levelo://app?vid=c5c33660-077d-4f97-b2f0-40691ac09116"},"vehicle_type_id":"4","last_reported":1728807079,"current_range_meters":35200,"station_id":"ce4bhhh2rcd13ifvqfk0","pricing_plan_id":"cebpf4jnsgd1na2vs0mg"},{"bike_id":"931d1f9c-4cb2-40a2-a856-914a1c55fcf3","system_id":"levelo_inurba_marseille","lat":43.24571,"lon":5.41662,"is_reserved":false,"is_disabled":false,"rental_uris":{"android":"levelo://app?vid=931d1f9c-4cb2-40a2-a856-914a1c55fcf3","ios":"levelo://app?vid=931d1f9c-4cb2-40a2-a856-914a1c55fcf3"},"vehicle_type_id":"4","last_reported":1728807079,"current_range_meters":8000,"station_id":"","pricing_plan_id":"cebpf4jnsgd1na2vs0mg"},{"bike_id":"ffc11bde-e291-4cd9-870b-650b855256a4","system_id":"levelo_inurba_marseille","lat":43.23149,"lon":5.43726,"is_reserved":false,"is_disabled":false,"rental_uris":{"android":"levelo://app?vid=ffc11bde-e291-4cd9-870b-650b855256a4","ios":"levelo://app?vid=ffc11bde-e291-4cd9-870b-650b855256a4"},"vehicle_type_id":"4","last_reported":1728807079,"current_range_meters":28400,"station_id":"ce4bhmp2rcd13ifvqgog","pricing_plan_id":"cebpf4jnsgd1na2vs0mg"},{"bike_id":"5eb74bb7-b9c8-4284-954c-9595665900f1","system_id":"levelo_inurba_marseille","lat":43.3108,"lon":5.4243,"is_reserved":false,"is_disabled":false,"rental_uris":{"android":"levelo://app?vid=5eb74bb7-b9c8-4284-954c-9595665900f1","ios":"levelo://app?vid=5eb74bb7-b9c8-4284-954c-9595665900f1"},"vehicle_type_id":"4","last_reported":1728807079,"current_range_meters":37600,"station_id":"ce4bhp92rcd13ifvqhag","pricing_plan_id":"cebpf4jnsgd1na2vs0mg"},{"bike_id":"1056015d-fafa-4c09-a917-484deef59fc7","system_id":"levelo_inurba_marseille","lat":43.28359,"lon":5.38629,"is_reserved":false,"is_disabled":false,"rental_uris":{"android":"levelo://app?vid=1056015d-fafa-4c09-a917-484deef59fc7","ios":"levelo://app?vid=1056015d-fafa-4c09-a917-484deef59fc7"},"vehicle_type_id":"4","last_reported":1728807079,"current_range_meters":12400,"station_id":"ce4bh492rcd13ifvqdvg","pricing_plan_id":"cebpf4jnsgd1na2vs0mg"},{"bike_id":"e801b4e3-a8c8-4f7c-aab0-7ce64d067833","system_id":"levelo_inurba_marseille","lat":43.30147,"lon":5.38073,"is_reserved":false,"is_disabled":false,"rental_uris":{"android":"levelo://app?vid=e801b4e3-a8c8-4f7c-aab0-7ce64d067833","ios":"levelo://app?vid=e801b4e3-a8c8-4f7c-aab0-7ce64d067833"},"vehicle_type_id":"4","last_reported":1728807079,"current_range_meters":36800,"station_id":"ce4bgjp2rcd13ifvqbh0","pricing_plan_id":"cebpf4jnsgd1na2vs0mg"},{"bike_id":"56529199-b18a-4213-b005-2f4cf2a5c278","system_id":"levelo_inurba_marseille","lat":43.29217,"lon":5.36064,"is_reserved":false,"is_disabled":false,"rental_uris":{"android":"levelo://app?vid=56529199-b18a-4213-b005-2f4cf2a5c278","ios":"levelo://app?vid=56529199-b18a-4213-b005-2f4cf2a5c278"},"vehicle_type_id":"4","last_reported":1728807079,"current_range_meters":22400,"station_id":"ce4bhbh2rcd13ifvqeqg","pricing_plan_id":"cebpf4jnsgd1na2vs0mg"},{"bike_id":"605fb24e-2807-4c08-854f-1b2eb0039a3a","system_id":"levelo_inurba_marseille","lat":43.27828,"lon":5.39218,"is_reserved":false,"is_disabled":false,"rental_uris":{"android":"levelo://app?vid=605fb24e-2807-4c08-854f-1b2eb0039a3a","ios":"levelo://app?vid=605fb24e-2807-4c08-854f-1b2eb0039a3a"},"vehicle_type_id":"4","last_reported":1728807079,"current_range_meters":38400,"station_id":"ce4bhjp2rcd13ifvqga0","pricing_plan_id":"cebpf4jnsgd1na2vs0mg"},{"bike_id":"80ccdb87-c225-40c6-871c-76b9a75a2603","system_id":"levelo_inurba_marseille","lat":43.27571,"lon":5.38423,"is_reserved":false,"is_disabled":false,"rental_uris":{"android":"levelo://app?vid=80ccdb87-c225-40c6-871c-76b9a75a2603","ios":"levelo://app?vid=80ccdb87-c225-40c6-871c-76b9a75a2603"},"vehicle_type_id":"4","last_reported":1728807079,"current_range_meters":38800,"station_id":"ce4bhh92rcd13ifvqfi0","pricing_plan_id":"cebpf4jnsgd1na2vs0mg"},{"bike_id":"dee41c9d-caa5-4b3f-857d-6226540d0c76","system_id":"levelo_inurba_marseille","lat":43.29058,"lon":5.35919,"is_reserved":false,"is_disabled":false,"rental_uris":{"android":"levelo://app?vid=dee41c9d-caa5-4b3f-857d-6226540d0c76","ios":"levelo://app?vid=dee41c9d-caa5-4b3f-857d-6226540d0c76"},"vehicle_type_id":"4","last_reported":1728807079,"current_range_meters":38000,"station_id":"ce4bha92rcd13ifvqeg0","pricing_plan_id":"cebpf4jnsgd1na2vs0mg"},{"bike_id":"0efb5f8a-ae8c-4665-8d55-4d630707f077","system_id":"levelo_inurba_marseille","lat":43.28455,"lon":5.35895,"is_reserved":false,"is_disabled":false,"rental_uris":{"android":"levelo://app?vid=0efb5f8a-ae8c-4665-8d55-4d630707f077","ios":"levelo://app?vid=0efb5f8a-ae8c-4665-8d55-4d630707f077"},"vehicle_type_id":"4","last_reported":1728807079,"current_range_meters":31200,"station_id":"ce4bhah2rcd13ifvqei0","pricing_plan_id":"cebpf4jnsgd1na2vs0mg"},{"bike_id":"6905c5d3-8624-4dea-b3a0-3fea8278ff35","system_id":"levelo_inurba_marseille","lat":43.29561,"lon":5.42295,"is_reserved":false,"is_disabled":false,"rental_uris":{"android":"levelo://app?vid=6905c5d3-8624-4dea-b3a0-3fea8278ff35","ios":"levelo://app?vid=6905c5d3-8624-4dea-b3a0-3fea8278ff35"},"vehicle_type_id":"4","last_reported":1728807079,"current_range_meters":10000,"station_id":"ce4bhph2rcd13ifvqhdg","pricing_plan_id":"cebpf4jnsgd1na2vs0mg"},{"bike_id":"b931e51e-e774-4113-82e5-f8b1d492d8b7","system_id":"levelo_inurba_marseille","lat":43.26059,"lon":5.39397,"is_reserved":false,"is_disabled":false,"rental_uris":{"android":"levelo://app?vid=b931e51e-e774-4113-82e5-f8b1d492d8b7","ios":"levelo://app?vid=b931e51e-e774-4113-82e5-f8b1d492d8b7"},"vehicle_type_id":"4","last_reported":1728807079,"current_range_meters":38000,"station_id":"ce4bhh92rcd13ifvqfj0","pricing_plan_id":"cebpf4jnsgd1na2vs0mg"},{"bike_id":"62d90606-60c8-4be7-8cf0-d84332441bb9","system_id":"levelo_inurba_marseille","lat":43.27674,"lon":5.38906,"is_reserved":false,"is_disabled":false,"rental_uris":{"android":"levelo://app?vid=62d90606-60c8-4be7-8cf0-d84332441bb9","ios":"levelo://app?vid=62d90606-60c8-4be7-8cf0-d84332441bb9"},"vehicle_type_id":"4","last_reported":1728807079,"current_range_meters":0,"station_id":"ce4bhi12rcd13ifvqfo0","pricing_plan_id":"cebpf4jnsgd1na2vs0mg"},{"bike_id":"372c80c0-e97f-485d-bdfa-e40c2384a065","system_id":"levelo_inurba_marseille","lat":43.31701,"lon":5.37761,"is_reserved":false,"is_disabled":false,"rental_uris":{"android":"levelo://app?vid=372c80c0-e97f-485d-bdfa-e40c2384a065","ios":"levelo://app?vid=372c80c0-e97f-485d-bdfa-e40c2384a065"},"vehicle_type_id":"4","last_reported":1728807079,"current_range_meters":38800,"station_id":"ce4bgth2rcd13ifvqch0","pricing_plan_id":"cebpf4jnsgd1na2vs0mg"},{"bike_id":"6b2daff3-9851-4dff-9081-e0ec010599e4","system_id":"levelo_inurba_marseille","lat":43.314515,"lon":5.37384,"is_reserved":false,"is_disabled":false,"rental_uris":{"android":"levelo://app?vid=6b2daff3-9851-4dff-9081-e0ec010599e4","ios":"levelo://app?vid=6b2daff3-9851-4dff-9081-e0ec010599e4"},"vehicle_type_id":"4","last_reported":1728807079,"current_range_meters":33200,"station_id":"","pricing_plan_id":"cebpf4jnsgd1na2vs0mg"},{"bike_id":"6f68d79b-bdbe-417d-a066-1075381457a2","system_id":"levelo_inurba_marseille","lat":43.24665,"lon":5.38158,"is_reserved":false,"is_disabled":false,"rental_uris":{"android":"levelo://app?vid=6f68d79b-bdbe-417d-a066-1075381457a2","ios":"levelo://app?vid=6f68d79b-bdbe-417d-a066-1075381457a2"},"vehicle_type_id":"4","last_reported":1728807079,"current_range_meters":12400,"station_id":"ce4bhih2rcd13ifvqfr0","pricing_plan_id":"cebpf4jnsgd1na2vs0mg"},{"bike_id":"f8fd929e-ef12-4998-8e1d-12522bd05de2","system_id":"levelo_inurba_marseille","lat":43.33015,"lon":5.3904,"is_reserved":false,"is_disabled":false,"rental_uris":{"android":"levelo://app?vid=f8fd929e-ef12-4998-8e1d-12522bd05de2","ios":"levelo://app?vid=f8fd929e-ef12-4998-8e1d-12522bd05de2"},"vehicle_type_id":"4","last_reported":1728807079,"current_range_meters":38000,"station_id":"ce4bhr92rcd13ifvqhrg","pricing_plan_id":"cebpf4jnsgd1na2vs0mg"},{"bike_id":"7fd1cae2-c0ec-41e3-baae-0e095464e86c","system_id":"levelo_inurba_marseille","lat":43.29526,"lon":5.39972,"is_reserved":false,"is_disabled":false,"rental_uris":{"android":"levelo://app?vid=7fd1cae2-c0ec-41e3-baae-0e095464e86c","ios":"levelo://app?vid=7fd1cae2-c0ec-41e3-baae-0e095464e86c"},"vehicle_type_id":"4","last_reported":1728807079,"current_range_meters":11600,"station_id":"","pricing_plan_id":"cebpf4jnsgd1na2vs0mg"},{"bike_id":"7c394d11-2c28-4b7b-8d69-f9e5afbe7dc2","system_id":"levelo_inurba_marseille","lat":43.27801,"lon":5.40709,"is_reserved":false,"is_disabled":false,"rental_uris":{"android":"levelo://app?vid=7c394d11-2c28-4b7b-8d69-f9e5afbe7dc2","ios":"levelo://app?vid=7c394d11-2c28-4b7b-8d69-f9e5afbe7dc2"},"vehicle_type_id":"4","last_reported":1728807079,"current_range_meters":38800,"station_id":"ce4bhnh2rcd13ifvqgtg","pricing_plan_id":"cebpf4jnsgd1na2vs0mg"},{"bike_id":"fa08456f-0316-46ca-b497-6c7d63a7f841","system_id":"levelo_inurba_marseille","lat":43.23193,"lon":5.35556,"is_reserved":false,"is_disabled":false,"rental_uris":{"android":"levelo://app?vid=fa08456f-0316-46ca-b497-6c7d63a7f841","ios":"levelo://app?vid=fa08456f-0316-46ca-b497-6c7d63a7f841"},"vehicle_type_id":"4","last_reported":1728807079,"current_range_meters":36000,"station_id":"ce4bhu92rcd13ifvqi70","pricing_plan_id":"cebpf4jnsgd1na2vs0mg"},{"bike_id":"2abac35f-1b2d-4398-b78b-1bf3385c2eac","system_id":"levelo_inurba_marseille","lat":43.3064,"lon":5.40082,"is_reserved":false,"is_disabled":false,"rental_uris":{"android":"levelo://app?vid=2abac35f-1b2d-4398-b78b-1bf3385c2eac","ios":"levelo://app?vid=2abac35f-1b2d-4398-b78b-1bf3385c2eac"},"vehicle_type_id":"4","last_reported":1728807079,"current_range_meters":38800,"station_id":"ce4bh112rcd13ifvqda0","pricing_plan_id":"cebpf4jnsgd1na2vs0mg"},{"bike_id":"af72dc5b-e02f-4efa-8cbd-41822bfef337","system_id":"levelo_inurba_marseille","lat":43.27991,"lon":5.40015,"is_reserved":false,"is_disabled":false,"rental_uris":{"android":"levelo://app?vid=af72dc5b-e02f-4efa-8cbd-41822bfef337","ios":"levelo://app?vid=af72dc5b-e02f-4efa-8cbd-41822bfef337"},"vehicle_type_id":"4","last_reported":1728807079,"current_range_meters":38800,"station_id":"ce4bho92rcd13ifvqh4g","pricing_plan_id":"cebpf4jnsgd1na2vs0mg"},{"bike_id":"cb1ea2b7-a6ef-43d5-a9c8-7cfc8b55f804","system_id":"levelo_inurba_marseille","lat":43.26205,"lon":5.37444,"is_reserved":false,"is_disabled":false,"rental_uris":{"android":"levelo://app?vid=cb1ea2b7-a6ef-43d5-a9c8-7cfc8b55f804","ios":"levelo://app?vid=cb1ea2b7-a6ef-43d5-a9c8-7cfc8b55f804"},"vehicle_type_id":"4","last_reported":1728807079,"current_range_meters":15200,"station_id":"ce4bhgp2rcd13ifvqfc0","pricing_plan_id":"cebpf4jnsgd1na2vs0mg"},{"bike_id":"86851483-6460-4f2a-8d92-b3b47e5c55aa","system_id":"levelo_inurba_marseille","lat":43.23954,"lon":5.36635,"is_reserved":false,"is_disabled":false,"rental_uris":{"android":"levelo://app?vid=86851483-6460-4f2a-8d92-b3b47e5c55aa","ios":"levelo://app?vid=86851483-6460-4f2a-8d92-b3b47e5c55aa"},"vehicle_type_id":"4","last_reported":1728807079,"current_range_meters":38800,"station_id":"ce4bhi12rcd13ifvqfp0","pricing_plan_id":"cebpf4jnsgd1na2vs0mg"},{"bike_id":"969f0c9f-e24e-4c9e-a033-6bb183585ce3","system_id":"levelo_inurba_marseille","lat":43.30094,"lon":5.37849,"is_reserved":false,"is_disabled":false,"rental_uris":{"android":"levelo://app?vid=969f0c9f-e24e-4c9e-a033-6bb183585ce3","ios":"levelo://app?vid=969f0c9f-e24e-4c9e-a033-6bb183585ce3"},"vehicle_type_id":"4","last_reported":1728807079,"current_range_meters":8000,"station_id":"","pricing_plan_id":"cebpf4jnsgd1na2vs0mg"},{"bike_id":"4f76aab2-1521-4c63-b1e0-3eebf92c0a02","system_id":"levelo_inurba_marseille","lat":43.28958,"lon":5.36372,"is_reserved":false,"is_disabled":false,"rental_uris":{"android":"levelo://app?vid=4f76aab2-1521-4c63-b1e0-3eebf92c0a02","ios":"levelo://app?vid=4f76aab2-1521-4c63-b1e0-3eebf92c0a02"},"vehicle_type_id":"4","last_reported":1728807079,"current_range_meters":16000,"station_id":"ce4bhc92rcd13ifvqetg","pricing_plan_id":"cebpf4jnsgd1na2vs0mg"},{"bike_id":"900d410e-a263-4441-80a1-af67345a66d2","system_id":"levelo_inurba_marseille","lat":43.24388,"lon":5.3707,"is_reserved":false,"is_disabled":false,"rental_uris":{"android":"levelo://app?vid=900d410e-a263-4441-80a1-af67345a66d2","ios":"levelo://app?vid=900d410e-a263-4441-80a1-af67345a66d2"},"vehicle_type_id":"4","last_reported":1728807079,"current_range_meters":14000,"station_id":"ce4bhhh2rcd13ifvqfk0","pricing_plan_id":"cebpf4jnsgd1na2vs0mg"},{"bike_id":"e80b8432-a948-4e0f-bc1a-140358f69ef8","system_id":"levelo_inurba_marseille","lat":43.27992,"lon":5.41664,"is_reserved":false,"is_disabled":false,"rental_uris":{"android":"levelo://app?vid=e80b8432-a948-4e0f-bc1a-140358f69ef8","ios":"levelo://app?vid=e80b8432-a948-4e0f-bc1a-140358f69ef8"},"vehicle_type_id":"4","last_reported":1728807079,"current_range_meters":38400,"station_id":"ce4bho12rcd13ifvqh1g","pricing_plan_id":"cebpf4jnsgd1na2vs0mg"},{"bike_id":"2c08b66a-f2f6-4a1d-b2e0-65007aea605a","system_id":"levelo_inurba_marseille","lat":43.301309,"lon":5.398746,"is_reserved":false,"is_disabled":false,"rental_uris":{"android":"levelo://app?vid=2c08b66a-f2f6-4a1d-b2e0-65007aea605a","ios":"levelo://app?vid=2c08b66a-f2f6-4a1d-b2e0-65007aea605a"},"vehicle_type_id":"4","last_reported":1728807079,"current_range_meters":16800,"station_id":"ce4bh0h2rcd13ifvqd40","pricing_plan_id":"cebpf4jnsgd1na2vs0mg"},{"bike_id":"1d88376c-6674-4e5c-a3c5-0340c59f28ab","system_id":"levelo_inurba_marseille","lat":43.33597,"lon":5.41017,"is_reserved":false,"is_disabled":false,"rental_uris":{"android":"levelo://app?vid=1d88376c-6674-4e5c-a3c5-0340c59f28ab","ios":"levelo://app?vid=1d88376c-6674-4e5c-a3c5-0340c59f28ab"},"vehicle_type_id":"4","last_reported":1728807079,"current_range_meters":38800,"station_id":"ce4bhqh2rcd13ifvqhmg","pricing_plan_id":"cebpf4jnsgd1na2vs0mg"},{"bike_id":"334eb7c5-e537-4478-984a-f14151edc3e5","system_id":"levelo_inurba_marseille","lat":43.31273,"lon":5.40165,"is_reserved":false,"is_disabled":false,"rental_uris":{"android":"levelo://app?vid=334eb7c5-e537-4478-984a-f14151edc3e5","ios":"levelo://app?vid=334eb7c5-e537-4478-984a-f14151edc3e5"},"vehicle_type_id":"4","last_reported":1728807079,"current_range_meters":36800,"station_id":"ce4bh092rcd13ifvqd30","pricing_plan_id":"cebpf4jnsgd1na2vs0mg"},{"bike_id":"ee3d77b2-c4c3-417a-8170-d8edb7edeab8","system_id":"levelo_inurba_marseille","lat":43.22927,"lon":5.35384,"is_reserved":false,"is_disabled":false,"rental_uris":{"android":"levelo://app?vid=ee3d77b2-c4c3-417a-8170-d8edb7edeab8","ios":"levelo://app?vid=ee3d77b2-c4c3-417a-8170-d8edb7edeab8"},"vehicle_type_id":"4","last_reported":1728807079,"current_range_meters":8400,"station_id":"cpo3532slgdg3j2ikp40","pricing_plan_id":"cebpf4jnsgd1na2vs0mg"},{"bike_id":"edbfa98d-d85b-4681-b337-04b7952a4f2a","system_id":"levelo_inurba_marseille","lat":43.30476,"lon":5.37912,"is_reserved":false,"is_disabled":false,"rental_uris":{"android":"levelo://app?vid=edbfa98d-d85b-4681-b337-04b7952a4f2a","ios":"levelo://app?vid=edbfa98d-d85b-4681-b337-04b7952a4f2a"},"vehicle_type_id":"4","last_reported":1728807079,"current_range_meters":38800,"station_id":"ce4bgup2rcd13ifvqcn0","pricing_plan_id":"cebpf4jnsgd1na2vs0mg"},{"bike_id":"b9be809a-d267-49aa-8c7f-d37dd3388355","system_id":"levelo_inurba_marseille","lat":43.33602,"lon":5.41021,"is_reserved":false,"is_disabled":false,"rental_uris":{"android":"levelo://app?vid=b9be809a-d267-49aa-8c7f-d37dd3388355","ios":"levelo://app?vid=b9be809a-d267-49aa-8c7f-d37dd3388355"},"vehicle_type_id":"4","last_reported":1728807079,"current_range_meters":24400,"station_id":"ce4bhqh2rcd13ifvqhmg","pricing_plan_id":"cebpf4jnsgd1na2vs0mg"},{"bike_id":"24b2dc43-14d8-434b-89dd-a9a7b10c39f7","system_id":"levelo_inurba_marseille","lat":43.285207,"lon":5.384121,"is_reserved":false,"is_disabled":false,"rental_uris":{"android":"levelo://app?vid=24b2dc43-14d8-434b-89dd-a9a7b10c39f7","ios":"levelo://app?vid=24b2dc43-14d8-434b-89dd-a9a7b10c39f7"},"vehicle_type_id":"4","last_reported":1728807079,"current_range_meters":38400,"station_id":"ce4bh512rcd13ifvqe3g","pricing_plan_id":"cebpf4jnsgd1na2vs0mg"},{"bike_id":"f6581013-d91f-4a90-9ef7-674f4e86e30d","system_id":"levelo_inurba_marseille","lat":43.26051,"lon":5.39389,"is_reserved":false,"is_disabled":false,"rental_uris":{"android":"levelo://app?vid=f6581013-d91f-4a90-9ef7-674f4e86e30d","ios":"levelo://app?vid=f6581013-d91f-4a90-9ef7-674f4e86e30d"},"vehicle_type_id":"4","last_reported":1728807079,"current_range_meters":38800,"station_id":"ce4bhh92rcd13ifvqfj0","pricing_plan_id":"cebpf4jnsgd1na2vs0mg"},{"bike_id":"4f3cada7-334c-42ab-92ce-fb62c5abc172","system_id":"levelo_inurba_marseille","lat":43.27315,"lon":5.39093,"is_reserved":false,"is_disabled":false,"rental_uris":{"android":"levelo://app?vid=4f3cada7-334c-42ab-92ce-fb62c5abc172","ios":"levelo://app?vid=4f3cada7-334c-42ab-92ce-fb62c5abc172"},"vehicle_type_id":"4","last_reported":1728807079,"current_range_meters":32400,"station_id":"ce4bhgp2rcd13ifvqfe0","pricing_plan_id":"cebpf4jnsgd1na2vs0mg"},{"bike_id":"ce36de1f-2326-4d77-8900-dbcdebdf2190","system_id":"levelo_inurba_marseille","lat":43.29527,"lon":5.37511,"is_reserved":false,"is_disabled":false,"rental_uris":{"android":"levelo://app?vid=ce36de1f-2326-4d77-8900-dbcdebdf2190","ios":"levelo://app?vid=ce36de1f-2326-4d77-8900-dbcdebdf2190"},"vehicle_type_id":"4","last_reported":1728807079,"current_range_meters":29600,"station_id":"ce4bgkp2rcd13ifvqbmg","pricing_plan_id":"cebpf4jnsgd1na2vs0mg"},{"bike_id":"626e3062-ef86-4ae2-8ef6-d9ed5ac07b76","system_id":"levelo_inurba_marseille","lat":43.23963,"lon":5.36632,"is_reserved":false,"is_disabled":false,"rental_uris":{"android":"levelo://app?vid=626e3062-ef86-4ae2-8ef6-d9ed5ac07b76","ios":"levelo://app?vid=626e3062-ef86-4ae2-8ef6-d9ed5ac07b76"},"vehicle_type_id":"4","last_reported":1728807079,"current_range_meters":8800,"station_id":"ce4bhi12rcd13ifvqfp0","pricing_plan_id":"cebpf4jnsgd1na2vs0mg"},{"bike_id":"11d2acba-9213-43b7-bee9-c635a3c3b21c","system_id":"levelo_inurba_marseille","lat":43.265544,"lon":5.372899,"is_reserved":false,"is_disabled":false,"rental_uris":{"android":"levelo://app?vid=11d2acba-9213-43b7-bee9-c635a3c3b21c","ios":"levelo://app?vid=11d2acba-9213-43b7-bee9-c635a3c3b21c"},"vehicle_type_id":"4","last_reported":1728807079,"current_range_meters":37600,"station_id":"ce4bhg12rcd13ifvqf70","pricing_plan_id":"cebpf4jnsgd1na2vs0mg"},{"bike_id":"683f70bb-8ede-4516-a8a4-3219da6c61b4","system_id":"levelo_inurba_marseille","lat":43.31108,"lon":5.37774,"is_reserved":false,"is_disabled":false,"rental_uris":{"android":"levelo://app?vid=683f70bb-8ede-4516-a8a4-3219da6c61b4","ios":"levelo://app?vid=683f70bb-8ede-4516-a8a4-3219da6c61b4"},"vehicle_type_id":"4","last_reported":1728807079,"current_range_meters":38800,"station_id":"ce4bgt92rcd13ifvqcg0","pricing_plan_id":"cebpf4jnsgd1na2vs0mg"},{"bike_id":"1faf5929-d207-48dc-8def-a8b0678810d5","system_id":"levelo_inurba_marseille","lat":43.29217,"lon":5.36063,"is_reserved":false,"is_disabled":false,"rental_uris":{"android":"levelo://app?vid=1faf5929-d207-48dc-8def-a8b0678810d5","ios":"levelo://app?vid=1faf5929-d207-48dc-8def-a8b0678810d5"},"vehicle_type_id":"4","last_reported":1728807079,"current_range_meters":36400,"station_id":"ce4bhbh2rcd13ifvqeqg","pricing_plan_id":"cebpf4jnsgd1na2vs0mg"},{"bike_id":"cec1e807-225d-4073-b5be-e6b643c96f31","system_id":"levelo_inurba_marseille","lat":43.24999,"lon":5.38925,"is_reserved":false,"is_disabled":false,"rental_uris":{"android":"levelo://app?vid=cec1e807-225d-4073-b5be-e6b643c96f31","ios":"levelo://app?vid=cec1e807-225d-4073-b5be-e6b643c96f31"},"vehicle_type_id":"4","last_reported":1728807079,"current_range_meters":15200,"station_id":"ce4bhgp2rcd13ifvqfd0","pricing_plan_id":"cebpf4jnsgd1na2vs0mg"},{"bike_id":"0c5a1e5b-223f-4823-b9d2-d0b796dd3e79","system_id":"levelo_inurba_marseille","lat":43.27991,"lon":5.40033,"is_reserved":false,"is_disabled":false,"rental_uris":{"android":"levelo://app?vid=0c5a1e5b-223f-4823-b9d2-d0b796dd3e79","ios":"levelo://app?vid=0c5a1e5b-223f-4823-b9d2-d0b796dd3e79"},"vehicle_type_id":"4","last_reported":1728807079,"current_range_meters":38400,"station_id":"ce4bho92rcd13ifvqh4g","pricing_plan_id":"cebpf4jnsgd1na2vs0mg"},{"bike_id":"259ce230-49e0-41a0-91ad-6adbca53c3ab","system_id":"levelo_inurba_marseille","lat":43.255,"lon":5.37652,"is_reserved":false,"is_disabled":false,"rental_uris":{"android":"levelo://app?vid=259ce230-49e0-41a0-91ad-6adbca53c3ab","ios":"levelo://app?vid=259ce230-49e0-41a0-91ad-6adbca53c3ab"},"vehicle_type_id":"4","last_reported":1728807079,"current_range_meters":36400,"station_id":"ce4bhh12rcd13ifvqff0","pricing_plan_id":"cebpf4jnsgd1na2vs0mg"},{"bike_id":"c5e82257-13b5-4874-8475-49f2ad298dd8","system_id":"levelo_inurba_marseille","lat":43.308808,"lon":5.371883,"is_reserved":false,"is_disabled":false,"rental_uris":{"android":"levelo://app?vid=c5e82257-13b5-4874-8475-49f2ad298dd8","ios":"levelo://app?vid=c5e82257-13b5-4874-8475-49f2ad298dd8"},"vehicle_type_id":"4","last_reported":1728807079,"current_range_meters":19600,"station_id":"ce4bguh2rcd13ifvqckg","pricing_plan_id":"cebpf4jnsgd1na2vs0mg"},{"bike_id":"fce64ce7-88b3-471b-aac0-f30f3e66d244","system_id":"levelo_inurba_marseille","lat":43.25083,"lon":5.39512,"is_reserved":false,"is_disabled":false,"rental_uris":{"android":"levelo://app?vid=fce64ce7-88b3-471b-aac0-f30f3e66d244","ios":"levelo://app?vid=fce64ce7-88b3-471b-aac0-f30f3e66d244"},"vehicle_type_id":"4","last_reported":1728807079,"current_range_meters":32000,"station_id":"ce4bhm12rcd13ifvqgkg","pricing_plan_id":"cebpf4jnsgd1na2vs0mg"},{"bike_id":"83a4174b-629d-4bc4-836e-304b13210d85","system_id":"levelo_inurba_marseille","lat":43.27985,"lon":5.41663,"is_reserved":false,"is_disabled":false,"rental_uris":{"android":"levelo://app?vid=83a4174b-629d-4bc4-836e-304b13210d85","ios":"levelo://app?vid=83a4174b-629d-4bc4-836e-304b13210d85"},"vehicle_type_id":"4","last_reported":1728807079,"current_range_meters":37600,"station_id":"ce4bho12rcd13ifvqh1g","pricing_plan_id":"cebpf4jnsgd1na2vs0mg"},{"bike_id":"2514e379-ef51-4a82-ad33-9bf543f02120","system_id":"levelo_inurba_marseille","lat":43.29226,"lon":5.36065,"is_reserved":false,"is_disabled":false,"rental_uris":{"android":"levelo://app?vid=2514e379-ef51-4a82-ad33-9bf543f02120","ios":"levelo://app?vid=2514e379-ef51-4a82-ad33-9bf543f02120"},"vehicle_type_id":"4","last_reported":1728807079,"current_range_meters":5600,"station_id":"ce4bhbh2rcd13ifvqeqg","pricing_plan_id":"cebpf4jnsgd1na2vs0mg"},{"bike_id":"3545951b-894d-4495-afdf-84cb7b3b25b3","system_id":"levelo_inurba_marseille","lat":43.23194,"lon":5.35557,"is_reserved":false,"is_disabled":false,"rental_uris":{"android":"levelo://app?vid=3545951b-894d-4495-afdf-84cb7b3b25b3","ios":"levelo://app?vid=3545951b-894d-4495-afdf-84cb7b3b25b3"},"vehicle_type_id":"4","last_reported":1728807079,"current_range_meters":33200,"station_id":"ce4bhu92rcd13ifvqi70","pricing_plan_id":"cebpf4jnsgd1na2vs0mg"},{"bike_id":"94b5b3e5-1466-4cd8-b5b3-d5cbebabce80","system_id":"levelo_inurba_marseille","lat":43.23961,"lon":5.3664,"is_reserved":false,"is_disabled":false,"rental_uris":{"android":"levelo://app?vid=94b5b3e5-1466-4cd8-b5b3-d5cbebabce80","ios":"levelo://app?vid=94b5b3e5-1466-4cd8-b5b3-d5cbebabce80"},"vehicle_type_id":"4","last_reported":1728807079,"current_range_meters":7200,"station_id":"ce4bhi12rcd13ifvqfp0","pricing_plan_id":"cebpf4jnsgd1na2vs0mg"},{"bike_id":"19767c7e-4ed0-457f-bcde-dbef8a4b6308","system_id":"levelo_inurba_marseille","lat":43.24386,"lon":5.3706,"is_reserved":false,"is_disabled":false,"rental_uris":{"android":"levelo://app?vid=19767c7e-4ed0-457f-bcde-dbef8a4b6308","ios":"levelo://app?vid=19767c7e-4ed0-457f-bcde-dbef8a4b6308"},"vehicle_type_id":"4","last_reported":1728807079,"current_range_meters":33600,"station_id":"ce4bhhh2rcd13ifvqfk0","pricing_plan_id":"cebpf4jnsgd1na2vs0mg"},{"bike_id":"72186a32-4279-4a43-a81d-124fd82dcaad","system_id":"levelo_inurba_marseille","lat":43.2937,"lon":5.37859,"is_reserved":false,"is_disabled":false,"rental_uris":{"android":"levelo://app?vid=72186a32-4279-4a43-a81d-124fd82dcaad","ios":"levelo://app?vid=72186a32-4279-4a43-a81d-124fd82dcaad"},"vehicle_type_id":"4","last_reported":1728807079,"current_range_meters":24400,"station_id":"ce4bgjh2rcd13ifvqbf0","pricing_plan_id":"cebpf4jnsgd1na2vs0mg"},{"bike_id":"1537ecea-e9b9-4a42-b542-5cab7b52d620","system_id":"levelo_inurba_marseille","lat":43.292851,"lon":5.368404,"is_reserved":false,"is_disabled":false,"rental_uris":{"android":"levelo://app?vid=1537ecea-e9b9-4a42-b542-5cab7b52d620","ios":"levelo://app?vid=1537ecea-e9b9-4a42-b542-5cab7b52d620"},"vehicle_type_id":"4","last_reported":1728807079,"current_range_meters":20000,"station_id":"","pricing_plan_id":"cebpf4jnsgd1na2vs0mg"},{"bike_id":"2f4a2839-6a1d-4c40-a9e4-7c149600b5a3","system_id":"levelo_inurba_marseille","lat":43.266785,"lon":5.382707,"is_reserved":false,"is_disabled":false,"rental_uris":{"android":"levelo://app?vid=2f4a2839-6a1d-4c40-a9e4-7c149600b5a3","ios":"levelo://app?vid=2f4a2839-6a1d-4c40-a9e4-7c149600b5a3"},"vehicle_type_id":"4","last_reported":1728807079,"current_range_meters":37600,"station_id":"ce4bhg92rcd13ifvqf90","pricing_plan_id":"cebpf4jnsgd1na2vs0mg"},{"bike_id":"ddd8071c-e197-43f6-b7d5-51b8315e08bd","system_id":"levelo_inurba_marseille","lat":43.23189,"lon":5.35553,"is_reserved":false,"is_disabled":false,"rental_uris":{"android":"levelo://app?vid=ddd8071c-e197-43f6-b7d5-51b8315e08bd","ios":"levelo://app?vid=ddd8071c-e197-43f6-b7d5-51b8315e08bd"},"vehicle_type_id":"4","last_reported":1728807079,"current_range_meters":16000,"station_id":"ce4bhu92rcd13ifvqi70","pricing_plan_id":"cebpf4jnsgd1na2vs0mg"},{"bike_id":"d1688d40-8c77-45b4-8d88-70925da1898b","system_id":"levelo_inurba_marseille","lat":43.284,"lon":5.37525,"is_reserved":false,"is_disabled":false,"rental_uris":{"android":"levelo://app?vid=d1688d40-8c77-45b4-8d88-70925da1898b","ios":"levelo://app?vid=d1688d40-8c77-45b4-8d88-70925da1898b"},"vehicle_type_id":"4","last_reported":1728807079,"current_range_meters":37600,"station_id":"ce4bh412rcd13ifvqds0","pricing_plan_id":"cebpf4jnsgd1na2vs0mg"},{"bike_id":"25ed2710-8c35-44e6-81fd-8fc7cf6b54a8","system_id":"levelo_inurba_marseille","lat":43.274948,"lon":5.424466,"is_reserved":false,"is_disabled":false,"rental_uris":{"android":"levelo://app?vid=25ed2710-8c35-44e6-81fd-8fc7cf6b54a8","ios":"levelo://app?vid=25ed2710-8c35-44e6-81fd-8fc7cf6b54a8"},"vehicle_type_id":"4","last_reported":1728807079,"current_range_meters":22000,"station_id":"ce4bhn92rcd13ifvqgrg","pricing_plan_id":"cebpf4jnsgd1na2vs0mg"},{"bike_id":"701a46cd-56e8-4593-9151-18ac094e52f4","system_id":"levelo_inurba_marseille","lat":43.28726,"lon":5.36087,"is_reserved":false,"is_disabled":false,"rental_uris":{"android":"levelo://app?vid=701a46cd-56e8-4593-9151-18ac094e52f4","ios":"levelo://app?vid=701a46cd-56e8-4593-9151-18ac094e52f4"},"vehicle_type_id":"4","last_reported":1728807079,"current_range_meters":31200,"station_id":"cki0cbj6b192h4jlfktg","pricing_plan_id":"cebpf4jnsgd1na2vs0mg"},{"bike_id":"fda02240-df65-4d65-bbda-6f7e5d08eaf0","system_id":"levelo_inurba_marseille","lat":43.30413,"lon":5.41293,"is_reserved":false,"is_disabled":false,"rental_uris":{"android":"levelo://app?vid=fda02240-df65-4d65-bbda-6f7e5d08eaf0","ios":"levelo://app?vid=fda02240-df65-4d65-bbda-6f7e5d08eaf0"},"vehicle_type_id":"4","last_reported":1728807079,"current_range_meters":28400,"station_id":"ce4bhop2rcd13ifvqh8g","pricing_plan_id":"cebpf4jnsgd1na2vs0mg"},{"bike_id":"85482c86-edc2-493a-a3a9-3820de066abd","system_id":"levelo_inurba_marseille","lat":43.2922,"lon":5.36069,"is_reserved":false,"is_disabled":false,"rental_uris":{"android":"levelo://app?vid=85482c86-edc2-493a-a3a9-3820de066abd","ios":"levelo://app?vid=85482c86-edc2-493a-a3a9-3820de066abd"},"vehicle_type_id":"4","last_reported":1728807079,"current_range_meters":32400,"station_id":"ce4bhbh2rcd13ifvqeqg","pricing_plan_id":"cebpf4jnsgd1na2vs0mg"},{"bike_id":"03cb69f8-355b-4581-a3ef-870918351202","system_id":"levelo_inurba_marseille","lat":43.29219,"lon":5.36055,"is_reserved":false,"is_disabled":false,"rental_uris":{"android":"levelo://app?vid=03cb69f8-355b-4581-a3ef-870918351202","ios":"levelo://app?vid=03cb69f8-355b-4581-a3ef-870918351202"},"vehicle_type_id":"4","last_reported":1728807079,"current_range_meters":32000,"station_id":"ce4bhbh2rcd13ifvqeqg","pricing_plan_id":"cebpf4jnsgd1na2vs0mg"},{"bike_id":"5fcd241a-2ee4-49ed-a963-5e66485d4fea","system_id":"levelo_inurba_marseille","lat":43.248,"lon":5.37452,"is_reserved":false,"is_disabled":false,"rental_uris":{"android":"levelo://app?vid=5fcd241a-2ee4-49ed-a963-5e66485d4fea","ios":"levelo://app?vid=5fcd241a-2ee4-49ed-a963-5e66485d4fea"},"vehicle_type_id":"4","last_reported":1728807079,"current_range_meters":14800,"station_id":"ce4bhgh2rcd13ifvqfb0","pricing_plan_id":"cebpf4jnsgd1na2vs0mg"},{"bike_id":"5ee10e32-f517-43ca-90c3-669e43f3ba43","system_id":"levelo_inurba_marseille","lat":43.24652,"lon":5.38896,"is_reserved":false,"is_disabled":false,"rental_uris":{"android":"levelo://app?vid=5ee10e32-f517-43ca-90c3-669e43f3ba43","ios":"levelo://app?vid=5ee10e32-f517-43ca-90c3-669e43f3ba43"},"vehicle_type_id":"4","last_reported":1728807079,"current_range_meters":38800,"station_id":"ce4bhg12rcd13ifvqf60","pricing_plan_id":"cebpf4jnsgd1na2vs0mg"},{"bike_id":"9d16dede-d157-4c0c-99f0-22d59b3063a0","system_id":"levelo_inurba_marseille","lat":43.30777,"lon":5.37651,"is_reserved":false,"is_disabled":false,"rental_uris":{"android":"levelo://app?vid=9d16dede-d157-4c0c-99f0-22d59b3063a0","ios":"levelo://app?vid=9d16dede-d157-4c0c-99f0-22d59b3063a0"},"vehicle_type_id":"4","last_reported":1728807079,"current_range_meters":24000,"station_id":"ce4bgv92rcd13ifvqcq0","pricing_plan_id":"cebpf4jnsgd1na2vs0mg"},{"bike_id":"40b44d8e-f609-4e93-af70-be0d0cb2db9d","system_id":"levelo_inurba_marseille","lat":43.29219,"lon":5.36064,"is_reserved":false,"is_disabled":false,"rental_uris":{"android":"levelo://app?vid=40b44d8e-f609-4e93-af70-be0d0cb2db9d","ios":"levelo://app?vid=40b44d8e-f609-4e93-af70-be0d0cb2db9d"},"vehicle_type_id":"4","last_reported":1728807079,"current_range_meters":28400,"station_id":"ce4bhbh2rcd13ifvqeqg","pricing_plan_id":"cebpf4jnsgd1na2vs0mg"},{"bike_id":"e795671b-03a1-4ca0-abc0-41e5563e23d0","system_id":"levelo_inurba_marseille","lat":43.29004,"lon":5.35618,"is_reserved":false,"is_disabled":false,"rental_uris":{"android":"levelo://app?vid=e795671b-03a1-4ca0-abc0-41e5563e23d0","ios":"levelo://app?vid=e795671b-03a1-4ca0-abc0-41e5563e23d0"},"vehicle_type_id":"4","last_reported":1728807079,"current_range_meters":11600,"station_id":"ce4bhb92rcd13ifvqen0","pricing_plan_id":"cebpf4jnsgd1na2vs0mg"},{"bike_id":"8fcdd48a-a9a6-4141-b03b-5906d7e15769","system_id":"levelo_inurba_marseille","lat":43.3095,"lon":5.39039,"is_reserved":false,"is_disabled":false,"rental_uris":{"android":"levelo://app?vid=8fcdd48a-a9a6-4141-b03b-5906d7e15769","ios":"levelo://app?vid=8fcdd48a-a9a6-4141-b03b-5906d7e15769"},"vehicle_type_id":"4","last_reported":1728807079,"current_range_meters":8400,"station_id":"ce4bgup2rcd13ifvqco0","pricing_plan_id":"cebpf4jnsgd1na2vs0mg"},{"bike_id":"967f4c41-ae2f-46d0-8dc2-5c803de3ece1","system_id":"levelo_inurba_marseille","lat":43.30921,"lon":5.40135,"is_reserved":false,"is_disabled":false,"rental_uris":{"android":"levelo://app?vid=967f4c41-ae2f-46d0-8dc2-5c803de3ece1","ios":"levelo://app?vid=967f4c41-ae2f-46d0-8dc2-5c803de3ece1"},"vehicle_type_id":"4","last_reported":1728807079,"current_range_meters":30400,"station_id":"ce4bgvp2rcd13ifvqct0","pricing_plan_id":"cebpf4jnsgd1na2vs0mg"},{"bike_id":"12bc8687-0dde-4c73-bb0c-7d2708f5d8dd","system_id":"levelo_inurba_marseille","lat":43.30273,"lon":5.37697,"is_reserved":false,"is_disabled":false,"rental_uris":{"android":"levelo://app?vid=12bc8687-0dde-4c73-bb0c-7d2708f5d8dd","ios":"levelo://app?vid=12bc8687-0dde-4c73-bb0c-7d2708f5d8dd"},"vehicle_type_id":"4","last_reported":1728807079,"current_range_meters":38800,"station_id":"ce4bguh2rcd13ifvqcj0","pricing_plan_id":"cebpf4jnsgd1na2vs0mg"},{"bike_id":"e3cd8953-9e5a-44ad-a5cd-debf49a539ae","system_id":"levelo_inurba_marseille","lat":43.212553,"lon":5.35445,"is_reserved":false,"is_disabled":false,"rental_uris":{"android":"levelo://app?vid=e3cd8953-9e5a-44ad-a5cd-debf49a539ae","ios":"levelo://app?vid=e3cd8953-9e5a-44ad-a5cd-debf49a539ae"},"vehicle_type_id":"4","last_reported":1728807079,"current_range_meters":22400,"station_id":"","pricing_plan_id":"cebpf4jnsgd1na2vs0mg"},{"bike_id":"c4fbd0f0-b12c-4897-aaf0-bd7178c3daed","system_id":"levelo_inurba_marseille","lat":43.29216,"lon":5.36071,"is_reserved":false,"is_disabled":false,"rental_uris":{"android":"levelo://app?vid=c4fbd0f0-b12c-4897-aaf0-bd7178c3daed","ios":"levelo://app?vid=c4fbd0f0-b12c-4897-aaf0-bd7178c3daed"},"vehicle_type_id":"4","last_reported":1728807079,"current_range_meters":27600,"station_id":"ce4bhbh2rcd13ifvqeqg","pricing_plan_id":"cebpf4jnsgd1na2vs0mg"},{"bike_id":"53481144-5f5c-4acf-9f73-e042e6bba806","system_id":"levelo_inurba_marseille","lat":43.27945,"lon":5.41051,"is_reserved":false,"is_disabled":false,"rental_uris":{"android":"levelo://app?vid=53481144-5f5c-4acf-9f73-e042e6bba806","ios":"levelo://app?vid=53481144-5f5c-4acf-9f73-e042e6bba806"},"vehicle_type_id":"4","last_reported":1728807079,"current_range_meters":38000,"station_id":"ce4bhnp2rcd13ifvqh0g","pricing_plan_id":"cebpf4jnsgd1na2vs0mg"},{"bike_id":"ba7dbaa3-eac1-41e2-9f44-503e0e1aea13","system_id":"levelo_inurba_marseille","lat":43.3206,"lon":5.41552,"is_reserved":false,"is_disabled":false,"rental_uris":{"android":"levelo://app?vid=ba7dbaa3-eac1-41e2-9f44-503e0e1aea13","ios":"levelo://app?vid=ba7dbaa3-eac1-41e2-9f44-503e0e1aea13"},"vehicle_type_id":"4","last_reported":1728807079,"current_range_meters":38800,"station_id":"ce4bhq92rcd13ifvqhkg","pricing_plan_id":"cebpf4jnsgd1na2vs0mg"},{"bike_id":"744d7d46-a030-452d-827a-600610e2a098","system_id":"levelo_inurba_marseille","lat":43.231929,"lon":5.399877,"is_reserved":false,"is_disabled":false,"rental_uris":{"android":"levelo://app?vid=744d7d46-a030-452d-827a-600610e2a098","ios":"levelo://app?vid=744d7d46-a030-452d-827a-600610e2a098"},"vehicle_type_id":"4","last_reported":1728807079,"current_range_meters":35600,"station_id":"ce4bhn12rcd13ifvqgqg","pricing_plan_id":"cebpf4jnsgd1na2vs0mg"},{"bike_id":"30427fb6-000b-4ec9-a91e-d15eaa5000b3","system_id":"levelo_inurba_marseille","lat":43.29214,"lon":5.36049,"is_reserved":false,"is_disabled":false,"rental_uris":{"android":"levelo://app?vid=30427fb6-000b-4ec9-a91e-d15eaa5000b3","ios":"levelo://app?vid=30427fb6-000b-4ec9-a91e-d15eaa5000b3"},"vehicle_type_id":"4","last_reported":1728807079,"current_range_meters":32800,"station_id":"ce4bhbh2rcd13ifvqeqg","pricing_plan_id":"cebpf4jnsgd1na2vs0mg"},{"bike_id":"257d9aa0-54ef-4579-a8d2-ea13214bd520","system_id":"levelo_inurba_marseille","lat":43.231476,"lon":5.43694,"is_reserved":false,"is_disabled":false,"rental_uris":{"android":"levelo://app?vid=257d9aa0-54ef-4579-a8d2-ea13214bd520","ios":"levelo://app?vid=257d9aa0-54ef-4579-a8d2-ea13214bd520"},"vehicle_type_id":"4","last_reported":1728807079,"current_range_meters":16800,"station_id":"ce4bhmp2rcd13ifvqgog","pricing_plan_id":"cebpf4jnsgd1na2vs0mg"},{"bike_id":"e6a8aec1-d448-48fb-b2d3-480453e7edf3","system_id":"levelo_inurba_marseille","lat":43.31694,"lon":5.3981,"is_reserved":false,"is_disabled":false,"rental_uris":{"android":"levelo://app?vid=e6a8aec1-d448-48fb-b2d3-480453e7edf3","ios":"levelo://app?vid=e6a8aec1-d448-48fb-b2d3-480453e7edf3"},"vehicle_type_id":"4","last_reported":1728807079,"current_range_meters":6000,"station_id":"","pricing_plan_id":"cebpf4jnsgd1na2vs0mg"},{"bike_id":"6de01562-8d34-420a-ba98-bd6e6e9936a6","system_id":"levelo_inurba_marseille","lat":43.3204,"lon":5.41549,"is_reserved":false,"is_disabled":false,"rental_uris":{"android":"levelo://app?vid=6de01562-8d34-420a-ba98-bd6e6e9936a6","ios":"levelo://app?vid=6de01562-8d34-420a-ba98-bd6e6e9936a6"},"vehicle_type_id":"4","last_reported":1728807079,"current_range_meters":24400,"station_id":"ce4bhq92rcd13ifvqhkg","pricing_plan_id":"cebpf4jnsgd1na2vs0mg"},{"bike_id":"89793279-1700-4cb1-b883-7aa598b6d464","system_id":"levelo_inurba_marseille","lat":43.30793,"lon":5.43525,"is_reserved":false,"is_disabled":false,"rental_uris":{"android":"levelo://app?vid=89793279-1700-4cb1-b883-7aa598b6d464","ios":"levelo://app?vid=89793279-1700-4cb1-b883-7aa598b6d464"},"vehicle_type_id":"4","last_reported":1728807079,"current_range_meters":38400,"station_id":"ce4bhph2rcd13ifvqheg","pricing_plan_id":"cebpf4jnsgd1na2vs0mg"},{"bike_id":"9936a912-de01-4404-bd89-6b9478a1ad76","system_id":"levelo_inurba_marseille","lat":43.3015,"lon":5.38081,"is_reserved":false,"is_disabled":false,"rental_uris":{"android":"levelo://app?vid=9936a912-de01-4404-bd89-6b9478a1ad76","ios":"levelo://app?vid=9936a912-de01-4404-bd89-6b9478a1ad76"},"vehicle_type_id":"4","last_reported":1728807079,"current_range_meters":10800,"station_id":"ce4bgjp2rcd13ifvqbh0","pricing_plan_id":"cebpf4jnsgd1na2vs0mg"},{"bike_id":"6c88fd04-8064-4b69-af89-437a91515c00","system_id":"levelo_inurba_marseille","lat":43.2846,"lon":5.35887,"is_reserved":false,"is_disabled":false,"rental_uris":{"android":"levelo://app?vid=6c88fd04-8064-4b69-af89-437a91515c00","ios":"levelo://app?vid=6c88fd04-8064-4b69-af89-437a91515c00"},"vehicle_type_id":"4","last_reported":1728807079,"current_range_meters":28800,"station_id":"ce4bhah2rcd13ifvqei0","pricing_plan_id":"cebpf4jnsgd1na2vs0mg"},{"bike_id":"92c1af36-5649-40f5-84ed-a7b062884571","system_id":"levelo_inurba_marseille","lat":43.23965,"lon":5.36639,"is_reserved":false,"is_disabled":false,"rental_uris":{"android":"levelo://app?vid=92c1af36-5649-40f5-84ed-a7b062884571","ios":"levelo://app?vid=92c1af36-5649-40f5-84ed-a7b062884571"},"vehicle_type_id":"4","last_reported":1728807079,"current_range_meters":30000,"station_id":"ce4bhi12rcd13ifvqfp0","pricing_plan_id":"cebpf4jnsgd1na2vs0mg"},{"bike_id":"3b75fe99-810f-40ef-9f84-d5b1cf667dc9","system_id":"levelo_inurba_marseille","lat":43.23147,"lon":5.43707,"is_reserved":false,"is_disabled":false,"rental_uris":{"android":"levelo://app?vid=3b75fe99-810f-40ef-9f84-d5b1cf667dc9","ios":"levelo://app?vid=3b75fe99-810f-40ef-9f84-d5b1cf667dc9"},"vehicle_type_id":"4","last_reported":1728807079,"current_range_meters":25600,"station_id":"ce4bhmp2rcd13ifvqgog","pricing_plan_id":"cebpf4jnsgd1na2vs0mg"},{"bike_id":"6cb5b02c-2401-484a-8b7d-b4d2106d6b08","system_id":"levelo_inurba_marseille","lat":43.23191,"lon":5.35553,"is_reserved":false,"is_disabled":false,"rental_uris":{"android":"levelo://app?vid=6cb5b02c-2401-484a-8b7d-b4d2106d6b08","ios":"levelo://app?vid=6cb5b02c-2401-484a-8b7d-b4d2106d6b08"},"vehicle_type_id":"4","last_reported":1728807079,"current_range_meters":26800,"station_id":"ce4bhu92rcd13ifvqi70","pricing_plan_id":"cebpf4jnsgd1na2vs0mg"},{"bike_id":"262c22d8-1216-4ebf-a2d2-955dad1a6b41","system_id":"levelo_inurba_marseille","lat":43.28832,"lon":5.35849,"is_reserved":false,"is_disabled":false,"rental_uris":{"android":"levelo://app?vid=262c22d8-1216-4ebf-a2d2-955dad1a6b41","ios":"levelo://app?vid=262c22d8-1216-4ebf-a2d2-955dad1a6b41"},"vehicle_type_id":"4","last_reported":1728807079,"current_range_meters":10800,"station_id":"ce4bhb12rcd13ifvqem0","pricing_plan_id":"cebpf4jnsgd1na2vs0mg"},{"bike_id":"f7dd1dc7-fa4b-4758-aac5-4419d54d56ad","system_id":"levelo_inurba_marseille","lat":43.31756,"lon":5.39015,"is_reserved":false,"is_disabled":false,"rental_uris":{"android":"levelo://app?vid=f7dd1dc7-fa4b-4758-aac5-4419d54d56ad","ios":"levelo://app?vid=f7dd1dc7-fa4b-4758-aac5-4419d54d56ad"},"vehicle_type_id":"4","last_reported":1728807079,"current_range_meters":38800,"station_id":"ce4bhqp2rcd13ifvqhng","pricing_plan_id":"cebpf4jnsgd1na2vs0mg"},{"bike_id":"5342387b-13bf-4ecc-b703-417c00eeeeae","system_id":"levelo_inurba_marseille","lat":43.24667,"lon":5.38164,"is_reserved":false,"is_disabled":false,"rental_uris":{"android":"levelo://app?vid=5342387b-13bf-4ecc-b703-417c00eeeeae","ios":"levelo://app?vid=5342387b-13bf-4ecc-b703-417c00eeeeae"},"vehicle_type_id":"4","last_reported":1728807079,"current_range_meters":39200,"station_id":"ce4bhih2rcd13ifvqfr0","pricing_plan_id":"cebpf4jnsgd1na2vs0mg"},{"bike_id":"e2a7e8bf-84ed-4e51-b131-796667592b72","system_id":"levelo_inurba_marseille","lat":43.28938,"lon":5.39625,"is_reserved":false,"is_disabled":false,"rental_uris":{"android":"levelo://app?vid=e2a7e8bf-84ed-4e51-b131-796667592b72","ios":"levelo://app?vid=e2a7e8bf-84ed-4e51-b131-796667592b72"},"vehicle_type_id":"4","last_reported":1728807079,"current_range_meters":36400,"station_id":"ce4bh3h2rcd13ifvqdn0","pricing_plan_id":"cebpf4jnsgd1na2vs0mg"},{"bike_id":"3163f74e-baa3-48f4-be70-4c65b08c2367","system_id":"levelo_inurba_marseille","lat":43.2619,"lon":5.3745,"is_reserved":false,"is_disabled":false,"rental_uris":{"android":"levelo://app?vid=3163f74e-baa3-48f4-be70-4c65b08c2367","ios":"levelo://app?vid=3163f74e-baa3-48f4-be70-4c65b08c2367"},"vehicle_type_id":"4","last_reported":1728807079,"current_range_meters":29600,"station_id":"ce4bhgp2rcd13ifvqfc0","pricing_plan_id":"cebpf4jnsgd1na2vs0mg"},{"bike_id":"2bb0e8f1-58d4-4f84-8581-9e0cbaf7bbf4","system_id":"levelo_inurba_marseille","lat":43.26199,"lon":5.37441,"is_reserved":false,"is_disabled":false,"rental_uris":{"android":"levelo://app?vid=2bb0e8f1-58d4-4f84-8581-9e0cbaf7bbf4","ios":"levelo://app?vid=2bb0e8f1-58d4-4f84-8581-9e0cbaf7bbf4"},"vehicle_type_id":"4","last_reported":1728807079,"current_range_meters":38000,"station_id":"ce4bhgp2rcd13ifvqfc0","pricing_plan_id":"cebpf4jnsgd1na2vs0mg"},{"bike_id":"dbf4f8c9-99b8-4387-a4b7-eb47b9df871d","system_id":"levelo_inurba_marseille","lat":43.2958,"lon":5.36742,"is_reserved":false,"is_disabled":false,"rental_uris":{"android":"levelo://app?vid=dbf4f8c9-99b8-4387-a4b7-eb47b9df871d","ios":"levelo://app?vid=dbf4f8c9-99b8-4387-a4b7-eb47b9df871d"},"vehicle_type_id":"4","last_reported":1728807079,"current_range_meters":34000,"station_id":"ce4bgph2rcd13ifvqc2g","pricing_plan_id":"cebpf4jnsgd1na2vs0mg"},{"bike_id":"dec436c1-d01a-4e4e-a66d-a687a7901d68","system_id":"levelo_inurba_marseille","lat":43.25106,"lon":5.40319,"is_reserved":false,"is_disabled":false,"rental_uris":{"android":"levelo://app?vid=dec436c1-d01a-4e4e-a66d-a687a7901d68","ios":"levelo://app?vid=dec436c1-d01a-4e4e-a66d-a687a7901d68"},"vehicle_type_id":"4","last_reported":1728807079,"current_range_meters":36800,"station_id":"ce4bhlh2rcd13ifvqgig","pricing_plan_id":"cebpf4jnsgd1na2vs0mg"},{"bike_id":"24174b17-9a1a-42fc-b28d-ccdf79ae4c31","system_id":"levelo_inurba_marseille","lat":43.2815,"lon":5.42637,"is_reserved":false,"is_disabled":false,"rental_uris":{"android":"levelo://app?vid=24174b17-9a1a-42fc-b28d-ccdf79ae4c31","ios":"levelo://app?vid=24174b17-9a1a-42fc-b28d-ccdf79ae4c31"},"vehicle_type_id":"4","last_reported":1728807079,"current_range_meters":9200,"station_id":"ce4bhnh2rcd13ifvqgug","pricing_plan_id":"cebpf4jnsgd1na2vs0mg"},{"bike_id":"accb871e-a6d6-4416-b0e7-cca548384eeb","system_id":"levelo_inurba_marseille","lat":43.26543,"lon":5.37298,"is_reserved":false,"is_disabled":false,"rental_uris":{"android":"levelo://app?vid=accb871e-a6d6-4416-b0e7-cca548384eeb","ios":"levelo://app?vid=accb871e-a6d6-4416-b0e7-cca548384eeb"},"vehicle_type_id":"4","last_reported":1728807079,"current_range_meters":34000,"station_id":"ce4bhg12rcd13ifvqf70","pricing_plan_id":"cebpf4jnsgd1na2vs0mg"},{"bike_id":"b73a330a-d417-463b-93f0-d89461813f6e","system_id":"levelo_inurba_marseille","lat":43.255003,"lon":5.376527,"is_reserved":false,"is_disabled":false,"rental_uris":{"android":"levelo://app?vid=b73a330a-d417-463b-93f0-d89461813f6e","ios":"levelo://app?vid=b73a330a-d417-463b-93f0-d89461813f6e"},"vehicle_type_id":"4","last_reported":1728807079,"current_range_meters":25200,"station_id":"ce4bhh12rcd13ifvqff0","pricing_plan_id":"cebpf4jnsgd1na2vs0mg"},{"bike_id":"c191d811-2e8d-4be2-ab6c-9002ff30a24b","system_id":"levelo_inurba_marseille","lat":43.29277,"lon":5.36851,"is_reserved":false,"is_disabled":false,"rental_uris":{"android":"levelo://app?vid=c191d811-2e8d-4be2-ab6c-9002ff30a24b","ios":"levelo://app?vid=c191d811-2e8d-4be2-ab6c-9002ff30a24b"},"vehicle_type_id":"4","last_reported":1728807079,"current_range_meters":37600,"station_id":"ce4bhbp2rcd13ifvqesg","pricing_plan_id":"cebpf4jnsgd1na2vs0mg"},{"bike_id":"2d8cc02b-89ad-4a56-ae14-85fe3df84827","system_id":"levelo_inurba_marseille","lat":43.26194,"lon":5.37447,"is_reserved":false,"is_disabled":false,"rental_uris":{"android":"levelo://app?vid=2d8cc02b-89ad-4a56-ae14-85fe3df84827","ios":"levelo://app?vid=2d8cc02b-89ad-4a56-ae14-85fe3df84827"},"vehicle_type_id":"4","last_reported":1728807079,"current_range_meters":9200,"station_id":"ce4bhgp2rcd13ifvqfc0","pricing_plan_id":"cebpf4jnsgd1na2vs0mg"},{"bike_id":"5bcb25d4-03ca-4ec9-8291-a3375ad99d18","system_id":"levelo_inurba_marseille","lat":43.34145,"lon":5.40902,"is_reserved":false,"is_disabled":false,"rental_uris":{"android":"levelo://app?vid=5bcb25d4-03ca-4ec9-8291-a3375ad99d18","ios":"levelo://app?vid=5bcb25d4-03ca-4ec9-8291-a3375ad99d18"},"vehicle_type_id":"4","last_reported":1728807079,"current_range_meters":37600,"station_id":"ce4bhqh2rcd13ifvqhlg","pricing_plan_id":"cebpf4jnsgd1na2vs0mg"},{"bike_id":"1c7f46ab-9878-4239-9653-d4c2bf952d47","system_id":"levelo_inurba_marseille","lat":43.27057,"lon":5.40258,"is_reserved":false,"is_disabled":false,"rental_uris":{"android":"levelo://app?vid=1c7f46ab-9878-4239-9653-d4c2bf952d47","ios":"levelo://app?vid=1c7f46ab-9878-4239-9653-d4c2bf952d47"},"vehicle_type_id":"4","last_reported":1728807079,"current_range_meters":3600,"station_id":"ce4bhk92rcd13ifvqgc0","pricing_plan_id":"cebpf4jnsgd1na2vs0mg"},{"bike_id":"f463bffd-395b-45c4-87b1-620a763388ae","system_id":"levelo_inurba_marseille","lat":43.25853,"lon":5.39901,"is_reserved":false,"is_disabled":false,"rental_uris":{"android":"levelo://app?vid=f463bffd-395b-45c4-87b1-620a763388ae","ios":"levelo://app?vid=f463bffd-395b-45c4-87b1-620a763388ae"},"vehicle_type_id":"4","last_reported":1728807079,"current_range_meters":32800,"station_id":"ce4bhl92rcd13ifvqghg","pricing_plan_id":"cebpf4jnsgd1na2vs0mg"},{"bike_id":"9d671549-67ad-4eb0-ace0-50f59d8a0c79","system_id":"levelo_inurba_marseille","lat":43.31109,"lon":5.38064,"is_reserved":false,"is_disabled":false,"rental_uris":{"android":"levelo://app?vid=9d671549-67ad-4eb0-ace0-50f59d8a0c79","ios":"levelo://app?vid=9d671549-67ad-4eb0-ace0-50f59d8a0c79"},"vehicle_type_id":"4","last_reported":1728807079,"current_range_meters":25200,"station_id":"ce4bgt92rcd13ifvqcf0","pricing_plan_id":"cebpf4jnsgd1na2vs0mg"},{"bike_id":"019140ae-e316-4d6f-a884-a5f5edd517e4","system_id":"levelo_inurba_marseille","lat":43.29215,"lon":5.36051,"is_reserved":false,"is_disabled":false,"rental_uris":{"android":"levelo://app?vid=019140ae-e316-4d6f-a884-a5f5edd517e4","ios":"levelo://app?vid=019140ae-e316-4d6f-a884-a5f5edd517e4"},"vehicle_type_id":"4","last_reported":1728807079,"current_range_meters":30000,"station_id":"ce4bhbh2rcd13ifvqeqg","pricing_plan_id":"cebpf4jnsgd1na2vs0mg"},{"bike_id":"4e202a28-9ed2-4e65-b539-44866ded665c","system_id":"levelo_inurba_marseille","lat":43.29217,"lon":5.36069,"is_reserved":false,"is_disabled":false,"rental_uris":{"android":"levelo://app?vid=4e202a28-9ed2-4e65-b539-44866ded665c","ios":"levelo://app?vid=4e202a28-9ed2-4e65-b539-44866ded665c"},"vehicle_type_id":"4","last_reported":1728807079,"current_range_meters":38800,"station_id":"ce4bhbh2rcd13ifvqeqg","pricing_plan_id":"cebpf4jnsgd1na2vs0mg"},{"bike_id":"1a093350-b55d-4efe-bb5e-12d5e481af31","system_id":"levelo_inurba_marseille","lat":43.29004,"lon":5.35613,"is_reserved":false,"is_disabled":false,"rental_uris":{"android":"levelo://app?vid=1a093350-b55d-4efe-bb5e-12d5e481af31","ios":"levelo://app?vid=1a093350-b55d-4efe-bb5e-12d5e481af31"},"vehicle_type_id":"4","last_reported":1728807079,"current_range_meters":23200,"station_id":"ce4bhb92rcd13ifvqen0","pricing_plan_id":"cebpf4jnsgd1na2vs0mg"},{"bike_id":"25e59862-8a09-482d-b3a5-7138deb4afc5","system_id":"levelo_inurba_marseille","lat":43.23048,"lon":5.35506,"is_reserved":false,"is_disabled":false,"rental_uris":{"android":"levelo://app?vid=25e59862-8a09-482d-b3a5-7138deb4afc5","ios":"levelo://app?vid=25e59862-8a09-482d-b3a5-7138deb4afc5"},"vehicle_type_id":"4","last_reported":1728807079,"current_range_meters":6400,"station_id":"cpo3342slgdg3j2ifvpg","pricing_plan_id":"cebpf4jnsgd1na2vs0mg"},{"bike_id":"426cb735-bafe-4522-88ed-6d2d00d96787","system_id":"levelo_inurba_marseille","lat":43.28616,"lon":5.35103,"is_reserved":false,"is_disabled":false,"rental_uris":{"android":"levelo://app?vid=426cb735-bafe-4522-88ed-6d2d00d96787","ios":"levelo://app?vid=426cb735-bafe-4522-88ed-6d2d00d96787"},"vehicle_type_id":"4","last_reported":1728807079,"current_range_meters":11200,"station_id":"ce4bhch2rcd13ifvqeug","pricing_plan_id":"cebpf4jnsgd1na2vs0mg"},{"bike_id":"81e6a043-ed21-48b2-b5f1-f14f165151cc","system_id":"levelo_inurba_marseille","lat":43.27991,"lon":5.4166,"is_reserved":false,"is_disabled":false,"rental_uris":{"android":"levelo://app?vid=81e6a043-ed21-48b2-b5f1-f14f165151cc","ios":"levelo://app?vid=81e6a043-ed21-48b2-b5f1-f14f165151cc"},"vehicle_type_id":"4","last_reported":1728807079,"current_range_meters":37600,"station_id":"ce4bho12rcd13ifvqh1g","pricing_plan_id":"cebpf4jnsgd1na2vs0mg"},{"bike_id":"46a4370d-6182-4a1b-bcb1-074ba208b1b1","system_id":"levelo_inurba_marseille","lat":43.31084,"lon":5.4243,"is_reserved":false,"is_disabled":false,"rental_uris":{"android":"levelo://app?vid=46a4370d-6182-4a1b-bcb1-074ba208b1b1","ios":"levelo://app?vid=46a4370d-6182-4a1b-bcb1-074ba208b1b1"},"vehicle_type_id":"4","last_reported":1728807079,"current_range_meters":38800,"station_id":"ce4bhp92rcd13ifvqhag","pricing_plan_id":"cebpf4jnsgd1na2vs0mg"},{"bike_id":"56fa70e5-6305-494f-9cec-11a57f10cfe0","system_id":"levelo_inurba_marseille","lat":43.27201,"lon":5.39179,"is_reserved":false,"is_disabled":false,"rental_uris":{"android":"levelo://app?vid=56fa70e5-6305-494f-9cec-11a57f10cfe0","ios":"levelo://app?vid=56fa70e5-6305-494f-9cec-11a57f10cfe0"},"vehicle_type_id":"4","last_reported":1728807079,"current_range_meters":28800,"station_id":"ce4bhhp2rcd13ifvqfm0","pricing_plan_id":"cebpf4jnsgd1na2vs0mg"},{"bike_id":"b933402b-d1ca-49a8-bbf7-fb19281d941c","system_id":"levelo_inurba_marseille","lat":43.23183,"lon":5.35556,"is_reserved":false,"is_disabled":false,"rental_uris":{"android":"levelo://app?vid=b933402b-d1ca-49a8-bbf7-fb19281d941c","ios":"levelo://app?vid=b933402b-d1ca-49a8-bbf7-fb19281d941c"},"vehicle_type_id":"4","last_reported":1728807079,"current_range_meters":16400,"station_id":"ce4bhu92rcd13ifvqi70","pricing_plan_id":"cebpf4jnsgd1na2vs0mg"},{"bike_id":"e2e70154-1a45-4078-9872-304a786fca1e","system_id":"levelo_inurba_marseille","lat":43.25573,"lon":5.38238,"is_reserved":false,"is_disabled":false,"rental_uris":{"android":"levelo://app?vid=e2e70154-1a45-4078-9872-304a786fca1e","ios":"levelo://app?vid=e2e70154-1a45-4078-9872-304a786fca1e"},"vehicle_type_id":"4","last_reported":1728807079,"current_range_meters":33600,"station_id":"ce4bhih2rcd13ifvqfs0","pricing_plan_id":"cebpf4jnsgd1na2vs0mg"},{"bike_id":"20c8dbf0-db51-4733-b8ec-96d25853c335","system_id":"levelo_inurba_marseille","lat":43.30134,"lon":5.37424,"is_reserved":false,"is_disabled":false,"rental_uris":{"android":"levelo://app?vid=20c8dbf0-db51-4733-b8ec-96d25853c335","ios":"levelo://app?vid=20c8dbf0-db51-4733-b8ec-96d25853c335"},"vehicle_type_id":"4","last_reported":1728807079,"current_range_meters":36400,"station_id":"ce4bgs92rcd13ifvqcc0","pricing_plan_id":"cebpf4jnsgd1na2vs0mg"},{"bike_id":"16c6abc0-4b11-420e-8a04-1556f6ae0e85","system_id":"levelo_inurba_marseille","lat":43.28846,"lon":5.35847,"is_reserved":false,"is_disabled":false,"rental_uris":{"android":"levelo://app?vid=16c6abc0-4b11-420e-8a04-1556f6ae0e85","ios":"levelo://app?vid=16c6abc0-4b11-420e-8a04-1556f6ae0e85"},"vehicle_type_id":"4","last_reported":1728807079,"current_range_meters":36000,"station_id":"ce4bhb12rcd13ifvqem0","pricing_plan_id":"cebpf4jnsgd1na2vs0mg"},{"bike_id":"60767f63-3905-48d6-bbb3-ba84fcb1adec","system_id":"levelo_inurba_marseille","lat":43.29043,"lon":5.35914,"is_reserved":false,"is_disabled":false,"rental_uris":{"android":"levelo://app?vid=60767f63-3905-48d6-bbb3-ba84fcb1adec","ios":"levelo://app?vid=60767f63-3905-48d6-bbb3-ba84fcb1adec"},"vehicle_type_id":"4","last_reported":1728807079,"current_range_meters":36000,"station_id":"ce4bha92rcd13ifvqeg0","pricing_plan_id":"cebpf4jnsgd1na2vs0mg"},{"bike_id":"d8b1ce1d-838b-48bb-86eb-0245b55493ec","system_id":"levelo_inurba_marseille","lat":43.29849,"lon":5.36289,"is_reserved":false,"is_disabled":false,"rental_uris":{"android":"levelo://app?vid=d8b1ce1d-838b-48bb-86eb-0245b55493ec","ios":"levelo://app?vid=d8b1ce1d-838b-48bb-86eb-0245b55493ec"},"vehicle_type_id":"4","last_reported":1728807079,"current_range_meters":32000,"station_id":"ce4bgpp2rcd13ifvqc3g","pricing_plan_id":"cebpf4jnsgd1na2vs0mg"},{"bike_id":"f592b4f9-e9b9-46d4-bd3c-d0d581d7a418","system_id":"levelo_inurba_marseille","lat":43.29271,"lon":5.36846,"is_reserved":false,"is_disabled":false,"rental_uris":{"android":"levelo://app?vid=f592b4f9-e9b9-46d4-bd3c-d0d581d7a418","ios":"levelo://app?vid=f592b4f9-e9b9-46d4-bd3c-d0d581d7a418"},"vehicle_type_id":"4","last_reported":1728807079,"current_range_meters":10000,"station_id":"ce4bhbp2rcd13ifvqesg","pricing_plan_id":"cebpf4jnsgd1na2vs0mg"},{"bike_id":"d751b74f-afbb-4075-ac46-9547555eee0f","system_id":"levelo_inurba_marseille","lat":43.32365,"lon":5.38889,"is_reserved":false,"is_disabled":false,"rental_uris":{"android":"levelo://app?vid=d751b74f-afbb-4075-ac46-9547555eee0f","ios":"levelo://app?vid=d751b74f-afbb-4075-ac46-9547555eee0f"},"vehicle_type_id":"4","last_reported":1728807079,"current_range_meters":16800,"station_id":"ce4bhqp2rcd13ifvqhog","pricing_plan_id":"cebpf4jnsgd1na2vs0mg"},{"bike_id":"4cdb1ae0-80b9-468a-93e8-fa51f8b8195b","system_id":"levelo_inurba_marseille","lat":43.32658,"lon":5.40996,"is_reserved":false,"is_disabled":false,"rental_uris":{"android":"levelo://app?vid=4cdb1ae0-80b9-468a-93e8-fa51f8b8195b","ios":"levelo://app?vid=4cdb1ae0-80b9-468a-93e8-fa51f8b8195b"},"vehicle_type_id":"4","last_reported":1728807079,"current_range_meters":38000,"station_id":"ce4bhpp2rcd13ifvqhgg","pricing_plan_id":"cebpf4jnsgd1na2vs0mg"},{"bike_id":"8bb9088e-9020-46aa-a0c9-6a5fa5404bae","system_id":"levelo_inurba_marseille","lat":43.3054,"lon":5.38428,"is_reserved":false,"is_disabled":false,"rental_uris":{"android":"levelo://app?vid=8bb9088e-9020-46aa-a0c9-6a5fa5404bae","ios":"levelo://app?vid=8bb9088e-9020-46aa-a0c9-6a5fa5404bae"},"vehicle_type_id":"4","last_reported":1728807079,"current_range_meters":36000,"station_id":"ce4bgg92rcd13ifvqb30","pricing_plan_id":"cebpf4jnsgd1na2vs0mg"},{"bike_id":"52b819c4-5ccf-494d-beb6-396a8b34ab58","system_id":"levelo_inurba_marseille","lat":43.27566,"lon":5.38428,"is_reserved":false,"is_disabled":false,"rental_uris":{"android":"levelo://app?vid=52b819c4-5ccf-494d-beb6-396a8b34ab58","ios":"levelo://app?vid=52b819c4-5ccf-494d-beb6-396a8b34ab58"},"vehicle_type_id":"4","last_reported":1728807079,"current_range_meters":38800,"station_id":"ce4bhh92rcd13ifvqfi0","pricing_plan_id":"cebpf4jnsgd1na2vs0mg"},{"bike_id":"dd488bb6-2002-40e1-9ea4-29c41547f763","system_id":"levelo_inurba_marseille","lat":43.28366,"lon":5.38648,"is_reserved":false,"is_disabled":false,"rental_uris":{"android":"levelo://app?vid=dd488bb6-2002-40e1-9ea4-29c41547f763","ios":"levelo://app?vid=dd488bb6-2002-40e1-9ea4-29c41547f763"},"vehicle_type_id":"4","last_reported":1728807079,"current_range_meters":37600,"station_id":"ce4bh492rcd13ifvqdvg","pricing_plan_id":"cebpf4jnsgd1na2vs0mg"},{"bike_id":"ad384203-41b2-41a3-bdd9-e89e71f4a9b5","system_id":"levelo_inurba_marseille","lat":43.24378,"lon":5.37049,"is_reserved":false,"is_disabled":false,"rental_uris":{"android":"levelo://app?vid=ad384203-41b2-41a3-bdd9-e89e71f4a9b5","ios":"levelo://app?vid=ad384203-41b2-41a3-bdd9-e89e71f4a9b5"},"vehicle_type_id":"4","last_reported":1728807079,"current_range_meters":18000,"station_id":"ce4bhhh2rcd13ifvqfk0","pricing_plan_id":"cebpf4jnsgd1na2vs0mg"},{"bike_id":"a8e74d08-702d-4041-8914-b89604cbf21b","system_id":"levelo_inurba_marseille","lat":43.28843,"lon":5.35862,"is_reserved":false,"is_disabled":false,"rental_uris":{"android":"levelo://app?vid=a8e74d08-702d-4041-8914-b89604cbf21b","ios":"levelo://app?vid=a8e74d08-702d-4041-8914-b89604cbf21b"},"vehicle_type_id":"4","last_reported":1728807079,"current_range_meters":24400,"station_id":"ce4bhb12rcd13ifvqem0","pricing_plan_id":"cebpf4jnsgd1na2vs0mg"},{"bike_id":"df347eec-7bcf-4f56-8684-7275a87904b5","system_id":"levelo_inurba_marseille","lat":43.31274,"lon":5.40168,"is_reserved":false,"is_disabled":false,"rental_uris":{"android":"levelo://app?vid=df347eec-7bcf-4f56-8684-7275a87904b5","ios":"levelo://app?vid=df347eec-7bcf-4f56-8684-7275a87904b5"},"vehicle_type_id":"4","last_reported":1728807079,"current_range_meters":21600,"station_id":"ce4bh092rcd13ifvqd30","pricing_plan_id":"cebpf4jnsgd1na2vs0mg"},{"bike_id":"922be445-130b-423a-97a6-dbeed6eb1c41","system_id":"levelo_inurba_marseille","lat":43.31699,"lon":5.37763,"is_reserved":false,"is_disabled":false,"rental_uris":{"android":"levelo://app?vid=922be445-130b-423a-97a6-dbeed6eb1c41","ios":"levelo://app?vid=922be445-130b-423a-97a6-dbeed6eb1c41"},"vehicle_type_id":"4","last_reported":1728807079,"current_range_meters":38800,"station_id":"ce4bgth2rcd13ifvqch0","pricing_plan_id":"cebpf4jnsgd1na2vs0mg"},{"bike_id":"a0a4e2d5-403c-43c0-ba34-d5116123fdb8","system_id":"levelo_inurba_marseille","lat":43.25818,"lon":5.39425,"is_reserved":false,"is_disabled":false,"rental_uris":{"android":"levelo://app?vid=a0a4e2d5-403c-43c0-ba34-d5116123fdb8","ios":"levelo://app?vid=a0a4e2d5-403c-43c0-ba34-d5116123fdb8"},"vehicle_type_id":"4","last_reported":1728807079,"current_range_meters":38800,"station_id":"ce4bhip2rcd13ifvqft0","pricing_plan_id":"cebpf4jnsgd1na2vs0mg"},{"bike_id":"4e18dddc-2684-4cf8-8c31-345dd1f8f224","system_id":"levelo_inurba_marseille","lat":43.27946,"lon":5.41041,"is_reserved":false,"is_disabled":false,"rental_uris":{"android":"levelo://app?vid=4e18dddc-2684-4cf8-8c31-345dd1f8f224","ios":"levelo://app?vid=4e18dddc-2684-4cf8-8c31-345dd1f8f224"},"vehicle_type_id":"4","last_reported":1728807079,"current_range_meters":36400,"station_id":"ce4bhnp2rcd13ifvqh0g","pricing_plan_id":"cebpf4jnsgd1na2vs0mg"},{"bike_id":"46a85584-c979-42d0-a3d6-62160a658ef1","system_id":"levelo_inurba_marseille","lat":43.28932,"lon":5.36386,"is_reserved":false,"is_disabled":false,"rental_uris":{"android":"levelo://app?vid=46a85584-c979-42d0-a3d6-62160a658ef1","ios":"levelo://app?vid=46a85584-c979-42d0-a3d6-62160a658ef1"},"vehicle_type_id":"4","last_reported":1728807079,"current_range_meters":36000,"station_id":"ce4bhc92rcd13ifvqetg","pricing_plan_id":"cebpf4jnsgd1na2vs0mg"},{"bike_id":"12cf58ac-6cd6-47a2-b586-a1c64b02449a","system_id":"levelo_inurba_marseille","lat":43.26785,"lon":5.39414,"is_reserved":false,"is_disabled":false,"rental_uris":{"android":"levelo://app?vid=12cf58ac-6cd6-47a2-b586-a1c64b02449a","ios":"levelo://app?vid=12cf58ac-6cd6-47a2-b586-a1c64b02449a"},"vehicle_type_id":"4","last_reported":1728807079,"current_range_meters":28000,"station_id":"ce4bhh12rcd13ifvqfg0","pricing_plan_id":"cebpf4jnsgd1na2vs0mg"},{"bike_id":"45a5a165-2b3d-4972-9f8e-9d6ee5ad0142","system_id":"levelo_inurba_marseille","lat":43.27973,"lon":5.38751,"is_reserved":false,"is_disabled":false,"rental_uris":{"android":"levelo://app?vid=45a5a165-2b3d-4972-9f8e-9d6ee5ad0142","ios":"levelo://app?vid=45a5a165-2b3d-4972-9f8e-9d6ee5ad0142"},"vehicle_type_id":"4","last_reported":1728807079,"current_range_meters":38800,"station_id":"ce4bhg12rcd13ifvqf80","pricing_plan_id":"cebpf4jnsgd1na2vs0mg"},{"bike_id":"e6336660-e5d0-4336-aab6-9e2081b4b551","system_id":"levelo_inurba_marseille","lat":43.33719,"lon":5.39195,"is_reserved":false,"is_disabled":false,"rental_uris":{"android":"levelo://app?vid=e6336660-e5d0-4336-aab6-9e2081b4b551","ios":"levelo://app?vid=e6336660-e5d0-4336-aab6-9e2081b4b551"},"vehicle_type_id":"4","last_reported":1728807079,"current_range_meters":18800,"station_id":"ce4bhr92rcd13ifvqhsg","pricing_plan_id":"cebpf4jnsgd1na2vs0mg"},{"bike_id":"d7b5f655-d677-456c-a143-40fa37aa43ab","system_id":"levelo_inurba_marseille","lat":43.30838,"lon":5.370999,"is_reserved":false,"is_disabled":false,"rental_uris":{"android":"levelo://app?vid=d7b5f655-d677-456c-a143-40fa37aa43ab","ios":"levelo://app?vid=d7b5f655-d677-456c-a143-40fa37aa43ab"},"vehicle_type_id":"4","last_reported":1728807079,"current_range_meters":38000,"station_id":"ce4bhap2rcd13ifvqek0","pricing_plan_id":"cebpf4jnsgd1na2vs0mg"},{"bike_id":"5d1bd124-f7b9-4efc-8ac6-4a05d4a99454","system_id":"levelo_inurba_marseille","lat":43.29188,"lon":5.35798,"is_reserved":false,"is_disabled":false,"rental_uris":{"android":"levelo://app?vid=5d1bd124-f7b9-4efc-8ac6-4a05d4a99454","ios":"levelo://app?vid=5d1bd124-f7b9-4efc-8ac6-4a05d4a99454"},"vehicle_type_id":"4","last_reported":1728807079,"current_range_meters":24800,"station_id":"ce4bhb12rcd13ifvqel0","pricing_plan_id":"cebpf4jnsgd1na2vs0mg"},{"bike_id":"55582e1e-1cd8-4e96-933c-025471d1c473","system_id":"levelo_inurba_marseille","lat":43.26936,"lon":5.38916,"is_reserved":false,"is_disabled":false,"rental_uris":{"android":"levelo://app?vid=55582e1e-1cd8-4e96-933c-025471d1c473","ios":"levelo://app?vid=55582e1e-1cd8-4e96-933c-025471d1c473"},"vehicle_type_id":"4","last_reported":1728807079,"current_range_meters":8000,"station_id":"ce4bhhh2rcd13ifvqfl0","pricing_plan_id":"cebpf4jnsgd1na2vs0mg"},{"bike_id":"3281a0ec-58fb-4380-9d49-ea93cb621c0c","system_id":"levelo_inurba_marseille","lat":43.30261,"lon":5.40065,"is_reserved":false,"is_disabled":false,"rental_uris":{"android":"levelo://app?vid=3281a0ec-58fb-4380-9d49-ea93cb621c0c","ios":"levelo://app?vid=3281a0ec-58fb-4380-9d49-ea93cb621c0c"},"vehicle_type_id":"4","last_reported":1728807079,"current_range_meters":30800,"station_id":"ce4bgvh2rcd13ifvqcs0","pricing_plan_id":"cebpf4jnsgd1na2vs0mg"},{"bike_id":"6ae29eda-018b-4611-bdbe-4197a8f14bd5","system_id":"levelo_inurba_marseille","lat":43.292613,"lon":5.378692,"is_reserved":false,"is_disabled":false,"rental_uris":{"android":"levelo://app?vid=6ae29eda-018b-4611-bdbe-4197a8f14bd5","ios":"levelo://app?vid=6ae29eda-018b-4611-bdbe-4197a8f14bd5"},"vehicle_type_id":"4","last_reported":1728807079,"current_range_meters":38800,"station_id":"ce4bgjh2rcd13ifvqbf0","pricing_plan_id":"cebpf4jnsgd1na2vs0mg"},{"bike_id":"f7133da1-dd2a-4059-af6c-28b17abca03f","system_id":"levelo_inurba_marseille","lat":43.28087,"lon":5.39658,"is_reserved":false,"is_disabled":false,"rental_uris":{"android":"levelo://app?vid=f7133da1-dd2a-4059-af6c-28b17abca03f","ios":"levelo://app?vid=f7133da1-dd2a-4059-af6c-28b17abca03f"},"vehicle_type_id":"4","last_reported":1728807079,"current_range_meters":38800,"station_id":"ce4bho12rcd13ifvqh2g","pricing_plan_id":"cebpf4jnsgd1na2vs0mg"},{"bike_id":"17289d87-c34f-4ba9-ac47-6067514ef77e","system_id":"levelo_inurba_marseille","lat":43.26058,"lon":5.39396,"is_reserved":false,"is_disabled":false,"rental_uris":{"android":"levelo://app?vid=17289d87-c34f-4ba9-ac47-6067514ef77e","ios":"levelo://app?vid=17289d87-c34f-4ba9-ac47-6067514ef77e"},"vehicle_type_id":"4","last_reported":1728807079,"current_range_meters":38800,"station_id":"ce4bhh92rcd13ifvqfj0","pricing_plan_id":"cebpf4jnsgd1na2vs0mg"},{"bike_id":"e1f9486c-3843-42a6-aacd-4c828c67520a","system_id":"levelo_inurba_marseille","lat":43.23052,"lon":5.35494,"is_reserved":false,"is_disabled":false,"rental_uris":{"android":"levelo://app?vid=e1f9486c-3843-42a6-aacd-4c828c67520a","ios":"levelo://app?vid=e1f9486c-3843-42a6-aacd-4c828c67520a"},"vehicle_type_id":"4","last_reported":1728807079,"current_range_meters":31200,"station_id":"cpo3342slgdg3j2ifvpg","pricing_plan_id":"cebpf4jnsgd1na2vs0mg"},{"bike_id":"0ed02b61-0f38-4602-830b-cbdfd1c7723f","system_id":"levelo_inurba_marseille","lat":43.29221,"lon":5.36056,"is_reserved":false,"is_disabled":false,"rental_uris":{"android":"levelo://app?vid=0ed02b61-0f38-4602-830b-cbdfd1c7723f","ios":"levelo://app?vid=0ed02b61-0f38-4602-830b-cbdfd1c7723f"},"vehicle_type_id":"4","last_reported":1728807079,"current_range_meters":36000,"station_id":"ce4bhbh2rcd13ifvqeqg","pricing_plan_id":"cebpf4jnsgd1na2vs0mg"},{"bike_id":"17f0a58b-fa96-470d-a1b0-89c2a0c2bfbe","system_id":"levelo_inurba_marseille","lat":43.23191,"lon":5.35557,"is_reserved":false,"is_disabled":false,"rental_uris":{"android":"levelo://app?vid=17f0a58b-fa96-470d-a1b0-89c2a0c2bfbe","ios":"levelo://app?vid=17f0a58b-fa96-470d-a1b0-89c2a0c2bfbe"},"vehicle_type_id":"4","last_reported":1728807079,"current_range_meters":18000,"station_id":"ce4bhu92rcd13ifvqi70","pricing_plan_id":"cebpf4jnsgd1na2vs0mg"},{"bike_id":"7c2f822f-a437-42c6-b4d9-edd55462f044","system_id":"levelo_inurba_marseille","lat":43.28587,"lon":5.37193,"is_reserved":false,"is_disabled":false,"rental_uris":{"android":"levelo://app?vid=7c2f822f-a437-42c6-b4d9-edd55462f044","ios":"levelo://app?vid=7c2f822f-a437-42c6-b4d9-edd55462f044"},"vehicle_type_id":"4","last_reported":1728807079,"current_range_meters":30400,"station_id":"ce4bht12rcd13ifvqi60","pricing_plan_id":"cebpf4jnsgd1na2vs0mg"},{"bike_id":"ae062da7-5fe0-4dbf-83be-95abf4a8f9a4","system_id":"levelo_inurba_marseille","lat":43.27621,"lon":5.36107,"is_reserved":false,"is_disabled":false,"rental_uris":{"android":"levelo://app?vid=ae062da7-5fe0-4dbf-83be-95abf4a8f9a4","ios":"levelo://app?vid=ae062da7-5fe0-4dbf-83be-95abf4a8f9a4"},"vehicle_type_id":"4","last_reported":1728807079,"current_range_meters":27600,"station_id":"ce4bgj92rcd13ifvqbe0","pricing_plan_id":"cebpf4jnsgd1na2vs0mg"},{"bike_id":"9767619a-3281-47be-939c-b6e115d5bcf9","system_id":"levelo_inurba_marseille","lat":43.279977,"lon":5.400016,"is_reserved":false,"is_disabled":false,"rental_uris":{"android":"levelo://app?vid=9767619a-3281-47be-939c-b6e115d5bcf9","ios":"levelo://app?vid=9767619a-3281-47be-939c-b6e115d5bcf9"},"vehicle_type_id":"4","last_reported":1728807079,"current_range_meters":37600,"station_id":"ce4bho92rcd13ifvqh4g","pricing_plan_id":"cebpf4jnsgd1na2vs0mg"},{"bike_id":"a6346a84-eb58-4259-8f5c-834589e4bcec","system_id":"levelo_inurba_marseille","lat":43.32531,"lon":5.41453,"is_reserved":false,"is_disabled":false,"rental_uris":{"android":"levelo://app?vid=a6346a84-eb58-4259-8f5c-834589e4bcec","ios":"levelo://app?vid=a6346a84-eb58-4259-8f5c-834589e4bcec"},"vehicle_type_id":"4","last_reported":1728807079,"current_range_meters":38800,"station_id":"ce4bhq12rcd13ifvqhhg","pricing_plan_id":"cebpf4jnsgd1na2vs0mg"},{"bike_id":"0383fd16-e9b8-4410-b536-493a9708d1c6","system_id":"levelo_inurba_marseille","lat":43.33023,"lon":5.39042,"is_reserved":false,"is_disabled":false,"rental_uris":{"android":"levelo://app?vid=0383fd16-e9b8-4410-b536-493a9708d1c6","ios":"levelo://app?vid=0383fd16-e9b8-4410-b536-493a9708d1c6"},"vehicle_type_id":"4","last_reported":1728807079,"current_range_meters":38800,"station_id":"ce4bhr92rcd13ifvqhrg","pricing_plan_id":"cebpf4jnsgd1na2vs0mg"},{"bike_id":"b25409bc-df4d-476a-893e-c6a5838692b2","system_id":"levelo_inurba_marseille","lat":43.23193,"lon":5.35554,"is_reserved":false,"is_disabled":false,"rental_uris":{"android":"levelo://app?vid=b25409bc-df4d-476a-893e-c6a5838692b2","ios":"levelo://app?vid=b25409bc-df4d-476a-893e-c6a5838692b2"},"vehicle_type_id":"4","last_reported":1728807079,"current_range_meters":38800,"station_id":"ce4bhu92rcd13ifvqi70","pricing_plan_id":"cebpf4jnsgd1na2vs0mg"},{"bike_id":"887fedf8-944b-42a2-ab80-88181529dcf8","system_id":"levelo_inurba_marseille","lat":43.280588,"lon":5.409876,"is_reserved":false,"is_disabled":false,"rental_uris":{"android":"levelo://app?vid=887fedf8-944b-42a2-ab80-88181529dcf8","ios":"levelo://app?vid=887fedf8-944b-42a2-ab80-88181529dcf8"},"vehicle_type_id":"4","last_reported":1728807079,"current_range_meters":34000,"station_id":"","pricing_plan_id":"cebpf4jnsgd1na2vs0mg"},{"bike_id":"f5b82967-6782-46d2-87a8-d4fab0581b3f","system_id":"levelo_inurba_marseille","lat":43.25937,"lon":5.40901,"is_reserved":false,"is_disabled":false,"rental_uris":{"android":"levelo://app?vid=f5b82967-6782-46d2-87a8-d4fab0581b3f","ios":"levelo://app?vid=f5b82967-6782-46d2-87a8-d4fab0581b3f"},"vehicle_type_id":"4","last_reported":1728807079,"current_range_meters":24000,"station_id":"ce4bhm92rcd13ifvqglg","pricing_plan_id":"cebpf4jnsgd1na2vs0mg"},{"bike_id":"8fb2b431-bcb9-46ba-80fb-e26e84592fc5","system_id":"levelo_inurba_marseille","lat":43.23184,"lon":5.35564,"is_reserved":false,"is_disabled":false,"rental_uris":{"android":"levelo://app?vid=8fb2b431-bcb9-46ba-80fb-e26e84592fc5","ios":"levelo://app?vid=8fb2b431-bcb9-46ba-80fb-e26e84592fc5"},"vehicle_type_id":"4","last_reported":1728807079,"current_range_meters":28000,"station_id":"ce4bhu92rcd13ifvqi70","pricing_plan_id":"cebpf4jnsgd1na2vs0mg"},{"bike_id":"d737c553-9bf5-4503-9920-f6b5ee4d74c4","system_id":"levelo_inurba_marseille","lat":43.33023,"lon":5.39037,"is_reserved":false,"is_disabled":false,"rental_uris":{"android":"levelo://app?vid=d737c553-9bf5-4503-9920-f6b5ee4d74c4","ios":"levelo://app?vid=d737c553-9bf5-4503-9920-f6b5ee4d74c4"},"vehicle_type_id":"4","last_reported":1728807079,"current_range_meters":35200,"station_id":"ce4bhr92rcd13ifvqhrg","pricing_plan_id":"cebpf4jnsgd1na2vs0mg"},{"bike_id":"05b7de8e-0432-4ca6-9443-88c3e42ebb31","system_id":"levelo_inurba_marseille","lat":43.30647,"lon":5.4008,"is_reserved":false,"is_disabled":false,"rental_uris":{"android":"levelo://app?vid=05b7de8e-0432-4ca6-9443-88c3e42ebb31","ios":"levelo://app?vid=05b7de8e-0432-4ca6-9443-88c3e42ebb31"},"vehicle_type_id":"4","last_reported":1728807079,"current_range_meters":38800,"station_id":"ce4bh112rcd13ifvqda0","pricing_plan_id":"cebpf4jnsgd1na2vs0mg"},{"bike_id":"c6b55a19-d824-451a-977a-92aea0ffaf10","system_id":"levelo_inurba_marseille","lat":43.28839,"lon":5.35855,"is_reserved":false,"is_disabled":false,"rental_uris":{"android":"levelo://app?vid=c6b55a19-d824-451a-977a-92aea0ffaf10","ios":"levelo://app?vid=c6b55a19-d824-451a-977a-92aea0ffaf10"},"vehicle_type_id":"4","last_reported":1728807079,"current_range_meters":38400,"station_id":"ce4bhb12rcd13ifvqem0","pricing_plan_id":"cebpf4jnsgd1na2vs0mg"},{"bike_id":"e2f25126-29b7-4581-a4fe-9e458716fb1d","system_id":"levelo_inurba_marseille","lat":43.23952,"lon":5.3664,"is_reserved":false,"is_disabled":false,"rental_uris":{"android":"levelo://app?vid=e2f25126-29b7-4581-a4fe-9e458716fb1d","ios":"levelo://app?vid=e2f25126-29b7-4581-a4fe-9e458716fb1d"},"vehicle_type_id":"4","last_reported":1728807079,"current_range_meters":24800,"station_id":"ce4bhi12rcd13ifvqfp0","pricing_plan_id":"cebpf4jnsgd1na2vs0mg"},{"bike_id":"7cfa947d-7fba-468a-89fd-21def25abb99","system_id":"levelo_inurba_marseille","lat":43.27962,"lon":5.3872,"is_reserved":false,"is_disabled":false,"rental_uris":{"android":"levelo://app?vid=7cfa947d-7fba-468a-89fd-21def25abb99","ios":"levelo://app?vid=7cfa947d-7fba-468a-89fd-21def25abb99"},"vehicle_type_id":"4","last_reported":1728807079,"current_range_meters":38800,"station_id":"ce4bhg12rcd13ifvqf80","pricing_plan_id":"cebpf4jnsgd1na2vs0mg"},{"bike_id":"6746abcb-d28b-4802-b21a-150ec671a4ca","system_id":"levelo_inurba_marseille","lat":43.23193,"lon":5.35551,"is_reserved":false,"is_disabled":false,"rental_uris":{"android":"levelo://app?vid=6746abcb-d28b-4802-b21a-150ec671a4ca","ios":"levelo://app?vid=6746abcb-d28b-4802-b21a-150ec671a4ca"},"vehicle_type_id":"4","last_reported":1728807079,"current_range_meters":23200,"station_id":"ce4bhu92rcd13ifvqi70","pricing_plan_id":"cebpf4jnsgd1na2vs0mg"},{"bike_id":"7d146885-686d-4dcf-92e1-205f5dd385f5","system_id":"levelo_inurba_marseille","lat":43.27208,"lon":5.39173,"is_reserved":false,"is_disabled":false,"rental_uris":{"android":"levelo://app?vid=7d146885-686d-4dcf-92e1-205f5dd385f5","ios":"levelo://app?vid=7d146885-686d-4dcf-92e1-205f5dd385f5"},"vehicle_type_id":"4","last_reported":1728807079,"current_range_meters":38800,"station_id":"ce4bhhp2rcd13ifvqfm0","pricing_plan_id":"cebpf4jnsgd1na2vs0mg"},{"bike_id":"972e1e50-2e1e-454f-8635-5ea35f00e6a7","system_id":"levelo_inurba_marseille","lat":43.30458,"lon":5.40184,"is_reserved":false,"is_disabled":false,"rental_uris":{"android":"levelo://app?vid=972e1e50-2e1e-454f-8635-5ea35f00e6a7","ios":"levelo://app?vid=972e1e50-2e1e-454f-8635-5ea35f00e6a7"},"vehicle_type_id":"4","last_reported":1728807079,"current_range_meters":34800,"station_id":"","pricing_plan_id":"cebpf4jnsgd1na2vs0mg"},{"bike_id":"c9f7fdde-18bf-4224-9b31-41796d1c7ce2","system_id":"levelo_inurba_marseille","lat":43.29004,"lon":5.35612,"is_reserved":false,"is_disabled":false,"rental_uris":{"android":"levelo://app?vid=c9f7fdde-18bf-4224-9b31-41796d1c7ce2","ios":"levelo://app?vid=c9f7fdde-18bf-4224-9b31-41796d1c7ce2"},"vehicle_type_id":"4","last_reported":1728807079,"current_range_meters":24800,"station_id":"ce4bhb92rcd13ifvqen0","pricing_plan_id":"cebpf4jnsgd1na2vs0mg"},{"bike_id":"a00de00a-905c-4db5-a610-907d6a3631fb","system_id":"levelo_inurba_marseille","lat":43.31718,"lon":5.4241,"is_reserved":false,"is_disabled":false,"rental_uris":{"android":"levelo://app?vid=a00de00a-905c-4db5-a610-907d6a3631fb","ios":"levelo://app?vid=a00de00a-905c-4db5-a610-907d6a3631fb"},"vehicle_type_id":"4","last_reported":1728807079,"current_range_meters":31200,"station_id":"ce4bhp92rcd13ifvqhbg","pricing_plan_id":"cebpf4jnsgd1na2vs0mg"},{"bike_id":"e2d23f85-4ee4-469d-997f-4b1a9d358fb0","system_id":"levelo_inurba_marseille","lat":43.29411,"lon":5.38615,"is_reserved":false,"is_disabled":false,"rental_uris":{"android":"levelo://app?vid=e2d23f85-4ee4-469d-997f-4b1a9d358fb0","ios":"levelo://app?vid=e2d23f85-4ee4-469d-997f-4b1a9d358fb0"},"vehicle_type_id":"4","last_reported":1728807079,"current_range_meters":38800,"station_id":"ce4bh2h2rcd13ifvqdh0","pricing_plan_id":"cebpf4jnsgd1na2vs0mg"},{"bike_id":"0c9ea4f4-1303-4bc1-9307-c30fbde8167a","system_id":"levelo_inurba_marseille","lat":43.27902,"lon":5.38018,"is_reserved":false,"is_disabled":false,"rental_uris":{"android":"levelo://app?vid=0c9ea4f4-1303-4bc1-9307-c30fbde8167a","ios":"levelo://app?vid=0c9ea4f4-1303-4bc1-9307-c30fbde8167a"},"vehicle_type_id":"4","last_reported":1728807079,"current_range_meters":22800,"station_id":"ce4bhf92rcd13ifvqf50","pricing_plan_id":"cebpf4jnsgd1na2vs0mg"},{"bike_id":"8df76210-c1cb-4a21-b1a3-10b5629722e8","system_id":"levelo_inurba_marseille","lat":43.23178,"lon":5.39995,"is_reserved":false,"is_disabled":false,"rental_uris":{"android":"levelo://app?vid=8df76210-c1cb-4a21-b1a3-10b5629722e8","ios":"levelo://app?vid=8df76210-c1cb-4a21-b1a3-10b5629722e8"},"vehicle_type_id":"4","last_reported":1728807079,"current_range_meters":4000,"station_id":"ce4bhn12rcd13ifvqgqg","pricing_plan_id":"cebpf4jnsgd1na2vs0mg"},{"bike_id":"1f6da07d-6221-4aec-a348-09aa636acfd5","system_id":"levelo_inurba_marseille","lat":43.27179,"lon":5.40992,"is_reserved":false,"is_disabled":false,"rental_uris":{"android":"levelo://app?vid=1f6da07d-6221-4aec-a348-09aa636acfd5","ios":"levelo://app?vid=1f6da07d-6221-4aec-a348-09aa636acfd5"},"vehicle_type_id":"4","last_reported":1728807079,"current_range_meters":38800,"station_id":"ce4bhl12rcd13ifvqgf0","pricing_plan_id":"cebpf4jnsgd1na2vs0mg"},{"bike_id":"a9d8d00f-2b10-40cd-af9b-04b4ae45f2bc","system_id":"levelo_inurba_marseille","lat":43.24378,"lon":5.37059,"is_reserved":false,"is_disabled":false,"rental_uris":{"android":"levelo://app?vid=a9d8d00f-2b10-40cd-af9b-04b4ae45f2bc","ios":"levelo://app?vid=a9d8d00f-2b10-40cd-af9b-04b4ae45f2bc"},"vehicle_type_id":"4","last_reported":1728807079,"current_range_meters":23200,"station_id":"ce4bhhh2rcd13ifvqfk0","pricing_plan_id":"cebpf4jnsgd1na2vs0mg"},{"bike_id":"ee61592b-5868-446e-a001-e5465e7003cd","system_id":"levelo_inurba_marseille","lat":43.2721,"lon":5.39181,"is_reserved":false,"is_disabled":false,"rental_uris":{"android":"levelo://app?vid=ee61592b-5868-446e-a001-e5465e7003cd","ios":"levelo://app?vid=ee61592b-5868-446e-a001-e5465e7003cd"},"vehicle_type_id":"4","last_reported":1728807079,"current_range_meters":11200,"station_id":"ce4bhhp2rcd13ifvqfm0","pricing_plan_id":"cebpf4jnsgd1na2vs0mg"},{"bike_id":"f3ee8275-4858-4a5d-98ed-6e1feaa66473","system_id":"levelo_inurba_marseille","lat":43.26809,"lon":5.40264,"is_reserved":false,"is_disabled":false,"rental_uris":{"android":"levelo://app?vid=f3ee8275-4858-4a5d-98ed-6e1feaa66473","ios":"levelo://app?vid=f3ee8275-4858-4a5d-98ed-6e1feaa66473"},"vehicle_type_id":"4","last_reported":1728807079,"current_range_meters":38000,"station_id":"ce501612rcd8frsf0b60","pricing_plan_id":"cebpf4jnsgd1na2vs0mg"},{"bike_id":"bb81938b-b4b4-4c07-9ecc-2be73736f0b6","system_id":"levelo_inurba_marseille","lat":43.27067,"lon":5.4228,"is_reserved":false,"is_disabled":false,"rental_uris":{"android":"levelo://app?vid=bb81938b-b4b4-4c07-9ecc-2be73736f0b6","ios":"levelo://app?vid=bb81938b-b4b4-4c07-9ecc-2be73736f0b6"},"vehicle_type_id":"4","last_reported":1728807079,"current_range_meters":10800,"station_id":"ce4bhk92rcd13ifvqgb0","pricing_plan_id":"cebpf4jnsgd1na2vs0mg"},{"bike_id":"6a065387-3877-465d-86e0-9e6d72903917","system_id":"levelo_inurba_marseille","lat":43.32063,"lon":5.41536,"is_reserved":false,"is_disabled":false,"rental_uris":{"android":"levelo://app?vid=6a065387-3877-465d-86e0-9e6d72903917","ios":"levelo://app?vid=6a065387-3877-465d-86e0-9e6d72903917"},"vehicle_type_id":"4","last_reported":1728807079,"current_range_meters":38800,"station_id":"ce4bhq92rcd13ifvqhkg","pricing_plan_id":"cebpf4jnsgd1na2vs0mg"},{"bike_id":"75959e6e-7e78-4d0a-86ad-9285822bac24","system_id":"levelo_inurba_marseille","lat":43.26211,"lon":5.37446,"is_reserved":false,"is_disabled":false,"rental_uris":{"android":"levelo://app?vid=75959e6e-7e78-4d0a-86ad-9285822bac24","ios":"levelo://app?vid=75959e6e-7e78-4d0a-86ad-9285822bac24"},"vehicle_type_id":"4","last_reported":1728807079,"current_range_meters":11600,"station_id":"ce4bhgp2rcd13ifvqfc0","pricing_plan_id":"cebpf4jnsgd1na2vs0mg"},{"bike_id":"db9f3153-8954-4ad8-864e-f30273216d53","system_id":"levelo_inurba_marseille","lat":43.28462,"lon":5.38427,"is_reserved":false,"is_disabled":false,"rental_uris":{"android":"levelo://app?vid=db9f3153-8954-4ad8-864e-f30273216d53","ios":"levelo://app?vid=db9f3153-8954-4ad8-864e-f30273216d53"},"vehicle_type_id":"4","last_reported":1728807079,"current_range_meters":32000,"station_id":"ce4bh512rcd13ifvqe3g","pricing_plan_id":"cebpf4jnsgd1na2vs0mg"},{"bike_id":"3f0b800c-0538-48e9-b005-3133dbd78909","system_id":"levelo_inurba_marseille","lat":43.29004,"lon":5.35613,"is_reserved":false,"is_disabled":false,"rental_uris":{"android":"levelo://app?vid=3f0b800c-0538-48e9-b005-3133dbd78909","ios":"levelo://app?vid=3f0b800c-0538-48e9-b005-3133dbd78909"},"vehicle_type_id":"4","last_reported":1728807079,"current_range_meters":30400,"station_id":"ce4bhb92rcd13ifvqen0","pricing_plan_id":"cebpf4jnsgd1na2vs0mg"},{"bike_id":"49799a82-784b-40c7-9ab3-3d2a23696762","system_id":"levelo_inurba_marseille","lat":43.29218,"lon":5.36067,"is_reserved":false,"is_disabled":false,"rental_uris":{"android":"levelo://app?vid=49799a82-784b-40c7-9ab3-3d2a23696762","ios":"levelo://app?vid=49799a82-784b-40c7-9ab3-3d2a23696762"},"vehicle_type_id":"4","last_reported":1728807079,"current_range_meters":6400,"station_id":"ce4bhbh2rcd13ifvqeqg","pricing_plan_id":"cebpf4jnsgd1na2vs0mg"},{"bike_id":"e53d9dac-6d16-4334-ad56-d0d38fcf4eb7","system_id":"levelo_inurba_marseille","lat":43.27968,"lon":5.41819,"is_reserved":false,"is_disabled":false,"rental_uris":{"android":"levelo://app?vid=e53d9dac-6d16-4334-ad56-d0d38fcf4eb7","ios":"levelo://app?vid=e53d9dac-6d16-4334-ad56-d0d38fcf4eb7"},"vehicle_type_id":"4","last_reported":1728807079,"current_range_meters":25200,"station_id":"","pricing_plan_id":"cebpf4jnsgd1na2vs0mg"},{"bike_id":"3218c32b-6cea-4233-80ef-d020eb362cc9","system_id":"levelo_inurba_marseille","lat":43.2905,"lon":5.35918,"is_reserved":false,"is_disabled":false,"rental_uris":{"android":"levelo://app?vid=3218c32b-6cea-4233-80ef-d020eb362cc9","ios":"levelo://app?vid=3218c32b-6cea-4233-80ef-d020eb362cc9"},"vehicle_type_id":"4","last_reported":1728807079,"current_range_meters":4800,"station_id":"ce4bha92rcd13ifvqeg0","pricing_plan_id":"cebpf4jnsgd1na2vs0mg"},{"bike_id":"5ab70f1b-3f2c-4f8b-a0cc-cdba02fd83d4","system_id":"levelo_inurba_marseille","lat":43.3248,"lon":5.3656,"is_reserved":false,"is_disabled":false,"rental_uris":{"android":"levelo://app?vid=5ab70f1b-3f2c-4f8b-a0cc-cdba02fd83d4","ios":"levelo://app?vid=5ab70f1b-3f2c-4f8b-a0cc-cdba02fd83d4"},"vehicle_type_id":"4","last_reported":1728807079,"current_range_meters":32400,"station_id":"ce4bhs12rcd13ifvqhvg","pricing_plan_id":"cebpf4jnsgd1na2vs0mg"},{"bike_id":"319cef0f-7a5e-4dd9-9787-9be46eef0671","system_id":"levelo_inurba_marseille","lat":43.29233,"lon":5.36062,"is_reserved":false,"is_disabled":false,"rental_uris":{"android":"levelo://app?vid=319cef0f-7a5e-4dd9-9787-9be46eef0671","ios":"levelo://app?vid=319cef0f-7a5e-4dd9-9787-9be46eef0671"},"vehicle_type_id":"4","last_reported":1728807079,"current_range_meters":36800,"station_id":"ce4bhbh2rcd13ifvqeqg","pricing_plan_id":"cebpf4jnsgd1na2vs0mg"},{"bike_id":"05325d14-fc67-4535-9d34-1cceeafacbff","system_id":"levelo_inurba_marseille","lat":43.23961,"lon":5.36643,"is_reserved":false,"is_disabled":false,"rental_uris":{"android":"levelo://app?vid=05325d14-fc67-4535-9d34-1cceeafacbff","ios":"levelo://app?vid=05325d14-fc67-4535-9d34-1cceeafacbff"},"vehicle_type_id":"4","last_reported":1728807079,"current_range_meters":32000,"station_id":"ce4bhi12rcd13ifvqfp0","pricing_plan_id":"cebpf4jnsgd1na2vs0mg"},{"bike_id":"7a12168f-ea98-4f17-89da-dd7a7665cbf6","system_id":"levelo_inurba_marseille","lat":43.28697,"lon":5.39993,"is_reserved":false,"is_disabled":false,"rental_uris":{"android":"levelo://app?vid=7a12168f-ea98-4f17-89da-dd7a7665cbf6","ios":"levelo://app?vid=7a12168f-ea98-4f17-89da-dd7a7665cbf6"},"vehicle_type_id":"4","last_reported":1728807079,"current_range_meters":27600,"station_id":"ce4bho92rcd13ifvqh3g","pricing_plan_id":"cebpf4jnsgd1na2vs0mg"},{"bike_id":"4c0b401a-eed5-40fc-919a-7995633bd32e","system_id":"levelo_inurba_marseille","lat":43.31065,"lon":5.38349,"is_reserved":false,"is_disabled":false,"rental_uris":{"android":"levelo://app?vid=4c0b401a-eed5-40fc-919a-7995633bd32e","ios":"levelo://app?vid=4c0b401a-eed5-40fc-919a-7995633bd32e"},"vehicle_type_id":"4","last_reported":1728807079,"current_range_meters":30800,"station_id":"ce4bgv92rcd13ifvqcr0","pricing_plan_id":"cebpf4jnsgd1na2vs0mg"},{"bike_id":"9fb1a937-ae5a-42d8-bd65-33ddcdad479e","system_id":"levelo_inurba_marseille","lat":43.29559,"lon":5.42287,"is_reserved":false,"is_disabled":false,"rental_uris":{"android":"levelo://app?vid=9fb1a937-ae5a-42d8-bd65-33ddcdad479e","ios":"levelo://app?vid=9fb1a937-ae5a-42d8-bd65-33ddcdad479e"},"vehicle_type_id":"4","last_reported":1728807079,"current_range_meters":39200,"station_id":"ce4bhph2rcd13ifvqhdg","pricing_plan_id":"cebpf4jnsgd1na2vs0mg"},{"bike_id":"2c4c4fdd-4be3-40ba-ae9f-53b1d6165fc5","system_id":"levelo_inurba_marseille","lat":43.28838,"lon":5.35835,"is_reserved":false,"is_disabled":false,"rental_uris":{"android":"levelo://app?vid=2c4c4fdd-4be3-40ba-ae9f-53b1d6165fc5","ios":"levelo://app?vid=2c4c4fdd-4be3-40ba-ae9f-53b1d6165fc5"},"vehicle_type_id":"4","last_reported":1728807079,"current_range_meters":8000,"station_id":"ce4bhb12rcd13ifvqem0","pricing_plan_id":"cebpf4jnsgd1na2vs0mg"},{"bike_id":"03af9b88-b7b0-42ba-9622-915525de49d6","system_id":"levelo_inurba_marseille","lat":43.28611,"lon":5.35104,"is_reserved":false,"is_disabled":false,"rental_uris":{"android":"levelo://app?vid=03af9b88-b7b0-42ba-9622-915525de49d6","ios":"levelo://app?vid=03af9b88-b7b0-42ba-9622-915525de49d6"},"vehicle_type_id":"4","last_reported":1728807079,"current_range_meters":26000,"station_id":"ce4bhch2rcd13ifvqeug","pricing_plan_id":"cebpf4jnsgd1na2vs0mg"},{"bike_id":"860fd227-34f0-4200-b8d6-a67ddfc4b0c4","system_id":"levelo_inurba_marseille","lat":43.30947,"lon":5.39043,"is_reserved":false,"is_disabled":false,"rental_uris":{"android":"levelo://app?vid=860fd227-34f0-4200-b8d6-a67ddfc4b0c4","ios":"levelo://app?vid=860fd227-34f0-4200-b8d6-a67ddfc4b0c4"},"vehicle_type_id":"4","last_reported":1728807079,"current_range_meters":38800,"station_id":"ce4bgup2rcd13ifvqco0","pricing_plan_id":"cebpf4jnsgd1na2vs0mg"},{"bike_id":"5a8273ca-6397-47e7-8317-e4d88ff374b8","system_id":"levelo_inurba_marseille","lat":43.2465,"lon":5.38895,"is_reserved":false,"is_disabled":false,"rental_uris":{"android":"levelo://app?vid=5a8273ca-6397-47e7-8317-e4d88ff374b8","ios":"levelo://app?vid=5a8273ca-6397-47e7-8317-e4d88ff374b8"},"vehicle_type_id":"4","last_reported":1728807079,"current_range_meters":25200,"station_id":"ce4bhg12rcd13ifvqf60","pricing_plan_id":"cebpf4jnsgd1na2vs0mg"},{"bike_id":"b3aaaef3-1ecf-4a7a-b3bb-79a6e0c2b54e","system_id":"levelo_inurba_marseille","lat":43.28406,"lon":5.37524,"is_reserved":false,"is_disabled":false,"rental_uris":{"android":"levelo://app?vid=b3aaaef3-1ecf-4a7a-b3bb-79a6e0c2b54e","ios":"levelo://app?vid=b3aaaef3-1ecf-4a7a-b3bb-79a6e0c2b54e"},"vehicle_type_id":"4","last_reported":1728807079,"current_range_meters":25600,"station_id":"ce4bh412rcd13ifvqds0","pricing_plan_id":"cebpf4jnsgd1na2vs0mg"},{"bike_id":"49316722-f5ca-469e-b328-cdeaebfb0c7f","system_id":"levelo_inurba_marseille","lat":43.239545,"lon":5.36634,"is_reserved":false,"is_disabled":false,"rental_uris":{"android":"levelo://app?vid=49316722-f5ca-469e-b328-cdeaebfb0c7f","ios":"levelo://app?vid=49316722-f5ca-469e-b328-cdeaebfb0c7f"},"vehicle_type_id":"4","last_reported":1728807079,"current_range_meters":6800,"station_id":"ce4bhi12rcd13ifvqfp0","pricing_plan_id":"cebpf4jnsgd1na2vs0mg"},{"bike_id":"89590513-429c-412d-a05b-81f020b49177","system_id":"levelo_inurba_marseille","lat":43.26212,"lon":5.37441,"is_reserved":false,"is_disabled":false,"rental_uris":{"android":"levelo://app?vid=89590513-429c-412d-a05b-81f020b49177","ios":"levelo://app?vid=89590513-429c-412d-a05b-81f020b49177"},"vehicle_type_id":"4","last_reported":1728807079,"current_range_meters":33600,"station_id":"ce4bhgp2rcd13ifvqfc0","pricing_plan_id":"cebpf4jnsgd1na2vs0mg"},{"bike_id":"a26906aa-46de-4988-9cfc-99715141583a","system_id":"levelo_inurba_marseille","lat":43.30202,"lon":5.39473,"is_reserved":false,"is_disabled":false,"rental_uris":{"android":"levelo://app?vid=a26906aa-46de-4988-9cfc-99715141583a","ios":"levelo://app?vid=a26906aa-46de-4988-9cfc-99715141583a"},"vehicle_type_id":"4","last_reported":1728807079,"current_range_meters":38800,"station_id":"ce4bh0p2rcd13ifvqd70","pricing_plan_id":"cebpf4jnsgd1na2vs0mg"},{"bike_id":"2161a8ba-aa43-475e-8cf3-eb30ad070ad3","system_id":"levelo_inurba_marseille","lat":43.25496,"lon":5.37649,"is_reserved":false,"is_disabled":false,"rental_uris":{"android":"levelo://app?vid=2161a8ba-aa43-475e-8cf3-eb30ad070ad3","ios":"levelo://app?vid=2161a8ba-aa43-475e-8cf3-eb30ad070ad3"},"vehicle_type_id":"4","last_reported":1728807079,"current_range_meters":36400,"station_id":"ce4bhh12rcd13ifvqff0","pricing_plan_id":"cebpf4jnsgd1na2vs0mg"},{"bike_id":"c12cb0d6-db93-4418-b913-57eec8fad5ea","system_id":"levelo_inurba_marseille","lat":43.27944,"lon":5.41046,"is_reserved":false,"is_disabled":false,"rental_uris":{"android":"levelo://app?vid=c12cb0d6-db93-4418-b913-57eec8fad5ea","ios":"levelo://app?vid=c12cb0d6-db93-4418-b913-57eec8fad5ea"},"vehicle_type_id":"4","last_reported":1728807079,"current_range_meters":16800,"station_id":"ce4bhnp2rcd13ifvqh0g","pricing_plan_id":"cebpf4jnsgd1na2vs0mg"},{"bike_id":"aad69708-28ac-43e6-945e-619f5a7c6bfd","system_id":"levelo_inurba_marseille","lat":43.33781,"lon":5.37443,"is_reserved":false,"is_disabled":false,"rental_uris":{"android":"levelo://app?vid=aad69708-28ac-43e6-945e-619f5a7c6bfd","ios":"levelo://app?vid=aad69708-28ac-43e6-945e-619f5a7c6bfd"},"vehicle_type_id":"4","last_reported":1728807079,"current_range_meters":34000,"station_id":"","pricing_plan_id":"cebpf4jnsgd1na2vs0mg"},{"bike_id":"0c9b7f4c-1d71-47fa-9173-c5d109bd7e1a","system_id":"levelo_inurba_marseille","lat":43.28459,"lon":5.35887,"is_reserved":false,"is_disabled":false,"rental_uris":{"android":"levelo://app?vid=0c9b7f4c-1d71-47fa-9173-c5d109bd7e1a","ios":"levelo://app?vid=0c9b7f4c-1d71-47fa-9173-c5d109bd7e1a"},"vehicle_type_id":"4","last_reported":1728807079,"current_range_meters":13600,"station_id":"ce4bhah2rcd13ifvqei0","pricing_plan_id":"cebpf4jnsgd1na2vs0mg"},{"bike_id":"db2af267-07e2-4fc0-b691-2edcac6b1c8d","system_id":"levelo_inurba_marseille","lat":43.27202,"lon":5.3919,"is_reserved":false,"is_disabled":false,"rental_uris":{"android":"levelo://app?vid=db2af267-07e2-4fc0-b691-2edcac6b1c8d","ios":"levelo://app?vid=db2af267-07e2-4fc0-b691-2edcac6b1c8d"},"vehicle_type_id":"4","last_reported":1728807079,"current_range_meters":8400,"station_id":"ce4bhhp2rcd13ifvqfm0","pricing_plan_id":"cebpf4jnsgd1na2vs0mg"},{"bike_id":"71cf7286-1207-48ea-9905-84e8b1d59926","system_id":"levelo_inurba_marseille","lat":43.23155,"lon":5.43702,"is_reserved":false,"is_disabled":false,"rental_uris":{"android":"levelo://app?vid=71cf7286-1207-48ea-9905-84e8b1d59926","ios":"levelo://app?vid=71cf7286-1207-48ea-9905-84e8b1d59926"},"vehicle_type_id":"4","last_reported":1728807079,"current_range_meters":33200,"station_id":"ce4bhmp2rcd13ifvqgog","pricing_plan_id":"cebpf4jnsgd1na2vs0mg"},{"bike_id":"ea39c797-b988-42ce-87fc-d3810657b21c","system_id":"levelo_inurba_marseille","lat":43.297561,"lon":5.381084,"is_reserved":false,"is_disabled":false,"rental_uris":{"android":"levelo://app?vid=ea39c797-b988-42ce-87fc-d3810657b21c","ios":"levelo://app?vid=ea39c797-b988-42ce-87fc-d3810657b21c"},"vehicle_type_id":"4","last_reported":1728807079,"current_range_meters":27600,"station_id":"ce4bgip2rcd13ifvqbb0","pricing_plan_id":"cebpf4jnsgd1na2vs0mg"},{"bike_id":"2ab7c452-aa53-46d1-bd28-154d029d2770","system_id":"levelo_inurba_marseille","lat":43.2454,"lon":5.39522,"is_reserved":false,"is_disabled":false,"rental_uris":{"android":"levelo://app?vid=2ab7c452-aa53-46d1-bd28-154d029d2770","ios":"levelo://app?vid=2ab7c452-aa53-46d1-bd28-154d029d2770"},"vehicle_type_id":"4","last_reported":1728807079,"current_range_meters":38800,"station_id":"ce4bhlp2rcd13ifvqgjg","pricing_plan_id":"cebpf4jnsgd1na2vs0mg"},{"bike_id":"1e537377-9b40-4c63-88c4-5b9ff124ac55","system_id":"levelo_inurba_marseille","lat":43.31685,"lon":5.40478,"is_reserved":false,"is_disabled":false,"rental_uris":{"android":"levelo://app?vid=1e537377-9b40-4c63-88c4-5b9ff124ac55","ios":"levelo://app?vid=1e537377-9b40-4c63-88c4-5b9ff124ac55"},"vehicle_type_id":"4","last_reported":1728807079,"current_range_meters":32400,"station_id":"ce4bh012rcd13ifvqd00","pricing_plan_id":"cebpf4jnsgd1na2vs0mg"},{"bike_id":"f585e40c-265a-4e33-b5cb-1fd6db24e2d0","system_id":"levelo_inurba_marseille","lat":43.29696,"lon":5.37676,"is_reserved":false,"is_disabled":false,"rental_uris":{"android":"levelo://app?vid=f585e40c-265a-4e33-b5cb-1fd6db24e2d0","ios":"levelo://app?vid=f585e40c-265a-4e33-b5cb-1fd6db24e2d0"},"vehicle_type_id":"4","last_reported":1728807079,"current_range_meters":38000,"station_id":"ce4bgkh2rcd13ifvqbl0","pricing_plan_id":"cebpf4jnsgd1na2vs0mg"},{"bike_id":"8d008f69-c980-4eee-86b6-9004629a11ea","system_id":"levelo_inurba_marseille","lat":43.27822,"lon":5.392,"is_reserved":false,"is_disabled":false,"rental_uris":{"android":"levelo://app?vid=8d008f69-c980-4eee-86b6-9004629a11ea","ios":"levelo://app?vid=8d008f69-c980-4eee-86b6-9004629a11ea"},"vehicle_type_id":"4","last_reported":1728807079,"current_range_meters":38800,"station_id":"ce4bhjp2rcd13ifvqga0","pricing_plan_id":"cebpf4jnsgd1na2vs0mg"},{"bike_id":"9b63e08c-92a9-474f-94c2-a5402b510f01","system_id":"levelo_inurba_marseille","lat":43.2319,"lon":5.35556,"is_reserved":false,"is_disabled":false,"rental_uris":{"android":"levelo://app?vid=9b63e08c-92a9-474f-94c2-a5402b510f01","ios":"levelo://app?vid=9b63e08c-92a9-474f-94c2-a5402b510f01"},"vehicle_type_id":"4","last_reported":1728807079,"current_range_meters":4400,"station_id":"ce4bhu92rcd13ifvqi70","pricing_plan_id":"cebpf4jnsgd1na2vs0mg"},{"bike_id":"8509fa5d-c6d9-4cb2-b4b1-4f2065b2666e","system_id":"levelo_inurba_marseille","lat":43.28344,"lon":5.41016,"is_reserved":false,"is_disabled":false,"rental_uris":{"android":"levelo://app?vid=8509fa5d-c6d9-4cb2-b4b1-4f2065b2666e","ios":"levelo://app?vid=8509fa5d-c6d9-4cb2-b4b1-4f2065b2666e"},"vehicle_type_id":"4","last_reported":1728807079,"current_range_meters":4000,"station_id":"","pricing_plan_id":"cebpf4jnsgd1na2vs0mg"},