{"last_updated":1726020353,"ttl":30,"version":"2.2","data":{"bikes":[{"bike_id":"61ec69dc-0887-45a0-9a18-564e7d706b0b","system_id":"levelo_inurba_marseille","lat":43.24079,"lon":5.37743,"is_reserved":false,"is_disabled":false,"rental_uris":{"android":"levelo://app?vid=61ec69dc-0887-45a0-9a18-564e7d706b0b","ios":"levelo://app?vid=61ec69dc-0887-45a0-9a18-564e7d706b0b"},"vehicle_type_id":"4","last_reported":1726020353,"current_range_meters":30400,"station_id":"ce4bhnp2rcd13ifvqgvg","pricing_plan_id":"cebpf4jnsgd1na2vs0mg"},{"bike_id":"4fcd5d9d-759c-40ec-b251-21770533506b","system_id":"levelo_inurba_marseille","lat":43.2558,"lon":5.38249,"is_reserved":false,"is_disabled":false,"rental_uris":{"android":"levelo://app?vid=4fcd5d9d-759c-40ec-b251-21770533506b","ios":"levelo://app?vid=4fcd5d9d-759c-40ec-b251-21770533506b"},"vehicle_type_id":"4","last_reported":1726020353,"current_range_meters":25600,"station_id":"ce4bhih2rcd13ifvqfs0","pricing_plan_id":"cebpf4jnsgd1na2vs0mg"},{"bike_id":"ef771e48-7aea-4844-b90f-fe7b15088138","system_id":"levelo_inurba_marseille","lat":43.30924,"lon":5.40136,"is_reserved":false,"is_disabled":false,"rental_uris":{"android":"levelo://app?vid=ef771e48-7aea-4844-b90f-fe7b15088138","ios":"levelo://app?vid=ef771e48-7aea-4844-b90f-fe7b15088138"},"vehicle_type_id":"4","last_reported":1726020353,"current_range_meters":16400,"station_id":"ce4bgvp2rcd13ifvqct0","pricing_plan_id":"cebpf4jnsgd1na2vs0mg"},{"bike_id":"24a362b0-479d-41f0-988a-05ac26284741","system_id":"levelo_inurba_marseille","lat":43.26494,"lon":5.39541,"is_reserved":false,"is_disabled":false,"rental_uris":{"android":"levelo://app?vid=24a362b0-479d-41f0-988a-05ac26284741","ios":"levelo://app?vid=24a362b0-479d-41f0-988a-05ac26284741"},"vehicle_type_id":"4","last_reported":1726020353,"current_range_meters":38000,"station_id":"ce4bhi12rcd13ifvqfq0","pricing_plan_id":"cebpf4jnsgd1na2vs0mg"},{"bike_id":"deb946a8-ccc7-48a3-a464-79c8b8dd0d59","system_id":"levelo_inurba_marseille","lat":43.2789,"lon":5.38012,"is_reserved":false,"is_disabled":false,"rental_uris":{"android":"levelo://app?vid=deb946a8-ccc7-48a3-a464-79c8b8dd0d59","ios":"levelo://app?vid=deb946a8-ccc7-48a3-a464-79c8b8dd0d59"},"vehicle_type_id":"4","last_reported":1726020353,"current_range_meters":39200,"station_id":"ce4bhf92rcd13ifvqf50","pricing_plan_id":"cebpf4jnsgd1na2vs0mg"},{"bike_id":"5288901a-aba0-4ca7-94a4-63b3e7775d26","system_id":"levelo_inurba_marseille","lat":43.28565,"lon":5.39499,"is_reserved":false,"is_disabled":false,"rental_uris":{"android":"levelo://app?vid=5288901a-aba0-4ca7-94a4-63b3e7775d26","ios":"levelo://app?vid=5288901a-aba0-4ca7-94a4-63b3e7775d26"},"vehicle_type_id":"4","last_reported":1726020353,"current_range_meters":16800,"station_id":"ce4bh292rcd13ifvqdg0","pricing_plan_id":"cebpf4jnsgd1na2vs0mg"},{"bike_id":"8baf78c1-8fc6-48c8-84a2-7b5ce34657ff","system_id":"levelo_inurba_marseille","lat":43.31368,"lon":5.38497,"is_reserved":false,"is_disabled":false,"rental_uris":{"android":"levelo://app?vid=8baf78c1-8fc6-48c8-84a2-7b5ce34657ff","ios":"levelo://app?vid=8baf78c1-8fc6-48c8-84a2-7b5ce34657ff"},"vehicle_type_id":"4","last_reported":1726020353,"current_range_meters":38800,"station_id":"ce4bgt92rcd13ifvqcf0","pricing_plan_id":"cebpf4jnsgd1na2vs0mg"},{"bike_id":"c4cc29a6-6d0b-4618-8186-bfc32b5dafcc","system_id":"levelo_inurba_marseille","lat":43.27811,"lon":5.4071,"is_reserved":false,"is_disabled":false,"rental_uris":{"android":"levelo://app?vid=c4cc29a6-6d0b-4618-8186-bfc32b5dafcc","ios":"levelo://app?vid=c4cc29a6-6d0b-4618-8186-bfc32b5dafcc"},"vehicle_type_id":"4","last_reported":1726020353,"current_range_meters":28400,"station_id":"ce4bhnh2rcd13ifvqgtg","pricing_plan_id":"cebpf4jnsgd1na2vs0mg"},{"bike_id":"ccf9124a-19cf-404a-bffb-75d7fd029d65","system_id":"levelo_inurba_marseille","lat":43.27186,"lon":5.40994,"is_reserved":false,"is_disabled":false,"rental_uris":{"android":"levelo://app?vid=ccf9124a-19cf-404a-bffb-75d7fd029d65","ios":"levelo://app?vid=ccf9124a-19cf-404a-bffb-75d7fd029d65"},"vehicle_type_id":"4","last_reported":1726020353,"current_range_meters":36800,"station_id":"ce4bhl12rcd13ifvqgf0","pricing_plan_id":"cebpf4jnsgd1na2vs0mg"},{"bike_id":"77b08259-ff35-4ccb-bc71-d2587aced461","system_id":"levelo_inurba_marseille","lat":43.28711,"lon":5.39975,"is_reserved":false,"is_disabled":false,"rental_uris":{"android":"levelo://app?vid=77b08259-ff35-4ccb-bc71-d2587aced461","ios":"levelo://app?vid=77b08259-ff35-4ccb-bc71-d2587aced461"},"vehicle_type_id":"4","last_reported":1726020353,"current_range_meters":17600,"station_id":"ce4bho92rcd13ifvqh3g","pricing_plan_id":"cebpf4jnsgd1na2vs0mg"},{"bike_id":"d8b57cb2-12a2-4579-ae30-944dfcd391ab","system_id":"levelo_inurba_marseille","lat":43.27952,"lon":5.38714,"is_reserved":false,"is_disabled":false,"rental_uris":{"android":"levelo://app?vid=d8b57cb2-12a2-4579-ae30-944dfcd391ab","ios":"levelo://app?vid=d8b57cb2-12a2-4579-ae30-944dfcd391ab"},"vehicle_type_id":"4","last_reported":1726020353,"current_range_meters":38800,"station_id":"ce4bhg12rcd13ifvqf80","pricing_plan_id":"cebpf4jnsgd1na2vs0mg"},{"bike_id":"343f8a7b-c84d-46f3-98b4-8253eb0833f1","system_id":"levelo_inurba_marseille","lat":43.29545,"lon":5.4229,"is_reserved":false,"is_disabled":false,"rental_uris":{"android":"levelo://app?vid=343f8a7b-c84d-46f3-98b4-8253eb0833f1","ios":"levelo://app?vid=343f8a7b-c84d-46f3-98b4-8253eb0833f1"},"vehicle_type_id":"4","last_reported":1726020353,"current_range_meters":8000,"station_id":"ce4bhph2rcd13ifvqhdg","pricing_plan_id":"cebpf4jnsgd1na2vs0mg"},{"bike_id":"95e7fdc8-bf5f-4f9c-aaac-a84bae7d977c","system_id":"levelo_inurba_marseille","lat":43.27071,"lon":5.42283,"is_reserved":false,"is_disabled":false,"rental_uris":{"android":"levelo://app?vid=95e7fdc8-bf5f-4f9c-aaac-a84bae7d977c","ios":"levelo://app?vid=95e7fdc8-bf5f-4f9c-aaac-a84bae7d977c"},"vehicle_type_id":"4","last_reported":1726020353,"current_range_meters":36800,"station_id":"ce4bhk92rcd13ifvqgb0","pricing_plan_id":"cebpf4jnsgd1na2vs0mg"},{"bike_id":"78054356-4338-4146-aaaf-276542d49459","system_id":"levelo_inurba_marseille","lat":43.2951,"lon":5.39038,"is_reserved":false,"is_disabled":false,"rental_uris":{"android":"levelo://app?vid=78054356-4338-4146-aaaf-276542d49459","ios":"levelo://app?vid=78054356-4338-4146-aaaf-276542d49459"},"vehicle_type_id":"4","last_reported":1726020353,"current_range_meters":38800,"station_id":"ce4bh3p2rcd13ifvqdp0","pricing_plan_id":"cebpf4jnsgd1na2vs0mg"},{"bike_id":"d656b94f-9caa-4640-9471-f2b11ca2d505","system_id":"levelo_inurba_marseille","lat":43.30653,"lon":5.40057,"is_reserved":false,"is_disabled":false,"rental_uris":{"android":"levelo://app?vid=d656b94f-9caa-4640-9471-f2b11ca2d505","ios":"levelo://app?vid=d656b94f-9caa-4640-9471-f2b11ca2d505"},"vehicle_type_id":"4","last_reported":1726020353,"current_range_meters":17600,"station_id":"ce4bh112rcd13ifvqda0","pricing_plan_id":"cebpf4jnsgd1na2vs0mg"},{"bike_id":"12823208-bcd3-4331-b276-40f779f488aa","system_id":"levelo_inurba_marseille","lat":43.2319,"lon":5.39995,"is_reserved":false,"is_disabled":false,"rental_uris":{"android":"levelo://app?vid=12823208-bcd3-4331-b276-40f779f488aa","ios":"levelo://app?vid=12823208-bcd3-4331-b276-40f779f488aa"},"vehicle_type_id":"4","last_reported":1726020353,"current_range_meters":28800,"station_id":"ce4bhn12rcd13ifvqgqg","pricing_plan_id":"cebpf4jnsgd1na2vs0mg"},{"bike_id":"4b79c138-e570-4fd4-a91f-0bd65bb2b782","system_id":"levelo_inurba_marseille","lat":43.27955,"lon":5.38702,"is_reserved":false,"is_disabled":false,"rental_uris":{"android":"levelo://app?vid=4b79c138-e570-4fd4-a91f-0bd65bb2b782","ios":"levelo://app?vid=4b79c138-e570-4fd4-a91f-0bd65bb2b782"},"vehicle_type_id":"4","last_reported":1726020353,"current_range_meters":34800,"station_id":"ce4bhg12rcd13ifvqf80","pricing_plan_id":"cebpf4jnsgd1na2vs0mg"},{"bike_id":"5c8df8df-67a1-450c-ac8b-35a7fa59ac57","system_id":"levelo_inurba_marseille","lat":43.28943,"lon":5.39633,"is_reserved":false,"is_disabled":false,"rental_uris":{"android":"levelo://app?vid=5c8df8df-67a1-450c-ac8b-35a7fa59ac57","ios":"levelo://app?vid=5c8df8df-67a1-450c-ac8b-35a7fa59ac57"},"vehicle_type_id":"4","last_reported":1726020353,"current_range_meters":38800,"station_id":"ce4bh3h2rcd13ifvqdn0","pricing_plan_id":"cebpf4jnsgd1na2vs0mg"},{"bike_id":"cd2446c6-7253-41fc-bf2e-652af44f4791","system_id":"levelo_inurba_marseille","lat":43.28001,"lon":5.41677,"is_reserved":false,"is_disabled":false,"rental_uris":{"android":"levelo://app?vid=cd2446c6-7253-41fc-bf2e-652af44f4791","ios":"levelo://app?vid=cd2446c6-7253-41fc-bf2e-652af44f4791"},"vehicle_type_id":"4","last_reported":1726020353,"current_range_meters":35200,"station_id":"ce4bho12rcd13ifvqh1g","pricing_plan_id":"cebpf4jnsgd1na2vs0mg"},{"bike_id":"134887c8-a03b-4efc-bad7-07fe22ac120c","system_id":"levelo_inurba_marseille","lat":43.30896,"lon":5.37196,"is_reserved":false,"is_disabled":false,"rental_uris":{"android":"levelo://app?vid=134887c8-a03b-4efc-bad7-07fe22ac120c","ios":"levelo://app?vid=134887c8-a03b-4efc-bad7-07fe22ac120c"},"vehicle_type_id":"4","last_reported":1726020353,"current_range_meters":20000,"station_id":"ce4bguh2rcd13ifvqckg","pricing_plan_id":"cebpf4jnsgd1na2vs0mg"},{"bike_id":"f34747ce-f309-4326-987e-7bc67d09e8c3","system_id":"levelo_inurba_marseille","lat":43.32287,"lon":5.38257,"is_reserved":false,"is_disabled":false,"rental_uris":{"android":"levelo://app?vid=f34747ce-f309-4326-987e-7bc67d09e8c3","ios":"levelo://app?vid=f34747ce-f309-4326-987e-7bc67d09e8c3"},"vehicle_type_id":"4","last_reported":1726020353,"current_range_meters":39200,"station_id":"ce4bhr12rcd13ifvqhqg","pricing_plan_id":"cebpf4jnsgd1na2vs0mg"},{"bike_id":"74e38dcf-51b9-4eee-8a4c-cf09a9417a90","system_id":"levelo_inurba_marseille","lat":43.31299,"lon":5.39721,"is_reserved":false,"is_disabled":false,"rental_uris":{"android":"levelo://app?vid=74e38dcf-51b9-4eee-8a4c-cf09a9417a90","ios":"levelo://app?vid=74e38dcf-51b9-4eee-8a4c-cf09a9417a90"},"vehicle_type_id":"4","last_reported":1726020353,"current_range_meters":38400,"station_id":"ce4bgvp2rcd13ifvqcu0","pricing_plan_id":"cebpf4jnsgd1na2vs0mg"},{"bike_id":"962bb7a3-05a7-49bc-9a49-5d193216f960","system_id":"levelo_inurba_marseille","lat":43.31763,"lon":5.39009,"is_reserved":false,"is_disabled":false,"rental_uris":{"android":"levelo://app?vid=962bb7a3-05a7-49bc-9a49-5d193216f960","ios":"levelo://app?vid=962bb7a3-05a7-49bc-9a49-5d193216f960"},"vehicle_type_id":"4","last_reported":1726020353,"current_range_meters":27200,"station_id":"ce4bhqp2rcd13ifvqhng","pricing_plan_id":"cebpf4jnsgd1na2vs0mg"},{"bike_id":"b0c418e3-7076-4b48-86c9-8b078567e702","system_id":"levelo_inurba_marseille","lat":43.2408,"lon":5.3774,"is_reserved":false,"is_disabled":false,"rental_uris":{"android":"levelo://app?vid=b0c418e3-7076-4b48-86c9-8b078567e702","ios":"levelo://app?vid=b0c418e3-7076-4b48-86c9-8b078567e702"},"vehicle_type_id":"4","last_reported":1726020353,"current_range_meters":27600,"station_id":"ce4bhnp2rcd13ifvqgvg","pricing_plan_id":"cebpf4jnsgd1na2vs0mg"},{"bike_id":"e39391bd-b2e7-4fb8-b05f-2275ce1da9c2","system_id":"levelo_inurba_marseille","lat":43.34157,"lon":5.40908,"is_reserved":false,"is_disabled":false,"rental_uris":{"android":"levelo://app?vid=e39391bd-b2e7-4fb8-b05f-2275ce1da9c2","ios":"levelo://app?vid=e39391bd-b2e7-4fb8-b05f-2275ce1da9c2"},"vehicle_type_id":"4","last_reported":1726020353,"current_range_meters":32800,"station_id":"ce4bhqh2rcd13ifvqhlg","pricing_plan_id":"cebpf4jnsgd1na2vs0mg"},{"bike_id":"949f7510-6250-4b40-8486-a9f5d5463786","system_id":"levelo_inurba_marseille","lat":43.31279,"lon":5.40168,"is_reserved":false,"is_disabled":false,"rental_uris":{"android":"levelo://app?vid=949f7510-6250-4b40-8486-a9f5d5463786","ios":"levelo://app?vid=949f7510-6250-4b40-8486-a9f5d5463786"},"vehicle_type_id":"4","last_reported":1726020353,"current_range_meters":39200,"station_id":"ce4bh092rcd13ifvqd30","pricing_plan_id":"cebpf4jnsgd1na2vs0mg"},{"bike_id":"0521b3a1-0333-404b-af2c-33532c6d7b56","system_id":"levelo_inurba_marseille","lat":43.31762,"lon":5.39021,"is_reserved":false,"is_disabled":false,"rental_uris":{"android":"levelo://app?vid=0521b3a1-0333-404b-af2c-33532c6d7b56","ios":"levelo://app?vid=0521b3a1-0333-404b-af2c-33532c6d7b56"},"vehicle_type_id":"4","last_reported":1726020353,"current_range_meters":32400,"station_id":"ce4bhqp2rcd13ifvqhng","pricing_plan_id":"cebpf4jnsgd1na2vs0mg"},{"bike_id":"484884b1-3e16-4da0-8d3d-8e95f9d53680","system_id":"levelo_inurba_marseille","lat":43.31059,"lon":5.3836,"is_reserved":false,"is_disabled":false,"rental_uris":{"android":"levelo://app?vid=484884b1-3e16-4da0-8d3d-8e95f9d53680","ios":"levelo://app?vid=484884b1-3e16-4da0-8d3d-8e95f9d53680"},"vehicle_type_id":"4","last_reported":1726020353,"current_range_meters":19600,"station_id":"ce4bgv92rcd13ifvqcr0","pricing_plan_id":"cebpf4jnsgd1na2vs0mg"},{"bike_id":"d912d18c-82c3-4b85-8164-1fb65c460847","system_id":"levelo_inurba_marseille","lat":43.29159,"lon":5.37157,"is_reserved":false,"is_disabled":false,"rental_uris":{"android":"levelo://app?vid=d912d18c-82c3-4b85-8164-1fb65c460847","ios":"levelo://app?vid=d912d18c-82c3-4b85-8164-1fb65c460847"},"vehicle_type_id":"4","last_reported":1726020353,"current_range_meters":35600,"station_id":"ce4bha92rcd13ifvqeh0","pricing_plan_id":"cebpf4jnsgd1na2vs0mg"},{"bike_id":"6a6f6f6c-b9b5-486b-b1e2-af41a2c3714d","system_id":"levelo_inurba_marseille","lat":43.28279,"lon":5.35072,"is_reserved":false,"is_disabled":false,"rental_uris":{"android":"levelo://app?vid=6a6f6f6c-b9b5-486b-b1e2-af41a2c3714d","ios":"levelo://app?vid=6a6f6f6c-b9b5-486b-b1e2-af41a2c3714d"},"vehicle_type_id":"4","last_reported":1726020353,"current_range_meters":38800,"station_id":"ce4bhbp2rcd13ifvqerg","pricing_plan_id":"cebpf4jnsgd1na2vs0mg"},{"bike_id":"83cd930b-87fb-494c-b63e-2d56c93650b7","system_id":"levelo_inurba_marseille","lat":43.28466,"lon":5.35895,"is_reserved":false,"is_disabled":false,"rental_uris":{"android":"levelo://app?vid=83cd930b-87fb-494c-b63e-2d56c93650b7","ios":"levelo://app?vid=83cd930b-87fb-494c-b63e-2d56c93650b7"},"vehicle_type_id":"4","last_reported":1726020353,"current_range_meters":38800,"station_id":"ce4bhah2rcd13ifvqei0","pricing_plan_id":"cebpf4jnsgd1na2vs0mg"},{"bike_id":"edc135e9-fc58-4949-9e7d-bf5feaa8ae05","system_id":"levelo_inurba_marseille","lat":43.26494,"lon":5.3955,"is_reserved":false,"is_disabled":false,"rental_uris":{"android":"levelo://app?vid=edc135e9-fc58-4949-9e7d-bf5feaa8ae05","ios":"levelo://app?vid=edc135e9-fc58-4949-9e7d-bf5feaa8ae05"},"vehicle_type_id":"4","last_reported":1726020353,"current_range_meters":26800,"station_id":"ce4bhi12rcd13ifvqfq0","pricing_plan_id":"cebpf4jnsgd1na2vs0mg"},{"bike_id":"8f225280-6721-4068-b94d-f4ee100a572a","system_id":"levelo_inurba_marseille","lat":43.2455,"lon":5.39537,"is_reserved":false,"is_disabled":false,"rental_uris":{"android":"levelo://app?vid=8f225280-6721-4068-b94d-f4ee100a572a","ios":"levelo://app?vid=8f225280-6721-4068-b94d-f4ee100a572a"},"vehicle_type_id":"4","last_reported":1726020353,"current_range_meters":36000,"station_id":"ce4bhlp2rcd13ifvqgjg","pricing_plan_id":"cebpf4jnsgd1na2vs0mg"},{"bike_id":"ee4607c9-6955-4e13-b7d5-aec07ce4d086","system_id":"levelo_inurba_marseille","lat":43.31691,"lon":5.40486,"is_reserved":false,"is_disabled":false,"rental_uris":{"android":"levelo://app?vid=ee4607c9-6955-4e13-b7d5-aec07ce4d086","ios":"levelo://app?vid=ee4607c9-6955-4e13-b7d5-aec07ce4d086"},"vehicle_type_id":"4","last_reported":1726020353,"current_range_meters":16000,"station_id":"ce4bh012rcd13ifvqd00","pricing_plan_id":"cebpf4jnsgd1na2vs0mg"},{"bike_id":"24f8399c-3f6b-4afe-b89d-f716cc994be8","system_id":"levelo_inurba_marseille","lat":43.28456,"lon":5.35887,"is_reserved":false,"is_disabled":false,"rental_uris":{"android":"levelo://app?vid=24f8399c-3f6b-4afe-b89d-f716cc994be8","ios":"levelo://app?vid=24f8399c-3f6b-4afe-b89d-f716cc994be8"},"vehicle_type_id":"4","last_reported":1726020353,"current_range_meters":37600,"station_id":"ce4bhah2rcd13ifvqei0","pricing_plan_id":"cebpf4jnsgd1na2vs0mg"},{"bike_id":"44fd2a9f-234c-4df7-a67d-dfd0f3f0ae9c","system_id":"levelo_inurba_marseille","lat":43.29044,"lon":5.39955,"is_reserved":false,"is_disabled":false,"rental_uris":{"android":"levelo://app?vid=44fd2a9f-234c-4df7-a67d-dfd0f3f0ae9c","ios":"levelo://app?vid=44fd2a9f-234c-4df7-a67d-dfd0f3f0ae9c"},"vehicle_type_id":"4","last_reported":1726020353,"current_range_meters":38000,"station_id":"ce4bh392rcd13ifvqdm0","pricing_plan_id":"cebpf4jnsgd1na2vs0mg"},{"bike_id":"64eeee5f-43be-4397-a07a-ed09cccb8a4c","system_id":"levelo_inurba_marseille","lat":43.28004,"lon":5.41677,"is_reserved":false,"is_disabled":false,"rental_uris":{"android":"levelo://app?vid=64eeee5f-43be-4397-a07a-ed09cccb8a4c","ios":"levelo://app?vid=64eeee5f-43be-4397-a07a-ed09cccb8a4c"},"vehicle_type_id":"4","last_reported":1726020353,"current_range_meters":38800,"station_id":"ce4bho12rcd13ifvqh1g","pricing_plan_id":"cebpf4jnsgd1na2vs0mg"},{"bike_id":"a5378d9e-ab88-4132-955c-51d09adec59d","system_id":"levelo_inurba_marseille","lat":43.28039,"lon":5.36948,"is_reserved":false,"is_disabled":false,"rental_uris":{"android":"levelo://app?vid=a5378d9e-ab88-4132-955c-51d09adec59d","ios":"levelo://app?vid=a5378d9e-ab88-4132-955c-51d09adec59d"},"vehicle_type_id":"4","last_reported":1726020353,"current_range_meters":36400,"station_id":"ce4bha12rcd13ifvqef0","pricing_plan_id":"cebpf4jnsgd1na2vs0mg"},{"bike_id":"77cb9076-bd27-4d0e-b4cb-72e09d2228d9","system_id":"levelo_inurba_marseille","lat":43.30804,"lon":5.43523,"is_reserved":false,"is_disabled":false,"rental_uris":{"android":"levelo://app?vid=77cb9076-bd27-4d0e-b4cb-72e09d2228d9","ios":"levelo://app?vid=77cb9076-bd27-4d0e-b4cb-72e09d2228d9"},"vehicle_type_id":"4","last_reported":1726020353,"current_range_meters":38400,"station_id":"ce4bhph2rcd13ifvqheg","pricing_plan_id":"cebpf4jnsgd1na2vs0mg"},{"bike_id":"79c048a7-5de8-4f6b-a4ee-caa7e8248925","system_id":"levelo_inurba_marseille","lat":43.24065,"lon":5.3776,"is_reserved":false,"is_disabled":false,"rental_uris":{"android":"levelo://app?vid=79c048a7-5de8-4f6b-a4ee-caa7e8248925","ios":"levelo://app?vid=79c048a7-5de8-4f6b-a4ee-caa7e8248925"},"vehicle_type_id":"4","last_reported":1726020353,"current_range_meters":23200,"station_id":"ce4bhnp2rcd13ifvqgvg","pricing_plan_id":"cebpf4jnsgd1na2vs0mg"},{"bike_id":"6c02a711-e0d4-4009-9d44-fba5428f55b2","system_id":"levelo_inurba_marseille","lat":43.23199,"lon":5.35566,"is_reserved":false,"is_disabled":false,"rental_uris":{"android":"levelo://app?vid=6c02a711-e0d4-4009-9d44-fba5428f55b2","ios":"levelo://app?vid=6c02a711-e0d4-4009-9d44-fba5428f55b2"},"vehicle_type_id":"4","last_reported":1726020353,"current_range_meters":6400,"station_id":"ce4bhu92rcd13ifvqi70","pricing_plan_id":"cebpf4jnsgd1na2vs0mg"},{"bike_id":"a2e58725-2eed-48e6-99e1-3f6acbd0f5a6","system_id":"levelo_inurba_marseille","lat":43.31132,"lon":5.37768,"is_reserved":false,"is_disabled":false,"rental_uris":{"android":"levelo://app?vid=a2e58725-2eed-48e6-99e1-3f6acbd0f5a6","ios":"levelo://app?vid=a2e58725-2eed-48e6-99e1-3f6acbd0f5a6"},"vehicle_type_id":"4","last_reported":1726020353,"current_range_meters":36800,"station_id":"ce4bgt92rcd13ifvqcg0","pricing_plan_id":"cebpf4jnsgd1na2vs0mg"},{"bike_id":"9d86b566-80af-4685-ae91-79bc3f87b54d","system_id":"levelo_inurba_marseille","lat":43.2792,"lon":5.39559,"is_reserved":false,"is_disabled":false,"rental_uris":{"android":"levelo://app?vid=9d86b566-80af-4685-ae91-79bc3f87b54d","ios":"levelo://app?vid=9d86b566-80af-4685-ae91-79bc3f87b54d"},"vehicle_type_id":"4","last_reported":1726020353,"current_range_meters":28800,"station_id":"ce4bhf92rcd13ifvqf40","pricing_plan_id":"cebpf4jnsgd1na2vs0mg"},{"bike_id":"609573c2-0281-4a8c-9978-1b2685212ad4","system_id":"levelo_inurba_marseille","lat":43.28703,"lon":5.37386,"is_reserved":false,"is_disabled":false,"rental_uris":{"android":"levelo://app?vid=609573c2-0281-4a8c-9978-1b2685212ad4","ios":"levelo://app?vid=609573c2-0281-4a8c-9978-1b2685212ad4"},"vehicle_type_id":"4","last_reported":1726020353,"current_range_meters":38800,"station_id":"ce4bh3p2rcd13ifvqdq0","pricing_plan_id":"cebpf4jnsgd1na2vs0mg"},{"bike_id":"c0f333b1-af44-43d2-8392-3aeea3a74311","system_id":"levelo_inurba_marseille","lat":43.30827,"lon":5.40342,"is_reserved":false,"is_disabled":false,"rental_uris":{"android":"levelo://app?vid=c0f333b1-af44-43d2-8392-3aeea3a74311","ios":"levelo://app?vid=c0f333b1-af44-43d2-8392-3aeea3a74311"},"vehicle_type_id":"4","last_reported":1726020353,"current_range_meters":38400,"station_id":"ce4bgvp2rcd13ifvqct0","pricing_plan_id":"cebpf4jnsgd1na2vs0mg"},{"bike_id":"687c1b45-ac94-402b-b9fc-bc877da827a6","system_id":"levelo_inurba_marseille","lat":43.24667,"lon":5.3816,"is_reserved":false,"is_disabled":false,"rental_uris":{"android":"levelo://app?vid=687c1b45-ac94-402b-b9fc-bc877da827a6","ios":"levelo://app?vid=687c1b45-ac94-402b-b9fc-bc877da827a6"},"vehicle_type_id":"4","last_reported":1726020353,"current_range_meters":30800,"station_id":"ce4bhih2rcd13ifvqfr0","pricing_plan_id":"cebpf4jnsgd1na2vs0mg"},{"bike_id":"025fa29d-5cab-4747-a78d-80f6d7ac5f89","system_id":"levelo_inurba_marseille","lat":43.30889,"lon":5.39638,"is_reserved":false,"is_disabled":false,"rental_uris":{"android":"levelo://app?vid=025fa29d-5cab-4747-a78d-80f6d7ac5f89","ios":"levelo://app?vid=025fa29d-5cab-4747-a78d-80f6d7ac5f89"},"vehicle_type_id":"4","last_reported":1726020353,"current_range_meters":38400,"station_id":"ce4bh012rcd13ifvqcv0","pricing_plan_id":"cebpf4jnsgd1na2vs0mg"},{"bike_id":"9e88500d-1735-4ec9-8c31-0839df419195","system_id":"levelo_inurba_marseille","lat":43.27245,"lon":5.39205,"is_reserved":false,"is_disabled":false,"rental_uris":{"android":"levelo://app?vid=9e88500d-1735-4ec9-8c31-0839df419195","ios":"levelo://app?vid=9e88500d-1735-4ec9-8c31-0839df419195"},"vehicle_type_id":"4","last_reported":1726020353,"current_range_meters":22800,"station_id":"ce4bhhp2rcd13ifvqfm0","pricing_plan_id":"cebpf4jnsgd1na2vs0mg"},{"bike_id":"a0a171e1-c7f9-44c5-b264-7e1e5e1214a6","system_id":"levelo_inurba_marseille","lat":43.29534,"lon":5.38546,"is_reserved":false,"is_disabled":false,"rental_uris":{"android":"levelo://app?vid=a0a171e1-c7f9-44c5-b264-7e1e5e1214a6","ios":"levelo://app?vid=a0a171e1-c7f9-44c5-b264-7e1e5e1214a6"},"vehicle_type_id":"4","last_reported":1726020353,"current_range_meters":33600,"station_id":"ce4bgih2rcd13ifvqba0","pricing_plan_id":"cebpf4jnsgd1na2vs0mg"},{"bike_id":"cc07969a-f608-4830-9b94-535cf66b922b","system_id":"levelo_inurba_marseille","lat":43.28695,"lon":5.374,"is_reserved":false,"is_disabled":false,"rental_uris":{"android":"levelo://app?vid=cc07969a-f608-4830-9b94-535cf66b922b","ios":"levelo://app?vid=cc07969a-f608-4830-9b94-535cf66b922b"},"vehicle_type_id":"4","last_reported":1726020353,"current_range_meters":38400,"station_id":"ce4bh3p2rcd13ifvqdq0","pricing_plan_id":"cebpf4jnsgd1na2vs0mg"},{"bike_id":"b59d6bb8-aefb-4db8-b3f2-f169f342ddcd","system_id":"levelo_inurba_marseille","lat":43.32365,"lon":5.38891,"is_reserved":false,"is_disabled":false,"rental_uris":{"android":"levelo://app?vid=b59d6bb8-aefb-4db8-b3f2-f169f342ddcd","ios":"levelo://app?vid=b59d6bb8-aefb-4db8-b3f2-f169f342ddcd"},"vehicle_type_id":"4","last_reported":1726020353,"current_range_meters":4800,"station_id":"ce4bhqp2rcd13ifvqhog","pricing_plan_id":"cebpf4jnsgd1na2vs0mg"},{"bike_id":"eb7bd74c-f411-4782-9910-18b3ca325579","system_id":"levelo_inurba_marseille","lat":43.27208,"lon":5.39192,"is_reserved":false,"is_disabled":false,"rental_uris":{"android":"levelo://app?vid=eb7bd74c-f411-4782-9910-18b3ca325579","ios":"levelo://app?vid=eb7bd74c-f411-4782-9910-18b3ca325579"},"vehicle_type_id":"4","last_reported":1726020353,"current_range_meters":37600,"station_id":"ce4bhhp2rcd13ifvqfm0","pricing_plan_id":"cebpf4jnsgd1na2vs0mg"},{"bike_id":"783428b3-8d12-4df0-9684-836cb2f47e07","system_id":"levelo_inurba_marseille","lat":43.27566,"lon":5.38418,"is_reserved":false,"is_disabled":false,"rental_uris":{"android":"levelo://app?vid=783428b3-8d12-4df0-9684-836cb2f47e07","ios":"levelo://app?vid=783428b3-8d12-4df0-9684-836cb2f47e07"},"vehicle_type_id":"4","last_reported":1726020353,"current_range_meters":38800,"station_id":"ce4bhh92rcd13ifvqfi0","pricing_plan_id":"cebpf4jnsgd1na2vs0mg"},{"bike_id":"3c1219b6-feb0-4ae0-807c-a32a8b70e988","system_id":"levelo_inurba_marseille","lat":43.31532,"lon":5.38029,"is_reserved":false,"is_disabled":false,"rental_uris":{"android":"levelo://app?vid=3c1219b6-feb0-4ae0-807c-a32a8b70e988","ios":"levelo://app?vid=3c1219b6-feb0-4ae0-807c-a32a8b70e988"},"vehicle_type_id":"4","last_reported":1726020353,"current_range_meters":38800,"station_id":"ce4bhsp2rcd13ifvqi50","pricing_plan_id":"cebpf4jnsgd1na2vs0mg"},{"bike_id":"655fa185-92f6-465f-b629-5a2bc190ae77","system_id":"levelo_inurba_marseille","lat":43.31687,"lon":5.40477,"is_reserved":false,"is_disabled":false,"rental_uris":{"android":"levelo://app?vid=655fa185-92f6-465f-b629-5a2bc190ae77","ios":"levelo://app?vid=655fa185-92f6-465f-b629-5a2bc190ae77"},"vehicle_type_id":"4","last_reported":1726020353,"current_range_meters":30400,"station_id":"ce4bh012rcd13ifvqd00","pricing_plan_id":"cebpf4jnsgd1na2vs0mg"},{"bike_id":"f0568bfe-80db-4011-822b-68c107419811","system_id":"levelo_inurba_marseille","lat":43.28472,"lon":5.38403,"is_reserved":false,"is_disabled":false,"rental_uris":{"android":"levelo://app?vid=f0568bfe-80db-4011-822b-68c107419811","ios":"levelo://app?vid=f0568bfe-80db-4011-822b-68c107419811"},"vehicle_type_id":"4","last_reported":1726020353,"current_range_meters":31200,"station_id":"ce4bh512rcd13ifvqe3g","pricing_plan_id":"cebpf4jnsgd1na2vs0mg"},{"bike_id":"a6ff41ef-0755-4380-91da-e3360c2b3830","system_id":"levelo_inurba_marseille","lat":43.29609,"lon":5.37725,"is_reserved":false,"is_disabled":false,"rental_uris":{"android":"levelo://app?vid=a6ff41ef-0755-4380-91da-e3360c2b3830","ios":"levelo://app?vid=a6ff41ef-0755-4380-91da-e3360c2b3830"},"vehicle_type_id":"4","last_reported":1726020353,"current_range_meters":34000,"station_id":"ce4bgi92rcd13ifvqb90","pricing_plan_id":"cebpf4jnsgd1na2vs0mg"},{"bike_id":"c52fffd4-85f8-4b1a-889e-77132c968666","system_id":"levelo_inurba_marseille","lat":43.28697,"lon":5.39983,"is_reserved":false,"is_disabled":false,"rental_uris":{"android":"levelo://app?vid=c52fffd4-85f8-4b1a-889e-77132c968666","ios":"levelo://app?vid=c52fffd4-85f8-4b1a-889e-77132c968666"},"vehicle_type_id":"4","last_reported":1726020353,"current_range_meters":19600,"station_id":"ce4bho92rcd13ifvqh3g","pricing_plan_id":"cebpf4jnsgd1na2vs0mg"},{"bike_id":"d94cf20d-19e4-4d88-bbb3-72b7a4c6baa3","system_id":"levelo_inurba_marseille","lat":43.32288,"lon":5.38265,"is_reserved":false,"is_disabled":false,"rental_uris":{"android":"levelo://app?vid=d94cf20d-19e4-4d88-bbb3-72b7a4c6baa3","ios":"levelo://app?vid=d94cf20d-19e4-4d88-bbb3-72b7a4c6baa3"},"vehicle_type_id":"4","last_reported":1726020353,"current_range_meters":38800,"station_id":"ce4bhr12rcd13ifvqhqg","pricing_plan_id":"cebpf4jnsgd1na2vs0mg"},{"bike_id":"02eeece1-276b-470d-8a33-7129bd921d31","system_id":"levelo_inurba_marseille","lat":43.30803,"lon":5.4353,"is_reserved":false,"is_disabled":false,"rental_uris":{"android":"levelo://app?vid=02eeece1-276b-470d-8a33-7129bd921d31","ios":"levelo://app?vid=02eeece1-276b-470d-8a33-7129bd921d31"},"vehicle_type_id":"4","last_reported":1726020353,"current_range_meters":26000,"station_id":"ce4bhph2rcd13ifvqheg","pricing_plan_id":"cebpf4jnsgd1na2vs0mg"},{"bike_id":"6a4148ba-dcc6-4ce7-b21b-f2fcb475c074","system_id":"levelo_inurba_marseille","lat":43.28405,"lon":5.37527,"is_reserved":false,"is_disabled":false,"rental_uris":{"android":"levelo://app?vid=6a4148ba-dcc6-4ce7-b21b-f2fcb475c074","ios":"levelo://app?vid=6a4148ba-dcc6-4ce7-b21b-f2fcb475c074"},"vehicle_type_id":"4","last_reported":1726020353,"current_range_meters":38800,"station_id":"ce4bh412rcd13ifvqds0","pricing_plan_id":"cebpf4jnsgd1na2vs0mg"},{"bike_id":"cc3e6c0c-744c-4f92-a6c7-f3980b7ec1c9","system_id":"levelo_inurba_marseille","lat":43.28454,"lon":5.35898,"is_reserved":false,"is_disabled":false,"rental_uris":{"android":"levelo://app?vid=cc3e6c0c-744c-4f92-a6c7-f3980b7ec1c9","ios":"levelo://app?vid=cc3e6c0c-744c-4f92-a6c7-f3980b7ec1c9"},"vehicle_type_id":"4","last_reported":1726020353,"current_range_meters":38800,"station_id":"ce4bhah2rcd13ifvqei0","pricing_plan_id":"cebpf4jnsgd1na2vs0mg"},{"bike_id":"00ca710c-aa25-453d-b5eb-9286e939dc6d","system_id":"levelo_inurba_marseille","lat":43.29555,"lon":5.42277,"is_reserved":false,"is_disabled":false,"rental_uris":{"android":"levelo://app?vid=00ca710c-aa25-453d-b5eb-9286e939dc6d","ios":"levelo://app?vid=00ca710c-aa25-453d-b5eb-9286e939dc6d"},"vehicle_type_id":"4","last_reported":1726020353,"current_range_meters":39200,"station_id":"ce4bhph2rcd13ifvqhdg","pricing_plan_id":"cebpf4jnsgd1na2vs0mg"},{"bike_id":"4096826d-082f-48bf-aaa9-e570b35c89f7","system_id":"levelo_inurba_marseille","lat":43.2793,"lon":5.39577,"is_reserved":false,"is_disabled":false,"rental_uris":{"android":"levelo://app?vid=4096826d-082f-48bf-aaa9-e570b35c89f7","ios":"levelo://app?vid=4096826d-082f-48bf-aaa9-e570b35c89f7"},"vehicle_type_id":"4","last_reported":1726020353,"current_range_meters":26000,"station_id":"ce4bhf92rcd13ifvqf40","pricing_plan_id":"cebpf4jnsgd1na2vs0mg"},{"bike_id":"a36a6131-7175-4d21-afcf-16a3b952996a","system_id":"levelo_inurba_marseille","lat":43.308,"lon":5.37646,"is_reserved":false,"is_disabled":false,"rental_uris":{"android":"levelo://app?vid=a36a6131-7175-4d21-afcf-16a3b952996a","ios":"levelo://app?vid=a36a6131-7175-4d21-afcf-16a3b952996a"},"vehicle_type_id":"4","last_reported":1726020353,"current_range_meters":11600,"station_id":"ce4bgv92rcd13ifvqcq0","pricing_plan_id":"cebpf4jnsgd1na2vs0mg"},{"bike_id":"2e23597d-e77d-486c-a95e-6cdb71b1bd53","system_id":"levelo_inurba_marseille","lat":43.32317,"lon":5.38905,"is_reserved":false,"is_disabled":false,"rental_uris":{"android":"levelo://app?vid=2e23597d-e77d-486c-a95e-6cdb71b1bd53","ios":"levelo://app?vid=2e23597d-e77d-486c-a95e-6cdb71b1bd53"},"vehicle_type_id":"4","last_reported":1726020353,"current_range_meters":11200,"station_id":"ce4bhqp2rcd13ifvqhog","pricing_plan_id":"cebpf4jnsgd1na2vs0mg"},{"bike_id":"d878d0a1-9762-4298-8fc9-2f65a826341a","system_id":"levelo_inurba_marseille","lat":43.30959,"lon":5.39045,"is_reserved":false,"is_disabled":false,"rental_uris":{"android":"levelo://app?vid=d878d0a1-9762-4298-8fc9-2f65a826341a","ios":"levelo://app?vid=d878d0a1-9762-4298-8fc9-2f65a826341a"},"vehicle_type_id":"4","last_reported":1726020353,"current_range_meters":12000,"station_id":"ce4bgup2rcd13ifvqco0","pricing_plan_id":"cebpf4jnsgd1na2vs0mg"},{"bike_id":"c4ea3f4a-61da-4560-bcb8-5c1def30ff3f","system_id":"levelo_inurba_marseille","lat":43.28617,"lon":5.35102,"is_reserved":false,"is_disabled":false,"rental_uris":{"android":"levelo://app?vid=c4ea3f4a-61da-4560-bcb8-5c1def30ff3f","ios":"levelo://app?vid=c4ea3f4a-61da-4560-bcb8-5c1def30ff3f"},"vehicle_type_id":"4","last_reported":1726020353,"current_range_meters":38800,"station_id":"ce4bhch2rcd13ifvqeug","pricing_plan_id":"cebpf4jnsgd1na2vs0mg"},{"bike_id":"71e434c8-9251-47ca-88a8-25cb42fcaa66","system_id":"levelo_inurba_marseille","lat":43.27681,"lon":5.38904,"is_reserved":false,"is_disabled":false,"rental_uris":{"android":"levelo://app?vid=71e434c8-9251-47ca-88a8-25cb42fcaa66","ios":"levelo://app?vid=71e434c8-9251-47ca-88a8-25cb42fcaa66"},"vehicle_type_id":"4","last_reported":1726020353,"current_range_meters":38800,"station_id":"ce4bhi12rcd13ifvqfo0","pricing_plan_id":"cebpf4jnsgd1na2vs0mg"},{"bike_id":"6db64dae-937c-4c84-a07e-af2cad8f543f","system_id":"levelo_inurba_marseille","lat":43.30891,"lon":5.39649,"is_reserved":false,"is_disabled":false,"rental_uris":{"android":"levelo://app?vid=6db64dae-937c-4c84-a07e-af2cad8f543f","ios":"levelo://app?vid=6db64dae-937c-4c84-a07e-af2cad8f543f"},"vehicle_type_id":"4","last_reported":1726020353,"current_range_meters":38400,"station_id":"ce4bh012rcd13ifvqcv0","pricing_plan_id":"cebpf4jnsgd1na2vs0mg"},{"bike_id":"7d379912-5512-4136-825f-f149378c51b0","system_id":"levelo_inurba_marseille","lat":43.27852,"lon":5.38497,"is_reserved":false,"is_disabled":false,"rental_uris":{"android":"levelo://app?vid=7d379912-5512-4136-825f-f149378c51b0","ios":"levelo://app?vid=7d379912-5512-4136-825f-f149378c51b0"},"vehicle_type_id":"4","last_reported":1726020353,"current_range_meters":33200,"station_id":"","pricing_plan_id":"cebpf4jnsgd1na2vs0mg"},{"bike_id":"44de63c2-953d-4663-aa63-22c7782e7c83","system_id":"levelo_inurba_marseille","lat":43.28465,"lon":5.35892,"is_reserved":false,"is_disabled":false,"rental_uris":{"android":"levelo://app?vid=44de63c2-953d-4663-aa63-22c7782e7c83","ios":"levelo://app?vid=44de63c2-953d-4663-aa63-22c7782e7c83"},"vehicle_type_id":"4","last_reported":1726020353,"current_range_meters":38800,"station_id":"ce4bhah2rcd13ifvqei0","pricing_plan_id":"cebpf4jnsgd1na2vs0mg"},{"bike_id":"af29e765-80ea-48b7-873e-9075e9bf27db","system_id":"levelo_inurba_marseille","lat":43.28015,"lon":5.36952,"is_reserved":false,"is_disabled":false,"rental_uris":{"android":"levelo://app?vid=af29e765-80ea-48b7-873e-9075e9bf27db","ios":"levelo://app?vid=af29e765-80ea-48b7-873e-9075e9bf27db"},"vehicle_type_id":"4","last_reported":1726020353,"current_range_meters":16800,"station_id":"ce4bha12rcd13ifvqef0","pricing_plan_id":"cebpf4jnsgd1na2vs0mg"},{"bike_id":"6ac0385a-09c3-4112-8eb3-5351bb9c2a07","system_id":"levelo_inurba_marseille","lat":43.28449,"lon":5.35895,"is_reserved":false,"is_disabled":false,"rental_uris":{"android":"levelo://app?vid=6ac0385a-09c3-4112-8eb3-5351bb9c2a07","ios":"levelo://app?vid=6ac0385a-09c3-4112-8eb3-5351bb9c2a07"},"vehicle_type_id":"4","last_reported":1726020353,"current_range_meters":39200,"station_id":"ce4bhah2rcd13ifvqei0","pricing_plan_id":"cebpf4jnsgd1na2vs0mg"},{"bike_id":"46283882-fc8d-4ace-828e-48f050008649","system_id":"levelo_inurba_marseille","lat":43.28405,"lon":5.37517,"is_reserved":false,"is_disabled":false,"rental_uris":{"android":"levelo://app?vid=46283882-fc8d-4ace-828e-48f050008649","ios":"levelo://app?vid=46283882-fc8d-4ace-828e-48f050008649"},"vehicle_type_id":"4","last_reported":1726020353,"current_range_meters":38800,"station_id":"ce4bh412rcd13ifvqds0","pricing_plan_id":"cebpf4jnsgd1na2vs0mg"},{"bike_id":"b77681a4-4ed0-4be8-bbd7-2dc7c4cd333c","system_id":"levelo_inurba_marseille","lat":43.31765,"lon":5.39002,"is_reserved":false,"is_disabled":false,"rental_uris":{"android":"levelo://app?vid=b77681a4-4ed0-4be8-bbd7-2dc7c4cd333c","ios":"levelo://app?vid=b77681a4-4ed0-4be8-bbd7-2dc7c4cd333c"},"vehicle_type_id":"4","last_reported":1726020353,"current_range_meters":30800,"station_id":"ce4bhqp2rcd13ifvqhng","pricing_plan_id":"cebpf4jnsgd1na2vs0mg"},{"bike_id":"66d77ced-2a27-4ccf-ad03-cd7cf718200a","system_id":"levelo_inurba_marseille","lat":43.2997,"lon":5.37169,"is_reserved":false,"is_disabled":false,"rental_uris":{"android":"levelo://app?vid=66d77ced-2a27-4ccf-ad03-cd7cf718200a","ios":"levelo://app?vid=66d77ced-2a27-4ccf-ad03-cd7cf718200a"},"vehicle_type_id":"4","last_reported":1726020353,"current_range_meters":38000,"station_id":"ce4bgr92rcd13ifvqc7g","pricing_plan_id":"cebpf4jnsgd1na2vs0mg"},{"bike_id":"52a0f38d-3211-4d2e-b296-7d2f78d43ba6","system_id":"levelo_inurba_marseille","lat":43.27177,"lon":5.40988,"is_reserved":false,"is_disabled":false,"rental_uris":{"android":"levelo://app?vid=52a0f38d-3211-4d2e-b296-7d2f78d43ba6","ios":"levelo://app?vid=52a0f38d-3211-4d2e-b296-7d2f78d43ba6"},"vehicle_type_id":"4","last_reported":1726020353,"current_range_meters":25200,"station_id":"ce4bhl12rcd13ifvqgf0","pricing_plan_id":"cebpf4jnsgd1na2vs0mg"},{"bike_id":"044c6c19-928b-49be-810d-1a1364296b66","system_id":"levelo_inurba_marseille","lat":43.27816,"lon":5.40696,"is_reserved":false,"is_disabled":false,"rental_uris":{"android":"levelo://app?vid=044c6c19-928b-49be-810d-1a1364296b66","ios":"levelo://app?vid=044c6c19-928b-49be-810d-1a1364296b66"},"vehicle_type_id":"4","last_reported":1726020353,"current_range_meters":21600,"station_id":"ce4bhnh2rcd13ifvqgtg","pricing_plan_id":"cebpf4jnsgd1na2vs0mg"},{"bike_id":"7a291b7d-e45a-41df-9723-7a88a66828fe","system_id":"levelo_inurba_marseille","lat":43.2501,"lon":5.38917,"is_reserved":false,"is_disabled":false,"rental_uris":{"android":"levelo://app?vid=7a291b7d-e45a-41df-9723-7a88a66828fe","ios":"levelo://app?vid=7a291b7d-e45a-41df-9723-7a88a66828fe"},"vehicle_type_id":"4","last_reported":1726020353,"current_range_meters":30800,"station_id":"ce4bhgp2rcd13ifvqfd0","pricing_plan_id":"cebpf4jnsgd1na2vs0mg"},{"bike_id":"eefefcc6-11cd-4d33-991c-12b4a6414c9b","system_id":"levelo_inurba_marseille","lat":43.2804,"lon":5.36946,"is_reserved":false,"is_disabled":false,"rental_uris":{"android":"levelo://app?vid=eefefcc6-11cd-4d33-991c-12b4a6414c9b","ios":"levelo://app?vid=eefefcc6-11cd-4d33-991c-12b4a6414c9b"},"vehicle_type_id":"4","last_reported":1726020353,"current_range_meters":37600,"station_id":"ce4bha12rcd13ifvqef0","pricing_plan_id":"cebpf4jnsgd1na2vs0mg"},{"bike_id":"a8c0cf6e-8bb7-4c7d-9562-9d3c928fc141","system_id":"levelo_inurba_marseille","lat":43.25121,"lon":5.40323,"is_reserved":false,"is_disabled":false,"rental_uris":{"android":"levelo://app?vid=a8c0cf6e-8bb7-4c7d-9562-9d3c928fc141","ios":"levelo://app?vid=a8c0cf6e-8bb7-4c7d-9562-9d3c928fc141"},"vehicle_type_id":"4","last_reported":1726020353,"current_range_meters":39200,"station_id":"ce4bhlh2rcd13ifvqgig","pricing_plan_id":"cebpf4jnsgd1na2vs0mg"},{"bike_id":"745a4a92-6575-449a-96df-c38622c66303","system_id":"levelo_inurba_marseille","lat":43.28001,"lon":5.40012,"is_reserved":false,"is_disabled":false,"rental_uris":{"android":"levelo://app?vid=745a4a92-6575-449a-96df-c38622c66303","ios":"levelo://app?vid=745a4a92-6575-449a-96df-c38622c66303"},"vehicle_type_id":"4","last_reported":1726020353,"current_range_meters":20400,"station_id":"ce4bho92rcd13ifvqh4g","pricing_plan_id":"cebpf4jnsgd1na2vs0mg"},{"bike_id":"f1ea8c6f-65c6-4c34-b89c-98dd712d80c3","system_id":"levelo_inurba_marseille","lat":43.2408,"lon":5.37734,"is_reserved":false,"is_disabled":false,"rental_uris":{"android":"levelo://app?vid=f1ea8c6f-65c6-4c34-b89c-98dd712d80c3","ios":"levelo://app?vid=f1ea8c6f-65c6-4c34-b89c-98dd712d80c3"},"vehicle_type_id":"4","last_reported":1726020353,"current_range_meters":21600,"station_id":"ce4bhnp2rcd13ifvqgvg","pricing_plan_id":"cebpf4jnsgd1na2vs0mg"},{"bike_id":"4f5982f3-bfc1-4b72-8596-8b9dabde0888","system_id":"levelo_inurba_marseille","lat":43.28942,"lon":5.39613,"is_reserved":false,"is_disabled":false,"rental_uris":{"android":"levelo://app?vid=4f5982f3-bfc1-4b72-8596-8b9dabde0888","ios":"levelo://app?vid=4f5982f3-bfc1-4b72-8596-8b9dabde0888"},"vehicle_type_id":"4","last_reported":1726020353,"current_range_meters":27200,"station_id":"ce4bh3h2rcd13ifvqdn0","pricing_plan_id":"cebpf4jnsgd1na2vs0mg"},{"bike_id":"b2784c5f-ca5e-45c6-aa33-b75bc60bde41","system_id":"levelo_inurba_marseille","lat":43.27954,"lon":5.38718,"is_reserved":false,"is_disabled":false,"rental_uris":{"android":"levelo://app?vid=b2784c5f-ca5e-45c6-aa33-b75bc60bde41","ios":"levelo://app?vid=b2784c5f-ca5e-45c6-aa33-b75bc60bde41"},"vehicle_type_id":"4","last_reported":1726020353,"current_range_meters":30400,"station_id":"ce4bhg12rcd13ifvqf80","pricing_plan_id":"cebpf4jnsgd1na2vs0mg"},{"bike_id":"0582c2e3-8115-4bc4-8b74-4acd209b970f","system_id":"levelo_inurba_marseille","lat":43.27065,"lon":5.42276,"is_reserved":false,"is_disabled":false,"rental_uris":{"android":"levelo://app?vid=0582c2e3-8115-4bc4-8b74-4acd209b970f","ios":"levelo://app?vid=0582c2e3-8115-4bc4-8b74-4acd209b970f"},"vehicle_type_id":"4","last_reported":1726020353,"current_range_meters":4800,"station_id":"ce4bhk92rcd13ifvqgb0","pricing_plan_id":"cebpf4jnsgd1na2vs0mg"},{"bike_id":"1a0da594-9d57-4523-9b59-5374c2af6a63","system_id":"levelo_inurba_marseille","lat":43.28732,"lon":5.36087,"is_reserved":false,"is_disabled":false,"rental_uris":{"android":"levelo://app?vid=1a0da594-9d57-4523-9b59-5374c2af6a63","ios":"levelo://app?vid=1a0da594-9d57-4523-9b59-5374c2af6a63"},"vehicle_type_id":"4","last_reported":1726020353,"current_range_meters":34000,"station_id":"cki0cbj6b192h4jlfktg","pricing_plan_id":"cebpf4jnsgd1na2vs0mg"},{"bike_id":"e71a581b-3c2f-437b-aaaa-2e169e5da51a","system_id":"levelo_inurba_marseille","lat":43.27939,"lon":5.41043,"is_reserved":false,"is_disabled":false,"rental_uris":{"android":"levelo://app?vid=e71a581b-3c2f-437b-aaaa-2e169e5da51a","ios":"levelo://app?vid=e71a581b-3c2f-437b-aaaa-2e169e5da51a"},"vehicle_type_id":"4","last_reported":1726020353,"current_range_meters":34800,"station_id":"ce4bhnp2rcd13ifvqh0g","pricing_plan_id":"cebpf4jnsgd1na2vs0mg"},{"bike_id":"cfc4154e-0853-489e-8835-a4d6f4fd8fe1","system_id":"levelo_inurba_marseille","lat":43.27921,"lon":5.39581,"is_reserved":false,"is_disabled":false,"rental_uris":{"android":"levelo://app?vid=cfc4154e-0853-489e-8835-a4d6f4fd8fe1","ios":"levelo://app?vid=cfc4154e-0853-489e-8835-a4d6f4fd8fe1"},"vehicle_type_id":"4","last_reported":1726020353,"current_range_meters":28800,"station_id":"ce4bhf92rcd13ifvqf40","pricing_plan_id":"cebpf4jnsgd1na2vs0mg"},{"bike_id":"9b2d8d80-a828-4f34-9999-2ecb2e0aa7f5","system_id":"levelo_inurba_marseille","lat":43.31119,"lon":5.37753,"is_reserved":false,"is_disabled":false,"rental_uris":{"android":"levelo://app?vid=9b2d8d80-a828-4f34-9999-2ecb2e0aa7f5","ios":"levelo://app?vid=9b2d8d80-a828-4f34-9999-2ecb2e0aa7f5"},"vehicle_type_id":"4","last_reported":1726020353,"current_range_meters":38000,"station_id":"ce4bgt92rcd13ifvqcg0","pricing_plan_id":"cebpf4jnsgd1na2vs0mg"},{"bike_id":"c19b3b06-dd40-414d-8bb5-7da222403898","system_id":"levelo_inurba_marseille","lat":43.33731,"lon":5.39181,"is_reserved":false,"is_disabled":false,"rental_uris":{"android":"levelo://app?vid=c19b3b06-dd40-414d-8bb5-7da222403898","ios":"levelo://app?vid=c19b3b06-dd40-414d-8bb5-7da222403898"},"vehicle_type_id":"4","last_reported":1726020353,"current_range_meters":39200,"station_id":"ce4bhr92rcd13ifvqhsg","pricing_plan_id":"cebpf4jnsgd1na2vs0mg"},{"bike_id":"5d352641-3593-4267-b2f1-8ab039017e05","system_id":"levelo_inurba_marseille","lat":43.23196,"lon":5.35554,"is_reserved":false,"is_disabled":false,"rental_uris":{"android":"levelo://app?vid=5d352641-3593-4267-b2f1-8ab039017e05","ios":"levelo://app?vid=5d352641-3593-4267-b2f1-8ab039017e05"},"vehicle_type_id":"4","last_reported":1726020353,"current_range_meters":36800,"station_id":"ce4bhu92rcd13ifvqi70","pricing_plan_id":"cebpf4jnsgd1na2vs0mg"},{"bike_id":"5264f63c-3b29-43f6-858e-746114399cc0","system_id":"levelo_inurba_marseille","lat":43.27071,"lon":5.42278,"is_reserved":false,"is_disabled":false,"rental_uris":{"android":"levelo://app?vid=5264f63c-3b29-43f6-858e-746114399cc0","ios":"levelo://app?vid=5264f63c-3b29-43f6-858e-746114399cc0"},"vehicle_type_id":"4","last_reported":1726020353,"current_range_meters":4000,"station_id":"ce4bhk92rcd13ifvqgb0","pricing_plan_id":"cebpf4jnsgd1na2vs0mg"},{"bike_id":"c22bf776-82f1-423d-83f3-ab20051eb388","system_id":"levelo_inurba_marseille","lat":43.3362,"lon":5.41029,"is_reserved":false,"is_disabled":false,"rental_uris":{"android":"levelo://app?vid=c22bf776-82f1-423d-83f3-ab20051eb388","ios":"levelo://app?vid=c22bf776-82f1-423d-83f3-ab20051eb388"},"vehicle_type_id":"4","last_reported":1726020353,"current_range_meters":6800,"station_id":"ce4bhqh2rcd13ifvqhmg","pricing_plan_id":"cebpf4jnsgd1na2vs0mg"},{"bike_id":"56f33b7d-3dd1-47b9-8e89-7082cd537a80","system_id":"levelo_inurba_marseille","lat":43.31703,"lon":5.43695,"is_reserved":false,"is_disabled":false,"rental_uris":{"android":"levelo://app?vid=56f33b7d-3dd1-47b9-8e89-7082cd537a80","ios":"levelo://app?vid=56f33b7d-3dd1-47b9-8e89-7082cd537a80"},"vehicle_type_id":"4","last_reported":1726020353,"current_range_meters":37600,"station_id":"ce4bhp92rcd13ifvqhcg","pricing_plan_id":"cebpf4jnsgd1na2vs0mg"},{"bike_id":"7c28f853-fb94-4dfe-9706-a5dfbefcce5b","system_id":"levelo_inurba_marseille","lat":43.33729,"lon":5.39161,"is_reserved":false,"is_disabled":false,"rental_uris":{"android":"levelo://app?vid=7c28f853-fb94-4dfe-9706-a5dfbefcce5b","ios":"levelo://app?vid=7c28f853-fb94-4dfe-9706-a5dfbefcce5b"},"vehicle_type_id":"4","last_reported":1726020353,"current_range_meters":38400,"station_id":"ce4bhr92rcd13ifvqhsg","pricing_plan_id":"cebpf4jnsgd1na2vs0mg"},{"bike_id":"945010cf-e71b-48c8-8dce-e40e78e89569","system_id":"levelo_inurba_marseille","lat":43.30601,"lon":5.39348,"is_reserved":false,"is_disabled":false,"rental_uris":{"android":"levelo://app?vid=945010cf-e71b-48c8-8dce-e40e78e89569","ios":"levelo://app?vid=945010cf-e71b-48c8-8dce-e40e78e89569"},"vehicle_type_id":"4","last_reported":1726020353,"current_range_meters":30400,"station_id":"ce4bh0p2rcd13ifvqd80","pricing_plan_id":"cebpf4jnsgd1na2vs0mg"},{"bike_id":"3e60eaa0-e0b6-44fc-96a5-d9e44486282e","system_id":"levelo_inurba_marseille","lat":43.26205,"lon":5.37938,"is_reserved":false,"is_disabled":false,"rental_uris":{"android":"levelo://app?vid=3e60eaa0-e0b6-44fc-96a5-d9e44486282e","ios":"levelo://app?vid=3e60eaa0-e0b6-44fc-96a5-d9e44486282e"},"vehicle_type_id":"4","last_reported":1726020353,"current_range_meters":36000,"station_id":"ce4bhjp2rcd13ifvqg90","pricing_plan_id":"cebpf4jnsgd1na2vs0mg"},{"bike_id":"9b9547b7-77e2-4c32-9975-f0a65876f133","system_id":"levelo_inurba_marseille","lat":43.28039,"lon":5.36929,"is_reserved":false,"is_disabled":false,"rental_uris":{"android":"levelo://app?vid=9b9547b7-77e2-4c32-9975-f0a65876f133","ios":"levelo://app?vid=9b9547b7-77e2-4c32-9975-f0a65876f133"},"vehicle_type_id":"4","last_reported":1726020353,"current_range_meters":36800,"station_id":"ce4bha12rcd13ifvqef0","pricing_plan_id":"cebpf4jnsgd1na2vs0mg"},{"bike_id":"94c17e5a-4a23-4be2-9a54-b858b8132a8b","system_id":"levelo_inurba_marseille","lat":43.26682,"lon":5.38271,"is_reserved":false,"is_disabled":false,"rental_uris":{"android":"levelo://app?vid=94c17e5a-4a23-4be2-9a54-b858b8132a8b","ios":"levelo://app?vid=94c17e5a-4a23-4be2-9a54-b858b8132a8b"},"vehicle_type_id":"4","last_reported":1726020353,"current_range_meters":30800,"station_id":"ce4bhg92rcd13ifvqf90","pricing_plan_id":"cebpf4jnsgd1na2vs0mg"},{"bike_id":"ee0efcc0-0594-4a83-85d9-439b7eb0d1d1","system_id":"levelo_inurba_marseille","lat":43.2306,"lon":5.35494,"is_reserved":false,"is_disabled":false,"rental_uris":{"android":"levelo://app?vid=ee0efcc0-0594-4a83-85d9-439b7eb0d1d1","ios":"levelo://app?vid=ee0efcc0-0594-4a83-85d9-439b7eb0d1d1"},"vehicle_type_id":"4","last_reported":1726020353,"current_range_meters":38800,"station_id":"cpo3342slgdg3j2ifvpg","pricing_plan_id":"cebpf4jnsgd1na2vs0mg"},{"bike_id":"9d0d5af6-67a4-4e4c-99d8-a1490772a32f","system_id":"levelo_inurba_marseille","lat":43.29612,"lon":5.38107,"is_reserved":false,"is_disabled":false,"rental_uris":{"android":"levelo://app?vid=9d0d5af6-67a4-4e4c-99d8-a1490772a32f","ios":"levelo://app?vid=9d0d5af6-67a4-4e4c-99d8-a1490772a32f"},"vehicle_type_id":"4","last_reported":1726020353,"current_range_meters":17200,"station_id":"ce4bgl12rcd13ifvqbo0","pricing_plan_id":"cebpf4jnsgd1na2vs0mg"},{"bike_id":"723c073e-5c6a-4fb9-a382-e8ea44a73076","system_id":"levelo_inurba_marseille","lat":43.29556,"lon":5.42293,"is_reserved":false,"is_disabled":false,"rental_uris":{"android":"levelo://app?vid=723c073e-5c6a-4fb9-a382-e8ea44a73076","ios":"levelo://app?vid=723c073e-5c6a-4fb9-a382-e8ea44a73076"},"vehicle_type_id":"4","last_reported":1726020353,"current_range_meters":33200,"station_id":"ce4bhph2rcd13ifvqhdg","pricing_plan_id":"cebpf4jnsgd1na2vs0mg"},{"bike_id":"2aad4b02-945c-4d35-b3a5-85b3d17dc503","system_id":"levelo_inurba_marseille","lat":43.32296,"lon":5.3827,"is_reserved":false,"is_disabled":false,"rental_uris":{"android":"levelo://app?vid=2aad4b02-945c-4d35-b3a5-85b3d17dc503","ios":"levelo://app?vid=2aad4b02-945c-4d35-b3a5-85b3d17dc503"},"vehicle_type_id":"4","last_reported":1726020353,"current_range_meters":5600,"station_id":"ce4bhr12rcd13ifvqhqg","pricing_plan_id":"cebpf4jnsgd1na2vs0mg"},{"bike_id":"6073408b-b4fc-4eeb-ac9e-351084b1cf63","system_id":"levelo_inurba_marseille","lat":43.24814,"lon":5.37461,"is_reserved":false,"is_disabled":false,"rental_uris":{"android":"levelo://app?vid=6073408b-b4fc-4eeb-ac9e-351084b1cf63","ios":"levelo://app?vid=6073408b-b4fc-4eeb-ac9e-351084b1cf63"},"vehicle_type_id":"4","last_reported":1726020353,"current_range_meters":28400,"station_id":"ce4bhgh2rcd13ifvqfb0","pricing_plan_id":"cebpf4jnsgd1na2vs0mg"},{"bike_id":"b3154663-e456-4f9c-b708-ddf2c310f70e","system_id":"levelo_inurba_marseille","lat":43.28707,"lon":5.37385,"is_reserved":false,"is_disabled":false,"rental_uris":{"android":"levelo://app?vid=b3154663-e456-4f9c-b708-ddf2c310f70e","ios":"levelo://app?vid=b3154663-e456-4f9c-b708-ddf2c310f70e"},"vehicle_type_id":"4","last_reported":1726020353,"current_range_meters":37600,"station_id":"ce4bh3p2rcd13ifvqdq0","pricing_plan_id":"cebpf4jnsgd1na2vs0mg"},{"bike_id":"daaba00f-3008-4d46-b3ae-5d03b02d09cc","system_id":"levelo_inurba_marseille","lat":43.24811,"lon":5.37463,"is_reserved":false,"is_disabled":false,"rental_uris":{"android":"levelo://app?vid=daaba00f-3008-4d46-b3ae-5d03b02d09cc","ios":"levelo://app?vid=daaba00f-3008-4d46-b3ae-5d03b02d09cc"},"vehicle_type_id":"4","last_reported":1726020353,"current_range_meters":35200,"station_id":"ce4bhgh2rcd13ifvqfb0","pricing_plan_id":"cebpf4jnsgd1na2vs0mg"},{"bike_id":"dd4c77a3-8f2f-4327-86e0-d9668552430d","system_id":"levelo_inurba_marseille","lat":43.27188,"lon":5.39201,"is_reserved":false,"is_disabled":false,"rental_uris":{"android":"levelo://app?vid=dd4c77a3-8f2f-4327-86e0-d9668552430d","ios":"levelo://app?vid=dd4c77a3-8f2f-4327-86e0-d9668552430d"},"vehicle_type_id":"4","last_reported":1726020353,"current_range_meters":38000,"station_id":"ce4bhhp2rcd13ifvqfm0","pricing_plan_id":"cebpf4jnsgd1na2vs0mg"},{"bike_id":"5e292fa1-729b-47cb-a09a-e0a0a8835d54","system_id":"levelo_inurba_marseille","lat":43.29024,"lon":5.39967,"is_reserved":false,"is_disabled":false,"rental_uris":{"android":"levelo://app?vid=5e292fa1-729b-47cb-a09a-e0a0a8835d54","ios":"levelo://app?vid=5e292fa1-729b-47cb-a09a-e0a0a8835d54"},"vehicle_type_id":"4","last_reported":1726020353,"current_range_meters":38800,"station_id":"ce4bh392rcd13ifvqdm0","pricing_plan_id":"cebpf4jnsgd1na2vs0mg"},{"bike_id":"76eeeb7a-7bd2-4e77-8f60-0be26674cc2e","system_id":"levelo_inurba_marseille","lat":43.30253,"lon":5.40065,"is_reserved":false,"is_disabled":false,"rental_uris":{"android":"levelo://app?vid=76eeeb7a-7bd2-4e77-8f60-0be26674cc2e","ios":"levelo://app?vid=76eeeb7a-7bd2-4e77-8f60-0be26674cc2e"},"vehicle_type_id":"4","last_reported":1726020353,"current_range_meters":29600,"station_id":"ce4bgvh2rcd13ifvqcs0","pricing_plan_id":"cebpf4jnsgd1na2vs0mg"},{"bike_id":"8417734d-cc82-4f59-b4a8-9f32c5168b81","system_id":"levelo_inurba_marseille","lat":43.30811,"lon":5.38157,"is_reserved":false,"is_disabled":false,"rental_uris":{"android":"levelo://app?vid=8417734d-cc82-4f59-b4a8-9f32c5168b81","ios":"levelo://app?vid=8417734d-cc82-4f59-b4a8-9f32c5168b81"},"vehicle_type_id":"4","last_reported":1726020353,"current_range_meters":34000,"station_id":"ce4bgt12rcd13ifvqce0","pricing_plan_id":"cebpf4jnsgd1na2vs0mg"},{"bike_id":"b49ab085-3ec0-4cbf-b51a-8999aa870d44","system_id":"levelo_inurba_marseille","lat":43.30598,"lon":5.3722,"is_reserved":false,"is_disabled":false,"rental_uris":{"android":"levelo://app?vid=b49ab085-3ec0-4cbf-b51a-8999aa870d44","ios":"levelo://app?vid=b49ab085-3ec0-4cbf-b51a-8999aa870d44"},"vehicle_type_id":"4","last_reported":1726020353,"current_range_meters":33200,"station_id":"ce4bgqh2rcd13ifvqc4g","pricing_plan_id":"cebpf4jnsgd1na2vs0mg"},{"bike_id":"47e08925-ab3f-4932-9d56-e8ba8d197363","system_id":"levelo_inurba_marseille","lat":43.27993,"lon":5.40045,"is_reserved":false,"is_disabled":false,"rental_uris":{"android":"levelo://app?vid=47e08925-ab3f-4932-9d56-e8ba8d197363","ios":"levelo://app?vid=47e08925-ab3f-4932-9d56-e8ba8d197363"},"vehicle_type_id":"4","last_reported":1726020353,"current_range_meters":38800,"station_id":"ce4bho92rcd13ifvqh4g","pricing_plan_id":"cebpf4jnsgd1na2vs0mg"},{"bike_id":"6bce3f18-d253-4e66-861f-de72cfa60f24","system_id":"levelo_inurba_marseille","lat":43.26678,"lon":5.38266,"is_reserved":false,"is_disabled":false,"rental_uris":{"android":"levelo://app?vid=6bce3f18-d253-4e66-861f-de72cfa60f24","ios":"levelo://app?vid=6bce3f18-d253-4e66-861f-de72cfa60f24"},"vehicle_type_id":"4","last_reported":1726020353,"current_range_meters":38800,"station_id":"ce4bhg92rcd13ifvqf90","pricing_plan_id":"cebpf4jnsgd1na2vs0mg"},{"bike_id":"f5b792f3-9204-4e48-817b-276580a058b5","system_id":"levelo_inurba_marseille","lat":43.29864,"lon":5.37604,"is_reserved":false,"is_disabled":false,"rental_uris":{"android":"levelo://app?vid=f5b792f3-9204-4e48-817b-276580a058b5","ios":"levelo://app?vid=f5b792f3-9204-4e48-817b-276580a058b5"},"vehicle_type_id":"4","last_reported":1726020353,"current_range_meters":35200,"station_id":"","pricing_plan_id":"cebpf4jnsgd1na2vs0mg"},{"bike_id":"3a5232c5-cc45-44ea-84c3-d1e824e620d9","system_id":"levelo_inurba_marseille","lat":43.31994,"lon":5.3815,"is_reserved":false,"is_disabled":false,"rental_uris":{"android":"levelo://app?vid=3a5232c5-cc45-44ea-84c3-d1e824e620d9","ios":"levelo://app?vid=3a5232c5-cc45-44ea-84c3-d1e824e620d9"},"vehicle_type_id":"4","last_reported":1726020353,"current_range_meters":20800,"station_id":"ce4bhr12rcd13ifvqhpg","pricing_plan_id":"cebpf4jnsgd1na2vs0mg"},{"bike_id":"c4a11cd6-597d-4826-ad55-56b34d91dddb","system_id":"levelo_inurba_marseille","lat":43.24074,"lon":5.37757,"is_reserved":false,"is_disabled":false,"rental_uris":{"android":"levelo://app?vid=c4a11cd6-597d-4826-ad55-56b34d91dddb","ios":"levelo://app?vid=c4a11cd6-597d-4826-ad55-56b34d91dddb"},"vehicle_type_id":"4","last_reported":1726020353,"current_range_meters":13600,"station_id":"ce4bhnp2rcd13ifvqgvg","pricing_plan_id":"cebpf4jnsgd1na2vs0mg"},{"bike_id":"974783a8-1c45-493c-8abf-84dd670f276b","system_id":"levelo_inurba_marseille","lat":43.30815,"lon":5.38137,"is_reserved":false,"is_disabled":false,"rental_uris":{"android":"levelo://app?vid=974783a8-1c45-493c-8abf-84dd670f276b","ios":"levelo://app?vid=974783a8-1c45-493c-8abf-84dd670f276b"},"vehicle_type_id":"4","last_reported":1726020353,"current_range_meters":16800,"station_id":"ce4bgt12rcd13ifvqce0","pricing_plan_id":"cebpf4jnsgd1na2vs0mg"},{"bike_id":"d479c876-2159-43b6-a8cf-685fded57ab7","system_id":"levelo_inurba_marseille","lat":43.3235,"lon":5.38872,"is_reserved":false,"is_disabled":false,"rental_uris":{"android":"levelo://app?vid=d479c876-2159-43b6-a8cf-685fded57ab7","ios":"levelo://app?vid=d479c876-2159-43b6-a8cf-685fded57ab7"},"vehicle_type_id":"4","last_reported":1726020353,"current_range_meters":6800,"station_id":"ce4bhqp2rcd13ifvqhog","pricing_plan_id":"cebpf4jnsgd1na2vs0mg"},{"bike_id":"b13c1bee-baa2-497c-a2d0-e115f3b522f0","system_id":"levelo_inurba_marseille","lat":43.28423,"lon":5.35003,"is_reserved":false,"is_disabled":false,"rental_uris":{"android":"levelo://app?vid=b13c1bee-baa2-497c-a2d0-e115f3b522f0","ios":"levelo://app?vid=b13c1bee-baa2-497c-a2d0-e115f3b522f0"},"vehicle_type_id":"4","last_reported":1726020353,"current_range_meters":38800,"station_id":"ce4bhbh2rcd13ifvqepg","pricing_plan_id":"cebpf4jnsgd1na2vs0mg"},{"bike_id":"b02406c7-9bcc-4f4f-b2a0-db482974a705","system_id":"levelo_inurba_marseille","lat":43.23181,"lon":5.39991,"is_reserved":false,"is_disabled":false,"rental_uris":{"android":"levelo://app?vid=b02406c7-9bcc-4f4f-b2a0-db482974a705","ios":"levelo://app?vid=b02406c7-9bcc-4f4f-b2a0-db482974a705"},"vehicle_type_id":"4","last_reported":1726020353,"current_range_meters":36400,"station_id":"ce4bhn12rcd13ifvqgqg","pricing_plan_id":"cebpf4jnsgd1na2vs0mg"},{"bike_id":"e2390639-ccb6-40cd-96bc-2fa2f8fe96f0","system_id":"levelo_inurba_marseille","lat":43.30209,"lon":5.39467,"is_reserved":false,"is_disabled":false,"rental_uris":{"android":"levelo://app?vid=e2390639-ccb6-40cd-96bc-2fa2f8fe96f0","ios":"levelo://app?vid=e2390639-ccb6-40cd-96bc-2fa2f8fe96f0"},"vehicle_type_id":"4","last_reported":1726020353,"current_range_meters":38400,"station_id":"ce4bh0p2rcd13ifvqd70","pricing_plan_id":"cebpf4jnsgd1na2vs0mg"},{"bike_id":"9243f814-3467-4052-af50-9476c660085d","system_id":"levelo_inurba_marseille","lat":43.29848,"lon":5.36268,"is_reserved":false,"is_disabled":false,"rental_uris":{"android":"levelo://app?vid=9243f814-3467-4052-af50-9476c660085d","ios":"levelo://app?vid=9243f814-3467-4052-af50-9476c660085d"},"vehicle_type_id":"4","last_reported":1726020353,"current_range_meters":36400,"station_id":"ce4bgpp2rcd13ifvqc3g","pricing_plan_id":"cebpf4jnsgd1na2vs0mg"},{"bike_id":"502599a9-0fd7-4d67-ab54-668eb8998d53","system_id":"levelo_inurba_marseille","lat":43.28744,"lon":5.3608,"is_reserved":false,"is_disabled":false,"rental_uris":{"android":"levelo://app?vid=502599a9-0fd7-4d67-ab54-668eb8998d53","ios":"levelo://app?vid=502599a9-0fd7-4d67-ab54-668eb8998d53"},"vehicle_type_id":"4","last_reported":1726020353,"current_range_meters":29600,"station_id":"cki0cbj6b192h4jlfktg","pricing_plan_id":"cebpf4jnsgd1na2vs0mg"},{"bike_id":"8c5a6514-803e-4f85-bd47-3fbc185ddecd","system_id":"levelo_inurba_marseille","lat":43.30296,"lon":5.392,"is_reserved":false,"is_disabled":false,"rental_uris":{"android":"levelo://app?vid=8c5a6514-803e-4f85-bd47-3fbc185ddecd","ios":"levelo://app?vid=8c5a6514-803e-4f85-bd47-3fbc185ddecd"},"vehicle_type_id":"4","last_reported":1726020353,"current_range_meters":19200,"station_id":"ce4bgkh2rcd13ifvqbk0","pricing_plan_id":"cebpf4jnsgd1na2vs0mg"},{"bike_id":"0c91c0dc-12d7-4b51-8153-dfe5d1f2e4d0","system_id":"levelo_inurba_marseille","lat":43.30596,"lon":5.39353,"is_reserved":false,"is_disabled":false,"rental_uris":{"android":"levelo://app?vid=0c91c0dc-12d7-4b51-8153-dfe5d1f2e4d0","ios":"levelo://app?vid=0c91c0dc-12d7-4b51-8153-dfe5d1f2e4d0"},"vehicle_type_id":"4","last_reported":1726020353,"current_range_meters":32000,"station_id":"ce4bh0p2rcd13ifvqd80","pricing_plan_id":"cebpf4jnsgd1na2vs0mg"},{"bike_id":"aa48e06d-2a80-4fd2-abe7-d40b52d43407","system_id":"levelo_inurba_marseille","lat":43.2872,"lon":5.36076,"is_reserved":false,"is_disabled":false,"rental_uris":{"android":"levelo://app?vid=aa48e06d-2a80-4fd2-abe7-d40b52d43407","ios":"levelo://app?vid=aa48e06d-2a80-4fd2-abe7-d40b52d43407"},"vehicle_type_id":"4","last_reported":1726020353,"current_range_meters":39200,"station_id":"cki0cbj6b192h4jlfktg","pricing_plan_id":"cebpf4jnsgd1na2vs0mg"},{"bike_id":"2469a832-cf3d-49ad-813f-db6d91a93d7b","system_id":"levelo_inurba_marseille","lat":43.30772,"lon":5.38162,"is_reserved":false,"is_disabled":false,"rental_uris":{"android":"levelo://app?vid=2469a832-cf3d-49ad-813f-db6d91a93d7b","ios":"levelo://app?vid=2469a832-cf3d-49ad-813f-db6d91a93d7b"},"vehicle_type_id":"4","last_reported":1726020353,"current_range_meters":25200,"station_id":"ce4bgt12rcd13ifvqce0","pricing_plan_id":"cebpf4jnsgd1na2vs0mg"},{"bike_id":"2d1bbbf7-b19d-475f-b6ad-7e5ed6e63413","system_id":"levelo_inurba_marseille","lat":43.28444,"lon":5.39171,"is_reserved":false,"is_disabled":false,"rental_uris":{"android":"levelo://app?vid=2d1bbbf7-b19d-475f-b6ad-7e5ed6e63413","ios":"levelo://app?vid=2d1bbbf7-b19d-475f-b6ad-7e5ed6e63413"},"vehicle_type_id":"4","last_reported":1726020353,"current_range_meters":38000,"station_id":"ce4bhoh2rcd13ifvqh5g","pricing_plan_id":"cebpf4jnsgd1na2vs0mg"},{"bike_id":"6f8ceca9-efdc-4afc-832a-772ca41bad51","system_id":"levelo_inurba_marseille","lat":43.31722,"lon":5.42413,"is_reserved":false,"is_disabled":false,"rental_uris":{"android":"levelo://app?vid=6f8ceca9-efdc-4afc-832a-772ca41bad51","ios":"levelo://app?vid=6f8ceca9-efdc-4afc-832a-772ca41bad51"},"vehicle_type_id":"4","last_reported":1726020353,"current_range_meters":35200,"station_id":"ce4bhp92rcd13ifvqhbg","pricing_plan_id":"cebpf4jnsgd1na2vs0mg"},{"bike_id":"20058ce1-e735-4a58-b1f1-49b6d63a88f4","system_id":"levelo_inurba_marseille","lat":43.25584,"lon":5.38244,"is_reserved":false,"is_disabled":false,"rental_uris":{"android":"levelo://app?vid=20058ce1-e735-4a58-b1f1-49b6d63a88f4","ios":"levelo://app?vid=20058ce1-e735-4a58-b1f1-49b6d63a88f4"},"vehicle_type_id":"4","last_reported":1726020353,"current_range_meters":28800,"station_id":"ce4bhih2rcd13ifvqfs0","pricing_plan_id":"cebpf4jnsgd1na2vs0mg"},{"bike_id":"d5a949e7-e167-42b3-97e0-b28a4dc6b30f","system_id":"levelo_inurba_marseille","lat":43.31722,"lon":5.42396,"is_reserved":false,"is_disabled":false,"rental_uris":{"android":"levelo://app?vid=d5a949e7-e167-42b3-97e0-b28a4dc6b30f","ios":"levelo://app?vid=d5a949e7-e167-42b3-97e0-b28a4dc6b30f"},"vehicle_type_id":"4","last_reported":1726020353,"current_range_meters":30800,"station_id":"ce4bhp92rcd13ifvqhbg","pricing_plan_id":"cebpf4jnsgd1na2vs0mg"},{"bike_id":"2857708b-7fbd-443b-96e3-308df804ac53","system_id":"levelo_inurba_marseille","lat":43.28077,"lon":5.39655,"is_reserved":false,"is_disabled":false,"rental_uris":{"android":"levelo://app?vid=2857708b-7fbd-443b-96e3-308df804ac53","ios":"levelo://app?vid=2857708b-7fbd-443b-96e3-308df804ac53"},"vehicle_type_id":"4","last_reported":1726020353,"current_range_meters":38800,"station_id":"ce4bho12rcd13ifvqh2g","pricing_plan_id":"cebpf4jnsgd1na2vs0mg"},{"bike_id":"a08e5dbc-5acb-44ee-85eb-7227f7d1b4b9","system_id":"levelo_inurba_marseille","lat":43.29207,"lon":5.39335,"is_reserved":false,"is_disabled":false,"rental_uris":{"android":"levelo://app?vid=a08e5dbc-5acb-44ee-85eb-7227f7d1b4b9","ios":"levelo://app?vid=a08e5dbc-5acb-44ee-85eb-7227f7d1b4b9"},"vehicle_type_id":"4","last_reported":1726020353,"current_range_meters":9200,"station_id":"ce4bh192rcd13ifvqdd0","pricing_plan_id":"cebpf4jnsgd1na2vs0mg"},{"bike_id":"4b740380-435b-4ce9-9b96-3da5fb37bac6","system_id":"levelo_inurba_marseille","lat":43.30973,"lon":5.40063,"is_reserved":false,"is_disabled":false,"rental_uris":{"android":"levelo://app?vid=4b740380-435b-4ce9-9b96-3da5fb37bac6","ios":"levelo://app?vid=4b740380-435b-4ce9-9b96-3da5fb37bac6"},"vehicle_type_id":"4","last_reported":1726020353,"current_range_meters":10000,"station_id":"ce4bhpp2rcd13ifvqhgg","pricing_plan_id":"cebpf4jnsgd1na2vs0mg"},{"bike_id":"7b2b6aa9-d9ad-475c-a16f-abdf3eec6d77","system_id":"levelo_inurba_marseille","lat":43.22931,"lon":5.35375,"is_reserved":false,"is_disabled":false,"rental_uris":{"android":"levelo://app?vid=7b2b6aa9-d9ad-475c-a16f-abdf3eec6d77","ios":"levelo://app?vid=7b2b6aa9-d9ad-475c-a16f-abdf3eec6d77"},"vehicle_type_id":"4","last_reported":1726020353,"current_range_meters":19200,"station_id":"cpo3532slgdg3j2ikp40","pricing_plan_id":"cebpf4jnsgd1na2vs0mg"},{"bike_id":"541031f1-3d91-435a-a222-ecb0e5bd4ed8","system_id":"levelo_inurba_marseille","lat":43.30886,"lon":5.39641,"is_reserved":false,"is_disabled":false,"rental_uris":{"android":"levelo://app?vid=541031f1-3d91-435a-a222-ecb0e5bd4ed8","ios":"levelo://app?vid=541031f1-3d91-435a-a222-ecb0e5bd4ed8"},"vehicle_type_id":"4","last_reported":1726020353,"current_range_meters":33200,"station_id":"ce4bh012rcd13ifvqcv0","pricing_plan_id":"cebpf4jnsgd1na2vs0mg"},{"bike_id":"8060c11d-1d82-4b7f-9093-70bf237dfa41","system_id":"levelo_inurba_marseille","lat":43.26044,"lon":5.39398,"is_reserved":false,"is_disabled":false,"rental_uris":{"android":"levelo://app?vid=8060c11d-1d82-4b7f-9093-70bf237dfa41","ios":"levelo://app?vid=8060c11d-1d82-4b7f-9093-70bf237dfa41"},"vehicle_type_id":"4","last_reported":1726020353,"current_range_meters":21600,"station_id":"ce4bhh92rcd13ifvqfj0","pricing_plan_id":"cebpf4jnsgd1na2vs0mg"},{"bike_id":"638343ce-15e7-4192-b8b3-9dbbe2d9e121","system_id":"levelo_inurba_marseille","lat":43.27193,"lon":5.40986,"is_reserved":false,"is_disabled":false,"rental_uris":{"android":"levelo://app?vid=638343ce-15e7-4192-b8b3-9dbbe2d9e121","ios":"levelo://app?vid=638343ce-15e7-4192-b8b3-9dbbe2d9e121"},"vehicle_type_id":"4","last_reported":1726020353,"current_range_meters":38400,"station_id":"ce4bhl12rcd13ifvqgf0","pricing_plan_id":"cebpf4jnsgd1na2vs0mg"},{"bike_id":"7f4ea667-56df-4b26-bd46-3e71bc3cc245","system_id":"levelo_inurba_marseille","lat":43.29318,"lon":5.35561,"is_reserved":false,"is_disabled":false,"rental_uris":{"android":"levelo://app?vid=7f4ea667-56df-4b26-bd46-3e71bc3cc245","ios":"levelo://app?vid=7f4ea667-56df-4b26-bd46-3e71bc3cc245"},"vehicle_type_id":"4","last_reported":1726020353,"current_range_meters":4400,"station_id":"","pricing_plan_id":"cebpf4jnsgd1na2vs0mg"},{"bike_id":"223ed4e1-b394-435a-8a33-c25bca087621","system_id":"levelo_inurba_marseille","lat":43.30898,"lon":5.39636,"is_reserved":false,"is_disabled":false,"rental_uris":{"android":"levelo://app?vid=223ed4e1-b394-435a-8a33-c25bca087621","ios":"levelo://app?vid=223ed4e1-b394-435a-8a33-c25bca087621"},"vehicle_type_id":"4","last_reported":1726020353,"current_range_meters":33200,"station_id":"ce4bh012rcd13ifvqcv0","pricing_plan_id":"cebpf4jnsgd1na2vs0mg"},{"bike_id":"3b163329-75e0-42ce-a395-e2936b5dfbec","system_id":"levelo_inurba_marseille","lat":43.29559,"lon":5.42287,"is_reserved":false,"is_disabled":false,"rental_uris":{"android":"levelo://app?vid=3b163329-75e0-42ce-a395-e2936b5dfbec","ios":"levelo://app?vid=3b163329-75e0-42ce-a395-e2936b5dfbec"},"vehicle_type_id":"4","last_reported":1726020353,"current_range_meters":30400,"station_id":"ce4bhph2rcd13ifvqhdg","pricing_plan_id":"cebpf4jnsgd1na2vs0mg"},{"bike_id":"d3c8ea6e-d01d-4d9e-9557-beffc1884ace","system_id":"levelo_inurba_marseille","lat":43.32303,"lon":5.38284,"is_reserved":false,"is_disabled":false,"rental_uris":{"android":"levelo://app?vid=d3c8ea6e-d01d-4d9e-9557-beffc1884ace","ios":"levelo://app?vid=d3c8ea6e-d01d-4d9e-9557-beffc1884ace"},"vehicle_type_id":"4","last_reported":1726020353,"current_range_meters":40000,"station_id":"ce4bhr12rcd13ifvqhqg","pricing_plan_id":"cebpf4jnsgd1na2vs0mg"},{"bike_id":"6f49d1e6-c0bb-4131-9451-86bab9634bea","system_id":"levelo_inurba_marseille","lat":43.29068,"lon":5.39928,"is_reserved":false,"is_disabled":false,"rental_uris":{"android":"levelo://app?vid=6f49d1e6-c0bb-4131-9451-86bab9634bea","ios":"levelo://app?vid=6f49d1e6-c0bb-4131-9451-86bab9634bea"},"vehicle_type_id":"4","last_reported":1726020353,"current_range_meters":35600,"station_id":"ce4bh392rcd13ifvqdm0","pricing_plan_id":"cebpf4jnsgd1na2vs0mg"},{"bike_id":"4b6020ac-6f7c-49d8-a279-afedbd336735","system_id":"levelo_inurba_marseille","lat":43.31998,"lon":5.38153,"is_reserved":false,"is_disabled":false,"rental_uris":{"android":"levelo://app?vid=4b6020ac-6f7c-49d8-a279-afedbd336735","ios":"levelo://app?vid=4b6020ac-6f7c-49d8-a279-afedbd336735"},"vehicle_type_id":"4","last_reported":1726020353,"current_range_meters":22400,"station_id":"ce4bhr12rcd13ifvqhpg","pricing_plan_id":"cebpf4jnsgd1na2vs0mg"},{"bike_id":"507f99d3-0b82-4a35-89e2-98eb58769a71","system_id":"levelo_inurba_marseille","lat":43.23199,"lon":5.35547,"is_reserved":false,"is_disabled":false,"rental_uris":{"android":"levelo://app?vid=507f99d3-0b82-4a35-89e2-98eb58769a71","ios":"levelo://app?vid=507f99d3-0b82-4a35-89e2-98eb58769a71"},"vehicle_type_id":"4","last_reported":1726020353,"current_range_meters":14000,"station_id":"ce4bhu92rcd13ifvqi70","pricing_plan_id":"cebpf4jnsgd1na2vs0mg"},{"bike_id":"55655b5f-2417-4cb9-a662-d6cecf83fcf4","system_id":"levelo_inurba_marseille","lat":43.31071,"lon":5.38126,"is_reserved":false,"is_disabled":false,"rental_uris":{"android":"levelo://app?vid=55655b5f-2417-4cb9-a662-d6cecf83fcf4","ios":"levelo://app?vid=55655b5f-2417-4cb9-a662-d6cecf83fcf4"},"vehicle_type_id":"4","last_reported":1726020353,"current_range_meters":20400,"station_id":"","pricing_plan_id":"cebpf4jnsgd1na2vs0mg"},{"bike_id":"40c5e2c3-d142-4b96-85c5-329e013dedfd","system_id":"levelo_inurba_marseille","lat":43.28447,"lon":5.3922,"is_reserved":false,"is_disabled":false,"rental_uris":{"android":"levelo://app?vid=40c5e2c3-d142-4b96-85c5-329e013dedfd","ios":"levelo://app?vid=40c5e2c3-d142-4b96-85c5-329e013dedfd"},"vehicle_type_id":"4","last_reported":1726020353,"current_range_meters":30000,"station_id":"ce4bhoh2rcd13ifvqh5g","pricing_plan_id":"cebpf4jnsgd1na2vs0mg"},{"bike_id":"106eb22d-b4a7-470c-a731-8acf847fc5dc","system_id":"levelo_inurba_marseille","lat":43.25861,"lon":5.39898,"is_reserved":false,"is_disabled":false,"rental_uris":{"android":"levelo://app?vid=106eb22d-b4a7-470c-a731-8acf847fc5dc","ios":"levelo://app?vid=106eb22d-b4a7-470c-a731-8acf847fc5dc"},"vehicle_type_id":"4","last_reported":1726020353,"current_range_meters":27200,"station_id":"ce4bhl92rcd13ifvqghg","pricing_plan_id":"cebpf4jnsgd1na2vs0mg"},{"bike_id":"8ec356a6-a2ce-4415-bc87-cc658bfe9ca8","system_id":"levelo_inurba_marseille","lat":43.25098,"lon":5.40336,"is_reserved":false,"is_disabled":false,"rental_uris":{"android":"levelo://app?vid=8ec356a6-a2ce-4415-bc87-cc658bfe9ca8","ios":"levelo://app?vid=8ec356a6-a2ce-4415-bc87-cc658bfe9ca8"},"vehicle_type_id":"4","last_reported":1726020353,"current_range_meters":24400,"station_id":"ce4bhlh2rcd13ifvqgig","pricing_plan_id":"cebpf4jnsgd1na2vs0mg"},{"bike_id":"dae7137e-8660-4512-bcc1-61de4e21ee15","system_id":"levelo_inurba_marseille","lat":43.25877,"lon":5.39906,"is_reserved":false,"is_disabled":false,"rental_uris":{"android":"levelo://app?vid=dae7137e-8660-4512-bcc1-61de4e21ee15","ios":"levelo://app?vid=dae7137e-8660-4512-bcc1-61de4e21ee15"},"vehicle_type_id":"4","last_reported":1726020353,"current_range_meters":25200,"station_id":"ce4bhl92rcd13ifvqghg","pricing_plan_id":"cebpf4jnsgd1na2vs0mg"},{"bike_id":"24ea4db4-bcd3-4773-a10c-e0451f1c0df9","system_id":"levelo_inurba_marseille","lat":43.28043,"lon":5.36948,"is_reserved":false,"is_disabled":false,"rental_uris":{"android":"levelo://app?vid=24ea4db4-bcd3-4773-a10c-e0451f1c0df9","ios":"levelo://app?vid=24ea4db4-bcd3-4773-a10c-e0451f1c0df9"},"vehicle_type_id":"4","last_reported":1726020353,"current_range_meters":36000,"station_id":"ce4bha12rcd13ifvqef0","pricing_plan_id":"cebpf4jnsgd1na2vs0mg"},{"bike_id":"99a32429-b801-4a4d-a82a-6365806ce471","system_id":"levelo_inurba_marseille","lat":43.32552,"lon":5.4146,"is_reserved":false,"is_disabled":false,"rental_uris":{"android":"levelo://app?vid=99a32429-b801-4a4d-a82a-6365806ce471","ios":"levelo://app?vid=99a32429-b801-4a4d-a82a-6365806ce471"},"vehicle_type_id":"4","last_reported":1726020353,"current_range_meters":38400,"station_id":"ce4bhq12rcd13ifvqhhg","pricing_plan_id":"cebpf4jnsgd1na2vs0mg"},{"bike_id":"3df58bd6-4c01-4b6b-9d6a-6469fdb1e4ef","system_id":"levelo_inurba_marseille","lat":43.28673,"lon":5.38665,"is_reserved":false,"is_disabled":false,"rental_uris":{"android":"levelo://app?vid=3df58bd6-4c01-4b6b-9d6a-6469fdb1e4ef","ios":"levelo://app?vid=3df58bd6-4c01-4b6b-9d6a-6469fdb1e4ef"},"vehicle_type_id":"4","last_reported":1726020353,"current_range_meters":8800,"station_id":"ce4bh492rcd13ifvqdug","pricing_plan_id":"cebpf4jnsgd1na2vs0mg"},{"bike_id":"37d8c39f-1cdd-4f24-9274-2d093441df6e","system_id":"levelo_inurba_marseille","lat":43.31234,"lon":5.36859,"is_reserved":false,"is_disabled":false,"rental_uris":{"android":"levelo://app?vid=37d8c39f-1cdd-4f24-9274-2d093441df6e","ios":"levelo://app?vid=37d8c39f-1cdd-4f24-9274-2d093441df6e"},"vehicle_type_id":"4","last_reported":1726020353,"current_range_meters":30400,"station_id":"","pricing_plan_id":"cebpf4jnsgd1na2vs0mg"},{"bike_id":"36e02e03-11f3-41ac-9b0f-93c4017adc48","system_id":"levelo_inurba_marseille","lat":43.27358,"lon":5.41594,"is_reserved":false,"is_disabled":false,"rental_uris":{"android":"levelo://app?vid=36e02e03-11f3-41ac-9b0f-93c4017adc48","ios":"levelo://app?vid=36e02e03-11f3-41ac-9b0f-93c4017adc48"},"vehicle_type_id":"4","last_reported":1726020353,"current_range_meters":3600,"station_id":"","pricing_plan_id":"cebpf4jnsgd1na2vs0mg"},{"bike_id":"a96df557-eb85-482a-a2f9-6a35f4bb1ec1","system_id":"levelo_inurba_marseille","lat":43.31717,"lon":5.4048,"is_reserved":false,"is_disabled":false,"rental_uris":{"android":"levelo://app?vid=a96df557-eb85-482a-a2f9-6a35f4bb1ec1","ios":"levelo://app?vid=a96df557-eb85-482a-a2f9-6a35f4bb1ec1"},"vehicle_type_id":"4","last_reported":1726020353,"current_range_meters":32000,"station_id":"ce4bh012rcd13ifvqd00","pricing_plan_id":"cebpf4jnsgd1na2vs0mg"},{"bike_id":"b8d53f9b-8edc-40e6-91a0-64df328bf15f","system_id":"levelo_inurba_marseille","lat":43.30965,"lon":5.39048,"is_reserved":false,"is_disabled":false,"rental_uris":{"android":"levelo://app?vid=b8d53f9b-8edc-40e6-91a0-64df328bf15f","ios":"levelo://app?vid=b8d53f9b-8edc-40e6-91a0-64df328bf15f"},"vehicle_type_id":"4","last_reported":1726020353,"current_range_meters":35200,"station_id":"ce4bgup2rcd13ifvqco0","pricing_plan_id":"cebpf4jnsgd1na2vs0mg"},{"bike_id":"2470464c-1003-4de6-b41c-777cfaec282c","system_id":"levelo_inurba_marseille","lat":43.30641,"lon":5.40065,"is_reserved":false,"is_disabled":false,"rental_uris":{"android":"levelo://app?vid=2470464c-1003-4de6-b41c-777cfaec282c","ios":"levelo://app?vid=2470464c-1003-4de6-b41c-777cfaec282c"},"vehicle_type_id":"4","last_reported":1726020353,"current_range_meters":38800,"station_id":"ce4bh112rcd13ifvqda0","pricing_plan_id":"cebpf4jnsgd1na2vs0mg"},{"bike_id":"36973a74-dcb5-42a3-b6ab-222146836943","system_id":"levelo_inurba_marseille","lat":43.31758,"lon":5.39013,"is_reserved":false,"is_disabled":false,"rental_uris":{"android":"levelo://app?vid=36973a74-dcb5-42a3-b6ab-222146836943","ios":"levelo://app?vid=36973a74-dcb5-42a3-b6ab-222146836943"},"vehicle_type_id":"4","last_reported":1726020353,"current_range_meters":16400,"station_id":"ce4bhqp2rcd13ifvqhng","pricing_plan_id":"cebpf4jnsgd1na2vs0mg"},{"bike_id":"4dc41bf5-9ea0-4e32-a6f7-f44ecc919c2a","system_id":"levelo_inurba_marseille","lat":43.31693,"lon":5.37817,"is_reserved":false,"is_disabled":false,"rental_uris":{"android":"levelo://app?vid=4dc41bf5-9ea0-4e32-a6f7-f44ecc919c2a","ios":"levelo://app?vid=4dc41bf5-9ea0-4e32-a6f7-f44ecc919c2a"},"vehicle_type_id":"4","last_reported":1726020353,"current_range_meters":38400,"station_id":"","pricing_plan_id":"cebpf4jnsgd1na2vs0mg"},{"bike_id":"4dee8e14-2651-4989-821f-b3dba2009f28","system_id":"levelo_inurba_marseille","lat":43.25721,"lon":5.41105,"is_reserved":false,"is_disabled":false,"rental_uris":{"android":"levelo://app?vid=4dee8e14-2651-4989-821f-b3dba2009f28","ios":"levelo://app?vid=4dee8e14-2651-4989-821f-b3dba2009f28"},"vehicle_type_id":"4","last_reported":1726020353,"current_range_meters":35200,"station_id":"ce4bhkp2rcd13ifvqgd0","pricing_plan_id":"cebpf4jnsgd1na2vs0mg"},{"bike_id":"d398d4ba-50e8-4f82-8a52-77e71b6abff4","system_id":"levelo_inurba_marseille","lat":43.2733,"lon":5.39176,"is_reserved":false,"is_disabled":false,"rental_uris":{"android":"levelo://app?vid=d398d4ba-50e8-4f82-8a52-77e71b6abff4","ios":"levelo://app?vid=d398d4ba-50e8-4f82-8a52-77e71b6abff4"},"vehicle_type_id":"4","last_reported":1726020353,"current_range_meters":38800,"station_id":"ce4bhgp2rcd13ifvqfe0","pricing_plan_id":"cebpf4jnsgd1na2vs0mg"},{"bike_id":"d59b5a73-bb64-4578-a6da-40de28d51742","system_id":"levelo_inurba_marseille","lat":43.30932,"lon":5.40164,"is_reserved":false,"is_disabled":false,"rental_uris":{"android":"levelo://app?vid=d59b5a73-bb64-4578-a6da-40de28d51742","ios":"levelo://app?vid=d59b5a73-bb64-4578-a6da-40de28d51742"},"vehicle_type_id":"4","last_reported":1726020353,"current_range_meters":39200,"station_id":"ce4bgvp2rcd13ifvqct0","pricing_plan_id":"cebpf4jnsgd1na2vs0mg"},{"bike_id":"854ba1b5-fb83-45d6-b654-43364f732a63","system_id":"levelo_inurba_marseille","lat":43.3206,"lon":5.41558,"is_reserved":false,"is_disabled":false,"rental_uris":{"android":"levelo://app?vid=854ba1b5-fb83-45d6-b654-43364f732a63","ios":"levelo://app?vid=854ba1b5-fb83-45d6-b654-43364f732a63"},"vehicle_type_id":"4","last_reported":1726020353,"current_range_meters":19200,"station_id":"ce4bhq92rcd13ifvqhkg","pricing_plan_id":"cebpf4jnsgd1na2vs0mg"},{"bike_id":"00fc663b-1b6a-46f5-8168-1e1ed34a719e","system_id":"levelo_inurba_marseille","lat":43.29551,"lon":5.42284,"is_reserved":false,"is_disabled":false,"rental_uris":{"android":"levelo://app?vid=00fc663b-1b6a-46f5-8168-1e1ed34a719e","ios":"levelo://app?vid=00fc663b-1b6a-46f5-8168-1e1ed34a719e"},"vehicle_type_id":"4","last_reported":1726020353,"current_range_meters":38400,"station_id":"ce4bhph2rcd13ifvqhdg","pricing_plan_id":"cebpf4jnsgd1na2vs0mg"},{"bike_id":"741e3ae1-eadc-469d-8e47-86b826147b73","system_id":"levelo_inurba_marseille","lat":43.28445,"lon":5.39184,"is_reserved":false,"is_disabled":false,"rental_uris":{"android":"levelo://app?vid=741e3ae1-eadc-469d-8e47-86b826147b73","ios":"levelo://app?vid=741e3ae1-eadc-469d-8e47-86b826147b73"},"vehicle_type_id":"4","last_reported":1726020353,"current_range_meters":35200,"station_id":"ce4bhoh2rcd13ifvqh5g","pricing_plan_id":"cebpf4jnsgd1na2vs0mg"},{"bike_id":"5a3fd4a6-1755-465c-8d8f-1a84ddce9916","system_id":"levelo_inurba_marseille","lat":43.25013,"lon":5.38921,"is_reserved":false,"is_disabled":false,"rental_uris":{"android":"levelo://app?vid=5a3fd4a6-1755-465c-8d8f-1a84ddce9916","ios":"levelo://app?vid=5a3fd4a6-1755-465c-8d8f-1a84ddce9916"},"vehicle_type_id":"4","last_reported":1726020353,"current_range_meters":28000,"station_id":"ce4bhgp2rcd13ifvqfd0","pricing_plan_id":"cebpf4jnsgd1na2vs0mg"},{"bike_id":"4231985f-a734-414a-8e6f-e1a144b43d69","system_id":"levelo_inurba_marseille","lat":43.28694,"lon":5.3738,"is_reserved":false,"is_disabled":false,"rental_uris":{"android":"levelo://app?vid=4231985f-a734-414a-8e6f-e1a144b43d69","ios":"levelo://app?vid=4231985f-a734-414a-8e6f-e1a144b43d69"},"vehicle_type_id":"4","last_reported":1726020353,"current_range_meters":38800,"station_id":"ce4bh3p2rcd13ifvqdq0","pricing_plan_id":"cebpf4jnsgd1na2vs0mg"},{"bike_id":"9042a679-e579-498b-bc4f-3859be122eff","system_id":"levelo_inurba_marseille","lat":43.31762,"lon":5.39,"is_reserved":false,"is_disabled":false,"rental_uris":{"android":"levelo://app?vid=9042a679-e579-498b-bc4f-3859be122eff","ios":"levelo://app?vid=9042a679-e579-498b-bc4f-3859be122eff"},"vehicle_type_id":"4","last_reported":1726020353,"current_range_meters":4800,"station_id":"ce4bhqp2rcd13ifvqhng","pricing_plan_id":"cebpf4jnsgd1na2vs0mg"},{"bike_id":"b24bcaac-1ebb-42e7-886a-a6b3b2b9eba8","system_id":"levelo_inurba_marseille","lat":43.28456,"lon":5.3589,"is_reserved":false,"is_disabled":false,"rental_uris":{"android":"levelo://app?vid=b24bcaac-1ebb-42e7-886a-a6b3b2b9eba8","ios":"levelo://app?vid=b24bcaac-1ebb-42e7-886a-a6b3b2b9eba8"},"vehicle_type_id":"4","last_reported":1726020353,"current_range_meters":39200,"station_id":"ce4bhah2rcd13ifvqei0","pricing_plan_id":"cebpf4jnsgd1na2vs0mg"},{"bike_id":"c8556cf0-f832-42b6-92cc-1120f0bf955c","system_id":"levelo_inurba_marseille","lat":43.31754,"lon":5.38998,"is_reserved":false,"is_disabled":false,"rental_uris":{"android":"levelo://app?vid=c8556cf0-f832-42b6-92cc-1120f0bf955c","ios":"levelo://app?vid=c8556cf0-f832-42b6-92cc-1120f0bf955c"},"vehicle_type_id":"4","last_reported":1726020353,"current_range_meters":32000,"station_id":"ce4bhqp2rcd13ifvqhng","pricing_plan_id":"cebpf4jnsgd1na2vs0mg"},{"bike_id":"43a84af0-6fc9-45fc-9a33-c0cfe186c922","system_id":"levelo_inurba_marseille","lat":43.2397,"lon":5.36613,"is_reserved":false,"is_disabled":false,"rental_uris":{"android":"levelo://app?vid=43a84af0-6fc9-45fc-9a33-c0cfe186c922","ios":"levelo://app?vid=43a84af0-6fc9-45fc-9a33-c0cfe186c922"},"vehicle_type_id":"4","last_reported":1726020353,"current_range_meters":15200,"station_id":"ce4bhi12rcd13ifvqfp0","pricing_plan_id":"cebpf4jnsgd1na2vs0mg"},{"bike_id":"9289f70c-8694-4e06-915e-43c430585b29","system_id":"levelo_inurba_marseille","lat":43.28004,"lon":5.3999,"is_reserved":false,"is_disabled":false,"rental_uris":{"android":"levelo://app?vid=9289f70c-8694-4e06-915e-43c430585b29","ios":"levelo://app?vid=9289f70c-8694-4e06-915e-43c430585b29"},"vehicle_type_id":"4","last_reported":1726020353,"current_range_meters":38400,"station_id":"ce4bho92rcd13ifvqh4g","pricing_plan_id":"cebpf4jnsgd1na2vs0mg"},{"bike_id":"6c3f9e7e-8a4e-469e-84b6-4eedcf57fc53","system_id":"levelo_inurba_marseille","lat":43.31113,"lon":5.37743,"is_reserved":false,"is_disabled":false,"rental_uris":{"android":"levelo://app?vid=6c3f9e7e-8a4e-469e-84b6-4eedcf57fc53","ios":"levelo://app?vid=6c3f9e7e-8a4e-469e-84b6-4eedcf57fc53"},"vehicle_type_id":"4","last_reported":1726020353,"current_range_meters":28000,"station_id":"ce4bgt92rcd13ifvqcg0","pricing_plan_id":"cebpf4jnsgd1na2vs0mg"},{"bike_id":"1d008475-1adf-4717-b895-a5c1e63671a3","system_id":"levelo_inurba_marseille","lat":43.29857,"lon":5.36282,"is_reserved":false,"is_disabled":false,"rental_uris":{"android":"levelo://app?vid=1d008475-1adf-4717-b895-a5c1e63671a3","ios":"levelo://app?vid=1d008475-1adf-4717-b895-a5c1e63671a3"},"vehicle_type_id":"4","last_reported":1726020353,"current_range_meters":35600,"station_id":"ce4bgpp2rcd13ifvqc3g","pricing_plan_id":"cebpf4jnsgd1na2vs0mg"},{"bike_id":"e7f1ce34-711f-4386-95b9-fe5f61acdbcc","system_id":"levelo_inurba_marseille","lat":43.27375,"lon":5.36247,"is_reserved":false,"is_disabled":false,"rental_uris":{"android":"levelo://app?vid=e7f1ce34-711f-4386-95b9-fe5f61acdbcc","ios":"levelo://app?vid=e7f1ce34-711f-4386-95b9-fe5f61acdbcc"},"vehicle_type_id":"4","last_reported":1726020353,"current_range_meters":33600,"station_id":"ce4bhbh2rcd13ifvqeo0","pricing_plan_id":"cebpf4jnsgd1na2vs0mg"},{"bike_id":"5876c5ef-9fac-478d-bd3c-ea1780c21005","system_id":"levelo_inurba_marseille","lat":43.33762,"lon":5.3745,"is_reserved":false,"is_disabled":false,"rental_uris":{"android":"levelo://app?vid=5876c5ef-9fac-478d-bd3c-ea1780c21005","ios":"levelo://app?vid=5876c5ef-9fac-478d-bd3c-ea1780c21005"},"vehicle_type_id":"4","last_reported":1726020353,"current_range_meters":34000,"station_id":"","pricing_plan_id":"cebpf4jnsgd1na2vs0mg"},{"bike_id":"3ef293cb-6b10-47c2-a61b-1c747b67c2aa","system_id":"levelo_inurba_marseille","lat":43.22924,"lon":5.35379,"is_reserved":false,"is_disabled":false,"rental_uris":{"android":"levelo://app?vid=3ef293cb-6b10-47c2-a61b-1c747b67c2aa","ios":"levelo://app?vid=3ef293cb-6b10-47c2-a61b-1c747b67c2aa"},"vehicle_type_id":"4","last_reported":1726020353,"current_range_meters":37600,"station_id":"cpo3532slgdg3j2ikp40","pricing_plan_id":"cebpf4jnsgd1na2vs0mg"},{"bike_id":"9658173f-729f-44c0-b272-df35fcc2e649","system_id":"levelo_inurba_marseille","lat":43.34152,"lon":5.40905,"is_reserved":false,"is_disabled":false,"rental_uris":{"android":"levelo://app?vid=9658173f-729f-44c0-b272-df35fcc2e649","ios":"levelo://app?vid=9658173f-729f-44c0-b272-df35fcc2e649"},"vehicle_type_id":"4","last_reported":1726020353,"current_range_meters":32400,"station_id":"ce4bhqh2rcd13ifvqhlg","pricing_plan_id":"cebpf4jnsgd1na2vs0mg"},{"bike_id":"d33f6ede-b3c6-4ea3-a65b-eaf3fbd8c185","system_id":"levelo_inurba_marseille","lat":43.30906,"lon":5.37189,"is_reserved":false,"is_disabled":false,"rental_uris":{"android":"levelo://app?vid=d33f6ede-b3c6-4ea3-a65b-eaf3fbd8c185","ios":"levelo://app?vid=d33f6ede-b3c6-4ea3-a65b-eaf3fbd8c185"},"vehicle_type_id":"4","last_reported":1726020353,"current_range_meters":39200,"station_id":"ce4bguh2rcd13ifvqckg","pricing_plan_id":"cebpf4jnsgd1na2vs0mg"},{"bike_id":"ac68cfcd-c622-4cae-a4f4-25995a94d109","system_id":"levelo_inurba_marseille","lat":43.3266,"lon":5.40998,"is_reserved":false,"is_disabled":false,"rental_uris":{"android":"levelo://app?vid=ac68cfcd-c622-4cae-a4f4-25995a94d109","ios":"levelo://app?vid=ac68cfcd-c622-4cae-a4f4-25995a94d109"},"vehicle_type_id":"4","last_reported":1726020353,"current_range_meters":35600,"station_id":"ce4bhpp2rcd13ifvqhgg","pricing_plan_id":"cebpf4jnsgd1na2vs0mg"},{"bike_id":"371dd7ef-2d4b-4733-bf0c-668e9220ea42","system_id":"levelo_inurba_marseille","lat":43.30887,"lon":5.39641,"is_reserved":false,"is_disabled":false,"rental_uris":{"android":"levelo://app?vid=371dd7ef-2d4b-4733-bf0c-668e9220ea42","ios":"levelo://app?vid=371dd7ef-2d4b-4733-bf0c-668e9220ea42"},"vehicle_type_id":"4","last_reported":1726020353,"current_range_meters":25200,"station_id":"ce4bh012rcd13ifvqcv0","pricing_plan_id":"cebpf4jnsgd1na2vs0mg"},{"bike_id":"9d97c6b7-d5ff-4ca7-999e-9c4395e89c55","system_id":"levelo_inurba_marseille","lat":43.2407,"lon":5.37755,"is_reserved":false,"is_disabled":false,"rental_uris":{"android":"levelo://app?vid=9d97c6b7-d5ff-4ca7-999e-9c4395e89c55","ios":"levelo://app?vid=9d97c6b7-d5ff-4ca7-999e-9c4395e89c55"},"vehicle_type_id":"4","last_reported":1726020353,"current_range_meters":38400,"station_id":"ce4bhnp2rcd13ifvqgvg","pricing_plan_id":"cebpf4jnsgd1na2vs0mg"},{"bike_id":"2499bc9e-8f5b-455e-b022-8b890a1cca44","system_id":"levelo_inurba_marseille","lat":43.29181,"lon":5.39303,"is_reserved":false,"is_disabled":false,"rental_uris":{"android":"levelo://app?vid=2499bc9e-8f5b-455e-b022-8b890a1cca44","ios":"levelo://app?vid=2499bc9e-8f5b-455e-b022-8b890a1cca44"},"vehicle_type_id":"4","last_reported":1726020353,"current_range_meters":8400,"station_id":"ce4bh192rcd13ifvqdd0","pricing_plan_id":"cebpf4jnsgd1na2vs0mg"},{"bike_id":"8f46fb95-7196-4600-a4bb-31374c79e4fd","system_id":"levelo_inurba_marseille","lat":43.24686,"lon":5.38152,"is_reserved":false,"is_disabled":false,"rental_uris":{"android":"levelo://app?vid=8f46fb95-7196-4600-a4bb-31374c79e4fd","ios":"levelo://app?vid=8f46fb95-7196-4600-a4bb-31374c79e4fd"},"vehicle_type_id":"4","last_reported":1726020353,"current_range_meters":38400,"station_id":"ce4bhih2rcd13ifvqfr0","pricing_plan_id":"cebpf4jnsgd1na2vs0mg"},{"bike_id":"30ac1b31-ef72-4741-a044-8e116b2f3f13","system_id":"levelo_inurba_marseille","lat":43.30884,"lon":5.39641,"is_reserved":false,"is_disabled":false,"rental_uris":{"android":"levelo://app?vid=30ac1b31-ef72-4741-a044-8e116b2f3f13","ios":"levelo://app?vid=30ac1b31-ef72-4741-a044-8e116b2f3f13"},"vehicle_type_id":"4","last_reported":1726020353,"current_range_meters":37600,"station_id":"ce4bh012rcd13ifvqcv0","pricing_plan_id":"cebpf4jnsgd1na2vs0mg"},{"bike_id":"e72f9d1f-419f-450b-86df-c8dd274dc578","system_id":"levelo_inurba_marseille","lat":43.31743,"lon":5.39001,"is_reserved":false,"is_disabled":false,"rental_uris":{"android":"levelo://app?vid=e72f9d1f-419f-450b-86df-c8dd274dc578","ios":"levelo://app?vid=e72f9d1f-419f-450b-86df-c8dd274dc578"},"vehicle_type_id":"4","last_reported":1726020353,"current_range_meters":9600,"station_id":"ce4bhqp2rcd13ifvqhng","pricing_plan_id":"cebpf4jnsgd1na2vs0mg"},{"bike_id":"7abb3655-b461-4e13-bc97-8c353f282d6b","system_id":"levelo_inurba_marseille","lat":43.23185,"lon":5.39976,"is_reserved":false,"is_disabled":false,"rental_uris":{"android":"levelo://app?vid=7abb3655-b461-4e13-bc97-8c353f282d6b","ios":"levelo://app?vid=7abb3655-b461-4e13-bc97-8c353f282d6b"},"vehicle_type_id":"4","last_reported":1726020353,"current_range_meters":7200,"station_id":"ce4bhn12rcd13ifvqgqg","pricing_plan_id":"cebpf4jnsgd1na2vs0mg"},{"bike_id":"cfdc2c5e-cc31-48a6-94ab-8adcc421dc10","system_id":"levelo_inurba_marseille","lat":43.2693,"lon":5.40273,"is_reserved":false,"is_disabled":false,"rental_uris":{"android":"levelo://app?vid=cfdc2c5e-cc31-48a6-94ab-8adcc421dc10","ios":"levelo://app?vid=cfdc2c5e-cc31-48a6-94ab-8adcc421dc10"},"vehicle_type_id":"4","last_reported":1726020353,"current_range_meters":25600,"station_id":"cjm6bp8fraef2m0cb0m0","pricing_plan_id":"cebpf4jnsgd1na2vs0mg"},{"bike_id":"3f48e559-de96-42ea-88b9-925d9064e054","system_id":"levelo_inurba_marseille","lat":43.31369,"lon":5.38502,"is_reserved":false,"is_disabled":false,"rental_uris":{"android":"levelo://app?vid=3f48e559-de96-42ea-88b9-925d9064e054","ios":"levelo://app?vid=3f48e559-de96-42ea-88b9-925d9064e054"},"vehicle_type_id":"4","last_reported":1726020353,"current_range_meters":9600,"station_id":"ce4bgt92rcd13ifvqcf0","pricing_plan_id":"cebpf4jnsgd1na2vs0mg"},{"bike_id":"2aa7771c-e547-4e4a-8df6-66b9fb32cded","system_id":"levelo_inurba_marseille","lat":43.28936,"lon":5.39622,"is_reserved":false,"is_disabled":false,"rental_uris":{"android":"levelo://app?vid=2aa7771c-e547-4e4a-8df6-66b9fb32cded","ios":"levelo://app?vid=2aa7771c-e547-4e4a-8df6-66b9fb32cded"},"vehicle_type_id":"4","last_reported":1726020353,"current_range_meters":24000,"station_id":"ce4bh3h2rcd13ifvqdn0","pricing_plan_id":"cebpf4jnsgd1na2vs0mg"},{"bike_id":"4db32b4d-4c85-4443-a8fa-2011c09b156e","system_id":"levelo_inurba_marseille","lat":43.27928,"lon":5.39575,"is_reserved":false,"is_disabled":false,"rental_uris":{"android":"levelo://app?vid=4db32b4d-4c85-4443-a8fa-2011c09b156e","ios":"levelo://app?vid=4db32b4d-4c85-4443-a8fa-2011c09b156e"},"vehicle_type_id":"4","last_reported":1726020353,"current_range_meters":33600,"station_id":"ce4bhf92rcd13ifvqf40","pricing_plan_id":"cebpf4jnsgd1na2vs0mg"},{"bike_id":"80bc4778-20e3-4749-a88a-a003b6b6f7ad","system_id":"levelo_inurba_marseille","lat":43.31366,"lon":5.38499,"is_reserved":false,"is_disabled":false,"rental_uris":{"android":"levelo://app?vid=80bc4778-20e3-4749-a88a-a003b6b6f7ad","ios":"levelo://app?vid=80bc4778-20e3-4749-a88a-a003b6b6f7ad"},"vehicle_type_id":"4","last_reported":1726020353,"current_range_meters":6400,"station_id":"ce4bgt92rcd13ifvqcf0","pricing_plan_id":"cebpf4jnsgd1na2vs0mg"},{"bike_id":"41fd8ebe-7799-415d-81d8-7785d3b2fd65","system_id":"levelo_inurba_marseille","lat":43.29968,"lon":5.41318,"is_reserved":false,"is_disabled":false,"rental_uris":{"android":"levelo://app?vid=41fd8ebe-7799-415d-81d8-7785d3b2fd65","ios":"levelo://app?vid=41fd8ebe-7799-415d-81d8-7785d3b2fd65"},"vehicle_type_id":"4","last_reported":1726020353,"current_range_meters":31200,"station_id":"ce4bhp12rcd13ifvqh9g","pricing_plan_id":"cebpf4jnsgd1na2vs0mg"},{"bike_id":"09a7a1ad-315d-4983-a6e2-a22d1208f337","system_id":"levelo_inurba_marseille","lat":43.27325,"lon":5.39097,"is_reserved":false,"is_disabled":false,"rental_uris":{"android":"levelo://app?vid=09a7a1ad-315d-4983-a6e2-a22d1208f337","ios":"levelo://app?vid=09a7a1ad-315d-4983-a6e2-a22d1208f337"},"vehicle_type_id":"4","last_reported":1726020353,"current_range_meters":38400,"station_id":"ce4bhgp2rcd13ifvqfe0","pricing_plan_id":"cebpf4jnsgd1na2vs0mg"},{"bike_id":"60d8184b-7db1-45d6-ad2e-a06748581dd6","system_id":"levelo_inurba_marseille","lat":43.30099,"lon":5.39858,"is_reserved":false,"is_disabled":false,"rental_uris":{"android":"levelo://app?vid=60d8184b-7db1-45d6-ad2e-a06748581dd6","ios":"levelo://app?vid=60d8184b-7db1-45d6-ad2e-a06748581dd6"},"vehicle_type_id":"4","last_reported":1726020353,"current_range_meters":40000,"station_id":"ce4bh0h2rcd13ifvqd40","pricing_plan_id":"cebpf4jnsgd1na2vs0mg"},{"bike_id":"2d3e3ae7-05b6-4fc0-a64a-df935b3f58a2","system_id":"levelo_inurba_marseille","lat":43.31063,"lon":5.38346,"is_reserved":false,"is_disabled":false,"rental_uris":{"android":"levelo://app?vid=2d3e3ae7-05b6-4fc0-a64a-df935b3f58a2","ios":"levelo://app?vid=2d3e3ae7-05b6-4fc0-a64a-df935b3f58a2"},"vehicle_type_id":"4","last_reported":1726020353,"current_range_meters":38400,"station_id":"ce4bgv92rcd13ifvqcr0","pricing_plan_id":"cebpf4jnsgd1na2vs0mg"},{"bike_id":"262acde0-5e46-4b89-9744-86cc6676cec7","system_id":"levelo_inurba_marseille","lat":43.31278,"lon":5.4016,"is_reserved":false,"is_disabled":false,"rental_uris":{"android":"levelo://app?vid=262acde0-5e46-4b89-9744-86cc6676cec7","ios":"levelo://app?vid=262acde0-5e46-4b89-9744-86cc6676cec7"},"vehicle_type_id":"4","last_reported":1726020353,"current_range_meters":37600,"station_id":"ce4bh092rcd13ifvqd30","pricing_plan_id":"cebpf4jnsgd1na2vs0mg"},{"bike_id":"1836bf3a-473d-4a07-8219-109d380fba4b","system_id":"levelo_inurba_marseille","lat":43.30953,"lon":5.39042,"is_reserved":false,"is_disabled":false,"rental_uris":{"android":"levelo://app?vid=1836bf3a-473d-4a07-8219-109d380fba4b","ios":"levelo://app?vid=1836bf3a-473d-4a07-8219-109d380fba4b"},"vehicle_type_id":"4","last_reported":1726020353,"current_range_meters":39200,"station_id":"ce4bgup2rcd13ifvqco0","pricing_plan_id":"cebpf4jnsgd1na2vs0mg"},{"bike_id":"09ffcbdf-58a8-4a2b-b359-e87abe1f9d3d","system_id":"levelo_inurba_marseille","lat":43.28662,"lon":5.36344,"is_reserved":false,"is_disabled":false,"rental_uris":{"android":"levelo://app?vid=09ffcbdf-58a8-4a2b-b359-e87abe1f9d3d","ios":"levelo://app?vid=09ffcbdf-58a8-4a2b-b359-e87abe1f9d3d"},"vehicle_type_id":"4","last_reported":1726020353,"current_range_meters":35600,"station_id":"ce4bhah2rcd13ifvqej0","pricing_plan_id":"cebpf4jnsgd1na2vs0mg"},{"bike_id":"ca679959-c817-4def-aa64-8552e0e24858","system_id":"levelo_inurba_marseille","lat":43.28667,"lon":5.3636,"is_reserved":false,"is_disabled":false,"rental_uris":{"android":"levelo://app?vid=ca679959-c817-4def-aa64-8552e0e24858","ios":"levelo://app?vid=ca679959-c817-4def-aa64-8552e0e24858"},"vehicle_type_id":"4","last_reported":1726020353,"current_range_meters":37600,"station_id":"ce4bhah2rcd13ifvqej0","pricing_plan_id":"cebpf4jnsgd1na2vs0mg"},{"bike_id":"efc07193-6a27-4621-a593-eee5190ed64b","system_id":"levelo_inurba_marseille","lat":43.29773,"lon":5.37096,"is_reserved":false,"is_disabled":false,"rental_uris":{"android":"levelo://app?vid=efc07193-6a27-4621-a593-eee5190ed64b","ios":"levelo://app?vid=efc07193-6a27-4621-a593-eee5190ed64b"},"vehicle_type_id":"4","last_reported":1726020353,"current_range_meters":30800,"station_id":"ce4bgop2rcd13ifvqc1g","pricing_plan_id":"cebpf4jnsgd1na2vs0mg"},{"bike_id":"e5b123ca-7506-4eeb-b9eb-0ff4860b1d5d","system_id":"levelo_inurba_marseille","lat":43.2718,"lon":5.40987,"is_reserved":false,"is_disabled":false,"rental_uris":{"android":"levelo://app?vid=e5b123ca-7506-4eeb-b9eb-0ff4860b1d5d","ios":"levelo://app?vid=e5b123ca-7506-4eeb-b9eb-0ff4860b1d5d"},"vehicle_type_id":"4","last_reported":1726020353,"current_range_meters":33600,"station_id":"ce4bhl12rcd13ifvqgf0","pricing_plan_id":"cebpf4jnsgd1na2vs0mg"},{"bike_id":"1e5e8f19-3bab-4680-847c-e0a49335d88c","system_id":"levelo_inurba_marseille","lat":43.28696,"lon":5.39966,"is_reserved":false,"is_disabled":false,"rental_uris":{"android":"levelo://app?vid=1e5e8f19-3bab-4680-847c-e0a49335d88c","ios":"levelo://app?vid=1e5e8f19-3bab-4680-847c-e0a49335d88c"},"vehicle_type_id":"4","last_reported":1726020353,"current_range_meters":36000,"station_id":"ce4bho92rcd13ifvqh3g","pricing_plan_id":"cebpf4jnsgd1na2vs0mg"},{"bike_id":"6193a3b5-4741-4e20-892f-71f4056d0de9","system_id":"levelo_inurba_marseille","lat":43.23184,"lon":5.39986,"is_reserved":false,"is_disabled":false,"rental_uris":{"android":"levelo://app?vid=6193a3b5-4741-4e20-892f-71f4056d0de9","ios":"levelo://app?vid=6193a3b5-4741-4e20-892f-71f4056d0de9"},"vehicle_type_id":"4","last_reported":1726020353,"current_range_meters":38800,"station_id":"ce4bhn12rcd13ifvqgqg","pricing_plan_id":"cebpf4jnsgd1na2vs0mg"},{"bike_id":"2f486dda-7c18-403c-904a-075869f4ec60","system_id":"levelo_inurba_marseille","lat":43.27921,"lon":5.39567,"is_reserved":false,"is_disabled":false,"rental_uris":{"android":"levelo://app?vid=2f486dda-7c18-403c-904a-075869f4ec60","ios":"levelo://app?vid=2f486dda-7c18-403c-904a-075869f4ec60"},"vehicle_type_id":"4","last_reported":1726020353,"current_range_meters":30800,"station_id":"ce4bhf92rcd13ifvqf40","pricing_plan_id":"cebpf4jnsgd1na2vs0mg"},{"bike_id":"00cf214c-b40b-46e3-8b2d-85826d178cf4","system_id":"levelo_inurba_marseille","lat":43.28476,"lon":5.35884,"is_reserved":false,"is_disabled":false,"rental_uris":{"android":"levelo://app?vid=00cf214c-b40b-46e3-8b2d-85826d178cf4","ios":"levelo://app?vid=00cf214c-b40b-46e3-8b2d-85826d178cf4"},"vehicle_type_id":"4","last_reported":1726020353,"current_range_meters":16800,"station_id":"ce4bhah2rcd13ifvqei0","pricing_plan_id":"cebpf4jnsgd1na2vs0mg"},{"bike_id":"1bc6d034-1c4e-4b81-95f7-9274b014bd03","system_id":"levelo_inurba_marseille","lat":43.2846,"lon":5.35887,"is_reserved":false,"is_disabled":false,"rental_uris":{"android":"levelo://app?vid=1bc6d034-1c4e-4b81-95f7-9274b014bd03","ios":"levelo://app?vid=1bc6d034-1c4e-4b81-95f7-9274b014bd03"},"vehicle_type_id":"4","last_reported":1726020353,"current_range_meters":32000,"station_id":"ce4bhah2rcd13ifvqei0","pricing_plan_id":"cebpf4jnsgd1na2vs0mg"},{"bike_id":"e1b234d4-9ac8-4e18-bb5f-ae6c6c9c71a4","system_id":"levelo_inurba_marseille","lat":43.29295,"lon":5.37157,"is_reserved":false,"is_disabled":false,"rental_uris":{"android":"levelo://app?vid=e1b234d4-9ac8-4e18-bb5f-ae6c6c9c71a4","ios":"levelo://app?vid=e1b234d4-9ac8-4e18-bb5f-ae6c6c9c71a4"},"vehicle_type_id":"4","last_reported":1726020353,"current_range_meters":37600,"station_id":"ce4bgh92rcd13ifvqb40","pricing_plan_id":"cebpf4jnsgd1na2vs0mg"},{"bike_id":"5e2608d4-e8f7-4b65-abbb-6f7b0a13c326","system_id":"levelo_inurba_marseille","lat":43.28426,"lon":5.39192,"is_reserved":false,"is_disabled":false,"rental_uris":{"android":"levelo://app?vid=5e2608d4-e8f7-4b65-abbb-6f7b0a13c326","ios":"levelo://app?vid=5e2608d4-e8f7-4b65-abbb-6f7b0a13c326"},"vehicle_type_id":"4","last_reported":1726020353,"current_range_meters":34800,"station_id":"ce4bhoh2rcd13ifvqh5g","pricing_plan_id":"cebpf4jnsgd1na2vs0mg"},{"bike_id":"f803caf1-6055-4aef-a0c1-a49a8dbd7a09","system_id":"levelo_inurba_marseille","lat":43.27827,"lon":5.39199,"is_reserved":false,"is_disabled":false,"rental_uris":{"android":"levelo://app?vid=f803caf1-6055-4aef-a0c1-a49a8dbd7a09","ios":"levelo://app?vid=f803caf1-6055-4aef-a0c1-a49a8dbd7a09"},"vehicle_type_id":"4","last_reported":1726020353,"current_range_meters":38800,"station_id":"ce4bhjp2rcd13ifvqga0","pricing_plan_id":"cebpf4jnsgd1na2vs0mg"},{"bike_id":"e3c8bccc-6c5a-486c-aec4-62058d07ed3b","system_id":"levelo_inurba_marseille","lat":43.27322,"lon":5.39108,"is_reserved":false,"is_disabled":false,"rental_uris":{"android":"levelo://app?vid=e3c8bccc-6c5a-486c-aec4-62058d07ed3b","ios":"levelo://app?vid=e3c8bccc-6c5a-486c-aec4-62058d07ed3b"},"vehicle_type_id":"4","last_reported":1726020353,"current_range_meters":38800,"station_id":"ce4bhgp2rcd13ifvqfe0","pricing_plan_id":"cebpf4jnsgd1na2vs0mg"},{"bike_id":"c280655b-da46-4f44-b4b9-5550f40c0e7d","system_id":"levelo_inurba_marseille","lat":43.32282,"lon":5.38266,"is_reserved":false,"is_disabled":false,"rental_uris":{"android":"levelo://app?vid=c280655b-da46-4f44-b4b9-5550f40c0e7d","ios":"levelo://app?vid=c280655b-da46-4f44-b4b9-5550f40c0e7d"},"vehicle_type_id":"4","last_reported":1726020353,"current_range_meters":20800,"station_id":"ce4bhr12rcd13ifvqhqg","pricing_plan_id":"cebpf4jnsgd1na2vs0mg"},{"bike_id":"d366d7a4-0426-4053-8099-780658e44800","system_id":"levelo_inurba_marseille","lat":43.31162,"lon":5.3873,"is_reserved":false,"is_disabled":false,"rental_uris":{"android":"levelo://app?vid=d366d7a4-0426-4053-8099-780658e44800","ios":"levelo://app?vid=d366d7a4-0426-4053-8099-780658e44800"},"vehicle_type_id":"4","last_reported":1726020353,"current_range_meters":11200,"station_id":"ce4bgv12rcd13ifvqcp0","pricing_plan_id":"cebpf4jnsgd1na2vs0mg"},{"bike_id":"c25508be-a553-4e86-b959-6cf74594e042","system_id":"levelo_inurba_marseille","lat":43.31171,"lon":5.38712,"is_reserved":false,"is_disabled":false,"rental_uris":{"android":"levelo://app?vid=c25508be-a553-4e86-b959-6cf74594e042","ios":"levelo://app?vid=c25508be-a553-4e86-b959-6cf74594e042"},"vehicle_type_id":"4","last_reported":1726020353,"current_range_meters":38800,"station_id":"ce4bgv12rcd13ifvqcp0","pricing_plan_id":"cebpf4jnsgd1na2vs0mg"},{"bike_id":"c8e0fcb6-1d3f-4d83-b861-1f56e6b3ab2c","system_id":"levelo_inurba_marseille","lat":43.32284,"lon":5.38254,"is_reserved":false,"is_disabled":false,"rental_uris":{"android":"levelo://app?vid=c8e0fcb6-1d3f-4d83-b861-1f56e6b3ab2c","ios":"levelo://app?vid=c8e0fcb6-1d3f-4d83-b861-1f56e6b3ab2c"},"vehicle_type_id":"4","last_reported":1726020353,"current_range_meters":33600,"station_id":"ce4bhr12rcd13ifvqhqg","pricing_plan_id":"cebpf4jnsgd1na2vs0mg"},{"bike_id":"6776db5f-50cd-4d20-b245-c2e33644fee2","system_id":"levelo_inurba_marseille","lat":43.30888,"lon":5.37215,"is_reserved":false,"is_disabled":false,"rental_uris":{"android":"levelo://app?vid=6776db5f-50cd-4d20-b245-c2e33644fee2","ios":"levelo://app?vid=6776db5f-50cd-4d20-b245-c2e33644fee2"},"vehicle_type_id":"4","last_reported":1726020353,"current_range_meters":17600,"station_id":"ce4bguh2rcd13ifvqckg","pricing_plan_id":"cebpf4jnsgd1na2vs0mg"},