{"last_updated":1738876109,"ttl":60,"version":"2.2","data":{"bikes":[{"bike_id":"41d159a1-b1b3-4484-8c02-6b7171597640","system_id":"levelo_inurba_marseille","lat":43.29705,"lon":5.37691,"is_reserved":false,"is_disabled":false,"rental_uris":{"android":"levelo://app?vid=41d159a1-b1b3-4484-8c02-6b7171597640","ios":"levelo://app?vid=41d159a1-b1b3-4484-8c02-6b7171597640"},"vehicle_type_id":"4","last_reported":1738876109,"current_range_meters":38800,"station_id":"ce4bgkh2rcd13ifvqbl0","pricing_plan_id":"cebpf4jnsgd1na2vs0mg"},{"bike_id":"b7afcc04-cb11-440a-a531-4c808c1c4618","system_id":"levelo_inurba_marseille","lat":43.22935,"lon":5.35379,"is_reserved":false,"is_disabled":false,"rental_uris":{"android":"levelo://app?vid=b7afcc04-cb11-440a-a531-4c808c1c4618","ios":"levelo://app?vid=b7afcc04-cb11-440a-a531-4c808c1c4618"},"vehicle_type_id":"4","last_reported":1738876109,"current_range_meters":22400,"station_id":"cpo3532slgdg3j2ikp40","pricing_plan_id":"cebpf4jnsgd1na2vs0mg"},{"bike_id":"c5f5a10d-c4ee-4670-855c-f90b9203bdb7","system_id":"levelo_inurba_marseille","lat":43.29528,"lon":5.39051,"is_reserved":false,"is_disabled":false,"rental_uris":{"android":"levelo://app?vid=c5f5a10d-c4ee-4670-855c-f90b9203bdb7","ios":"levelo://app?vid=c5f5a10d-c4ee-4670-855c-f90b9203bdb7"},"vehicle_type_id":"4","last_reported":1738876109,"current_range_meters":38400,"station_id":"ce4bh3p2rcd13ifvqdp0","pricing_plan_id":"cebpf4jnsgd1na2vs0mg"},{"bike_id":"958e9408-3870-499c-b82c-ad0ef4ec2d1e","system_id":"levelo_inurba_marseille","lat":43.27553,"lon":5.38425,"is_reserved":false,"is_disabled":false,"rental_uris":{"android":"levelo://app?vid=958e9408-3870-499c-b82c-ad0ef4ec2d1e","ios":"levelo://app?vid=958e9408-3870-499c-b82c-ad0ef4ec2d1e"},"vehicle_type_id":"4","last_reported":1738876109,"current_range_meters":16000,"station_id":"ce4bhh92rcd13ifvqfi0","pricing_plan_id":"cebpf4jnsgd1na2vs0mg"},{"bike_id":"0467a076-a2ad-41b7-a012-e38470b2d7f6","system_id":"levelo_inurba_marseille","lat":43.24994,"lon":5.38934,"is_reserved":false,"is_disabled":false,"rental_uris":{"android":"levelo://app?vid=0467a076-a2ad-41b7-a012-e38470b2d7f6","ios":"levelo://app?vid=0467a076-a2ad-41b7-a012-e38470b2d7f6"},"vehicle_type_id":"4","last_reported":1738876109,"current_range_meters":9200,"station_id":"ce4bhgp2rcd13ifvqfd0","pricing_plan_id":"cebpf4jnsgd1na2vs0mg"},{"bike_id":"d01b5237-25ef-49b1-b17a-24e9a0e2af28","system_id":"levelo_inurba_marseille","lat":43.30532,"lon":5.36573,"is_reserved":false,"is_disabled":false,"rental_uris":{"android":"levelo://app?vid=d01b5237-25ef-49b1-b17a-24e9a0e2af28","ios":"levelo://app?vid=d01b5237-25ef-49b1-b17a-24e9a0e2af28"},"vehicle_type_id":"4","last_reported":1738876109,"current_range_meters":38800,"station_id":"ce4bgs12rcd13ifvqcag","pricing_plan_id":"cebpf4jnsgd1na2vs0mg"},{"bike_id":"6f1b8212-3f5a-4978-864e-5e174cc6fd25","system_id":"levelo_inurba_marseille","lat":43.29558,"lon":5.42283,"is_reserved":false,"is_disabled":false,"rental_uris":{"android":"levelo://app?vid=6f1b8212-3f5a-4978-864e-5e174cc6fd25","ios":"levelo://app?vid=6f1b8212-3f5a-4978-864e-5e174cc6fd25"},"vehicle_type_id":"4","last_reported":1738876109,"current_range_meters":38800,"station_id":"ce4bhph2rcd13ifvqhdg","pricing_plan_id":"cebpf4jnsgd1na2vs0mg"},{"bike_id":"0b370460-2bdc-4346-a1f4-7aeb9dd2a707","system_id":"levelo_inurba_marseille","lat":43.28632,"lon":5.39138,"is_reserved":false,"is_disabled":true,"rental_uris":{"android":"levelo://app?vid=0b370460-2bdc-4346-a1f4-7aeb9dd2a707","ios":"levelo://app?vid=0b370460-2bdc-4346-a1f4-7aeb9dd2a707"},"vehicle_type_id":"4","last_reported":1738876109,"current_range_meters":17600,"station_id":"","pricing_plan_id":"cebpf4jnsgd1na2vs0mg"},{"bike_id":"7fd47275-2594-47ff-96d0-51746e5bc128","system_id":"levelo_inurba_marseille","lat":43.30645,"lon":5.40057,"is_reserved":false,"is_disabled":true,"rental_uris":{"android":"levelo://app?vid=7fd47275-2594-47ff-96d0-51746e5bc128","ios":"levelo://app?vid=7fd47275-2594-47ff-96d0-51746e5bc128"},"vehicle_type_id":"4","last_reported":1738876109,"current_range_meters":6800,"station_id":"ce4bh112rcd13ifvqda0","pricing_plan_id":"cebpf4jnsgd1na2vs0mg"},{"bike_id":"9094078c-7c29-411d-8877-ca6848fb2f24","system_id":"levelo_inurba_marseille","lat":43.27914,"lon":5.38032,"is_reserved":false,"is_disabled":false,"rental_uris":{"android":"levelo://app?vid=9094078c-7c29-411d-8877-ca6848fb2f24","ios":"levelo://app?vid=9094078c-7c29-411d-8877-ca6848fb2f24"},"vehicle_type_id":"4","last_reported":1738876109,"current_range_meters":13600,"station_id":"ce4bhf92rcd13ifvqf50","pricing_plan_id":"cebpf4jnsgd1na2vs0mg"},{"bike_id":"f224af74-9b7e-4ae7-aac2-7b0732825e02","system_id":"levelo_inurba_marseille","lat":43.28935,"lon":5.36394,"is_reserved":false,"is_disabled":false,"rental_uris":{"android":"levelo://app?vid=f224af74-9b7e-4ae7-aac2-7b0732825e02","ios":"levelo://app?vid=f224af74-9b7e-4ae7-aac2-7b0732825e02"},"vehicle_type_id":"4","last_reported":1738876109,"current_range_meters":30400,"station_id":"ce4bhc92rcd13ifvqetg","pricing_plan_id":"cebpf4jnsgd1na2vs0mg"},{"bike_id":"0782d9d1-5872-4d10-af8f-4af781bd1056","system_id":"levelo_inurba_marseille","lat":43.29316,"lon":5.37179,"is_reserved":false,"is_disabled":false,"rental_uris":{"android":"levelo://app?vid=0782d9d1-5872-4d10-af8f-4af781bd1056","ios":"levelo://app?vid=0782d9d1-5872-4d10-af8f-4af781bd1056"},"vehicle_type_id":"4","last_reported":1738876109,"current_range_meters":10000,"station_id":"ce4bgh92rcd13ifvqb40","pricing_plan_id":"cebpf4jnsgd1na2vs0mg"},{"bike_id":"41748c4d-fb7e-4f03-a7ef-71bbf6c5209c","system_id":"levelo_inurba_marseille","lat":43.24792,"lon":5.37483,"is_reserved":false,"is_disabled":false,"rental_uris":{"android":"levelo://app?vid=41748c4d-fb7e-4f03-a7ef-71bbf6c5209c","ios":"levelo://app?vid=41748c4d-fb7e-4f03-a7ef-71bbf6c5209c"},"vehicle_type_id":"4","last_reported":1738876109,"current_range_meters":39200,"station_id":"ce4bhgh2rcd13ifvqfb0","pricing_plan_id":"cebpf4jnsgd1na2vs0mg"},{"bike_id":"7154d5c9-ff59-4592-8b06-77bf24ef3756","system_id":"levelo_inurba_marseille","lat":43.28268,"lon":5.35067,"is_reserved":false,"is_disabled":false,"rental_uris":{"android":"levelo://app?vid=7154d5c9-ff59-4592-8b06-77bf24ef3756","ios":"levelo://app?vid=7154d5c9-ff59-4592-8b06-77bf24ef3756"},"vehicle_type_id":"4","last_reported":1738876109,"current_range_meters":8000,"station_id":"ce4bhbp2rcd13ifvqerg","pricing_plan_id":"cebpf4jnsgd1na2vs0mg"},{"bike_id":"233fe280-c6f1-41a1-8edc-3a2cba8498c9","system_id":"levelo_inurba_marseille","lat":43.29528,"lon":5.39059,"is_reserved":false,"is_disabled":false,"rental_uris":{"android":"levelo://app?vid=233fe280-c6f1-41a1-8edc-3a2cba8498c9","ios":"levelo://app?vid=233fe280-c6f1-41a1-8edc-3a2cba8498c9"},"vehicle_type_id":"4","last_reported":1738876109,"current_range_meters":18800,"station_id":"ce4bh3p2rcd13ifvqdp0","pricing_plan_id":"cebpf4jnsgd1na2vs0mg"},{"bike_id":"0f8e9dff-9174-4729-992b-495657e0a2f0","system_id":"levelo_inurba_marseille","lat":43.31284,"lon":5.40161,"is_reserved":false,"is_disabled":false,"rental_uris":{"android":"levelo://app?vid=0f8e9dff-9174-4729-992b-495657e0a2f0","ios":"levelo://app?vid=0f8e9dff-9174-4729-992b-495657e0a2f0"},"vehicle_type_id":"4","last_reported":1738876109,"current_range_meters":38800,"station_id":"ce4bh092rcd13ifvqd30","pricing_plan_id":"cebpf4jnsgd1na2vs0mg"},{"bike_id":"6bd15c5e-d6b2-43ab-8fc9-854cbe9e9385","system_id":"levelo_inurba_marseille","lat":43.26066,"lon":5.39392,"is_reserved":false,"is_disabled":false,"rental_uris":{"android":"levelo://app?vid=6bd15c5e-d6b2-43ab-8fc9-854cbe9e9385","ios":"levelo://app?vid=6bd15c5e-d6b2-43ab-8fc9-854cbe9e9385"},"vehicle_type_id":"4","last_reported":1738876109,"current_range_meters":37600,"station_id":"ce4bhh92rcd13ifvqfj0","pricing_plan_id":"cebpf4jnsgd1na2vs0mg"},{"bike_id":"af5cc240-0e1d-4647-9b71-eb1c24f51a5e","system_id":"levelo_inurba_marseille","lat":43.31768,"lon":5.3901,"is_reserved":false,"is_disabled":false,"rental_uris":{"android":"levelo://app?vid=af5cc240-0e1d-4647-9b71-eb1c24f51a5e","ios":"levelo://app?vid=af5cc240-0e1d-4647-9b71-eb1c24f51a5e"},"vehicle_type_id":"4","last_reported":1738876109,"current_range_meters":39200,"station_id":"ce4bhqp2rcd13ifvqhng","pricing_plan_id":"cebpf4jnsgd1na2vs0mg"},{"bike_id":"b6038bf6-a60e-4517-af65-a3f8a3c7d9bd","system_id":"levelo_inurba_marseille","lat":43.29791,"lon":5.37033,"is_reserved":false,"is_disabled":false,"rental_uris":{"android":"levelo://app?vid=b6038bf6-a60e-4517-af65-a3f8a3c7d9bd","ios":"levelo://app?vid=b6038bf6-a60e-4517-af65-a3f8a3c7d9bd"},"vehicle_type_id":"4","last_reported":1738876109,"current_range_meters":38800,"station_id":"","pricing_plan_id":"cebpf4jnsgd1na2vs0mg"},{"bike_id":"ce12f6c6-26c3-41fe-a30a-3264422bd997","system_id":"levelo_inurba_marseille","lat":43.26216,"lon":5.37441,"is_reserved":false,"is_disabled":false,"rental_uris":{"android":"levelo://app?vid=ce12f6c6-26c3-41fe-a30a-3264422bd997","ios":"levelo://app?vid=ce12f6c6-26c3-41fe-a30a-3264422bd997"},"vehicle_type_id":"4","last_reported":1738876109,"current_range_meters":38400,"station_id":"ce4bhgp2rcd13ifvqfc0","pricing_plan_id":"cebpf4jnsgd1na2vs0mg"},{"bike_id":"72b61fb7-4ed5-4d6d-80b8-accda78616d6","system_id":"levelo_inurba_marseille","lat":43.29262,"lon":5.38437,"is_reserved":false,"is_disabled":false,"rental_uris":{"android":"levelo://app?vid=72b61fb7-4ed5-4d6d-80b8-accda78616d6","ios":"levelo://app?vid=72b61fb7-4ed5-4d6d-80b8-accda78616d6"},"vehicle_type_id":"4","last_reported":1738876109,"current_range_meters":16800,"station_id":"ce4bh692rcd13ifvqea0","pricing_plan_id":"cebpf4jnsgd1na2vs0mg"},{"bike_id":"aa874f21-4899-4c94-ac56-d6c355723cbb","system_id":"levelo_inurba_marseille","lat":43.23171,"lon":5.40039,"is_reserved":false,"is_disabled":false,"rental_uris":{"android":"levelo://app?vid=aa874f21-4899-4c94-ac56-d6c355723cbb","ios":"levelo://app?vid=aa874f21-4899-4c94-ac56-d6c355723cbb"},"vehicle_type_id":"4","last_reported":1738876109,"current_range_meters":36400,"station_id":"ce4bhn12rcd13ifvqgqg","pricing_plan_id":"cebpf4jnsgd1na2vs0mg"},{"bike_id":"19b11498-b7da-498a-a065-c091cc335a9f","system_id":"levelo_inurba_marseille","lat":43.23191,"lon":5.40003,"is_reserved":false,"is_disabled":false,"rental_uris":{"android":"levelo://app?vid=19b11498-b7da-498a-a065-c091cc335a9f","ios":"levelo://app?vid=19b11498-b7da-498a-a065-c091cc335a9f"},"vehicle_type_id":"4","last_reported":1738876109,"current_range_meters":34800,"station_id":"ce4bhn12rcd13ifvqgqg","pricing_plan_id":"cebpf4jnsgd1na2vs0mg"},{"bike_id":"9c85a7b4-eb48-4493-bcf1-b25957546ccd","system_id":"levelo_inurba_marseille","lat":43.25109,"lon":5.40319,"is_reserved":false,"is_disabled":false,"rental_uris":{"android":"levelo://app?vid=9c85a7b4-eb48-4493-bcf1-b25957546ccd","ios":"levelo://app?vid=9c85a7b4-eb48-4493-bcf1-b25957546ccd"},"vehicle_type_id":"4","last_reported":1738876109,"current_range_meters":13600,"station_id":"ce4bhlh2rcd13ifvqgig","pricing_plan_id":"cebpf4jnsgd1na2vs0mg"},{"bike_id":"a314c4ca-2a08-4c1a-beaa-f636e9d839af","system_id":"levelo_inurba_marseille","lat":43.29443,"lon":5.39736,"is_reserved":false,"is_disabled":false,"rental_uris":{"android":"levelo://app?vid=a314c4ca-2a08-4c1a-beaa-f636e9d839af","ios":"levelo://app?vid=a314c4ca-2a08-4c1a-beaa-f636e9d839af"},"vehicle_type_id":"4","last_reported":1738876109,"current_range_meters":38800,"station_id":"ce4bh3h2rcd13ifvqdo0","pricing_plan_id":"cebpf4jnsgd1na2vs0mg"},{"bike_id":"18f1cef3-3663-430c-bbc1-84c95be2f643","system_id":"levelo_inurba_marseille","lat":43.28086,"lon":5.3966,"is_reserved":false,"is_disabled":false,"rental_uris":{"android":"levelo://app?vid=18f1cef3-3663-430c-bbc1-84c95be2f643","ios":"levelo://app?vid=18f1cef3-3663-430c-bbc1-84c95be2f643"},"vehicle_type_id":"4","last_reported":1738876109,"current_range_meters":36400,"station_id":"ce4bho12rcd13ifvqh2g","pricing_plan_id":"cebpf4jnsgd1na2vs0mg"},{"bike_id":"d0912284-7d68-4397-a466-0da512ff614b","system_id":"levelo_inurba_marseille","lat":43.29314,"lon":5.37186,"is_reserved":false,"is_disabled":false,"rental_uris":{"android":"levelo://app?vid=d0912284-7d68-4397-a466-0da512ff614b","ios":"levelo://app?vid=d0912284-7d68-4397-a466-0da512ff614b"},"vehicle_type_id":"4","last_reported":1738876109,"current_range_meters":32000,"station_id":"ce4bgh92rcd13ifvqb40","pricing_plan_id":"cebpf4jnsgd1na2vs0mg"},{"bike_id":"422d1ae9-3f23-4c23-952d-112dc4aaa449","system_id":"levelo_inurba_marseille","lat":43.29772,"lon":5.38098,"is_reserved":false,"is_disabled":false,"rental_uris":{"android":"levelo://app?vid=422d1ae9-3f23-4c23-952d-112dc4aaa449","ios":"levelo://app?vid=422d1ae9-3f23-4c23-952d-112dc4aaa449"},"vehicle_type_id":"4","last_reported":1738876109,"current_range_meters":12000,"station_id":"ce4bgip2rcd13ifvqbb0","pricing_plan_id":"cebpf4jnsgd1na2vs0mg"},{"bike_id":"3be85885-399b-4fcf-a98b-a2dc250a18df","system_id":"levelo_inurba_marseille","lat":43.31694,"lon":5.40419,"is_reserved":false,"is_disabled":false,"rental_uris":{"android":"levelo://app?vid=3be85885-399b-4fcf-a98b-a2dc250a18df","ios":"levelo://app?vid=3be85885-399b-4fcf-a98b-a2dc250a18df"},"vehicle_type_id":"4","last_reported":1738876109,"current_range_meters":38800,"station_id":"ce4bh012rcd13ifvqd00","pricing_plan_id":"cebpf4jnsgd1na2vs0mg"},{"bike_id":"d327d221-a4ae-4ce7-8941-3960805fc399","system_id":"levelo_inurba_marseille","lat":43.33765,"lon":5.37485,"is_reserved":false,"is_disabled":true,"rental_uris":{"android":"levelo://app?vid=d327d221-a4ae-4ce7-8941-3960805fc399","ios":"levelo://app?vid=d327d221-a4ae-4ce7-8941-3960805fc399"},"vehicle_type_id":"4","last_reported":1738876109,"current_range_meters":32800,"station_id":"","pricing_plan_id":"cebpf4jnsgd1na2vs0mg"},{"bike_id":"f1067d17-a424-4230-ae9f-44f3b2dc5e74","system_id":"levelo_inurba_marseille","lat":43.24545,"lon":5.39524,"is_reserved":false,"is_disabled":false,"rental_uris":{"android":"levelo://app?vid=f1067d17-a424-4230-ae9f-44f3b2dc5e74","ios":"levelo://app?vid=f1067d17-a424-4230-ae9f-44f3b2dc5e74"},"vehicle_type_id":"4","last_reported":1738876109,"current_range_meters":5600,"station_id":"ce4bhlp2rcd13ifvqgjg","pricing_plan_id":"cebpf4jnsgd1na2vs0mg"},{"bike_id":"098d220b-e449-43ea-8d6d-9fc78e0abad9","system_id":"levelo_inurba_marseille","lat":43.22926,"lon":5.35379,"is_reserved":false,"is_disabled":false,"rental_uris":{"android":"levelo://app?vid=098d220b-e449-43ea-8d6d-9fc78e0abad9","ios":"levelo://app?vid=098d220b-e449-43ea-8d6d-9fc78e0abad9"},"vehicle_type_id":"4","last_reported":1738876109,"current_range_meters":38800,"station_id":"cpo3532slgdg3j2ikp40","pricing_plan_id":"cebpf4jnsgd1na2vs0mg"},{"bike_id":"3de2a62f-ee8b-4633-8581-80f610f7d857","system_id":"levelo_inurba_marseille","lat":43.24554,"lon":5.39499,"is_reserved":false,"is_disabled":true,"rental_uris":{"android":"levelo://app?vid=3de2a62f-ee8b-4633-8581-80f610f7d857","ios":"levelo://app?vid=3de2a62f-ee8b-4633-8581-80f610f7d857"},"vehicle_type_id":"4","last_reported":1738876109,"current_range_meters":0,"station_id":"ce4bhlp2rcd13ifvqgjg","pricing_plan_id":"cebpf4jnsgd1na2vs0mg"},{"bike_id":"e72514e9-9fb0-4cf4-9627-2bdb46835a05","system_id":"levelo_inurba_marseille","lat":43.287205,"lon":5.360882,"is_reserved":false,"is_disabled":false,"rental_uris":{"android":"levelo://app?vid=e72514e9-9fb0-4cf4-9627-2bdb46835a05","ios":"levelo://app?vid=e72514e9-9fb0-4cf4-9627-2bdb46835a05"},"vehicle_type_id":"4","last_reported":1738876109,"current_range_meters":36000,"station_id":"cki0cbj6b192h4jlfktg","pricing_plan_id":"cebpf4jnsgd1na2vs0mg"},{"bike_id":"b99b6123-dd83-4325-bf60-81fb15f0f429","system_id":"levelo_inurba_marseille","lat":43.3089,"lon":5.39642,"is_reserved":false,"is_disabled":false,"rental_uris":{"android":"levelo://app?vid=b99b6123-dd83-4325-bf60-81fb15f0f429","ios":"levelo://app?vid=b99b6123-dd83-4325-bf60-81fb15f0f429"},"vehicle_type_id":"4","last_reported":1738876109,"current_range_meters":11200,"station_id":"ce4bh012rcd13ifvqcv0","pricing_plan_id":"cebpf4jnsgd1na2vs0mg"},{"bike_id":"8134c42b-15c7-43df-91b1-9cea8c89299b","system_id":"levelo_inurba_marseille","lat":43.25862,"lon":5.39902,"is_reserved":false,"is_disabled":true,"rental_uris":{"android":"levelo://app?vid=8134c42b-15c7-43df-91b1-9cea8c89299b","ios":"levelo://app?vid=8134c42b-15c7-43df-91b1-9cea8c89299b"},"vehicle_type_id":"4","last_reported":1738876109,"current_range_meters":32000,"station_id":"ce4bhl92rcd13ifvqghg","pricing_plan_id":"cebpf4jnsgd1na2vs0mg"},{"bike_id":"edaf17a3-9fb8-4281-8efa-d1063bb06377","system_id":"levelo_inurba_marseille","lat":43.27939,"lon":5.39581,"is_reserved":false,"is_disabled":false,"rental_uris":{"android":"levelo://app?vid=edaf17a3-9fb8-4281-8efa-d1063bb06377","ios":"levelo://app?vid=edaf17a3-9fb8-4281-8efa-d1063bb06377"},"vehicle_type_id":"4","last_reported":1738876109,"current_range_meters":38800,"station_id":"ce4bhf92rcd13ifvqf40","pricing_plan_id":"cebpf4jnsgd1na2vs0mg"},{"bike_id":"d7ead273-bf60-49f8-8869-552a00114485","system_id":"levelo_inurba_marseille","lat":43.30794,"lon":5.39209,"is_reserved":false,"is_disabled":true,"rental_uris":{"android":"levelo://app?vid=d7ead273-bf60-49f8-8869-552a00114485","ios":"levelo://app?vid=d7ead273-bf60-49f8-8869-552a00114485"},"vehicle_type_id":"4","last_reported":1738876109,"current_range_meters":0,"station_id":"","pricing_plan_id":"cebpf4jnsgd1na2vs0mg"},{"bike_id":"0002452e-e709-42bb-b579-a6a62a828b87","system_id":"levelo_inurba_marseille","lat":43.29714,"lon":5.37285,"is_reserved":false,"is_disabled":false,"rental_uris":{"android":"levelo://app?vid=0002452e-e709-42bb-b579-a6a62a828b87","ios":"levelo://app?vid=0002452e-e709-42bb-b579-a6a62a828b87"},"vehicle_type_id":"4","last_reported":1738876109,"current_range_meters":24000,"station_id":"ce4bgk12rcd13ifvqbj0","pricing_plan_id":"cebpf4jnsgd1na2vs0mg"},{"bike_id":"d1a6678d-a3d2-4757-8150-b671f6e9633d","system_id":"levelo_inurba_marseille","lat":43.28462,"lon":5.35881,"is_reserved":false,"is_disabled":false,"rental_uris":{"android":"levelo://app?vid=d1a6678d-a3d2-4757-8150-b671f6e9633d","ios":"levelo://app?vid=d1a6678d-a3d2-4757-8150-b671f6e9633d"},"vehicle_type_id":"4","last_reported":1738876109,"current_range_meters":13600,"station_id":"ce4bhah2rcd13ifvqei0","pricing_plan_id":"cebpf4jnsgd1na2vs0mg"},{"bike_id":"9f23c62b-e609-48b7-b185-ea8ef6fa11e5","system_id":"levelo_inurba_marseille","lat":43.29279,"lon":5.36839,"is_reserved":false,"is_disabled":false,"rental_uris":{"android":"levelo://app?vid=9f23c62b-e609-48b7-b185-ea8ef6fa11e5","ios":"levelo://app?vid=9f23c62b-e609-48b7-b185-ea8ef6fa11e5"},"vehicle_type_id":"4","last_reported":1738876109,"current_range_meters":38400,"station_id":"ce4bhbp2rcd13ifvqesg","pricing_plan_id":"cebpf4jnsgd1na2vs0mg"},{"bike_id":"3252867b-346b-427e-a4b2-e5f619442932","system_id":"levelo_inurba_marseille","lat":43.2903,"lon":5.39964,"is_reserved":false,"is_disabled":false,"rental_uris":{"android":"levelo://app?vid=3252867b-346b-427e-a4b2-e5f619442932","ios":"levelo://app?vid=3252867b-346b-427e-a4b2-e5f619442932"},"vehicle_type_id":"4","last_reported":1738876109,"current_range_meters":37600,"station_id":"ce4bh392rcd13ifvqdm0","pricing_plan_id":"cebpf4jnsgd1na2vs0mg"},{"bike_id":"3078e8ce-5d59-4082-8b1a-8d753b4f6935","system_id":"levelo_inurba_marseille","lat":43.23188,"lon":5.39971,"is_reserved":false,"is_disabled":false,"rental_uris":{"android":"levelo://app?vid=3078e8ce-5d59-4082-8b1a-8d753b4f6935","ios":"levelo://app?vid=3078e8ce-5d59-4082-8b1a-8d753b4f6935"},"vehicle_type_id":"4","last_reported":1738876109,"current_range_meters":38800,"station_id":"ce4bhn12rcd13ifvqgqg","pricing_plan_id":"cebpf4jnsgd1na2vs0mg"},{"bike_id":"b1e15155-8511-43e5-bd75-fed6364538ed","system_id":"levelo_inurba_marseille","lat":43.33031,"lon":5.3901,"is_reserved":false,"is_disabled":false,"rental_uris":{"android":"levelo://app?vid=b1e15155-8511-43e5-bd75-fed6364538ed","ios":"levelo://app?vid=b1e15155-8511-43e5-bd75-fed6364538ed"},"vehicle_type_id":"4","last_reported":1738876109,"current_range_meters":32400,"station_id":"ce4bhr92rcd13ifvqhrg","pricing_plan_id":"cebpf4jnsgd1na2vs0mg"},{"bike_id":"0001064a-2f52-4a2b-9d17-76bf24774b06","system_id":"levelo_inurba_marseille","lat":43.27844,"lon":5.39206,"is_reserved":false,"is_disabled":false,"rental_uris":{"android":"levelo://app?vid=0001064a-2f52-4a2b-9d17-76bf24774b06","ios":"levelo://app?vid=0001064a-2f52-4a2b-9d17-76bf24774b06"},"vehicle_type_id":"4","last_reported":1738876109,"current_range_meters":28000,"station_id":"ce4bhjp2rcd13ifvqga0","pricing_plan_id":"cebpf4jnsgd1na2vs0mg"},{"bike_id":"a8e76632-6d27-4a5d-bcf5-de064ffe9c8a","system_id":"levelo_inurba_marseille","lat":43.33753,"lon":5.37394,"is_reserved":false,"is_disabled":false,"rental_uris":{"android":"levelo://app?vid=a8e76632-6d27-4a5d-bcf5-de064ffe9c8a","ios":"levelo://app?vid=a8e76632-6d27-4a5d-bcf5-de064ffe9c8a"},"vehicle_type_id":"4","last_reported":1738876109,"current_range_meters":12800,"station_id":"","pricing_plan_id":"cebpf4jnsgd1na2vs0mg"},{"bike_id":"a5b10e83-1d30-4baf-a60e-85f23b595c91","system_id":"levelo_inurba_marseille","lat":43.32366,"lon":5.38879,"is_reserved":false,"is_disabled":false,"rental_uris":{"android":"levelo://app?vid=a5b10e83-1d30-4baf-a60e-85f23b595c91","ios":"levelo://app?vid=a5b10e83-1d30-4baf-a60e-85f23b595c91"},"vehicle_type_id":"4","last_reported":1738876109,"current_range_meters":31200,"station_id":"ce4bhqp2rcd13ifvqhog","pricing_plan_id":"cebpf4jnsgd1na2vs0mg"},{"bike_id":"a6f2f0f5-d28b-4dfa-9ebc-81f9a099a0e7","system_id":"levelo_inurba_marseille","lat":43.28479,"lon":5.38453,"is_reserved":false,"is_disabled":true,"rental_uris":{"android":"levelo://app?vid=a6f2f0f5-d28b-4dfa-9ebc-81f9a099a0e7","ios":"levelo://app?vid=a6f2f0f5-d28b-4dfa-9ebc-81f9a099a0e7"},"vehicle_type_id":"4","last_reported":1738876109,"current_range_meters":0,"station_id":"ce4bh512rcd13ifvqe3g","pricing_plan_id":"cebpf4jnsgd1na2vs0mg"},{"bike_id":"c61801e2-de78-4623-893f-04daf5d8570b","system_id":"levelo_inurba_marseille","lat":43.30429,"lon":5.39748,"is_reserved":false,"is_disabled":false,"rental_uris":{"android":"levelo://app?vid=c61801e2-de78-4623-893f-04daf5d8570b","ios":"levelo://app?vid=c61801e2-de78-4623-893f-04daf5d8570b"},"vehicle_type_id":"4","last_reported":1738876109,"current_range_meters":38800,"station_id":"ce4bh092rcd13ifvqd20","pricing_plan_id":"cebpf4jnsgd1na2vs0mg"},{"bike_id":"d3efd42c-487a-43d3-b941-f70423d12ff8","system_id":"levelo_inurba_marseille","lat":43.2929,"lon":5.3716,"is_reserved":false,"is_disabled":false,"rental_uris":{"android":"levelo://app?vid=d3efd42c-487a-43d3-b941-f70423d12ff8","ios":"levelo://app?vid=d3efd42c-487a-43d3-b941-f70423d12ff8"},"vehicle_type_id":"4","last_reported":1738876109,"current_range_meters":33200,"station_id":"ce4bgh92rcd13ifvqb40","pricing_plan_id":"cebpf4jnsgd1na2vs0mg"},{"bike_id":"15d13832-3ae5-42e6-82d9-4929333906d9","system_id":"levelo_inurba_marseille","lat":43.33012,"lon":5.39025,"is_reserved":false,"is_disabled":false,"rental_uris":{"android":"levelo://app?vid=15d13832-3ae5-42e6-82d9-4929333906d9","ios":"levelo://app?vid=15d13832-3ae5-42e6-82d9-4929333906d9"},"vehicle_type_id":"4","last_reported":1738876109,"current_range_meters":38400,"station_id":"ce4bhr92rcd13ifvqhrg","pricing_plan_id":"cebpf4jnsgd1na2vs0mg"},{"bike_id":"89912e32-c5f0-448f-82d2-e236e4d6d653","system_id":"levelo_inurba_marseille","lat":43.27794,"lon":5.39876,"is_reserved":false,"is_disabled":false,"rental_uris":{"android":"levelo://app?vid=89912e32-c5f0-448f-82d2-e236e4d6d653","ios":"levelo://app?vid=89912e32-c5f0-448f-82d2-e236e4d6d653"},"vehicle_type_id":"4","last_reported":1738876109,"current_range_meters":8000,"station_id":"","pricing_plan_id":"cebpf4jnsgd1na2vs0mg"},{"bike_id":"18d3bd0a-bc73-45ff-a7b9-72f3471820cb","system_id":"levelo_inurba_marseille","lat":43.29264,"lon":5.38455,"is_reserved":false,"is_disabled":false,"rental_uris":{"android":"levelo://app?vid=18d3bd0a-bc73-45ff-a7b9-72f3471820cb","ios":"levelo://app?vid=18d3bd0a-bc73-45ff-a7b9-72f3471820cb"},"vehicle_type_id":"4","last_reported":1738876109,"current_range_meters":38800,"station_id":"ce4bh692rcd13ifvqea0","pricing_plan_id":"cebpf4jnsgd1na2vs0mg"},{"bike_id":"354bf25a-655a-4e6e-b86d-1e7d9c8d23c4","system_id":"levelo_inurba_marseille","lat":43.2439,"lon":5.37056,"is_reserved":false,"is_disabled":true,"rental_uris":{"android":"levelo://app?vid=354bf25a-655a-4e6e-b86d-1e7d9c8d23c4","ios":"levelo://app?vid=354bf25a-655a-4e6e-b86d-1e7d9c8d23c4"},"vehicle_type_id":"4","last_reported":1738876109,"current_range_meters":0,"station_id":"ce4bhhh2rcd13ifvqfk0","pricing_plan_id":"cebpf4jnsgd1na2vs0mg"},{"bike_id":"8b1e3ddc-e60b-449b-a071-b52065cec0be","system_id":"levelo_inurba_marseille","lat":43.32285,"lon":5.38286,"is_reserved":false,"is_disabled":false,"rental_uris":{"android":"levelo://app?vid=8b1e3ddc-e60b-449b-a071-b52065cec0be","ios":"levelo://app?vid=8b1e3ddc-e60b-449b-a071-b52065cec0be"},"vehicle_type_id":"4","last_reported":1738876109,"current_range_meters":38800,"station_id":"ce4bhr12rcd13ifvqhqg","pricing_plan_id":"cebpf4jnsgd1na2vs0mg"},{"bike_id":"b91ecbae-2ee3-4ea4-8be8-ba8a9028d8ad","system_id":"levelo_inurba_marseille","lat":43.284668,"lon":5.358823,"is_reserved":false,"is_disabled":false,"rental_uris":{"android":"levelo://app?vid=b91ecbae-2ee3-4ea4-8be8-ba8a9028d8ad","ios":"levelo://app?vid=b91ecbae-2ee3-4ea4-8be8-ba8a9028d8ad"},"vehicle_type_id":"4","last_reported":1738876109,"current_range_meters":7200,"station_id":"ce4bhah2rcd13ifvqei0","pricing_plan_id":"cebpf4jnsgd1na2vs0mg"},{"bike_id":"72b0b14e-fe84-4655-af4f-a7b154c4ed28","system_id":"levelo_inurba_marseille","lat":43.32334,"lon":5.4062,"is_reserved":false,"is_disabled":false,"rental_uris":{"android":"levelo://app?vid=72b0b14e-fe84-4655-af4f-a7b154c4ed28","ios":"levelo://app?vid=72b0b14e-fe84-4655-af4f-a7b154c4ed28"},"vehicle_type_id":"4","last_reported":1738876109,"current_range_meters":16400,"station_id":"ce4bhq92rcd13ifvqhjg","pricing_plan_id":"cebpf4jnsgd1na2vs0mg"},{"bike_id":"b73937ba-05e4-41c7-8959-6f24613e2797","system_id":"levelo_inurba_marseille","lat":43.22939,"lon":5.35365,"is_reserved":false,"is_disabled":false,"rental_uris":{"android":"levelo://app?vid=b73937ba-05e4-41c7-8959-6f24613e2797","ios":"levelo://app?vid=b73937ba-05e4-41c7-8959-6f24613e2797"},"vehicle_type_id":"4","last_reported":1738876109,"current_range_meters":36800,"station_id":"cpo3532slgdg3j2ikp40","pricing_plan_id":"cebpf4jnsgd1na2vs0mg"},{"bike_id":"d66d6f36-09f4-4ba6-a917-b6bf6ab0c067","system_id":"levelo_inurba_marseille","lat":43.28939,"lon":5.36394,"is_reserved":false,"is_disabled":false,"rental_uris":{"android":"levelo://app?vid=d66d6f36-09f4-4ba6-a917-b6bf6ab0c067","ios":"levelo://app?vid=d66d6f36-09f4-4ba6-a917-b6bf6ab0c067"},"vehicle_type_id":"4","last_reported":1738876109,"current_range_meters":30400,"station_id":"ce4bhc92rcd13ifvqetg","pricing_plan_id":"cebpf4jnsgd1na2vs0mg"},{"bike_id":"9dbc66af-ff64-41a8-a57c-5ef86f5cb77a","system_id":"levelo_inurba_marseille","lat":43.26795,"lon":5.40252,"is_reserved":false,"is_disabled":true,"rental_uris":{"android":"levelo://app?vid=9dbc66af-ff64-41a8-a57c-5ef86f5cb77a","ios":"levelo://app?vid=9dbc66af-ff64-41a8-a57c-5ef86f5cb77a"},"vehicle_type_id":"4","last_reported":1738876109,"current_range_meters":38800,"station_id":"ce501612rcd8frsf0b60","pricing_plan_id":"cebpf4jnsgd1na2vs0mg"},{"bike_id":"ab54e2d0-4c2c-486a-84c7-811ed9008ddc","system_id":"levelo_inurba_marseille","lat":43.27864,"lon":5.42548,"is_reserved":false,"is_disabled":false,"rental_uris":{"android":"levelo://app?vid=ab54e2d0-4c2c-486a-84c7-811ed9008ddc","ios":"levelo://app?vid=ab54e2d0-4c2c-486a-84c7-811ed9008ddc"},"vehicle_type_id":"4","last_reported":1738876109,"current_range_meters":2800,"station_id":"","pricing_plan_id":"cebpf4jnsgd1na2vs0mg"},{"bike_id":"f1e9399a-c62d-4210-bc5f-f431eced8b39","system_id":"levelo_inurba_marseille","lat":43.323562,"lon":5.367515,"is_reserved":false,"is_disabled":false,"rental_uris":{"android":"levelo://app?vid=f1e9399a-c62d-4210-bc5f-f431eced8b39","ios":"levelo://app?vid=f1e9399a-c62d-4210-bc5f-f431eced8b39"},"vehicle_type_id":"4","last_reported":1738876109,"current_range_meters":9600,"station_id":"ce4bhsh2rcd13ifvqi2g","pricing_plan_id":"cebpf4jnsgd1na2vs0mg"},{"bike_id":"fae5ed03-2be2-4e2f-ae1a-9dae265ccade","system_id":"levelo_inurba_marseille","lat":43.323674,"lon":5.388873,"is_reserved":false,"is_disabled":false,"rental_uris":{"android":"levelo://app?vid=fae5ed03-2be2-4e2f-ae1a-9dae265ccade","ios":"levelo://app?vid=fae5ed03-2be2-4e2f-ae1a-9dae265ccade"},"vehicle_type_id":"4","last_reported":1738876109,"current_range_meters":20800,"station_id":"ce4bhqp2rcd13ifvqhog","pricing_plan_id":"cebpf4jnsgd1na2vs0mg"},{"bike_id":"536b8090-e041-4147-aa3b-889d676e865f","system_id":"levelo_inurba_marseille","lat":43.2953,"lon":5.39401,"is_reserved":false,"is_disabled":false,"rental_uris":{"android":"levelo://app?vid=536b8090-e041-4147-aa3b-889d676e865f","ios":"levelo://app?vid=536b8090-e041-4147-aa3b-889d676e865f"},"vehicle_type_id":"4","last_reported":1738876109,"current_range_meters":38000,"station_id":"ce4bh292rcd13ifvqdf0","pricing_plan_id":"cebpf4jnsgd1na2vs0mg"},{"bike_id":"29334589-05e8-4ce2-89a8-776fc9c722f1","system_id":"levelo_inurba_marseille","lat":43.29256,"lon":5.38433,"is_reserved":false,"is_disabled":false,"rental_uris":{"android":"levelo://app?vid=29334589-05e8-4ce2-89a8-776fc9c722f1","ios":"levelo://app?vid=29334589-05e8-4ce2-89a8-776fc9c722f1"},"vehicle_type_id":"4","last_reported":1738876109,"current_range_meters":17200,"station_id":"ce4bh692rcd13ifvqea0","pricing_plan_id":"cebpf4jnsgd1na2vs0mg"},{"bike_id":"f9c18bec-4962-4181-adb2-1233965dfd4b","system_id":"levelo_inurba_marseille","lat":43.29208,"lon":5.39312,"is_reserved":false,"is_disabled":false,"rental_uris":{"android":"levelo://app?vid=f9c18bec-4962-4181-adb2-1233965dfd4b","ios":"levelo://app?vid=f9c18bec-4962-4181-adb2-1233965dfd4b"},"vehicle_type_id":"4","last_reported":1738876109,"current_range_meters":39200,"station_id":"ce4bh192rcd13ifvqdd0","pricing_plan_id":"cebpf4jnsgd1na2vs0mg"},{"bike_id":"58913607-3d23-4376-841b-881c1361d437","system_id":"levelo_inurba_marseille","lat":43.31326,"lon":5.39683,"is_reserved":false,"is_disabled":false,"rental_uris":{"android":"levelo://app?vid=58913607-3d23-4376-841b-881c1361d437","ios":"levelo://app?vid=58913607-3d23-4376-841b-881c1361d437"},"vehicle_type_id":"4","last_reported":1738876109,"current_range_meters":19600,"station_id":"ce4bgvp2rcd13ifvqcu0","pricing_plan_id":"cebpf4jnsgd1na2vs0mg"},{"bike_id":"363f89dc-7a31-4716-bf7c-5e8b960f961f","system_id":"levelo_inurba_marseille","lat":43.31096,"lon":5.42432,"is_reserved":false,"is_disabled":false,"rental_uris":{"android":"levelo://app?vid=363f89dc-7a31-4716-bf7c-5e8b960f961f","ios":"levelo://app?vid=363f89dc-7a31-4716-bf7c-5e8b960f961f"},"vehicle_type_id":"4","last_reported":1738876109,"current_range_meters":39200,"station_id":"ce4bhp92rcd13ifvqhag","pricing_plan_id":"cebpf4jnsgd1na2vs0mg"},{"bike_id":"830d7107-636e-4156-9051-ab563c81092e","system_id":"levelo_inurba_marseille","lat":43.27072,"lon":5.4229,"is_reserved":false,"is_disabled":false,"rental_uris":{"android":"levelo://app?vid=830d7107-636e-4156-9051-ab563c81092e","ios":"levelo://app?vid=830d7107-636e-4156-9051-ab563c81092e"},"vehicle_type_id":"4","last_reported":1738876109,"current_range_meters":38800,"station_id":"ce4bhk92rcd13ifvqgb0","pricing_plan_id":"cebpf4jnsgd1na2vs0mg"},{"bike_id":"bfc6f621-9f07-41e4-8be6-02f1fb6ed494","system_id":"levelo_inurba_marseille","lat":43.3112,"lon":5.37754,"is_reserved":false,"is_disabled":false,"rental_uris":{"android":"levelo://app?vid=bfc6f621-9f07-41e4-8be6-02f1fb6ed494","ios":"levelo://app?vid=bfc6f621-9f07-41e4-8be6-02f1fb6ed494"},"vehicle_type_id":"4","last_reported":1738876109,"current_range_meters":38800,"station_id":"ce4bgt92rcd13ifvqcg0","pricing_plan_id":"cebpf4jnsgd1na2vs0mg"},{"bike_id":"b8829ab2-1487-4b8c-ae59-08c14afad745","system_id":"levelo_inurba_marseille","lat":43.32341,"lon":5.38927,"is_reserved":false,"is_disabled":false,"rental_uris":{"android":"levelo://app?vid=b8829ab2-1487-4b8c-ae59-08c14afad745","ios":"levelo://app?vid=b8829ab2-1487-4b8c-ae59-08c14afad745"},"vehicle_type_id":"4","last_reported":1738876109,"current_range_meters":23200,"station_id":"ce4bhqp2rcd13ifvqhog","pricing_plan_id":"cebpf4jnsgd1na2vs0mg"},{"bike_id":"3784dcf0-b4bb-4913-bc73-18b71169c3c8","system_id":"levelo_inurba_marseille","lat":43.31171,"lon":5.38707,"is_reserved":false,"is_disabled":false,"rental_uris":{"android":"levelo://app?vid=3784dcf0-b4bb-4913-bc73-18b71169c3c8","ios":"levelo://app?vid=3784dcf0-b4bb-4913-bc73-18b71169c3c8"},"vehicle_type_id":"4","last_reported":1738876109,"current_range_meters":26000,"station_id":"ce4bgv12rcd13ifvqcp0","pricing_plan_id":"cebpf4jnsgd1na2vs0mg"},{"bike_id":"1aafd4aa-ba2a-4c94-bc8a-0a2b42d0be90","system_id":"levelo_inurba_marseille","lat":43.27823,"lon":5.40702,"is_reserved":false,"is_disabled":false,"rental_uris":{"android":"levelo://app?vid=1aafd4aa-ba2a-4c94-bc8a-0a2b42d0be90","ios":"levelo://app?vid=1aafd4aa-ba2a-4c94-bc8a-0a2b42d0be90"},"vehicle_type_id":"4","last_reported":1738876109,"current_range_meters":10000,"station_id":"ce4bhnh2rcd13ifvqgtg","pricing_plan_id":"cebpf4jnsgd1na2vs0mg"},{"bike_id":"99edfd39-ea2c-4152-9a67-579e3aa4a733","system_id":"levelo_inurba_marseille","lat":43.23966,"lon":5.36636,"is_reserved":false,"is_disabled":true,"rental_uris":{"android":"levelo://app?vid=99edfd39-ea2c-4152-9a67-579e3aa4a733","ios":"levelo://app?vid=99edfd39-ea2c-4152-9a67-579e3aa4a733"},"vehicle_type_id":"4","last_reported":1738876109,"current_range_meters":400,"station_id":"ce4bhi12rcd13ifvqfp0","pricing_plan_id":"cebpf4jnsgd1na2vs0mg"},{"bike_id":"7e0a60ce-56f2-46c7-a8ff-d1dbf7a0fbdd","system_id":"levelo_inurba_marseille","lat":43.28095,"lon":5.37859,"is_reserved":false,"is_disabled":false,"rental_uris":{"android":"levelo://app?vid=7e0a60ce-56f2-46c7-a8ff-d1dbf7a0fbdd","ios":"levelo://app?vid=7e0a60ce-56f2-46c7-a8ff-d1dbf7a0fbdd"},"vehicle_type_id":"4","last_reported":1738876109,"current_range_meters":33600,"station_id":"ce4bha12rcd13ifvqee0","pricing_plan_id":"cebpf4jnsgd1na2vs0mg"},{"bike_id":"c177e5ae-988b-457d-916b-169ad0276669","system_id":"levelo_inurba_marseille","lat":43.32288,"lon":5.38278,"is_reserved":false,"is_disabled":false,"rental_uris":{"android":"levelo://app?vid=c177e5ae-988b-457d-916b-169ad0276669","ios":"levelo://app?vid=c177e5ae-988b-457d-916b-169ad0276669"},"vehicle_type_id":"4","last_reported":1738876109,"current_range_meters":38800,"station_id":"ce4bhr12rcd13ifvqhqg","pricing_plan_id":"cebpf4jnsgd1na2vs0mg"},{"bike_id":"89ef4b0e-9935-40a8-b11a-d7c8da41f1e5","system_id":"levelo_inurba_marseille","lat":43.28722,"lon":5.36094,"is_reserved":false,"is_disabled":false,"rental_uris":{"android":"levelo://app?vid=89ef4b0e-9935-40a8-b11a-d7c8da41f1e5","ios":"levelo://app?vid=89ef4b0e-9935-40a8-b11a-d7c8da41f1e5"},"vehicle_type_id":"4","last_reported":1738876109,"current_range_meters":38800,"station_id":"cki0cbj6b192h4jlfktg","pricing_plan_id":"cebpf4jnsgd1na2vs0mg"},{"bike_id":"7935ac30-29ff-49e9-acad-1957ad8e75e5","system_id":"levelo_inurba_marseille","lat":43.29628,"lon":5.40609,"is_reserved":false,"is_disabled":false,"rental_uris":{"android":"levelo://app?vid=7935ac30-29ff-49e9-acad-1957ad8e75e5","ios":"levelo://app?vid=7935ac30-29ff-49e9-acad-1957ad8e75e5"},"vehicle_type_id":"4","last_reported":1738876109,"current_range_meters":38400,"station_id":"ce4bh0h2rcd13ifvqd60","pricing_plan_id":"cebpf4jnsgd1na2vs0mg"},{"bike_id":"c346e4c9-1ee3-4421-9c09-d77a597ffa19","system_id":"levelo_inurba_marseille","lat":43.26804,"lon":5.40262,"is_reserved":false,"is_disabled":false,"rental_uris":{"android":"levelo://app?vid=c346e4c9-1ee3-4421-9c09-d77a597ffa19","ios":"levelo://app?vid=c346e4c9-1ee3-4421-9c09-d77a597ffa19"},"vehicle_type_id":"4","last_reported":1738876109,"current_range_meters":38800,"station_id":"ce501612rcd8frsf0b60","pricing_plan_id":"cebpf4jnsgd1na2vs0mg"},{"bike_id":"78904179-10fb-4f20-8673-0f80f1918d46","system_id":"levelo_inurba_marseille","lat":43.26223,"lon":5.40443,"is_reserved":false,"is_disabled":false,"rental_uris":{"android":"levelo://app?vid=78904179-10fb-4f20-8673-0f80f1918d46","ios":"levelo://app?vid=78904179-10fb-4f20-8673-0f80f1918d46"},"vehicle_type_id":"4","last_reported":1738876109,"current_range_meters":22800,"station_id":"ce4bhmh2rcd13ifvqgmg","pricing_plan_id":"cebpf4jnsgd1na2vs0mg"},{"bike_id":"74c58199-39de-4fb6-ac49-48c9c024c99f","system_id":"levelo_inurba_marseille","lat":43.28472,"lon":5.38424,"is_reserved":false,"is_disabled":false,"rental_uris":{"android":"levelo://app?vid=74c58199-39de-4fb6-ac49-48c9c024c99f","ios":"levelo://app?vid=74c58199-39de-4fb6-ac49-48c9c024c99f"},"vehicle_type_id":"4","last_reported":1738876109,"current_range_meters":12000,"station_id":"ce4bh512rcd13ifvqe3g","pricing_plan_id":"cebpf4jnsgd1na2vs0mg"},{"bike_id":"f0310e77-c428-42cc-bbdf-0ff915d414fa","system_id":"levelo_inurba_marseille","lat":43.23967,"lon":5.36632,"is_reserved":false,"is_disabled":false,"rental_uris":{"android":"levelo://app?vid=f0310e77-c428-42cc-bbdf-0ff915d414fa","ios":"levelo://app?vid=f0310e77-c428-42cc-bbdf-0ff915d414fa"},"vehicle_type_id":"4","last_reported":1738876109,"current_range_meters":5600,"station_id":"ce4bhi12rcd13ifvqfp0","pricing_plan_id":"cebpf4jnsgd1na2vs0mg"},{"bike_id":"ca794b48-fdc6-4162-b82c-a5ed2314fce3","system_id":"levelo_inurba_marseille","lat":43.28268,"lon":5.35068,"is_reserved":false,"is_disabled":false,"rental_uris":{"android":"levelo://app?vid=ca794b48-fdc6-4162-b82c-a5ed2314fce3","ios":"levelo://app?vid=ca794b48-fdc6-4162-b82c-a5ed2314fce3"},"vehicle_type_id":"4","last_reported":1738876109,"current_range_meters":39200,"station_id":"ce4bhbp2rcd13ifvqerg","pricing_plan_id":"cebpf4jnsgd1na2vs0mg"},{"bike_id":"4cac2ecd-e94e-4853-ac39-17e52540ce65","system_id":"levelo_inurba_marseille","lat":43.26569,"lon":5.39032,"is_reserved":false,"is_disabled":true,"rental_uris":{"android":"levelo://app?vid=4cac2ecd-e94e-4853-ac39-17e52540ce65","ios":"levelo://app?vid=4cac2ecd-e94e-4853-ac39-17e52540ce65"},"vehicle_type_id":"4","last_reported":1738876109,"current_range_meters":0,"station_id":"ce4bhe12rcd13ifvqf30","pricing_plan_id":"cebpf4jnsgd1na2vs0mg"},{"bike_id":"fcfde824-3ae1-4985-b5e8-009bac46c494","system_id":"levelo_inurba_marseille","lat":43.30651,"lon":5.40059,"is_reserved":false,"is_disabled":false,"rental_uris":{"android":"levelo://app?vid=fcfde824-3ae1-4985-b5e8-009bac46c494","ios":"levelo://app?vid=fcfde824-3ae1-4985-b5e8-009bac46c494"},"vehicle_type_id":"4","last_reported":1738876109,"current_range_meters":30400,"station_id":"ce4bh112rcd13ifvqda0","pricing_plan_id":"cebpf4jnsgd1na2vs0mg"},{"bike_id":"f67b7531-6c63-4f46-a9d4-4fdf588facb0","system_id":"levelo_inurba_marseille","lat":43.27876,"lon":5.40611,"is_reserved":false,"is_disabled":true,"rental_uris":{"android":"levelo://app?vid=f67b7531-6c63-4f46-a9d4-4fdf588facb0","ios":"levelo://app?vid=f67b7531-6c63-4f46-a9d4-4fdf588facb0"},"vehicle_type_id":"4","last_reported":1738876109,"current_range_meters":2000,"station_id":"","pricing_plan_id":"cebpf4jnsgd1na2vs0mg"},{"bike_id":"5b315d15-7d77-41e2-9277-a2e303e77c97","system_id":"levelo_inurba_marseille","lat":43.24799,"lon":5.3745,"is_reserved":false,"is_disabled":false,"rental_uris":{"android":"levelo://app?vid=5b315d15-7d77-41e2-9277-a2e303e77c97","ios":"levelo://app?vid=5b315d15-7d77-41e2-9277-a2e303e77c97"},"vehicle_type_id":"4","last_reported":1738876109,"current_range_meters":33600,"station_id":"ce4bhgh2rcd13ifvqfb0","pricing_plan_id":"cebpf4jnsgd1na2vs0mg"},{"bike_id":"ccc0d99a-4f06-4847-88ea-bfbf26a9a708","system_id":"levelo_inurba_marseille","lat":43.27371,"lon":5.36249,"is_reserved":false,"is_disabled":false,"rental_uris":{"android":"levelo://app?vid=ccc0d99a-4f06-4847-88ea-bfbf26a9a708","ios":"levelo://app?vid=ccc0d99a-4f06-4847-88ea-bfbf26a9a708"},"vehicle_type_id":"4","last_reported":1738876109,"current_range_meters":39200,"station_id":"ce4bhbh2rcd13ifvqeo0","pricing_plan_id":"cebpf4jnsgd1na2vs0mg"},{"bike_id":"14a0b7ad-3cf3-4b7e-a70e-d21d7b4a17ca","system_id":"levelo_inurba_marseille","lat":43.27997,"lon":5.40012,"is_reserved":false,"is_disabled":false,"rental_uris":{"android":"levelo://app?vid=14a0b7ad-3cf3-4b7e-a70e-d21d7b4a17ca","ios":"levelo://app?vid=14a0b7ad-3cf3-4b7e-a70e-d21d7b4a17ca"},"vehicle_type_id":"4","last_reported":1738876109,"current_range_meters":24400,"station_id":"ce4bho92rcd13ifvqh4g","pricing_plan_id":"cebpf4jnsgd1na2vs0mg"},{"bike_id":"d90800d2-0b28-4666-b04d-68e5f6c3e9ab","system_id":"levelo_inurba_marseille","lat":43.23196,"lon":5.40001,"is_reserved":false,"is_disabled":false,"rental_uris":{"android":"levelo://app?vid=d90800d2-0b28-4666-b04d-68e5f6c3e9ab","ios":"levelo://app?vid=d90800d2-0b28-4666-b04d-68e5f6c3e9ab"},"vehicle_type_id":"4","last_reported":1738876109,"current_range_meters":38800,"station_id":"ce4bhn12rcd13ifvqgqg","pricing_plan_id":"cebpf4jnsgd1na2vs0mg"},{"bike_id":"85c3353d-1ec4-4be3-8aa9-1f2b0812ee13","system_id":"levelo_inurba_marseille","lat":43.31222,"lon":5.36865,"is_reserved":false,"is_disabled":false,"rental_uris":{"android":"levelo://app?vid=85c3353d-1ec4-4be3-8aa9-1f2b0812ee13","ios":"levelo://app?vid=85c3353d-1ec4-4be3-8aa9-1f2b0812ee13"},"vehicle_type_id":"4","last_reported":1738876109,"current_range_meters":8400,"station_id":"ce4bgl92rcd13ifvqbq0","pricing_plan_id":"cebpf4jnsgd1na2vs0mg"},{"bike_id":"50ec83d4-ad3d-4b37-881f-7580094a43f8","system_id":"levelo_inurba_marseille","lat":43.29423,"lon":5.38624,"is_reserved":false,"is_disabled":false,"rental_uris":{"android":"levelo://app?vid=50ec83d4-ad3d-4b37-881f-7580094a43f8","ios":"levelo://app?vid=50ec83d4-ad3d-4b37-881f-7580094a43f8"},"vehicle_type_id":"4","last_reported":1738876109,"current_range_meters":26800,"station_id":"ce4bh2h2rcd13ifvqdh0","pricing_plan_id":"cebpf4jnsgd1na2vs0mg"},{"bike_id":"8a66e63b-2bd8-4762-9707-a83a8d88dca1","system_id":"levelo_inurba_marseille","lat":43.29314,"lon":5.37176,"is_reserved":false,"is_disabled":false,"rental_uris":{"android":"levelo://app?vid=8a66e63b-2bd8-4762-9707-a83a8d88dca1","ios":"levelo://app?vid=8a66e63b-2bd8-4762-9707-a83a8d88dca1"},"vehicle_type_id":"4","last_reported":1738876109,"current_range_meters":19600,"station_id":"ce4bgh92rcd13ifvqb40","pricing_plan_id":"cebpf4jnsgd1na2vs0mg"},{"bike_id":"55c531ba-cb99-413a-81f9-84f3b3d5979e","system_id":"levelo_inurba_marseille","lat":43.22931,"lon":5.35372,"is_reserved":false,"is_disabled":false,"rental_uris":{"android":"levelo://app?vid=55c531ba-cb99-413a-81f9-84f3b3d5979e","ios":"levelo://app?vid=55c531ba-cb99-413a-81f9-84f3b3d5979e"},"vehicle_type_id":"4","last_reported":1738876109,"current_range_meters":27600,"station_id":"cpo3532slgdg3j2ikp40","pricing_plan_id":"cebpf4jnsgd1na2vs0mg"},{"bike_id":"4d6c931f-72da-462d-8d3e-100511fce5c7","system_id":"levelo_inurba_marseille","lat":43.31417,"lon":5.37232,"is_reserved":false,"is_disabled":false,"rental_uris":{"android":"levelo://app?vid=4d6c931f-72da-462d-8d3e-100511fce5c7","ios":"levelo://app?vid=4d6c931f-72da-462d-8d3e-100511fce5c7"},"vehicle_type_id":"4","last_reported":1738876109,"current_range_meters":9200,"station_id":"","pricing_plan_id":"cebpf4jnsgd1na2vs0mg"},{"bike_id":"25584dfc-d5ff-4811-85c5-933f3dfbdae8","system_id":"levelo_inurba_marseille","lat":43.23963,"lon":5.36651,"is_reserved":false,"is_disabled":false,"rental_uris":{"android":"levelo://app?vid=25584dfc-d5ff-4811-85c5-933f3dfbdae8","ios":"levelo://app?vid=25584dfc-d5ff-4811-85c5-933f3dfbdae8"},"vehicle_type_id":"4","last_reported":1738876109,"current_range_meters":36800,"station_id":"ce4bhi12rcd13ifvqfp0","pricing_plan_id":"cebpf4jnsgd1na2vs0mg"},{"bike_id":"3b6fc1a1-1e64-4698-a113-588a2563418f","system_id":"levelo_inurba_marseille","lat":43.2802,"lon":5.36898,"is_reserved":false,"is_disabled":false,"rental_uris":{"android":"levelo://app?vid=3b6fc1a1-1e64-4698-a113-588a2563418f","ios":"levelo://app?vid=3b6fc1a1-1e64-4698-a113-588a2563418f"},"vehicle_type_id":"4","last_reported":1738876109,"current_range_meters":38800,"station_id":"ce4bha12rcd13ifvqef0","pricing_plan_id":"cebpf4jnsgd1na2vs0mg"},{"bike_id":"42b00d6b-70d0-4750-bdd2-377deb18497e","system_id":"levelo_inurba_marseille","lat":43.22938,"lon":5.35359,"is_reserved":false,"is_disabled":false,"rental_uris":{"android":"levelo://app?vid=42b00d6b-70d0-4750-bdd2-377deb18497e","ios":"levelo://app?vid=42b00d6b-70d0-4750-bdd2-377deb18497e"},"vehicle_type_id":"4","last_reported":1738876109,"current_range_meters":30400,"station_id":"cpo3532slgdg3j2ikp40","pricing_plan_id":"cebpf4jnsgd1na2vs0mg"},{"bike_id":"339a4f18-78ea-4e7f-a4c8-410d2cd87ef8","system_id":"levelo_inurba_marseille","lat":43.2767,"lon":5.38912,"is_reserved":false,"is_disabled":false,"rental_uris":{"android":"levelo://app?vid=339a4f18-78ea-4e7f-a4c8-410d2cd87ef8","ios":"levelo://app?vid=339a4f18-78ea-4e7f-a4c8-410d2cd87ef8"},"vehicle_type_id":"4","last_reported":1738876109,"current_range_meters":31200,"station_id":"ce4bhi12rcd13ifvqfo0","pricing_plan_id":"cebpf4jnsgd1na2vs0mg"},{"bike_id":"51330da2-8079-4b23-96d5-c24de9b6b5d9","system_id":"levelo_inurba_marseille","lat":43.27907,"lon":5.38019,"is_reserved":false,"is_disabled":false,"rental_uris":{"android":"levelo://app?vid=51330da2-8079-4b23-96d5-c24de9b6b5d9","ios":"levelo://app?vid=51330da2-8079-4b23-96d5-c24de9b6b5d9"},"vehicle_type_id":"4","last_reported":1738876109,"current_range_meters":38800,"station_id":"ce4bhf92rcd13ifvqf50","pricing_plan_id":"cebpf4jnsgd1na2vs0mg"},{"bike_id":"c130fff7-2faf-4f2e-82f9-62c219cfeda5","system_id":"levelo_inurba_marseille","lat":43.2815,"lon":5.42642,"is_reserved":false,"is_disabled":false,"rental_uris":{"android":"levelo://app?vid=c130fff7-2faf-4f2e-82f9-62c219cfeda5","ios":"levelo://app?vid=c130fff7-2faf-4f2e-82f9-62c219cfeda5"},"vehicle_type_id":"4","last_reported":1738876109,"current_range_meters":27200,"station_id":"ce4bhnh2rcd13ifvqgug","pricing_plan_id":"cebpf4jnsgd1na2vs0mg"},{"bike_id":"f1bbac45-5b32-4b97-b4ef-d7ee065546b1","system_id":"levelo_inurba_marseille","lat":43.26024,"lon":5.37548,"is_reserved":false,"is_disabled":false,"rental_uris":{"android":"levelo://app?vid=f1bbac45-5b32-4b97-b4ef-d7ee065546b1","ios":"levelo://app?vid=f1bbac45-5b32-4b97-b4ef-d7ee065546b1"},"vehicle_type_id":"4","last_reported":1738876109,"current_range_meters":38800,"station_id":"ce4bhgh2rcd13ifvqfa0","pricing_plan_id":"cebpf4jnsgd1na2vs0mg"},{"bike_id":"bfddda29-c6a5-427f-9426-0af31d6793a1","system_id":"levelo_inurba_marseille","lat":43.26501,"lon":5.3954,"is_reserved":false,"is_disabled":true,"rental_uris":{"android":"levelo://app?vid=bfddda29-c6a5-427f-9426-0af31d6793a1","ios":"levelo://app?vid=bfddda29-c6a5-427f-9426-0af31d6793a1"},"vehicle_type_id":"4","last_reported":1738876109,"current_range_meters":800,"station_id":"ce4bhi12rcd13ifvqfq0","pricing_plan_id":"cebpf4jnsgd1na2vs0mg"},{"bike_id":"a36a308c-9075-4f72-b2c9-e05163d80524","system_id":"levelo_inurba_marseille","lat":43.24399,"lon":5.37055,"is_reserved":false,"is_disabled":false,"rental_uris":{"android":"levelo://app?vid=a36a308c-9075-4f72-b2c9-e05163d80524","ios":"levelo://app?vid=a36a308c-9075-4f72-b2c9-e05163d80524"},"vehicle_type_id":"4","last_reported":1738876109,"current_range_meters":38800,"station_id":"ce4bhhh2rcd13ifvqfk0","pricing_plan_id":"cebpf4jnsgd1na2vs0mg"},{"bike_id":"5eb997aa-ba06-470a-b7fd-cd40e9642b35","system_id":"levelo_inurba_marseille","lat":43.23186,"lon":5.39983,"is_reserved":false,"is_disabled":false,"rental_uris":{"android":"levelo://app?vid=5eb997aa-ba06-470a-b7fd-cd40e9642b35","ios":"levelo://app?vid=5eb997aa-ba06-470a-b7fd-cd40e9642b35"},"vehicle_type_id":"4","last_reported":1738876109,"current_range_meters":38800,"station_id":"ce4bhn12rcd13ifvqgqg","pricing_plan_id":"cebpf4jnsgd1na2vs0mg"},{"bike_id":"e97df748-9ecd-4642-9522-6e614425fe9f","system_id":"levelo_inurba_marseille","lat":43.29254,"lon":5.4091,"is_reserved":false,"is_disabled":false,"rental_uris":{"android":"levelo://app?vid=e97df748-9ecd-4642-9522-6e614425fe9f","ios":"levelo://app?vid=e97df748-9ecd-4642-9522-6e614425fe9f"},"vehicle_type_id":"4","last_reported":1738876109,"current_range_meters":22400,"station_id":"ce4bh192rcd13ifvqdc0","pricing_plan_id":"cebpf4jnsgd1na2vs0mg"},{"bike_id":"1da8b17b-ad28-4780-a711-431647c244ed","system_id":"levelo_inurba_marseille","lat":43.23961,"lon":5.36624,"is_reserved":false,"is_disabled":false,"rental_uris":{"android":"levelo://app?vid=1da8b17b-ad28-4780-a711-431647c244ed","ios":"levelo://app?vid=1da8b17b-ad28-4780-a711-431647c244ed"},"vehicle_type_id":"4","last_reported":1738876109,"current_range_meters":30400,"station_id":"ce4bhi12rcd13ifvqfp0","pricing_plan_id":"cebpf4jnsgd1na2vs0mg"},{"bike_id":"46a53203-2f8d-49a5-ab12-f758dc8894d2","system_id":"levelo_inurba_marseille","lat":43.29771,"lon":5.37105,"is_reserved":false,"is_disabled":false,"rental_uris":{"android":"levelo://app?vid=46a53203-2f8d-49a5-ab12-f758dc8894d2","ios":"levelo://app?vid=46a53203-2f8d-49a5-ab12-f758dc8894d2"},"vehicle_type_id":"4","last_reported":1738876109,"current_range_meters":30000,"station_id":"ce4bgop2rcd13ifvqc1g","pricing_plan_id":"cebpf4jnsgd1na2vs0mg"},{"bike_id":"54630ec0-92ce-4c84-ba54-45269fbd607e","system_id":"levelo_inurba_marseille","lat":43.30351,"lon":5.41878,"is_reserved":false,"is_disabled":false,"rental_uris":{"android":"levelo://app?vid=54630ec0-92ce-4c84-ba54-45269fbd607e","ios":"levelo://app?vid=54630ec0-92ce-4c84-ba54-45269fbd607e"},"vehicle_type_id":"4","last_reported":1738876109,"current_range_meters":39200,"station_id":"ce4bhop2rcd13ifvqh7g","pricing_plan_id":"cebpf4jnsgd1na2vs0mg"},{"bike_id":"a2273def-01c8-4ea0-8135-cc77a96cc8e9","system_id":"levelo_inurba_marseille","lat":43.27566,"lon":5.38401,"is_reserved":false,"is_disabled":false,"rental_uris":{"android":"levelo://app?vid=a2273def-01c8-4ea0-8135-cc77a96cc8e9","ios":"levelo://app?vid=a2273def-01c8-4ea0-8135-cc77a96cc8e9"},"vehicle_type_id":"4","last_reported":1738876109,"current_range_meters":34000,"station_id":"ce4bhh92rcd13ifvqfi0","pricing_plan_id":"cebpf4jnsgd1na2vs0mg"},{"bike_id":"f951176f-0b25-49e1-b6cb-8147ffeb7fe1","system_id":"levelo_inurba_marseille","lat":43.25107,"lon":5.4032,"is_reserved":false,"is_disabled":false,"rental_uris":{"android":"levelo://app?vid=f951176f-0b25-49e1-b6cb-8147ffeb7fe1","ios":"levelo://app?vid=f951176f-0b25-49e1-b6cb-8147ffeb7fe1"},"vehicle_type_id":"4","last_reported":1738876109,"current_range_meters":11200,"station_id":"ce4bhlh2rcd13ifvqgig","pricing_plan_id":"cebpf4jnsgd1na2vs0mg"},{"bike_id":"9f6c3130-9a23-4f9a-9652-a76a30728a40","system_id":"levelo_inurba_marseille","lat":43.27173,"lon":5.40993,"is_reserved":false,"is_disabled":false,"rental_uris":{"android":"levelo://app?vid=9f6c3130-9a23-4f9a-9652-a76a30728a40","ios":"levelo://app?vid=9f6c3130-9a23-4f9a-9652-a76a30728a40"},"vehicle_type_id":"4","last_reported":1738876109,"current_range_meters":22400,"station_id":"ce4bhl12rcd13ifvqgf0","pricing_plan_id":"cebpf4jnsgd1na2vs0mg"},{"bike_id":"dfc563d8-6bd1-4b8f-b5c4-7a9c45b79439","system_id":"levelo_inurba_marseille","lat":43.24643,"lon":5.38928,"is_reserved":false,"is_disabled":false,"rental_uris":{"android":"levelo://app?vid=dfc563d8-6bd1-4b8f-b5c4-7a9c45b79439","ios":"levelo://app?vid=dfc563d8-6bd1-4b8f-b5c4-7a9c45b79439"},"vehicle_type_id":"4","last_reported":1738876109,"current_range_meters":38800,"station_id":"ce4bhg12rcd13ifvqf60","pricing_plan_id":"cebpf4jnsgd1na2vs0mg"},{"bike_id":"c7dc24d3-8ec8-44dc-aec3-1705d3fca788","system_id":"levelo_inurba_marseille","lat":43.28271,"lon":5.35062,"is_reserved":false,"is_disabled":false,"rental_uris":{"android":"levelo://app?vid=c7dc24d3-8ec8-44dc-aec3-1705d3fca788","ios":"levelo://app?vid=c7dc24d3-8ec8-44dc-aec3-1705d3fca788"},"vehicle_type_id":"4","last_reported":1738876109,"current_range_meters":32000,"station_id":"ce4bhbp2rcd13ifvqerg","pricing_plan_id":"cebpf4jnsgd1na2vs0mg"},{"bike_id":"052b2d36-c907-44bb-894d-ed094bec64e6","system_id":"levelo_inurba_marseille","lat":43.31756,"lon":5.39021,"is_reserved":false,"is_disabled":false,"rental_uris":{"android":"levelo://app?vid=052b2d36-c907-44bb-894d-ed094bec64e6","ios":"levelo://app?vid=052b2d36-c907-44bb-894d-ed094bec64e6"},"vehicle_type_id":"4","last_reported":1738876109,"current_range_meters":6800,"station_id":"ce4bhqp2rcd13ifvqhng","pricing_plan_id":"cebpf4jnsgd1na2vs0mg"},{"bike_id":"9bceb88c-0d89-443d-9293-9fa1f31dbc5e","system_id":"levelo_inurba_marseille","lat":43.29515,"lon":5.39045,"is_reserved":false,"is_disabled":false,"rental_uris":{"android":"levelo://app?vid=9bceb88c-0d89-443d-9293-9fa1f31dbc5e","ios":"levelo://app?vid=9bceb88c-0d89-443d-9293-9fa1f31dbc5e"},"vehicle_type_id":"4","last_reported":1738876109,"current_range_meters":26800,"station_id":"ce4bh3p2rcd13ifvqdp0","pricing_plan_id":"cebpf4jnsgd1na2vs0mg"},{"bike_id":"3bf8a9dd-c7e0-4ae9-a9ee-50112635205c","system_id":"levelo_inurba_marseille","lat":43.31402,"lon":5.38978,"is_reserved":false,"is_disabled":false,"rental_uris":{"android":"levelo://app?vid=3bf8a9dd-c7e0-4ae9-a9ee-50112635205c","ios":"levelo://app?vid=3bf8a9dd-c7e0-4ae9-a9ee-50112635205c"},"vehicle_type_id":"4","last_reported":1738876109,"current_range_meters":8000,"station_id":"","pricing_plan_id":"cebpf4jnsgd1na2vs0mg"},{"bike_id":"9fd00dbe-7d9e-4988-90b2-a1a9ad97fdf1","system_id":"levelo_inurba_marseille","lat":43.24547,"lon":5.39525,"is_reserved":false,"is_disabled":false,"rental_uris":{"android":"levelo://app?vid=9fd00dbe-7d9e-4988-90b2-a1a9ad97fdf1","ios":"levelo://app?vid=9fd00dbe-7d9e-4988-90b2-a1a9ad97fdf1"},"vehicle_type_id":"4","last_reported":1738876109,"current_range_meters":27600,"station_id":"ce4bhlp2rcd13ifvqgjg","pricing_plan_id":"cebpf4jnsgd1na2vs0mg"},{"bike_id":"f007c4c1-db59-4a07-8d7b-95ba9982ee49","system_id":"levelo_inurba_marseille","lat":43.32994,"lon":5.39079,"is_reserved":false,"is_disabled":false,"rental_uris":{"android":"levelo://app?vid=f007c4c1-db59-4a07-8d7b-95ba9982ee49","ios":"levelo://app?vid=f007c4c1-db59-4a07-8d7b-95ba9982ee49"},"vehicle_type_id":"4","last_reported":1738876109,"current_range_meters":38400,"station_id":"ce4bhr92rcd13ifvqhrg","pricing_plan_id":"cebpf4jnsgd1na2vs0mg"},{"bike_id":"97fe070a-439a-42f5-b3e3-8c2edbf86e8f","system_id":"levelo_inurba_marseille","lat":43.28931,"lon":5.38395,"is_reserved":false,"is_disabled":false,"rental_uris":{"android":"levelo://app?vid=97fe070a-439a-42f5-b3e3-8c2edbf86e8f","ios":"levelo://app?vid=97fe070a-439a-42f5-b3e3-8c2edbf86e8f"},"vehicle_type_id":"4","last_reported":1738876109,"current_range_meters":38000,"station_id":"ce4bh612rcd13ifvqe6g","pricing_plan_id":"cebpf4jnsgd1na2vs0mg"},{"bike_id":"48b06d0b-7a79-4c4a-9bef-3bde40720b51","system_id":"levelo_inurba_marseille","lat":43.33017,"lon":5.39053,"is_reserved":false,"is_disabled":false,"rental_uris":{"android":"levelo://app?vid=48b06d0b-7a79-4c4a-9bef-3bde40720b51","ios":"levelo://app?vid=48b06d0b-7a79-4c4a-9bef-3bde40720b51"},"vehicle_type_id":"4","last_reported":1738876109,"current_range_meters":38400,"station_id":"ce4bhr92rcd13ifvqhrg","pricing_plan_id":"cebpf4jnsgd1na2vs0mg"},{"bike_id":"38c47b95-ad7d-4d74-ab3c-fbd6a0ae4207","system_id":"levelo_inurba_marseille","lat":43.28407,"lon":5.37528,"is_reserved":false,"is_disabled":false,"rental_uris":{"android":"levelo://app?vid=38c47b95-ad7d-4d74-ab3c-fbd6a0ae4207","ios":"levelo://app?vid=38c47b95-ad7d-4d74-ab3c-fbd6a0ae4207"},"vehicle_type_id":"4","last_reported":1738876109,"current_range_meters":38800,"station_id":"ce4bh412rcd13ifvqds0","pricing_plan_id":"cebpf4jnsgd1na2vs0mg"},{"bike_id":"e14e6780-ec0b-4749-80fc-7897ea1247fc","system_id":"levelo_inurba_marseille","lat":43.2928,"lon":5.40119,"is_reserved":false,"is_disabled":false,"rental_uris":{"android":"levelo://app?vid=e14e6780-ec0b-4749-80fc-7897ea1247fc","ios":"levelo://app?vid=e14e6780-ec0b-4749-80fc-7897ea1247fc"},"vehicle_type_id":"4","last_reported":1738876109,"current_range_meters":32400,"station_id":"ce4bh312rcd13ifvqdk0","pricing_plan_id":"cebpf4jnsgd1na2vs0mg"},{"bike_id":"e4e9912b-c5ca-403f-8af4-aec00a1c98b8","system_id":"levelo_inurba_marseille","lat":43.29272,"lon":5.38438,"is_reserved":false,"is_disabled":true,"rental_uris":{"android":"levelo://app?vid=e4e9912b-c5ca-403f-8af4-aec00a1c98b8","ios":"levelo://app?vid=e4e9912b-c5ca-403f-8af4-aec00a1c98b8"},"vehicle_type_id":"4","last_reported":1738876109,"current_range_meters":1200,"station_id":"ce4bh692rcd13ifvqea0","pricing_plan_id":"cebpf4jnsgd1na2vs0mg"},{"bike_id":"252b0da2-dfde-465b-b465-ae4361c3faa5","system_id":"levelo_inurba_marseille","lat":43.29419,"lon":5.38632,"is_reserved":false,"is_disabled":false,"rental_uris":{"android":"levelo://app?vid=252b0da2-dfde-465b-b465-ae4361c3faa5","ios":"levelo://app?vid=252b0da2-dfde-465b-b465-ae4361c3faa5"},"vehicle_type_id":"4","last_reported":1738876109,"current_range_meters":39200,"station_id":"ce4bh2h2rcd13ifvqdh0","pricing_plan_id":"cebpf4jnsgd1na2vs0mg"},{"bike_id":"da10d3b6-6e7d-4a1f-958a-0b25eceb1fc4","system_id":"levelo_inurba_marseille","lat":43.33012,"lon":5.39029,"is_reserved":false,"is_disabled":false,"rental_uris":{"android":"levelo://app?vid=da10d3b6-6e7d-4a1f-958a-0b25eceb1fc4","ios":"levelo://app?vid=da10d3b6-6e7d-4a1f-958a-0b25eceb1fc4"},"vehicle_type_id":"4","last_reported":1738876109,"current_range_meters":39200,"station_id":"ce4bhr92rcd13ifvqhrg","pricing_plan_id":"cebpf4jnsgd1na2vs0mg"},{"bike_id":"33e79e7c-2a29-409a-9fad-d8580744154f","system_id":"levelo_inurba_marseille","lat":43.27568,"lon":5.38422,"is_reserved":false,"is_disabled":false,"rental_uris":{"android":"levelo://app?vid=33e79e7c-2a29-409a-9fad-d8580744154f","ios":"levelo://app?vid=33e79e7c-2a29-409a-9fad-d8580744154f"},"vehicle_type_id":"4","last_reported":1738876109,"current_range_meters":30000,"station_id":"ce4bhh92rcd13ifvqfi0","pricing_plan_id":"cebpf4jnsgd1na2vs0mg"},{"bike_id":"b56e04b5-e78c-4976-b56c-6a0bb79f0bf6","system_id":"levelo_inurba_marseille","lat":43.29526,"lon":5.3903,"is_reserved":false,"is_disabled":false,"rental_uris":{"android":"levelo://app?vid=b56e04b5-e78c-4976-b56c-6a0bb79f0bf6","ios":"levelo://app?vid=b56e04b5-e78c-4976-b56c-6a0bb79f0bf6"},"vehicle_type_id":"4","last_reported":1738876109,"current_range_meters":18000,"station_id":"ce4bh3p2rcd13ifvqdp0","pricing_plan_id":"cebpf4jnsgd1na2vs0mg"},{"bike_id":"64716b89-9b18-4889-acda-7e26befdf283","system_id":"levelo_inurba_marseille","lat":43.30643,"lon":5.40067,"is_reserved":false,"is_disabled":false,"rental_uris":{"android":"levelo://app?vid=64716b89-9b18-4889-acda-7e26befdf283","ios":"levelo://app?vid=64716b89-9b18-4889-acda-7e26befdf283"},"vehicle_type_id":"4","last_reported":1738876109,"current_range_meters":22400,"station_id":"ce4bh112rcd13ifvqda0","pricing_plan_id":"cebpf4jnsgd1na2vs0mg"},{"bike_id":"087f0b3a-4aea-43b2-8ccc-2a9ed614bb2e","system_id":"levelo_inurba_marseille","lat":43.31723,"lon":5.42403,"is_reserved":false,"is_disabled":false,"rental_uris":{"android":"levelo://app?vid=087f0b3a-4aea-43b2-8ccc-2a9ed614bb2e","ios":"levelo://app?vid=087f0b3a-4aea-43b2-8ccc-2a9ed614bb2e"},"vehicle_type_id":"4","last_reported":1738876109,"current_range_meters":38800,"station_id":"ce4bhp92rcd13ifvqhbg","pricing_plan_id":"cebpf4jnsgd1na2vs0mg"},{"bike_id":"e3869990-fdc1-4ef6-af32-85dbad05e21f","system_id":"levelo_inurba_marseille","lat":43.2942,"lon":5.38622,"is_reserved":false,"is_disabled":false,"rental_uris":{"android":"levelo://app?vid=e3869990-fdc1-4ef6-af32-85dbad05e21f","ios":"levelo://app?vid=e3869990-fdc1-4ef6-af32-85dbad05e21f"},"vehicle_type_id":"4","last_reported":1738876109,"current_range_meters":11200,"station_id":"ce4bh2h2rcd13ifvqdh0","pricing_plan_id":"cebpf4jnsgd1na2vs0mg"},{"bike_id":"9c0ce03a-5b91-4a8b-a474-9dd4d17d8d50","system_id":"levelo_inurba_marseille","lat":43.26562,"lon":5.39008,"is_reserved":false,"is_disabled":true,"rental_uris":{"android":"levelo://app?vid=9c0ce03a-5b91-4a8b-a474-9dd4d17d8d50","ios":"levelo://app?vid=9c0ce03a-5b91-4a8b-a474-9dd4d17d8d50"},"vehicle_type_id":"4","last_reported":1738876109,"current_range_meters":20000,"station_id":"ce4bhe12rcd13ifvqf30","pricing_plan_id":"cebpf4jnsgd1na2vs0mg"},{"bike_id":"3e19c6b8-1614-4fff-b193-5b245fdf9bb9","system_id":"levelo_inurba_marseille","lat":43.29256,"lon":5.38441,"is_reserved":false,"is_disabled":false,"rental_uris":{"android":"levelo://app?vid=3e19c6b8-1614-4fff-b193-5b245fdf9bb9","ios":"levelo://app?vid=3e19c6b8-1614-4fff-b193-5b245fdf9bb9"},"vehicle_type_id":"4","last_reported":1738876109,"current_range_meters":18800,"station_id":"ce4bh692rcd13ifvqea0","pricing_plan_id":"cebpf4jnsgd1na2vs0mg"},{"bike_id":"d24de62b-f43d-4ee9-8636-eae3f9e1d596","system_id":"levelo_inurba_marseille","lat":43.27178,"lon":5.40996,"is_reserved":false,"is_disabled":false,"rental_uris":{"android":"levelo://app?vid=d24de62b-f43d-4ee9-8636-eae3f9e1d596","ios":"levelo://app?vid=d24de62b-f43d-4ee9-8636-eae3f9e1d596"},"vehicle_type_id":"4","last_reported":1738876109,"current_range_meters":36000,"station_id":"ce4bhl12rcd13ifvqgf0","pricing_plan_id":"cebpf4jnsgd1na2vs0mg"},{"bike_id":"11c65c3a-3ad6-430f-acbd-cc72bfca7b6c","system_id":"levelo_inurba_marseille","lat":43.323643,"lon":5.388723,"is_reserved":false,"is_disabled":false,"rental_uris":{"android":"levelo://app?vid=11c65c3a-3ad6-430f-acbd-cc72bfca7b6c","ios":"levelo://app?vid=11c65c3a-3ad6-430f-acbd-cc72bfca7b6c"},"vehicle_type_id":"4","last_reported":1738876109,"current_range_meters":13600,"station_id":"ce4bhqp2rcd13ifvqhog","pricing_plan_id":"cebpf4jnsgd1na2vs0mg"},{"bike_id":"b5226f54-d960-4571-ad27-b0138ff1f96c","system_id":"levelo_inurba_marseille","lat":43.29709,"lon":5.36602,"is_reserved":false,"is_disabled":false,"rental_uris":{"android":"levelo://app?vid=b5226f54-d960-4571-ad27-b0138ff1f96c","ios":"levelo://app?vid=b5226f54-d960-4571-ad27-b0138ff1f96c"},"vehicle_type_id":"4","last_reported":1738876109,"current_range_meters":38800,"station_id":"ce4bgn12rcd13ifvqbt0","pricing_plan_id":"cebpf4jnsgd1na2vs0mg"},{"bike_id":"6ab247fa-78fe-4db4-b76a-3e9b6824ff14","system_id":"levelo_inurba_marseille","lat":43.31358,"lon":5.3841,"is_reserved":false,"is_disabled":false,"rental_uris":{"android":"levelo://app?vid=6ab247fa-78fe-4db4-b76a-3e9b6824ff14","ios":"levelo://app?vid=6ab247fa-78fe-4db4-b76a-3e9b6824ff14"},"vehicle_type_id":"4","last_reported":1738876109,"current_range_meters":37600,"station_id":"ce4bgt92rcd13ifvqcf0","pricing_plan_id":"cebpf4jnsgd1na2vs0mg"},{"bike_id":"4e654cdb-894f-48c3-96fd-a44fe6ac1153","system_id":"levelo_inurba_marseille","lat":43.31228,"lon":5.3685,"is_reserved":false,"is_disabled":false,"rental_uris":{"android":"levelo://app?vid=4e654cdb-894f-48c3-96fd-a44fe6ac1153","ios":"levelo://app?vid=4e654cdb-894f-48c3-96fd-a44fe6ac1153"},"vehicle_type_id":"4","last_reported":1738876109,"current_range_meters":19200,"station_id":"ce4bgl92rcd13ifvqbq0","pricing_plan_id":"cebpf4jnsgd1na2vs0mg"},{"bike_id":"775e7c57-7e2a-41a4-bb53-8e81069898dc","system_id":"levelo_inurba_marseille","lat":43.25573,"lon":5.3824,"is_reserved":false,"is_disabled":false,"rental_uris":{"android":"levelo://app?vid=775e7c57-7e2a-41a4-bb53-8e81069898dc","ios":"levelo://app?vid=775e7c57-7e2a-41a4-bb53-8e81069898dc"},"vehicle_type_id":"4","last_reported":1738876109,"current_range_meters":6800,"station_id":"ce4bhih2rcd13ifvqfs0","pricing_plan_id":"cebpf4jnsgd1na2vs0mg"},{"bike_id":"14c1d853-bec2-4a8a-92c0-133aff39d5a7","system_id":"levelo_inurba_marseille","lat":43.30886,"lon":5.39628,"is_reserved":false,"is_disabled":false,"rental_uris":{"android":"levelo://app?vid=14c1d853-bec2-4a8a-92c0-133aff39d5a7","ios":"levelo://app?vid=14c1d853-bec2-4a8a-92c0-133aff39d5a7"},"vehicle_type_id":"4","last_reported":1738876109,"current_range_meters":26800,"station_id":"ce4bh012rcd13ifvqcv0","pricing_plan_id":"cebpf4jnsgd1na2vs0mg"},{"bike_id":"15a0c8d1-332c-40bf-a879-03b1bc9ff2ed","system_id":"levelo_inurba_marseille","lat":43.29767,"lon":5.37112,"is_reserved":false,"is_disabled":true,"rental_uris":{"android":"levelo://app?vid=15a0c8d1-332c-40bf-a879-03b1bc9ff2ed","ios":"levelo://app?vid=15a0c8d1-332c-40bf-a879-03b1bc9ff2ed"},"vehicle_type_id":"4","last_reported":1738876109,"current_range_meters":400,"station_id":"ce4bgop2rcd13ifvqc1g","pricing_plan_id":"cebpf4jnsgd1na2vs0mg"},{"bike_id":"bbf879a3-6407-46ab-adbf-90026e2481e3","system_id":"levelo_inurba_marseille","lat":43.27429,"lon":5.39427,"is_reserved":false,"is_disabled":false,"rental_uris":{"android":"levelo://app?vid=bbf879a3-6407-46ab-adbf-90026e2481e3","ios":"levelo://app?vid=bbf879a3-6407-46ab-adbf-90026e2481e3"},"vehicle_type_id":"4","last_reported":1738876109,"current_range_meters":38400,"station_id":"ce4bhdp2rcd13ifvqf20","pricing_plan_id":"cebpf4jnsgd1na2vs0mg"},{"bike_id":"70680240-c0ce-4c00-ba26-bfa78895a67c","system_id":"levelo_inurba_marseille","lat":43.28601,"lon":5.3707,"is_reserved":false,"is_disabled":true,"rental_uris":{"android":"levelo://app?vid=70680240-c0ce-4c00-ba26-bfa78895a67c","ios":"levelo://app?vid=70680240-c0ce-4c00-ba26-bfa78895a67c"},"vehicle_type_id":"4","last_reported":1738876109,"current_range_meters":37600,"station_id":"ce4bht12rcd13ifvqi60","pricing_plan_id":"cebpf4jnsgd1na2vs0mg"},{"bike_id":"7d564001-830b-4227-bc9a-89557501f05c","system_id":"levelo_inurba_marseille","lat":43.28942,"lon":5.39632,"is_reserved":false,"is_disabled":false,"rental_uris":{"android":"levelo://app?vid=7d564001-830b-4227-bc9a-89557501f05c","ios":"levelo://app?vid=7d564001-830b-4227-bc9a-89557501f05c"},"vehicle_type_id":"4","last_reported":1738876109,"current_range_meters":39200,"station_id":"ce4bh3h2rcd13ifvqdn0","pricing_plan_id":"cebpf4jnsgd1na2vs0mg"},{"bike_id":"ef9b62b4-8d02-4e23-970e-3e7fcb88040b","system_id":"levelo_inurba_marseille","lat":43.26224,"lon":5.38824,"is_reserved":false,"is_disabled":false,"rental_uris":{"android":"levelo://app?vid=ef9b62b4-8d02-4e23-970e-3e7fcb88040b","ios":"levelo://app?vid=ef9b62b4-8d02-4e23-970e-3e7fcb88040b"},"vehicle_type_id":"4","last_reported":1738876109,"current_range_meters":14400,"station_id":"","pricing_plan_id":"cebpf4jnsgd1na2vs0mg"},{"bike_id":"16963543-5b35-4fd9-9f46-b28b114d110e","system_id":"levelo_inurba_marseille","lat":43.28678,"lon":5.38657,"is_reserved":false,"is_disabled":false,"rental_uris":{"android":"levelo://app?vid=16963543-5b35-4fd9-9f46-b28b114d110e","ios":"levelo://app?vid=16963543-5b35-4fd9-9f46-b28b114d110e"},"vehicle_type_id":"4","last_reported":1738876109,"current_range_meters":37600,"station_id":"ce4bh492rcd13ifvqdug","pricing_plan_id":"cebpf4jnsgd1na2vs0mg"},{"bike_id":"79a11ae0-6cda-4176-9dd3-b71924088580","system_id":"levelo_inurba_marseille","lat":43.2781,"lon":5.40703,"is_reserved":false,"is_disabled":false,"rental_uris":{"android":"levelo://app?vid=79a11ae0-6cda-4176-9dd3-b71924088580","ios":"levelo://app?vid=79a11ae0-6cda-4176-9dd3-b71924088580"},"vehicle_type_id":"4","last_reported":1738876109,"current_range_meters":38400,"station_id":"ce4bhnh2rcd13ifvqgtg","pricing_plan_id":"cebpf4jnsgd1na2vs0mg"},{"bike_id":"8dc0b4e5-9b7e-494d-a544-2c50f0f2f820","system_id":"levelo_inurba_marseille","lat":43.31877,"lon":5.40742,"is_reserved":false,"is_disabled":false,"rental_uris":{"android":"levelo://app?vid=8dc0b4e5-9b7e-494d-a544-2c50f0f2f820","ios":"levelo://app?vid=8dc0b4e5-9b7e-494d-a544-2c50f0f2f820"},"vehicle_type_id":"4","last_reported":1738876109,"current_range_meters":38000,"station_id":"ce4bhq12rcd13ifvqhig","pricing_plan_id":"cebpf4jnsgd1na2vs0mg"},{"bike_id":"de9756ba-40de-44ce-9d08-0202e8b24ad2","system_id":"levelo_inurba_marseille","lat":43.29269,"lon":5.3685,"is_reserved":false,"is_disabled":false,"rental_uris":{"android":"levelo://app?vid=de9756ba-40de-44ce-9d08-0202e8b24ad2","ios":"levelo://app?vid=de9756ba-40de-44ce-9d08-0202e8b24ad2"},"vehicle_type_id":"4","last_reported":1738876109,"current_range_meters":37600,"station_id":"ce4bhbp2rcd13ifvqesg","pricing_plan_id":"cebpf4jnsgd1na2vs0mg"},{"bike_id":"422ca877-3a13-4afe-8b97-31b2b1e6165d","system_id":"levelo_inurba_marseille","lat":43.29778,"lon":5.37108,"is_reserved":false,"is_disabled":false,"rental_uris":{"android":"levelo://app?vid=422ca877-3a13-4afe-8b97-31b2b1e6165d","ios":"levelo://app?vid=422ca877-3a13-4afe-8b97-31b2b1e6165d"},"vehicle_type_id":"4","last_reported":1738876109,"current_range_meters":23200,"station_id":"ce4bgop2rcd13ifvqc1g","pricing_plan_id":"cebpf4jnsgd1na2vs0mg"},{"bike_id":"550d392b-7589-420f-bc4e-bf34dd38b83a","system_id":"levelo_inurba_marseille","lat":43.27946,"lon":5.41042,"is_reserved":false,"is_disabled":false,"rental_uris":{"android":"levelo://app?vid=550d392b-7589-420f-bc4e-bf34dd38b83a","ios":"levelo://app?vid=550d392b-7589-420f-bc4e-bf34dd38b83a"},"vehicle_type_id":"4","last_reported":1738876109,"current_range_meters":8000,"station_id":"ce4bhnp2rcd13ifvqh0g","pricing_plan_id":"cebpf4jnsgd1na2vs0mg"},{"bike_id":"61fa4b26-20c8-466a-9fd1-66899d5ff713","system_id":"levelo_inurba_marseille","lat":43.32346,"lon":5.40625,"is_reserved":false,"is_disabled":false,"rental_uris":{"android":"levelo://app?vid=61fa4b26-20c8-466a-9fd1-66899d5ff713","ios":"levelo://app?vid=61fa4b26-20c8-466a-9fd1-66899d5ff713"},"vehicle_type_id":"4","last_reported":1738876109,"current_range_meters":26000,"station_id":"ce4bhq92rcd13ifvqhjg","pricing_plan_id":"cebpf4jnsgd1na2vs0mg"},{"bike_id":"7bc2d4b6-7844-46be-a947-040b3c3e100d","system_id":"levelo_inurba_marseille","lat":43.27919,"lon":5.39574,"is_reserved":false,"is_disabled":false,"rental_uris":{"android":"levelo://app?vid=7bc2d4b6-7844-46be-a947-040b3c3e100d","ios":"levelo://app?vid=7bc2d4b6-7844-46be-a947-040b3c3e100d"},"vehicle_type_id":"4","last_reported":1738876109,"current_range_meters":38400,"station_id":"ce4bhf92rcd13ifvqf40","pricing_plan_id":"cebpf4jnsgd1na2vs0mg"},{"bike_id":"254048ed-538f-43db-8dbf-2f9d8ee68a52","system_id":"levelo_inurba_marseille","lat":43.27185,"lon":5.41007,"is_reserved":false,"is_disabled":false,"rental_uris":{"android":"levelo://app?vid=254048ed-538f-43db-8dbf-2f9d8ee68a52","ios":"levelo://app?vid=254048ed-538f-43db-8dbf-2f9d8ee68a52"},"vehicle_type_id":"4","last_reported":1738876109,"current_range_meters":36000,"station_id":"ce4bhl12rcd13ifvqgf0","pricing_plan_id":"cebpf4jnsgd1na2vs0mg"},{"bike_id":"1e6bd623-b9e9-4650-9f6f-8b4d5252096e","system_id":"levelo_inurba_marseille","lat":43.30807,"lon":5.43587,"is_reserved":false,"is_disabled":false,"rental_uris":{"android":"levelo://app?vid=1e6bd623-b9e9-4650-9f6f-8b4d5252096e","ios":"levelo://app?vid=1e6bd623-b9e9-4650-9f6f-8b4d5252096e"},"vehicle_type_id":"4","last_reported":1738876109,"current_range_meters":38800,"station_id":"ce4bhph2rcd13ifvqheg","pricing_plan_id":"cebpf4jnsgd1na2vs0mg"},{"bike_id":"7a65236e-e55b-4305-a6c7-456e00675e76","system_id":"levelo_inurba_marseille","lat":43.27829,"lon":5.39221,"is_reserved":false,"is_disabled":false,"rental_uris":{"android":"levelo://app?vid=7a65236e-e55b-4305-a6c7-456e00675e76","ios":"levelo://app?vid=7a65236e-e55b-4305-a6c7-456e00675e76"},"vehicle_type_id":"4","last_reported":1738876109,"current_range_meters":38800,"station_id":"ce4bhjp2rcd13ifvqga0","pricing_plan_id":"cebpf4jnsgd1na2vs0mg"},{"bike_id":"a6e126ec-b329-4df2-8fd7-6d43a61e945e","system_id":"levelo_inurba_marseille","lat":43.29284,"lon":5.36838,"is_reserved":false,"is_disabled":false,"rental_uris":{"android":"levelo://app?vid=a6e126ec-b329-4df2-8fd7-6d43a61e945e","ios":"levelo://app?vid=a6e126ec-b329-4df2-8fd7-6d43a61e945e"},"vehicle_type_id":"4","last_reported":1738876109,"current_range_meters":28000,"station_id":"ce4bhbp2rcd13ifvqesg","pricing_plan_id":"cebpf4jnsgd1na2vs0mg"},{"bike_id":"0d2768c4-ffd3-49e6-ae50-223632ef44ad","system_id":"levelo_inurba_marseille","lat":43.29683,"lon":5.3729,"is_reserved":false,"is_disabled":true,"rental_uris":{"android":"levelo://app?vid=0d2768c4-ffd3-49e6-ae50-223632ef44ad","ios":"levelo://app?vid=0d2768c4-ffd3-49e6-ae50-223632ef44ad"},"vehicle_type_id":"4","last_reported":1738876109,"current_range_meters":11600,"station_id":"ce4bho92rcd13ifvqh3g","pricing_plan_id":"cebpf4jnsgd1na2vs0mg"},{"bike_id":"4d5562cc-134e-4d5b-a8c5-b7c6d9458d33","system_id":"levelo_inurba_marseille","lat":43.30219,"lon":5.39477,"is_reserved":false,"is_disabled":false,"rental_uris":{"android":"levelo://app?vid=4d5562cc-134e-4d5b-a8c5-b7c6d9458d33","ios":"levelo://app?vid=4d5562cc-134e-4d5b-a8c5-b7c6d9458d33"},"vehicle_type_id":"4","last_reported":1738876109,"current_range_meters":12000,"station_id":"ce4bh0p2rcd13ifvqd70","pricing_plan_id":"cebpf4jnsgd1na2vs0mg"},{"bike_id":"adea3fe0-0d5f-493f-bc7a-8db19cd779cc","system_id":"levelo_inurba_marseille","lat":43.26199,"lon":5.37915,"is_reserved":false,"is_disabled":false,"rental_uris":{"android":"levelo://app?vid=adea3fe0-0d5f-493f-bc7a-8db19cd779cc","ios":"levelo://app?vid=adea3fe0-0d5f-493f-bc7a-8db19cd779cc"},"vehicle_type_id":"4","last_reported":1738876109,"current_range_meters":38000,"station_id":"ce4bhjp2rcd13ifvqg90","pricing_plan_id":"cebpf4jnsgd1na2vs0mg"},{"bike_id":"51de6889-b180-4464-aff8-03e8a0c73f3a","system_id":"levelo_inurba_marseille","lat":43.30873,"lon":5.37185,"is_reserved":false,"is_disabled":false,"rental_uris":{"android":"levelo://app?vid=51de6889-b180-4464-aff8-03e8a0c73f3a","ios":"levelo://app?vid=51de6889-b180-4464-aff8-03e8a0c73f3a"},"vehicle_type_id":"4","last_reported":1738876109,"current_range_meters":38800,"station_id":"ce4bguh2rcd13ifvqckg","pricing_plan_id":"cebpf4jnsgd1na2vs0mg"},{"bike_id":"0b2e5a2a-d19e-4715-8f84-d3009643502a","system_id":"levelo_inurba_marseille","lat":43.29263,"lon":5.38433,"is_reserved":false,"is_disabled":false,"rental_uris":{"android":"levelo://app?vid=0b2e5a2a-d19e-4715-8f84-d3009643502a","ios":"levelo://app?vid=0b2e5a2a-d19e-4715-8f84-d3009643502a"},"vehicle_type_id":"4","last_reported":1738876109,"current_range_meters":14400,"station_id":"ce4bh692rcd13ifvqea0","pricing_plan_id":"cebpf4jnsgd1na2vs0mg"},{"bike_id":"1e7a2219-8a62-4d64-ae7c-c3d6f0f90ba9","system_id":"levelo_inurba_marseille","lat":43.28429,"lon":5.39214,"is_reserved":false,"is_disabled":false,"rental_uris":{"android":"levelo://app?vid=1e7a2219-8a62-4d64-ae7c-c3d6f0f90ba9","ios":"levelo://app?vid=1e7a2219-8a62-4d64-ae7c-c3d6f0f90ba9"},"vehicle_type_id":"4","last_reported":1738876109,"current_range_meters":29600,"station_id":"ce4bhoh2rcd13ifvqh5g","pricing_plan_id":"cebpf4jnsgd1na2vs0mg"},{"bike_id":"c24a0944-9686-4c99-bfcb-6448fb0e1bb6","system_id":"levelo_inurba_marseille","lat":43.24077,"lon":5.37759,"is_reserved":false,"is_disabled":false,"rental_uris":{"android":"levelo://app?vid=c24a0944-9686-4c99-bfcb-6448fb0e1bb6","ios":"levelo://app?vid=c24a0944-9686-4c99-bfcb-6448fb0e1bb6"},"vehicle_type_id":"4","last_reported":1738876109,"current_range_meters":27600,"station_id":"ce4bhnp2rcd13ifvqgvg","pricing_plan_id":"cebpf4jnsgd1na2vs0mg"},{"bike_id":"ddabfc2f-5038-4225-9c45-0f70b1e37cba","system_id":"levelo_inurba_marseille","lat":43.31709,"lon":5.43687,"is_reserved":false,"is_disabled":false,"rental_uris":{"android":"levelo://app?vid=ddabfc2f-5038-4225-9c45-0f70b1e37cba","ios":"levelo://app?vid=ddabfc2f-5038-4225-9c45-0f70b1e37cba"},"vehicle_type_id":"4","last_reported":1738876109,"current_range_meters":38400,"station_id":"ce4bhp92rcd13ifvqhcg","pricing_plan_id":"cebpf4jnsgd1na2vs0mg"},{"bike_id":"7cf1f61c-b313-49b8-b3a8-1e15128022cd","system_id":"levelo_inurba_marseille","lat":43.292961,"lon":5.371677,"is_reserved":false,"is_disabled":false,"rental_uris":{"android":"levelo://app?vid=7cf1f61c-b313-49b8-b3a8-1e15128022cd","ios":"levelo://app?vid=7cf1f61c-b313-49b8-b3a8-1e15128022cd"},"vehicle_type_id":"4","last_reported":1738876109,"current_range_meters":19600,"station_id":"ce4bgh92rcd13ifvqb40","pricing_plan_id":"cebpf4jnsgd1na2vs0mg"},{"bike_id":"28a8e97d-887c-4f9c-9505-5d36a555c87b","system_id":"levelo_inurba_marseille","lat":43.27941,"lon":5.41047,"is_reserved":false,"is_disabled":false,"rental_uris":{"android":"levelo://app?vid=28a8e97d-887c-4f9c-9505-5d36a555c87b","ios":"levelo://app?vid=28a8e97d-887c-4f9c-9505-5d36a555c87b"},"vehicle_type_id":"4","last_reported":1738876109,"current_range_meters":9600,"station_id":"ce4bhnp2rcd13ifvqh0g","pricing_plan_id":"cebpf4jnsgd1na2vs0mg"},{"bike_id":"3f938fb8-8354-44df-bb16-61e23a662415","system_id":"levelo_inurba_marseille","lat":43.28102,"lon":5.37837,"is_reserved":false,"is_disabled":false,"rental_uris":{"android":"levelo://app?vid=3f938fb8-8354-44df-bb16-61e23a662415","ios":"levelo://app?vid=3f938fb8-8354-44df-bb16-61e23a662415"},"vehicle_type_id":"4","last_reported":1738876109,"current_range_meters":24000,"station_id":"ce4bha12rcd13ifvqee0","pricing_plan_id":"cebpf4jnsgd1na2vs0mg"},{"bike_id":"d0d68101-69b9-4fd7-bb0f-3af8731260ee","system_id":"levelo_inurba_marseille","lat":43.31763,"lon":5.39015,"is_reserved":false,"is_disabled":false,"rental_uris":{"android":"levelo://app?vid=d0d68101-69b9-4fd7-bb0f-3af8731260ee","ios":"levelo://app?vid=d0d68101-69b9-4fd7-bb0f-3af8731260ee"},"vehicle_type_id":"4","last_reported":1738876109,"current_range_meters":39200,"station_id":"ce4bhqp2rcd13ifvqhng","pricing_plan_id":"cebpf4jnsgd1na2vs0mg"},{"bike_id":"8e791de0-6e91-4611-94c1-59007be40fa1","system_id":"levelo_inurba_marseille","lat":43.27563,"lon":5.38425,"is_reserved":false,"is_disabled":false,"rental_uris":{"android":"levelo://app?vid=8e791de0-6e91-4611-94c1-59007be40fa1","ios":"levelo://app?vid=8e791de0-6e91-4611-94c1-59007be40fa1"},"vehicle_type_id":"4","last_reported":1738876109,"current_range_meters":27200,"station_id":"ce4bhh92rcd13ifvqfi0","pricing_plan_id":"cebpf4jnsgd1na2vs0mg"},{"bike_id":"f38fc671-1bae-4836-a2e7-5dc6c3b36ad7","system_id":"levelo_inurba_marseille","lat":43.29248,"lon":5.38444,"is_reserved":false,"is_disabled":false,"rental_uris":{"android":"levelo://app?vid=f38fc671-1bae-4836-a2e7-5dc6c3b36ad7","ios":"levelo://app?vid=f38fc671-1bae-4836-a2e7-5dc6c3b36ad7"},"vehicle_type_id":"4","last_reported":1738876109,"current_range_meters":38800,"station_id":"ce4bh692rcd13ifvqea0","pricing_plan_id":"cebpf4jnsgd1na2vs0mg"},{"bike_id":"ca957970-bc7c-429b-80fd-e451c27e2ad9","system_id":"levelo_inurba_marseille","lat":43.33016,"lon":5.39032,"is_reserved":false,"is_disabled":false,"rental_uris":{"android":"levelo://app?vid=ca957970-bc7c-429b-80fd-e451c27e2ad9","ios":"levelo://app?vid=ca957970-bc7c-429b-80fd-e451c27e2ad9"},"vehicle_type_id":"4","last_reported":1738876109,"current_range_meters":39200,"station_id":"ce4bhr92rcd13ifvqhrg","pricing_plan_id":"cebpf4jnsgd1na2vs0mg"},{"bike_id":"59db9156-837c-4bef-bdf0-6cb05d00fb23","system_id":"levelo_inurba_marseille","lat":43.24165,"lon":5.364,"is_reserved":false,"is_disabled":false,"rental_uris":{"android":"levelo://app?vid=59db9156-837c-4bef-bdf0-6cb05d00fb23","ios":"levelo://app?vid=59db9156-837c-4bef-bdf0-6cb05d00fb23"},"vehicle_type_id":"4","last_reported":1738876109,"current_range_meters":34800,"station_id":"cpo36qri1sfpv3e86is0","pricing_plan_id":"cebpf4jnsgd1na2vs0mg"},{"bike_id":"a82ded2b-1090-4b11-a00f-b79e72afb961","system_id":"levelo_inurba_marseille","lat":43.27948,"lon":5.41048,"is_reserved":false,"is_disabled":false,"rental_uris":{"android":"levelo://app?vid=a82ded2b-1090-4b11-a00f-b79e72afb961","ios":"levelo://app?vid=a82ded2b-1090-4b11-a00f-b79e72afb961"},"vehicle_type_id":"4","last_reported":1738876109,"current_range_meters":11600,"station_id":"ce4bhnp2rcd13ifvqh0g","pricing_plan_id":"cebpf4jnsgd1na2vs0mg"},{"bike_id":"19c91191-64ee-4803-94d7-14a4a66340df","system_id":"levelo_inurba_marseille","lat":43.3171,"lon":5.42402,"is_reserved":false,"is_disabled":true,"rental_uris":{"android":"levelo://app?vid=19c91191-64ee-4803-94d7-14a4a66340df","ios":"levelo://app?vid=19c91191-64ee-4803-94d7-14a4a66340df"},"vehicle_type_id":"4","last_reported":1738876109,"current_range_meters":0,"station_id":"ce4bhp92rcd13ifvqhbg","pricing_plan_id":"cebpf4jnsgd1na2vs0mg"},{"bike_id":"0a6a90a0-b9a1-4553-942b-9cc8f0c94f66","system_id":"levelo_inurba_marseille","lat":43.29259,"lon":5.4093,"is_reserved":false,"is_disabled":true,"rental_uris":{"android":"levelo://app?vid=0a6a90a0-b9a1-4553-942b-9cc8f0c94f66","ios":"levelo://app?vid=0a6a90a0-b9a1-4553-942b-9cc8f0c94f66"},"vehicle_type_id":"4","last_reported":1738876109,"current_range_meters":17600,"station_id":"ce4bh192rcd13ifvqdc0","pricing_plan_id":"cebpf4jnsgd1na2vs0mg"},{"bike_id":"fef1bd1d-2ad2-48f6-a1bb-d87aafe8c512","system_id":"levelo_inurba_marseille","lat":43.28954,"lon":5.36382,"is_reserved":false,"is_disabled":true,"rental_uris":{"android":"levelo://app?vid=fef1bd1d-2ad2-48f6-a1bb-d87aafe8c512","ios":"levelo://app?vid=fef1bd1d-2ad2-48f6-a1bb-d87aafe8c512"},"vehicle_type_id":"4","last_reported":1738876109,"current_range_meters":0,"station_id":"ce4bhc92rcd13ifvqetg","pricing_plan_id":"cebpf4jnsgd1na2vs0mg"},{"bike_id":"1df03635-8b6b-4117-9c9b-a2afa7bb927f","system_id":"levelo_inurba_marseille","lat":43.23193,"lon":5.39996,"is_reserved":false,"is_disabled":false,"rental_uris":{"android":"levelo://app?vid=1df03635-8b6b-4117-9c9b-a2afa7bb927f","ios":"levelo://app?vid=1df03635-8b6b-4117-9c9b-a2afa7bb927f"},"vehicle_type_id":"4","last_reported":1738876109,"current_range_meters":22400,"station_id":"ce4bhn12rcd13ifvqgqg","pricing_plan_id":"cebpf4jnsgd1na2vs0mg"},{"bike_id":"b6306b21-43ab-4439-b67f-29d0b5cdce20","system_id":"levelo_inurba_marseille","lat":43.29802,"lon":5.39373,"is_reserved":false,"is_disabled":false,"rental_uris":{"android":"levelo://app?vid=b6306b21-43ab-4439-b67f-29d0b5cdce20","ios":"levelo://app?vid=b6306b21-43ab-4439-b67f-29d0b5cdce20"},"vehicle_type_id":"4","last_reported":1738876109,"current_range_meters":38800,"station_id":"chh1huq6cuj3fo74tm60","pricing_plan_id":"cebpf4jnsgd1na2vs0mg"},{"bike_id":"63502e7d-71b3-44d6-b82d-6352b6e3809f","system_id":"levelo_inurba_marseille","lat":43.25833,"lon":5.39434,"is_reserved":false,"is_disabled":true,"rental_uris":{"android":"levelo://app?vid=63502e7d-71b3-44d6-b82d-6352b6e3809f","ios":"levelo://app?vid=63502e7d-71b3-44d6-b82d-6352b6e3809f"},"vehicle_type_id":"4","last_reported":1738876109,"current_range_meters":1200,"station_id":"ce4bhip2rcd13ifvqft0","pricing_plan_id":"cebpf4jnsgd1na2vs0mg"},{"bike_id":"aa20ddd3-fab3-4250-b35b-41c0ae9e33eb","system_id":"levelo_inurba_marseille","lat":43.24527,"lon":5.3729,"is_reserved":false,"is_disabled":false,"rental_uris":{"android":"levelo://app?vid=aa20ddd3-fab3-4250-b35b-41c0ae9e33eb","ios":"levelo://app?vid=aa20ddd3-fab3-4250-b35b-41c0ae9e33eb"},"vehicle_type_id":"4","last_reported":1738876109,"current_range_meters":16000,"station_id":"","pricing_plan_id":"cebpf4jnsgd1na2vs0mg"},{"bike_id":"43dc824f-84e8-4c9b-b2b0-dcb4138333f3","system_id":"levelo_inurba_marseille","lat":43.29692,"lon":5.37285,"is_reserved":false,"is_disabled":false,"rental_uris":{"android":"levelo://app?vid=43dc824f-84e8-4c9b-b2b0-dcb4138333f3","ios":"levelo://app?vid=43dc824f-84e8-4c9b-b2b0-dcb4138333f3"},"vehicle_type_id":"4","last_reported":1738876109,"current_range_meters":39200,"station_id":"ce4bgk12rcd13ifvqbj0","pricing_plan_id":"cebpf4jnsgd1na2vs0mg"},{"bike_id":"0e497770-cf09-4b8a-96bf-de7f715f6fe7","system_id":"levelo_inurba_marseille","lat":43.29523,"lon":5.39056,"is_reserved":false,"is_disabled":false,"rental_uris":{"android":"levelo://app?vid=0e497770-cf09-4b8a-96bf-de7f715f6fe7","ios":"levelo://app?vid=0e497770-cf09-4b8a-96bf-de7f715f6fe7"},"vehicle_type_id":"4","last_reported":1738876109,"current_range_meters":39200,"station_id":"ce4bh3p2rcd13ifvqdp0","pricing_plan_id":"cebpf4jnsgd1na2vs0mg"},{"bike_id":"744f4122-a65c-499d-80ba-7729a1ce92fe","system_id":"levelo_inurba_marseille","lat":43.28502,"lon":5.3913,"is_reserved":false,"is_disabled":true,"rental_uris":{"android":"levelo://app?vid=744f4122-a65c-499d-80ba-7729a1ce92fe","ios":"levelo://app?vid=744f4122-a65c-499d-80ba-7729a1ce92fe"},"vehicle_type_id":"4","last_reported":1738876109,"current_range_meters":37600,"station_id":"","pricing_plan_id":"cebpf4jnsgd1na2vs0mg"},{"bike_id":"0e2ba579-8a6a-4848-b615-bb63d85e0b3c","system_id":"levelo_inurba_marseille","lat":43.2731,"lon":5.3912,"is_reserved":false,"is_disabled":true,"rental_uris":{"android":"levelo://app?vid=0e2ba579-8a6a-4848-b615-bb63d85e0b3c","ios":"levelo://app?vid=0e2ba579-8a6a-4848-b615-bb63d85e0b3c"},"vehicle_type_id":"4","last_reported":1738876109,"current_range_meters":38800,"station_id":"ce4bhgp2rcd13ifvqfe0","pricing_plan_id":"cebpf4jnsgd1na2vs0mg"},{"bike_id":"5d1dacf3-3fa1-40ba-8373-ce163dd2d283","system_id":"levelo_inurba_marseille","lat":43.26202,"lon":5.37906,"is_reserved":false,"is_disabled":false,"rental_uris":{"android":"levelo://app?vid=5d1dacf3-3fa1-40ba-8373-ce163dd2d283","ios":"levelo://app?vid=5d1dacf3-3fa1-40ba-8373-ce163dd2d283"},"vehicle_type_id":"4","last_reported":1738876109,"current_range_meters":38800,"station_id":"ce4bhjp2rcd13ifvqg90","pricing_plan_id":"cebpf4jnsgd1na2vs0mg"},{"bike_id":"afe6d814-558d-43ac-8000-542ecbb63139","system_id":"levelo_inurba_marseille","lat":43.29306,"lon":5.37181,"is_reserved":false,"is_disabled":false,"rental_uris":{"android":"levelo://app?vid=afe6d814-558d-43ac-8000-542ecbb63139","ios":"levelo://app?vid=afe6d814-558d-43ac-8000-542ecbb63139"},"vehicle_type_id":"4","last_reported":1738876109,"current_range_meters":16000,"station_id":"ce4bgh92rcd13ifvqb40","pricing_plan_id":"cebpf4jnsgd1na2vs0mg"},{"bike_id":"90aa1c42-4535-4a28-b2b4-27f65c7ee94b","system_id":"levelo_inurba_marseille","lat":43.29542,"lon":5.38549,"is_reserved":false,"is_disabled":false,"rental_uris":{"android":"levelo://app?vid=90aa1c42-4535-4a28-b2b4-27f65c7ee94b","ios":"levelo://app?vid=90aa1c42-4535-4a28-b2b4-27f65c7ee94b"},"vehicle_type_id":"4","last_reported":1738876109,"current_range_meters":21600,"station_id":"ce4bgih2rcd13ifvqba0","pricing_plan_id":"cebpf4jnsgd1na2vs0mg"},{"bike_id":"eb192197-0219-4cdf-905a-c64bd68ab8be","system_id":"levelo_inurba_marseille","lat":43.28457,"lon":5.3589,"is_reserved":false,"is_disabled":false,"rental_uris":{"android":"levelo://app?vid=eb192197-0219-4cdf-905a-c64bd68ab8be","ios":"levelo://app?vid=eb192197-0219-4cdf-905a-c64bd68ab8be"},"vehicle_type_id":"4","last_reported":1738876109,"current_range_meters":38800,"station_id":"ce4bhah2rcd13ifvqei0","pricing_plan_id":"cebpf4jnsgd1na2vs0mg"},{"bike_id":"8b2375cd-7bac-4044-8d34-541a6bd9df3d","system_id":"levelo_inurba_marseille","lat":43.28666,"lon":5.36374,"is_reserved":false,"is_disabled":false,"rental_uris":{"android":"levelo://app?vid=8b2375cd-7bac-4044-8d34-541a6bd9df3d","ios":"levelo://app?vid=8b2375cd-7bac-4044-8d34-541a6bd9df3d"},"vehicle_type_id":"4","last_reported":1738876109,"current_range_meters":32000,"station_id":"ce4bhah2rcd13ifvqej0","pricing_plan_id":"cebpf4jnsgd1na2vs0mg"},{"bike_id":"26226eb4-bffe-4870-bfd9-66722275b374","system_id":"levelo_inurba_marseille","lat":43.284629,"lon":5.358903,"is_reserved":false,"is_disabled":false,"rental_uris":{"android":"levelo://app?vid=26226eb4-bffe-4870-bfd9-66722275b374","ios":"levelo://app?vid=26226eb4-bffe-4870-bfd9-66722275b374"},"vehicle_type_id":"4","last_reported":1738876109,"current_range_meters":6800,"station_id":"ce4bhah2rcd13ifvqei0","pricing_plan_id":"cebpf4jnsgd1na2vs0mg"},{"bike_id":"a197a97c-83d3-4bde-8cc4-626e4420d3af","system_id":"levelo_inurba_marseille","lat":43.297913,"lon":5.393342,"is_reserved":false,"is_disabled":false,"rental_uris":{"android":"levelo://app?vid=a197a97c-83d3-4bde-8cc4-626e4420d3af","ios":"levelo://app?vid=a197a97c-83d3-4bde-8cc4-626e4420d3af"},"vehicle_type_id":"4","last_reported":1738876109,"current_range_meters":39200,"station_id":"chh1huq6cuj3fo74tm60","pricing_plan_id":"cebpf4jnsgd1na2vs0mg"},{"bike_id":"09a9ac53-cd06-4438-9a55-77242cbf0611","system_id":"levelo_inurba_marseille","lat":43.24184,"lon":5.39721,"is_reserved":false,"is_disabled":false,"rental_uris":{"android":"levelo://app?vid=09a9ac53-cd06-4438-9a55-77242cbf0611","ios":"levelo://app?vid=09a9ac53-cd06-4438-9a55-77242cbf0611"},"vehicle_type_id":"4","last_reported":1738876109,"current_range_meters":6400,"station_id":"ce4bhn12rcd13ifvqgpg","pricing_plan_id":"cebpf4jnsgd1na2vs0mg"},{"bike_id":"35930cea-1b67-4687-96dc-d097a09d3b39","system_id":"levelo_inurba_marseille","lat":43.2846,"lon":5.35871,"is_reserved":false,"is_disabled":false,"rental_uris":{"android":"levelo://app?vid=35930cea-1b67-4687-96dc-d097a09d3b39","ios":"levelo://app?vid=35930cea-1b67-4687-96dc-d097a09d3b39"},"vehicle_type_id":"4","last_reported":1738876109,"current_range_meters":3600,"station_id":"ce4bhah2rcd13ifvqei0","pricing_plan_id":"cebpf4jnsgd1na2vs0mg"},{"bike_id":"a84f4ed9-9752-4707-9517-860f878319ee","system_id":"levelo_inurba_marseille","lat":43.23961,"lon":5.36636,"is_reserved":false,"is_disabled":false,"rental_uris":{"android":"levelo://app?vid=a84f4ed9-9752-4707-9517-860f878319ee","ios":"levelo://app?vid=a84f4ed9-9752-4707-9517-860f878319ee"},"vehicle_type_id":"4","last_reported":1738876109,"current_range_meters":22800,"station_id":"ce4bhi12rcd13ifvqfp0","pricing_plan_id":"cebpf4jnsgd1na2vs0mg"},{"bike_id":"d9d46ce6-4774-42c1-9654-aadcbb4cdfbf","system_id":"levelo_inurba_marseille","lat":43.26546,"lon":5.37301,"is_reserved":false,"is_disabled":false,"rental_uris":{"android":"levelo://app?vid=d9d46ce6-4774-42c1-9654-aadcbb4cdfbf","ios":"levelo://app?vid=d9d46ce6-4774-42c1-9654-aadcbb4cdfbf"},"vehicle_type_id":"4","last_reported":1738876109,"current_range_meters":38400,"station_id":"ce4bhg12rcd13ifvqf70","pricing_plan_id":"cebpf4jnsgd1na2vs0mg"},{"bike_id":"c98dac74-8ef2-440f-bb69-0af2b3220a11","system_id":"levelo_inurba_marseille","lat":43.29838,"lon":5.36298,"is_reserved":false,"is_disabled":true,"rental_uris":{"android":"levelo://app?vid=c98dac74-8ef2-440f-bb69-0af2b3220a11","ios":"levelo://app?vid=c98dac74-8ef2-440f-bb69-0af2b3220a11"},"vehicle_type_id":"4","last_reported":1738876109,"current_range_meters":36800,"station_id":"ce4bgpp2rcd13ifvqc3g","pricing_plan_id":"cebpf4jnsgd1na2vs0mg"},{"bike_id":"e5174efd-1a7c-4fdb-b4af-6221476f31e1","system_id":"levelo_inurba_marseille","lat":43.28713,"lon":5.36135,"is_reserved":false,"is_disabled":false,"rental_uris":{"android":"levelo://app?vid=e5174efd-1a7c-4fdb-b4af-6221476f31e1","ios":"levelo://app?vid=e5174efd-1a7c-4fdb-b4af-6221476f31e1"},"vehicle_type_id":"4","last_reported":1738876109,"current_range_meters":27200,"station_id":"cki0cbj6b192h4jlfktg","pricing_plan_id":"cebpf4jnsgd1na2vs0mg"},{"bike_id":"f0ae8042-9c93-49df-858b-a0f2df7c0604","system_id":"levelo_inurba_marseille","lat":43.29043,"lon":5.39986,"is_reserved":false,"is_disabled":true,"rental_uris":{"android":"levelo://app?vid=f0ae8042-9c93-49df-858b-a0f2df7c0604","ios":"levelo://app?vid=f0ae8042-9c93-49df-858b-a0f2df7c0604"},"vehicle_type_id":"4","last_reported":1738876109,"current_range_meters":38000,"station_id":"ce4bh392rcd13ifvqdm0","pricing_plan_id":"cebpf4jnsgd1na2vs0mg"},{"bike_id":"fcdbb18e-f443-4be8-a446-f8efb19b4bab","system_id":"levelo_inurba_marseille","lat":43.30417,"lon":5.41281,"is_reserved":false,"is_disabled":false,"rental_uris":{"android":"levelo://app?vid=fcdbb18e-f443-4be8-a446-f8efb19b4bab","ios":"levelo://app?vid=fcdbb18e-f443-4be8-a446-f8efb19b4bab"},"vehicle_type_id":"4","last_reported":1738876109,"current_range_meters":34800,"station_id":"ce4bhop2rcd13ifvqh8g","pricing_plan_id":"cebpf4jnsgd1na2vs0mg"},{"bike_id":"a9fe8d5b-19fa-4d85-a071-0334e847aa21","system_id":"levelo_inurba_marseille","lat":43.31764,"lon":5.3901,"is_reserved":false,"is_disabled":false,"rental_uris":{"android":"levelo://app?vid=a9fe8d5b-19fa-4d85-a071-0334e847aa21","ios":"levelo://app?vid=a9fe8d5b-19fa-4d85-a071-0334e847aa21"},"vehicle_type_id":"4","last_reported":1738876109,"current_range_meters":39200,"station_id":"ce4bhqp2rcd13ifvqhng","pricing_plan_id":"cebpf4jnsgd1na2vs0mg"},{"bike_id":"fe146960-7d51-43a8-8d5f-97dd150b0e2d","system_id":"levelo_inurba_marseille","lat":43.26081,"lon":5.39376,"is_reserved":false,"is_disabled":false,"rental_uris":{"android":"levelo://app?vid=fe146960-7d51-43a8-8d5f-97dd150b0e2d","ios":"levelo://app?vid=fe146960-7d51-43a8-8d5f-97dd150b0e2d"},"vehicle_type_id":"4","last_reported":1738876109,"current_range_meters":38800,"station_id":"ce4bhh92rcd13ifvqfj0","pricing_plan_id":"cebpf4jnsgd1na2vs0mg"},{"bike_id":"8af372c0-a018-4ceb-b2e7-8858a72a1a67","system_id":"levelo_inurba_marseille","lat":43.29532,"lon":5.38548,"is_reserved":false,"is_disabled":false,"rental_uris":{"android":"levelo://app?vid=8af372c0-a018-4ceb-b2e7-8858a72a1a67","ios":"levelo://app?vid=8af372c0-a018-4ceb-b2e7-8858a72a1a67"},"vehicle_type_id":"4","last_reported":1738876109,"current_range_meters":29600,"station_id":"ce4bgih2rcd13ifvqba0","pricing_plan_id":"cebpf4jnsgd1na2vs0mg"},{"bike_id":"79eab85b-411d-47b7-ba8c-c70679ea549f","system_id":"levelo_inurba_marseille","lat":43.23179,"lon":5.39979,"is_reserved":false,"is_disabled":false,"rental_uris":{"android":"levelo://app?vid=79eab85b-411d-47b7-ba8c-c70679ea549f","ios":"levelo://app?vid=79eab85b-411d-47b7-ba8c-c70679ea549f"},"vehicle_type_id":"4","last_reported":1738876109,"current_range_meters":17600,"station_id":"ce4bhn12rcd13ifvqgqg","pricing_plan_id":"cebpf4jnsgd1na2vs0mg"},{"bike_id":"accf0567-c5f4-4ad0-aaba-dc54a8e9907d","system_id":"levelo_inurba_marseille","lat":43.32107,"lon":5.36779,"is_reserved":false,"is_disabled":false,"rental_uris":{"android":"levelo://app?vid=accf0567-c5f4-4ad0-aaba-dc54a8e9907d","ios":"levelo://app?vid=accf0567-c5f4-4ad0-aaba-dc54a8e9907d"},"vehicle_type_id":"4","last_reported":1738876109,"current_range_meters":16400,"station_id":"ce4bhrh2rcd13ifvqhug","pricing_plan_id":"cebpf4jnsgd1na2vs0mg"},{"bike_id":"4e77476a-6919-43c3-944f-515b052b9fa1","system_id":"levelo_inurba_marseille","lat":43.30332,"lon":5.40441,"is_reserved":false,"is_disabled":false,"rental_uris":{"android":"levelo://app?vid=4e77476a-6919-43c3-944f-515b052b9fa1","ios":"levelo://app?vid=4e77476a-6919-43c3-944f-515b052b9fa1"},"vehicle_type_id":"4","last_reported":1738876109,"current_range_meters":31200,"station_id":"ce4bh012rcd13ifvqd10","pricing_plan_id":"cebpf4jnsgd1na2vs0mg"},{"bike_id":"341067f4-d7ed-4f99-954f-691c64a92e97","system_id":"levelo_inurba_marseille","lat":43.23184,"lon":5.39989,"is_reserved":false,"is_disabled":false,"rental_uris":{"android":"levelo://app?vid=341067f4-d7ed-4f99-954f-691c64a92e97","ios":"levelo://app?vid=341067f4-d7ed-4f99-954f-691c64a92e97"},"vehicle_type_id":"4","last_reported":1738876109,"current_range_meters":16800,"station_id":"ce4bhn12rcd13ifvqgqg","pricing_plan_id":"cebpf4jnsgd1na2vs0mg"},{"bike_id":"0fe3222f-8b2d-4209-a4f2-ed9fbf102aea","system_id":"levelo_inurba_marseille","lat":43.24073,"lon":5.37802,"is_reserved":false,"is_disabled":false,"rental_uris":{"android":"levelo://app?vid=0fe3222f-8b2d-4209-a4f2-ed9fbf102aea","ios":"levelo://app?vid=0fe3222f-8b2d-4209-a4f2-ed9fbf102aea"},"vehicle_type_id":"4","last_reported":1738876109,"current_range_meters":20400,"station_id":"ce4bhnp2rcd13ifvqgvg","pricing_plan_id":"cebpf4jnsgd1na2vs0mg"},{"bike_id":"997261c2-3b19-4e05-94f0-b8c67ee981d2","system_id":"levelo_inurba_marseille","lat":43.28457,"lon":5.359,"is_reserved":false,"is_disabled":false,"rental_uris":{"android":"levelo://app?vid=997261c2-3b19-4e05-94f0-b8c67ee981d2","ios":"levelo://app?vid=997261c2-3b19-4e05-94f0-b8c67ee981d2"},"vehicle_type_id":"4","last_reported":1738876109,"current_range_meters":36000,"station_id":"ce4bhah2rcd13ifvqei0","pricing_plan_id":"cebpf4jnsgd1na2vs0mg"},{"bike_id":"67a94bdf-2921-4178-8376-19631f801fcd","system_id":"levelo_inurba_marseille","lat":43.30097,"lon":5.39091,"is_reserved":false,"is_disabled":false,"rental_uris":{"android":"levelo://app?vid=67a94bdf-2921-4178-8376-19631f801fcd","ios":"levelo://app?vid=67a94bdf-2921-4178-8376-19631f801fcd"},"vehicle_type_id":"4","last_reported":1738876109,"current_range_meters":13600,"station_id":"ce4bh192rcd13ifvqdb0","pricing_plan_id":"cebpf4jnsgd1na2vs0mg"},{"bike_id":"ca5e5713-0fde-40cf-99f1-b089dc6819fb","system_id":"levelo_inurba_marseille","lat":43.28112,"lon":5.37817,"is_reserved":false,"is_disabled":false,"rental_uris":{"android":"levelo://app?vid=ca5e5713-0fde-40cf-99f1-b089dc6819fb","ios":"levelo://app?vid=ca5e5713-0fde-40cf-99f1-b089dc6819fb"},"vehicle_type_id":"4","last_reported":1738876109,"current_range_meters":12000,"station_id":"ce4bha12rcd13ifvqee0","pricing_plan_id":"cebpf4jnsgd1na2vs0mg"},{"bike_id":"260422c2-7d80-4fdd-b849-070c42494f4e","system_id":"levelo_inurba_marseille","lat":43.31345,"lon":5.36717,"is_reserved":false,"is_disabled":false,"rental_uris":{"android":"levelo://app?vid=260422c2-7d80-4fdd-b849-070c42494f4e","ios":"levelo://app?vid=260422c2-7d80-4fdd-b849-070c42494f4e"},"vehicle_type_id":"4","last_reported":1738876109,"current_range_meters":22000,"station_id":"ce4bgr92rcd13ifvqc6g","pricing_plan_id":"cebpf4jnsgd1na2vs0mg"},{"bike_id":"d39a2685-ff1f-4a95-b7fe-802902b67914","system_id":"levelo_inurba_marseille","lat":43.32038,"lon":5.36846,"is_reserved":false,"is_disabled":false,"rental_uris":{"android":"levelo://app?vid=d39a2685-ff1f-4a95-b7fe-802902b67914","ios":"levelo://app?vid=d39a2685-ff1f-4a95-b7fe-802902b67914"},"vehicle_type_id":"4","last_reported":1738876109,"current_range_meters":27600,"station_id":"ce4bhrh2rcd13ifvqhug","pricing_plan_id":"cebpf4jnsgd1na2vs0mg"},{"bike_id":"ebab38b0-54b4-443c-a6da-0ba6239fb56a","system_id":"levelo_inurba_marseille","lat":43.28662,"lon":5.36347,"is_reserved":false,"is_disabled":false,"rental_uris":{"android":"levelo://app?vid=ebab38b0-54b4-443c-a6da-0ba6239fb56a","ios":"levelo://app?vid=ebab38b0-54b4-443c-a6da-0ba6239fb56a"},"vehicle_type_id":"4","last_reported":1738876109,"current_range_meters":22000,"station_id":"ce4bhah2rcd13ifvqej0","pricing_plan_id":"cebpf4jnsgd1na2vs0mg"},{"bike_id":"0ab57b8a-d6ed-411e-8a39-e198fab37e1b","system_id":"levelo_inurba_marseille","lat":43.32289,"lon":5.38254,"is_reserved":false,"is_disabled":false,"rental_uris":{"android":"levelo://app?vid=0ab57b8a-d6ed-411e-8a39-e198fab37e1b","ios":"levelo://app?vid=0ab57b8a-d6ed-411e-8a39-e198fab37e1b"},"vehicle_type_id":"4","last_reported":1738876109,"current_range_meters":33200,"station_id":"ce4bhr12rcd13ifvqhqg","pricing_plan_id":"cebpf4jnsgd1na2vs0mg"},{"bike_id":"6598a511-2288-435f-b0cf-a47dea92c964","system_id":"levelo_inurba_marseille","lat":43.28107,"lon":5.37855,"is_reserved":false,"is_disabled":false,"rental_uris":{"android":"levelo://app?vid=6598a511-2288-435f-b0cf-a47dea92c964","ios":"levelo://app?vid=6598a511-2288-435f-b0cf-a47dea92c964"},"vehicle_type_id":"4","last_reported":1738876109,"current_range_meters":38800,"station_id":"ce4bha12rcd13ifvqee0","pricing_plan_id":"cebpf4jnsgd1na2vs0mg"},{"bike_id":"b2ab4190-b5c2-446b-808e-67a3388ede4d","system_id":"levelo_inurba_marseille","lat":43.29788,"lon":5.37095,"is_reserved":false,"is_disabled":false,"rental_uris":{"android":"levelo://app?vid=b2ab4190-b5c2-446b-808e-67a3388ede4d","ios":"levelo://app?vid=b2ab4190-b5c2-446b-808e-67a3388ede4d"},"vehicle_type_id":"4","last_reported":1738876109,"current_range_meters":33600,"station_id":"ce4bgop2rcd13ifvqc1g","pricing_plan_id":"cebpf4jnsgd1na2vs0mg"},{"bike_id":"6dd1727c-dd98-486e-8273-a90c9e489ab5","system_id":"levelo_inurba_marseille","lat":43.27372,"lon":5.36254,"is_reserved":false,"is_disabled":false,"rental_uris":{"android":"levelo://app?vid=6dd1727c-dd98-486e-8273-a90c9e489ab5","ios":"levelo://app?vid=6dd1727c-dd98-486e-8273-a90c9e489ab5"},"vehicle_type_id":"4","last_reported":1738876109,"current_range_meters":6800,"station_id":"ce4bhbh2rcd13ifvqeo0","pricing_plan_id":"cebpf4jnsgd1na2vs0mg"},{"bike_id":"d9e1746e-fb35-4488-8bed-3a26bd5c5605","system_id":"levelo_inurba_marseille","lat":43.30261,"lon":5.39808,"is_reserved":false,"is_disabled":true,"rental_uris":{"android":"levelo://app?vid=d9e1746e-fb35-4488-8bed-3a26bd5c5605","ios":"levelo://app?vid=d9e1746e-fb35-4488-8bed-3a26bd5c5605"},"vehicle_type_id":"4","last_reported":1738876109,"current_range_meters":0,"station_id":"","pricing_plan_id":"cebpf4jnsgd1na2vs0mg"},