{"last_updated":1708286856,"ttl":30,"version":"2.2","data":{"bikes":[{"bike_id":"b792942d-07e5-4a3a-8fa8-0962e743e2e0","system_id":"levelo_inurba_marseille","lat":43.31342,"lon":5.36722,"is_reserved":false,"is_disabled":false,"rental_uris":{"android":"levelo://app?vid=b792942d-07e5-4a3a-8fa8-0962e743e2e0","ios":"levelo://app?vid=b792942d-07e5-4a3a-8fa8-0962e743e2e0"},"vehicle_type_id":"4","last_reported":1708286856,"current_range_meters":20000,"station_id":"","pricing_plan_id":"cebpf4jnsgd1na2vs0mg"},{"bike_id":"0f9e157c-0e2e-4258-a473-7675ac97f3cd","system_id":"levelo_inurba_marseille","lat":43.313391,"lon":5.36706,"is_reserved":false,"is_disabled":false,"rental_uris":{"android":"levelo://app?vid=0f9e157c-0e2e-4258-a473-7675ac97f3cd","ios":"levelo://app?vid=0f9e157c-0e2e-4258-a473-7675ac97f3cd"},"vehicle_type_id":"4","last_reported":1708286856,"current_range_meters":8800,"station_id":"ce4bgr92rcd13ifvqc6g","pricing_plan_id":"cebpf4jnsgd1na2vs0mg"},{"bike_id":"dd89cb1f-292d-4f11-bc63-eebfcc749423","system_id":"levelo_inurba_marseille","lat":43.312239,"lon":5.368562,"is_reserved":false,"is_disabled":false,"rental_uris":{"android":"levelo://app?vid=dd89cb1f-292d-4f11-bc63-eebfcc749423","ios":"levelo://app?vid=dd89cb1f-292d-4f11-bc63-eebfcc749423"},"vehicle_type_id":"4","last_reported":1708286856,"current_range_meters":26400,"station_id":"ce4bgl92rcd13ifvqbq0","pricing_plan_id":"cebpf4jnsgd1na2vs0mg"},{"bike_id":"98bc18b7-68e5-4ae8-ae7f-8fc044360e85","system_id":"levelo_inurba_marseille","lat":43.287184,"lon":5.37937,"is_reserved":false,"is_disabled":false,"rental_uris":{"android":"levelo://app?vid=98bc18b7-68e5-4ae8-ae7f-8fc044360e85","ios":"levelo://app?vid=98bc18b7-68e5-4ae8-ae7f-8fc044360e85"},"vehicle_type_id":"4","last_reported":1708286856,"current_range_meters":10400,"station_id":"ce4bh9p2rcd13ifvqec0","pricing_plan_id":"cebpf4jnsgd1na2vs0mg"},{"bike_id":"5d5abc25-42cf-4b02-a2da-5f842956c23d","system_id":"levelo_inurba_marseille","lat":43.309076,"lon":5.368465,"is_reserved":false,"is_disabled":false,"rental_uris":{"android":"levelo://app?vid=5d5abc25-42cf-4b02-a2da-5f842956c23d","ios":"levelo://app?vid=5d5abc25-42cf-4b02-a2da-5f842956c23d"},"vehicle_type_id":"4","last_reported":1708286856,"current_range_meters":18400,"station_id":"ce4bgn92rcd13ifvqbvg","pricing_plan_id":"cebpf4jnsgd1na2vs0mg"},{"bike_id":"6e290d04-d291-4e79-8d06-19d552164b14","system_id":"levelo_inurba_marseille","lat":43.314811,"lon":5.373103,"is_reserved":false,"is_disabled":false,"rental_uris":{"android":"levelo://app?vid=6e290d04-d291-4e79-8d06-19d552164b14","ios":"levelo://app?vid=6e290d04-d291-4e79-8d06-19d552164b14"},"vehicle_type_id":"4","last_reported":1708286856,"current_range_meters":28400,"station_id":"ce4bgt12rcd13ifvqcd0","pricing_plan_id":"cebpf4jnsgd1na2vs0mg"},{"bike_id":"8eab3939-a5af-4eca-9e76-a76a66817947","system_id":"levelo_inurba_marseille","lat":43.314811,"lon":5.373103,"is_reserved":false,"is_disabled":false,"rental_uris":{"android":"levelo://app?vid=8eab3939-a5af-4eca-9e76-a76a66817947","ios":"levelo://app?vid=8eab3939-a5af-4eca-9e76-a76a66817947"},"vehicle_type_id":"4","last_reported":1708286856,"current_range_meters":26400,"station_id":"ce4bgt12rcd13ifvqcd0","pricing_plan_id":"cebpf4jnsgd1na2vs0mg"},{"bike_id":"f00dd2b9-25b3-47d8-aa82-ee225f5bbd2d","system_id":"levelo_inurba_marseille","lat":43.314811,"lon":5.373104,"is_reserved":false,"is_disabled":false,"rental_uris":{"android":"levelo://app?vid=f00dd2b9-25b3-47d8-aa82-ee225f5bbd2d","ios":"levelo://app?vid=f00dd2b9-25b3-47d8-aa82-ee225f5bbd2d"},"vehicle_type_id":"4","last_reported":1708286856,"current_range_meters":5200,"station_id":"ce4bgt12rcd13ifvqcd0","pricing_plan_id":"cebpf4jnsgd1na2vs0mg"},{"bike_id":"59d69e69-448f-425a-8663-bdab46ceb548","system_id":"levelo_inurba_marseille","lat":43.309039,"lon":5.371797,"is_reserved":false,"is_disabled":false,"rental_uris":{"android":"levelo://app?vid=59d69e69-448f-425a-8663-bdab46ceb548","ios":"levelo://app?vid=59d69e69-448f-425a-8663-bdab46ceb548"},"vehicle_type_id":"4","last_reported":1708286856,"current_range_meters":22800,"station_id":"ce4bguh2rcd13ifvqckg","pricing_plan_id":"cebpf4jnsgd1na2vs0mg"},{"bike_id":"20337017-ba83-49e6-882a-4ea4d31efdbb","system_id":"levelo_inurba_marseille","lat":43.30603,"lon":5.37223,"is_reserved":false,"is_disabled":false,"rental_uris":{"android":"levelo://app?vid=20337017-ba83-49e6-882a-4ea4d31efdbb","ios":"levelo://app?vid=20337017-ba83-49e6-882a-4ea4d31efdbb"},"vehicle_type_id":"4","last_reported":1708286856,"current_range_meters":400,"station_id":"ce4bgqh2rcd13ifvqc4g","pricing_plan_id":"cebpf4jnsgd1na2vs0mg"},{"bike_id":"462ba142-964c-4a98-ba70-95a87975492c","system_id":"levelo_inurba_marseille","lat":43.30596,"lon":5.372127,"is_reserved":false,"is_disabled":false,"rental_uris":{"android":"levelo://app?vid=462ba142-964c-4a98-ba70-95a87975492c","ios":"levelo://app?vid=462ba142-964c-4a98-ba70-95a87975492c"},"vehicle_type_id":"4","last_reported":1708286856,"current_range_meters":14400,"station_id":"ce4bgqh2rcd13ifvqc4g","pricing_plan_id":"cebpf4jnsgd1na2vs0mg"},{"bike_id":"320bc0df-8502-4ea6-9242-d4846fe450ae","system_id":"levelo_inurba_marseille","lat":43.30591,"lon":5.37212,"is_reserved":false,"is_disabled":false,"rental_uris":{"android":"levelo://app?vid=320bc0df-8502-4ea6-9242-d4846fe450ae","ios":"levelo://app?vid=320bc0df-8502-4ea6-9242-d4846fe450ae"},"vehicle_type_id":"4","last_reported":1708286856,"current_range_meters":7600,"station_id":"ce4bgqh2rcd13ifvqc4g","pricing_plan_id":"cebpf4jnsgd1na2vs0mg"},{"bike_id":"80718497-eca4-4ad1-9e81-0ed7a776bd41","system_id":"levelo_inurba_marseille","lat":43.30594,"lon":5.37222,"is_reserved":false,"is_disabled":false,"rental_uris":{"android":"levelo://app?vid=80718497-eca4-4ad1-9e81-0ed7a776bd41","ios":"levelo://app?vid=80718497-eca4-4ad1-9e81-0ed7a776bd41"},"vehicle_type_id":"4","last_reported":1708286856,"current_range_meters":0,"station_id":"ce4bgqh2rcd13ifvqc4g","pricing_plan_id":"cebpf4jnsgd1na2vs0mg"},{"bike_id":"28bd167e-1ee4-4f58-a39c-d8547d4f18ac","system_id":"levelo_inurba_marseille","lat":43.31114,"lon":5.37764,"is_reserved":false,"is_disabled":false,"rental_uris":{"android":"levelo://app?vid=28bd167e-1ee4-4f58-a39c-d8547d4f18ac","ios":"levelo://app?vid=28bd167e-1ee4-4f58-a39c-d8547d4f18ac"},"vehicle_type_id":"4","last_reported":1708286856,"current_range_meters":0,"station_id":"ce4bgt92rcd13ifvqcg0","pricing_plan_id":"cebpf4jnsgd1na2vs0mg"},{"bike_id":"cbf17c25-1179-4bb8-b054-53a4be28a506","system_id":"levelo_inurba_marseille","lat":43.311125,"lon":5.377624,"is_reserved":false,"is_disabled":false,"rental_uris":{"android":"levelo://app?vid=cbf17c25-1179-4bb8-b054-53a4be28a506","ios":"levelo://app?vid=cbf17c25-1179-4bb8-b054-53a4be28a506"},"vehicle_type_id":"4","last_reported":1708286856,"current_range_meters":6400,"station_id":"ce4bgt92rcd13ifvqcg0","pricing_plan_id":"cebpf4jnsgd1na2vs0mg"},{"bike_id":"dcfcdf94-5c41-4300-952b-109d34c74f12","system_id":"levelo_inurba_marseille","lat":43.31121,"lon":5.37778,"is_reserved":false,"is_disabled":false,"rental_uris":{"android":"levelo://app?vid=dcfcdf94-5c41-4300-952b-109d34c74f12","ios":"levelo://app?vid=dcfcdf94-5c41-4300-952b-109d34c74f12"},"vehicle_type_id":"4","last_reported":1708286856,"current_range_meters":0,"station_id":"ce4bgt92rcd13ifvqcg0","pricing_plan_id":"cebpf4jnsgd1na2vs0mg"},{"bike_id":"2974e7ba-618c-4e7d-9da8-71314bd4338b","system_id":"levelo_inurba_marseille","lat":43.311131,"lon":5.377651,"is_reserved":false,"is_disabled":false,"rental_uris":{"android":"levelo://app?vid=2974e7ba-618c-4e7d-9da8-71314bd4338b","ios":"levelo://app?vid=2974e7ba-618c-4e7d-9da8-71314bd4338b"},"vehicle_type_id":"4","last_reported":1708286856,"current_range_meters":0,"station_id":"ce4bgt92rcd13ifvqcg0","pricing_plan_id":"cebpf4jnsgd1na2vs0mg"},{"bike_id":"d631fea2-840d-4df6-946a-a1d835c50c88","system_id":"levelo_inurba_marseille","lat":43.31647,"lon":5.37678,"is_reserved":false,"is_disabled":false,"rental_uris":{"android":"levelo://app?vid=d631fea2-840d-4df6-946a-a1d835c50c88","ios":"levelo://app?vid=d631fea2-840d-4df6-946a-a1d835c50c88"},"vehicle_type_id":"4","last_reported":1708286856,"current_range_meters":1600,"station_id":"","pricing_plan_id":"cebpf4jnsgd1na2vs0mg"},{"bike_id":"92a41111-3e24-4b9d-b0ed-484bc1b5e64d","system_id":"levelo_inurba_marseille","lat":43.307945,"lon":5.376487,"is_reserved":false,"is_disabled":false,"rental_uris":{"android":"levelo://app?vid=92a41111-3e24-4b9d-b0ed-484bc1b5e64d","ios":"levelo://app?vid=92a41111-3e24-4b9d-b0ed-484bc1b5e64d"},"vehicle_type_id":"4","last_reported":1708286856,"current_range_meters":0,"station_id":"ce4bgv92rcd13ifvqcq0","pricing_plan_id":"cebpf4jnsgd1na2vs0mg"},{"bike_id":"0b4a8a91-d210-49a2-b1a9-2b71e0bb1916","system_id":"levelo_inurba_marseille","lat":43.307945,"lon":5.376487,"is_reserved":false,"is_disabled":false,"rental_uris":{"android":"levelo://app?vid=0b4a8a91-d210-49a2-b1a9-2b71e0bb1916","ios":"levelo://app?vid=0b4a8a91-d210-49a2-b1a9-2b71e0bb1916"},"vehicle_type_id":"4","last_reported":1708286856,"current_range_meters":13200,"station_id":"ce4bgv92rcd13ifvqcq0","pricing_plan_id":"cebpf4jnsgd1na2vs0mg"},{"bike_id":"f859dc8a-8daa-4d89-a097-0dc870b2e915","system_id":"levelo_inurba_marseille","lat":43.307945,"lon":5.376487,"is_reserved":false,"is_disabled":false,"rental_uris":{"android":"levelo://app?vid=f859dc8a-8daa-4d89-a097-0dc870b2e915","ios":"levelo://app?vid=f859dc8a-8daa-4d89-a097-0dc870b2e915"},"vehicle_type_id":"4","last_reported":1708286856,"current_range_meters":24400,"station_id":"ce4bgv92rcd13ifvqcq0","pricing_plan_id":"cebpf4jnsgd1na2vs0mg"},{"bike_id":"b1050052-f134-4809-8bab-e9298aaae57e","system_id":"levelo_inurba_marseille","lat":43.307945,"lon":5.376487,"is_reserved":false,"is_disabled":false,"rental_uris":{"android":"levelo://app?vid=b1050052-f134-4809-8bab-e9298aaae57e","ios":"levelo://app?vid=b1050052-f134-4809-8bab-e9298aaae57e"},"vehicle_type_id":"4","last_reported":1708286856,"current_range_meters":13200,"station_id":"ce4bgv92rcd13ifvqcq0","pricing_plan_id":"cebpf4jnsgd1na2vs0mg"},{"bike_id":"79af3640-9447-4a4f-a83c-1f7273883e65","system_id":"levelo_inurba_marseille","lat":43.3169,"lon":5.37735,"is_reserved":false,"is_disabled":false,"rental_uris":{"android":"levelo://app?vid=79af3640-9447-4a4f-a83c-1f7273883e65","ios":"levelo://app?vid=79af3640-9447-4a4f-a83c-1f7273883e65"},"vehicle_type_id":"4","last_reported":1708286856,"current_range_meters":6000,"station_id":"ce4bgth2rcd13ifvqch0","pricing_plan_id":"cebpf4jnsgd1na2vs0mg"},{"bike_id":"be5dbcdc-1f10-45a5-b004-90b2e2708f05","system_id":"levelo_inurba_marseille","lat":43.317075,"lon":5.377367,"is_reserved":false,"is_disabled":false,"rental_uris":{"android":"levelo://app?vid=be5dbcdc-1f10-45a5-b004-90b2e2708f05","ios":"levelo://app?vid=be5dbcdc-1f10-45a5-b004-90b2e2708f05"},"vehicle_type_id":"4","last_reported":1708286856,"current_range_meters":400,"station_id":"ce4bgth2rcd13ifvqch0","pricing_plan_id":"cebpf4jnsgd1na2vs0mg"},{"bike_id":"e93332c8-71cb-4a70-a2cb-8dae89f30527","system_id":"levelo_inurba_marseille","lat":43.317075,"lon":5.377367,"is_reserved":false,"is_disabled":false,"rental_uris":{"android":"levelo://app?vid=e93332c8-71cb-4a70-a2cb-8dae89f30527","ios":"levelo://app?vid=e93332c8-71cb-4a70-a2cb-8dae89f30527"},"vehicle_type_id":"4","last_reported":1708286856,"current_range_meters":26400,"station_id":"ce4bgth2rcd13ifvqch0","pricing_plan_id":"cebpf4jnsgd1na2vs0mg"},{"bike_id":"132a5aa7-f33d-49fc-b763-521379347f8a","system_id":"levelo_inurba_marseille","lat":43.317075,"lon":5.377367,"is_reserved":false,"is_disabled":false,"rental_uris":{"android":"levelo://app?vid=132a5aa7-f33d-49fc-b763-521379347f8a","ios":"levelo://app?vid=132a5aa7-f33d-49fc-b763-521379347f8a"},"vehicle_type_id":"4","last_reported":1708286856,"current_range_meters":4000,"station_id":"ce4bgth2rcd13ifvqch0","pricing_plan_id":"cebpf4jnsgd1na2vs0mg"},{"bike_id":"c7537840-3eeb-45e1-9d3c-0392e9fc5d64","system_id":"levelo_inurba_marseille","lat":43.315293,"lon":5.380349,"is_reserved":false,"is_disabled":false,"rental_uris":{"android":"levelo://app?vid=c7537840-3eeb-45e1-9d3c-0392e9fc5d64","ios":"levelo://app?vid=c7537840-3eeb-45e1-9d3c-0392e9fc5d64"},"vehicle_type_id":"4","last_reported":1708286856,"current_range_meters":17200,"station_id":"ce4bhsp2rcd13ifvqi50","pricing_plan_id":"cebpf4jnsgd1na2vs0mg"},{"bike_id":"67fffebf-859b-4ad0-9489-3d29aca9b491","system_id":"levelo_inurba_marseille","lat":43.31711,"lon":5.37749,"is_reserved":false,"is_disabled":false,"rental_uris":{"android":"levelo://app?vid=67fffebf-859b-4ad0-9489-3d29aca9b491","ios":"levelo://app?vid=67fffebf-859b-4ad0-9489-3d29aca9b491"},"vehicle_type_id":"4","last_reported":1708286856,"current_range_meters":0,"station_id":"ce4bgth2rcd13ifvqch0","pricing_plan_id":"cebpf4jnsgd1na2vs0mg"},{"bike_id":"df5bf416-a9f9-4be7-8c25-237c40cc2bb2","system_id":"levelo_inurba_marseille","lat":43.30388,"lon":5.36707,"is_reserved":false,"is_disabled":false,"rental_uris":{"android":"levelo://app?vid=df5bf416-a9f9-4be7-8c25-237c40cc2bb2","ios":"levelo://app?vid=df5bf416-a9f9-4be7-8c25-237c40cc2bb2"},"vehicle_type_id":"4","last_reported":1708286856,"current_range_meters":9200,"station_id":"","pricing_plan_id":"cebpf4jnsgd1na2vs0mg"},{"bike_id":"fb8f1858-cc33-494f-89ec-fc926b4a9402","system_id":"levelo_inurba_marseille","lat":43.30756,"lon":5.37697,"is_reserved":false,"is_disabled":false,"rental_uris":{"android":"levelo://app?vid=fb8f1858-cc33-494f-89ec-fc926b4a9402","ios":"levelo://app?vid=fb8f1858-cc33-494f-89ec-fc926b4a9402"},"vehicle_type_id":"4","last_reported":1708286856,"current_range_meters":0,"station_id":"","pricing_plan_id":"cebpf4jnsgd1na2vs0mg"},{"bike_id":"3763d817-decc-4c5c-aff6-f2f81539685a","system_id":"levelo_inurba_marseille","lat":43.301939,"lon":5.366286,"is_reserved":false,"is_disabled":false,"rental_uris":{"android":"levelo://app?vid=3763d817-decc-4c5c-aff6-f2f81539685a","ios":"levelo://app?vid=3763d817-decc-4c5c-aff6-f2f81539685a"},"vehicle_type_id":"4","last_reported":1708286856,"current_range_meters":22400,"station_id":"ce4bgrh2rcd13ifvqc8g","pricing_plan_id":"cebpf4jnsgd1na2vs0mg"},{"bike_id":"82c9e457-3d70-4112-9b2f-2f487a7ba077","system_id":"levelo_inurba_marseille","lat":43.301939,"lon":5.366286,"is_reserved":false,"is_disabled":false,"rental_uris":{"android":"levelo://app?vid=82c9e457-3d70-4112-9b2f-2f487a7ba077","ios":"levelo://app?vid=82c9e457-3d70-4112-9b2f-2f487a7ba077"},"vehicle_type_id":"4","last_reported":1708286856,"current_range_meters":17600,"station_id":"ce4bgrh2rcd13ifvqc8g","pricing_plan_id":"cebpf4jnsgd1na2vs0mg"},{"bike_id":"b01b8e90-efa5-49bf-9e36-82ad60270514","system_id":"levelo_inurba_marseille","lat":43.30798,"lon":5.38146,"is_reserved":false,"is_disabled":false,"rental_uris":{"android":"levelo://app?vid=b01b8e90-efa5-49bf-9e36-82ad60270514","ios":"levelo://app?vid=b01b8e90-efa5-49bf-9e36-82ad60270514"},"vehicle_type_id":"4","last_reported":1708286856,"current_range_meters":0,"station_id":"ce4bgt12rcd13ifvqce0","pricing_plan_id":"cebpf4jnsgd1na2vs0mg"},{"bike_id":"8950e754-8b6b-4556-9fc8-6a36bd61d137","system_id":"levelo_inurba_marseille","lat":43.308012,"lon":5.381511,"is_reserved":false,"is_disabled":false,"rental_uris":{"android":"levelo://app?vid=8950e754-8b6b-4556-9fc8-6a36bd61d137","ios":"levelo://app?vid=8950e754-8b6b-4556-9fc8-6a36bd61d137"},"vehicle_type_id":"4","last_reported":1708286856,"current_range_meters":800,"station_id":"ce4bgt12rcd13ifvqce0","pricing_plan_id":"cebpf4jnsgd1na2vs0mg"},{"bike_id":"39da948e-afb3-47bb-918d-c77c21b86523","system_id":"levelo_inurba_marseille","lat":43.30796,"lon":5.38152,"is_reserved":false,"is_disabled":false,"rental_uris":{"android":"levelo://app?vid=39da948e-afb3-47bb-918d-c77c21b86523","ios":"levelo://app?vid=39da948e-afb3-47bb-918d-c77c21b86523"},"vehicle_type_id":"4","last_reported":1708286856,"current_range_meters":17200,"station_id":"ce4bgt12rcd13ifvqce0","pricing_plan_id":"cebpf4jnsgd1na2vs0mg"},{"bike_id":"333b58e4-5751-4135-88e9-c056690d23f6","system_id":"levelo_inurba_marseille","lat":43.308012,"lon":5.381511,"is_reserved":false,"is_disabled":false,"rental_uris":{"android":"levelo://app?vid=333b58e4-5751-4135-88e9-c056690d23f6","ios":"levelo://app?vid=333b58e4-5751-4135-88e9-c056690d23f6"},"vehicle_type_id":"4","last_reported":1708286856,"current_range_meters":9600,"station_id":"ce4bgt12rcd13ifvqce0","pricing_plan_id":"cebpf4jnsgd1na2vs0mg"},{"bike_id":"7d085b4b-52ea-45ab-862b-a224c617378c","system_id":"levelo_inurba_marseille","lat":43.308003,"lon":5.381739,"is_reserved":false,"is_disabled":false,"rental_uris":{"android":"levelo://app?vid=7d085b4b-52ea-45ab-862b-a224c617378c","ios":"levelo://app?vid=7d085b4b-52ea-45ab-862b-a224c617378c"},"vehicle_type_id":"4","last_reported":1708286856,"current_range_meters":8000,"station_id":"ce4bgt12rcd13ifvqce0","pricing_plan_id":"cebpf4jnsgd1na2vs0mg"},{"bike_id":"7c66a11a-bea8-4a2a-98be-7794b214389b","system_id":"levelo_inurba_marseille","lat":43.324771,"lon":5.36557,"is_reserved":false,"is_disabled":false,"rental_uris":{"android":"levelo://app?vid=7c66a11a-bea8-4a2a-98be-7794b214389b","ios":"levelo://app?vid=7c66a11a-bea8-4a2a-98be-7794b214389b"},"vehicle_type_id":"4","last_reported":1708286856,"current_range_meters":4400,"station_id":"ce4bhs12rcd13ifvqhvg","pricing_plan_id":"cebpf4jnsgd1na2vs0mg"},{"bike_id":"52c7d0c2-438e-4f7d-9db4-ea70d4682f97","system_id":"levelo_inurba_marseille","lat":43.324771,"lon":5.36557,"is_reserved":false,"is_disabled":false,"rental_uris":{"android":"levelo://app?vid=52c7d0c2-438e-4f7d-9db4-ea70d4682f97","ios":"levelo://app?vid=52c7d0c2-438e-4f7d-9db4-ea70d4682f97"},"vehicle_type_id":"4","last_reported":1708286856,"current_range_meters":6400,"station_id":"ce4bhs12rcd13ifvqhvg","pricing_plan_id":"cebpf4jnsgd1na2vs0mg"},{"bike_id":"63bc16d4-b7f9-4b45-a0c3-b9a2c2b94897","system_id":"levelo_inurba_marseille","lat":43.324771,"lon":5.36557,"is_reserved":false,"is_disabled":false,"rental_uris":{"android":"levelo://app?vid=63bc16d4-b7f9-4b45-a0c3-b9a2c2b94897","ios":"levelo://app?vid=63bc16d4-b7f9-4b45-a0c3-b9a2c2b94897"},"vehicle_type_id":"4","last_reported":1708286856,"current_range_meters":21200,"station_id":"ce4bhs12rcd13ifvqhvg","pricing_plan_id":"cebpf4jnsgd1na2vs0mg"},{"bike_id":"7e07d9f0-518c-47cd-8d7e-779f7373efdf","system_id":"levelo_inurba_marseille","lat":43.310804,"lon":5.38359,"is_reserved":false,"is_disabled":false,"rental_uris":{"android":"levelo://app?vid=7e07d9f0-518c-47cd-8d7e-779f7373efdf","ios":"levelo://app?vid=7e07d9f0-518c-47cd-8d7e-779f7373efdf"},"vehicle_type_id":"4","last_reported":1708286856,"current_range_meters":5200,"station_id":"ce4bgv92rcd13ifvqcr0","pricing_plan_id":"cebpf4jnsgd1na2vs0mg"},{"bike_id":"2961e93e-d0d3-44db-9cd3-01acedcfaedb","system_id":"levelo_inurba_marseille","lat":43.310804,"lon":5.38359,"is_reserved":false,"is_disabled":false,"rental_uris":{"android":"levelo://app?vid=2961e93e-d0d3-44db-9cd3-01acedcfaedb","ios":"levelo://app?vid=2961e93e-d0d3-44db-9cd3-01acedcfaedb"},"vehicle_type_id":"4","last_reported":1708286856,"current_range_meters":22800,"station_id":"ce4bgv92rcd13ifvqcr0","pricing_plan_id":"cebpf4jnsgd1na2vs0mg"},{"bike_id":"79246f7a-0996-44f2-8a61-32d0d02b8ca8","system_id":"levelo_inurba_marseille","lat":43.310804,"lon":5.38359,"is_reserved":false,"is_disabled":false,"rental_uris":{"android":"levelo://app?vid=79246f7a-0996-44f2-8a61-32d0d02b8ca8","ios":"levelo://app?vid=79246f7a-0996-44f2-8a61-32d0d02b8ca8"},"vehicle_type_id":"4","last_reported":1708286856,"current_range_meters":29200,"station_id":"ce4bgv92rcd13ifvqcr0","pricing_plan_id":"cebpf4jnsgd1na2vs0mg"},{"bike_id":"ec38d52e-cabb-4454-9b83-29a325c29080","system_id":"levelo_inurba_marseille","lat":43.302754,"lon":5.377024,"is_reserved":false,"is_disabled":false,"rental_uris":{"android":"levelo://app?vid=ec38d52e-cabb-4454-9b83-29a325c29080","ios":"levelo://app?vid=ec38d52e-cabb-4454-9b83-29a325c29080"},"vehicle_type_id":"4","last_reported":1708286856,"current_range_meters":22800,"station_id":"ce4bguh2rcd13ifvqcj0","pricing_plan_id":"cebpf4jnsgd1na2vs0mg"},{"bike_id":"8a1e1ba6-ca49-41e3-a4ed-b7a5ab030137","system_id":"levelo_inurba_marseille","lat":43.30278,"lon":5.377073,"is_reserved":false,"is_disabled":false,"rental_uris":{"android":"levelo://app?vid=8a1e1ba6-ca49-41e3-a4ed-b7a5ab030137","ios":"levelo://app?vid=8a1e1ba6-ca49-41e3-a4ed-b7a5ab030137"},"vehicle_type_id":"4","last_reported":1708286856,"current_range_meters":800,"station_id":"ce4bguh2rcd13ifvqcj0","pricing_plan_id":"cebpf4jnsgd1na2vs0mg"},{"bike_id":"647719a5-6647-4346-bba1-b0fbeaa2bf82","system_id":"levelo_inurba_marseille","lat":43.301429,"lon":5.37413,"is_reserved":false,"is_disabled":false,"rental_uris":{"android":"levelo://app?vid=647719a5-6647-4346-bba1-b0fbeaa2bf82","ios":"levelo://app?vid=647719a5-6647-4346-bba1-b0fbeaa2bf82"},"vehicle_type_id":"4","last_reported":1708286856,"current_range_meters":25200,"station_id":"ce4bgs92rcd13ifvqcc0","pricing_plan_id":"cebpf4jnsgd1na2vs0mg"},{"bike_id":"aea83eeb-894e-4e64-af9e-5913ba8f4a55","system_id":"levelo_inurba_marseille","lat":43.320025,"lon":5.3816,"is_reserved":false,"is_disabled":false,"rental_uris":{"android":"levelo://app?vid=aea83eeb-894e-4e64-af9e-5913ba8f4a55","ios":"levelo://app?vid=aea83eeb-894e-4e64-af9e-5913ba8f4a55"},"vehicle_type_id":"4","last_reported":1708286856,"current_range_meters":0,"station_id":"ce4bhr12rcd13ifvqhpg","pricing_plan_id":"cebpf4jnsgd1na2vs0mg"},{"bike_id":"302c7f55-10a5-4035-84c8-ef4e10135502","system_id":"levelo_inurba_marseille","lat":43.31997,"lon":5.38166,"is_reserved":false,"is_disabled":false,"rental_uris":{"android":"levelo://app?vid=302c7f55-10a5-4035-84c8-ef4e10135502","ios":"levelo://app?vid=302c7f55-10a5-4035-84c8-ef4e10135502"},"vehicle_type_id":"4","last_reported":1708286856,"current_range_meters":10800,"station_id":"","pricing_plan_id":"cebpf4jnsgd1na2vs0mg"},{"bike_id":"e40b3f68-8e3c-4f91-8cd0-7544cbb7161f","system_id":"levelo_inurba_marseille","lat":43.31362,"lon":5.38494,"is_reserved":false,"is_disabled":false,"rental_uris":{"android":"levelo://app?vid=e40b3f68-8e3c-4f91-8cd0-7544cbb7161f","ios":"levelo://app?vid=e40b3f68-8e3c-4f91-8cd0-7544cbb7161f"},"vehicle_type_id":"4","last_reported":1708286856,"current_range_meters":0,"station_id":"ce4bgt92rcd13ifvqcf0","pricing_plan_id":"cebpf4jnsgd1na2vs0mg"},{"bike_id":"7234e1ac-a40e-4dff-92c3-42fd39a6a833","system_id":"levelo_inurba_marseille","lat":43.313571,"lon":5.384829,"is_reserved":false,"is_disabled":false,"rental_uris":{"android":"levelo://app?vid=7234e1ac-a40e-4dff-92c3-42fd39a6a833","ios":"levelo://app?vid=7234e1ac-a40e-4dff-92c3-42fd39a6a833"},"vehicle_type_id":"4","last_reported":1708286856,"current_range_meters":27200,"station_id":"ce4bgt92rcd13ifvqcf0","pricing_plan_id":"cebpf4jnsgd1na2vs0mg"},{"bike_id":"ce985ac4-1ea6-4db8-bb44-20a72c153fb9","system_id":"levelo_inurba_marseille","lat":43.313571,"lon":5.384829,"is_reserved":false,"is_disabled":false,"rental_uris":{"android":"levelo://app?vid=ce985ac4-1ea6-4db8-bb44-20a72c153fb9","ios":"levelo://app?vid=ce985ac4-1ea6-4db8-bb44-20a72c153fb9"},"vehicle_type_id":"4","last_reported":1708286856,"current_range_meters":22400,"station_id":"ce4bgt92rcd13ifvqcf0","pricing_plan_id":"cebpf4jnsgd1na2vs0mg"},{"bike_id":"6f63ba89-bfea-4d79-9490-b0d84cfdf7a5","system_id":"levelo_inurba_marseille","lat":43.313571,"lon":5.384829,"is_reserved":false,"is_disabled":false,"rental_uris":{"android":"levelo://app?vid=6f63ba89-bfea-4d79-9490-b0d84cfdf7a5","ios":"levelo://app?vid=6f63ba89-bfea-4d79-9490-b0d84cfdf7a5"},"vehicle_type_id":"4","last_reported":1708286856,"current_range_meters":11600,"station_id":"ce4bgt92rcd13ifvqcf0","pricing_plan_id":"cebpf4jnsgd1na2vs0mg"},{"bike_id":"81c36687-74fd-4dfe-88a9-30804d6a6091","system_id":"levelo_inurba_marseille","lat":43.299826,"lon":5.371859,"is_reserved":false,"is_disabled":false,"rental_uris":{"android":"levelo://app?vid=81c36687-74fd-4dfe-88a9-30804d6a6091","ios":"levelo://app?vid=81c36687-74fd-4dfe-88a9-30804d6a6091"},"vehicle_type_id":"4","last_reported":1708286856,"current_range_meters":30800,"station_id":"","pricing_plan_id":"cebpf4jnsgd1na2vs0mg"},{"bike_id":"4fbf49db-2218-4a00-97a4-1e1772d95a5e","system_id":"levelo_inurba_marseille","lat":43.299222,"lon":5.365554,"is_reserved":false,"is_disabled":false,"rental_uris":{"android":"levelo://app?vid=4fbf49db-2218-4a00-97a4-1e1772d95a5e","ios":"levelo://app?vid=4fbf49db-2218-4a00-97a4-1e1772d95a5e"},"vehicle_type_id":"4","last_reported":1708286856,"current_range_meters":21200,"station_id":"ce4bgm92rcd13ifvqbr0","pricing_plan_id":"cebpf4jnsgd1na2vs0mg"},{"bike_id":"31a27762-6fb4-4490-903c-e475a879dcf3","system_id":"levelo_inurba_marseille","lat":43.299724,"lon":5.371829,"is_reserved":false,"is_disabled":false,"rental_uris":{"android":"levelo://app?vid=31a27762-6fb4-4490-903c-e475a879dcf3","ios":"levelo://app?vid=31a27762-6fb4-4490-903c-e475a879dcf3"},"vehicle_type_id":"4","last_reported":1708286856,"current_range_meters":0,"station_id":"ce4bgr92rcd13ifvqc7g","pricing_plan_id":"cebpf4jnsgd1na2vs0mg"},{"bike_id":"2a0ac7e8-d126-43d9-acb9-230a34ba26be","system_id":"levelo_inurba_marseille","lat":43.29929,"lon":5.36557,"is_reserved":false,"is_disabled":false,"rental_uris":{"android":"levelo://app?vid=2a0ac7e8-d126-43d9-acb9-230a34ba26be","ios":"levelo://app?vid=2a0ac7e8-d126-43d9-acb9-230a34ba26be"},"vehicle_type_id":"4","last_reported":1708286856,"current_range_meters":12400,"station_id":"","pricing_plan_id":"cebpf4jnsgd1na2vs0mg"},{"bike_id":"31800b45-2a55-4fd1-a72a-814d57a6e19c","system_id":"levelo_inurba_marseille","lat":43.299724,"lon":5.371829,"is_reserved":false,"is_disabled":false,"rental_uris":{"android":"levelo://app?vid=31800b45-2a55-4fd1-a72a-814d57a6e19c","ios":"levelo://app?vid=31800b45-2a55-4fd1-a72a-814d57a6e19c"},"vehicle_type_id":"4","last_reported":1708286856,"current_range_meters":31200,"station_id":"ce4bgr92rcd13ifvqc7g","pricing_plan_id":"cebpf4jnsgd1na2vs0mg"},{"bike_id":"81181eae-222d-481c-9f48-886f03fe9a32","system_id":"levelo_inurba_marseille","lat":43.299724,"lon":5.371829,"is_reserved":false,"is_disabled":false,"rental_uris":{"android":"levelo://app?vid=81181eae-222d-481c-9f48-886f03fe9a32","ios":"levelo://app?vid=81181eae-222d-481c-9f48-886f03fe9a32"},"vehicle_type_id":"4","last_reported":1708286856,"current_range_meters":12400,"station_id":"ce4bgr92rcd13ifvqc7g","pricing_plan_id":"cebpf4jnsgd1na2vs0mg"},{"bike_id":"012d87ab-bb57-4915-907c-a9657c78067c","system_id":"levelo_inurba_marseille","lat":43.299243,"lon":5.374807,"is_reserved":false,"is_disabled":false,"rental_uris":{"android":"levelo://app?vid=012d87ab-bb57-4915-907c-a9657c78067c","ios":"levelo://app?vid=012d87ab-bb57-4915-907c-a9657c78067c"},"vehicle_type_id":"4","last_reported":1708286856,"current_range_meters":13600,"station_id":"ce4bgjh2rcd13ifvqbg0","pricing_plan_id":"cebpf4jnsgd1na2vs0mg"},{"bike_id":"1e09fff1-c93b-43a2-b5f6-f724610bc9ae","system_id":"levelo_inurba_marseille","lat":43.299243,"lon":5.37481,"is_reserved":false,"is_disabled":false,"rental_uris":{"android":"levelo://app?vid=1e09fff1-c93b-43a2-b5f6-f724610bc9ae","ios":"levelo://app?vid=1e09fff1-c93b-43a2-b5f6-f724610bc9ae"},"vehicle_type_id":"4","last_reported":1708286856,"current_range_meters":25200,"station_id":"ce4bgjh2rcd13ifvqbg0","pricing_plan_id":"cebpf4jnsgd1na2vs0mg"},{"bike_id":"9c066918-8baa-43c4-8b68-538e6ac19c35","system_id":"levelo_inurba_marseille","lat":43.311722,"lon":5.387247,"is_reserved":false,"is_disabled":false,"rental_uris":{"android":"levelo://app?vid=9c066918-8baa-43c4-8b68-538e6ac19c35","ios":"levelo://app?vid=9c066918-8baa-43c4-8b68-538e6ac19c35"},"vehicle_type_id":"4","last_reported":1708286856,"current_range_meters":16800,"station_id":"ce4bgv12rcd13ifvqcp0","pricing_plan_id":"cebpf4jnsgd1na2vs0mg"},{"bike_id":"1fde65b4-58d1-44ee-9345-24f3985e3a54","system_id":"levelo_inurba_marseille","lat":43.299243,"lon":5.37481,"is_reserved":false,"is_disabled":false,"rental_uris":{"android":"levelo://app?vid=1fde65b4-58d1-44ee-9345-24f3985e3a54","ios":"levelo://app?vid=1fde65b4-58d1-44ee-9345-24f3985e3a54"},"vehicle_type_id":"4","last_reported":1708286856,"current_range_meters":10800,"station_id":"ce4bgjh2rcd13ifvqbg0","pricing_plan_id":"cebpf4jnsgd1na2vs0mg"},{"bike_id":"87c8a562-01ec-4d5e-bf2a-03e6e1b020e9","system_id":"levelo_inurba_marseille","lat":43.311722,"lon":5.387247,"is_reserved":false,"is_disabled":false,"rental_uris":{"android":"levelo://app?vid=87c8a562-01ec-4d5e-bf2a-03e6e1b020e9","ios":"levelo://app?vid=87c8a562-01ec-4d5e-bf2a-03e6e1b020e9"},"vehicle_type_id":"4","last_reported":1708286856,"current_range_meters":0,"station_id":"ce4bgv12rcd13ifvqcp0","pricing_plan_id":"cebpf4jnsgd1na2vs0mg"},{"bike_id":"5602e923-2692-4c6e-a49c-75a8d62d6dd5","system_id":"levelo_inurba_marseille","lat":43.311722,"lon":5.387247,"is_reserved":false,"is_disabled":false,"rental_uris":{"android":"levelo://app?vid=5602e923-2692-4c6e-a49c-75a8d62d6dd5","ios":"levelo://app?vid=5602e923-2692-4c6e-a49c-75a8d62d6dd5"},"vehicle_type_id":"4","last_reported":1708286856,"current_range_meters":0,"station_id":"ce4bgv12rcd13ifvqcp0","pricing_plan_id":"cebpf4jnsgd1na2vs0mg"},{"bike_id":"c406912a-c2f8-46e5-ab05-29640c6d1769","system_id":"levelo_inurba_marseille","lat":43.311722,"lon":5.387247,"is_reserved":false,"is_disabled":false,"rental_uris":{"android":"levelo://app?vid=c406912a-c2f8-46e5-ab05-29640c6d1769","ios":"levelo://app?vid=c406912a-c2f8-46e5-ab05-29640c6d1769"},"vehicle_type_id":"4","last_reported":1708286856,"current_range_meters":26000,"station_id":"ce4bgv12rcd13ifvqcp0","pricing_plan_id":"cebpf4jnsgd1na2vs0mg"},{"bike_id":"c75cd5f3-8102-4c5c-a169-cb1b79c78fc1","system_id":"levelo_inurba_marseille","lat":43.311722,"lon":5.387247,"is_reserved":false,"is_disabled":false,"rental_uris":{"android":"levelo://app?vid=c75cd5f3-8102-4c5c-a169-cb1b79c78fc1","ios":"levelo://app?vid=c75cd5f3-8102-4c5c-a169-cb1b79c78fc1"},"vehicle_type_id":"4","last_reported":1708286856,"current_range_meters":24000,"station_id":"ce4bgv12rcd13ifvqcp0","pricing_plan_id":"cebpf4jnsgd1na2vs0mg"},{"bike_id":"2186dbb3-7d9a-413d-9e1c-ecccf27829a9","system_id":"levelo_inurba_marseille","lat":43.299243,"lon":5.37481,"is_reserved":false,"is_disabled":false,"rental_uris":{"android":"levelo://app?vid=2186dbb3-7d9a-413d-9e1c-ecccf27829a9","ios":"levelo://app?vid=2186dbb3-7d9a-413d-9e1c-ecccf27829a9"},"vehicle_type_id":"4","last_reported":1708286856,"current_range_meters":27200,"station_id":"ce4bgjh2rcd13ifvqbg0","pricing_plan_id":"cebpf4jnsgd1na2vs0mg"},{"bike_id":"3f202a18-3b11-4eb9-929e-4277455b8e9d","system_id":"levelo_inurba_marseille","lat":43.297794,"lon":5.370888,"is_reserved":false,"is_disabled":false,"rental_uris":{"android":"levelo://app?vid=3f202a18-3b11-4eb9-929e-4277455b8e9d","ios":"levelo://app?vid=3f202a18-3b11-4eb9-929e-4277455b8e9d"},"vehicle_type_id":"4","last_reported":1708286856,"current_range_meters":19200,"station_id":"ce4bgop2rcd13ifvqc1g","pricing_plan_id":"cebpf4jnsgd1na2vs0mg"},{"bike_id":"9af28949-3abe-4ee4-a57a-c236655c3362","system_id":"levelo_inurba_marseille","lat":43.322872,"lon":5.382756,"is_reserved":false,"is_disabled":false,"rental_uris":{"android":"levelo://app?vid=9af28949-3abe-4ee4-a57a-c236655c3362","ios":"levelo://app?vid=9af28949-3abe-4ee4-a57a-c236655c3362"},"vehicle_type_id":"4","last_reported":1708286856,"current_range_meters":31200,"station_id":"ce4bhr12rcd13ifvqhqg","pricing_plan_id":"cebpf4jnsgd1na2vs0mg"},{"bike_id":"410a532b-f4d9-44b0-bece-5fd8115e2fc4","system_id":"levelo_inurba_marseille","lat":43.322872,"lon":5.382756,"is_reserved":false,"is_disabled":false,"rental_uris":{"android":"levelo://app?vid=410a532b-f4d9-44b0-bece-5fd8115e2fc4","ios":"levelo://app?vid=410a532b-f4d9-44b0-bece-5fd8115e2fc4"},"vehicle_type_id":"4","last_reported":1708286856,"current_range_meters":19600,"station_id":"ce4bhr12rcd13ifvqhqg","pricing_plan_id":"cebpf4jnsgd1na2vs0mg"},{"bike_id":"ec753b6f-c031-4c02-986d-1ed1256ab5f0","system_id":"levelo_inurba_marseille","lat":43.322872,"lon":5.382756,"is_reserved":false,"is_disabled":false,"rental_uris":{"android":"levelo://app?vid=ec753b6f-c031-4c02-986d-1ed1256ab5f0","ios":"levelo://app?vid=ec753b6f-c031-4c02-986d-1ed1256ab5f0"},"vehicle_type_id":"4","last_reported":1708286856,"current_range_meters":23200,"station_id":"ce4bhr12rcd13ifvqhqg","pricing_plan_id":"cebpf4jnsgd1na2vs0mg"},{"bike_id":"b5af1ae3-0d58-42c2-9806-f9da992beb99","system_id":"levelo_inurba_marseille","lat":43.322872,"lon":5.382756,"is_reserved":false,"is_disabled":false,"rental_uris":{"android":"levelo://app?vid=b5af1ae3-0d58-42c2-9806-f9da992beb99","ios":"levelo://app?vid=b5af1ae3-0d58-42c2-9806-f9da992beb99"},"vehicle_type_id":"4","last_reported":1708286856,"current_range_meters":6400,"station_id":"ce4bhr12rcd13ifvqhqg","pricing_plan_id":"cebpf4jnsgd1na2vs0mg"},{"bike_id":"c141ce68-b77e-46f1-8770-70ce92b66810","system_id":"levelo_inurba_marseille","lat":43.322872,"lon":5.382756,"is_reserved":false,"is_disabled":false,"rental_uris":{"android":"levelo://app?vid=c141ce68-b77e-46f1-8770-70ce92b66810","ios":"levelo://app?vid=c141ce68-b77e-46f1-8770-70ce92b66810"},"vehicle_type_id":"4","last_reported":1708286856,"current_range_meters":0,"station_id":"ce4bhr12rcd13ifvqhqg","pricing_plan_id":"cebpf4jnsgd1na2vs0mg"},{"bike_id":"56e39d4e-cf47-4284-9a5f-c7eda237067f","system_id":"levelo_inurba_marseille","lat":43.32815,"lon":5.36694,"is_reserved":false,"is_disabled":false,"rental_uris":{"android":"levelo://app?vid=56e39d4e-cf47-4284-9a5f-c7eda237067f","ios":"levelo://app?vid=56e39d4e-cf47-4284-9a5f-c7eda237067f"},"vehicle_type_id":"4","last_reported":1708286856,"current_range_meters":25200,"station_id":"ce4bhs92rcd13ifvqi0g","pricing_plan_id":"cebpf4jnsgd1na2vs0mg"},{"bike_id":"5195dc94-0b55-41c8-9198-580992dd67c5","system_id":"levelo_inurba_marseille","lat":43.32822,"lon":5.36691,"is_reserved":false,"is_disabled":false,"rental_uris":{"android":"levelo://app?vid=5195dc94-0b55-41c8-9198-580992dd67c5","ios":"levelo://app?vid=5195dc94-0b55-41c8-9198-580992dd67c5"},"vehicle_type_id":"4","last_reported":1708286856,"current_range_meters":15200,"station_id":"ce4bhs92rcd13ifvqi0g","pricing_plan_id":"cebpf4jnsgd1na2vs0mg"},{"bike_id":"a7c23186-9058-42c6-a37b-c5cc63cf8aac","system_id":"levelo_inurba_marseille","lat":43.32823,"lon":5.36685,"is_reserved":false,"is_disabled":false,"rental_uris":{"android":"levelo://app?vid=a7c23186-9058-42c6-a37b-c5cc63cf8aac","ios":"levelo://app?vid=a7c23186-9058-42c6-a37b-c5cc63cf8aac"},"vehicle_type_id":"4","last_reported":1708286856,"current_range_meters":400,"station_id":"ce4bhs92rcd13ifvqi0g","pricing_plan_id":"cebpf4jnsgd1na2vs0mg"},{"bike_id":"39b1984d-8f02-4685-a70a-160b9ffb824d","system_id":"levelo_inurba_marseille","lat":43.328238,"lon":5.366808,"is_reserved":false,"is_disabled":false,"rental_uris":{"android":"levelo://app?vid=39b1984d-8f02-4685-a70a-160b9ffb824d","ios":"levelo://app?vid=39b1984d-8f02-4685-a70a-160b9ffb824d"},"vehicle_type_id":"4","last_reported":1708286856,"current_range_meters":2400,"station_id":"ce4bhs92rcd13ifvqi0g","pricing_plan_id":"cebpf4jnsgd1na2vs0mg"},{"bike_id":"2459963a-9a41-477a-9f46-310730d184fe","system_id":"levelo_inurba_marseille","lat":43.32824,"lon":5.36685,"is_reserved":false,"is_disabled":false,"rental_uris":{"android":"levelo://app?vid=2459963a-9a41-477a-9f46-310730d184fe","ios":"levelo://app?vid=2459963a-9a41-477a-9f46-310730d184fe"},"vehicle_type_id":"4","last_reported":1708286856,"current_range_meters":12800,"station_id":"ce4bhs92rcd13ifvqi0g","pricing_plan_id":"cebpf4jnsgd1na2vs0mg"},{"bike_id":"41c65e4b-4ba5-40db-9862-5e1c6e726334","system_id":"levelo_inurba_marseille","lat":43.32826,"lon":5.36689,"is_reserved":false,"is_disabled":false,"rental_uris":{"android":"levelo://app?vid=41c65e4b-4ba5-40db-9862-5e1c6e726334","ios":"levelo://app?vid=41c65e4b-4ba5-40db-9862-5e1c6e726334"},"vehicle_type_id":"4","last_reported":1708286856,"current_range_meters":0,"station_id":"ce4bhs92rcd13ifvqi0g","pricing_plan_id":"cebpf4jnsgd1na2vs0mg"},{"bike_id":"45fe6c6c-2569-4aee-9c18-3f3586004f23","system_id":"levelo_inurba_marseille","lat":43.32826,"lon":5.36678,"is_reserved":false,"is_disabled":false,"rental_uris":{"android":"levelo://app?vid=45fe6c6c-2569-4aee-9c18-3f3586004f23","ios":"levelo://app?vid=45fe6c6c-2569-4aee-9c18-3f3586004f23"},"vehicle_type_id":"4","last_reported":1708286856,"current_range_meters":18000,"station_id":"ce4bhs92rcd13ifvqi0g","pricing_plan_id":"cebpf4jnsgd1na2vs0mg"},{"bike_id":"55f2d4b0-8802-4bd2-8697-0f012dcc25c1","system_id":"levelo_inurba_marseille","lat":43.32827,"lon":5.3669,"is_reserved":false,"is_disabled":false,"rental_uris":{"android":"levelo://app?vid=55f2d4b0-8802-4bd2-8697-0f012dcc25c1","ios":"levelo://app?vid=55f2d4b0-8802-4bd2-8697-0f012dcc25c1"},"vehicle_type_id":"4","last_reported":1708286856,"current_range_meters":29600,"station_id":"ce4bhs92rcd13ifvqi0g","pricing_plan_id":"cebpf4jnsgd1na2vs0mg"},{"bike_id":"fcbb72e3-aeee-4031-b1db-dc05c41736e9","system_id":"levelo_inurba_marseille","lat":43.328289,"lon":5.366739,"is_reserved":false,"is_disabled":false,"rental_uris":{"android":"levelo://app?vid=fcbb72e3-aeee-4031-b1db-dc05c41736e9","ios":"levelo://app?vid=fcbb72e3-aeee-4031-b1db-dc05c41736e9"},"vehicle_type_id":"4","last_reported":1708286856,"current_range_meters":8800,"station_id":"ce4bhs92rcd13ifvqi0g","pricing_plan_id":"cebpf4jnsgd1na2vs0mg"},{"bike_id":"ee7dd371-368a-440e-b6db-3978fbf82094","system_id":"levelo_inurba_marseille","lat":43.328371,"lon":5.366909,"is_reserved":false,"is_disabled":false,"rental_uris":{"android":"levelo://app?vid=ee7dd371-368a-440e-b6db-3978fbf82094","ios":"levelo://app?vid=ee7dd371-368a-440e-b6db-3978fbf82094"},"vehicle_type_id":"4","last_reported":1708286856,"current_range_meters":0,"station_id":"ce4bhs92rcd13ifvqi0g","pricing_plan_id":"cebpf4jnsgd1na2vs0mg"},{"bike_id":"d4293f9d-0d56-46f3-aaf4-9639cf196cdc","system_id":"levelo_inurba_marseille","lat":43.3283,"lon":5.3669,"is_reserved":false,"is_disabled":false,"rental_uris":{"android":"levelo://app?vid=d4293f9d-0d56-46f3-aaf4-9639cf196cdc","ios":"levelo://app?vid=d4293f9d-0d56-46f3-aaf4-9639cf196cdc"},"vehicle_type_id":"4","last_reported":1708286856,"current_range_meters":6800,"station_id":"ce4bhs92rcd13ifvqi0g","pricing_plan_id":"cebpf4jnsgd1na2vs0mg"},{"bike_id":"893a329c-9f10-4068-9f5b-6c8718d136d4","system_id":"levelo_inurba_marseille","lat":43.32831,"lon":5.36684,"is_reserved":false,"is_disabled":false,"rental_uris":{"android":"levelo://app?vid=893a329c-9f10-4068-9f5b-6c8718d136d4","ios":"levelo://app?vid=893a329c-9f10-4068-9f5b-6c8718d136d4"},"vehicle_type_id":"4","last_reported":1708286856,"current_range_meters":20000,"station_id":"ce4bhs92rcd13ifvqi0g","pricing_plan_id":"cebpf4jnsgd1na2vs0mg"},{"bike_id":"3ce3bf05-0e26-4ba4-9a11-4781ff3d0eb6","system_id":"levelo_inurba_marseille","lat":43.328315,"lon":5.366805,"is_reserved":false,"is_disabled":false,"rental_uris":{"android":"levelo://app?vid=3ce3bf05-0e26-4ba4-9a11-4781ff3d0eb6","ios":"levelo://app?vid=3ce3bf05-0e26-4ba4-9a11-4781ff3d0eb6"},"vehicle_type_id":"4","last_reported":1708286856,"current_range_meters":0,"station_id":"ce4bhs92rcd13ifvqi0g","pricing_plan_id":"cebpf4jnsgd1na2vs0mg"},{"bike_id":"0f92aaf1-28d7-48a0-893b-d9dc097135d5","system_id":"levelo_inurba_marseille","lat":43.297163,"lon":5.365866,"is_reserved":false,"is_disabled":false,"rental_uris":{"android":"levelo://app?vid=0f92aaf1-28d7-48a0-893b-d9dc097135d5","ios":"levelo://app?vid=0f92aaf1-28d7-48a0-893b-d9dc097135d5"},"vehicle_type_id":"4","last_reported":1708286856,"current_range_meters":1200,"station_id":"ce4bgn12rcd13ifvqbt0","pricing_plan_id":"cebpf4jnsgd1na2vs0mg"},{"bike_id":"6479b867-39d9-4ca6-98c1-29e7ac2e9053","system_id":"levelo_inurba_marseille","lat":43.297163,"lon":5.365866,"is_reserved":false,"is_disabled":false,"rental_uris":{"android":"levelo://app?vid=6479b867-39d9-4ca6-98c1-29e7ac2e9053","ios":"levelo://app?vid=6479b867-39d9-4ca6-98c1-29e7ac2e9053"},"vehicle_type_id":"4","last_reported":1708286856,"current_range_meters":13600,"station_id":"ce4bgn12rcd13ifvqbt0","pricing_plan_id":"cebpf4jnsgd1na2vs0mg"},{"bike_id":"7eb8d600-192f-458e-a55a-f27d5abbcbed","system_id":"levelo_inurba_marseille","lat":43.297163,"lon":5.365866,"is_reserved":false,"is_disabled":false,"rental_uris":{"android":"levelo://app?vid=7eb8d600-192f-458e-a55a-f27d5abbcbed","ios":"levelo://app?vid=7eb8d600-192f-458e-a55a-f27d5abbcbed"},"vehicle_type_id":"4","last_reported":1708286856,"current_range_meters":27600,"station_id":"ce4bgn12rcd13ifvqbt0","pricing_plan_id":"cebpf4jnsgd1na2vs0mg"},{"bike_id":"158cf516-870e-4a68-aa3f-0de3a85b20b5","system_id":"levelo_inurba_marseille","lat":43.2968,"lon":5.37291,"is_reserved":false,"is_disabled":false,"rental_uris":{"android":"levelo://app?vid=158cf516-870e-4a68-aa3f-0de3a85b20b5","ios":"levelo://app?vid=158cf516-870e-4a68-aa3f-0de3a85b20b5"},"vehicle_type_id":"4","last_reported":1708286856,"current_range_meters":6400,"station_id":"ce4bgk12rcd13ifvqbj0","pricing_plan_id":"cebpf4jnsgd1na2vs0mg"},{"bike_id":"40b60137-b6ad-46b6-9281-7834c30f85e5","system_id":"levelo_inurba_marseille","lat":43.296131,"lon":5.370791,"is_reserved":false,"is_disabled":false,"rental_uris":{"android":"levelo://app?vid=40b60137-b6ad-46b6-9281-7834c30f85e5","ios":"levelo://app?vid=40b60137-b6ad-46b6-9281-7834c30f85e5"},"vehicle_type_id":"4","last_reported":1708286856,"current_range_meters":15600,"station_id":"ce4bgnh2rcd13ifvqc0g","pricing_plan_id":"cebpf4jnsgd1na2vs0mg"},{"bike_id":"fc73ceb6-7722-4fe1-92a3-e1cd90f65005","system_id":"levelo_inurba_marseille","lat":43.29622,"lon":5.367948,"is_reserved":false,"is_disabled":false,"rental_uris":{"android":"levelo://app?vid=fc73ceb6-7722-4fe1-92a3-e1cd90f65005","ios":"levelo://app?vid=fc73ceb6-7722-4fe1-92a3-e1cd90f65005"},"vehicle_type_id":"4","last_reported":1708286856,"current_range_meters":23600,"station_id":"","pricing_plan_id":"cebpf4jnsgd1na2vs0mg"},{"bike_id":"ecf58e21-515d-4c86-8bd6-90bcd5c91114","system_id":"levelo_inurba_marseille","lat":43.296131,"lon":5.370791,"is_reserved":false,"is_disabled":false,"rental_uris":{"android":"levelo://app?vid=ecf58e21-515d-4c86-8bd6-90bcd5c91114","ios":"levelo://app?vid=ecf58e21-515d-4c86-8bd6-90bcd5c91114"},"vehicle_type_id":"4","last_reported":1708286856,"current_range_meters":0,"station_id":"ce4bgnh2rcd13ifvqc0g","pricing_plan_id":"cebpf4jnsgd1na2vs0mg"},{"bike_id":"8c00f009-85b6-4932-b1b5-2b7b60a0334b","system_id":"levelo_inurba_marseille","lat":43.296131,"lon":5.370773,"is_reserved":false,"is_disabled":false,"rental_uris":{"android":"levelo://app?vid=8c00f009-85b6-4932-b1b5-2b7b60a0334b","ios":"levelo://app?vid=8c00f009-85b6-4932-b1b5-2b7b60a0334b"},"vehicle_type_id":"4","last_reported":1708286856,"current_range_meters":30000,"station_id":"ce4bgnh2rcd13ifvqc0g","pricing_plan_id":"cebpf4jnsgd1na2vs0mg"},{"bike_id":"4210bb54-09a6-4de2-8ff5-ed6880094579","system_id":"levelo_inurba_marseille","lat":43.296129,"lon":5.370777,"is_reserved":false,"is_disabled":false,"rental_uris":{"android":"levelo://app?vid=4210bb54-09a6-4de2-8ff5-ed6880094579","ios":"levelo://app?vid=4210bb54-09a6-4de2-8ff5-ed6880094579"},"vehicle_type_id":"4","last_reported":1708286856,"current_range_meters":23600,"station_id":"ce4bgnh2rcd13ifvqc0g","pricing_plan_id":"cebpf4jnsgd1na2vs0mg"},{"bike_id":"895fa3a1-b8d7-4c59-8280-91c5c5e377be","system_id":"levelo_inurba_marseille","lat":43.29573,"lon":5.367355,"is_reserved":false,"is_disabled":false,"rental_uris":{"android":"levelo://app?vid=895fa3a1-b8d7-4c59-8280-91c5c5e377be","ios":"levelo://app?vid=895fa3a1-b8d7-4c59-8280-91c5c5e377be"},"vehicle_type_id":"4","last_reported":1708286856,"current_range_meters":24800,"station_id":"ce4bgph2rcd13ifvqc2g","pricing_plan_id":"cebpf4jnsgd1na2vs0mg"},{"bike_id":"4d7fa6d4-1448-46b6-ad8b-5544981a32e3","system_id":"levelo_inurba_marseille","lat":43.29912,"lon":5.38133,"is_reserved":false,"is_disabled":false,"rental_uris":{"android":"levelo://app?vid=4d7fa6d4-1448-46b6-ad8b-5544981a32e3","ios":"levelo://app?vid=4d7fa6d4-1448-46b6-ad8b-5544981a32e3"},"vehicle_type_id":"4","last_reported":1708286856,"current_range_meters":17600,"station_id":"ce4bgj12rcd13ifvqbc0","pricing_plan_id":"cebpf4jnsgd1na2vs0mg"},{"bike_id":"6e62802f-f164-4eaf-afca-e60177d02614","system_id":"levelo_inurba_marseille","lat":43.29906,"lon":5.38144,"is_reserved":false,"is_disabled":false,"rental_uris":{"android":"levelo://app?vid=6e62802f-f164-4eaf-afca-e60177d02614","ios":"levelo://app?vid=6e62802f-f164-4eaf-afca-e60177d02614"},"vehicle_type_id":"4","last_reported":1708286856,"current_range_meters":6400,"station_id":"ce4bgj12rcd13ifvqbc0","pricing_plan_id":"cebpf4jnsgd1na2vs0mg"},{"bike_id":"5ad4fce0-5848-4f0d-a87e-a5f157f12dee","system_id":"levelo_inurba_marseille","lat":43.29909,"lon":5.3815,"is_reserved":false,"is_disabled":false,"rental_uris":{"android":"levelo://app?vid=5ad4fce0-5848-4f0d-a87e-a5f157f12dee","ios":"levelo://app?vid=5ad4fce0-5848-4f0d-a87e-a5f157f12dee"},"vehicle_type_id":"4","last_reported":1708286856,"current_range_meters":31200,"station_id":"ce4bgj12rcd13ifvqbc0","pricing_plan_id":"cebpf4jnsgd1na2vs0mg"},{"bike_id":"e153fb97-437e-4f3a-ae13-5189e6bc6668","system_id":"levelo_inurba_marseille","lat":43.29907,"lon":5.38147,"is_reserved":false,"is_disabled":false,"rental_uris":{"android":"levelo://app?vid=e153fb97-437e-4f3a-ae13-5189e6bc6668","ios":"levelo://app?vid=e153fb97-437e-4f3a-ae13-5189e6bc6668"},"vehicle_type_id":"4","last_reported":1708286856,"current_range_meters":9200,"station_id":"ce4bgj12rcd13ifvqbc0","pricing_plan_id":"cebpf4jnsgd1na2vs0mg"},{"bike_id":"983effd3-ab81-46a4-a76d-f3edbc58c5a1","system_id":"levelo_inurba_marseille","lat":43.29901,"lon":5.3814,"is_reserved":false,"is_disabled":false,"rental_uris":{"android":"levelo://app?vid=983effd3-ab81-46a4-a76d-f3edbc58c5a1","ios":"levelo://app?vid=983effd3-ab81-46a4-a76d-f3edbc58c5a1"},"vehicle_type_id":"4","last_reported":1708286856,"current_range_meters":6000,"station_id":"ce4bgj12rcd13ifvqbc0","pricing_plan_id":"cebpf4jnsgd1na2vs0mg"},{"bike_id":"6e1775fb-2678-4080-b250-4556411fcc56","system_id":"levelo_inurba_marseille","lat":43.29893,"lon":5.38144,"is_reserved":false,"is_disabled":false,"rental_uris":{"android":"levelo://app?vid=6e1775fb-2678-4080-b250-4556411fcc56","ios":"levelo://app?vid=6e1775fb-2678-4080-b250-4556411fcc56"},"vehicle_type_id":"4","last_reported":1708286856,"current_range_meters":28000,"station_id":"ce4bgj12rcd13ifvqbc0","pricing_plan_id":"cebpf4jnsgd1na2vs0mg"},{"bike_id":"d29cf0ad-1357-4d2c-a5f9-d7d12361a0d0","system_id":"levelo_inurba_marseille","lat":43.309589,"lon":5.390258,"is_reserved":false,"is_disabled":false,"rental_uris":{"android":"levelo://app?vid=d29cf0ad-1357-4d2c-a5f9-d7d12361a0d0","ios":"levelo://app?vid=d29cf0ad-1357-4d2c-a5f9-d7d12361a0d0"},"vehicle_type_id":"4","last_reported":1708286856,"current_range_meters":30800,"station_id":"ce4bgup2rcd13ifvqco0","pricing_plan_id":"cebpf4jnsgd1na2vs0mg"},{"bike_id":"26fe1f34-f5a0-46b8-86b8-9a34ea0e34d4","system_id":"levelo_inurba_marseille","lat":43.2961,"lon":5.37386,"is_reserved":false,"is_disabled":false,"rental_uris":{"android":"levelo://app?vid=26fe1f34-f5a0-46b8-86b8-9a34ea0e34d4","ios":"levelo://app?vid=26fe1f34-f5a0-46b8-86b8-9a34ea0e34d4"},"vehicle_type_id":"4","last_reported":1708286856,"current_range_meters":0,"station_id":"","pricing_plan_id":"cebpf4jnsgd1na2vs0mg"},{"bike_id":"c35e5277-b202-4110-b491-f1e7ebcea1e4","system_id":"levelo_inurba_marseille","lat":43.31757,"lon":5.39011,"is_reserved":false,"is_disabled":false,"rental_uris":{"android":"levelo://app?vid=c35e5277-b202-4110-b491-f1e7ebcea1e4","ios":"levelo://app?vid=c35e5277-b202-4110-b491-f1e7ebcea1e4"},"vehicle_type_id":"4","last_reported":1708286856,"current_range_meters":4400,"station_id":"ce4bhqp2rcd13ifvqhng","pricing_plan_id":"cebpf4jnsgd1na2vs0mg"},{"bike_id":"7d56fc82-31de-4bfd-a344-8c5cafa592f4","system_id":"levelo_inurba_marseille","lat":43.31762,"lon":5.39017,"is_reserved":false,"is_disabled":false,"rental_uris":{"android":"levelo://app?vid=7d56fc82-31de-4bfd-a344-8c5cafa592f4","ios":"levelo://app?vid=7d56fc82-31de-4bfd-a344-8c5cafa592f4"},"vehicle_type_id":"4","last_reported":1708286856,"current_range_meters":29600,"station_id":"ce4bhqp2rcd13ifvqhng","pricing_plan_id":"cebpf4jnsgd1na2vs0mg"},{"bike_id":"8e8e2435-a2ee-4f75-8d8f-c517f9b6520c","system_id":"levelo_inurba_marseille","lat":43.298037,"lon":5.381066,"is_reserved":false,"is_disabled":false,"rental_uris":{"android":"levelo://app?vid=8e8e2435-a2ee-4f75-8d8f-c517f9b6520c","ios":"levelo://app?vid=8e8e2435-a2ee-4f75-8d8f-c517f9b6520c"},"vehicle_type_id":"4","last_reported":1708286856,"current_range_meters":0,"station_id":"ce4bgip2rcd13ifvqbb0","pricing_plan_id":"cebpf4jnsgd1na2vs0mg"},{"bike_id":"a416d095-d028-4b98-93a2-82f85ab39157","system_id":"levelo_inurba_marseille","lat":43.304278,"lon":5.388868,"is_reserved":false,"is_disabled":false,"rental_uris":{"android":"levelo://app?vid=a416d095-d028-4b98-93a2-82f85ab39157","ios":"levelo://app?vid=a416d095-d028-4b98-93a2-82f85ab39157"},"vehicle_type_id":"4","last_reported":1708286856,"current_range_meters":28000,"station_id":"ce4bgk12rcd13ifvqbi0","pricing_plan_id":"cebpf4jnsgd1na2vs0mg"},{"bike_id":"08aa8a09-80dd-4d72-9c95-99bb7ef1bbc1","system_id":"levelo_inurba_marseille","lat":43.304278,"lon":5.388868,"is_reserved":false,"is_disabled":false,"rental_uris":{"android":"levelo://app?vid=08aa8a09-80dd-4d72-9c95-99bb7ef1bbc1","ios":"levelo://app?vid=08aa8a09-80dd-4d72-9c95-99bb7ef1bbc1"},"vehicle_type_id":"4","last_reported":1708286856,"current_range_meters":22000,"station_id":"ce4bgk12rcd13ifvqbi0","pricing_plan_id":"cebpf4jnsgd1na2vs0mg"},{"bike_id":"07981639-bb09-4b1d-99cc-eefa817c339b","system_id":"levelo_inurba_marseille","lat":43.295748,"lon":5.37522,"is_reserved":false,"is_disabled":false,"rental_uris":{"android":"levelo://app?vid=07981639-bb09-4b1d-99cc-eefa817c339b","ios":"levelo://app?vid=07981639-bb09-4b1d-99cc-eefa817c339b"},"vehicle_type_id":"4","last_reported":1708286856,"current_range_meters":9600,"station_id":"ce4bgh92rcd13ifvqb50","pricing_plan_id":"cebpf4jnsgd1na2vs0mg"},{"bike_id":"fb6a91ac-4ea6-42da-96ff-2930db92761c","system_id":"levelo_inurba_marseille","lat":43.297785,"lon":5.381325,"is_reserved":false,"is_disabled":false,"rental_uris":{"android":"levelo://app?vid=fb6a91ac-4ea6-42da-96ff-2930db92761c","ios":"levelo://app?vid=fb6a91ac-4ea6-42da-96ff-2930db92761c"},"vehicle_type_id":"4","last_reported":1708286856,"current_range_meters":9200,"station_id":"","pricing_plan_id":"cebpf4jnsgd1na2vs0mg"},{"bike_id":"c9fc5ddf-bf18-48f3-87f6-3ab209e3bb2b","system_id":"levelo_inurba_marseille","lat":43.295279,"lon":5.375048,"is_reserved":false,"is_disabled":false,"rental_uris":{"android":"levelo://app?vid=c9fc5ddf-bf18-48f3-87f6-3ab209e3bb2b","ios":"levelo://app?vid=c9fc5ddf-bf18-48f3-87f6-3ab209e3bb2b"},"vehicle_type_id":"4","last_reported":1708286856,"current_range_meters":26000,"station_id":"ce4bgkp2rcd13ifvqbmg","pricing_plan_id":"cebpf4jnsgd1na2vs0mg"},{"bike_id":"7b4bd31b-8f43-483a-8164-44029583ed3f","system_id":"levelo_inurba_marseille","lat":43.295279,"lon":5.375048,"is_reserved":false,"is_disabled":false,"rental_uris":{"android":"levelo://app?vid=7b4bd31b-8f43-483a-8164-44029583ed3f","ios":"levelo://app?vid=7b4bd31b-8f43-483a-8164-44029583ed3f"},"vehicle_type_id":"4","last_reported":1708286856,"current_range_meters":31200,"station_id":"ce4bgkp2rcd13ifvqbmg","pricing_plan_id":"cebpf4jnsgd1na2vs0mg"},{"bike_id":"a22538a7-12da-4b08-baf6-b0cc011f1634","system_id":"levelo_inurba_marseille","lat":43.295279,"lon":5.375048,"is_reserved":false,"is_disabled":false,"rental_uris":{"android":"levelo://app?vid=a22538a7-12da-4b08-baf6-b0cc011f1634","ios":"levelo://app?vid=a22538a7-12da-4b08-baf6-b0cc011f1634"},"vehicle_type_id":"4","last_reported":1708286856,"current_range_meters":25200,"station_id":"ce4bgkp2rcd13ifvqbmg","pricing_plan_id":"cebpf4jnsgd1na2vs0mg"},{"bike_id":"7479e32b-d614-416d-a90e-dad6f4847c1b","system_id":"levelo_inurba_marseille","lat":43.299707,"lon":5.384859,"is_reserved":false,"is_disabled":false,"rental_uris":{"android":"levelo://app?vid=7479e32b-d614-416d-a90e-dad6f4847c1b","ios":"levelo://app?vid=7479e32b-d614-416d-a90e-dad6f4847c1b"},"vehicle_type_id":"4","last_reported":1708286856,"current_range_meters":15200,"station_id":"ce4bgj92rcd13ifvqbd0","pricing_plan_id":"cebpf4jnsgd1na2vs0mg"},{"bike_id":"7c2edde5-a610-4dbf-ac8c-3a4f16aad0da","system_id":"levelo_inurba_marseille","lat":43.299707,"lon":5.384859,"is_reserved":false,"is_disabled":false,"rental_uris":{"android":"levelo://app?vid=7c2edde5-a610-4dbf-ac8c-3a4f16aad0da","ios":"levelo://app?vid=7c2edde5-a610-4dbf-ac8c-3a4f16aad0da"},"vehicle_type_id":"4","last_reported":1708286856,"current_range_meters":14400,"station_id":"ce4bgj92rcd13ifvqbd0","pricing_plan_id":"cebpf4jnsgd1na2vs0mg"},{"bike_id":"0c7a68d0-0967-4fdc-a1b0-5f1a5a417a8b","system_id":"levelo_inurba_marseille","lat":43.295279,"lon":5.375048,"is_reserved":false,"is_disabled":false,"rental_uris":{"android":"levelo://app?vid=0c7a68d0-0967-4fdc-a1b0-5f1a5a417a8b","ios":"levelo://app?vid=0c7a68d0-0967-4fdc-a1b0-5f1a5a417a8b"},"vehicle_type_id":"4","last_reported":1708286856,"current_range_meters":31200,"station_id":"ce4bgkp2rcd13ifvqbmg","pricing_plan_id":"cebpf4jnsgd1na2vs0mg"},{"bike_id":"7fb1c91f-c0f0-4a7c-8857-3d49fdfde71a","system_id":"levelo_inurba_marseille","lat":43.295279,"lon":5.375048,"is_reserved":false,"is_disabled":false,"rental_uris":{"android":"levelo://app?vid=7fb1c91f-c0f0-4a7c-8857-3d49fdfde71a","ios":"levelo://app?vid=7fb1c91f-c0f0-4a7c-8857-3d49fdfde71a"},"vehicle_type_id":"4","last_reported":1708286856,"current_range_meters":2000,"station_id":"ce4bgkp2rcd13ifvqbmg","pricing_plan_id":"cebpf4jnsgd1na2vs0mg"},{"bike_id":"1d223a43-33e6-4266-b8bd-7be383cf78f7","system_id":"levelo_inurba_marseille","lat":43.299707,"lon":5.384859,"is_reserved":false,"is_disabled":false,"rental_uris":{"android":"levelo://app?vid=1d223a43-33e6-4266-b8bd-7be383cf78f7","ios":"levelo://app?vid=1d223a43-33e6-4266-b8bd-7be383cf78f7"},"vehicle_type_id":"4","last_reported":1708286856,"current_range_meters":13600,"station_id":"ce4bgj92rcd13ifvqbd0","pricing_plan_id":"cebpf4jnsgd1na2vs0mg"},{"bike_id":"994fc1f8-4483-4e01-a120-e50ea8fb5d0d","system_id":"levelo_inurba_marseille","lat":43.295279,"lon":5.375048,"is_reserved":false,"is_disabled":false,"rental_uris":{"android":"levelo://app?vid=994fc1f8-4483-4e01-a120-e50ea8fb5d0d","ios":"levelo://app?vid=994fc1f8-4483-4e01-a120-e50ea8fb5d0d"},"vehicle_type_id":"4","last_reported":1708286856,"current_range_meters":17600,"station_id":"ce4bgkp2rcd13ifvqbmg","pricing_plan_id":"cebpf4jnsgd1na2vs0mg"},{"bike_id":"e30b5766-139a-4ca3-8c44-a91808c842c6","system_id":"levelo_inurba_marseille","lat":43.295279,"lon":5.375048,"is_reserved":false,"is_disabled":false,"rental_uris":{"android":"levelo://app?vid=e30b5766-139a-4ca3-8c44-a91808c842c6","ios":"levelo://app?vid=e30b5766-139a-4ca3-8c44-a91808c842c6"},"vehicle_type_id":"4","last_reported":1708286856,"current_range_meters":23600,"station_id":"ce4bgkp2rcd13ifvqbmg","pricing_plan_id":"cebpf4jnsgd1na2vs0mg"},{"bike_id":"653e2883-b166-4533-bc7b-bd829bc117d3","system_id":"levelo_inurba_marseille","lat":43.32367,"lon":5.388836,"is_reserved":false,"is_disabled":false,"rental_uris":{"android":"levelo://app?vid=653e2883-b166-4533-bc7b-bd829bc117d3","ios":"levelo://app?vid=653e2883-b166-4533-bc7b-bd829bc117d3"},"vehicle_type_id":"4","last_reported":1708286856,"current_range_meters":23600,"station_id":"ce4bhqp2rcd13ifvqhog","pricing_plan_id":"cebpf4jnsgd1na2vs0mg"},{"bike_id":"7eb6029b-f5bd-4831-a411-7d7305041e39","system_id":"levelo_inurba_marseille","lat":43.32367,"lon":5.388836,"is_reserved":false,"is_disabled":false,"rental_uris":{"android":"levelo://app?vid=7eb6029b-f5bd-4831-a411-7d7305041e39","ios":"levelo://app?vid=7eb6029b-f5bd-4831-a411-7d7305041e39"},"vehicle_type_id":"4","last_reported":1708286856,"current_range_meters":19200,"station_id":"ce4bhqp2rcd13ifvqhog","pricing_plan_id":"cebpf4jnsgd1na2vs0mg"},{"bike_id":"48d7347d-f7f4-416e-a5c2-5ef460b4a847","system_id":"levelo_inurba_marseille","lat":43.314218,"lon":5.3936,"is_reserved":false,"is_disabled":false,"rental_uris":{"android":"levelo://app?vid=48d7347d-f7f4-416e-a5c2-5ef460b4a847","ios":"levelo://app?vid=48d7347d-f7f4-416e-a5c2-5ef460b4a847"},"vehicle_type_id":"4","last_reported":1708286856,"current_range_meters":22800,"station_id":"","pricing_plan_id":"cebpf4jnsgd1na2vs0mg"},{"bike_id":"5d7e6f91-d902-4715-bf70-7311812ecbe4","system_id":"levelo_inurba_marseille","lat":43.264958,"lon":5.395433,"is_reserved":false,"is_disabled":false,"rental_uris":{"android":"levelo://app?vid=5d7e6f91-d902-4715-bf70-7311812ecbe4","ios":"levelo://app?vid=5d7e6f91-d902-4715-bf70-7311812ecbe4"},"vehicle_type_id":"4","last_reported":1708286856,"current_range_meters":0,"station_id":"ce4bhi12rcd13ifvqfq0","pricing_plan_id":"cebpf4jnsgd1na2vs0mg"},{"bike_id":"20f4e726-8861-4f52-be36-ebbdd4bf95ea","system_id":"levelo_inurba_marseille","lat":43.292749,"lon":5.368398,"is_reserved":false,"is_disabled":false,"rental_uris":{"android":"levelo://app?vid=20f4e726-8861-4f52-be36-ebbdd4bf95ea","ios":"levelo://app?vid=20f4e726-8861-4f52-be36-ebbdd4bf95ea"},"vehicle_type_id":"4","last_reported":1708286856,"current_range_meters":16400,"station_id":"ce4bhbp2rcd13ifvqesg","pricing_plan_id":"cebpf4jnsgd1na2vs0mg"},{"bike_id":"1d526145-d7e7-40fe-9a52-57b2eda445ed","system_id":"levelo_inurba_marseille","lat":43.29305,"lon":5.37174,"is_reserved":false,"is_disabled":false,"rental_uris":{"android":"levelo://app?vid=1d526145-d7e7-40fe-9a52-57b2eda445ed","ios":"levelo://app?vid=1d526145-d7e7-40fe-9a52-57b2eda445ed"},"vehicle_type_id":"4","last_reported":1708286856,"current_range_meters":29600,"station_id":"ce4bgh92rcd13ifvqb40","pricing_plan_id":"cebpf4jnsgd1na2vs0mg"},{"bike_id":"56fb3ae0-5138-49d0-88fc-1be308280c32","system_id":"levelo_inurba_marseille","lat":43.292762,"lon":5.368413,"is_reserved":false,"is_disabled":false,"rental_uris":{"android":"levelo://app?vid=56fb3ae0-5138-49d0-88fc-1be308280c32","ios":"levelo://app?vid=56fb3ae0-5138-49d0-88fc-1be308280c32"},"vehicle_type_id":"4","last_reported":1708286856,"current_range_meters":0,"station_id":"ce4bhbp2rcd13ifvqesg","pricing_plan_id":"cebpf4jnsgd1na2vs0mg"},{"bike_id":"07f2cab2-79b1-4c44-962c-ec098d32e2d0","system_id":"levelo_inurba_marseille","lat":43.292749,"lon":5.368398,"is_reserved":false,"is_disabled":false,"rental_uris":{"android":"levelo://app?vid=07f2cab2-79b1-4c44-962c-ec098d32e2d0","ios":"levelo://app?vid=07f2cab2-79b1-4c44-962c-ec098d32e2d0"},"vehicle_type_id":"4","last_reported":1708286856,"current_range_meters":4800,"station_id":"ce4bhbp2rcd13ifvqesg","pricing_plan_id":"cebpf4jnsgd1na2vs0mg"},{"bike_id":"8a556a90-c80d-488f-8c5d-61f698574cf8","system_id":"levelo_inurba_marseille","lat":43.298617,"lon":5.386711,"is_reserved":false,"is_disabled":false,"rental_uris":{"android":"levelo://app?vid=8a556a90-c80d-488f-8c5d-61f698574cf8","ios":"levelo://app?vid=8a556a90-c80d-488f-8c5d-61f698574cf8"},"vehicle_type_id":"4","last_reported":1708286856,"current_range_meters":4000,"station_id":"","pricing_plan_id":"cebpf4jnsgd1na2vs0mg"},{"bike_id":"477b4a1a-3487-402a-b0de-6e7c4fb6739d","system_id":"levelo_inurba_marseille","lat":43.293009,"lon":5.374584,"is_reserved":false,"is_disabled":false,"rental_uris":{"android":"levelo://app?vid=477b4a1a-3487-402a-b0de-6e7c4fb6739d","ios":"levelo://app?vid=477b4a1a-3487-402a-b0de-6e7c4fb6739d"},"vehicle_type_id":"4","last_reported":1708286856,"current_range_meters":17600,"station_id":"ce4bgi12rcd13ifvqb70","pricing_plan_id":"cebpf4jnsgd1na2vs0mg"},{"bike_id":"841d9abe-43ea-4a91-be60-b7ca580ed229","system_id":"levelo_inurba_marseille","lat":43.293009,"lon":5.374584,"is_reserved":false,"is_disabled":false,"rental_uris":{"android":"levelo://app?vid=841d9abe-43ea-4a91-be60-b7ca580ed229","ios":"levelo://app?vid=841d9abe-43ea-4a91-be60-b7ca580ed229"},"vehicle_type_id":"4","last_reported":1708286856,"current_range_meters":2000,"station_id":"ce4bgi12rcd13ifvqb70","pricing_plan_id":"cebpf4jnsgd1na2vs0mg"},{"bike_id":"256d86e9-af50-4571-9c84-3acaedeba65e","system_id":"levelo_inurba_marseille","lat":43.30325,"lon":5.39192,"is_reserved":false,"is_disabled":false,"rental_uris":{"android":"levelo://app?vid=256d86e9-af50-4571-9c84-3acaedeba65e","ios":"levelo://app?vid=256d86e9-af50-4571-9c84-3acaedeba65e"},"vehicle_type_id":"4","last_reported":1708286856,"current_range_meters":26800,"station_id":"ce4bgkh2rcd13ifvqbk0","pricing_plan_id":"cebpf4jnsgd1na2vs0mg"},{"bike_id":"7dbf363f-7ef1-4093-832e-011aee0a3ed2","system_id":"levelo_inurba_marseille","lat":43.301908,"lon":5.390872,"is_reserved":false,"is_disabled":false,"rental_uris":{"android":"levelo://app?vid=7dbf363f-7ef1-4093-832e-011aee0a3ed2","ios":"levelo://app?vid=7dbf363f-7ef1-4093-832e-011aee0a3ed2"},"vehicle_type_id":"4","last_reported":1708286856,"current_range_meters":19200,"station_id":"","pricing_plan_id":"cebpf4jnsgd1na2vs0mg"},{"bike_id":"0e7fab99-971d-445b-904a-ed9cae56c9e3","system_id":"levelo_inurba_marseille","lat":43.293009,"lon":5.374584,"is_reserved":false,"is_disabled":false,"rental_uris":{"android":"levelo://app?vid=0e7fab99-971d-445b-904a-ed9cae56c9e3","ios":"levelo://app?vid=0e7fab99-971d-445b-904a-ed9cae56c9e3"},"vehicle_type_id":"4","last_reported":1708286856,"current_range_meters":800,"station_id":"ce4bgi12rcd13ifvqb70","pricing_plan_id":"cebpf4jnsgd1na2vs0mg"},{"bike_id":"046a38ff-0bb5-4db7-ab77-9a2c88e052fb","system_id":"levelo_inurba_marseille","lat":43.305994,"lon":5.393687,"is_reserved":false,"is_disabled":false,"rental_uris":{"android":"levelo://app?vid=046a38ff-0bb5-4db7-ab77-9a2c88e052fb","ios":"levelo://app?vid=046a38ff-0bb5-4db7-ab77-9a2c88e052fb"},"vehicle_type_id":"4","last_reported":1708286856,"current_range_meters":2800,"station_id":"ce4bh0p2rcd13ifvqd80","pricing_plan_id":"cebpf4jnsgd1na2vs0mg"},{"bike_id":"6e15c2f4-6a12-4673-9c53-69111e6c4a54","system_id":"levelo_inurba_marseille","lat":43.305994,"lon":5.393687,"is_reserved":false,"is_disabled":false,"rental_uris":{"android":"levelo://app?vid=6e15c2f4-6a12-4673-9c53-69111e6c4a54","ios":"levelo://app?vid=6e15c2f4-6a12-4673-9c53-69111e6c4a54"},"vehicle_type_id":"4","last_reported":1708286856,"current_range_meters":20400,"station_id":"ce4bh0p2rcd13ifvqd80","pricing_plan_id":"cebpf4jnsgd1na2vs0mg"},{"bike_id":"1b25bae1-9997-4760-94ea-3bd06e454bc6","system_id":"levelo_inurba_marseille","lat":43.29293,"lon":5.37452,"is_reserved":false,"is_disabled":false,"rental_uris":{"android":"levelo://app?vid=1b25bae1-9997-4760-94ea-3bd06e454bc6","ios":"levelo://app?vid=1b25bae1-9997-4760-94ea-3bd06e454bc6"},"vehicle_type_id":"4","last_reported":1708286856,"current_range_meters":0,"station_id":"ce4bgi12rcd13ifvqb70","pricing_plan_id":"cebpf4jnsgd1na2vs0mg"},{"bike_id":"cb582b85-f832-4e7e-8f1b-bb1ed35f42be","system_id":"levelo_inurba_marseille","lat":43.305994,"lon":5.393687,"is_reserved":false,"is_disabled":false,"rental_uris":{"android":"levelo://app?vid=cb582b85-f832-4e7e-8f1b-bb1ed35f42be","ios":"levelo://app?vid=cb582b85-f832-4e7e-8f1b-bb1ed35f42be"},"vehicle_type_id":"4","last_reported":1708286856,"current_range_meters":25600,"station_id":"ce4bh0p2rcd13ifvqd80","pricing_plan_id":"cebpf4jnsgd1na2vs0mg"},{"bike_id":"7ea3707a-f1e7-4b21-93f8-21add8d18fc4","system_id":"levelo_inurba_marseille","lat":43.293009,"lon":5.374584,"is_reserved":false,"is_disabled":false,"rental_uris":{"android":"levelo://app?vid=7ea3707a-f1e7-4b21-93f8-21add8d18fc4","ios":"levelo://app?vid=7ea3707a-f1e7-4b21-93f8-21add8d18fc4"},"vehicle_type_id":"4","last_reported":1708286856,"current_range_meters":28800,"station_id":"ce4bgi12rcd13ifvqb70","pricing_plan_id":"cebpf4jnsgd1na2vs0mg"},{"bike_id":"c0ecbcd0-a7bc-4db3-8a53-7c0bb261a6d3","system_id":"levelo_inurba_marseille","lat":43.29418,"lon":5.37924,"is_reserved":false,"is_disabled":false,"rental_uris":{"android":"levelo://app?vid=c0ecbcd0-a7bc-4db3-8a53-7c0bb261a6d3","ios":"levelo://app?vid=c0ecbcd0-a7bc-4db3-8a53-7c0bb261a6d3"},"vehicle_type_id":"4","last_reported":1708286856,"current_range_meters":21600,"station_id":"","pricing_plan_id":"cebpf4jnsgd1na2vs0mg"},{"bike_id":"7bba7869-c0e8-4781-abab-5eab169c8a5b","system_id":"levelo_inurba_marseille","lat":43.312609,"lon":5.401662,"is_reserved":false,"is_disabled":false,"rental_uris":{"android":"levelo://app?vid=7bba7869-c0e8-4781-abab-5eab169c8a5b","ios":"levelo://app?vid=7bba7869-c0e8-4781-abab-5eab169c8a5b"},"vehicle_type_id":"4","last_reported":1708286856,"current_range_meters":2800,"station_id":"ce4bh092rcd13ifvqd30","pricing_plan_id":"cebpf4jnsgd1na2vs0mg"},{"bike_id":"6066a643-2a10-4559-9ed6-be05be9765d0","system_id":"levelo_inurba_marseille","lat":43.30304,"lon":5.39202,"is_reserved":false,"is_disabled":false,"rental_uris":{"android":"levelo://app?vid=6066a643-2a10-4559-9ed6-be05be9765d0","ios":"levelo://app?vid=6066a643-2a10-4559-9ed6-be05be9765d0"},"vehicle_type_id":"4","last_reported":1708286856,"current_range_meters":30000,"station_id":"ce4bgkh2rcd13ifvqbk0","pricing_plan_id":"cebpf4jnsgd1na2vs0mg"},{"bike_id":"6af704d2-5ce8-4507-9c93-5638b77dc8d2","system_id":"levelo_inurba_marseille","lat":43.30303,"lon":5.39206,"is_reserved":false,"is_disabled":false,"rental_uris":{"android":"levelo://app?vid=6af704d2-5ce8-4507-9c93-5638b77dc8d2","ios":"levelo://app?vid=6af704d2-5ce8-4507-9c93-5638b77dc8d2"},"vehicle_type_id":"4","last_reported":1708286856,"current_range_meters":29200,"station_id":"ce4bgkh2rcd13ifvqbk0","pricing_plan_id":"cebpf4jnsgd1na2vs0mg"},{"bike_id":"c8e3dc6b-e1c3-4cf6-aae4-fe7bc423b60d","system_id":"levelo_inurba_marseille","lat":43.302992,"lon":5.392136,"is_reserved":false,"is_disabled":false,"rental_uris":{"android":"levelo://app?vid=c8e3dc6b-e1c3-4cf6-aae4-fe7bc423b60d","ios":"levelo://app?vid=c8e3dc6b-e1c3-4cf6-aae4-fe7bc423b60d"},"vehicle_type_id":"4","last_reported":1708286856,"current_range_meters":27600,"station_id":"ce4bgkh2rcd13ifvqbk0","pricing_plan_id":"cebpf4jnsgd1na2vs0mg"},{"bike_id":"11e860c0-58fd-49f8-97cb-dac27fb74b6a","system_id":"levelo_inurba_marseille","lat":43.303002,"lon":5.392142,"is_reserved":false,"is_disabled":false,"rental_uris":{"android":"levelo://app?vid=11e860c0-58fd-49f8-97cb-dac27fb74b6a","ios":"levelo://app?vid=11e860c0-58fd-49f8-97cb-dac27fb74b6a"},"vehicle_type_id":"4","last_reported":1708286856,"current_range_meters":1600,"station_id":"ce4bgkh2rcd13ifvqbk0","pricing_plan_id":"cebpf4jnsgd1na2vs0mg"},{"bike_id":"0cc1a375-728d-4ffa-82bd-55c178388a2b","system_id":"levelo_inurba_marseille","lat":43.303002,"lon":5.392142,"is_reserved":false,"is_disabled":false,"rental_uris":{"android":"levelo://app?vid=0cc1a375-728d-4ffa-82bd-55c178388a2b","ios":"levelo://app?vid=0cc1a375-728d-4ffa-82bd-55c178388a2b"},"vehicle_type_id":"4","last_reported":1708286856,"current_range_meters":4400,"station_id":"ce4bgkh2rcd13ifvqbk0","pricing_plan_id":"cebpf4jnsgd1na2vs0mg"},{"bike_id":"032b0ec2-d7fd-4ac5-9f01-67959d2f1b29","system_id":"levelo_inurba_marseille","lat":43.303002,"lon":5.392142,"is_reserved":false,"is_disabled":false,"rental_uris":{"android":"levelo://app?vid=032b0ec2-d7fd-4ac5-9f01-67959d2f1b29","ios":"levelo://app?vid=032b0ec2-d7fd-4ac5-9f01-67959d2f1b29"},"vehicle_type_id":"4","last_reported":1708286856,"current_range_meters":10000,"station_id":"ce4bgkh2rcd13ifvqbk0","pricing_plan_id":"cebpf4jnsgd1na2vs0mg"},{"bike_id":"6f7f9011-acb9-4972-a72f-77efa8eb50c4","system_id":"levelo_inurba_marseille","lat":43.302992,"lon":5.392136,"is_reserved":false,"is_disabled":false,"rental_uris":{"android":"levelo://app?vid=6f7f9011-acb9-4972-a72f-77efa8eb50c4","ios":"levelo://app?vid=6f7f9011-acb9-4972-a72f-77efa8eb50c4"},"vehicle_type_id":"4","last_reported":1708286856,"current_range_meters":6800,"station_id":"ce4bgkh2rcd13ifvqbk0","pricing_plan_id":"cebpf4jnsgd1na2vs0mg"},{"bike_id":"967561bf-c6b9-4464-bb83-2ab3d9a2c19d","system_id":"levelo_inurba_marseille","lat":43.303002,"lon":5.392142,"is_reserved":false,"is_disabled":false,"rental_uris":{"android":"levelo://app?vid=967561bf-c6b9-4464-bb83-2ab3d9a2c19d","ios":"levelo://app?vid=967561bf-c6b9-4464-bb83-2ab3d9a2c19d"},"vehicle_type_id":"4","last_reported":1708286856,"current_range_meters":15600,"station_id":"ce4bgkh2rcd13ifvqbk0","pricing_plan_id":"cebpf4jnsgd1na2vs0mg"},{"bike_id":"8d70335a-a2c8-415e-83d1-a5400d9095e8","system_id":"levelo_inurba_marseille","lat":43.302992,"lon":5.392136,"is_reserved":false,"is_disabled":false,"rental_uris":{"android":"levelo://app?vid=8d70335a-a2c8-415e-83d1-a5400d9095e8","ios":"levelo://app?vid=8d70335a-a2c8-415e-83d1-a5400d9095e8"},"vehicle_type_id":"4","last_reported":1708286856,"current_range_meters":9200,"station_id":"ce4bgkh2rcd13ifvqbk0","pricing_plan_id":"cebpf4jnsgd1na2vs0mg"},{"bike_id":"d4562fed-abe3-4483-9f87-bf28051a9de6","system_id":"levelo_inurba_marseille","lat":43.302992,"lon":5.392136,"is_reserved":false,"is_disabled":false,"rental_uris":{"android":"levelo://app?vid=d4562fed-abe3-4483-9f87-bf28051a9de6","ios":"levelo://app?vid=d4562fed-abe3-4483-9f87-bf28051a9de6"},"vehicle_type_id":"4","last_reported":1708286856,"current_range_meters":8000,"station_id":"ce4bgkh2rcd13ifvqbk0","pricing_plan_id":"cebpf4jnsgd1na2vs0mg"},{"bike_id":"3dbb42ed-fcc0-4269-8a1a-2eb851fb7a85","system_id":"levelo_inurba_marseille","lat":43.29365,"lon":5.37856,"is_reserved":false,"is_disabled":false,"rental_uris":{"android":"levelo://app?vid=3dbb42ed-fcc0-4269-8a1a-2eb851fb7a85","ios":"levelo://app?vid=3dbb42ed-fcc0-4269-8a1a-2eb851fb7a85"},"vehicle_type_id":"4","last_reported":1708286856,"current_range_meters":0,"station_id":"ce4bgjh2rcd13ifvqbf0","pricing_plan_id":"cebpf4jnsgd1na2vs0mg"},{"bike_id":"fdb49841-a707-42d4-8d89-cf60ba1ce05f","system_id":"levelo_inurba_marseille","lat":43.300852,"lon":5.390859,"is_reserved":false,"is_disabled":false,"rental_uris":{"android":"levelo://app?vid=fdb49841-a707-42d4-8d89-cf60ba1ce05f","ios":"levelo://app?vid=fdb49841-a707-42d4-8d89-cf60ba1ce05f"},"vehicle_type_id":"4","last_reported":1708286856,"current_range_meters":1200,"station_id":"ce4bh192rcd13ifvqdb0","pricing_plan_id":"cebpf4jnsgd1na2vs0mg"},{"bike_id":"92041305-e269-4e28-8e33-4096eafe4e83","system_id":"levelo_inurba_marseille","lat":43.300852,"lon":5.390859,"is_reserved":false,"is_disabled":false,"rental_uris":{"android":"levelo://app?vid=92041305-e269-4e28-8e33-4096eafe4e83","ios":"levelo://app?vid=92041305-e269-4e28-8e33-4096eafe4e83"},"vehicle_type_id":"4","last_reported":1708286856,"current_range_meters":11600,"station_id":"ce4bh192rcd13ifvqdb0","pricing_plan_id":"cebpf4jnsgd1na2vs0mg"},{"bike_id":"c6e4f951-b0f2-47c8-a996-7decfc8aa8ed","system_id":"levelo_inurba_marseille","lat":43.300852,"lon":5.390859,"is_reserved":false,"is_disabled":false,"rental_uris":{"android":"levelo://app?vid=c6e4f951-b0f2-47c8-a996-7decfc8aa8ed","ios":"levelo://app?vid=c6e4f951-b0f2-47c8-a996-7decfc8aa8ed"},"vehicle_type_id":"4","last_reported":1708286856,"current_range_meters":29600,"station_id":"ce4bh192rcd13ifvqdb0","pricing_plan_id":"cebpf4jnsgd1na2vs0mg"},{"bike_id":"f632883c-bed7-49ed-90a6-af06af5f6c77","system_id":"levelo_inurba_marseille","lat":43.30085,"lon":5.390856,"is_reserved":false,"is_disabled":false,"rental_uris":{"android":"levelo://app?vid=f632883c-bed7-49ed-90a6-af06af5f6c77","ios":"levelo://app?vid=f632883c-bed7-49ed-90a6-af06af5f6c77"},"vehicle_type_id":"4","last_reported":1708286856,"current_range_meters":16800,"station_id":"ce4bh192rcd13ifvqdb0","pricing_plan_id":"cebpf4jnsgd1na2vs0mg"},{"bike_id":"0699bbc5-2993-4eb0-83bd-026b6696b161","system_id":"levelo_inurba_marseille","lat":43.298764,"lon":5.388973,"is_reserved":false,"is_disabled":false,"rental_uris":{"android":"levelo://app?vid=0699bbc5-2993-4eb0-83bd-026b6696b161","ios":"levelo://app?vid=0699bbc5-2993-4eb0-83bd-026b6696b161"},"vehicle_type_id":"4","last_reported":1708286856,"current_range_meters":12800,"station_id":"ce4bh392rcd13ifvqdl0","pricing_plan_id":"cebpf4jnsgd1na2vs0mg"},{"bike_id":"80049e37-9698-4544-8798-cff86777666a","system_id":"levelo_inurba_marseille","lat":43.291675,"lon":5.371583,"is_reserved":false,"is_disabled":false,"rental_uris":{"android":"levelo://app?vid=80049e37-9698-4544-8798-cff86777666a","ios":"levelo://app?vid=80049e37-9698-4544-8798-cff86777666a"},"vehicle_type_id":"4","last_reported":1708286856,"current_range_meters":27600,"station_id":"ce4bha92rcd13ifvqeh0","pricing_plan_id":"cebpf4jnsgd1na2vs0mg"},{"bike_id":"af88e841-722d-4b4b-8e54-5c49c210449c","system_id":"levelo_inurba_marseille","lat":43.298764,"lon":5.388973,"is_reserved":false,"is_disabled":false,"rental_uris":{"android":"levelo://app?vid=af88e841-722d-4b4b-8e54-5c49c210449c","ios":"levelo://app?vid=af88e841-722d-4b4b-8e54-5c49c210449c"},"vehicle_type_id":"4","last_reported":1708286856,"current_range_meters":31200,"station_id":"ce4bh392rcd13ifvqdl0","pricing_plan_id":"cebpf4jnsgd1na2vs0mg"},{"bike_id":"884001e6-47a5-486e-8cde-6c72f5c3f7bb","system_id":"levelo_inurba_marseille","lat":43.298764,"lon":5.388973,"is_reserved":false,"is_disabled":false,"rental_uris":{"android":"levelo://app?vid=884001e6-47a5-486e-8cde-6c72f5c3f7bb","ios":"levelo://app?vid=884001e6-47a5-486e-8cde-6c72f5c3f7bb"},"vehicle_type_id":"4","last_reported":1708286856,"current_range_meters":7600,"station_id":"ce4bh392rcd13ifvqdl0","pricing_plan_id":"cebpf4jnsgd1na2vs0mg"},{"bike_id":"e311507f-1b78-47fd-b1eb-12b48451dc23","system_id":"levelo_inurba_marseille","lat":43.309038,"lon":5.396546,"is_reserved":false,"is_disabled":false,"rental_uris":{"android":"levelo://app?vid=e311507f-1b78-47fd-b1eb-12b48451dc23","ios":"levelo://app?vid=e311507f-1b78-47fd-b1eb-12b48451dc23"},"vehicle_type_id":"4","last_reported":1708286856,"current_range_meters":12800,"station_id":"ce4bh012rcd13ifvqcv0","pricing_plan_id":"cebpf4jnsgd1na2vs0mg"},{"bike_id":"4855b47e-03e0-4661-8082-aa22dd0b72a6","system_id":"levelo_inurba_marseille","lat":43.309047,"lon":5.396551,"is_reserved":false,"is_disabled":false,"rental_uris":{"android":"levelo://app?vid=4855b47e-03e0-4661-8082-aa22dd0b72a6","ios":"levelo://app?vid=4855b47e-03e0-4661-8082-aa22dd0b72a6"},"vehicle_type_id":"4","last_reported":1708286856,"current_range_meters":3600,"station_id":"ce4bh012rcd13ifvqcv0","pricing_plan_id":"cebpf4jnsgd1na2vs0mg"},{"bike_id":"a544e2b4-48bd-47c4-92d7-a64365af6ec1","system_id":"levelo_inurba_marseille","lat":43.309038,"lon":5.396546,"is_reserved":false,"is_disabled":false,"rental_uris":{"android":"levelo://app?vid=a544e2b4-48bd-47c4-92d7-a64365af6ec1","ios":"levelo://app?vid=a544e2b4-48bd-47c4-92d7-a64365af6ec1"},"vehicle_type_id":"4","last_reported":1708286856,"current_range_meters":10000,"station_id":"ce4bh012rcd13ifvqcv0","pricing_plan_id":"cebpf4jnsgd1na2vs0mg"},{"bike_id":"bcd80391-b2b1-4e6e-8c13-e8c9003a8d20","system_id":"levelo_inurba_marseille","lat":43.309047,"lon":5.396551,"is_reserved":false,"is_disabled":false,"rental_uris":{"android":"levelo://app?vid=bcd80391-b2b1-4e6e-8c13-e8c9003a8d20","ios":"levelo://app?vid=bcd80391-b2b1-4e6e-8c13-e8c9003a8d20"},"vehicle_type_id":"4","last_reported":1708286856,"current_range_meters":16000,"station_id":"ce4bh012rcd13ifvqcv0","pricing_plan_id":"cebpf4jnsgd1na2vs0mg"},{"bike_id":"a9d44bb0-efd0-49b7-a954-405cceb13ad1","system_id":"levelo_inurba_marseille","lat":43.29195,"lon":5.35792,"is_reserved":false,"is_disabled":false,"rental_uris":{"android":"levelo://app?vid=a9d44bb0-efd0-49b7-a954-405cceb13ad1","ios":"levelo://app?vid=a9d44bb0-efd0-49b7-a954-405cceb13ad1"},"vehicle_type_id":"4","last_reported":1708286856,"current_range_meters":28800,"station_id":"ce4bhb12rcd13ifvqel0","pricing_plan_id":"cebpf4jnsgd1na2vs0mg"},{"bike_id":"cfe7838c-6510-4393-9537-cdef4f2a5ba1","system_id":"levelo_inurba_marseille","lat":43.291918,"lon":5.35795,"is_reserved":false,"is_disabled":false,"rental_uris":{"android":"levelo://app?vid=cfe7838c-6510-4393-9537-cdef4f2a5ba1","ios":"levelo://app?vid=cfe7838c-6510-4393-9537-cdef4f2a5ba1"},"vehicle_type_id":"4","last_reported":1708286856,"current_range_meters":12400,"station_id":"ce4bhb12rcd13ifvqel0","pricing_plan_id":"cebpf4jnsgd1na2vs0mg"},{"bike_id":"2a76fd2f-cdd3-47da-9491-ee6921ec08f5","system_id":"levelo_inurba_marseille","lat":43.291994,"lon":5.357886,"is_reserved":false,"is_disabled":false,"rental_uris":{"android":"levelo://app?vid=2a76fd2f-cdd3-47da-9491-ee6921ec08f5","ios":"levelo://app?vid=2a76fd2f-cdd3-47da-9491-ee6921ec08f5"},"vehicle_type_id":"4","last_reported":1708286856,"current_range_meters":30800,"station_id":"ce4bhb12rcd13ifvqel0","pricing_plan_id":"cebpf4jnsgd1na2vs0mg"},{"bike_id":"37446dcf-72f3-4f5a-ad15-bb4f7500754d","system_id":"levelo_inurba_marseille","lat":43.313291,"lon":5.396838,"is_reserved":false,"is_disabled":false,"rental_uris":{"android":"levelo://app?vid=37446dcf-72f3-4f5a-ad15-bb4f7500754d","ios":"levelo://app?vid=37446dcf-72f3-4f5a-ad15-bb4f7500754d"},"vehicle_type_id":"4","last_reported":1708286856,"current_range_meters":2800,"station_id":"ce4bgvp2rcd13ifvqcu0","pricing_plan_id":"cebpf4jnsgd1na2vs0mg"},{"bike_id":"b5f5e0c7-4917-4939-b486-49efb338ef43","system_id":"levelo_inurba_marseille","lat":43.313291,"lon":5.396838,"is_reserved":false,"is_disabled":false,"rental_uris":{"android":"levelo://app?vid=b5f5e0c7-4917-4939-b486-49efb338ef43","ios":"levelo://app?vid=b5f5e0c7-4917-4939-b486-49efb338ef43"},"vehicle_type_id":"4","last_reported":1708286856,"current_range_meters":21200,"station_id":"ce4bgvp2rcd13ifvqcu0","pricing_plan_id":"cebpf4jnsgd1na2vs0mg"},{"bike_id":"f13b4a0b-cf19-4ab0-b413-850760ffaeb9","system_id":"levelo_inurba_marseille","lat":43.291994,"lon":5.357886,"is_reserved":false,"is_disabled":false,"rental_uris":{"android":"levelo://app?vid=f13b4a0b-cf19-4ab0-b413-850760ffaeb9","ios":"levelo://app?vid=f13b4a0b-cf19-4ab0-b413-850760ffaeb9"},"vehicle_type_id":"4","last_reported":1708286856,"current_range_meters":29200,"station_id":"ce4bhb12rcd13ifvqel0","pricing_plan_id":"cebpf4jnsgd1na2vs0mg"},{"bike_id":"c6b87a43-9856-4188-a4b6-5cdbddcb2b57","system_id":"levelo_inurba_marseille","lat":43.29186,"lon":5.35803,"is_reserved":false,"is_disabled":false,"rental_uris":{"android":"levelo://app?vid=c6b87a43-9856-4188-a4b6-5cdbddcb2b57","ios":"levelo://app?vid=c6b87a43-9856-4188-a4b6-5cdbddcb2b57"},"vehicle_type_id":"4","last_reported":1708286856,"current_range_meters":30800,"station_id":"ce4bhb12rcd13ifvqel0","pricing_plan_id":"cebpf4jnsgd1na2vs0mg"},{"bike_id":"ca9849d2-4fc5-4990-a99f-13be51f9cd4e","system_id":"levelo_inurba_marseille","lat":43.291994,"lon":5.357886,"is_reserved":false,"is_disabled":false,"rental_uris":{"android":"levelo://app?vid=ca9849d2-4fc5-4990-a99f-13be51f9cd4e","ios":"levelo://app?vid=ca9849d2-4fc5-4990-a99f-13be51f9cd4e"},"vehicle_type_id":"4","last_reported":1708286856,"current_range_meters":29600,"station_id":"ce4bhb12rcd13ifvqel0","pricing_plan_id":"cebpf4jnsgd1na2vs0mg"},{"bike_id":"44ef20ec-661f-4703-b576-b016ac4a2d6d","system_id":"levelo_inurba_marseille","lat":43.309038,"lon":5.396546,"is_reserved":false,"is_disabled":false,"rental_uris":{"android":"levelo://app?vid=44ef20ec-661f-4703-b576-b016ac4a2d6d","ios":"levelo://app?vid=44ef20ec-661f-4703-b576-b016ac4a2d6d"},"vehicle_type_id":"4","last_reported":1708286856,"current_range_meters":12400,"station_id":"ce4bh012rcd13ifvqcv0","pricing_plan_id":"cebpf4jnsgd1na2vs0mg"},{"bike_id":"bc4d91b2-6508-403f-92db-658e30174b19","system_id":"levelo_inurba_marseille","lat":43.309047,"lon":5.396551,"is_reserved":false,"is_disabled":false,"rental_uris":{"android":"levelo://app?vid=bc4d91b2-6508-403f-92db-658e30174b19","ios":"levelo://app?vid=bc4d91b2-6508-403f-92db-658e30174b19"},"vehicle_type_id":"4","last_reported":1708286856,"current_range_meters":0,"station_id":"ce4bh012rcd13ifvqcv0","pricing_plan_id":"cebpf4jnsgd1na2vs0mg"},{"bike_id":"e2134e10-fcf4-4881-884f-a207ef35b3eb","system_id":"levelo_inurba_marseille","lat":43.29183,"lon":5.35792,"is_reserved":false,"is_disabled":false,"rental_uris":{"android":"levelo://app?vid=e2134e10-fcf4-4881-884f-a207ef35b3eb","ios":"levelo://app?vid=e2134e10-fcf4-4881-884f-a207ef35b3eb"},"vehicle_type_id":"4","last_reported":1708286856,"current_range_meters":30800,"station_id":"ce4bhb12rcd13ifvqel0","pricing_plan_id":"cebpf4jnsgd1na2vs0mg"},{"bike_id":"5489f31d-19cb-4839-8413-b21c841814d4","system_id":"levelo_inurba_marseille","lat":43.309047,"lon":5.396551,"is_reserved":false,"is_disabled":false,"rental_uris":{"android":"levelo://app?vid=5489f31d-19cb-4839-8413-b21c841814d4","ios":"levelo://app?vid=5489f31d-19cb-4839-8413-b21c841814d4"},"vehicle_type_id":"4","last_reported":1708286856,"current_range_meters":3200,"station_id":"ce4bh012rcd13ifvqcv0","pricing_plan_id":"cebpf4jnsgd1na2vs0mg"},{"bike_id":"d9ce6c1a-9583-451e-9e11-57d3000b67e7","system_id":"levelo_inurba_marseille","lat":43.293103,"lon":5.380393,"is_reserved":false,"is_disabled":false,"rental_uris":{"android":"levelo://app?vid=d9ce6c1a-9583-451e-9e11-57d3000b67e7","ios":"levelo://app?vid=d9ce6c1a-9583-451e-9e11-57d3000b67e7"},"vehicle_type_id":"4","last_reported":1708286856,"current_range_meters":22400,"station_id":"","pricing_plan_id":"cebpf4jnsgd1na2vs0mg"},{"bike_id":"8a9289b3-dc34-4a0f-8b0c-baaefa36d3c4","system_id":"levelo_inurba_marseille","lat":43.29529,"lon":5.385581,"is_reserved":false,"is_disabled":false,"rental_uris":{"android":"levelo://app?vid=8a9289b3-dc34-4a0f-8b0c-baaefa36d3c4","ios":"levelo://app?vid=8a9289b3-dc34-4a0f-8b0c-baaefa36d3c4"},"vehicle_type_id":"4","last_reported":1708286856,"current_range_meters":0,"station_id":"ce4bgih2rcd13ifvqba0","pricing_plan_id":"cebpf4jnsgd1na2vs0mg"},{"bike_id":"aea7cf42-b6d9-46ba-8b41-128297f56295","system_id":"levelo_inurba_marseille","lat":43.29529,"lon":5.385581,"is_reserved":false,"is_disabled":false,"rental_uris":{"android":"levelo://app?vid=aea7cf42-b6d9-46ba-8b41-128297f56295","ios":"levelo://app?vid=aea7cf42-b6d9-46ba-8b41-128297f56295"},"vehicle_type_id":"4","last_reported":1708286856,"current_range_meters":23200,"station_id":"ce4bgih2rcd13ifvqba0","pricing_plan_id":"cebpf4jnsgd1na2vs0mg"},{"bike_id":"1c9da7e7-1162-4b49-b6a4-05ff85752388","system_id":"levelo_inurba_marseille","lat":43.29537,"lon":5.38546,"is_reserved":false,"is_disabled":false,"rental_uris":{"android":"levelo://app?vid=1c9da7e7-1162-4b49-b6a4-05ff85752388","ios":"levelo://app?vid=1c9da7e7-1162-4b49-b6a4-05ff85752388"},"vehicle_type_id":"4","last_reported":1708286856,"current_range_meters":0,"station_id":"ce4bgih2rcd13ifvqba0","pricing_plan_id":"cebpf4jnsgd1na2vs0mg"},{"bike_id":"b622b602-09b4-4966-9edc-e2d16538af97","system_id":"levelo_inurba_marseille","lat":43.295353,"lon":5.38556,"is_reserved":false,"is_disabled":false,"rental_uris":{"android":"levelo://app?vid=b622b602-09b4-4966-9edc-e2d16538af97","ios":"levelo://app?vid=b622b602-09b4-4966-9edc-e2d16538af97"},"vehicle_type_id":"4","last_reported":1708286856,"current_range_meters":8400,"station_id":"ce4bgih2rcd13ifvqba0","pricing_plan_id":"cebpf4jnsgd1na2vs0mg"},{"bike_id":"d4b45b56-09b4-4208-856a-76943b783bc3","system_id":"levelo_inurba_marseille","lat":43.29529,"lon":5.385581,"is_reserved":false,"is_disabled":false,"rental_uris":{"android":"levelo://app?vid=d4b45b56-09b4-4208-856a-76943b783bc3","ios":"levelo://app?vid=d4b45b56-09b4-4208-856a-76943b783bc3"},"vehicle_type_id":"4","last_reported":1708286856,"current_range_meters":4000,"station_id":"ce4bgih2rcd13ifvqba0","pricing_plan_id":"cebpf4jnsgd1na2vs0mg"},{"bike_id":"dd1c3137-f4ce-4a7d-939a-0d0077e75553","system_id":"levelo_inurba_marseille","lat":43.290599,"lon":5.370534,"is_reserved":false,"is_disabled":false,"rental_uris":{"android":"levelo://app?vid=dd1c3137-f4ce-4a7d-939a-0d0077e75553","ios":"levelo://app?vid=dd1c3137-f4ce-4a7d-939a-0d0077e75553"},"vehicle_type_id":"4","last_reported":1708286856,"current_range_meters":26400,"station_id":"","pricing_plan_id":"cebpf4jnsgd1na2vs0mg"},{"bike_id":"44c1844b-d825-4ce1-b282-7cf2eb2d13d7","system_id":"levelo_inurba_marseille","lat":43.302008,"lon":5.394694,"is_reserved":false,"is_disabled":false,"rental_uris":{"android":"levelo://app?vid=44c1844b-d825-4ce1-b282-7cf2eb2d13d7","ios":"levelo://app?vid=44c1844b-d825-4ce1-b282-7cf2eb2d13d7"},"vehicle_type_id":"4","last_reported":1708286856,"current_range_meters":9600,"station_id":"ce4bh0p2rcd13ifvqd70","pricing_plan_id":"cebpf4jnsgd1na2vs0mg"},{"bike_id":"6cece527-74a9-4162-bfdd-f7a41645eb54","system_id":"levelo_inurba_marseille","lat":43.30209,"lon":5.39468,"is_reserved":false,"is_disabled":false,"rental_uris":{"android":"levelo://app?vid=6cece527-74a9-4162-bfdd-f7a41645eb54","ios":"levelo://app?vid=6cece527-74a9-4162-bfdd-f7a41645eb54"},"vehicle_type_id":"4","last_reported":1708286856,"current_range_meters":1200,"station_id":"ce4bh0p2rcd13ifvqd70","pricing_plan_id":"cebpf4jnsgd1na2vs0mg"},{"bike_id":"71e0213b-0f16-4faa-b9ca-8130e3a903a1","system_id":"levelo_inurba_marseille","lat":43.30203,"lon":5.39475,"is_reserved":false,"is_disabled":false,"rental_uris":{"android":"levelo://app?vid=71e0213b-0f16-4faa-b9ca-8130e3a903a1","ios":"levelo://app?vid=71e0213b-0f16-4faa-b9ca-8130e3a903a1"},"vehicle_type_id":"4","last_reported":1708286856,"current_range_meters":8000,"station_id":"ce4bh0p2rcd13ifvqd70","pricing_plan_id":"cebpf4jnsgd1na2vs0mg"},{"bike_id":"dadb1b01-8e87-469f-8feb-0ba1513ba5ac","system_id":"levelo_inurba_marseille","lat":43.290631,"lon":5.359244,"is_reserved":false,"is_disabled":false,"rental_uris":{"android":"levelo://app?vid=dadb1b01-8e87-469f-8feb-0ba1513ba5ac","ios":"levelo://app?vid=dadb1b01-8e87-469f-8feb-0ba1513ba5ac"},"vehicle_type_id":"4","last_reported":1708286856,"current_range_meters":19600,"station_id":"ce4bha92rcd13ifvqeg0","pricing_plan_id":"cebpf4jnsgd1na2vs0mg"},{"bike_id":"5acd2e91-5b38-4ac1-94e6-72f1337052d1","system_id":"levelo_inurba_marseille","lat":43.290624,"lon":5.359245,"is_reserved":false,"is_disabled":false,"rental_uris":{"android":"levelo://app?vid=5acd2e91-5b38-4ac1-94e6-72f1337052d1","ios":"levelo://app?vid=5acd2e91-5b38-4ac1-94e6-72f1337052d1"},"vehicle_type_id":"4","last_reported":1708286856,"current_range_meters":31200,"station_id":"ce4bha92rcd13ifvqeg0","pricing_plan_id":"cebpf4jnsgd1na2vs0mg"},{"bike_id":"9e83dfc0-7bb5-49ab-a339-9aae3cb744e0","system_id":"levelo_inurba_marseille","lat":43.290631,"lon":5.359244,"is_reserved":false,"is_disabled":false,"rental_uris":{"android":"levelo://app?vid=9e83dfc0-7bb5-49ab-a339-9aae3cb744e0","ios":"levelo://app?vid=9e83dfc0-7bb5-49ab-a339-9aae3cb744e0"},"vehicle_type_id":"4","last_reported":1708286856,"current_range_meters":25600,"station_id":"ce4bha92rcd13ifvqeg0","pricing_plan_id":"cebpf4jnsgd1na2vs0mg"},{"bike_id":"a649df38-fed4-498c-9e1e-876e5e083306","system_id":"levelo_inurba_marseille","lat":43.290631,"lon":5.359244,"is_reserved":false,"is_disabled":false,"rental_uris":{"android":"levelo://app?vid=a649df38-fed4-498c-9e1e-876e5e083306","ios":"levelo://app?vid=a649df38-fed4-498c-9e1e-876e5e083306"},"vehicle_type_id":"4","last_reported":1708286856,"current_range_meters":20800,"station_id":"ce4bha92rcd13ifvqeg0","pricing_plan_id":"cebpf4jnsgd1na2vs0mg"},{"bike_id":"d2483d36-35a6-4e7c-9623-1c624ae5ca47","system_id":"levelo_inurba_marseille","lat":43.290624,"lon":5.359245,"is_reserved":false,"is_disabled":false,"rental_uris":{"android":"levelo://app?vid=d2483d36-35a6-4e7c-9623-1c624ae5ca47","ios":"levelo://app?vid=d2483d36-35a6-4e7c-9623-1c624ae5ca47"},"vehicle_type_id":"4","last_reported":1708286856,"current_range_meters":26400,"station_id":"ce4bha92rcd13ifvqeg0","pricing_plan_id":"cebpf4jnsgd1na2vs0mg"},{"bike_id":"9ebee79a-36e2-40ad-80b8-773aca584249","system_id":"levelo_inurba_marseille","lat":43.294153,"lon":5.386305,"is_reserved":false,"is_disabled":false,"rental_uris":{"android":"levelo://app?vid=9ebee79a-36e2-40ad-80b8-773aca584249","ios":"levelo://app?vid=9ebee79a-36e2-40ad-80b8-773aca584249"},"vehicle_type_id":"4","last_reported":1708286856,"current_range_meters":31200,"station_id":"ce4bh2h2rcd13ifvqdh0","pricing_plan_id":"cebpf4jnsgd1na2vs0mg"},{"bike_id":"fa874139-f514-4a68-b2dd-22433c5feba4","system_id":"levelo_inurba_marseille","lat":43.294153,"lon":5.386305,"is_reserved":false,"is_disabled":false,"rental_uris":{"android":"levelo://app?vid=fa874139-f514-4a68-b2dd-22433c5feba4","ios":"levelo://app?vid=fa874139-f514-4a68-b2dd-22433c5feba4"},"vehicle_type_id":"4","last_reported":1708286856,"current_range_meters":18400,"station_id":"ce4bh2h2rcd13ifvqdh0","pricing_plan_id":"cebpf4jnsgd1na2vs0mg"},{"bike_id":"8168ce3d-d7d9-465a-8dfe-15cd3274923f","system_id":"levelo_inurba_marseille","lat":43.294245,"lon":5.386355,"is_reserved":false,"is_disabled":false,"rental_uris":{"android":"levelo://app?vid=8168ce3d-d7d9-465a-8dfe-15cd3274923f","ios":"levelo://app?vid=8168ce3d-d7d9-465a-8dfe-15cd3274923f"},"vehicle_type_id":"4","last_reported":1708286856,"current_range_meters":400,"station_id":"ce4bh2h2rcd13ifvqdh0","pricing_plan_id":"cebpf4jnsgd1na2vs0mg"},{"bike_id":"69c0e886-0bc4-4e99-bf8c-fddebc36200f","system_id":"levelo_inurba_marseille","lat":43.290327,"lon":5.375711,"is_reserved":false,"is_disabled":false,"rental_uris":{"android":"levelo://app?vid=69c0e886-0bc4-4e99-bf8c-fddebc36200f","ios":"levelo://app?vid=69c0e886-0bc4-4e99-bf8c-fddebc36200f"},"vehicle_type_id":"4","last_reported":1708286856,"current_range_meters":13600,"station_id":"ce4bh692rcd13ifvqe90","pricing_plan_id":"cebpf4jnsgd1na2vs0mg"},{"bike_id":"6364de47-d6b2-4016-87ea-a0fc1fb88d1f","system_id":"levelo_inurba_marseille","lat":43.29416,"lon":5.38631,"is_reserved":false,"is_disabled":false,"rental_uris":{"android":"levelo://app?vid=6364de47-d6b2-4016-87ea-a0fc1fb88d1f","ios":"levelo://app?vid=6364de47-d6b2-4016-87ea-a0fc1fb88d1f"},"vehicle_type_id":"4","last_reported":1708286856,"current_range_meters":0,"station_id":"ce4bh2h2rcd13ifvqdh0","pricing_plan_id":"cebpf4jnsgd1na2vs0mg"},{"bike_id":"9f1aa295-8f98-4ad0-8d4a-a8a6e73a618f","system_id":"levelo_inurba_marseille","lat":43.296263,"lon":5.40601,"is_reserved":false,"is_disabled":false,"rental_uris":{"android":"levelo://app?vid=9f1aa295-8f98-4ad0-8d4a-a8a6e73a618f","ios":"levelo://app?vid=9f1aa295-8f98-4ad0-8d4a-a8a6e73a618f"},"vehicle_type_id":"4","last_reported":1708286856,"current_range_meters":16000,"station_id":"ce4bh0h2rcd13ifvqd60","pricing_plan_id":"cebpf4jnsgd1na2vs0mg"},{"bike_id":"997c1a20-f901-4617-b952-ad4bdd2951c0","system_id":"levelo_inurba_marseille","lat":43.289468,"lon":5.363719,"is_reserved":false,"is_disabled":false,"rental_uris":{"android":"levelo://app?vid=997c1a20-f901-4617-b952-ad4bdd2951c0","ios":"levelo://app?vid=997c1a20-f901-4617-b952-ad4bdd2951c0"},"vehicle_type_id":"4","last_reported":1708286856,"current_range_meters":800,"station_id":"ce4bhc92rcd13ifvqetg","pricing_plan_id":"cebpf4jnsgd1na2vs0mg"},{"bike_id":"2dea8a01-b352-4a8a-9f92-e49ef0cf9e92","system_id":"levelo_inurba_marseille","lat":43.289184,"lon":5.366408,"is_reserved":false,"is_disabled":false,"rental_uris":{"android":"levelo://app?vid=2dea8a01-b352-4a8a-9f92-e49ef0cf9e92","ios":"levelo://app?vid=2dea8a01-b352-4a8a-9f92-e49ef0cf9e92"},"vehicle_type_id":"4","last_reported":1708286856,"current_range_meters":14000,"station_id":"ce4bhap2rcd13ifvqek0","pricing_plan_id":"cebpf4jnsgd1na2vs0mg"},{"bike_id":"f4353a49-a470-4bf1-8fdb-b69ccdf027dd","system_id":"levelo_inurba_marseille","lat":43.289184,"lon":5.366408,"is_reserved":false,"is_disabled":false,"rental_uris":{"android":"levelo://app?vid=f4353a49-a470-4bf1-8fdb-b69ccdf027dd","ios":"levelo://app?vid=f4353a49-a470-4bf1-8fdb-b69ccdf027dd"},"vehicle_type_id":"4","last_reported":1708286856,"current_range_meters":15200,"station_id":"ce4bhap2rcd13ifvqek0","pricing_plan_id":"cebpf4jnsgd1na2vs0mg"},{"bike_id":"884fd380-a228-44a7-ab8d-89f5d5d1e0ff","system_id":"levelo_inurba_marseille","lat":43.289468,"lon":5.363719,"is_reserved":false,"is_disabled":false,"rental_uris":{"android":"levelo://app?vid=884fd380-a228-44a7-ab8d-89f5d5d1e0ff","ios":"levelo://app?vid=884fd380-a228-44a7-ab8d-89f5d5d1e0ff"},"vehicle_type_id":"4","last_reported":1708286856,"current_range_meters":12000,"station_id":"ce4bhc92rcd13ifvqetg","pricing_plan_id":"cebpf4jnsgd1na2vs0mg"},{"bike_id":"a706f92f-5830-4821-9e6b-bbcdab1bce2e","system_id":"levelo_inurba_marseille","lat":43.289468,"lon":5.363719,"is_reserved":false,"is_disabled":false,"rental_uris":{"android":"levelo://app?vid=a706f92f-5830-4821-9e6b-bbcdab1bce2e","ios":"levelo://app?vid=a706f92f-5830-4821-9e6b-bbcdab1bce2e"},"vehicle_type_id":"4","last_reported":1708286856,"current_range_meters":17200,"station_id":"ce4bhc92rcd13ifvqetg","pricing_plan_id":"cebpf4jnsgd1na2vs0mg"},{"bike_id":"9f64fcb4-f100-4256-b541-73f6e79d89a3","system_id":"levelo_inurba_marseille","lat":43.289468,"lon":5.363719,"is_reserved":false,"is_disabled":false,"rental_uris":{"android":"levelo://app?vid=9f64fcb4-f100-4256-b541-73f6e79d89a3","ios":"levelo://app?vid=9f64fcb4-f100-4256-b541-73f6e79d89a3"},"vehicle_type_id":"4","last_reported":1708286856,"current_range_meters":4800,"station_id":"ce4bhc92rcd13ifvqetg","pricing_plan_id":"cebpf4jnsgd1na2vs0mg"},{"bike_id":"9e379f88-50d2-4f68-8607-c79d986c735d","system_id":"levelo_inurba_marseille","lat":43.304296,"lon":5.397513,"is_reserved":false,"is_disabled":false,"rental_uris":{"android":"levelo://app?vid=9e379f88-50d2-4f68-8607-c79d986c735d","ios":"levelo://app?vid=9e379f88-50d2-4f68-8607-c79d986c735d"},"vehicle_type_id":"4","last_reported":1708286856,"current_range_meters":7600,"station_id":"ce4bh092rcd13ifvqd20","pricing_plan_id":"cebpf4jnsgd1na2vs0mg"},{"bike_id":"acd058db-b727-4fc7-9f97-ed0d220c5a2f","system_id":"levelo_inurba_marseille","lat":43.29036,"lon":5.37784,"is_reserved":false,"is_disabled":false,"rental_uris":{"android":"levelo://app?vid=acd058db-b727-4fc7-9f97-ed0d220c5a2f","ios":"levelo://app?vid=acd058db-b727-4fc7-9f97-ed0d220c5a2f"},"vehicle_type_id":"4","last_reported":1708286856,"current_range_meters":0,"station_id":"","pricing_plan_id":"cebpf4jnsgd1na2vs0mg"},{"bike_id":"bd1bddb1-5017-4178-b556-06a7ea493065","system_id":"levelo_inurba_marseille","lat":43.292644,"lon":5.384257,"is_reserved":false,"is_disabled":false,"rental_uris":{"android":"levelo://app?vid=bd1bddb1-5017-4178-b556-06a7ea493065","ios":"levelo://app?vid=bd1bddb1-5017-4178-b556-06a7ea493065"},"vehicle_type_id":"4","last_reported":1708286856,"current_range_meters":27200,"station_id":"ce4bh692rcd13ifvqea0","pricing_plan_id":"cebpf4jnsgd1na2vs0mg"},{"bike_id":"7fbc2cce-3cab-4988-ba9b-7779d2a60125","system_id":"levelo_inurba_marseille","lat":43.304274,"lon":5.397513,"is_reserved":false,"is_disabled":false,"rental_uris":{"android":"levelo://app?vid=7fbc2cce-3cab-4988-ba9b-7779d2a60125","ios":"levelo://app?vid=7fbc2cce-3cab-4988-ba9b-7779d2a60125"},"vehicle_type_id":"4","last_reported":1708286856,"current_range_meters":22400,"station_id":"ce4bh092rcd13ifvqd20","pricing_plan_id":"cebpf4jnsgd1na2vs0mg"},{"bike_id":"6e09ae5f-3f15-43c1-adba-80007719e3c8","system_id":"levelo_inurba_marseille","lat":43.29255,"lon":5.384423,"is_reserved":false,"is_disabled":false,"rental_uris":{"android":"levelo://app?vid=6e09ae5f-3f15-43c1-adba-80007719e3c8","ios":"levelo://app?vid=6e09ae5f-3f15-43c1-adba-80007719e3c8"},"vehicle_type_id":"4","last_reported":1708286856,"current_range_meters":15200,"station_id":"ce4bh692rcd13ifvqea0","pricing_plan_id":"cebpf4jnsgd1na2vs0mg"},{"bike_id":"7976152a-ed9b-42d0-88ac-9bb56b0689e4","system_id":"levelo_inurba_marseille","lat":43.29256,"lon":5.38446,"is_reserved":false,"is_disabled":false,"rental_uris":{"android":"levelo://app?vid=7976152a-ed9b-42d0-88ac-9bb56b0689e4","ios":"levelo://app?vid=7976152a-ed9b-42d0-88ac-9bb56b0689e4"},"vehicle_type_id":"4","last_reported":1708286856,"current_range_meters":12800,"station_id":"ce4bh692rcd13ifvqea0","pricing_plan_id":"cebpf4jnsgd1na2vs0mg"},{"bike_id":"be4e2c45-ca60-4fb1-917b-50cf759cb8d9","system_id":"levelo_inurba_marseille","lat":43.2925,"lon":5.38442,"is_reserved":false,"is_disabled":false,"rental_uris":{"android":"levelo://app?vid=be4e2c45-ca60-4fb1-917b-50cf759cb8d9","ios":"levelo://app?vid=be4e2c45-ca60-4fb1-917b-50cf759cb8d9"},"vehicle_type_id":"4","last_reported":1708286856,"current_range_meters":15600,"station_id":"ce4bh692rcd13ifvqea0","pricing_plan_id":"cebpf4jnsgd1na2vs0mg"},{"bike_id":"64c8a977-e817-4529-bbbf-d54830de4873","system_id":"levelo_inurba_marseille","lat":43.29103,"lon":5.38085,"is_reserved":false,"is_disabled":false,"rental_uris":{"android":"levelo://app?vid=64c8a977-e817-4529-bbbf-d54830de4873","ios":"levelo://app?vid=64c8a977-e817-4529-bbbf-d54830de4873"},"vehicle_type_id":"4","last_reported":1708286856,"current_range_meters":19600,"station_id":"","pricing_plan_id":"cebpf4jnsgd1na2vs0mg"},{"bike_id":"78a989b8-3012-4cb6-9c8e-92496660442d","system_id":"levelo_inurba_marseille","lat":43.290104,"lon":5.356111,"is_reserved":false,"is_disabled":false,"rental_uris":{"android":"levelo://app?vid=78a989b8-3012-4cb6-9c8e-92496660442d","ios":"levelo://app?vid=78a989b8-3012-4cb6-9c8e-92496660442d"},"vehicle_type_id":"4","last_reported":1708286856,"current_range_meters":0,"station_id":"ce4bhb92rcd13ifvqen0","pricing_plan_id":"cebpf4jnsgd1na2vs0mg"},{"bike_id":"0034036d-4212-45f5-b615-3cd94b222a68","system_id":"levelo_inurba_marseille","lat":43.29003,"lon":5.35618,"is_reserved":false,"is_disabled":false,"rental_uris":{"android":"levelo://app?vid=0034036d-4212-45f5-b615-3cd94b222a68","ios":"levelo://app?vid=0034036d-4212-45f5-b615-3cd94b222a68"},"vehicle_type_id":"4","last_reported":1708286856,"current_range_meters":29200,"station_id":"ce4bhb92rcd13ifvqen0","pricing_plan_id":"cebpf4jnsgd1na2vs0mg"},{"bike_id":"3e770269-aa5d-41c8-a1a2-0e2dfb62a51f","system_id":"levelo_inurba_marseille","lat":43.290103,"lon":5.356114,"is_reserved":false,"is_disabled":false,"rental_uris":{"android":"levelo://app?vid=3e770269-aa5d-41c8-a1a2-0e2dfb62a51f","ios":"levelo://app?vid=3e770269-aa5d-41c8-a1a2-0e2dfb62a51f"},"vehicle_type_id":"4","last_reported":1708286856,"current_range_meters":30000,"station_id":"ce4bhb92rcd13ifvqen0","pricing_plan_id":"cebpf4jnsgd1na2vs0mg"},{"bike_id":"47c6b448-0f24-4b91-97ca-734287c270d8","system_id":"levelo_inurba_marseille","lat":43.290103,"lon":5.356114,"is_reserved":false,"is_disabled":false,"rental_uris":{"android":"levelo://app?vid=47c6b448-0f24-4b91-97ca-734287c270d8","ios":"levelo://app?vid=47c6b448-0f24-4b91-97ca-734287c270d8"},"vehicle_type_id":"4","last_reported":1708286856,"current_range_meters":30000,"station_id":"ce4bhb92rcd13ifvqen0","pricing_plan_id":"cebpf4jnsgd1na2vs0mg"},{"bike_id":"6f7abe8a-9958-4092-b926-4d6ea396f282","system_id":"levelo_inurba_marseille","lat":43.29001,"lon":5.35614,"is_reserved":false,"is_disabled":false,"rental_uris":{"android":"levelo://app?vid=6f7abe8a-9958-4092-b926-4d6ea396f282","ios":"levelo://app?vid=6f7abe8a-9958-4092-b926-4d6ea396f282"},"vehicle_type_id":"4","last_reported":1708286856,"current_range_meters":31200,"station_id":"ce4bhb92rcd13ifvqen0","pricing_plan_id":"cebpf4jnsgd1na2vs0mg"},{"bike_id":"9e6ec8b3-5055-424a-b0c0-9de5fc68aa33","system_id":"levelo_inurba_marseille","lat":43.28999,"lon":5.35617,"is_reserved":false,"is_disabled":false,"rental_uris":{"android":"levelo://app?vid=9e6ec8b3-5055-424a-b0c0-9de5fc68aa33","ios":"levelo://app?vid=9e6ec8b3-5055-424a-b0c0-9de5fc68aa33"},"vehicle_type_id":"4","last_reported":1708286856,"current_range_meters":30000,"station_id":"","pricing_plan_id":"cebpf4jnsgd1na2vs0mg"},{"bike_id":"6736c922-4c01-45b4-acfb-6786797ebde3","system_id":"levelo_inurba_marseille","lat":43.290104,"lon":5.356111,"is_reserved":false,"is_disabled":false,"rental_uris":{"android":"levelo://app?vid=6736c922-4c01-45b4-acfb-6786797ebde3","ios":"levelo://app?vid=6736c922-4c01-45b4-acfb-6786797ebde3"},"vehicle_type_id":"4","last_reported":1708286856,"current_range_meters":27600,"station_id":"ce4bhb92rcd13ifvqen0","pricing_plan_id":"cebpf4jnsgd1na2vs0mg"},