{"last_updated":1726074454,"ttl":30,"version":"2.2","data":{"bikes":[{"bike_id":"6b057ebd-1641-4cca-85b1-b114ee730307","system_id":"levelo_inurba_marseille","lat":43.25584,"lon":5.38233,"is_reserved":false,"is_disabled":false,"rental_uris":{"android":"levelo://app?vid=6b057ebd-1641-4cca-85b1-b114ee730307","ios":"levelo://app?vid=6b057ebd-1641-4cca-85b1-b114ee730307"},"vehicle_type_id":"4","last_reported":1726074454,"current_range_meters":36000,"station_id":"ce4bhih2rcd13ifvqfs0","pricing_plan_id":"cebpf4jnsgd1na2vs0mg"},{"bike_id":"ac791e3e-bed6-4b58-b4d6-25288193f468","system_id":"levelo_inurba_marseille","lat":43.26211,"lon":5.37441,"is_reserved":false,"is_disabled":false,"rental_uris":{"android":"levelo://app?vid=ac791e3e-bed6-4b58-b4d6-25288193f468","ios":"levelo://app?vid=ac791e3e-bed6-4b58-b4d6-25288193f468"},"vehicle_type_id":"4","last_reported":1726074454,"current_range_meters":23200,"station_id":"ce4bhgp2rcd13ifvqfc0","pricing_plan_id":"cebpf4jnsgd1na2vs0mg"},{"bike_id":"c8d8b2c1-e873-4901-b875-5672f75af04f","system_id":"levelo_inurba_marseille","lat":43.29049,"lon":5.3555,"is_reserved":false,"is_disabled":false,"rental_uris":{"android":"levelo://app?vid=c8d8b2c1-e873-4901-b875-5672f75af04f","ios":"levelo://app?vid=c8d8b2c1-e873-4901-b875-5672f75af04f"},"vehicle_type_id":"4","last_reported":1726074454,"current_range_meters":38800,"station_id":"ce4bhb92rcd13ifvqen0","pricing_plan_id":"cebpf4jnsgd1na2vs0mg"},{"bike_id":"dda2e646-2c4f-4797-9db7-2e1991024ed4","system_id":"levelo_inurba_marseille","lat":43.29006,"lon":5.35624,"is_reserved":false,"is_disabled":false,"rental_uris":{"android":"levelo://app?vid=dda2e646-2c4f-4797-9db7-2e1991024ed4","ios":"levelo://app?vid=dda2e646-2c4f-4797-9db7-2e1991024ed4"},"vehicle_type_id":"4","last_reported":1726074454,"current_range_meters":6400,"station_id":"ce4bhb92rcd13ifvqen0","pricing_plan_id":"cebpf4jnsgd1na2vs0mg"},{"bike_id":"9e0b801e-5e69-49f7-9046-a0346f58d51e","system_id":"levelo_inurba_marseille","lat":43.27066,"lon":5.42286,"is_reserved":false,"is_disabled":false,"rental_uris":{"android":"levelo://app?vid=9e0b801e-5e69-49f7-9046-a0346f58d51e","ios":"levelo://app?vid=9e0b801e-5e69-49f7-9046-a0346f58d51e"},"vehicle_type_id":"4","last_reported":1726074454,"current_range_meters":38000,"station_id":"ce4bhk92rcd13ifvqgb0","pricing_plan_id":"cebpf4jnsgd1na2vs0mg"},{"bike_id":"6745458d-0556-4f2b-94c3-9f5b93b740a5","system_id":"levelo_inurba_marseille","lat":43.26808,"lon":5.39372,"is_reserved":false,"is_disabled":false,"rental_uris":{"android":"levelo://app?vid=6745458d-0556-4f2b-94c3-9f5b93b740a5","ios":"levelo://app?vid=6745458d-0556-4f2b-94c3-9f5b93b740a5"},"vehicle_type_id":"4","last_reported":1726074454,"current_range_meters":19600,"station_id":"ce4bhh12rcd13ifvqfg0","pricing_plan_id":"cebpf4jnsgd1na2vs0mg"},{"bike_id":"52dd7a53-03a8-4ddb-b5bf-a25e5bc49dbe","system_id":"levelo_inurba_marseille","lat":43.29942,"lon":5.36555,"is_reserved":false,"is_disabled":false,"rental_uris":{"android":"levelo://app?vid=52dd7a53-03a8-4ddb-b5bf-a25e5bc49dbe","ios":"levelo://app?vid=52dd7a53-03a8-4ddb-b5bf-a25e5bc49dbe"},"vehicle_type_id":"4","last_reported":1726074454,"current_range_meters":8800,"station_id":"ce4bgm92rcd13ifvqbr0","pricing_plan_id":"cebpf4jnsgd1na2vs0mg"},{"bike_id":"87a89e7c-5c8e-4bf5-bf5b-2e6468978702","system_id":"levelo_inurba_marseille","lat":43.29761,"lon":5.37104,"is_reserved":false,"is_disabled":false,"rental_uris":{"android":"levelo://app?vid=87a89e7c-5c8e-4bf5-bf5b-2e6468978702","ios":"levelo://app?vid=87a89e7c-5c8e-4bf5-bf5b-2e6468978702"},"vehicle_type_id":"4","last_reported":1726074454,"current_range_meters":5600,"station_id":"ce4bgop2rcd13ifvqc1g","pricing_plan_id":"cebpf4jnsgd1na2vs0mg"},{"bike_id":"c1570731-db44-4a97-a484-aa6dfecb63e7","system_id":"levelo_inurba_marseille","lat":43.29531,"lon":5.38556,"is_reserved":false,"is_disabled":false,"rental_uris":{"android":"levelo://app?vid=c1570731-db44-4a97-a484-aa6dfecb63e7","ios":"levelo://app?vid=c1570731-db44-4a97-a484-aa6dfecb63e7"},"vehicle_type_id":"4","last_reported":1726074454,"current_range_meters":8000,"station_id":"ce4bgih2rcd13ifvqba0","pricing_plan_id":"cebpf4jnsgd1na2vs0mg"},{"bike_id":"e7a5839c-8fe9-4805-a0e8-ec1c242be023","system_id":"levelo_inurba_marseille","lat":43.29899,"lon":5.38099,"is_reserved":false,"is_disabled":false,"rental_uris":{"android":"levelo://app?vid=e7a5839c-8fe9-4805-a0e8-ec1c242be023","ios":"levelo://app?vid=e7a5839c-8fe9-4805-a0e8-ec1c242be023"},"vehicle_type_id":"4","last_reported":1726074454,"current_range_meters":10000,"station_id":"ce4bgj12rcd13ifvqbc0","pricing_plan_id":"cebpf4jnsgd1na2vs0mg"},{"bike_id":"2d5b4040-da05-46d8-9326-54fdd2aff742","system_id":"levelo_inurba_marseille","lat":43.29272,"lon":5.36846,"is_reserved":false,"is_disabled":false,"rental_uris":{"android":"levelo://app?vid=2d5b4040-da05-46d8-9326-54fdd2aff742","ios":"levelo://app?vid=2d5b4040-da05-46d8-9326-54fdd2aff742"},"vehicle_type_id":"4","last_reported":1726074454,"current_range_meters":39200,"station_id":"ce4bhbp2rcd13ifvqesg","pricing_plan_id":"cebpf4jnsgd1na2vs0mg"},{"bike_id":"faeb9d3e-da2a-4f09-a862-7534b9bcaa43","system_id":"levelo_inurba_marseille","lat":43.28416,"lon":5.37518,"is_reserved":false,"is_disabled":false,"rental_uris":{"android":"levelo://app?vid=faeb9d3e-da2a-4f09-a862-7534b9bcaa43","ios":"levelo://app?vid=faeb9d3e-da2a-4f09-a862-7534b9bcaa43"},"vehicle_type_id":"4","last_reported":1726074454,"current_range_meters":28000,"station_id":"ce4bh412rcd13ifvqds0","pricing_plan_id":"cebpf4jnsgd1na2vs0mg"},{"bike_id":"e6c2ad77-f33e-46ad-a591-3ecbd9a4e2d8","system_id":"levelo_inurba_marseille","lat":43.29023,"lon":5.38641,"is_reserved":false,"is_disabled":false,"rental_uris":{"android":"levelo://app?vid=e6c2ad77-f33e-46ad-a591-3ecbd9a4e2d8","ios":"levelo://app?vid=e6c2ad77-f33e-46ad-a591-3ecbd9a4e2d8"},"vehicle_type_id":"4","last_reported":1726074454,"current_range_meters":2800,"station_id":"ce4bh4p2rcd13ifvqe0g","pricing_plan_id":"cebpf4jnsgd1na2vs0mg"},{"bike_id":"d399a844-0b6a-4fde-97d2-8aaf14e698ca","system_id":"levelo_inurba_marseille","lat":43.282516,"lon":5.394786,"is_reserved":false,"is_disabled":false,"rental_uris":{"android":"levelo://app?vid=d399a844-0b6a-4fde-97d2-8aaf14e698ca","ios":"levelo://app?vid=d399a844-0b6a-4fde-97d2-8aaf14e698ca"},"vehicle_type_id":"4","last_reported":1726074454,"current_range_meters":6000,"station_id":"ce4bho12rcd13ifvqh2g","pricing_plan_id":"cebpf4jnsgd1na2vs0mg"},{"bike_id":"c75810a6-fc45-4217-9764-9a70d7c1a725","system_id":"levelo_inurba_marseille","lat":43.306488,"lon":5.392318,"is_reserved":false,"is_disabled":false,"rental_uris":{"android":"levelo://app?vid=c75810a6-fc45-4217-9764-9a70d7c1a725","ios":"levelo://app?vid=c75810a6-fc45-4217-9764-9a70d7c1a725"},"vehicle_type_id":"4","last_reported":1726074454,"current_range_meters":29600,"station_id":"ce4bh0p2rcd13ifvqd80","pricing_plan_id":"cebpf4jnsgd1na2vs0mg"},{"bike_id":"c3a84de0-e074-45d2-96a4-3ff17abba9fe","system_id":"levelo_inurba_marseille","lat":43.2408,"lon":5.3774,"is_reserved":false,"is_disabled":false,"rental_uris":{"android":"levelo://app?vid=c3a84de0-e074-45d2-96a4-3ff17abba9fe","ios":"levelo://app?vid=c3a84de0-e074-45d2-96a4-3ff17abba9fe"},"vehicle_type_id":"4","last_reported":1726074454,"current_range_meters":13600,"station_id":"ce4bhnp2rcd13ifvqgvg","pricing_plan_id":"cebpf4jnsgd1na2vs0mg"},{"bike_id":"239be88c-d0fe-4bff-9b36-80ba117e7ea1","system_id":"levelo_inurba_marseille","lat":43.29263,"lon":5.40904,"is_reserved":false,"is_disabled":false,"rental_uris":{"android":"levelo://app?vid=239be88c-d0fe-4bff-9b36-80ba117e7ea1","ios":"levelo://app?vid=239be88c-d0fe-4bff-9b36-80ba117e7ea1"},"vehicle_type_id":"4","last_reported":1726074454,"current_range_meters":9200,"station_id":"ce4bh192rcd13ifvqdc0","pricing_plan_id":"cebpf4jnsgd1na2vs0mg"},{"bike_id":"21ab8143-d16c-4262-bacb-20f4c4bae8c1","system_id":"levelo_inurba_marseille","lat":43.3093,"lon":5.40144,"is_reserved":false,"is_disabled":false,"rental_uris":{"android":"levelo://app?vid=21ab8143-d16c-4262-bacb-20f4c4bae8c1","ios":"levelo://app?vid=21ab8143-d16c-4262-bacb-20f4c4bae8c1"},"vehicle_type_id":"4","last_reported":1726074454,"current_range_meters":6800,"station_id":"ce4bgvp2rcd13ifvqct0","pricing_plan_id":"cebpf4jnsgd1na2vs0mg"},{"bike_id":"c32bf51b-874c-456b-928f-378f147c3ada","system_id":"levelo_inurba_marseille","lat":43.29966,"lon":5.38498,"is_reserved":false,"is_disabled":false,"rental_uris":{"android":"levelo://app?vid=c32bf51b-874c-456b-928f-378f147c3ada","ios":"levelo://app?vid=c32bf51b-874c-456b-928f-378f147c3ada"},"vehicle_type_id":"4","last_reported":1726074454,"current_range_meters":37600,"station_id":"ce4bgt12rcd13ifvqce0","pricing_plan_id":"cebpf4jnsgd1na2vs0mg"},{"bike_id":"f97d1ebb-d606-4bfb-9f71-6cb2f9930fe5","system_id":"levelo_inurba_marseille","lat":43.26192,"lon":5.37448,"is_reserved":false,"is_disabled":false,"rental_uris":{"android":"levelo://app?vid=f97d1ebb-d606-4bfb-9f71-6cb2f9930fe5","ios":"levelo://app?vid=f97d1ebb-d606-4bfb-9f71-6cb2f9930fe5"},"vehicle_type_id":"4","last_reported":1726074454,"current_range_meters":14400,"station_id":"ce4bhgp2rcd13ifvqfc0","pricing_plan_id":"cebpf4jnsgd1na2vs0mg"},{"bike_id":"57279865-f0a2-4516-9dd4-834f33bac6c4","system_id":"levelo_inurba_marseille","lat":43.289852,"lon":5.35626,"is_reserved":false,"is_disabled":false,"rental_uris":{"android":"levelo://app?vid=57279865-f0a2-4516-9dd4-834f33bac6c4","ios":"levelo://app?vid=57279865-f0a2-4516-9dd4-834f33bac6c4"},"vehicle_type_id":"4","last_reported":1726074454,"current_range_meters":38800,"station_id":"ce4bhb92rcd13ifvqen0","pricing_plan_id":"cebpf4jnsgd1na2vs0mg"},{"bike_id":"a36a6131-7175-4d21-afcf-16a3b952996a","system_id":"levelo_inurba_marseille","lat":43.30798,"lon":5.37676,"is_reserved":false,"is_disabled":false,"rental_uris":{"android":"levelo://app?vid=a36a6131-7175-4d21-afcf-16a3b952996a","ios":"levelo://app?vid=a36a6131-7175-4d21-afcf-16a3b952996a"},"vehicle_type_id":"4","last_reported":1726074454,"current_range_meters":8800,"station_id":"ce4bgv92rcd13ifvqcq0","pricing_plan_id":"cebpf4jnsgd1na2vs0mg"},{"bike_id":"f9e18a54-271a-409e-91fb-5dbde4dfffa0","system_id":"levelo_inurba_marseille","lat":43.29261,"lon":5.38436,"is_reserved":false,"is_disabled":false,"rental_uris":{"android":"levelo://app?vid=f9e18a54-271a-409e-91fb-5dbde4dfffa0","ios":"levelo://app?vid=f9e18a54-271a-409e-91fb-5dbde4dfffa0"},"vehicle_type_id":"4","last_reported":1726074454,"current_range_meters":3600,"station_id":"ce4bh692rcd13ifvqea0","pricing_plan_id":"cebpf4jnsgd1na2vs0mg"},{"bike_id":"257df995-474c-489e-93e6-1898def2a181","system_id":"levelo_inurba_marseille","lat":43.31066,"lon":5.40095,"is_reserved":false,"is_disabled":false,"rental_uris":{"android":"levelo://app?vid=257df995-474c-489e-93e6-1898def2a181","ios":"levelo://app?vid=257df995-474c-489e-93e6-1898def2a181"},"vehicle_type_id":"4","last_reported":1726074454,"current_range_meters":14800,"station_id":"","pricing_plan_id":"cebpf4jnsgd1na2vs0mg"},{"bike_id":"f6303fc2-27ce-4caa-8637-66396027db0d","system_id":"levelo_inurba_marseille","lat":43.28038,"lon":5.36959,"is_reserved":false,"is_disabled":false,"rental_uris":{"android":"levelo://app?vid=f6303fc2-27ce-4caa-8637-66396027db0d","ios":"levelo://app?vid=f6303fc2-27ce-4caa-8637-66396027db0d"},"vehicle_type_id":"4","last_reported":1726074454,"current_range_meters":1600,"station_id":"ce4bha12rcd13ifvqef0","pricing_plan_id":"cebpf4jnsgd1na2vs0mg"},{"bike_id":"ecca6509-f0ec-44bb-a9ea-81382cf67e4e","system_id":"levelo_inurba_marseille","lat":43.28846,"lon":5.35852,"is_reserved":false,"is_disabled":false,"rental_uris":{"android":"levelo://app?vid=ecca6509-f0ec-44bb-a9ea-81382cf67e4e","ios":"levelo://app?vid=ecca6509-f0ec-44bb-a9ea-81382cf67e4e"},"vehicle_type_id":"4","last_reported":1726074454,"current_range_meters":11200,"station_id":"ce4bhb12rcd13ifvqem0","pricing_plan_id":"cebpf4jnsgd1na2vs0mg"},{"bike_id":"f8406f62-33de-4618-89c2-280addea85fa","system_id":"levelo_inurba_marseille","lat":43.28723,"lon":5.40005,"is_reserved":false,"is_disabled":false,"rental_uris":{"android":"levelo://app?vid=f8406f62-33de-4618-89c2-280addea85fa","ios":"levelo://app?vid=f8406f62-33de-4618-89c2-280addea85fa"},"vehicle_type_id":"4","last_reported":1726074454,"current_range_meters":17600,"station_id":"ce4bho92rcd13ifvqh3g","pricing_plan_id":"cebpf4jnsgd1na2vs0mg"},{"bike_id":"f5d1f1d0-f1d4-44e8-acc6-b9156863665a","system_id":"levelo_inurba_marseille","lat":43.30234,"lon":5.40049,"is_reserved":false,"is_disabled":false,"rental_uris":{"android":"levelo://app?vid=f5d1f1d0-f1d4-44e8-acc6-b9156863665a","ios":"levelo://app?vid=f5d1f1d0-f1d4-44e8-acc6-b9156863665a"},"vehicle_type_id":"4","last_reported":1726074454,"current_range_meters":15200,"station_id":"ce4bgvh2rcd13ifvqcs0","pricing_plan_id":"cebpf4jnsgd1na2vs0mg"},{"bike_id":"fc748357-49b4-4f13-ab40-93822dda7b43","system_id":"levelo_inurba_marseille","lat":43.29876,"lon":5.38914,"is_reserved":false,"is_disabled":false,"rental_uris":{"android":"levelo://app?vid=fc748357-49b4-4f13-ab40-93822dda7b43","ios":"levelo://app?vid=fc748357-49b4-4f13-ab40-93822dda7b43"},"vehicle_type_id":"4","last_reported":1726074454,"current_range_meters":2800,"station_id":"ce4bh392rcd13ifvqdl0","pricing_plan_id":"cebpf4jnsgd1na2vs0mg"},{"bike_id":"c6312812-209a-435f-94be-b15bb61d9226","system_id":"levelo_inurba_marseille","lat":43.26676,"lon":5.38264,"is_reserved":false,"is_disabled":false,"rental_uris":{"android":"levelo://app?vid=c6312812-209a-435f-94be-b15bb61d9226","ios":"levelo://app?vid=c6312812-209a-435f-94be-b15bb61d9226"},"vehicle_type_id":"4","last_reported":1726074454,"current_range_meters":19200,"station_id":"ce4bhg92rcd13ifvqf90","pricing_plan_id":"cebpf4jnsgd1na2vs0mg"},{"bike_id":"13b99a15-831a-4053-af8b-c17b5c994cd3","system_id":"levelo_inurba_marseille","lat":43.30436,"lon":5.38896,"is_reserved":false,"is_disabled":false,"rental_uris":{"android":"levelo://app?vid=13b99a15-831a-4053-af8b-c17b5c994cd3","ios":"levelo://app?vid=13b99a15-831a-4053-af8b-c17b5c994cd3"},"vehicle_type_id":"4","last_reported":1726074454,"current_range_meters":27200,"station_id":"ce4bgk12rcd13ifvqbi0","pricing_plan_id":"cebpf4jnsgd1na2vs0mg"},{"bike_id":"eedcac4e-e0d7-40f6-8d86-e37cc502935d","system_id":"levelo_inurba_marseille","lat":43.29265,"lon":5.38435,"is_reserved":false,"is_disabled":false,"rental_uris":{"android":"levelo://app?vid=eedcac4e-e0d7-40f6-8d86-e37cc502935d","ios":"levelo://app?vid=eedcac4e-e0d7-40f6-8d86-e37cc502935d"},"vehicle_type_id":"4","last_reported":1726074454,"current_range_meters":8000,"station_id":"ce4bh692rcd13ifvqea0","pricing_plan_id":"cebpf4jnsgd1na2vs0mg"},{"bike_id":"46fed3f8-27ec-4816-b0fa-a182a2b87203","system_id":"levelo_inurba_marseille","lat":43.3302,"lon":5.39041,"is_reserved":false,"is_disabled":false,"rental_uris":{"android":"levelo://app?vid=46fed3f8-27ec-4816-b0fa-a182a2b87203","ios":"levelo://app?vid=46fed3f8-27ec-4816-b0fa-a182a2b87203"},"vehicle_type_id":"4","last_reported":1726074454,"current_range_meters":12400,"station_id":"ce4bhr92rcd13ifvqhrg","pricing_plan_id":"cebpf4jnsgd1na2vs0mg"},{"bike_id":"8e06870f-59b1-4019-8c4e-0fd97a649554","system_id":"levelo_inurba_marseille","lat":43.28002,"lon":5.40011,"is_reserved":false,"is_disabled":false,"rental_uris":{"android":"levelo://app?vid=8e06870f-59b1-4019-8c4e-0fd97a649554","ios":"levelo://app?vid=8e06870f-59b1-4019-8c4e-0fd97a649554"},"vehicle_type_id":"4","last_reported":1726074454,"current_range_meters":14800,"station_id":"ce4bho92rcd13ifvqh4g","pricing_plan_id":"cebpf4jnsgd1na2vs0mg"},{"bike_id":"41040687-bbf8-4dfd-a009-789235c51e3a","system_id":"levelo_inurba_marseille","lat":43.311225,"lon":5.377856,"is_reserved":false,"is_disabled":false,"rental_uris":{"android":"levelo://app?vid=41040687-bbf8-4dfd-a009-789235c51e3a","ios":"levelo://app?vid=41040687-bbf8-4dfd-a009-789235c51e3a"},"vehicle_type_id":"4","last_reported":1726074454,"current_range_meters":6400,"station_id":"ce4bgt92rcd13ifvqcg0","pricing_plan_id":"cebpf4jnsgd1na2vs0mg"},{"bike_id":"3e50f2a6-c131-402a-80ed-6827469a8d1d","system_id":"levelo_inurba_marseille","lat":43.29574,"lon":5.39964,"is_reserved":false,"is_disabled":false,"rental_uris":{"android":"levelo://app?vid=3e50f2a6-c131-402a-80ed-6827469a8d1d","ios":"levelo://app?vid=3e50f2a6-c131-402a-80ed-6827469a8d1d"},"vehicle_type_id":"4","last_reported":1726074454,"current_range_meters":12800,"station_id":"ce4bh312rcd13ifvqdj0","pricing_plan_id":"cebpf4jnsgd1na2vs0mg"},{"bike_id":"73d7306e-1bb2-4d8f-a7f7-08544b3a5c9d","system_id":"levelo_inurba_marseille","lat":43.301393,"lon":5.387744,"is_reserved":false,"is_disabled":false,"rental_uris":{"android":"levelo://app?vid=73d7306e-1bb2-4d8f-a7f7-08544b3a5c9d","ios":"levelo://app?vid=73d7306e-1bb2-4d8f-a7f7-08544b3a5c9d"},"vehicle_type_id":"4","last_reported":1726074454,"current_range_meters":35600,"station_id":"ce4bghh2rcd13ifvqb60","pricing_plan_id":"cebpf4jnsgd1na2vs0mg"},{"bike_id":"1750bdc6-c7ec-4246-9956-8049e88b10c5","system_id":"levelo_inurba_marseille","lat":43.27051,"lon":5.40262,"is_reserved":false,"is_disabled":false,"rental_uris":{"android":"levelo://app?vid=1750bdc6-c7ec-4246-9956-8049e88b10c5","ios":"levelo://app?vid=1750bdc6-c7ec-4246-9956-8049e88b10c5"},"vehicle_type_id":"4","last_reported":1726074454,"current_range_meters":22400,"station_id":"ce4bhk92rcd13ifvqgc0","pricing_plan_id":"cebpf4jnsgd1na2vs0mg"},{"bike_id":"33cace80-ffa6-4ed8-b8a4-2845bd53ea18","system_id":"levelo_inurba_marseille","lat":43.27945,"lon":5.41045,"is_reserved":false,"is_disabled":false,"rental_uris":{"android":"levelo://app?vid=33cace80-ffa6-4ed8-b8a4-2845bd53ea18","ios":"levelo://app?vid=33cace80-ffa6-4ed8-b8a4-2845bd53ea18"},"vehicle_type_id":"4","last_reported":1726074454,"current_range_meters":4000,"station_id":"ce4bhnp2rcd13ifvqh0g","pricing_plan_id":"cebpf4jnsgd1na2vs0mg"},{"bike_id":"b100f923-b430-426e-9d44-37531fe752d6","system_id":"levelo_inurba_marseille","lat":43.29025,"lon":5.38642,"is_reserved":false,"is_disabled":false,"rental_uris":{"android":"levelo://app?vid=b100f923-b430-426e-9d44-37531fe752d6","ios":"levelo://app?vid=b100f923-b430-426e-9d44-37531fe752d6"},"vehicle_type_id":"4","last_reported":1726074454,"current_range_meters":23200,"station_id":"ce4bh4p2rcd13ifvqe0g","pricing_plan_id":"cebpf4jnsgd1na2vs0mg"},{"bike_id":"ad023fe6-eeb2-49e9-84f7-43241866f7f3","system_id":"levelo_inurba_marseille","lat":43.28719,"lon":5.39996,"is_reserved":false,"is_disabled":false,"rental_uris":{"android":"levelo://app?vid=ad023fe6-eeb2-49e9-84f7-43241866f7f3","ios":"levelo://app?vid=ad023fe6-eeb2-49e9-84f7-43241866f7f3"},"vehicle_type_id":"4","last_reported":1726074454,"current_range_meters":7200,"station_id":"ce4bho92rcd13ifvqh3g","pricing_plan_id":"cebpf4jnsgd1na2vs0mg"},{"bike_id":"3847e49a-c845-4e44-b5f0-f5a4a6436d56","system_id":"levelo_inurba_marseille","lat":43.29964,"lon":5.41319,"is_reserved":false,"is_disabled":false,"rental_uris":{"android":"levelo://app?vid=3847e49a-c845-4e44-b5f0-f5a4a6436d56","ios":"levelo://app?vid=3847e49a-c845-4e44-b5f0-f5a4a6436d56"},"vehicle_type_id":"4","last_reported":1726074454,"current_range_meters":25200,"station_id":"ce4bhop2rcd13ifvqh8g","pricing_plan_id":"cebpf4jnsgd1na2vs0mg"},{"bike_id":"f657fd88-6956-4b9e-987b-07745f983ac4","system_id":"levelo_inurba_marseille","lat":43.28843,"lon":5.3584,"is_reserved":false,"is_disabled":false,"rental_uris":{"android":"levelo://app?vid=f657fd88-6956-4b9e-987b-07745f983ac4","ios":"levelo://app?vid=f657fd88-6956-4b9e-987b-07745f983ac4"},"vehicle_type_id":"4","last_reported":1726074454,"current_range_meters":29600,"station_id":"ce4bhb12rcd13ifvqem0","pricing_plan_id":"cebpf4jnsgd1na2vs0mg"},{"bike_id":"921f3467-5ee8-4c61-a54b-1693c43b08ed","system_id":"levelo_inurba_marseille","lat":43.24654,"lon":5.381621,"is_reserved":false,"is_disabled":false,"rental_uris":{"android":"levelo://app?vid=921f3467-5ee8-4c61-a54b-1693c43b08ed","ios":"levelo://app?vid=921f3467-5ee8-4c61-a54b-1693c43b08ed"},"vehicle_type_id":"4","last_reported":1726074454,"current_range_meters":9200,"station_id":"ce4bhih2rcd13ifvqfr0","pricing_plan_id":"cebpf4jnsgd1na2vs0mg"},{"bike_id":"933c2001-b1b0-48f2-9ed4-0be9cd4467d4","system_id":"levelo_inurba_marseille","lat":43.27425,"lon":5.39428,"is_reserved":false,"is_disabled":false,"rental_uris":{"android":"levelo://app?vid=933c2001-b1b0-48f2-9ed4-0be9cd4467d4","ios":"levelo://app?vid=933c2001-b1b0-48f2-9ed4-0be9cd4467d4"},"vehicle_type_id":"4","last_reported":1726074454,"current_range_meters":4000,"station_id":"ce4bhdp2rcd13ifvqf20","pricing_plan_id":"cebpf4jnsgd1na2vs0mg"},{"bike_id":"f4c8e566-bbd3-4fe6-aef7-1843837dbcce","system_id":"levelo_inurba_marseille","lat":43.29799,"lon":5.40404,"is_reserved":false,"is_disabled":false,"rental_uris":{"android":"levelo://app?vid=f4c8e566-bbd3-4fe6-aef7-1843837dbcce","ios":"levelo://app?vid=f4c8e566-bbd3-4fe6-aef7-1843837dbcce"},"vehicle_type_id":"4","last_reported":1726074454,"current_range_meters":22400,"station_id":"ce4bh112rcd13ifvqd90","pricing_plan_id":"cebpf4jnsgd1na2vs0mg"},{"bike_id":"b5b8b9ac-9391-4183-a64e-9158e47a30c1","system_id":"levelo_inurba_marseille","lat":43.29537,"lon":5.38537,"is_reserved":false,"is_disabled":false,"rental_uris":{"android":"levelo://app?vid=b5b8b9ac-9391-4183-a64e-9158e47a30c1","ios":"levelo://app?vid=b5b8b9ac-9391-4183-a64e-9158e47a30c1"},"vehicle_type_id":"4","last_reported":1726074454,"current_range_meters":2800,"station_id":"ce4bgih2rcd13ifvqba0","pricing_plan_id":"cebpf4jnsgd1na2vs0mg"},{"bike_id":"5c70df26-4b90-4d40-86d0-169a5d39cf40","system_id":"levelo_inurba_marseille","lat":43.24807,"lon":5.37457,"is_reserved":false,"is_disabled":false,"rental_uris":{"android":"levelo://app?vid=5c70df26-4b90-4d40-86d0-169a5d39cf40","ios":"levelo://app?vid=5c70df26-4b90-4d40-86d0-169a5d39cf40"},"vehicle_type_id":"4","last_reported":1726074454,"current_range_meters":8800,"station_id":"ce4bhgh2rcd13ifvqfb0","pricing_plan_id":"cebpf4jnsgd1na2vs0mg"},{"bike_id":"c21b0e3d-90b5-41c3-b4d8-6e1cd8f5d94b","system_id":"levelo_inurba_marseille","lat":43.311279,"lon":5.38854,"is_reserved":false,"is_disabled":false,"rental_uris":{"android":"levelo://app?vid=c21b0e3d-90b5-41c3-b4d8-6e1cd8f5d94b","ios":"levelo://app?vid=c21b0e3d-90b5-41c3-b4d8-6e1cd8f5d94b"},"vehicle_type_id":"4","last_reported":1726074454,"current_range_meters":25200,"station_id":"ce4bgv12rcd13ifvqcp0","pricing_plan_id":"cebpf4jnsgd1na2vs0mg"},{"bike_id":"69165d19-3524-4128-a55e-229672fd4423","system_id":"levelo_inurba_marseille","lat":43.2439,"lon":5.37063,"is_reserved":false,"is_disabled":false,"rental_uris":{"android":"levelo://app?vid=69165d19-3524-4128-a55e-229672fd4423","ios":"levelo://app?vid=69165d19-3524-4128-a55e-229672fd4423"},"vehicle_type_id":"4","last_reported":1726074454,"current_range_meters":24000,"station_id":"ce4bhhh2rcd13ifvqfk0","pricing_plan_id":"cebpf4jnsgd1na2vs0mg"},{"bike_id":"88fd0741-25f8-4923-8756-1ae911492f6a","system_id":"levelo_inurba_marseille","lat":43.28997,"lon":5.35614,"is_reserved":false,"is_disabled":false,"rental_uris":{"android":"levelo://app?vid=88fd0741-25f8-4923-8756-1ae911492f6a","ios":"levelo://app?vid=88fd0741-25f8-4923-8756-1ae911492f6a"},"vehicle_type_id":"4","last_reported":1726074454,"current_range_meters":37600,"station_id":"ce4bhb92rcd13ifvqen0","pricing_plan_id":"cebpf4jnsgd1na2vs0mg"},{"bike_id":"2ce69ffe-37eb-4c8f-9d89-9ab9ec953960","system_id":"levelo_inurba_marseille","lat":43.295568,"lon":5.42291,"is_reserved":false,"is_disabled":false,"rental_uris":{"android":"levelo://app?vid=2ce69ffe-37eb-4c8f-9d89-9ab9ec953960","ios":"levelo://app?vid=2ce69ffe-37eb-4c8f-9d89-9ab9ec953960"},"vehicle_type_id":"4","last_reported":1726074454,"current_range_meters":30400,"station_id":"ce4bhph2rcd13ifvqhdg","pricing_plan_id":"cebpf4jnsgd1na2vs0mg"},{"bike_id":"25f705ac-af3d-44fd-9cba-0f603fbf7c73","system_id":"levelo_inurba_marseille","lat":43.315134,"lon":5.387248,"is_reserved":false,"is_disabled":false,"rental_uris":{"android":"levelo://app?vid=25f705ac-af3d-44fd-9cba-0f603fbf7c73","ios":"levelo://app?vid=25f705ac-af3d-44fd-9cba-0f603fbf7c73"},"vehicle_type_id":"4","last_reported":1726074454,"current_range_meters":9600,"station_id":"","pricing_plan_id":"cebpf4jnsgd1na2vs0mg"},{"bike_id":"6804081d-d4d2-4140-9c82-f918fdf43c25","system_id":"levelo_inurba_marseille","lat":43.24671,"lon":5.38161,"is_reserved":false,"is_disabled":false,"rental_uris":{"android":"levelo://app?vid=6804081d-d4d2-4140-9c82-f918fdf43c25","ios":"levelo://app?vid=6804081d-d4d2-4140-9c82-f918fdf43c25"},"vehicle_type_id":"4","last_reported":1726074454,"current_range_meters":36400,"station_id":"ce4bhih2rcd13ifvqfr0","pricing_plan_id":"cebpf4jnsgd1na2vs0mg"},{"bike_id":"68077ddd-2fd0-4942-b470-b938d9c08195","system_id":"levelo_inurba_marseille","lat":43.3013,"lon":5.3987,"is_reserved":false,"is_disabled":false,"rental_uris":{"android":"levelo://app?vid=68077ddd-2fd0-4942-b470-b938d9c08195","ios":"levelo://app?vid=68077ddd-2fd0-4942-b470-b938d9c08195"},"vehicle_type_id":"4","last_reported":1726074454,"current_range_meters":13600,"station_id":"ce4bh0h2rcd13ifvqd40","pricing_plan_id":"cebpf4jnsgd1na2vs0mg"},{"bike_id":"8fa87e54-6918-4414-893c-61387a229692","system_id":"levelo_inurba_marseille","lat":43.232,"lon":5.35551,"is_reserved":false,"is_disabled":false,"rental_uris":{"android":"levelo://app?vid=8fa87e54-6918-4414-893c-61387a229692","ios":"levelo://app?vid=8fa87e54-6918-4414-893c-61387a229692"},"vehicle_type_id":"4","last_reported":1726074454,"current_range_meters":8800,"station_id":"ce4bhu92rcd13ifvqi70","pricing_plan_id":"cebpf4jnsgd1na2vs0mg"},{"bike_id":"729f692d-02cf-40a7-81c2-6c7c7fd098f7","system_id":"levelo_inurba_marseille","lat":43.2792,"lon":5.39574,"is_reserved":false,"is_disabled":false,"rental_uris":{"android":"levelo://app?vid=729f692d-02cf-40a7-81c2-6c7c7fd098f7","ios":"levelo://app?vid=729f692d-02cf-40a7-81c2-6c7c7fd098f7"},"vehicle_type_id":"4","last_reported":1726074454,"current_range_meters":28400,"station_id":"ce4bhf92rcd13ifvqf40","pricing_plan_id":"cebpf4jnsgd1na2vs0mg"},{"bike_id":"6102c607-6bb5-4ef9-93d9-0a03d7870a22","system_id":"levelo_inurba_marseille","lat":43.29024,"lon":5.37815,"is_reserved":false,"is_disabled":false,"rental_uris":{"android":"levelo://app?vid=6102c607-6bb5-4ef9-93d9-0a03d7870a22","ios":"levelo://app?vid=6102c607-6bb5-4ef9-93d9-0a03d7870a22"},"vehicle_type_id":"4","last_reported":1726074454,"current_range_meters":30000,"station_id":"ce4bgi12rcd13ifvqb70","pricing_plan_id":"cebpf4jnsgd1na2vs0mg"},{"bike_id":"6f0f2fd3-ab5a-4e7a-af94-347b4ee018de","system_id":"levelo_inurba_marseille","lat":43.30309,"lon":5.39206,"is_reserved":false,"is_disabled":false,"rental_uris":{"android":"levelo://app?vid=6f0f2fd3-ab5a-4e7a-af94-347b4ee018de","ios":"levelo://app?vid=6f0f2fd3-ab5a-4e7a-af94-347b4ee018de"},"vehicle_type_id":"4","last_reported":1726074454,"current_range_meters":4000,"station_id":"ce4bgkh2rcd13ifvqbk0","pricing_plan_id":"cebpf4jnsgd1na2vs0mg"},{"bike_id":"f902e161-00eb-4568-bb12-5ed76ffe0698","system_id":"levelo_inurba_marseille","lat":43.290212,"lon":5.386465,"is_reserved":false,"is_disabled":false,"rental_uris":{"android":"levelo://app?vid=f902e161-00eb-4568-bb12-5ed76ffe0698","ios":"levelo://app?vid=f902e161-00eb-4568-bb12-5ed76ffe0698"},"vehicle_type_id":"4","last_reported":1726074454,"current_range_meters":8400,"station_id":"ce4bh4p2rcd13ifvqe0g","pricing_plan_id":"cebpf4jnsgd1na2vs0mg"},{"bike_id":"ee537038-454b-4126-895a-d44b0c0669c2","system_id":"levelo_inurba_marseille","lat":43.29263,"lon":5.38442,"is_reserved":false,"is_disabled":false,"rental_uris":{"android":"levelo://app?vid=ee537038-454b-4126-895a-d44b0c0669c2","ios":"levelo://app?vid=ee537038-454b-4126-895a-d44b0c0669c2"},"vehicle_type_id":"4","last_reported":1726074454,"current_range_meters":32800,"station_id":"ce4bh692rcd13ifvqea0","pricing_plan_id":"cebpf4jnsgd1na2vs0mg"},{"bike_id":"bd93ad96-3d66-4dab-a975-716363825001","system_id":"levelo_inurba_marseille","lat":43.31719,"lon":5.42397,"is_reserved":false,"is_disabled":false,"rental_uris":{"android":"levelo://app?vid=bd93ad96-3d66-4dab-a975-716363825001","ios":"levelo://app?vid=bd93ad96-3d66-4dab-a975-716363825001"},"vehicle_type_id":"4","last_reported":1726074454,"current_range_meters":20400,"station_id":"ce4bhp92rcd13ifvqhbg","pricing_plan_id":"cebpf4jnsgd1na2vs0mg"},{"bike_id":"20830e58-6dfa-4d74-b146-cb3e5ad772ce","system_id":"levelo_inurba_marseille","lat":43.28996,"lon":5.35611,"is_reserved":false,"is_disabled":false,"rental_uris":{"android":"levelo://app?vid=20830e58-6dfa-4d74-b146-cb3e5ad772ce","ios":"levelo://app?vid=20830e58-6dfa-4d74-b146-cb3e5ad772ce"},"vehicle_type_id":"4","last_reported":1726074454,"current_range_meters":30800,"station_id":"ce4bhb92rcd13ifvqen0","pricing_plan_id":"cebpf4jnsgd1na2vs0mg"},{"bike_id":"ea31f0b9-fc8c-420d-b410-67dcd70c48ab","system_id":"levelo_inurba_marseille","lat":43.33027,"lon":5.39036,"is_reserved":false,"is_disabled":false,"rental_uris":{"android":"levelo://app?vid=ea31f0b9-fc8c-420d-b410-67dcd70c48ab","ios":"levelo://app?vid=ea31f0b9-fc8c-420d-b410-67dcd70c48ab"},"vehicle_type_id":"4","last_reported":1726074454,"current_range_meters":37600,"station_id":"ce4bhr92rcd13ifvqhrg","pricing_plan_id":"cebpf4jnsgd1na2vs0mg"},{"bike_id":"f030c1e7-ecb4-4320-baa2-65ab98aff5bf","system_id":"levelo_inurba_marseille","lat":43.29001,"lon":5.35609,"is_reserved":false,"is_disabled":false,"rental_uris":{"android":"levelo://app?vid=f030c1e7-ecb4-4320-baa2-65ab98aff5bf","ios":"levelo://app?vid=f030c1e7-ecb4-4320-baa2-65ab98aff5bf"},"vehicle_type_id":"4","last_reported":1726074454,"current_range_meters":38800,"station_id":"ce4bhb92rcd13ifvqen0","pricing_plan_id":"cebpf4jnsgd1na2vs0mg"},{"bike_id":"7ee83454-159d-4406-8f5b-0e7c2df764df","system_id":"levelo_inurba_marseille","lat":43.25501,"lon":5.37649,"is_reserved":false,"is_disabled":false,"rental_uris":{"android":"levelo://app?vid=7ee83454-159d-4406-8f5b-0e7c2df764df","ios":"levelo://app?vid=7ee83454-159d-4406-8f5b-0e7c2df764df"},"vehicle_type_id":"4","last_reported":1726074454,"current_range_meters":40000,"station_id":"ce4bhh12rcd13ifvqff0","pricing_plan_id":"cebpf4jnsgd1na2vs0mg"},{"bike_id":"dd2d66a6-976d-43e6-83be-d6211ff78acc","system_id":"levelo_inurba_marseille","lat":43.33723,"lon":5.39187,"is_reserved":false,"is_disabled":false,"rental_uris":{"android":"levelo://app?vid=dd2d66a6-976d-43e6-83be-d6211ff78acc","ios":"levelo://app?vid=dd2d66a6-976d-43e6-83be-d6211ff78acc"},"vehicle_type_id":"4","last_reported":1726074454,"current_range_meters":16400,"station_id":"ce4bhr92rcd13ifvqhsg","pricing_plan_id":"cebpf4jnsgd1na2vs0mg"},{"bike_id":"dfca9aff-193b-4a23-8248-bac2b2cf6b71","system_id":"levelo_inurba_marseille","lat":43.24812,"lon":5.37451,"is_reserved":false,"is_disabled":false,"rental_uris":{"android":"levelo://app?vid=dfca9aff-193b-4a23-8248-bac2b2cf6b71","ios":"levelo://app?vid=dfca9aff-193b-4a23-8248-bac2b2cf6b71"},"vehicle_type_id":"4","last_reported":1726074454,"current_range_meters":38800,"station_id":"ce4bhgh2rcd13ifvqfb0","pricing_plan_id":"cebpf4jnsgd1na2vs0mg"},{"bike_id":"14a5a42c-2089-4380-9eec-ae11cf09bc45","system_id":"levelo_inurba_marseille","lat":43.2921,"lon":5.36051,"is_reserved":false,"is_disabled":false,"rental_uris":{"android":"levelo://app?vid=14a5a42c-2089-4380-9eec-ae11cf09bc45","ios":"levelo://app?vid=14a5a42c-2089-4380-9eec-ae11cf09bc45"},"vehicle_type_id":"4","last_reported":1726074454,"current_range_meters":38800,"station_id":"ce4bhbh2rcd13ifvqeqg","pricing_plan_id":"cebpf4jnsgd1na2vs0mg"},{"bike_id":"e3b0ffcc-ae6e-46a6-b4f6-1d6cc8a67cd5","system_id":"levelo_inurba_marseille","lat":43.28409,"lon":5.37519,"is_reserved":false,"is_disabled":false,"rental_uris":{"android":"levelo://app?vid=e3b0ffcc-ae6e-46a6-b4f6-1d6cc8a67cd5","ios":"levelo://app?vid=e3b0ffcc-ae6e-46a6-b4f6-1d6cc8a67cd5"},"vehicle_type_id":"4","last_reported":1726074454,"current_range_meters":36400,"station_id":"ce4bh412rcd13ifvqds0","pricing_plan_id":"cebpf4jnsgd1na2vs0mg"},{"bike_id":"5876c5ef-9fac-478d-bd3c-ea1780c21005","system_id":"levelo_inurba_marseille","lat":43.33755,"lon":5.37446,"is_reserved":false,"is_disabled":false,"rental_uris":{"android":"levelo://app?vid=5876c5ef-9fac-478d-bd3c-ea1780c21005","ios":"levelo://app?vid=5876c5ef-9fac-478d-bd3c-ea1780c21005"},"vehicle_type_id":"4","last_reported":1726074454,"current_range_meters":38800,"station_id":"","pricing_plan_id":"cebpf4jnsgd1na2vs0mg"},{"bike_id":"e677b515-5319-4216-9c4c-b1dda00cce1f","system_id":"levelo_inurba_marseille","lat":43.24802,"lon":5.37459,"is_reserved":false,"is_disabled":false,"rental_uris":{"android":"levelo://app?vid=e677b515-5319-4216-9c4c-b1dda00cce1f","ios":"levelo://app?vid=e677b515-5319-4216-9c4c-b1dda00cce1f"},"vehicle_type_id":"4","last_reported":1726074454,"current_range_meters":32400,"station_id":"ce4bhgh2rcd13ifvqfb0","pricing_plan_id":"cebpf4jnsgd1na2vs0mg"},{"bike_id":"751e256e-0c67-48f9-b83f-3705692f6f55","system_id":"levelo_inurba_marseille","lat":43.27317,"lon":5.39076,"is_reserved":false,"is_disabled":false,"rental_uris":{"android":"levelo://app?vid=751e256e-0c67-48f9-b83f-3705692f6f55","ios":"levelo://app?vid=751e256e-0c67-48f9-b83f-3705692f6f55"},"vehicle_type_id":"4","last_reported":1726074454,"current_range_meters":2800,"station_id":"ce4bhgp2rcd13ifvqfe0","pricing_plan_id":"cebpf4jnsgd1na2vs0mg"},{"bike_id":"62756d51-982c-4a17-b329-9108e37ee628","system_id":"levelo_inurba_marseille","lat":43.25717,"lon":5.41115,"is_reserved":false,"is_disabled":false,"rental_uris":{"android":"levelo://app?vid=62756d51-982c-4a17-b329-9108e37ee628","ios":"levelo://app?vid=62756d51-982c-4a17-b329-9108e37ee628"},"vehicle_type_id":"4","last_reported":1726074454,"current_range_meters":17600,"station_id":"ce4bhkp2rcd13ifvqgd0","pricing_plan_id":"cebpf4jnsgd1na2vs0mg"},{"bike_id":"5abf28fd-a11a-4eb4-87d0-9bad082219f7","system_id":"levelo_inurba_marseille","lat":43.32291,"lon":5.38271,"is_reserved":false,"is_disabled":false,"rental_uris":{"android":"levelo://app?vid=5abf28fd-a11a-4eb4-87d0-9bad082219f7","ios":"levelo://app?vid=5abf28fd-a11a-4eb4-87d0-9bad082219f7"},"vehicle_type_id":"4","last_reported":1726074454,"current_range_meters":36800,"station_id":"ce4bhr12rcd13ifvqhqg","pricing_plan_id":"cebpf4jnsgd1na2vs0mg"},{"bike_id":"956f4ff3-ed0a-4001-bd97-23689619dbec","system_id":"levelo_inurba_marseille","lat":43.29365,"lon":5.37845,"is_reserved":false,"is_disabled":false,"rental_uris":{"android":"levelo://app?vid=956f4ff3-ed0a-4001-bd97-23689619dbec","ios":"levelo://app?vid=956f4ff3-ed0a-4001-bd97-23689619dbec"},"vehicle_type_id":"4","last_reported":1726074454,"current_range_meters":29600,"station_id":"ce4bgjh2rcd13ifvqbf0","pricing_plan_id":"cebpf4jnsgd1na2vs0mg"},{"bike_id":"67a2ab76-61d3-4167-8081-83e14dff3ea1","system_id":"levelo_inurba_marseille","lat":43.29422,"lon":5.38616,"is_reserved":false,"is_disabled":false,"rental_uris":{"android":"levelo://app?vid=67a2ab76-61d3-4167-8081-83e14dff3ea1","ios":"levelo://app?vid=67a2ab76-61d3-4167-8081-83e14dff3ea1"},"vehicle_type_id":"4","last_reported":1726074454,"current_range_meters":35200,"station_id":"ce4bh2h2rcd13ifvqdh0","pricing_plan_id":"cebpf4jnsgd1na2vs0mg"},{"bike_id":"dccadc39-7e75-4ff6-801e-d97b0e1812f2","system_id":"levelo_inurba_marseille","lat":43.33027,"lon":5.39036,"is_reserved":false,"is_disabled":false,"rental_uris":{"android":"levelo://app?vid=dccadc39-7e75-4ff6-801e-d97b0e1812f2","ios":"levelo://app?vid=dccadc39-7e75-4ff6-801e-d97b0e1812f2"},"vehicle_type_id":"4","last_reported":1726074454,"current_range_meters":19600,"station_id":"ce4bhr92rcd13ifvqhrg","pricing_plan_id":"cebpf4jnsgd1na2vs0mg"},{"bike_id":"f9ce26e1-b687-4b9f-a33d-f85d6af9240e","system_id":"levelo_inurba_marseille","lat":43.33024,"lon":5.39041,"is_reserved":false,"is_disabled":false,"rental_uris":{"android":"levelo://app?vid=f9ce26e1-b687-4b9f-a33d-f85d6af9240e","ios":"levelo://app?vid=f9ce26e1-b687-4b9f-a33d-f85d6af9240e"},"vehicle_type_id":"4","last_reported":1726074454,"current_range_meters":26000,"station_id":"ce4bhr92rcd13ifvqhrg","pricing_plan_id":"cebpf4jnsgd1na2vs0mg"},{"bike_id":"efbf06ee-bb40-4322-9757-88162fe3fa29","system_id":"levelo_inurba_marseille","lat":43.2803,"lon":5.36937,"is_reserved":false,"is_disabled":false,"rental_uris":{"android":"levelo://app?vid=efbf06ee-bb40-4322-9757-88162fe3fa29","ios":"levelo://app?vid=efbf06ee-bb40-4322-9757-88162fe3fa29"},"vehicle_type_id":"4","last_reported":1726074454,"current_range_meters":12800,"station_id":"ce4bha12rcd13ifvqef0","pricing_plan_id":"cebpf4jnsgd1na2vs0mg"},{"bike_id":"d49e92ed-fb0a-4517-97a7-a3498e35f2e9","system_id":"levelo_inurba_marseille","lat":43.3064,"lon":5.40051,"is_reserved":false,"is_disabled":false,"rental_uris":{"android":"levelo://app?vid=d49e92ed-fb0a-4517-97a7-a3498e35f2e9","ios":"levelo://app?vid=d49e92ed-fb0a-4517-97a7-a3498e35f2e9"},"vehicle_type_id":"4","last_reported":1726074454,"current_range_meters":4400,"station_id":"ce4bh112rcd13ifvqda0","pricing_plan_id":"cebpf4jnsgd1na2vs0mg"},{"bike_id":"ad937ea2-ae94-4aca-9efb-56ac4c097317","system_id":"levelo_inurba_marseille","lat":43.27421,"lon":5.39415,"is_reserved":false,"is_disabled":false,"rental_uris":{"android":"levelo://app?vid=ad937ea2-ae94-4aca-9efb-56ac4c097317","ios":"levelo://app?vid=ad937ea2-ae94-4aca-9efb-56ac4c097317"},"vehicle_type_id":"4","last_reported":1726074454,"current_range_meters":30800,"station_id":"ce4bhdp2rcd13ifvqf20","pricing_plan_id":"cebpf4jnsgd1na2vs0mg"},{"bike_id":"a57604a1-27a9-48b5-81c5-9fb5045c08bc","system_id":"levelo_inurba_marseille","lat":43.25578,"lon":5.38235,"is_reserved":false,"is_disabled":false,"rental_uris":{"android":"levelo://app?vid=a57604a1-27a9-48b5-81c5-9fb5045c08bc","ios":"levelo://app?vid=a57604a1-27a9-48b5-81c5-9fb5045c08bc"},"vehicle_type_id":"4","last_reported":1726074454,"current_range_meters":26000,"station_id":"ce4bhih2rcd13ifvqfs0","pricing_plan_id":"cebpf4jnsgd1na2vs0mg"},{"bike_id":"4c386efd-d18a-4ef4-bea2-49d99e7c4947","system_id":"levelo_inurba_marseille","lat":43.28001,"lon":5.40009,"is_reserved":false,"is_disabled":false,"rental_uris":{"android":"levelo://app?vid=4c386efd-d18a-4ef4-bea2-49d99e7c4947","ios":"levelo://app?vid=4c386efd-d18a-4ef4-bea2-49d99e7c4947"},"vehicle_type_id":"4","last_reported":1726074454,"current_range_meters":12800,"station_id":"ce4bho92rcd13ifvqh4g","pricing_plan_id":"cebpf4jnsgd1na2vs0mg"},{"bike_id":"5bf6d8b7-b615-4214-8427-31656fa0118a","system_id":"levelo_inurba_marseille","lat":43.26954,"lon":5.38626,"is_reserved":false,"is_disabled":false,"rental_uris":{"android":"levelo://app?vid=5bf6d8b7-b615-4214-8427-31656fa0118a","ios":"levelo://app?vid=5bf6d8b7-b615-4214-8427-31656fa0118a"},"vehicle_type_id":"4","last_reported":1726074454,"current_range_meters":38400,"station_id":"ce4bhh92rcd13ifvqfh0","pricing_plan_id":"cebpf4jnsgd1na2vs0mg"},{"bike_id":"6d13fd84-40dc-4d00-807b-83957de1a95a","system_id":"levelo_inurba_marseille","lat":43.2587,"lon":5.39892,"is_reserved":false,"is_disabled":false,"rental_uris":{"android":"levelo://app?vid=6d13fd84-40dc-4d00-807b-83957de1a95a","ios":"levelo://app?vid=6d13fd84-40dc-4d00-807b-83957de1a95a"},"vehicle_type_id":"4","last_reported":1726074454,"current_range_meters":4000,"station_id":"ce4bhhh2rcd13ifvqfl0","pricing_plan_id":"cebpf4jnsgd1na2vs0mg"},{"bike_id":"05cc3259-9861-4828-9144-16f3e5814cd6","system_id":"levelo_inurba_marseille","lat":43.26933,"lon":5.38926,"is_reserved":false,"is_disabled":false,"rental_uris":{"android":"levelo://app?vid=05cc3259-9861-4828-9144-16f3e5814cd6","ios":"levelo://app?vid=05cc3259-9861-4828-9144-16f3e5814cd6"},"vehicle_type_id":"4","last_reported":1726074454,"current_range_meters":22800,"station_id":"ce4bhhh2rcd13ifvqfl0","pricing_plan_id":"cebpf4jnsgd1na2vs0mg"},{"bike_id":"fba5dbdc-cf81-46d4-9465-8be11c4a71a4","system_id":"levelo_inurba_marseille","lat":43.29271,"lon":5.36846,"is_reserved":false,"is_disabled":false,"rental_uris":{"android":"levelo://app?vid=fba5dbdc-cf81-46d4-9465-8be11c4a71a4","ios":"levelo://app?vid=fba5dbdc-cf81-46d4-9465-8be11c4a71a4"},"vehicle_type_id":"4","last_reported":1726074454,"current_range_meters":38800,"station_id":"ce4bhbp2rcd13ifvqesg","pricing_plan_id":"cebpf4jnsgd1na2vs0mg"},{"bike_id":"217b12d7-0655-4772-b8b6-d4b4b765627c","system_id":"levelo_inurba_marseille","lat":43.25578,"lon":5.38231,"is_reserved":false,"is_disabled":false,"rental_uris":{"android":"levelo://app?vid=217b12d7-0655-4772-b8b6-d4b4b765627c","ios":"levelo://app?vid=217b12d7-0655-4772-b8b6-d4b4b765627c"},"vehicle_type_id":"4","last_reported":1726074454,"current_range_meters":11600,"station_id":"ce4bhih2rcd13ifvqfs0","pricing_plan_id":"cebpf4jnsgd1na2vs0mg"},{"bike_id":"1b9d0bc6-8a04-455a-97bb-135a8d020087","system_id":"levelo_inurba_marseille","lat":43.30572,"lon":5.39774,"is_reserved":false,"is_disabled":false,"rental_uris":{"android":"levelo://app?vid=1b9d0bc6-8a04-455a-97bb-135a8d020087","ios":"levelo://app?vid=1b9d0bc6-8a04-455a-97bb-135a8d020087"},"vehicle_type_id":"4","last_reported":1726074454,"current_range_meters":22000,"station_id":"ce4bh0p2rcd13ifvqd80","pricing_plan_id":"cebpf4jnsgd1na2vs0mg"},{"bike_id":"a50371a2-0411-4fa4-9e79-3a6082183dab","system_id":"levelo_inurba_marseille","lat":43.262,"lon":5.37934,"is_reserved":false,"is_disabled":false,"rental_uris":{"android":"levelo://app?vid=a50371a2-0411-4fa4-9e79-3a6082183dab","ios":"levelo://app?vid=a50371a2-0411-4fa4-9e79-3a6082183dab"},"vehicle_type_id":"4","last_reported":1726074454,"current_range_meters":6000,"station_id":"ce4bhjp2rcd13ifvqg90","pricing_plan_id":"cebpf4jnsgd1na2vs0mg"},{"bike_id":"c8e0fcb6-1d3f-4d83-b861-1f56e6b3ab2c","system_id":"levelo_inurba_marseille","lat":43.32172,"lon":5.38897,"is_reserved":false,"is_disabled":false,"rental_uris":{"android":"levelo://app?vid=c8e0fcb6-1d3f-4d83-b861-1f56e6b3ab2c","ios":"levelo://app?vid=c8e0fcb6-1d3f-4d83-b861-1f56e6b3ab2c"},"vehicle_type_id":"4","last_reported":1726074454,"current_range_meters":32800,"station_id":"","pricing_plan_id":"cebpf4jnsgd1na2vs0mg"},{"bike_id":"9533cc74-f378-4fb0-bc63-7c9a52f54d23","system_id":"levelo_inurba_marseille","lat":43.31173,"lon":5.39344,"is_reserved":false,"is_disabled":false,"rental_uris":{"android":"levelo://app?vid=9533cc74-f378-4fb0-bc63-7c9a52f54d23","ios":"levelo://app?vid=9533cc74-f378-4fb0-bc63-7c9a52f54d23"},"vehicle_type_id":"4","last_reported":1726074454,"current_range_meters":2800,"station_id":"","pricing_plan_id":"cebpf4jnsgd1na2vs0mg"},{"bike_id":"f8722b6f-7e96-4305-ae3b-e2b19b7ca9e5","system_id":"levelo_inurba_marseille","lat":43.316405,"lon":5.37181,"is_reserved":false,"is_disabled":false,"rental_uris":{"android":"levelo://app?vid=f8722b6f-7e96-4305-ae3b-e2b19b7ca9e5","ios":"levelo://app?vid=f8722b6f-7e96-4305-ae3b-e2b19b7ca9e5"},"vehicle_type_id":"4","last_reported":1726074454,"current_range_meters":7200,"station_id":"ce4bgt12rcd13ifvqcd0","pricing_plan_id":"cebpf4jnsgd1na2vs0mg"},{"bike_id":"309a7169-56f1-4c44-a45e-96df3696fc7d","system_id":"levelo_inurba_marseille","lat":43.311141,"lon":5.377725,"is_reserved":false,"is_disabled":false,"rental_uris":{"android":"levelo://app?vid=309a7169-56f1-4c44-a45e-96df3696fc7d","ios":"levelo://app?vid=309a7169-56f1-4c44-a45e-96df3696fc7d"},"vehicle_type_id":"4","last_reported":1726074454,"current_range_meters":36400,"station_id":"ce4bgt92rcd13ifvqcg0","pricing_plan_id":"cebpf4jnsgd1na2vs0mg"},{"bike_id":"24990dba-cb5c-44e3-b39e-9413cf954095","system_id":"levelo_inurba_marseille","lat":43.23182,"lon":5.39993,"is_reserved":false,"is_disabled":false,"rental_uris":{"android":"levelo://app?vid=24990dba-cb5c-44e3-b39e-9413cf954095","ios":"levelo://app?vid=24990dba-cb5c-44e3-b39e-9413cf954095"},"vehicle_type_id":"4","last_reported":1726074454,"current_range_meters":22000,"station_id":"ce4bhn12rcd13ifvqgqg","pricing_plan_id":"cebpf4jnsgd1na2vs0mg"},{"bike_id":"77641ddf-ed47-4bb2-94b9-bb9f7ad845f0","system_id":"levelo_inurba_marseille","lat":43.33606,"lon":5.41037,"is_reserved":false,"is_disabled":false,"rental_uris":{"android":"levelo://app?vid=77641ddf-ed47-4bb2-94b9-bb9f7ad845f0","ios":"levelo://app?vid=77641ddf-ed47-4bb2-94b9-bb9f7ad845f0"},"vehicle_type_id":"4","last_reported":1726074454,"current_range_meters":25600,"station_id":"ce4bhq92rcd13ifvqhkg","pricing_plan_id":"cebpf4jnsgd1na2vs0mg"},{"bike_id":"9f0b02fa-0c14-49b8-bc48-3c9a6de58566","system_id":"levelo_inurba_marseille","lat":43.30145,"lon":5.38776,"is_reserved":false,"is_disabled":false,"rental_uris":{"android":"levelo://app?vid=9f0b02fa-0c14-49b8-bc48-3c9a6de58566","ios":"levelo://app?vid=9f0b02fa-0c14-49b8-bc48-3c9a6de58566"},"vehicle_type_id":"4","last_reported":1726074454,"current_range_meters":14000,"station_id":"ce4bghh2rcd13ifvqb60","pricing_plan_id":"cebpf4jnsgd1na2vs0mg"},{"bike_id":"81f16c39-213d-471e-942f-bb4c86af4807","system_id":"levelo_inurba_marseille","lat":43.29026,"lon":5.38642,"is_reserved":false,"is_disabled":false,"rental_uris":{"android":"levelo://app?vid=81f16c39-213d-471e-942f-bb4c86af4807","ios":"levelo://app?vid=81f16c39-213d-471e-942f-bb4c86af4807"},"vehicle_type_id":"4","last_reported":1726074454,"current_range_meters":38000,"station_id":"ce4bh4p2rcd13ifvqe0g","pricing_plan_id":"cebpf4jnsgd1na2vs0mg"},{"bike_id":"5f8714c2-4691-49c6-af6f-ae88c4dd369a","system_id":"levelo_inurba_marseille","lat":43.27997,"lon":5.40012,"is_reserved":false,"is_disabled":false,"rental_uris":{"android":"levelo://app?vid=5f8714c2-4691-49c6-af6f-ae88c4dd369a","ios":"levelo://app?vid=5f8714c2-4691-49c6-af6f-ae88c4dd369a"},"vehicle_type_id":"4","last_reported":1726074454,"current_range_meters":5600,"station_id":"ce4bho92rcd13ifvqh4g","pricing_plan_id":"cebpf4jnsgd1na2vs0mg"},{"bike_id":"03d1ebab-df6e-4d58-98c4-2b2b4909205e","system_id":"levelo_inurba_marseille","lat":43.2841,"lon":5.3751,"is_reserved":false,"is_disabled":false,"rental_uris":{"android":"levelo://app?vid=03d1ebab-df6e-4d58-98c4-2b2b4909205e","ios":"levelo://app?vid=03d1ebab-df6e-4d58-98c4-2b2b4909205e"},"vehicle_type_id":"4","last_reported":1726074454,"current_range_meters":38000,"station_id":"ce4bh412rcd13ifvqds0","pricing_plan_id":"cebpf4jnsgd1na2vs0mg"},{"bike_id":"2c2dc8aa-fb55-4104-9e61-1dd9eea5a134","system_id":"levelo_inurba_marseille","lat":43.295349,"lon":5.385514,"is_reserved":false,"is_disabled":false,"rental_uris":{"android":"levelo://app?vid=2c2dc8aa-fb55-4104-9e61-1dd9eea5a134","ios":"levelo://app?vid=2c2dc8aa-fb55-4104-9e61-1dd9eea5a134"},"vehicle_type_id":"4","last_reported":1726074454,"current_range_meters":16800,"station_id":"ce4bgih2rcd13ifvqba0","pricing_plan_id":"cebpf4jnsgd1na2vs0mg"},{"bike_id":"1292b22b-0e2a-4889-8236-42f0393b01da","system_id":"levelo_inurba_marseille","lat":43.296051,"lon":5.377262,"is_reserved":false,"is_disabled":false,"rental_uris":{"android":"levelo://app?vid=1292b22b-0e2a-4889-8236-42f0393b01da","ios":"levelo://app?vid=1292b22b-0e2a-4889-8236-42f0393b01da"},"vehicle_type_id":"4","last_reported":1726074454,"current_range_meters":24400,"station_id":"ce4bgi92rcd13ifvqb90","pricing_plan_id":"cebpf4jnsgd1na2vs0mg"},{"bike_id":"c45a6824-1a28-4b8e-adbe-96152e43a5de","system_id":"levelo_inurba_marseille","lat":43.34146,"lon":5.40914,"is_reserved":false,"is_disabled":false,"rental_uris":{"android":"levelo://app?vid=c45a6824-1a28-4b8e-adbe-96152e43a5de","ios":"levelo://app?vid=c45a6824-1a28-4b8e-adbe-96152e43a5de"},"vehicle_type_id":"4","last_reported":1726074454,"current_range_meters":36800,"station_id":"ce4bhqh2rcd13ifvqhlg","pricing_plan_id":"cebpf4jnsgd1na2vs0mg"},{"bike_id":"c097fc37-870d-4768-ab94-ae87094395af","system_id":"levelo_inurba_marseille","lat":43.31757,"lon":5.39018,"is_reserved":false,"is_disabled":false,"rental_uris":{"android":"levelo://app?vid=c097fc37-870d-4768-ab94-ae87094395af","ios":"levelo://app?vid=c097fc37-870d-4768-ab94-ae87094395af"},"vehicle_type_id":"4","last_reported":1726074454,"current_range_meters":23200,"station_id":"ce4bhqp2rcd13ifvqhng","pricing_plan_id":"cebpf4jnsgd1na2vs0mg"},{"bike_id":"f400d370-a20e-4ced-86f0-64f62510749c","system_id":"levelo_inurba_marseille","lat":43.3237,"lon":5.38926,"is_reserved":false,"is_disabled":false,"rental_uris":{"android":"levelo://app?vid=f400d370-a20e-4ced-86f0-64f62510749c","ios":"levelo://app?vid=f400d370-a20e-4ced-86f0-64f62510749c"},"vehicle_type_id":"4","last_reported":1726074454,"current_range_meters":12800,"station_id":"","pricing_plan_id":"cebpf4jnsgd1na2vs0mg"},{"bike_id":"a91baba8-515a-4d48-8960-9610c83e2cd6","system_id":"levelo_inurba_marseille","lat":43.246732,"lon":5.381307,"is_reserved":false,"is_disabled":false,"rental_uris":{"android":"levelo://app?vid=a91baba8-515a-4d48-8960-9610c83e2cd6","ios":"levelo://app?vid=a91baba8-515a-4d48-8960-9610c83e2cd6"},"vehicle_type_id":"4","last_reported":1726074454,"current_range_meters":16000,"station_id":"ce4bhih2rcd13ifvqfr0","pricing_plan_id":"cebpf4jnsgd1na2vs0mg"},{"bike_id":"3c7e2569-50e4-43f2-a3c4-8e919a6856b2","system_id":"levelo_inurba_marseille","lat":43.2803,"lon":5.3694,"is_reserved":false,"is_disabled":false,"rental_uris":{"android":"levelo://app?vid=3c7e2569-50e4-43f2-a3c4-8e919a6856b2","ios":"levelo://app?vid=3c7e2569-50e4-43f2-a3c4-8e919a6856b2"},"vehicle_type_id":"4","last_reported":1726074454,"current_range_meters":8800,"station_id":"ce4bha12rcd13ifvqef0","pricing_plan_id":"cebpf4jnsgd1na2vs0mg"},{"bike_id":"0e831ac2-3fcd-49ab-9cda-68ad5e0c84d9","system_id":"levelo_inurba_marseille","lat":43.29267,"lon":5.36846,"is_reserved":false,"is_disabled":false,"rental_uris":{"android":"levelo://app?vid=0e831ac2-3fcd-49ab-9cda-68ad5e0c84d9","ios":"levelo://app?vid=0e831ac2-3fcd-49ab-9cda-68ad5e0c84d9"},"vehicle_type_id":"4","last_reported":1726074454,"current_range_meters":37600,"station_id":"ce4bhbp2rcd13ifvqesg","pricing_plan_id":"cebpf4jnsgd1na2vs0mg"},{"bike_id":"143049cf-4830-4219-a121-2a60df83aa5d","system_id":"levelo_inurba_marseille","lat":43.337444,"lon":5.374475,"is_reserved":false,"is_disabled":false,"rental_uris":{"android":"levelo://app?vid=143049cf-4830-4219-a121-2a60df83aa5d","ios":"levelo://app?vid=143049cf-4830-4219-a121-2a60df83aa5d"},"vehicle_type_id":"4","last_reported":1726074454,"current_range_meters":32000,"station_id":"","pricing_plan_id":"cebpf4jnsgd1na2vs0mg"},{"bike_id":"08857794-6aa7-4018-82ad-28895b7ef5b5","system_id":"levelo_inurba_marseille","lat":43.30785,"lon":5.37644,"is_reserved":false,"is_disabled":false,"rental_uris":{"android":"levelo://app?vid=08857794-6aa7-4018-82ad-28895b7ef5b5","ios":"levelo://app?vid=08857794-6aa7-4018-82ad-28895b7ef5b5"},"vehicle_type_id":"4","last_reported":1726074454,"current_range_meters":1200,"station_id":"ce4bgt12rcd13ifvqce0","pricing_plan_id":"cebpf4jnsgd1na2vs0mg"},{"bike_id":"3b3bee2d-7053-4676-8fc4-7bcf9f853937","system_id":"levelo_inurba_marseille","lat":43.3229,"lon":5.38275,"is_reserved":false,"is_disabled":false,"rental_uris":{"android":"levelo://app?vid=3b3bee2d-7053-4676-8fc4-7bcf9f853937","ios":"levelo://app?vid=3b3bee2d-7053-4676-8fc4-7bcf9f853937"},"vehicle_type_id":"4","last_reported":1726074454,"current_range_meters":28400,"station_id":"ce4bhr12rcd13ifvqhqg","pricing_plan_id":"cebpf4jnsgd1na2vs0mg"},{"bike_id":"047ad47f-12d9-4e34-a265-8098020725b2","system_id":"levelo_inurba_marseille","lat":43.24807,"lon":5.3746,"is_reserved":false,"is_disabled":false,"rental_uris":{"android":"levelo://app?vid=047ad47f-12d9-4e34-a265-8098020725b2","ios":"levelo://app?vid=047ad47f-12d9-4e34-a265-8098020725b2"},"vehicle_type_id":"4","last_reported":1726074454,"current_range_meters":26800,"station_id":"ce4bhgh2rcd13ifvqfb0","pricing_plan_id":"cebpf4jnsgd1na2vs0mg"},{"bike_id":"f0356d56-821f-4e87-b4cc-2ff7acf36a6d","system_id":"levelo_inurba_marseille","lat":43.31168,"lon":5.3872,"is_reserved":false,"is_disabled":false,"rental_uris":{"android":"levelo://app?vid=f0356d56-821f-4e87-b4cc-2ff7acf36a6d","ios":"levelo://app?vid=f0356d56-821f-4e87-b4cc-2ff7acf36a6d"},"vehicle_type_id":"4","last_reported":1726074454,"current_range_meters":6400,"station_id":"ce4bgv12rcd13ifvqcp0","pricing_plan_id":"cebpf4jnsgd1na2vs0mg"},{"bike_id":"4581ffb4-4860-4295-bc13-f823df58b91c","system_id":"levelo_inurba_marseille","lat":43.24811,"lon":5.39894,"is_reserved":false,"is_disabled":false,"rental_uris":{"android":"levelo://app?vid=4581ffb4-4860-4295-bc13-f823df58b91c","ios":"levelo://app?vid=4581ffb4-4860-4295-bc13-f823df58b91c"},"vehicle_type_id":"4","last_reported":1726074454,"current_range_meters":16000,"station_id":"","pricing_plan_id":"cebpf4jnsgd1na2vs0mg"},{"bike_id":"cec131b6-6c84-4899-9723-159f4b060af5","system_id":"levelo_inurba_marseille","lat":43.31711,"lon":5.37658,"is_reserved":false,"is_disabled":false,"rental_uris":{"android":"levelo://app?vid=cec131b6-6c84-4899-9723-159f4b060af5","ios":"levelo://app?vid=cec131b6-6c84-4899-9723-159f4b060af5"},"vehicle_type_id":"4","last_reported":1726074454,"current_range_meters":6800,"station_id":"","pricing_plan_id":"cebpf4jnsgd1na2vs0mg"},{"bike_id":"f2b3b549-7f8a-4eae-b464-4b6623533f44","system_id":"levelo_inurba_marseille","lat":43.33749,"lon":5.37451,"is_reserved":false,"is_disabled":false,"rental_uris":{"android":"levelo://app?vid=f2b3b549-7f8a-4eae-b464-4b6623533f44","ios":"levelo://app?vid=f2b3b549-7f8a-4eae-b464-4b6623533f44"},"vehicle_type_id":"4","last_reported":1726074454,"current_range_meters":32000,"station_id":"","pricing_plan_id":"cebpf4jnsgd1na2vs0mg"},{"bike_id":"61811ff6-9f28-48c1-b134-4520a2b4b9b8","system_id":"levelo_inurba_marseille","lat":43.29284,"lon":5.36854,"is_reserved":false,"is_disabled":false,"rental_uris":{"android":"levelo://app?vid=61811ff6-9f28-48c1-b134-4520a2b4b9b8","ios":"levelo://app?vid=61811ff6-9f28-48c1-b134-4520a2b4b9b8"},"vehicle_type_id":"4","last_reported":1726074454,"current_range_meters":38800,"station_id":"ce4bhbp2rcd13ifvqesg","pricing_plan_id":"cebpf4jnsgd1na2vs0mg"},{"bike_id":"fffbd652-9d9a-47e9-892c-68dc09e02ddb","system_id":"levelo_inurba_marseille","lat":43.2408,"lon":5.37737,"is_reserved":false,"is_disabled":false,"rental_uris":{"android":"levelo://app?vid=fffbd652-9d9a-47e9-892c-68dc09e02ddb","ios":"levelo://app?vid=fffbd652-9d9a-47e9-892c-68dc09e02ddb"},"vehicle_type_id":"4","last_reported":1726074454,"current_range_meters":32400,"station_id":"ce4bhnp2rcd13ifvqgvg","pricing_plan_id":"cebpf4jnsgd1na2vs0mg"},{"bike_id":"73e970fc-74cc-4d47-9f25-adb5f88cf418","system_id":"levelo_inurba_marseille","lat":43.28847,"lon":5.39312,"is_reserved":false,"is_disabled":false,"rental_uris":{"android":"levelo://app?vid=73e970fc-74cc-4d47-9f25-adb5f88cf418","ios":"levelo://app?vid=73e970fc-74cc-4d47-9f25-adb5f88cf418"},"vehicle_type_id":"4","last_reported":1726074454,"current_range_meters":16800,"station_id":"ce4bh2p2rcd13ifvqdi0","pricing_plan_id":"cebpf4jnsgd1na2vs0mg"},{"bike_id":"efc56ccd-19c8-4639-83af-656ebbe55a0b","system_id":"levelo_inurba_marseille","lat":43.29198,"lon":5.35812,"is_reserved":false,"is_disabled":false,"rental_uris":{"android":"levelo://app?vid=efc56ccd-19c8-4639-83af-656ebbe55a0b","ios":"levelo://app?vid=efc56ccd-19c8-4639-83af-656ebbe55a0b"},"vehicle_type_id":"4","last_reported":1726074454,"current_range_meters":36000,"station_id":"ce4bhb12rcd13ifvqel0","pricing_plan_id":"cebpf4jnsgd1na2vs0mg"},{"bike_id":"68201959-2317-4e1f-b951-c9565ee06a32","system_id":"levelo_inurba_marseille","lat":43.27945,"lon":5.41052,"is_reserved":false,"is_disabled":false,"rental_uris":{"android":"levelo://app?vid=68201959-2317-4e1f-b951-c9565ee06a32","ios":"levelo://app?vid=68201959-2317-4e1f-b951-c9565ee06a32"},"vehicle_type_id":"4","last_reported":1726074454,"current_range_meters":6400,"station_id":"ce4bhnp2rcd13ifvqh0g","pricing_plan_id":"cebpf4jnsgd1na2vs0mg"},{"bike_id":"21d93b2c-5eaf-47ed-8463-638a138d421d","system_id":"levelo_inurba_marseille","lat":43.290283,"lon":5.38649,"is_reserved":false,"is_disabled":false,"rental_uris":{"android":"levelo://app?vid=21d93b2c-5eaf-47ed-8463-638a138d421d","ios":"levelo://app?vid=21d93b2c-5eaf-47ed-8463-638a138d421d"},"vehicle_type_id":"4","last_reported":1726074454,"current_range_meters":23200,"station_id":"ce4bh4p2rcd13ifvqe0g","pricing_plan_id":"cebpf4jnsgd1na2vs0mg"},{"bike_id":"4eb51965-7bcd-4005-93dc-95243ef9ee42","system_id":"levelo_inurba_marseille","lat":43.29798,"lon":5.40406,"is_reserved":false,"is_disabled":false,"rental_uris":{"android":"levelo://app?vid=4eb51965-7bcd-4005-93dc-95243ef9ee42","ios":"levelo://app?vid=4eb51965-7bcd-4005-93dc-95243ef9ee42"},"vehicle_type_id":"4","last_reported":1726074454,"current_range_meters":17200,"station_id":"ce4bh112rcd13ifvqd90","pricing_plan_id":"cebpf4jnsgd1na2vs0mg"},{"bike_id":"3bc48640-dcef-4b41-b582-32faa2b50036","system_id":"levelo_inurba_marseille","lat":43.29526,"lon":5.39039,"is_reserved":false,"is_disabled":false,"rental_uris":{"android":"levelo://app?vid=3bc48640-dcef-4b41-b582-32faa2b50036","ios":"levelo://app?vid=3bc48640-dcef-4b41-b582-32faa2b50036"},"vehicle_type_id":"4","last_reported":1726074454,"current_range_meters":9600,"station_id":"ce4bh3p2rcd13ifvqdp0","pricing_plan_id":"cebpf4jnsgd1na2vs0mg"},{"bike_id":"6db03aa1-ee87-4a1a-ab2a-aa2845b3c620","system_id":"levelo_inurba_marseille","lat":43.26203,"lon":5.37938,"is_reserved":false,"is_disabled":false,"rental_uris":{"android":"levelo://app?vid=6db03aa1-ee87-4a1a-ab2a-aa2845b3c620","ios":"levelo://app?vid=6db03aa1-ee87-4a1a-ab2a-aa2845b3c620"},"vehicle_type_id":"4","last_reported":1726074454,"current_range_meters":19600,"station_id":"ce4bhjp2rcd13ifvqg90","pricing_plan_id":"cebpf4jnsgd1na2vs0mg"},{"bike_id":"b88b701e-6bf2-4e1f-9c47-0edc3b9e8fcb","system_id":"levelo_inurba_marseille","lat":43.28364,"lon":5.38627,"is_reserved":false,"is_disabled":false,"rental_uris":{"android":"levelo://app?vid=b88b701e-6bf2-4e1f-9c47-0edc3b9e8fcb","ios":"levelo://app?vid=b88b701e-6bf2-4e1f-9c47-0edc3b9e8fcb"},"vehicle_type_id":"4","last_reported":1726074454,"current_range_meters":6800,"station_id":"ce4bh492rcd13ifvqdvg","pricing_plan_id":"cebpf4jnsgd1na2vs0mg"},{"bike_id":"ec164d05-112e-4a8a-9bb5-06eae5f35e31","system_id":"levelo_inurba_marseille","lat":43.26808,"lon":5.40272,"is_reserved":false,"is_disabled":false,"rental_uris":{"android":"levelo://app?vid=ec164d05-112e-4a8a-9bb5-06eae5f35e31","ios":"levelo://app?vid=ec164d05-112e-4a8a-9bb5-06eae5f35e31"},"vehicle_type_id":"4","last_reported":1726074454,"current_range_meters":34800,"station_id":"ce501612rcd8frsf0b60","pricing_plan_id":"cebpf4jnsgd1na2vs0mg"},{"bike_id":"11dbe029-1355-4bf7-8aeb-5d13ce051ec3","system_id":"levelo_inurba_marseille","lat":43.26061,"lon":5.39389,"is_reserved":false,"is_disabled":false,"rental_uris":{"android":"levelo://app?vid=11dbe029-1355-4bf7-8aeb-5d13ce051ec3","ios":"levelo://app?vid=11dbe029-1355-4bf7-8aeb-5d13ce051ec3"},"vehicle_type_id":"4","last_reported":1726074454,"current_range_meters":30400,"station_id":"ce4bhh92rcd13ifvqfj0","pricing_plan_id":"cebpf4jnsgd1na2vs0mg"},{"bike_id":"723846e5-b610-42e3-b8e1-da91dfd75e43","system_id":"levelo_inurba_marseille","lat":43.2827,"lon":5.35074,"is_reserved":false,"is_disabled":false,"rental_uris":{"android":"levelo://app?vid=723846e5-b610-42e3-b8e1-da91dfd75e43","ios":"levelo://app?vid=723846e5-b610-42e3-b8e1-da91dfd75e43"},"vehicle_type_id":"4","last_reported":1726074454,"current_range_meters":37600,"station_id":"ce4bhbp2rcd13ifvqerg","pricing_plan_id":"cebpf4jnsgd1na2vs0mg"},{"bike_id":"4f445994-4d79-4898-968e-39a40769bb48","system_id":"levelo_inurba_marseille","lat":43.29873,"lon":5.39737,"is_reserved":false,"is_disabled":false,"rental_uris":{"android":"levelo://app?vid=4f445994-4d79-4898-968e-39a40769bb48","ios":"levelo://app?vid=4f445994-4d79-4898-968e-39a40769bb48"},"vehicle_type_id":"4","last_reported":1726074454,"current_range_meters":20400,"station_id":"ce4bh0h2rcd13ifvqd50","pricing_plan_id":"cebpf4jnsgd1na2vs0mg"},{"bike_id":"b833bc0d-867e-4972-bfac-cf3d18fa334d","system_id":"levelo_inurba_marseille","lat":43.28415,"lon":5.3751,"is_reserved":false,"is_disabled":false,"rental_uris":{"android":"levelo://app?vid=b833bc0d-867e-4972-bfac-cf3d18fa334d","ios":"levelo://app?vid=b833bc0d-867e-4972-bfac-cf3d18fa334d"},"vehicle_type_id":"4","last_reported":1726074454,"current_range_meters":27600,"station_id":"","pricing_plan_id":"cebpf4jnsgd1na2vs0mg"},{"bike_id":"4c74379e-7bc1-4852-8a89-37a55aba880d","system_id":"levelo_inurba_marseille","lat":43.24653,"lon":5.38893,"is_reserved":false,"is_disabled":false,"rental_uris":{"android":"levelo://app?vid=4c74379e-7bc1-4852-8a89-37a55aba880d","ios":"levelo://app?vid=4c74379e-7bc1-4852-8a89-37a55aba880d"},"vehicle_type_id":"4","last_reported":1726074454,"current_range_meters":28800,"station_id":"ce4bhg12rcd13ifvqf60","pricing_plan_id":"cebpf4jnsgd1na2vs0mg"},{"bike_id":"8ff6a6fa-ccb9-4deb-9a2d-9f93572ef705","system_id":"levelo_inurba_marseille","lat":43.29309,"lon":5.37177,"is_reserved":false,"is_disabled":false,"rental_uris":{"android":"levelo://app?vid=8ff6a6fa-ccb9-4deb-9a2d-9f93572ef705","ios":"levelo://app?vid=8ff6a6fa-ccb9-4deb-9a2d-9f93572ef705"},"vehicle_type_id":"4","last_reported":1726074454,"current_range_meters":800,"station_id":"ce4bgh92rcd13ifvqb40","pricing_plan_id":"cebpf4jnsgd1na2vs0mg"},{"bike_id":"d75676ec-92e1-4d11-8ec7-2178fdaba4ce","system_id":"levelo_inurba_marseille","lat":43.30304,"lon":5.36885,"is_reserved":false,"is_disabled":false,"rental_uris":{"android":"levelo://app?vid=d75676ec-92e1-4d11-8ec7-2178fdaba4ce","ios":"levelo://app?vid=d75676ec-92e1-4d11-8ec7-2178fdaba4ce"},"vehicle_type_id":"4","last_reported":1726074454,"current_range_meters":36000,"station_id":"ce4bgqh2rcd13ifvqc5g","pricing_plan_id":"cebpf4jnsgd1na2vs0mg"},{"bike_id":"f3dd58dc-ab4b-4ec7-8d1b-661fa0880a62","system_id":"levelo_inurba_marseille","lat":43.29561,"lon":5.42296,"is_reserved":false,"is_disabled":false,"rental_uris":{"android":"levelo://app?vid=f3dd58dc-ab4b-4ec7-8d1b-661fa0880a62","ios":"levelo://app?vid=f3dd58dc-ab4b-4ec7-8d1b-661fa0880a62"},"vehicle_type_id":"4","last_reported":1726074454,"current_range_meters":25600,"station_id":"ce4bhph2rcd13ifvqhdg","pricing_plan_id":"cebpf4jnsgd1na2vs0mg"},{"bike_id":"3c45e72c-a88e-44aa-8bca-e1a0ffd178f8","system_id":"levelo_inurba_marseille","lat":43.2753,"lon":5.43433,"is_reserved":false,"is_disabled":false,"rental_uris":{"android":"levelo://app?vid=3c45e72c-a88e-44aa-8bca-e1a0ffd178f8","ios":"levelo://app?vid=3c45e72c-a88e-44aa-8bca-e1a0ffd178f8"},"vehicle_type_id":"4","last_reported":1726074454,"current_range_meters":4800,"station_id":"","pricing_plan_id":"cebpf4jnsgd1na2vs0mg"},{"bike_id":"7d87fd0f-13b2-4332-8c45-bc03a77581bc","system_id":"levelo_inurba_marseille","lat":43.29997,"lon":5.38558,"is_reserved":false,"is_disabled":false,"rental_uris":{"android":"levelo://app?vid=7d87fd0f-13b2-4332-8c45-bc03a77581bc","ios":"levelo://app?vid=7d87fd0f-13b2-4332-8c45-bc03a77581bc"},"vehicle_type_id":"4","last_reported":1726074454,"current_range_meters":4000,"station_id":"ce4bgj92rcd13ifvqbd0","pricing_plan_id":"cebpf4jnsgd1na2vs0mg"},{"bike_id":"f05fc4e7-5435-424e-8f86-827fdf979fe4","system_id":"levelo_inurba_marseille","lat":43.2955,"lon":5.42278,"is_reserved":false,"is_disabled":false,"rental_uris":{"android":"levelo://app?vid=f05fc4e7-5435-424e-8f86-827fdf979fe4","ios":"levelo://app?vid=f05fc4e7-5435-424e-8f86-827fdf979fe4"},"vehicle_type_id":"4","last_reported":1726074454,"current_range_meters":34000,"station_id":"ce4bhph2rcd13ifvqhdg","pricing_plan_id":"cebpf4jnsgd1na2vs0mg"},{"bike_id":"32e67cfb-44e9-4243-9475-a0dcc4d6eeaf","system_id":"levelo_inurba_marseille","lat":43.29229,"lon":5.36064,"is_reserved":false,"is_disabled":false,"rental_uris":{"android":"levelo://app?vid=32e67cfb-44e9-4243-9475-a0dcc4d6eeaf","ios":"levelo://app?vid=32e67cfb-44e9-4243-9475-a0dcc4d6eeaf"},"vehicle_type_id":"4","last_reported":1726074454,"current_range_meters":36400,"station_id":"ce4bhbh2rcd13ifvqeqg","pricing_plan_id":"cebpf4jnsgd1na2vs0mg"},{"bike_id":"00845bbc-fed0-4944-9a96-d4737edc6320","system_id":"levelo_inurba_marseille","lat":43.28419,"lon":5.37515,"is_reserved":false,"is_disabled":false,"rental_uris":{"android":"levelo://app?vid=00845bbc-fed0-4944-9a96-d4737edc6320","ios":"levelo://app?vid=00845bbc-fed0-4944-9a96-d4737edc6320"},"vehicle_type_id":"4","last_reported":1726074454,"current_range_meters":35200,"station_id":"ce4bh412rcd13ifvqds0","pricing_plan_id":"cebpf4jnsgd1na2vs0mg"},{"bike_id":"544e2c53-b960-4abe-a256-6a8b74c8a10f","system_id":"levelo_inurba_marseille","lat":43.296245,"lon":5.370473,"is_reserved":false,"is_disabled":false,"rental_uris":{"android":"levelo://app?vid=544e2c53-b960-4abe-a256-6a8b74c8a10f","ios":"levelo://app?vid=544e2c53-b960-4abe-a256-6a8b74c8a10f"},"vehicle_type_id":"4","last_reported":1726074454,"current_range_meters":35200,"station_id":"ce4bgrh2rcd13ifvqc8g","pricing_plan_id":"cebpf4jnsgd1na2vs0mg"},{"bike_id":"1bc6bdbc-d0b9-4780-a496-aaef30dd949b","system_id":"levelo_inurba_marseille","lat":43.31496,"lon":5.37313,"is_reserved":false,"is_disabled":false,"rental_uris":{"android":"levelo://app?vid=1bc6bdbc-d0b9-4780-a496-aaef30dd949b","ios":"levelo://app?vid=1bc6bdbc-d0b9-4780-a496-aaef30dd949b"},"vehicle_type_id":"4","last_reported":1726074454,"current_range_meters":2800,"station_id":"ce4bgt12rcd13ifvqcd0","pricing_plan_id":"cebpf4jnsgd1na2vs0mg"},{"bike_id":"70449c3c-7ef6-4349-be3c-2c44a2ade3d5","system_id":"levelo_inurba_marseille","lat":43.29985,"lon":5.38493,"is_reserved":false,"is_disabled":false,"rental_uris":{"android":"levelo://app?vid=70449c3c-7ef6-4349-be3c-2c44a2ade3d5","ios":"levelo://app?vid=70449c3c-7ef6-4349-be3c-2c44a2ade3d5"},"vehicle_type_id":"4","last_reported":1726074454,"current_range_meters":18800,"station_id":"ce4bgj92rcd13ifvqbd0","pricing_plan_id":"cebpf4jnsgd1na2vs0mg"},{"bike_id":"c1521262-1b8f-4523-8b95-4b8678adc8ee","system_id":"levelo_inurba_marseille","lat":43.29896,"lon":5.43673,"is_reserved":false,"is_disabled":false,"rental_uris":{"android":"levelo://app?vid=c1521262-1b8f-4523-8b95-4b8678adc8ee","ios":"levelo://app?vid=c1521262-1b8f-4523-8b95-4b8678adc8ee"},"vehicle_type_id":"4","last_reported":1726074454,"current_range_meters":17200,"station_id":"ce4bhpp2rcd13ifvqhfg","pricing_plan_id":"cebpf4jnsgd1na2vs0mg"},{"bike_id":"f3872451-dc6a-457c-ace5-6606df9ed7e4","system_id":"levelo_inurba_marseille","lat":43.26211,"lon":5.37444,"is_reserved":false,"is_disabled":false,"rental_uris":{"android":"levelo://app?vid=f3872451-dc6a-457c-ace5-6606df9ed7e4","ios":"levelo://app?vid=f3872451-dc6a-457c-ace5-6606df9ed7e4"},"vehicle_type_id":"4","last_reported":1726074454,"current_range_meters":10800,"station_id":"ce4bhgp2rcd13ifvqfc0","pricing_plan_id":"cebpf4jnsgd1na2vs0mg"},{"bike_id":"6cc95b7a-cb37-48e2-8682-a1d2bf2d8e96","system_id":"levelo_inurba_marseille","lat":43.30533,"lon":5.3655,"is_reserved":false,"is_disabled":false,"rental_uris":{"android":"levelo://app?vid=6cc95b7a-cb37-48e2-8682-a1d2bf2d8e96","ios":"levelo://app?vid=6cc95b7a-cb37-48e2-8682-a1d2bf2d8e96"},"vehicle_type_id":"4","last_reported":1726074454,"current_range_meters":7200,"station_id":"ce4bgs12rcd13ifvqcag","pricing_plan_id":"cebpf4jnsgd1na2vs0mg"},{"bike_id":"b2ee397a-3c05-4198-8929-7ab683844e7b","system_id":"levelo_inurba_marseille","lat":43.30895,"lon":5.37194,"is_reserved":false,"is_disabled":false,"rental_uris":{"android":"levelo://app?vid=b2ee397a-3c05-4198-8929-7ab683844e7b","ios":"levelo://app?vid=b2ee397a-3c05-4198-8929-7ab683844e7b"},"vehicle_type_id":"4","last_reported":1726074454,"current_range_meters":17200,"station_id":"ce4bguh2rcd13ifvqckg","pricing_plan_id":"cebpf4jnsgd1na2vs0mg"},{"bike_id":"65db8693-16bc-48f9-9a23-f666c9725b5a","system_id":"levelo_inurba_marseille","lat":43.29883,"lon":5.38918,"is_reserved":false,"is_disabled":false,"rental_uris":{"android":"levelo://app?vid=65db8693-16bc-48f9-9a23-f666c9725b5a","ios":"levelo://app?vid=65db8693-16bc-48f9-9a23-f666c9725b5a"},"vehicle_type_id":"4","last_reported":1726074454,"current_range_meters":22000,"station_id":"ce4bh392rcd13ifvqdl0","pricing_plan_id":"cebpf4jnsgd1na2vs0mg"},{"bike_id":"ee41233d-7057-4ec4-b3c6-63f582836de8","system_id":"levelo_inurba_marseille","lat":43.22934,"lon":5.35376,"is_reserved":false,"is_disabled":false,"rental_uris":{"android":"levelo://app?vid=ee41233d-7057-4ec4-b3c6-63f582836de8","ios":"levelo://app?vid=ee41233d-7057-4ec4-b3c6-63f582836de8"},"vehicle_type_id":"4","last_reported":1726074454,"current_range_meters":31200,"station_id":"cpo3532slgdg3j2ikp40","pricing_plan_id":"cebpf4jnsgd1na2vs0mg"},{"bike_id":"92f3a7a1-656d-4b46-8d30-b4c70c0fe6a0","system_id":"levelo_inurba_marseille","lat":43.290802,"lon":5.367189,"is_reserved":false,"is_disabled":false,"rental_uris":{"android":"levelo://app?vid=92f3a7a1-656d-4b46-8d30-b4c70c0fe6a0","ios":"levelo://app?vid=92f3a7a1-656d-4b46-8d30-b4c70c0fe6a0"},"vehicle_type_id":"4","last_reported":1726074454,"current_range_meters":14000,"station_id":"ce4bgh92rcd13ifvqb40","pricing_plan_id":"cebpf4jnsgd1na2vs0mg"},{"bike_id":"99929ab7-89dd-4d3c-b411-6d13cf180e00","system_id":"levelo_inurba_marseille","lat":43.29415,"lon":5.38623,"is_reserved":false,"is_disabled":false,"rental_uris":{"android":"levelo://app?vid=99929ab7-89dd-4d3c-b411-6d13cf180e00","ios":"levelo://app?vid=99929ab7-89dd-4d3c-b411-6d13cf180e00"},"vehicle_type_id":"4","last_reported":1726074454,"current_range_meters":39200,"station_id":"ce4bh2h2rcd13ifvqdh0","pricing_plan_id":"cebpf4jnsgd1na2vs0mg"},{"bike_id":"8c3decf2-9c61-4d24-b061-fc734d638759","system_id":"levelo_inurba_marseille","lat":43.25826,"lon":5.39417,"is_reserved":false,"is_disabled":false,"rental_uris":{"android":"levelo://app?vid=8c3decf2-9c61-4d24-b061-fc734d638759","ios":"levelo://app?vid=8c3decf2-9c61-4d24-b061-fc734d638759"},"vehicle_type_id":"4","last_reported":1726074454,"current_range_meters":4800,"station_id":"ce4bhip2rcd13ifvqft0","pricing_plan_id":"cebpf4jnsgd1na2vs0mg"},{"bike_id":"de5576c5-445d-427f-bdc1-ed1a924015fd","system_id":"levelo_inurba_marseille","lat":43.29657,"lon":5.377583,"is_reserved":false,"is_disabled":false,"rental_uris":{"android":"levelo://app?vid=de5576c5-445d-427f-bdc1-ed1a924015fd","ios":"levelo://app?vid=de5576c5-445d-427f-bdc1-ed1a924015fd"},"vehicle_type_id":"4","last_reported":1726074454,"current_range_meters":8800,"station_id":"ce4bgi92rcd13ifvqb90","pricing_plan_id":"cebpf4jnsgd1na2vs0mg"},{"bike_id":"8090fa40-91e5-4359-a4e2-271175d8b1b7","system_id":"levelo_inurba_marseille","lat":43.29326,"lon":5.41166,"is_reserved":false,"is_disabled":false,"rental_uris":{"android":"levelo://app?vid=8090fa40-91e5-4359-a4e2-271175d8b1b7","ios":"levelo://app?vid=8090fa40-91e5-4359-a4e2-271175d8b1b7"},"vehicle_type_id":"4","last_reported":1726074454,"current_range_meters":21600,"station_id":"","pricing_plan_id":"cebpf4jnsgd1na2vs0mg"},{"bike_id":"3da08b0d-333b-42dc-9495-64b7586e4b35","system_id":"levelo_inurba_marseille","lat":43.2621,"lon":5.37445,"is_reserved":false,"is_disabled":false,"rental_uris":{"android":"levelo://app?vid=3da08b0d-333b-42dc-9495-64b7586e4b35","ios":"levelo://app?vid=3da08b0d-333b-42dc-9495-64b7586e4b35"},"vehicle_type_id":"4","last_reported":1726074454,"current_range_meters":4800,"station_id":"ce4bhgp2rcd13ifvqfc0","pricing_plan_id":"cebpf4jnsgd1na2vs0mg"},{"bike_id":"0dfcfe6b-e7c4-4555-b288-4a91e570627d","system_id":"levelo_inurba_marseille","lat":43.25583,"lon":5.38226,"is_reserved":false,"is_disabled":false,"rental_uris":{"android":"levelo://app?vid=0dfcfe6b-e7c4-4555-b288-4a91e570627d","ios":"levelo://app?vid=0dfcfe6b-e7c4-4555-b288-4a91e570627d"},"vehicle_type_id":"4","last_reported":1726074454,"current_range_meters":8000,"station_id":"ce4bhih2rcd13ifvqfs0","pricing_plan_id":"cebpf4jnsgd1na2vs0mg"},{"bike_id":"077ae37b-b564-46e7-afed-e64452fa8424","system_id":"levelo_inurba_marseille","lat":43.3133,"lon":5.3969,"is_reserved":false,"is_disabled":false,"rental_uris":{"android":"levelo://app?vid=077ae37b-b564-46e7-afed-e64452fa8424","ios":"levelo://app?vid=077ae37b-b564-46e7-afed-e64452fa8424"},"vehicle_type_id":"4","last_reported":1726074454,"current_range_meters":12400,"station_id":"ce4bgvp2rcd13ifvqcu0","pricing_plan_id":"cebpf4jnsgd1na2vs0mg"},{"bike_id":"b3c13df7-aa65-4621-8de8-3e2112e8dd52","system_id":"levelo_inurba_marseille","lat":43.29263,"lon":5.40899,"is_reserved":false,"is_disabled":false,"rental_uris":{"android":"levelo://app?vid=b3c13df7-aa65-4621-8de8-3e2112e8dd52","ios":"levelo://app?vid=b3c13df7-aa65-4621-8de8-3e2112e8dd52"},"vehicle_type_id":"4","last_reported":1726074454,"current_range_meters":27200,"station_id":"ce4bh192rcd13ifvqdc0","pricing_plan_id":"cebpf4jnsgd1na2vs0mg"},{"bike_id":"cdc356e8-7473-4d4f-ac8d-8b73191980fc","system_id":"levelo_inurba_marseille","lat":43.29786,"lon":5.39343,"is_reserved":false,"is_disabled":false,"rental_uris":{"android":"levelo://app?vid=cdc356e8-7473-4d4f-ac8d-8b73191980fc","ios":"levelo://app?vid=cdc356e8-7473-4d4f-ac8d-8b73191980fc"},"vehicle_type_id":"4","last_reported":1726074454,"current_range_meters":22400,"station_id":"chh1huq6cuj3fo74tm60","pricing_plan_id":"cebpf4jnsgd1na2vs0mg"},{"bike_id":"5050a7e2-3c27-4895-83ea-c25e245008cd","system_id":"levelo_inurba_marseille","lat":43.29882,"lon":5.38913,"is_reserved":false,"is_disabled":false,"rental_uris":{"android":"levelo://app?vid=5050a7e2-3c27-4895-83ea-c25e245008cd","ios":"levelo://app?vid=5050a7e2-3c27-4895-83ea-c25e245008cd"},"vehicle_type_id":"4","last_reported":1726074454,"current_range_meters":37600,"station_id":"ce4bh392rcd13ifvqdl0","pricing_plan_id":"cebpf4jnsgd1na2vs0mg"},{"bike_id":"52df9c3d-256d-4df5-93a6-7e86291e9db3","system_id":"levelo_inurba_marseille","lat":43.29304,"lon":5.37177,"is_reserved":false,"is_disabled":false,"rental_uris":{"android":"levelo://app?vid=52df9c3d-256d-4df5-93a6-7e86291e9db3","ios":"levelo://app?vid=52df9c3d-256d-4df5-93a6-7e86291e9db3"},"vehicle_type_id":"4","last_reported":1726074454,"current_range_meters":36800,"station_id":"ce4bgh92rcd13ifvqb40","pricing_plan_id":"cebpf4jnsgd1na2vs0mg"},{"bike_id":"29072f1f-04e6-4db5-874b-0c299ac394e5","system_id":"levelo_inurba_marseille","lat":43.24805,"lon":5.37448,"is_reserved":false,"is_disabled":false,"rental_uris":{"android":"levelo://app?vid=29072f1f-04e6-4db5-874b-0c299ac394e5","ios":"levelo://app?vid=29072f1f-04e6-4db5-874b-0c299ac394e5"},"vehicle_type_id":"4","last_reported":1726074454,"current_range_meters":28000,"station_id":"ce4bhgh2rcd13ifvqfb0","pricing_plan_id":"cebpf4jnsgd1na2vs0mg"},{"bike_id":"59f88075-075a-41a6-a7d1-ceb80b7be488","system_id":"levelo_inurba_marseille","lat":43.27809,"lon":5.40712,"is_reserved":false,"is_disabled":false,"rental_uris":{"android":"levelo://app?vid=59f88075-075a-41a6-a7d1-ceb80b7be488","ios":"levelo://app?vid=59f88075-075a-41a6-a7d1-ceb80b7be488"},"vehicle_type_id":"4","last_reported":1726074454,"current_range_meters":15200,"station_id":"ce4bhnh2rcd13ifvqgtg","pricing_plan_id":"cebpf4jnsgd1na2vs0mg"},{"bike_id":"72ee0ec8-b997-4985-8e32-86ead554a8e5","system_id":"levelo_inurba_marseille","lat":43.29558,"lon":5.42289,"is_reserved":false,"is_disabled":false,"rental_uris":{"android":"levelo://app?vid=72ee0ec8-b997-4985-8e32-86ead554a8e5","ios":"levelo://app?vid=72ee0ec8-b997-4985-8e32-86ead554a8e5"},"vehicle_type_id":"4","last_reported":1726074454,"current_range_meters":25600,"station_id":"ce4bhph2rcd13ifvqhdg","pricing_plan_id":"cebpf4jnsgd1na2vs0mg"},{"bike_id":"42f717ba-525a-4bd5-af9d-1d7771d0450e","system_id":"levelo_inurba_marseille","lat":43.31327,"lon":5.39691,"is_reserved":false,"is_disabled":false,"rental_uris":{"android":"levelo://app?vid=42f717ba-525a-4bd5-af9d-1d7771d0450e","ios":"levelo://app?vid=42f717ba-525a-4bd5-af9d-1d7771d0450e"},"vehicle_type_id":"4","last_reported":1726074454,"current_range_meters":3200,"station_id":"ce4bgvp2rcd13ifvqcu0","pricing_plan_id":"cebpf4jnsgd1na2vs0mg"},{"bike_id":"4981b4ac-d835-4b79-a901-f6cc9281dcef","system_id":"levelo_inurba_marseille","lat":43.2816,"lon":5.42644,"is_reserved":false,"is_disabled":false,"rental_uris":{"android":"levelo://app?vid=4981b4ac-d835-4b79-a901-f6cc9281dcef","ios":"levelo://app?vid=4981b4ac-d835-4b79-a901-f6cc9281dcef"},"vehicle_type_id":"4","last_reported":1726074454,"current_range_meters":30800,"station_id":"ce4bhnh2rcd13ifvqgug","pricing_plan_id":"cebpf4jnsgd1na2vs0mg"},{"bike_id":"2dca4a70-6592-4a48-b7ff-cf8cb17678e5","system_id":"levelo_inurba_marseille","lat":43.2481,"lon":5.37455,"is_reserved":false,"is_disabled":false,"rental_uris":{"android":"levelo://app?vid=2dca4a70-6592-4a48-b7ff-cf8cb17678e5","ios":"levelo://app?vid=2dca4a70-6592-4a48-b7ff-cf8cb17678e5"},"vehicle_type_id":"4","last_reported":1726074454,"current_range_meters":28800,"station_id":"ce4bhgh2rcd13ifvqfb0","pricing_plan_id":"cebpf4jnsgd1na2vs0mg"},{"bike_id":"40dfebef-2ba6-432f-b0c2-3f92ebc8255b","system_id":"levelo_inurba_marseille","lat":43.25501,"lon":5.37647,"is_reserved":false,"is_disabled":false,"rental_uris":{"android":"levelo://app?vid=40dfebef-2ba6-432f-b0c2-3f92ebc8255b","ios":"levelo://app?vid=40dfebef-2ba6-432f-b0c2-3f92ebc8255b"},"vehicle_type_id":"4","last_reported":1726074454,"current_range_meters":40000,"station_id":"ce4bhh12rcd13ifvqff0","pricing_plan_id":"cebpf4jnsgd1na2vs0mg"},{"bike_id":"4252eb53-a0f4-4c4f-b33d-16659295ffaa","system_id":"levelo_inurba_marseille","lat":43.28409,"lon":5.37517,"is_reserved":false,"is_disabled":false,"rental_uris":{"android":"levelo://app?vid=4252eb53-a0f4-4c4f-b33d-16659295ffaa","ios":"levelo://app?vid=4252eb53-a0f4-4c4f-b33d-16659295ffaa"},"vehicle_type_id":"4","last_reported":1726074454,"current_range_meters":33200,"station_id":"ce4bh412rcd13ifvqds0","pricing_plan_id":"cebpf4jnsgd1na2vs0mg"},{"bike_id":"357450ec-a6d7-4afb-a1c0-b09fcd4db5b0","system_id":"levelo_inurba_marseille","lat":43.25106,"lon":5.40326,"is_reserved":false,"is_disabled":false,"rental_uris":{"android":"levelo://app?vid=357450ec-a6d7-4afb-a1c0-b09fcd4db5b0","ios":"levelo://app?vid=357450ec-a6d7-4afb-a1c0-b09fcd4db5b0"},"vehicle_type_id":"4","last_reported":1726074454,"current_range_meters":2000,"station_id":"ce4bhlh2rcd13ifvqgig","pricing_plan_id":"cebpf4jnsgd1na2vs0mg"},{"bike_id":"75a477cd-c680-4c06-8352-a51d0c75693d","system_id":"levelo_inurba_marseille","lat":43.24078,"lon":5.37756,"is_reserved":false,"is_disabled":false,"rental_uris":{"android":"levelo://app?vid=75a477cd-c680-4c06-8352-a51d0c75693d","ios":"levelo://app?vid=75a477cd-c680-4c06-8352-a51d0c75693d"},"vehicle_type_id":"4","last_reported":1726074454,"current_range_meters":38800,"station_id":"ce4bhnp2rcd13ifvqgvg","pricing_plan_id":"cebpf4jnsgd1na2vs0mg"},{"bike_id":"cae46dfe-97e8-4c5c-9017-c5b9215c92a8","system_id":"levelo_inurba_marseille","lat":43.27814,"lon":5.40708,"is_reserved":false,"is_disabled":false,"rental_uris":{"android":"levelo://app?vid=cae46dfe-97e8-4c5c-9017-c5b9215c92a8","ios":"levelo://app?vid=cae46dfe-97e8-4c5c-9017-c5b9215c92a8"},"vehicle_type_id":"4","last_reported":1726074454,"current_range_meters":4800,"station_id":"ce4bhnh2rcd13ifvqgtg","pricing_plan_id":"cebpf4jnsgd1na2vs0mg"},{"bike_id":"00e064b2-ab2c-49ce-8c26-55aae23aa29d","system_id":"levelo_inurba_marseille","lat":43.2962,"lon":5.3717,"is_reserved":false,"is_disabled":false,"rental_uris":{"android":"levelo://app?vid=00e064b2-ab2c-49ce-8c26-55aae23aa29d","ios":"levelo://app?vid=00e064b2-ab2c-49ce-8c26-55aae23aa29d"},"vehicle_type_id":"4","last_reported":1726074454,"current_range_meters":32400,"station_id":"ce4bgnh2rcd13ifvqc0g","pricing_plan_id":"cebpf4jnsgd1na2vs0mg"},{"bike_id":"38107b97-e58f-45f7-866e-050fa9272a67","system_id":"levelo_inurba_marseille","lat":43.31713,"lon":5.43713,"is_reserved":false,"is_disabled":false,"rental_uris":{"android":"levelo://app?vid=38107b97-e58f-45f7-866e-050fa9272a67","ios":"levelo://app?vid=38107b97-e58f-45f7-866e-050fa9272a67"},"vehicle_type_id":"4","last_reported":1726074454,"current_range_meters":34800,"station_id":"ce4bhp92rcd13ifvqhcg","pricing_plan_id":"cebpf4jnsgd1na2vs0mg"},{"bike_id":"ba8057bf-3405-476e-93df-af7396d25e6a","system_id":"levelo_inurba_marseille","lat":43.28614,"lon":5.35101,"is_reserved":false,"is_disabled":false,"rental_uris":{"android":"levelo://app?vid=ba8057bf-3405-476e-93df-af7396d25e6a","ios":"levelo://app?vid=ba8057bf-3405-476e-93df-af7396d25e6a"},"vehicle_type_id":"4","last_reported":1726074454,"current_range_meters":38800,"station_id":"ce4bhch2rcd13ifvqeug","pricing_plan_id":"cebpf4jnsgd1na2vs0mg"},{"bike_id":"230e3a22-1a03-408c-b711-7f167a488065","system_id":"levelo_inurba_marseille","lat":43.30567,"lon":5.38133,"is_reserved":false,"is_disabled":false,"rental_uris":{"android":"levelo://app?vid=230e3a22-1a03-408c-b711-7f167a488065","ios":"levelo://app?vid=230e3a22-1a03-408c-b711-7f167a488065"},"vehicle_type_id":"4","last_reported":1726074454,"current_range_meters":8400,"station_id":"ce4bgup2rcd13ifvqcn0","pricing_plan_id":"cebpf4jnsgd1na2vs0mg"},{"bike_id":"b3fe02ad-16de-486c-b5b4-2a630e722a41","system_id":"levelo_inurba_marseille","lat":43.3014,"lon":5.38774,"is_reserved":false,"is_disabled":false,"rental_uris":{"android":"levelo://app?vid=b3fe02ad-16de-486c-b5b4-2a630e722a41","ios":"levelo://app?vid=b3fe02ad-16de-486c-b5b4-2a630e722a41"},"vehicle_type_id":"4","last_reported":1726074454,"current_range_meters":12800,"station_id":"ce4bghh2rcd13ifvqb60","pricing_plan_id":"cebpf4jnsgd1na2vs0mg"},{"bike_id":"0d748980-5ea1-4cb9-9824-ef5a5ef92408","system_id":"levelo_inurba_marseille","lat":43.2408,"lon":5.37734,"is_reserved":false,"is_disabled":false,"rental_uris":{"android":"levelo://app?vid=0d748980-5ea1-4cb9-9824-ef5a5ef92408","ios":"levelo://app?vid=0d748980-5ea1-4cb9-9824-ef5a5ef92408"},"vehicle_type_id":"4","last_reported":1726074454,"current_range_meters":20000,"station_id":"ce4bhnp2rcd13ifvqgvg","pricing_plan_id":"cebpf4jnsgd1na2vs0mg"},{"bike_id":"09386cfa-c6a0-4ab5-ab07-5155f7041bec","system_id":"levelo_inurba_marseille","lat":43.33029,"lon":5.36444,"is_reserved":false,"is_disabled":false,"rental_uris":{"android":"levelo://app?vid=09386cfa-c6a0-4ab5-ab07-5155f7041bec","ios":"levelo://app?vid=09386cfa-c6a0-4ab5-ab07-5155f7041bec"},"vehicle_type_id":"4","last_reported":1726074454,"current_range_meters":4800,"station_id":"","pricing_plan_id":"cebpf4jnsgd1na2vs0mg"},{"bike_id":"a9ce366a-7144-4fa5-880f-b2179353ce88","system_id":"levelo_inurba_marseille","lat":43.25718,"lon":5.41119,"is_reserved":false,"is_disabled":false,"rental_uris":{"android":"levelo://app?vid=a9ce366a-7144-4fa5-880f-b2179353ce88","ios":"levelo://app?vid=a9ce366a-7144-4fa5-880f-b2179353ce88"},"vehicle_type_id":"4","last_reported":1726074454,"current_range_meters":3600,"station_id":"ce4bhkp2rcd13ifvqgd0","pricing_plan_id":"cebpf4jnsgd1na2vs0mg"},{"bike_id":"33686a0f-96cd-4d54-9ac0-5a6ab7744b32","system_id":"levelo_inurba_marseille","lat":43.270788,"lon":5.402172,"is_reserved":false,"is_disabled":false,"rental_uris":{"android":"levelo://app?vid=33686a0f-96cd-4d54-9ac0-5a6ab7744b32","ios":"levelo://app?vid=33686a0f-96cd-4d54-9ac0-5a6ab7744b32"},"vehicle_type_id":"4","last_reported":1726074454,"current_range_meters":31200,"station_id":"ce4bhlh2rcd13ifvqgig","pricing_plan_id":"cebpf4jnsgd1na2vs0mg"},{"bike_id":"d903118a-0f20-4f7e-92a5-36420f6c9640","system_id":"levelo_inurba_marseille","lat":43.29937,"lon":5.36561,"is_reserved":false,"is_disabled":false,"rental_uris":{"android":"levelo://app?vid=d903118a-0f20-4f7e-92a5-36420f6c9640","ios":"levelo://app?vid=d903118a-0f20-4f7e-92a5-36420f6c9640"},"vehicle_type_id":"4","last_reported":1726074454,"current_range_meters":6800,"station_id":"ce4bgm92rcd13ifvqbr0","pricing_plan_id":"cebpf4jnsgd1na2vs0mg"},{"bike_id":"a32ca358-42f9-4812-aa0b-8f02d1e75aed","system_id":"levelo_inurba_marseille","lat":43.28047,"lon":5.36954,"is_reserved":false,"is_disabled":false,"rental_uris":{"android":"levelo://app?vid=a32ca358-42f9-4812-aa0b-8f02d1e75aed","ios":"levelo://app?vid=a32ca358-42f9-4812-aa0b-8f02d1e75aed"},"vehicle_type_id":"4","last_reported":1726074454,"current_range_meters":19600,"station_id":"ce4bha12rcd13ifvqef0","pricing_plan_id":"cebpf4jnsgd1na2vs0mg"},{"bike_id":"1edeb36b-26f0-41b6-a927-891ee5ed1d03","system_id":"levelo_inurba_marseille","lat":43.28569,"lon":5.39496,"is_reserved":false,"is_disabled":false,"rental_uris":{"android":"levelo://app?vid=1edeb36b-26f0-41b6-a927-891ee5ed1d03","ios":"levelo://app?vid=1edeb36b-26f0-41b6-a927-891ee5ed1d03"},"vehicle_type_id":"4","last_reported":1726074454,"current_range_meters":38800,"station_id":"ce4bh292rcd13ifvqdg0","pricing_plan_id":"cebpf4jnsgd1na2vs0mg"},{"bike_id":"3733ce87-1517-4fff-baed-857c89644a87","system_id":"levelo_inurba_marseille","lat":43.25494,"lon":5.3765,"is_reserved":false,"is_disabled":false,"rental_uris":{"android":"levelo://app?vid=3733ce87-1517-4fff-baed-857c89644a87","ios":"levelo://app?vid=3733ce87-1517-4fff-baed-857c89644a87"},"vehicle_type_id":"4","last_reported":1726074454,"current_range_meters":38400,"station_id":"ce4bhh12rcd13ifvqff0","pricing_plan_id":"cebpf4jnsgd1na2vs0mg"},{"bike_id":"9188f37f-edbf-4356-93b5-7cfb6680a543","system_id":"levelo_inurba_marseille","lat":43.33024,"lon":5.39045,"is_reserved":false,"is_disabled":false,"rental_uris":{"android":"levelo://app?vid=9188f37f-edbf-4356-93b5-7cfb6680a543","ios":"levelo://app?vid=9188f37f-edbf-4356-93b5-7cfb6680a543"},"vehicle_type_id":"4","last_reported":1726074454,"current_range_meters":32000,"station_id":"ce4bhr92rcd13ifvqhrg","pricing_plan_id":"cebpf4jnsgd1na2vs0mg"},{"bike_id":"8013a7fc-86c9-405f-9e7b-ed589925b7dd","system_id":"levelo_inurba_marseille","lat":43.31086,"lon":5.40094,"is_reserved":false,"is_disabled":false,"rental_uris":{"android":"levelo://app?vid=8013a7fc-86c9-405f-9e7b-ed589925b7dd","ios":"levelo://app?vid=8013a7fc-86c9-405f-9e7b-ed589925b7dd"},"vehicle_type_id":"4","last_reported":1726074454,"current_range_meters":6800,"station_id":"","pricing_plan_id":"cebpf4jnsgd1na2vs0mg"},{"bike_id":"7ff65f4c-31e2-4306-95df-1677f44412f6","system_id":"levelo_inurba_marseille","lat":43.31757,"lon":5.39012,"is_reserved":false,"is_disabled":false,"rental_uris":{"android":"levelo://app?vid=7ff65f4c-31e2-4306-95df-1677f44412f6","ios":"levelo://app?vid=7ff65f4c-31e2-4306-95df-1677f44412f6"},"vehicle_type_id":"4","last_reported":1726074454,"current_range_meters":17200,"station_id":"ce4bhqp2rcd13ifvqhng","pricing_plan_id":"cebpf4jnsgd1na2vs0mg"},{"bike_id":"ffe1f6ef-1268-4507-8cbb-af5167cd6219","system_id":"levelo_inurba_marseille","lat":43.29265,"lon":5.3685,"is_reserved":false,"is_disabled":false,"rental_uris":{"android":"levelo://app?vid=ffe1f6ef-1268-4507-8cbb-af5167cd6219","ios":"levelo://app?vid=ffe1f6ef-1268-4507-8cbb-af5167cd6219"},"vehicle_type_id":"4","last_reported":1726074454,"current_range_meters":39200,"station_id":"ce4bhbp2rcd13ifvqesg","pricing_plan_id":"cebpf4jnsgd1na2vs0mg"},{"bike_id":"01ac9959-90b2-493c-a8fd-75170bf3edc4","system_id":"levelo_inurba_marseille","lat":43.33046,"lon":5.36452,"is_reserved":false,"is_disabled":false,"rental_uris":{"android":"levelo://app?vid=01ac9959-90b2-493c-a8fd-75170bf3edc4","ios":"levelo://app?vid=01ac9959-90b2-493c-a8fd-75170bf3edc4"},"vehicle_type_id":"4","last_reported":1726074454,"current_range_meters":22800,"station_id":"","pricing_plan_id":"cebpf4jnsgd1na2vs0mg"},{"bike_id":"e4890c4f-eb3f-42f0-aa17-b83b3634114e","system_id":"levelo_inurba_marseille","lat":43.29268,"lon":5.3845,"is_reserved":false,"is_disabled":false,"rental_uris":{"android":"levelo://app?vid=e4890c4f-eb3f-42f0-aa17-b83b3634114e","ios":"levelo://app?vid=e4890c4f-eb3f-42f0-aa17-b83b3634114e"},"vehicle_type_id":"4","last_reported":1726074454,"current_range_meters":16400,"station_id":"ce4bh692rcd13ifvqea0","pricing_plan_id":"cebpf4jnsgd1na2vs0mg"},{"bike_id":"4983dd52-48d0-4b3e-a859-92995a183569","system_id":"levelo_inurba_marseille","lat":43.24654,"lon":5.38891,"is_reserved":false,"is_disabled":false,"rental_uris":{"android":"levelo://app?vid=4983dd52-48d0-4b3e-a859-92995a183569","ios":"levelo://app?vid=4983dd52-48d0-4b3e-a859-92995a183569"},"vehicle_type_id":"4","last_reported":1726074454,"current_range_meters":8400,"station_id":"ce4bhg12rcd13ifvqf60","pricing_plan_id":"cebpf4jnsgd1na2vs0mg"},{"bike_id":"bf676ffd-e62e-405f-a261-3bcf60644718","system_id":"levelo_inurba_marseille","lat":43.29263,"lon":5.3845,"is_reserved":false,"is_disabled":false,"rental_uris":{"android":"levelo://app?vid=bf676ffd-e62e-405f-a261-3bcf60644718","ios":"levelo://app?vid=bf676ffd-e62e-405f-a261-3bcf60644718"},"vehicle_type_id":"4","last_reported":1726074454,"current_range_meters":17600,"station_id":"ce4bh692rcd13ifvqea0","pricing_plan_id":"cebpf4jnsgd1na2vs0mg"},{"bike_id":"7563c97f-9528-448b-a906-f030664a16a1","system_id":"levelo_inurba_marseille","lat":43.303009,"lon":5.368982,"is_reserved":false,"is_disabled":false,"rental_uris":{"android":"levelo://app?vid=7563c97f-9528-448b-a906-f030664a16a1","ios":"levelo://app?vid=7563c97f-9528-448b-a906-f030664a16a1"},"vehicle_type_id":"4","last_reported":1726074454,"current_range_meters":6400,"station_id":"ce4bgqh2rcd13ifvqc5g","pricing_plan_id":"cebpf4jnsgd1na2vs0mg"},{"bike_id":"bab90f3b-6eff-4e62-b588-f413012c0d2b","system_id":"levelo_inurba_marseille","lat":43.30798,"lon":5.43528,"is_reserved":false,"is_disabled":false,"rental_uris":{"android":"levelo://app?vid=bab90f3b-6eff-4e62-b588-f413012c0d2b","ios":"levelo://app?vid=bab90f3b-6eff-4e62-b588-f413012c0d2b"},"vehicle_type_id":"4","last_reported":1726074454,"current_range_meters":22400,"station_id":"ce4bhph2rcd13ifvqheg","pricing_plan_id":"cebpf4jnsgd1na2vs0mg"},{"bike_id":"9a631045-7095-428e-90da-0f3d311025c9","system_id":"levelo_inurba_marseille","lat":43.31086,"lon":5.42434,"is_reserved":false,"is_disabled":false,"rental_uris":{"android":"levelo://app?vid=9a631045-7095-428e-90da-0f3d311025c9","ios":"levelo://app?vid=9a631045-7095-428e-90da-0f3d311025c9"},"vehicle_type_id":"4","last_reported":1726074454,"current_range_meters":16400,"station_id":"ce4bhp92rcd13ifvqhag","pricing_plan_id":"cebpf4jnsgd1na2vs0mg"},{"bike_id":"db24b084-20e6-4432-ac42-6786467dc495","system_id":"levelo_inurba_marseille","lat":43.31895,"lon":5.37225,"is_reserved":false,"is_disabled":false,"rental_uris":{"android":"levelo://app?vid=db24b084-20e6-4432-ac42-6786467dc495","ios":"levelo://app?vid=db24b084-20e6-4432-ac42-6786467dc495"},"vehicle_type_id":"4","last_reported":1726074454,"current_range_meters":36400,"station_id":"","pricing_plan_id":"cebpf4jnsgd1na2vs0mg"},{"bike_id":"d6fac30d-45ac-48c3-a214-0081fd6f3f52","system_id":"levelo_inurba_marseille","lat":43.26208,"lon":5.37441,"is_reserved":false,"is_disabled":false,"rental_uris":{"android":"levelo://app?vid=d6fac30d-45ac-48c3-a214-0081fd6f3f52","ios":"levelo://app?vid=d6fac30d-45ac-48c3-a214-0081fd6f3f52"},"vehicle_type_id":"4","last_reported":1726074454,"current_range_meters":26000,"station_id":"ce4bhgp2rcd13ifvqfc0","pricing_plan_id":"cebpf4jnsgd1na2vs0mg"},{"bike_id":"743037d3-ab90-4c89-b5d6-1624a9b1519b","system_id":"levelo_inurba_marseille","lat":43.28702,"lon":5.37387,"is_reserved":false,"is_disabled":false,"rental_uris":{"android":"levelo://app?vid=743037d3-ab90-4c89-b5d6-1624a9b1519b","ios":"levelo://app?vid=743037d3-ab90-4c89-b5d6-1624a9b1519b"},"vehicle_type_id":"4","last_reported":1726074454,"current_range_meters":18000,"station_id":"ce4bh3p2rcd13ifvqdq0","pricing_plan_id":"cebpf4jnsgd1na2vs0mg"},{"bike_id":"a3d9a120-16f0-4372-8ec4-6e6a09614ec4","system_id":"levelo_inurba_marseille","lat":43.28267,"lon":5.35071,"is_reserved":false,"is_disabled":false,"rental_uris":{"android":"levelo://app?vid=a3d9a120-16f0-4372-8ec4-6e6a09614ec4","ios":"levelo://app?vid=a3d9a120-16f0-4372-8ec4-6e6a09614ec4"},"vehicle_type_id":"4","last_reported":1726074454,"current_range_meters":37600,"station_id":"ce4bhbp2rcd13ifvqerg","pricing_plan_id":"cebpf4jnsgd1na2vs0mg"},{"bike_id":"94e596df-17e2-4aad-9c3e-846aca4a99ac","system_id":"levelo_inurba_marseille","lat":43.28476,"lon":5.38418,"is_reserved":false,"is_disabled":false,"rental_uris":{"android":"levelo://app?vid=94e596df-17e2-4aad-9c3e-846aca4a99ac","ios":"levelo://app?vid=94e596df-17e2-4aad-9c3e-846aca4a99ac"},"vehicle_type_id":"4","last_reported":1726074454,"current_range_meters":9200,"station_id":"ce4bh512rcd13ifvqe3g","pricing_plan_id":"cebpf4jnsgd1na2vs0mg"},{"bike_id":"1babe19f-8402-42c7-b5c3-32a475551e64","system_id":"levelo_inurba_marseille","lat":43.33025,"lon":5.3904,"is_reserved":false,"is_disabled":false,"rental_uris":{"android":"levelo://app?vid=1babe19f-8402-42c7-b5c3-32a475551e64","ios":"levelo://app?vid=1babe19f-8402-42c7-b5c3-32a475551e64"},"vehicle_type_id":"4","last_reported":1726074454,"current_range_meters":19200,"station_id":"ce4bhr92rcd13ifvqhrg","pricing_plan_id":"cebpf4jnsgd1na2vs0mg"},{"bike_id":"d33d01dd-83d8-4690-a8c3-d73689718245","system_id":"levelo_inurba_marseille","lat":43.29904,"lon":5.43671,"is_reserved":false,"is_disabled":false,"rental_uris":{"android":"levelo://app?vid=d33d01dd-83d8-4690-a8c3-d73689718245","ios":"levelo://app?vid=d33d01dd-83d8-4690-a8c3-d73689718245"},"vehicle_type_id":"4","last_reported":1726074454,"current_range_meters":19600,"station_id":"ce4bhpp2rcd13ifvqhfg","pricing_plan_id":"cebpf4jnsgd1na2vs0mg"},{"bike_id":"739bab8d-6221-4edc-879e-8e248fb6a039","system_id":"levelo_inurba_marseille","lat":43.32884,"lon":5.38772,"is_reserved":false,"is_disabled":false,"rental_uris":{"android":"levelo://app?vid=739bab8d-6221-4edc-879e-8e248fb6a039","ios":"levelo://app?vid=739bab8d-6221-4edc-879e-8e248fb6a039"},"vehicle_type_id":"4","last_reported":1726074454,"current_range_meters":4400,"station_id":"","pricing_plan_id":"cebpf4jnsgd1na2vs0mg"},{"bike_id":"f5eb0c00-32e0-48c1-a8bb-94e079166e84","system_id":"levelo_inurba_marseille","lat":43.304682,"lon":5.418023,"is_reserved":false,"is_disabled":false,"rental_uris":{"android":"levelo://app?vid=f5eb0c00-32e0-48c1-a8bb-94e079166e84","ios":"levelo://app?vid=f5eb0c00-32e0-48c1-a8bb-94e079166e84"},"vehicle_type_id":"4","last_reported":1726074454,"current_range_meters":3200,"station_id":"","pricing_plan_id":"cebpf4jnsgd1na2vs0mg"},{"bike_id":"d9d7700a-f7be-4b51-8e54-dc818c95a63f","system_id":"levelo_inurba_marseille","lat":43.299,"lon":5.43667,"is_reserved":false,"is_disabled":false,"rental_uris":{"android":"levelo://app?vid=d9d7700a-f7be-4b51-8e54-dc818c95a63f","ios":"levelo://app?vid=d9d7700a-f7be-4b51-8e54-dc818c95a63f"},"vehicle_type_id":"4","last_reported":1726074454,"current_range_meters":28400,"station_id":"ce4bhpp2rcd13ifvqhfg","pricing_plan_id":"cebpf4jnsgd1na2vs0mg"},{"bike_id":"3590b32a-77f0-462c-8d2b-ceeb3379902a","system_id":"levelo_inurba_marseille","lat":43.24663,"lon":5.38158,"is_reserved":false,"is_disabled":false,"rental_uris":{"android":"levelo://app?vid=3590b32a-77f0-462c-8d2b-ceeb3379902a","ios":"levelo://app?vid=3590b32a-77f0-462c-8d2b-ceeb3379902a"},"vehicle_type_id":"4","last_reported":1726074454,"current_range_meters":28400,"station_id":"ce4bhih2rcd13ifvqfr0","pricing_plan_id":"cebpf4jnsgd1na2vs0mg"},{"bike_id":"6de1c397-0070-4ceb-8c92-82a39f25ca4b","system_id":"levelo_inurba_marseille","lat":43.280005,"lon":5.400037,"is_reserved":false,"is_disabled":false,"rental_uris":{"android":"levelo://app?vid=6de1c397-0070-4ceb-8c92-82a39f25ca4b","ios":"levelo://app?vid=6de1c397-0070-4ceb-8c92-82a39f25ca4b"},"vehicle_type_id":"4","last_reported":1726074454,"current_range_meters":3600,"station_id":"ce4bho92rcd13ifvqh4g","pricing_plan_id":"cebpf4jnsgd1na2vs0mg"},{"bike_id":"2566a2b9-4b14-41d4-82fb-f981597f713d","system_id":"levelo_inurba_marseille","lat":43.2408,"lon":5.37754,"is_reserved":false,"is_disabled":false,"rental_uris":{"android":"levelo://app?vid=2566a2b9-4b14-41d4-82fb-f981597f713d","ios":"levelo://app?vid=2566a2b9-4b14-41d4-82fb-f981597f713d"},"vehicle_type_id":"4","last_reported":1726074454,"current_range_meters":14800,"station_id":"ce4bhnp2rcd13ifvqgvg","pricing_plan_id":"cebpf4jnsgd1na2vs0mg"},{"bike_id":"211d2446-8a03-43f2-9abd-bbd629ea09bf","system_id":"levelo_inurba_marseille","lat":43.295325,"lon":5.385453,"is_reserved":false,"is_disabled":false,"rental_uris":{"android":"levelo://app?vid=211d2446-8a03-43f2-9abd-bbd629ea09bf","ios":"levelo://app?vid=211d2446-8a03-43f2-9abd-bbd629ea09bf"},"vehicle_type_id":"4","last_reported":1726074454,"current_range_meters":33600,"station_id":"ce4bgih2rcd13ifvqba0","pricing_plan_id":"cebpf4jnsgd1na2vs0mg"},{"bike_id":"378ccda0-6f2e-4e00-b37c-9c67329928ad","system_id":"levelo_inurba_marseille","lat":43.26216,"lon":5.37438,"is_reserved":false,"is_disabled":false,"rental_uris":{"android":"levelo://app?vid=378ccda0-6f2e-4e00-b37c-9c67329928ad","ios":"levelo://app?vid=378ccda0-6f2e-4e00-b37c-9c67329928ad"},"vehicle_type_id":"4","last_reported":1726074454,"current_range_meters":28400,"station_id":"ce4bhgp2rcd13ifvqfc0","pricing_plan_id":"cebpf4jnsgd1na2vs0mg"},{"bike_id":"b4c6be0e-9968-4638-9f99-ddd49db5a3c4","system_id":"levelo_inurba_marseille","lat":43.255,"lon":5.37648,"is_reserved":false,"is_disabled":false,"rental_uris":{"android":"levelo://app?vid=b4c6be0e-9968-4638-9f99-ddd49db5a3c4","ios":"levelo://app?vid=b4c6be0e-9968-4638-9f99-ddd49db5a3c4"},"vehicle_type_id":"4","last_reported":1726074454,"current_range_meters":38000,"station_id":"ce4bhh12rcd13ifvqff0","pricing_plan_id":"cebpf4jnsgd1na2vs0mg"},{"bike_id":"d9da3198-e34a-4682-8823-115ef7383f08","system_id":"levelo_inurba_marseille","lat":43.31327,"lon":5.39696,"is_reserved":false,"is_disabled":false,"rental_uris":{"android":"levelo://app?vid=d9da3198-e34a-4682-8823-115ef7383f08","ios":"levelo://app?vid=d9da3198-e34a-4682-8823-115ef7383f08"},"vehicle_type_id":"4","last_reported":1726074454,"current_range_meters":8400,"station_id":"ce4bgvp2rcd13ifvqcu0","pricing_plan_id":"cebpf4jnsgd1na2vs0mg"},{"bike_id":"b1007d2c-42ba-4d2e-beb2-cb8c9bcd5a86","system_id":"levelo_inurba_marseille","lat":43.30193,"lon":5.36627,"is_reserved":false,"is_disabled":false,"rental_uris":{"android":"levelo://app?vid=b1007d2c-42ba-4d2e-beb2-cb8c9bcd5a86","ios":"levelo://app?vid=b1007d2c-42ba-4d2e-beb2-cb8c9bcd5a86"},"vehicle_type_id":"4","last_reported":1726074454,"current_range_meters":10000,"station_id":"ce4bgrh2rcd13ifvqc8g","pricing_plan_id":"cebpf4jnsgd1na2vs0mg"},{"bike_id":"6d88a048-f72d-4451-826b-d975bc32ce43","system_id":"levelo_inurba_marseille","lat":43.31333,"lon":5.39688,"is_reserved":false,"is_disabled":false,"rental_uris":{"android":"levelo://app?vid=6d88a048-f72d-4451-826b-d975bc32ce43","ios":"levelo://app?vid=6d88a048-f72d-4451-826b-d975bc32ce43"},"vehicle_type_id":"4","last_reported":1726074454,"current_range_meters":34000,"station_id":"ce4bgvp2rcd13ifvqcu0","pricing_plan_id":"cebpf4jnsgd1na2vs0mg"},{"bike_id":"bc2e9dd3-9f69-4479-98ff-f3d6b1e29e7e","system_id":"levelo_inurba_marseille","lat":43.282653,"lon":5.350568,"is_reserved":false,"is_disabled":false,"rental_uris":{"android":"levelo://app?vid=bc2e9dd3-9f69-4479-98ff-f3d6b1e29e7e","ios":"levelo://app?vid=bc2e9dd3-9f69-4479-98ff-f3d6b1e29e7e"},"vehicle_type_id":"4","last_reported":1726074454,"current_range_meters":12000,"station_id":"ce4bhbp2rcd13ifvqerg","pricing_plan_id":"cebpf4jnsgd1na2vs0mg"},{"bike_id":"10761ee5-da16-4e6b-9a9c-b2fe7e520a2b","system_id":"levelo_inurba_marseille","lat":43.28032,"lon":5.36958,"is_reserved":false,"is_disabled":false,"rental_uris":{"android":"levelo://app?vid=10761ee5-da16-4e6b-9a9c-b2fe7e520a2b","ios":"levelo://app?vid=10761ee5-da16-4e6b-9a9c-b2fe7e520a2b"},"vehicle_type_id":"4","last_reported":1726074454,"current_range_meters":11600,"station_id":"ce4bha12rcd13ifvqef0","pricing_plan_id":"cebpf4jnsgd1na2vs0mg"},{"bike_id":"156f4c26-fb37-4feb-b4a9-70fe0c59e681","system_id":"levelo_inurba_marseille","lat":43.26682,"lon":5.38274,"is_reserved":false,"is_disabled":false,"rental_uris":{"android":"levelo://app?vid=156f4c26-fb37-4feb-b4a9-70fe0c59e681","ios":"levelo://app?vid=156f4c26-fb37-4feb-b4a9-70fe0c59e681"},"vehicle_type_id":"4","last_reported":1726074454,"current_range_meters":28800,"station_id":"ce4bhg92rcd13ifvqf90","pricing_plan_id":"cebpf4jnsgd1na2vs0mg"},