{"last_updated":1683745556,"ttl":30,"version":"2.2","data":{"bikes":[{"bike_id":"96c2b651-c3ce-49a3-b245-36e5e8b06d98","system_id":"levelo_inurba_marseille","lat":43.312239,"lon":5.368562,"is_reserved":false,"is_disabled":false,"rental_uris":{"android":"levelo://app?vid=96c2b651-c3ce-49a3-b245-36e5e8b06d98","ios":"levelo://app?vid=96c2b651-c3ce-49a3-b245-36e5e8b06d98"},"vehicle_type_id":"4","last_reported":1683745557,"current_range_meters":30400,"station_id":"ce4bgl92rcd13ifvqbq0","pricing_plan_id":"free"},{"bike_id":"3816e2a2-8825-4dfc-8cdd-147a645f096c","system_id":"levelo_inurba_marseille","lat":43.312239,"lon":5.368562,"is_reserved":false,"is_disabled":false,"rental_uris":{"android":"levelo://app?vid=3816e2a2-8825-4dfc-8cdd-147a645f096c","ios":"levelo://app?vid=3816e2a2-8825-4dfc-8cdd-147a645f096c"},"vehicle_type_id":"4","last_reported":1683745557,"current_range_meters":0,"station_id":"ce4bgl92rcd13ifvqbq0","pricing_plan_id":"free"},{"bike_id":"76e13e3e-b230-4cd5-a3b6-a65cf64fc60f","system_id":"levelo_inurba_marseille","lat":43.312239,"lon":5.368562,"is_reserved":false,"is_disabled":false,"rental_uris":{"android":"levelo://app?vid=76e13e3e-b230-4cd5-a3b6-a65cf64fc60f","ios":"levelo://app?vid=76e13e3e-b230-4cd5-a3b6-a65cf64fc60f"},"vehicle_type_id":"4","last_reported":1683745557,"current_range_meters":5200,"station_id":"ce4bgl92rcd13ifvqbq0","pricing_plan_id":"free"},{"bike_id":"30bcb19c-6e7d-4eed-a071-dcf12480f1e8","system_id":"levelo_inurba_marseille","lat":43.314811,"lon":5.373103,"is_reserved":false,"is_disabled":false,"rental_uris":{"android":"levelo://app?vid=30bcb19c-6e7d-4eed-a071-dcf12480f1e8","ios":"levelo://app?vid=30bcb19c-6e7d-4eed-a071-dcf12480f1e8"},"vehicle_type_id":"4","last_reported":1683745557,"current_range_meters":17200,"station_id":"ce4bgt12rcd13ifvqcd0","pricing_plan_id":"free"},{"bike_id":"bb72c09a-38f8-464a-bed5-c7e3fa5c39e6","system_id":"levelo_inurba_marseille","lat":43.31477,"lon":5.3731,"is_reserved":false,"is_disabled":false,"rental_uris":{"android":"levelo://app?vid=bb72c09a-38f8-464a-bed5-c7e3fa5c39e6","ios":"levelo://app?vid=bb72c09a-38f8-464a-bed5-c7e3fa5c39e6"},"vehicle_type_id":"4","last_reported":1683745557,"current_range_meters":17600,"station_id":"ce4bgt12rcd13ifvqcd0","pricing_plan_id":"free"},{"bike_id":"0fac61b3-ff59-4bf1-8837-0ca13d5f2625","system_id":"levelo_inurba_marseille","lat":43.314811,"lon":5.373103,"is_reserved":false,"is_disabled":false,"rental_uris":{"android":"levelo://app?vid=0fac61b3-ff59-4bf1-8837-0ca13d5f2625","ios":"levelo://app?vid=0fac61b3-ff59-4bf1-8837-0ca13d5f2625"},"vehicle_type_id":"4","last_reported":1683745557,"current_range_meters":0,"station_id":"ce4bgt12rcd13ifvqcd0","pricing_plan_id":"free"},{"bike_id":"9802e7f2-ef72-45e6-92d8-78c3fab9dd6d","system_id":"levelo_inurba_marseille","lat":43.314811,"lon":5.373103,"is_reserved":false,"is_disabled":false,"rental_uris":{"android":"levelo://app?vid=9802e7f2-ef72-45e6-92d8-78c3fab9dd6d","ios":"levelo://app?vid=9802e7f2-ef72-45e6-92d8-78c3fab9dd6d"},"vehicle_type_id":"4","last_reported":1683745557,"current_range_meters":0,"station_id":"ce4bgt12rcd13ifvqcd0","pricing_plan_id":"free"},{"bike_id":"1ceb2c2b-9528-4dc2-8954-b27499309bd5","system_id":"levelo_inurba_marseille","lat":43.314811,"lon":5.373103,"is_reserved":false,"is_disabled":false,"rental_uris":{"android":"levelo://app?vid=1ceb2c2b-9528-4dc2-8954-b27499309bd5","ios":"levelo://app?vid=1ceb2c2b-9528-4dc2-8954-b27499309bd5"},"vehicle_type_id":"4","last_reported":1683745557,"current_range_meters":27200,"station_id":"ce4bgt12rcd13ifvqcd0","pricing_plan_id":"free"},{"bike_id":"25da8487-30a8-4f35-95b6-71cb13e8bb07","system_id":"levelo_inurba_marseille","lat":43.314811,"lon":5.373103,"is_reserved":false,"is_disabled":false,"rental_uris":{"android":"levelo://app?vid=25da8487-30a8-4f35-95b6-71cb13e8bb07","ios":"levelo://app?vid=25da8487-30a8-4f35-95b6-71cb13e8bb07"},"vehicle_type_id":"4","last_reported":1683745557,"current_range_meters":4000,"station_id":"ce4bgt12rcd13ifvqcd0","pricing_plan_id":"free"},{"bike_id":"b79e0ce3-cbc7-497c-962f-7b97293bc866","system_id":"levelo_inurba_marseille","lat":43.314811,"lon":5.373104,"is_reserved":false,"is_disabled":false,"rental_uris":{"android":"levelo://app?vid=b79e0ce3-cbc7-497c-962f-7b97293bc866","ios":"levelo://app?vid=b79e0ce3-cbc7-497c-962f-7b97293bc866"},"vehicle_type_id":"4","last_reported":1683745557,"current_range_meters":6800,"station_id":"ce4bgt12rcd13ifvqcd0","pricing_plan_id":"free"},{"bike_id":"03b63664-2eee-47af-a5f8-cd0e02b487a0","system_id":"levelo_inurba_marseille","lat":43.308614,"lon":5.372098,"is_reserved":false,"is_disabled":false,"rental_uris":{"android":"levelo://app?vid=03b63664-2eee-47af-a5f8-cd0e02b487a0","ios":"levelo://app?vid=03b63664-2eee-47af-a5f8-cd0e02b487a0"},"vehicle_type_id":"4","last_reported":1683745557,"current_range_meters":2800,"station_id":"ce4bguh2rcd13ifvqckg","pricing_plan_id":"free"},{"bike_id":"3fe5e8c0-b0dd-43d5-804b-316a6f727b76","system_id":"levelo_inurba_marseille","lat":43.308614,"lon":5.372098,"is_reserved":false,"is_disabled":false,"rental_uris":{"android":"levelo://app?vid=3fe5e8c0-b0dd-43d5-804b-316a6f727b76","ios":"levelo://app?vid=3fe5e8c0-b0dd-43d5-804b-316a6f727b76"},"vehicle_type_id":"4","last_reported":1683745557,"current_range_meters":12800,"station_id":"ce4bguh2rcd13ifvqckg","pricing_plan_id":"free"},{"bike_id":"e5055e62-b460-43ad-b3fc-0fd7bf145013","system_id":"levelo_inurba_marseille","lat":43.30892,"lon":5.37207,"is_reserved":false,"is_disabled":false,"rental_uris":{"android":"levelo://app?vid=e5055e62-b460-43ad-b3fc-0fd7bf145013","ios":"levelo://app?vid=e5055e62-b460-43ad-b3fc-0fd7bf145013"},"vehicle_type_id":"4","last_reported":1683745557,"current_range_meters":30000,"station_id":"ce4bguh2rcd13ifvqckg","pricing_plan_id":"free"},{"bike_id":"883adf1e-f1c5-44ff-99b2-dcd30eb74e90","system_id":"levelo_inurba_marseille","lat":43.31452,"lon":5.37564,"is_reserved":false,"is_disabled":false,"rental_uris":{"android":"levelo://app?vid=883adf1e-f1c5-44ff-99b2-dcd30eb74e90","ios":"levelo://app?vid=883adf1e-f1c5-44ff-99b2-dcd30eb74e90"},"vehicle_type_id":"4","last_reported":1683745557,"current_range_meters":6000,"station_id":"","pricing_plan_id":"free"},{"bike_id":"29d4b555-5e4f-4c33-9027-55d7db79916d","system_id":"levelo_inurba_marseille","lat":43.305989,"lon":5.37225,"is_reserved":false,"is_disabled":false,"rental_uris":{"android":"levelo://app?vid=29d4b555-5e4f-4c33-9027-55d7db79916d","ios":"levelo://app?vid=29d4b555-5e4f-4c33-9027-55d7db79916d"},"vehicle_type_id":"4","last_reported":1683745557,"current_range_meters":19200,"station_id":"ce4bgqh2rcd13ifvqc4g","pricing_plan_id":"free"},{"bike_id":"9956db10-b398-4de9-a0b8-9887a088a787","system_id":"levelo_inurba_marseille","lat":43.305989,"lon":5.37225,"is_reserved":false,"is_disabled":false,"rental_uris":{"android":"levelo://app?vid=9956db10-b398-4de9-a0b8-9887a088a787","ios":"levelo://app?vid=9956db10-b398-4de9-a0b8-9887a088a787"},"vehicle_type_id":"4","last_reported":1683745557,"current_range_meters":16400,"station_id":"ce4bgqh2rcd13ifvqc4g","pricing_plan_id":"free"},{"bike_id":"2d050f20-e923-4569-86df-0dcbbfdc5f7f","system_id":"levelo_inurba_marseille","lat":43.305989,"lon":5.37225,"is_reserved":false,"is_disabled":false,"rental_uris":{"android":"levelo://app?vid=2d050f20-e923-4569-86df-0dcbbfdc5f7f","ios":"levelo://app?vid=2d050f20-e923-4569-86df-0dcbbfdc5f7f"},"vehicle_type_id":"4","last_reported":1683745557,"current_range_meters":1200,"station_id":"ce4bgqh2rcd13ifvqc4g","pricing_plan_id":"free"},{"bike_id":"65f2b2f4-2ff8-430a-beeb-21ec946603f1","system_id":"levelo_inurba_marseille","lat":43.305989,"lon":5.37225,"is_reserved":false,"is_disabled":false,"rental_uris":{"android":"levelo://app?vid=65f2b2f4-2ff8-430a-beeb-21ec946603f1","ios":"levelo://app?vid=65f2b2f4-2ff8-430a-beeb-21ec946603f1"},"vehicle_type_id":"4","last_reported":1683745557,"current_range_meters":15200,"station_id":"ce4bgqh2rcd13ifvqc4g","pricing_plan_id":"free"},{"bike_id":"34ecee27-9b4f-496d-90de-37f919616a50","system_id":"levelo_inurba_marseille","lat":43.305989,"lon":5.37225,"is_reserved":false,"is_disabled":false,"rental_uris":{"android":"levelo://app?vid=34ecee27-9b4f-496d-90de-37f919616a50","ios":"levelo://app?vid=34ecee27-9b4f-496d-90de-37f919616a50"},"vehicle_type_id":"4","last_reported":1683745557,"current_range_meters":14800,"station_id":"ce4bgqh2rcd13ifvqc4g","pricing_plan_id":"free"},{"bike_id":"61ebb17e-2c20-45dd-8652-0e62400176f5","system_id":"levelo_inurba_marseille","lat":43.305989,"lon":5.37225,"is_reserved":false,"is_disabled":false,"rental_uris":{"android":"levelo://app?vid=61ebb17e-2c20-45dd-8652-0e62400176f5","ios":"levelo://app?vid=61ebb17e-2c20-45dd-8652-0e62400176f5"},"vehicle_type_id":"4","last_reported":1683745557,"current_range_meters":4000,"station_id":"ce4bgqh2rcd13ifvqc4g","pricing_plan_id":"free"},{"bike_id":"722876ea-0f0b-4df1-9117-0ae47aba3ac5","system_id":"levelo_inurba_marseille","lat":43.30602,"lon":5.37241,"is_reserved":false,"is_disabled":false,"rental_uris":{"android":"levelo://app?vid=722876ea-0f0b-4df1-9117-0ae47aba3ac5","ios":"levelo://app?vid=722876ea-0f0b-4df1-9117-0ae47aba3ac5"},"vehicle_type_id":"4","last_reported":1683745557,"current_range_meters":11600,"station_id":"","pricing_plan_id":"free"},{"bike_id":"f4eee3cb-54fb-4388-86f7-ccfd7fe97735","system_id":"levelo_inurba_marseille","lat":43.311131,"lon":5.377651,"is_reserved":false,"is_disabled":false,"rental_uris":{"android":"levelo://app?vid=f4eee3cb-54fb-4388-86f7-ccfd7fe97735","ios":"levelo://app?vid=f4eee3cb-54fb-4388-86f7-ccfd7fe97735"},"vehicle_type_id":"4","last_reported":1683745557,"current_range_meters":400,"station_id":"ce4bgt92rcd13ifvqcg0","pricing_plan_id":"free"},{"bike_id":"f7e8670c-0e90-4604-9c9d-7444cbb37185","system_id":"levelo_inurba_marseille","lat":43.311131,"lon":5.377651,"is_reserved":false,"is_disabled":false,"rental_uris":{"android":"levelo://app?vid=f7e8670c-0e90-4604-9c9d-7444cbb37185","ios":"levelo://app?vid=f7e8670c-0e90-4604-9c9d-7444cbb37185"},"vehicle_type_id":"4","last_reported":1683745557,"current_range_meters":22400,"station_id":"ce4bgt92rcd13ifvqcg0","pricing_plan_id":"free"},{"bike_id":"3c91eeee-dd84-4b21-95c7-74102a53c243","system_id":"levelo_inurba_marseille","lat":43.311131,"lon":5.377651,"is_reserved":false,"is_disabled":false,"rental_uris":{"android":"levelo://app?vid=3c91eeee-dd84-4b21-95c7-74102a53c243","ios":"levelo://app?vid=3c91eeee-dd84-4b21-95c7-74102a53c243"},"vehicle_type_id":"4","last_reported":1683745557,"current_range_meters":3600,"station_id":"ce4bgt92rcd13ifvqcg0","pricing_plan_id":"free"},{"bike_id":"15588041-d92f-44cf-b9d3-d1412a863de9","system_id":"levelo_inurba_marseille","lat":43.311131,"lon":5.377651,"is_reserved":false,"is_disabled":false,"rental_uris":{"android":"levelo://app?vid=15588041-d92f-44cf-b9d3-d1412a863de9","ios":"levelo://app?vid=15588041-d92f-44cf-b9d3-d1412a863de9"},"vehicle_type_id":"4","last_reported":1683745557,"current_range_meters":30400,"station_id":"ce4bgt92rcd13ifvqcg0","pricing_plan_id":"free"},{"bike_id":"b7f713ee-9a1f-4731-8d37-a5e9f69638de","system_id":"levelo_inurba_marseille","lat":43.31119,"lon":5.37765,"is_reserved":false,"is_disabled":false,"rental_uris":{"android":"levelo://app?vid=b7f713ee-9a1f-4731-8d37-a5e9f69638de","ios":"levelo://app?vid=b7f713ee-9a1f-4731-8d37-a5e9f69638de"},"vehicle_type_id":"4","last_reported":1683745557,"current_range_meters":17200,"station_id":"ce4bgt92rcd13ifvqcg0","pricing_plan_id":"free"},{"bike_id":"9c5e9154-f0c9-48b9-906f-b029f8f34e68","system_id":"levelo_inurba_marseille","lat":43.311131,"lon":5.377651,"is_reserved":false,"is_disabled":false,"rental_uris":{"android":"levelo://app?vid=9c5e9154-f0c9-48b9-906f-b029f8f34e68","ios":"levelo://app?vid=9c5e9154-f0c9-48b9-906f-b029f8f34e68"},"vehicle_type_id":"4","last_reported":1683745557,"current_range_meters":13600,"station_id":"ce4bgt92rcd13ifvqcg0","pricing_plan_id":"free"},{"bike_id":"4564b914-ed60-48fb-a16f-9ab1f8050fa6","system_id":"levelo_inurba_marseille","lat":43.311131,"lon":5.377651,"is_reserved":false,"is_disabled":false,"rental_uris":{"android":"levelo://app?vid=4564b914-ed60-48fb-a16f-9ab1f8050fa6","ios":"levelo://app?vid=4564b914-ed60-48fb-a16f-9ab1f8050fa6"},"vehicle_type_id":"4","last_reported":1683745557,"current_range_meters":0,"station_id":"ce4bgt92rcd13ifvqcg0","pricing_plan_id":"free"},{"bike_id":"73f90b6f-5fc2-4452-b94b-65988fb64ae2","system_id":"levelo_inurba_marseille","lat":43.311131,"lon":5.377651,"is_reserved":false,"is_disabled":false,"rental_uris":{"android":"levelo://app?vid=73f90b6f-5fc2-4452-b94b-65988fb64ae2","ios":"levelo://app?vid=73f90b6f-5fc2-4452-b94b-65988fb64ae2"},"vehicle_type_id":"4","last_reported":1683745557,"current_range_meters":10800,"station_id":"ce4bgt92rcd13ifvqcg0","pricing_plan_id":"free"},{"bike_id":"d3489725-4cf5-4637-ba3c-eb90487ef49f","system_id":"levelo_inurba_marseille","lat":43.311131,"lon":5.377651,"is_reserved":false,"is_disabled":false,"rental_uris":{"android":"levelo://app?vid=d3489725-4cf5-4637-ba3c-eb90487ef49f","ios":"levelo://app?vid=d3489725-4cf5-4637-ba3c-eb90487ef49f"},"vehicle_type_id":"4","last_reported":1683745557,"current_range_meters":28800,"station_id":"ce4bgt92rcd13ifvqcg0","pricing_plan_id":"free"},{"bike_id":"83f9f3fc-89cb-4107-9ec1-33bfb440159e","system_id":"levelo_inurba_marseille","lat":43.311131,"lon":5.377651,"is_reserved":false,"is_disabled":false,"rental_uris":{"android":"levelo://app?vid=83f9f3fc-89cb-4107-9ec1-33bfb440159e","ios":"levelo://app?vid=83f9f3fc-89cb-4107-9ec1-33bfb440159e"},"vehicle_type_id":"4","last_reported":1683745557,"current_range_meters":24400,"station_id":"ce4bgt92rcd13ifvqcg0","pricing_plan_id":"free"},{"bike_id":"d449c27e-cf2c-4295-a33c-3d95d21101f4","system_id":"levelo_inurba_marseille","lat":43.311131,"lon":5.377651,"is_reserved":false,"is_disabled":false,"rental_uris":{"android":"levelo://app?vid=d449c27e-cf2c-4295-a33c-3d95d21101f4","ios":"levelo://app?vid=d449c27e-cf2c-4295-a33c-3d95d21101f4"},"vehicle_type_id":"4","last_reported":1683745557,"current_range_meters":22000,"station_id":"ce4bgt92rcd13ifvqcg0","pricing_plan_id":"free"},{"bike_id":"c06576a3-027f-4434-9c52-eb668f84badc","system_id":"levelo_inurba_marseille","lat":43.311131,"lon":5.377651,"is_reserved":false,"is_disabled":false,"rental_uris":{"android":"levelo://app?vid=c06576a3-027f-4434-9c52-eb668f84badc","ios":"levelo://app?vid=c06576a3-027f-4434-9c52-eb668f84badc"},"vehicle_type_id":"4","last_reported":1683745557,"current_range_meters":30400,"station_id":"ce4bgt92rcd13ifvqcg0","pricing_plan_id":"free"},{"bike_id":"649067b9-b86e-43f0-99ee-c0c59ce8a0a3","system_id":"levelo_inurba_marseille","lat":43.303046,"lon":5.368981,"is_reserved":false,"is_disabled":false,"rental_uris":{"android":"levelo://app?vid=649067b9-b86e-43f0-99ee-c0c59ce8a0a3","ios":"levelo://app?vid=649067b9-b86e-43f0-99ee-c0c59ce8a0a3"},"vehicle_type_id":"4","last_reported":1683745557,"current_range_meters":4400,"station_id":"ce4bgqh2rcd13ifvqc5g","pricing_plan_id":"free"},{"bike_id":"476663c1-2b3b-4a67-9fb2-f8cff09a2a03","system_id":"levelo_inurba_marseille","lat":43.315289,"lon":5.380349,"is_reserved":false,"is_disabled":false,"rental_uris":{"android":"levelo://app?vid=476663c1-2b3b-4a67-9fb2-f8cff09a2a03","ios":"levelo://app?vid=476663c1-2b3b-4a67-9fb2-f8cff09a2a03"},"vehicle_type_id":"4","last_reported":1683745557,"current_range_meters":28800,"station_id":"ce4bhsp2rcd13ifvqi50","pricing_plan_id":"free"},{"bike_id":"7211188e-5768-4852-9a89-6ef0cb362254","system_id":"levelo_inurba_marseille","lat":43.315293,"lon":5.380349,"is_reserved":false,"is_disabled":false,"rental_uris":{"android":"levelo://app?vid=7211188e-5768-4852-9a89-6ef0cb362254","ios":"levelo://app?vid=7211188e-5768-4852-9a89-6ef0cb362254"},"vehicle_type_id":"4","last_reported":1683745557,"current_range_meters":12000,"station_id":"ce4bhsp2rcd13ifvqi50","pricing_plan_id":"free"},{"bike_id":"6e5f92b6-91a6-4312-bd58-eecd95161db1","system_id":"levelo_inurba_marseille","lat":43.315293,"lon":5.380349,"is_reserved":false,"is_disabled":false,"rental_uris":{"android":"levelo://app?vid=6e5f92b6-91a6-4312-bd58-eecd95161db1","ios":"levelo://app?vid=6e5f92b6-91a6-4312-bd58-eecd95161db1"},"vehicle_type_id":"4","last_reported":1683745557,"current_range_meters":15200,"station_id":"ce4bhsp2rcd13ifvqi50","pricing_plan_id":"free"},{"bike_id":"74dc49db-f918-43ed-a8d8-199327d2e08a","system_id":"levelo_inurba_marseille","lat":43.30267,"lon":5.36475,"is_reserved":false,"is_disabled":false,"rental_uris":{"android":"levelo://app?vid=74dc49db-f918-43ed-a8d8-199327d2e08a","ios":"levelo://app?vid=74dc49db-f918-43ed-a8d8-199327d2e08a"},"vehicle_type_id":"4","last_reported":1683745557,"current_range_meters":10800,"station_id":"","pricing_plan_id":"free"},{"bike_id":"c0c1f249-fa1f-4c93-9a3d-2fb87d01d74c","system_id":"levelo_inurba_marseille","lat":43.30199,"lon":5.36629,"is_reserved":false,"is_disabled":false,"rental_uris":{"android":"levelo://app?vid=c0c1f249-fa1f-4c93-9a3d-2fb87d01d74c","ios":"levelo://app?vid=c0c1f249-fa1f-4c93-9a3d-2fb87d01d74c"},"vehicle_type_id":"4","last_reported":1683745557,"current_range_meters":20800,"station_id":"ce4bgrh2rcd13ifvqc8g","pricing_plan_id":"free"},{"bike_id":"025d463a-6fd5-4ee8-a632-ab8ae8022565","system_id":"levelo_inurba_marseille","lat":43.30826,"lon":5.38154,"is_reserved":false,"is_disabled":false,"rental_uris":{"android":"levelo://app?vid=025d463a-6fd5-4ee8-a632-ab8ae8022565","ios":"levelo://app?vid=025d463a-6fd5-4ee8-a632-ab8ae8022565"},"vehicle_type_id":"4","last_reported":1683745557,"current_range_meters":31200,"station_id":"","pricing_plan_id":"free"},{"bike_id":"fe4323c6-a81e-4ff0-bca3-6c4210ea03cc","system_id":"levelo_inurba_marseille","lat":43.30805,"lon":5.38162,"is_reserved":false,"is_disabled":false,"rental_uris":{"android":"levelo://app?vid=fe4323c6-a81e-4ff0-bca3-6c4210ea03cc","ios":"levelo://app?vid=fe4323c6-a81e-4ff0-bca3-6c4210ea03cc"},"vehicle_type_id":"4","last_reported":1683745557,"current_range_meters":15600,"station_id":"ce4bgt12rcd13ifvqce0","pricing_plan_id":"free"},{"bike_id":"98a12276-ea47-4777-a59b-688b6bc3f46d","system_id":"levelo_inurba_marseille","lat":43.3081,"lon":5.38167,"is_reserved":false,"is_disabled":false,"rental_uris":{"android":"levelo://app?vid=98a12276-ea47-4777-a59b-688b6bc3f46d","ios":"levelo://app?vid=98a12276-ea47-4777-a59b-688b6bc3f46d"},"vehicle_type_id":"4","last_reported":1683745557,"current_range_meters":12000,"station_id":"ce4bgt12rcd13ifvqce0","pricing_plan_id":"free"},{"bike_id":"56076882-cf72-4511-a8c7-21dacf352931","system_id":"levelo_inurba_marseille","lat":43.30902,"lon":5.38226,"is_reserved":false,"is_disabled":false,"rental_uris":{"android":"levelo://app?vid=56076882-cf72-4511-a8c7-21dacf352931","ios":"levelo://app?vid=56076882-cf72-4511-a8c7-21dacf352931"},"vehicle_type_id":"4","last_reported":1683745557,"current_range_meters":2000,"station_id":"","pricing_plan_id":"free"},{"bike_id":"0bca241e-31c1-4d17-beda-7ef65010b74f","system_id":"levelo_inurba_marseille","lat":43.304606,"lon":5.379026,"is_reserved":false,"is_disabled":false,"rental_uris":{"android":"levelo://app?vid=0bca241e-31c1-4d17-beda-7ef65010b74f","ios":"levelo://app?vid=0bca241e-31c1-4d17-beda-7ef65010b74f"},"vehicle_type_id":"4","last_reported":1683745557,"current_range_meters":10400,"station_id":"ce4bgup2rcd13ifvqcn0","pricing_plan_id":"free"},{"bike_id":"80aac55f-c99e-4965-85a0-bef37f51b4df","system_id":"levelo_inurba_marseille","lat":43.304606,"lon":5.379026,"is_reserved":false,"is_disabled":false,"rental_uris":{"android":"levelo://app?vid=80aac55f-c99e-4965-85a0-bef37f51b4df","ios":"levelo://app?vid=80aac55f-c99e-4965-85a0-bef37f51b4df"},"vehicle_type_id":"4","last_reported":1683745557,"current_range_meters":5200,"station_id":"ce4bgup2rcd13ifvqcn0","pricing_plan_id":"free"},{"bike_id":"90b9b126-e10e-49d9-8173-377907f37523","system_id":"levelo_inurba_marseille","lat":43.304606,"lon":5.379026,"is_reserved":false,"is_disabled":false,"rental_uris":{"android":"levelo://app?vid=90b9b126-e10e-49d9-8173-377907f37523","ios":"levelo://app?vid=90b9b126-e10e-49d9-8173-377907f37523"},"vehicle_type_id":"4","last_reported":1683745557,"current_range_meters":800,"station_id":"ce4bgup2rcd13ifvqcn0","pricing_plan_id":"free"},{"bike_id":"e51ed00d-2357-4831-9ee6-3e7893730650","system_id":"levelo_inurba_marseille","lat":43.30143,"lon":5.37413,"is_reserved":false,"is_disabled":false,"rental_uris":{"android":"levelo://app?vid=e51ed00d-2357-4831-9ee6-3e7893730650","ios":"levelo://app?vid=e51ed00d-2357-4831-9ee6-3e7893730650"},"vehicle_type_id":"4","last_reported":1683745557,"current_range_meters":13600,"station_id":"ce4bgs92rcd13ifvqcc0","pricing_plan_id":"free"},{"bike_id":"3fd03b09-886f-4d8d-8d8c-26ebdcf68448","system_id":"levelo_inurba_marseille","lat":43.313571,"lon":5.384829,"is_reserved":false,"is_disabled":false,"rental_uris":{"android":"levelo://app?vid=3fd03b09-886f-4d8d-8d8c-26ebdcf68448","ios":"levelo://app?vid=3fd03b09-886f-4d8d-8d8c-26ebdcf68448"},"vehicle_type_id":"4","last_reported":1683745557,"current_range_meters":11600,"station_id":"ce4bgt92rcd13ifvqcf0","pricing_plan_id":"free"},{"bike_id":"503871a1-c628-4e5b-9e13-a971c6477ec8","system_id":"levelo_inurba_marseille","lat":43.29982,"lon":5.37034,"is_reserved":false,"is_disabled":false,"rental_uris":{"android":"levelo://app?vid=503871a1-c628-4e5b-9e13-a971c6477ec8","ios":"levelo://app?vid=503871a1-c628-4e5b-9e13-a971c6477ec8"},"vehicle_type_id":"4","last_reported":1683745557,"current_range_meters":12800,"station_id":"","pricing_plan_id":"free"},{"bike_id":"0055ad1e-5126-42c8-aa6a-58a4e2be295a","system_id":"levelo_inurba_marseille","lat":43.313571,"lon":5.384829,"is_reserved":false,"is_disabled":false,"rental_uris":{"android":"levelo://app?vid=0055ad1e-5126-42c8-aa6a-58a4e2be295a","ios":"levelo://app?vid=0055ad1e-5126-42c8-aa6a-58a4e2be295a"},"vehicle_type_id":"4","last_reported":1683745557,"current_range_meters":30400,"station_id":"ce4bgt92rcd13ifvqcf0","pricing_plan_id":"free"},{"bike_id":"5e17253f-7ea8-4ee2-9e5d-fb0def9b64c8","system_id":"levelo_inurba_marseille","lat":43.313571,"lon":5.384829,"is_reserved":false,"is_disabled":false,"rental_uris":{"android":"levelo://app?vid=5e17253f-7ea8-4ee2-9e5d-fb0def9b64c8","ios":"levelo://app?vid=5e17253f-7ea8-4ee2-9e5d-fb0def9b64c8"},"vehicle_type_id":"4","last_reported":1683745557,"current_range_meters":26800,"station_id":"ce4bgt92rcd13ifvqcf0","pricing_plan_id":"free"},{"bike_id":"11355a26-ce04-4637-b186-e63c722271b4","system_id":"levelo_inurba_marseille","lat":43.31375,"lon":5.38517,"is_reserved":false,"is_disabled":false,"rental_uris":{"android":"levelo://app?vid=11355a26-ce04-4637-b186-e63c722271b4","ios":"levelo://app?vid=11355a26-ce04-4637-b186-e63c722271b4"},"vehicle_type_id":"4","last_reported":1683745557,"current_range_meters":18000,"station_id":"","pricing_plan_id":"free"},{"bike_id":"7037883b-1faf-443f-976d-60e73dbe711c","system_id":"levelo_inurba_marseille","lat":43.299222,"lon":5.365554,"is_reserved":false,"is_disabled":false,"rental_uris":{"android":"levelo://app?vid=7037883b-1faf-443f-976d-60e73dbe711c","ios":"levelo://app?vid=7037883b-1faf-443f-976d-60e73dbe711c"},"vehicle_type_id":"4","last_reported":1683745557,"current_range_meters":12000,"station_id":"ce4bgm92rcd13ifvqbr0","pricing_plan_id":"free"},{"bike_id":"270d4ba6-a40e-4597-bdd7-92fade34ec18","system_id":"levelo_inurba_marseille","lat":43.31558,"lon":5.38604,"is_reserved":false,"is_disabled":false,"rental_uris":{"android":"levelo://app?vid=270d4ba6-a40e-4597-bdd7-92fade34ec18","ios":"levelo://app?vid=270d4ba6-a40e-4597-bdd7-92fade34ec18"},"vehicle_type_id":"4","last_reported":1683745557,"current_range_meters":15600,"station_id":"","pricing_plan_id":"free"},{"bike_id":"470c10ff-a92b-46d5-9bd4-39907d912183","system_id":"levelo_inurba_marseille","lat":43.298433,"lon":5.362774,"is_reserved":false,"is_disabled":false,"rental_uris":{"android":"levelo://app?vid=470c10ff-a92b-46d5-9bd4-39907d912183","ios":"levelo://app?vid=470c10ff-a92b-46d5-9bd4-39907d912183"},"vehicle_type_id":"4","last_reported":1683745557,"current_range_meters":17600,"station_id":"ce4bgpp2rcd13ifvqc3g","pricing_plan_id":"free"},{"bike_id":"f407d5f3-181f-4803-bf56-34f509b09267","system_id":"levelo_inurba_marseille","lat":43.311722,"lon":5.387247,"is_reserved":false,"is_disabled":false,"rental_uris":{"android":"levelo://app?vid=f407d5f3-181f-4803-bf56-34f509b09267","ios":"levelo://app?vid=f407d5f3-181f-4803-bf56-34f509b09267"},"vehicle_type_id":"4","last_reported":1683745557,"current_range_meters":31200,"station_id":"ce4bgv12rcd13ifvqcp0","pricing_plan_id":"free"},{"bike_id":"e56effee-cd76-45bf-ad81-bc81ed86dcd8","system_id":"levelo_inurba_marseille","lat":43.311722,"lon":5.387247,"is_reserved":false,"is_disabled":false,"rental_uris":{"android":"levelo://app?vid=e56effee-cd76-45bf-ad81-bc81ed86dcd8","ios":"levelo://app?vid=e56effee-cd76-45bf-ad81-bc81ed86dcd8"},"vehicle_type_id":"4","last_reported":1683745557,"current_range_meters":31200,"station_id":"ce4bgv12rcd13ifvqcp0","pricing_plan_id":"free"},{"bike_id":"0e94c3ed-ccf8-42df-9356-92117129f395","system_id":"levelo_inurba_marseille","lat":43.311722,"lon":5.387247,"is_reserved":false,"is_disabled":false,"rental_uris":{"android":"levelo://app?vid=0e94c3ed-ccf8-42df-9356-92117129f395","ios":"levelo://app?vid=0e94c3ed-ccf8-42df-9356-92117129f395"},"vehicle_type_id":"4","last_reported":1683745557,"current_range_meters":10000,"station_id":"ce4bgv12rcd13ifvqcp0","pricing_plan_id":"free"},{"bike_id":"046b55cf-68bb-4c44-b19a-de0c2c004aae","system_id":"levelo_inurba_marseille","lat":43.311722,"lon":5.387247,"is_reserved":false,"is_disabled":false,"rental_uris":{"android":"levelo://app?vid=046b55cf-68bb-4c44-b19a-de0c2c004aae","ios":"levelo://app?vid=046b55cf-68bb-4c44-b19a-de0c2c004aae"},"vehicle_type_id":"4","last_reported":1683745557,"current_range_meters":25600,"station_id":"ce4bgv12rcd13ifvqcp0","pricing_plan_id":"free"},{"bike_id":"6e9b3c77-c2b2-4f96-83ca-f0eb7ec44948","system_id":"levelo_inurba_marseille","lat":43.311722,"lon":5.387247,"is_reserved":false,"is_disabled":false,"rental_uris":{"android":"levelo://app?vid=6e9b3c77-c2b2-4f96-83ca-f0eb7ec44948","ios":"levelo://app?vid=6e9b3c77-c2b2-4f96-83ca-f0eb7ec44948"},"vehicle_type_id":"4","last_reported":1683745557,"current_range_meters":0,"station_id":"ce4bgv12rcd13ifvqcp0","pricing_plan_id":"free"},{"bike_id":"2f96f4b7-d3f1-4b87-b98f-caf50ba6d13d","system_id":"levelo_inurba_marseille","lat":43.32773,"lon":5.36694,"is_reserved":false,"is_disabled":false,"rental_uris":{"android":"levelo://app?vid=2f96f4b7-d3f1-4b87-b98f-caf50ba6d13d","ios":"levelo://app?vid=2f96f4b7-d3f1-4b87-b98f-caf50ba6d13d"},"vehicle_type_id":"4","last_reported":1683745557,"current_range_meters":23200,"station_id":"","pricing_plan_id":"free"},{"bike_id":"413df791-a856-4e91-a678-9057806a2666","system_id":"levelo_inurba_marseille","lat":43.297794,"lon":5.370888,"is_reserved":false,"is_disabled":false,"rental_uris":{"android":"levelo://app?vid=413df791-a856-4e91-a678-9057806a2666","ios":"levelo://app?vid=413df791-a856-4e91-a678-9057806a2666"},"vehicle_type_id":"4","last_reported":1683745557,"current_range_meters":27600,"station_id":"ce4bgop2rcd13ifvqc1g","pricing_plan_id":"free"},{"bike_id":"a8233ff6-b3b8-4cf5-963d-11038e4f683d","system_id":"levelo_inurba_marseille","lat":43.328371,"lon":5.366909,"is_reserved":false,"is_disabled":false,"rental_uris":{"android":"levelo://app?vid=a8233ff6-b3b8-4cf5-963d-11038e4f683d","ios":"levelo://app?vid=a8233ff6-b3b8-4cf5-963d-11038e4f683d"},"vehicle_type_id":"4","last_reported":1683745557,"current_range_meters":12400,"station_id":"ce4bhs92rcd13ifvqi0g","pricing_plan_id":"free"},{"bike_id":"4106269e-9597-4850-b8eb-1761166e062f","system_id":"levelo_inurba_marseille","lat":43.2968,"lon":5.37291,"is_reserved":false,"is_disabled":false,"rental_uris":{"android":"levelo://app?vid=4106269e-9597-4850-b8eb-1761166e062f","ios":"levelo://app?vid=4106269e-9597-4850-b8eb-1761166e062f"},"vehicle_type_id":"4","last_reported":1683745557,"current_range_meters":12000,"station_id":"ce4bgk12rcd13ifvqbj0","pricing_plan_id":"free"},{"bike_id":"ce997a5d-550a-43bc-84aa-e42265745e01","system_id":"levelo_inurba_marseille","lat":43.296131,"lon":5.370791,"is_reserved":false,"is_disabled":false,"rental_uris":{"android":"levelo://app?vid=ce997a5d-550a-43bc-84aa-e42265745e01","ios":"levelo://app?vid=ce997a5d-550a-43bc-84aa-e42265745e01"},"vehicle_type_id":"4","last_reported":1683745557,"current_range_meters":26000,"station_id":"ce4bgnh2rcd13ifvqc0g","pricing_plan_id":"free"},{"bike_id":"1f83b483-0df7-40a2-bf3f-130de9fc5a7b","system_id":"levelo_inurba_marseille","lat":43.296129,"lon":5.370777,"is_reserved":false,"is_disabled":false,"rental_uris":{"android":"levelo://app?vid=1f83b483-0df7-40a2-bf3f-130de9fc5a7b","ios":"levelo://app?vid=1f83b483-0df7-40a2-bf3f-130de9fc5a7b"},"vehicle_type_id":"4","last_reported":1683745557,"current_range_meters":26800,"station_id":"ce4bgnh2rcd13ifvqc0g","pricing_plan_id":"free"},{"bike_id":"51cd2e02-51a2-4312-949f-5e1b61a2e6a6","system_id":"levelo_inurba_marseille","lat":43.296131,"lon":5.370773,"is_reserved":false,"is_disabled":false,"rental_uris":{"android":"levelo://app?vid=51cd2e02-51a2-4312-949f-5e1b61a2e6a6","ios":"levelo://app?vid=51cd2e02-51a2-4312-949f-5e1b61a2e6a6"},"vehicle_type_id":"4","last_reported":1683745557,"current_range_meters":17200,"station_id":"ce4bgnh2rcd13ifvqc0g","pricing_plan_id":"free"},{"bike_id":"8e8ad2c8-a761-4636-8582-9575fd660dde","system_id":"levelo_inurba_marseille","lat":43.29573,"lon":5.367355,"is_reserved":false,"is_disabled":false,"rental_uris":{"android":"levelo://app?vid=8e8ad2c8-a761-4636-8582-9575fd660dde","ios":"levelo://app?vid=8e8ad2c8-a761-4636-8582-9575fd660dde"},"vehicle_type_id":"4","last_reported":1683745557,"current_range_meters":6400,"station_id":"ce4bgph2rcd13ifvqc2g","pricing_plan_id":"free"},{"bike_id":"04c3553f-a351-4510-990b-07a88832a74c","system_id":"levelo_inurba_marseille","lat":43.29573,"lon":5.367355,"is_reserved":false,"is_disabled":false,"rental_uris":{"android":"levelo://app?vid=04c3553f-a351-4510-990b-07a88832a74c","ios":"levelo://app?vid=04c3553f-a351-4510-990b-07a88832a74c"},"vehicle_type_id":"4","last_reported":1683745557,"current_range_meters":25200,"station_id":"ce4bgph2rcd13ifvqc2g","pricing_plan_id":"free"},{"bike_id":"467d64ae-88f0-432d-93e6-f969a5026691","system_id":"levelo_inurba_marseille","lat":43.29573,"lon":5.367355,"is_reserved":false,"is_disabled":false,"rental_uris":{"android":"levelo://app?vid=467d64ae-88f0-432d-93e6-f969a5026691","ios":"levelo://app?vid=467d64ae-88f0-432d-93e6-f969a5026691"},"vehicle_type_id":"4","last_reported":1683745557,"current_range_meters":17600,"station_id":"ce4bgph2rcd13ifvqc2g","pricing_plan_id":"free"},{"bike_id":"6e9ce3cc-ef1c-44cc-abc9-b5e9c03a2653","system_id":"levelo_inurba_marseille","lat":43.309589,"lon":5.390258,"is_reserved":false,"is_disabled":false,"rental_uris":{"android":"levelo://app?vid=6e9ce3cc-ef1c-44cc-abc9-b5e9c03a2653","ios":"levelo://app?vid=6e9ce3cc-ef1c-44cc-abc9-b5e9c03a2653"},"vehicle_type_id":"4","last_reported":1683745557,"current_range_meters":18400,"station_id":"ce4bgup2rcd13ifvqco0","pricing_plan_id":"free"},{"bike_id":"a3d0d2c8-de65-48c4-9732-60be29fd5ad5","system_id":"levelo_inurba_marseille","lat":43.296921,"lon":5.376579,"is_reserved":false,"is_disabled":false,"rental_uris":{"android":"levelo://app?vid=a3d0d2c8-de65-48c4-9732-60be29fd5ad5","ios":"levelo://app?vid=a3d0d2c8-de65-48c4-9732-60be29fd5ad5"},"vehicle_type_id":"4","last_reported":1683745557,"current_range_meters":2000,"station_id":"ce4bgkh2rcd13ifvqbl0","pricing_plan_id":"free"},{"bike_id":"894c45b3-1ab5-40f1-9bb3-fa7add7d9bdb","system_id":"levelo_inurba_marseille","lat":43.299028,"lon":5.381509,"is_reserved":false,"is_disabled":false,"rental_uris":{"android":"levelo://app?vid=894c45b3-1ab5-40f1-9bb3-fa7add7d9bdb","ios":"levelo://app?vid=894c45b3-1ab5-40f1-9bb3-fa7add7d9bdb"},"vehicle_type_id":"4","last_reported":1683745557,"current_range_meters":5200,"station_id":"ce4bgj12rcd13ifvqbc0","pricing_plan_id":"free"},{"bike_id":"c56754b6-7683-46ee-9503-10507e69dfe5","system_id":"levelo_inurba_marseille","lat":43.317557,"lon":5.390173,"is_reserved":false,"is_disabled":false,"rental_uris":{"android":"levelo://app?vid=c56754b6-7683-46ee-9503-10507e69dfe5","ios":"levelo://app?vid=c56754b6-7683-46ee-9503-10507e69dfe5"},"vehicle_type_id":"4","last_reported":1683745557,"current_range_meters":26000,"station_id":"ce4bhqp2rcd13ifvqhng","pricing_plan_id":"free"},{"bike_id":"ae195d04-ea28-400c-a801-3707a764d1b9","system_id":"levelo_inurba_marseille","lat":43.31798,"lon":5.39026,"is_reserved":false,"is_disabled":false,"rental_uris":{"android":"levelo://app?vid=ae195d04-ea28-400c-a801-3707a764d1b9","ios":"levelo://app?vid=ae195d04-ea28-400c-a801-3707a764d1b9"},"vehicle_type_id":"4","last_reported":1683745557,"current_range_meters":7200,"station_id":"","pricing_plan_id":"free"},{"bike_id":"83417e69-8fc5-499e-9df1-0bf29c3aec8c","system_id":"levelo_inurba_marseille","lat":43.295748,"lon":5.37522,"is_reserved":false,"is_disabled":false,"rental_uris":{"android":"levelo://app?vid=83417e69-8fc5-499e-9df1-0bf29c3aec8c","ios":"levelo://app?vid=83417e69-8fc5-499e-9df1-0bf29c3aec8c"},"vehicle_type_id":"4","last_reported":1683745557,"current_range_meters":1600,"station_id":"ce4bgh92rcd13ifvqb50","pricing_plan_id":"free"},{"bike_id":"0eb13b23-9f11-430f-886f-5a057b25cea3","system_id":"levelo_inurba_marseille","lat":43.304278,"lon":5.388868,"is_reserved":false,"is_disabled":false,"rental_uris":{"android":"levelo://app?vid=0eb13b23-9f11-430f-886f-5a057b25cea3","ios":"levelo://app?vid=0eb13b23-9f11-430f-886f-5a057b25cea3"},"vehicle_type_id":"4","last_reported":1683745557,"current_range_meters":3600,"station_id":"ce4bgk12rcd13ifvqbi0","pricing_plan_id":"free"},{"bike_id":"6b44337b-ce64-4526-b96c-bd3b9e371c7e","system_id":"levelo_inurba_marseille","lat":43.304274,"lon":5.388873,"is_reserved":false,"is_disabled":false,"rental_uris":{"android":"levelo://app?vid=6b44337b-ce64-4526-b96c-bd3b9e371c7e","ios":"levelo://app?vid=6b44337b-ce64-4526-b96c-bd3b9e371c7e"},"vehicle_type_id":"4","last_reported":1683745557,"current_range_meters":15200,"station_id":"ce4bgk12rcd13ifvqbi0","pricing_plan_id":"free"},{"bike_id":"894e7223-de4a-46b1-8cf4-f9e77bd8ca7b","system_id":"levelo_inurba_marseille","lat":43.295356,"lon":5.375011,"is_reserved":false,"is_disabled":false,"rental_uris":{"android":"levelo://app?vid=894e7223-de4a-46b1-8cf4-f9e77bd8ca7b","ios":"levelo://app?vid=894e7223-de4a-46b1-8cf4-f9e77bd8ca7b"},"vehicle_type_id":"4","last_reported":1683745557,"current_range_meters":22800,"station_id":"ce4bgkp2rcd13ifvqbmg","pricing_plan_id":"free"},{"bike_id":"d818b449-271d-40b7-bea5-784f40e6d3d4","system_id":"levelo_inurba_marseille","lat":43.295279,"lon":5.375048,"is_reserved":false,"is_disabled":false,"rental_uris":{"android":"levelo://app?vid=d818b449-271d-40b7-bea5-784f40e6d3d4","ios":"levelo://app?vid=d818b449-271d-40b7-bea5-784f40e6d3d4"},"vehicle_type_id":"4","last_reported":1683745557,"current_range_meters":18400,"station_id":"ce4bgkp2rcd13ifvqbmg","pricing_plan_id":"free"},{"bike_id":"60bd6bef-c7e6-4fa4-954c-8a069477467a","system_id":"levelo_inurba_marseille","lat":43.31414,"lon":5.3942,"is_reserved":false,"is_disabled":false,"rental_uris":{"android":"levelo://app?vid=60bd6bef-c7e6-4fa4-954c-8a069477467a","ios":"levelo://app?vid=60bd6bef-c7e6-4fa4-954c-8a069477467a"},"vehicle_type_id":"4","last_reported":1683745557,"current_range_meters":0,"station_id":"","pricing_plan_id":"free"},{"bike_id":"c65859c5-f6fd-42c6-9378-b86aecd295aa","system_id":"levelo_inurba_marseille","lat":43.293249,"lon":5.371578,"is_reserved":false,"is_disabled":false,"rental_uris":{"android":"levelo://app?vid=c65859c5-f6fd-42c6-9378-b86aecd295aa","ios":"levelo://app?vid=c65859c5-f6fd-42c6-9378-b86aecd295aa"},"vehicle_type_id":"4","last_reported":1683745557,"current_range_meters":1600,"station_id":"ce4bgh92rcd13ifvqb40","pricing_plan_id":"free"},{"bike_id":"deb167b3-a176-4530-8da7-cc382a6a52e2","system_id":"levelo_inurba_marseille","lat":43.293009,"lon":5.374584,"is_reserved":false,"is_disabled":false,"rental_uris":{"android":"levelo://app?vid=deb167b3-a176-4530-8da7-cc382a6a52e2","ios":"levelo://app?vid=deb167b3-a176-4530-8da7-cc382a6a52e2"},"vehicle_type_id":"4","last_reported":1683745557,"current_range_meters":27200,"station_id":"ce4bgi12rcd13ifvqb70","pricing_plan_id":"free"},{"bike_id":"2fd54bc9-a0a8-4648-b833-af99de92dbab","system_id":"levelo_inurba_marseille","lat":43.293009,"lon":5.374584,"is_reserved":false,"is_disabled":false,"rental_uris":{"android":"levelo://app?vid=2fd54bc9-a0a8-4648-b833-af99de92dbab","ios":"levelo://app?vid=2fd54bc9-a0a8-4648-b833-af99de92dbab"},"vehicle_type_id":"4","last_reported":1683745557,"current_range_meters":2800,"station_id":"ce4bgi12rcd13ifvqb70","pricing_plan_id":"free"},{"bike_id":"3352a019-066e-4dca-bee5-c843d16bbb78","system_id":"levelo_inurba_marseille","lat":43.293009,"lon":5.374584,"is_reserved":false,"is_disabled":false,"rental_uris":{"android":"levelo://app?vid=3352a019-066e-4dca-bee5-c843d16bbb78","ios":"levelo://app?vid=3352a019-066e-4dca-bee5-c843d16bbb78"},"vehicle_type_id":"4","last_reported":1683745557,"current_range_meters":17600,"station_id":"ce4bgi12rcd13ifvqb70","pricing_plan_id":"free"},{"bike_id":"828c5858-a901-426c-acb8-be94db6b891c","system_id":"levelo_inurba_marseille","lat":43.293009,"lon":5.374584,"is_reserved":false,"is_disabled":false,"rental_uris":{"android":"levelo://app?vid=828c5858-a901-426c-acb8-be94db6b891c","ios":"levelo://app?vid=828c5858-a901-426c-acb8-be94db6b891c"},"vehicle_type_id":"4","last_reported":1683745557,"current_range_meters":6800,"station_id":"ce4bgi12rcd13ifvqb70","pricing_plan_id":"free"},{"bike_id":"705d02e3-d9c7-4083-b340-fb3df57ccb60","system_id":"levelo_inurba_marseille","lat":43.293009,"lon":5.374584,"is_reserved":false,"is_disabled":false,"rental_uris":{"android":"levelo://app?vid=705d02e3-d9c7-4083-b340-fb3df57ccb60","ios":"levelo://app?vid=705d02e3-d9c7-4083-b340-fb3df57ccb60"},"vehicle_type_id":"4","last_reported":1683745557,"current_range_meters":6000,"station_id":"ce4bgi12rcd13ifvqb70","pricing_plan_id":"free"},{"bike_id":"39745ae6-89c5-4214-8095-8f176623e4ce","system_id":"levelo_inurba_marseille","lat":43.302992,"lon":5.392136,"is_reserved":false,"is_disabled":false,"rental_uris":{"android":"levelo://app?vid=39745ae6-89c5-4214-8095-8f176623e4ce","ios":"levelo://app?vid=39745ae6-89c5-4214-8095-8f176623e4ce"},"vehicle_type_id":"4","last_reported":1683745557,"current_range_meters":1200,"station_id":"ce4bgkh2rcd13ifvqbk0","pricing_plan_id":"free"},{"bike_id":"8fb43545-21f7-4690-a722-94fc4be6ab4b","system_id":"levelo_inurba_marseille","lat":43.302992,"lon":5.392136,"is_reserved":false,"is_disabled":false,"rental_uris":{"android":"levelo://app?vid=8fb43545-21f7-4690-a722-94fc4be6ab4b","ios":"levelo://app?vid=8fb43545-21f7-4690-a722-94fc4be6ab4b"},"vehicle_type_id":"4","last_reported":1683745557,"current_range_meters":25200,"station_id":"ce4bgkh2rcd13ifvqbk0","pricing_plan_id":"free"},{"bike_id":"19c80a87-0ef5-424a-a792-26baaec1b642","system_id":"levelo_inurba_marseille","lat":43.302992,"lon":5.392136,"is_reserved":false,"is_disabled":false,"rental_uris":{"android":"levelo://app?vid=19c80a87-0ef5-424a-a792-26baaec1b642","ios":"levelo://app?vid=19c80a87-0ef5-424a-a792-26baaec1b642"},"vehicle_type_id":"4","last_reported":1683745557,"current_range_meters":28000,"station_id":"ce4bgkh2rcd13ifvqbk0","pricing_plan_id":"free"},{"bike_id":"33783281-0141-4095-8295-5b48d81f57f1","system_id":"levelo_inurba_marseille","lat":43.302992,"lon":5.392136,"is_reserved":false,"is_disabled":false,"rental_uris":{"android":"levelo://app?vid=33783281-0141-4095-8295-5b48d81f57f1","ios":"levelo://app?vid=33783281-0141-4095-8295-5b48d81f57f1"},"vehicle_type_id":"4","last_reported":1683745557,"current_range_meters":800,"station_id":"ce4bgkh2rcd13ifvqbk0","pricing_plan_id":"free"},{"bike_id":"0c0ec196-d0e9-4963-9923-c344ab690b0a","system_id":"levelo_inurba_marseille","lat":43.2936,"lon":5.37835,"is_reserved":false,"is_disabled":false,"rental_uris":{"android":"levelo://app?vid=0c0ec196-d0e9-4963-9923-c344ab690b0a","ios":"levelo://app?vid=0c0ec196-d0e9-4963-9923-c344ab690b0a"},"vehicle_type_id":"4","last_reported":1683745557,"current_range_meters":14400,"station_id":"ce4bgjh2rcd13ifvqbf0","pricing_plan_id":"free"},{"bike_id":"5fc587f0-9e94-46bf-923a-cbe8189281d0","system_id":"levelo_inurba_marseille","lat":43.2936,"lon":5.37835,"is_reserved":false,"is_disabled":false,"rental_uris":{"android":"levelo://app?vid=5fc587f0-9e94-46bf-923a-cbe8189281d0","ios":"levelo://app?vid=5fc587f0-9e94-46bf-923a-cbe8189281d0"},"vehicle_type_id":"4","last_reported":1683745557,"current_range_meters":23200,"station_id":"ce4bgjh2rcd13ifvqbf0","pricing_plan_id":"free"},{"bike_id":"aef88442-963b-4031-bc9f-4dc1100b7ae2","system_id":"levelo_inurba_marseille","lat":43.2936,"lon":5.37835,"is_reserved":false,"is_disabled":false,"rental_uris":{"android":"levelo://app?vid=aef88442-963b-4031-bc9f-4dc1100b7ae2","ios":"levelo://app?vid=aef88442-963b-4031-bc9f-4dc1100b7ae2"},"vehicle_type_id":"4","last_reported":1683745557,"current_range_meters":15200,"station_id":"ce4bgjh2rcd13ifvqbf0","pricing_plan_id":"free"},{"bike_id":"8b146639-41df-4ec2-9c95-6ccf80cd687e","system_id":"levelo_inurba_marseille","lat":43.29229,"lon":5.36073,"is_reserved":false,"is_disabled":false,"rental_uris":{"android":"levelo://app?vid=8b146639-41df-4ec2-9c95-6ccf80cd687e","ios":"levelo://app?vid=8b146639-41df-4ec2-9c95-6ccf80cd687e"},"vehicle_type_id":"4","last_reported":1683745557,"current_range_meters":26000,"station_id":"ce4bhbh2rcd13ifvqeqg","pricing_plan_id":"free"},{"bike_id":"3219136b-7eee-4403-8f2f-9644b9cefe5e","system_id":"levelo_inurba_marseille","lat":43.30085,"lon":5.390856,"is_reserved":false,"is_disabled":false,"rental_uris":{"android":"levelo://app?vid=3219136b-7eee-4403-8f2f-9644b9cefe5e","ios":"levelo://app?vid=3219136b-7eee-4403-8f2f-9644b9cefe5e"},"vehicle_type_id":"4","last_reported":1683745557,"current_range_meters":6800,"station_id":"ce4bh192rcd13ifvqdb0","pricing_plan_id":"free"},{"bike_id":"a66b75c4-c267-4a98-8224-47f540f44a05","system_id":"levelo_inurba_marseille","lat":43.30085,"lon":5.390856,"is_reserved":false,"is_disabled":false,"rental_uris":{"android":"levelo://app?vid=a66b75c4-c267-4a98-8224-47f540f44a05","ios":"levelo://app?vid=a66b75c4-c267-4a98-8224-47f540f44a05"},"vehicle_type_id":"4","last_reported":1683745557,"current_range_meters":25600,"station_id":"ce4bh192rcd13ifvqdb0","pricing_plan_id":"free"},{"bike_id":"369bd94e-833b-4641-9260-85c1a00dd7d7","system_id":"levelo_inurba_marseille","lat":43.29224,"lon":5.36075,"is_reserved":false,"is_disabled":false,"rental_uris":{"android":"levelo://app?vid=369bd94e-833b-4641-9260-85c1a00dd7d7","ios":"levelo://app?vid=369bd94e-833b-4641-9260-85c1a00dd7d7"},"vehicle_type_id":"4","last_reported":1683745557,"current_range_meters":24800,"station_id":"ce4bhbh2rcd13ifvqeqg","pricing_plan_id":"free"},{"bike_id":"d6d4517a-2f4b-4df2-9622-bcbdbdb78896","system_id":"levelo_inurba_marseille","lat":43.29211,"lon":5.36072,"is_reserved":false,"is_disabled":false,"rental_uris":{"android":"levelo://app?vid=d6d4517a-2f4b-4df2-9622-bcbdbdb78896","ios":"levelo://app?vid=d6d4517a-2f4b-4df2-9622-bcbdbdb78896"},"vehicle_type_id":"4","last_reported":1683745557,"current_range_meters":26400,"station_id":"ce4bhbh2rcd13ifvqeqg","pricing_plan_id":"free"},{"bike_id":"16129914-d680-4923-9f02-aeeb47e687fe","system_id":"levelo_inurba_marseille","lat":43.292663,"lon":5.376389,"is_reserved":false,"is_disabled":false,"rental_uris":{"android":"levelo://app?vid=16129914-d680-4923-9f02-aeeb47e687fe","ios":"levelo://app?vid=16129914-d680-4923-9f02-aeeb47e687fe"},"vehicle_type_id":"4","last_reported":1683745557,"current_range_meters":21600,"station_id":"ce4bgi12rcd13ifvqb80","pricing_plan_id":"free"},{"bike_id":"fd4162af-32bb-4890-80d2-f0be5a62e056","system_id":"levelo_inurba_marseille","lat":43.291671,"lon":5.371575,"is_reserved":false,"is_disabled":false,"rental_uris":{"android":"levelo://app?vid=fd4162af-32bb-4890-80d2-f0be5a62e056","ios":"levelo://app?vid=fd4162af-32bb-4890-80d2-f0be5a62e056"},"vehicle_type_id":"4","last_reported":1683745557,"current_range_meters":5600,"station_id":"ce4bha92rcd13ifvqeh0","pricing_plan_id":"free"},{"bike_id":"5e1cad25-d503-491d-904e-11cf1132c5c2","system_id":"levelo_inurba_marseille","lat":43.291671,"lon":5.371575,"is_reserved":false,"is_disabled":false,"rental_uris":{"android":"levelo://app?vid=5e1cad25-d503-491d-904e-11cf1132c5c2","ios":"levelo://app?vid=5e1cad25-d503-491d-904e-11cf1132c5c2"},"vehicle_type_id":"4","last_reported":1683745557,"current_range_meters":14400,"station_id":"ce4bha92rcd13ifvqeh0","pricing_plan_id":"free"},{"bike_id":"55fb44bf-43a1-47d3-9b85-a494c41736d2","system_id":"levelo_inurba_marseille","lat":43.291671,"lon":5.371575,"is_reserved":false,"is_disabled":false,"rental_uris":{"android":"levelo://app?vid=55fb44bf-43a1-47d3-9b85-a494c41736d2","ios":"levelo://app?vid=55fb44bf-43a1-47d3-9b85-a494c41736d2"},"vehicle_type_id":"4","last_reported":1683745557,"current_range_meters":20400,"station_id":"ce4bha92rcd13ifvqeh0","pricing_plan_id":"free"},{"bike_id":"dc05080e-a637-49e5-9440-ec39e073798b","system_id":"levelo_inurba_marseille","lat":43.31371,"lon":5.39643,"is_reserved":false,"is_disabled":false,"rental_uris":{"android":"levelo://app?vid=dc05080e-a637-49e5-9440-ec39e073798b","ios":"levelo://app?vid=dc05080e-a637-49e5-9440-ec39e073798b"},"vehicle_type_id":"4","last_reported":1683745557,"current_range_meters":13600,"station_id":"","pricing_plan_id":"free"},{"bike_id":"4d3f145c-3670-42cb-9b21-6c5a184360ca","system_id":"levelo_inurba_marseille","lat":43.313291,"lon":5.396838,"is_reserved":false,"is_disabled":false,"rental_uris":{"android":"levelo://app?vid=4d3f145c-3670-42cb-9b21-6c5a184360ca","ios":"levelo://app?vid=4d3f145c-3670-42cb-9b21-6c5a184360ca"},"vehicle_type_id":"4","last_reported":1683745557,"current_range_meters":23200,"station_id":"ce4bgvp2rcd13ifvqcu0","pricing_plan_id":"free"},{"bike_id":"1e4bad57-5fcb-482c-b4d3-4fcb3591273f","system_id":"levelo_inurba_marseille","lat":43.31325,"lon":5.3969,"is_reserved":false,"is_disabled":false,"rental_uris":{"android":"levelo://app?vid=1e4bad57-5fcb-482c-b4d3-4fcb3591273f","ios":"levelo://app?vid=1e4bad57-5fcb-482c-b4d3-4fcb3591273f"},"vehicle_type_id":"4","last_reported":1683745557,"current_range_meters":11600,"station_id":"ce4bgvp2rcd13ifvqcu0","pricing_plan_id":"free"},{"bike_id":"ca42b180-530a-439c-a619-5acdf007b2b0","system_id":"levelo_inurba_marseille","lat":43.313291,"lon":5.396838,"is_reserved":false,"is_disabled":false,"rental_uris":{"android":"levelo://app?vid=ca42b180-530a-439c-a619-5acdf007b2b0","ios":"levelo://app?vid=ca42b180-530a-439c-a619-5acdf007b2b0"},"vehicle_type_id":"4","last_reported":1683745557,"current_range_meters":18000,"station_id":"ce4bgvp2rcd13ifvqcu0","pricing_plan_id":"free"},{"bike_id":"eb48f43c-eb00-4a5e-a67b-a4e9c087471d","system_id":"levelo_inurba_marseille","lat":43.313291,"lon":5.396838,"is_reserved":false,"is_disabled":false,"rental_uris":{"android":"levelo://app?vid=eb48f43c-eb00-4a5e-a67b-a4e9c087471d","ios":"levelo://app?vid=eb48f43c-eb00-4a5e-a67b-a4e9c087471d"},"vehicle_type_id":"4","last_reported":1683745557,"current_range_meters":29200,"station_id":"ce4bgvp2rcd13ifvqcu0","pricing_plan_id":"free"},{"bike_id":"0d8929c1-e815-414f-b809-f597251622bc","system_id":"levelo_inurba_marseille","lat":43.31329,"lon":5.39696,"is_reserved":false,"is_disabled":false,"rental_uris":{"android":"levelo://app?vid=0d8929c1-e815-414f-b809-f597251622bc","ios":"levelo://app?vid=0d8929c1-e815-414f-b809-f597251622bc"},"vehicle_type_id":"4","last_reported":1683745557,"current_range_meters":22000,"station_id":"ce4bgvp2rcd13ifvqcu0","pricing_plan_id":"free"},{"bike_id":"99f70806-aa41-4ce3-ae3a-7b4d25fc014d","system_id":"levelo_inurba_marseille","lat":43.3133,"lon":5.39696,"is_reserved":false,"is_disabled":false,"rental_uris":{"android":"levelo://app?vid=99f70806-aa41-4ce3-ae3a-7b4d25fc014d","ios":"levelo://app?vid=99f70806-aa41-4ce3-ae3a-7b4d25fc014d"},"vehicle_type_id":"4","last_reported":1683745557,"current_range_meters":10800,"station_id":"ce4bgvp2rcd13ifvqcu0","pricing_plan_id":"free"},{"bike_id":"2a257be2-3035-4693-b8e8-146016bf892f","system_id":"levelo_inurba_marseille","lat":43.29204,"lon":5.37659,"is_reserved":false,"is_disabled":false,"rental_uris":{"android":"levelo://app?vid=2a257be2-3035-4693-b8e8-146016bf892f","ios":"levelo://app?vid=2a257be2-3035-4693-b8e8-146016bf892f"},"vehicle_type_id":"4","last_reported":1683745557,"current_range_meters":7200,"station_id":"ce4bh2p2rcd13ifvqdi0","pricing_plan_id":"free"},{"bike_id":"0938a0ed-e4b8-4436-b238-33f1f1136bd9","system_id":"levelo_inurba_marseille","lat":43.313291,"lon":5.396838,"is_reserved":false,"is_disabled":false,"rental_uris":{"android":"levelo://app?vid=0938a0ed-e4b8-4436-b238-33f1f1136bd9","ios":"levelo://app?vid=0938a0ed-e4b8-4436-b238-33f1f1136bd9"},"vehicle_type_id":"4","last_reported":1683745557,"current_range_meters":2400,"station_id":"ce4bgvp2rcd13ifvqcu0","pricing_plan_id":"free"},{"bike_id":"3244757d-2c12-4a6a-9152-ecf59cd934ff","system_id":"levelo_inurba_marseille","lat":43.309038,"lon":5.396546,"is_reserved":false,"is_disabled":false,"rental_uris":{"android":"levelo://app?vid=3244757d-2c12-4a6a-9152-ecf59cd934ff","ios":"levelo://app?vid=3244757d-2c12-4a6a-9152-ecf59cd934ff"},"vehicle_type_id":"4","last_reported":1683745557,"current_range_meters":6800,"station_id":"ce4bh012rcd13ifvqcv0","pricing_plan_id":"free"},{"bike_id":"bac674cc-589a-4653-942d-dca2e751dac6","system_id":"levelo_inurba_marseille","lat":43.31331,"lon":5.39698,"is_reserved":false,"is_disabled":false,"rental_uris":{"android":"levelo://app?vid=bac674cc-589a-4653-942d-dca2e751dac6","ios":"levelo://app?vid=bac674cc-589a-4653-942d-dca2e751dac6"},"vehicle_type_id":"4","last_reported":1683745557,"current_range_meters":16800,"station_id":"ce4bgvp2rcd13ifvqcu0","pricing_plan_id":"free"},{"bike_id":"122292ef-abde-468d-9ed6-b5939615a367","system_id":"levelo_inurba_marseille","lat":43.31331,"lon":5.39702,"is_reserved":false,"is_disabled":false,"rental_uris":{"android":"levelo://app?vid=122292ef-abde-468d-9ed6-b5939615a367","ios":"levelo://app?vid=122292ef-abde-468d-9ed6-b5939615a367"},"vehicle_type_id":"4","last_reported":1683745557,"current_range_meters":6800,"station_id":"ce4bgvp2rcd13ifvqcu0","pricing_plan_id":"free"},{"bike_id":"efbc43ad-2ee7-4b3c-94b6-89c0e3763184","system_id":"levelo_inurba_marseille","lat":43.309038,"lon":5.396546,"is_reserved":false,"is_disabled":false,"rental_uris":{"android":"levelo://app?vid=efbc43ad-2ee7-4b3c-94b6-89c0e3763184","ios":"levelo://app?vid=efbc43ad-2ee7-4b3c-94b6-89c0e3763184"},"vehicle_type_id":"4","last_reported":1683745557,"current_range_meters":28000,"station_id":"ce4bh012rcd13ifvqcv0","pricing_plan_id":"free"},{"bike_id":"0f933e28-e3c7-464d-87c2-e53789eb4daf","system_id":"levelo_inurba_marseille","lat":43.309038,"lon":5.396546,"is_reserved":false,"is_disabled":false,"rental_uris":{"android":"levelo://app?vid=0f933e28-e3c7-464d-87c2-e53789eb4daf","ios":"levelo://app?vid=0f933e28-e3c7-464d-87c2-e53789eb4daf"},"vehicle_type_id":"4","last_reported":1683745557,"current_range_meters":14800,"station_id":"ce4bh012rcd13ifvqcv0","pricing_plan_id":"free"},{"bike_id":"54041c94-643c-4d9d-b72d-d3331fde8dae","system_id":"levelo_inurba_marseille","lat":43.29532,"lon":5.3854,"is_reserved":false,"is_disabled":false,"rental_uris":{"android":"levelo://app?vid=54041c94-643c-4d9d-b72d-d3331fde8dae","ios":"levelo://app?vid=54041c94-643c-4d9d-b72d-d3331fde8dae"},"vehicle_type_id":"4","last_reported":1683745557,"current_range_meters":0,"station_id":"ce4bgih2rcd13ifvqba0","pricing_plan_id":"free"},{"bike_id":"e3e84b4b-e788-4239-970f-b460d01d3b2e","system_id":"levelo_inurba_marseille","lat":43.29529,"lon":5.385581,"is_reserved":false,"is_disabled":false,"rental_uris":{"android":"levelo://app?vid=e3e84b4b-e788-4239-970f-b460d01d3b2e","ios":"levelo://app?vid=e3e84b4b-e788-4239-970f-b460d01d3b2e"},"vehicle_type_id":"4","last_reported":1683745557,"current_range_meters":9200,"station_id":"ce4bgih2rcd13ifvqba0","pricing_plan_id":"free"},{"bike_id":"9bb8aa96-3434-4c37-b398-a7777bbc737e","system_id":"levelo_inurba_marseille","lat":43.29529,"lon":5.385581,"is_reserved":false,"is_disabled":false,"rental_uris":{"android":"levelo://app?vid=9bb8aa96-3434-4c37-b398-a7777bbc737e","ios":"levelo://app?vid=9bb8aa96-3434-4c37-b398-a7777bbc737e"},"vehicle_type_id":"4","last_reported":1683745557,"current_range_meters":18400,"station_id":"ce4bgih2rcd13ifvqba0","pricing_plan_id":"free"},{"bike_id":"0c99bc7d-8ad9-41bc-8c72-ad9e628c0c48","system_id":"levelo_inurba_marseille","lat":43.2962,"lon":5.387,"is_reserved":false,"is_disabled":false,"rental_uris":{"android":"levelo://app?vid=0c99bc7d-8ad9-41bc-8c72-ad9e628c0c48","ios":"levelo://app?vid=0c99bc7d-8ad9-41bc-8c72-ad9e628c0c48"},"vehicle_type_id":"4","last_reported":1683745557,"current_range_meters":28000,"station_id":"","pricing_plan_id":"free"},{"bike_id":"aed2e15d-c322-4e3f-8eb5-4afc1a06a111","system_id":"levelo_inurba_marseille","lat":43.29056,"lon":5.36543,"is_reserved":false,"is_disabled":false,"rental_uris":{"android":"levelo://app?vid=aed2e15d-c322-4e3f-8eb5-4afc1a06a111","ios":"levelo://app?vid=aed2e15d-c322-4e3f-8eb5-4afc1a06a111"},"vehicle_type_id":"4","last_reported":1683745557,"current_range_meters":25600,"station_id":"","pricing_plan_id":"free"},{"bike_id":"e8bd45ef-167a-4c86-b76f-2ab9582b1bd6","system_id":"levelo_inurba_marseille","lat":43.29044,"lon":5.36976,"is_reserved":false,"is_disabled":false,"rental_uris":{"android":"levelo://app?vid=e8bd45ef-167a-4c86-b76f-2ab9582b1bd6","ios":"levelo://app?vid=e8bd45ef-167a-4c86-b76f-2ab9582b1bd6"},"vehicle_type_id":"4","last_reported":1683745557,"current_range_meters":20000,"station_id":"","pricing_plan_id":"free"},{"bike_id":"072a3202-c7d2-4299-9070-c4e384a1fc53","system_id":"levelo_inurba_marseille","lat":43.302008,"lon":5.394694,"is_reserved":false,"is_disabled":false,"rental_uris":{"android":"levelo://app?vid=072a3202-c7d2-4299-9070-c4e384a1fc53","ios":"levelo://app?vid=072a3202-c7d2-4299-9070-c4e384a1fc53"},"vehicle_type_id":"4","last_reported":1683745557,"current_range_meters":800,"station_id":"ce4bh0p2rcd13ifvqd70","pricing_plan_id":"free"},{"bike_id":"df0f956b-21e0-481d-ba9a-30e8fbe85bd3","system_id":"levelo_inurba_marseille","lat":43.290624,"lon":5.359245,"is_reserved":false,"is_disabled":false,"rental_uris":{"android":"levelo://app?vid=df0f956b-21e0-481d-ba9a-30e8fbe85bd3","ios":"levelo://app?vid=df0f956b-21e0-481d-ba9a-30e8fbe85bd3"},"vehicle_type_id":"4","last_reported":1683745557,"current_range_meters":1600,"station_id":"ce4bha92rcd13ifvqeg0","pricing_plan_id":"free"},{"bike_id":"d6ca673c-7e96-439e-bb89-8b03963c0ffb","system_id":"levelo_inurba_marseille","lat":43.29056,"lon":5.35905,"is_reserved":false,"is_disabled":false,"rental_uris":{"android":"levelo://app?vid=d6ca673c-7e96-439e-bb89-8b03963c0ffb","ios":"levelo://app?vid=d6ca673c-7e96-439e-bb89-8b03963c0ffb"},"vehicle_type_id":"4","last_reported":1683745557,"current_range_meters":17600,"station_id":"ce4bha92rcd13ifvqeg0","pricing_plan_id":"free"},{"bike_id":"96e234da-cab6-43e8-b743-2fa7985a4a0a","system_id":"levelo_inurba_marseille","lat":43.29044,"lon":5.35918,"is_reserved":false,"is_disabled":false,"rental_uris":{"android":"levelo://app?vid=96e234da-cab6-43e8-b743-2fa7985a4a0a","ios":"levelo://app?vid=96e234da-cab6-43e8-b743-2fa7985a4a0a"},"vehicle_type_id":"4","last_reported":1683745557,"current_range_meters":400,"station_id":"ce4bha92rcd13ifvqeg0","pricing_plan_id":"free"},{"bike_id":"142b9411-af56-42b1-8d94-d4007f0df02d","system_id":"levelo_inurba_marseille","lat":43.294153,"lon":5.386305,"is_reserved":false,"is_disabled":false,"rental_uris":{"android":"levelo://app?vid=142b9411-af56-42b1-8d94-d4007f0df02d","ios":"levelo://app?vid=142b9411-af56-42b1-8d94-d4007f0df02d"},"vehicle_type_id":"4","last_reported":1683745557,"current_range_meters":16400,"station_id":"ce4bh2h2rcd13ifvqdh0","pricing_plan_id":"free"},{"bike_id":"9f2b7f36-0f8e-48c1-a67f-a37d01afc322","system_id":"levelo_inurba_marseille","lat":43.289184,"lon":5.366408,"is_reserved":false,"is_disabled":false,"rental_uris":{"android":"levelo://app?vid=9f2b7f36-0f8e-48c1-a67f-a37d01afc322","ios":"levelo://app?vid=9f2b7f36-0f8e-48c1-a67f-a37d01afc322"},"vehicle_type_id":"4","last_reported":1683745557,"current_range_meters":16800,"station_id":"ce4bhap2rcd13ifvqek0","pricing_plan_id":"free"},{"bike_id":"10d9ef2b-337f-47ea-b3d8-4e1e42da8870","system_id":"levelo_inurba_marseille","lat":43.290319,"lon":5.375732,"is_reserved":false,"is_disabled":false,"rental_uris":{"android":"levelo://app?vid=10d9ef2b-337f-47ea-b3d8-4e1e42da8870","ios":"levelo://app?vid=10d9ef2b-337f-47ea-b3d8-4e1e42da8870"},"vehicle_type_id":"4","last_reported":1683745557,"current_range_meters":15600,"station_id":"ce4bh692rcd13ifvqe90","pricing_plan_id":"free"},{"bike_id":"b3d0e591-acda-4e74-93b8-b997b6c50477","system_id":"levelo_inurba_marseille","lat":43.289184,"lon":5.366408,"is_reserved":false,"is_disabled":false,"rental_uris":{"android":"levelo://app?vid=b3d0e591-acda-4e74-93b8-b997b6c50477","ios":"levelo://app?vid=b3d0e591-acda-4e74-93b8-b997b6c50477"},"vehicle_type_id":"4","last_reported":1683745557,"current_range_meters":5200,"station_id":"ce4bhap2rcd13ifvqek0","pricing_plan_id":"free"},{"bike_id":"8f59a764-38d6-438a-8c41-4f61c3186295","system_id":"levelo_inurba_marseille","lat":43.294162,"lon":5.386292,"is_reserved":false,"is_disabled":false,"rental_uris":{"android":"levelo://app?vid=8f59a764-38d6-438a-8c41-4f61c3186295","ios":"levelo://app?vid=8f59a764-38d6-438a-8c41-4f61c3186295"},"vehicle_type_id":"4","last_reported":1683745557,"current_range_meters":14400,"station_id":"ce4bh2h2rcd13ifvqdh0","pricing_plan_id":"free"},{"bike_id":"19dc91df-3045-4a73-b957-dbaa5d3152e4","system_id":"levelo_inurba_marseille","lat":43.28954,"lon":5.36409,"is_reserved":false,"is_disabled":false,"rental_uris":{"android":"levelo://app?vid=19dc91df-3045-4a73-b957-dbaa5d3152e4","ios":"levelo://app?vid=19dc91df-3045-4a73-b957-dbaa5d3152e4"},"vehicle_type_id":"4","last_reported":1683745557,"current_range_meters":15200,"station_id":"ce4bhc92rcd13ifvqetg","pricing_plan_id":"free"},{"bike_id":"1ea65c2d-c527-41ec-a269-ff92ee051a4d","system_id":"levelo_inurba_marseille","lat":43.289184,"lon":5.366408,"is_reserved":false,"is_disabled":false,"rental_uris":{"android":"levelo://app?vid=1ea65c2d-c527-41ec-a269-ff92ee051a4d","ios":"levelo://app?vid=1ea65c2d-c527-41ec-a269-ff92ee051a4d"},"vehicle_type_id":"4","last_reported":1683745557,"current_range_meters":24800,"station_id":"ce4bhap2rcd13ifvqek0","pricing_plan_id":"free"},{"bike_id":"d0f6a595-990b-4021-90ca-e835a99a8804","system_id":"levelo_inurba_marseille","lat":43.28952,"lon":5.36403,"is_reserved":false,"is_disabled":false,"rental_uris":{"android":"levelo://app?vid=d0f6a595-990b-4021-90ca-e835a99a8804","ios":"levelo://app?vid=d0f6a595-990b-4021-90ca-e835a99a8804"},"vehicle_type_id":"4","last_reported":1683745557,"current_range_meters":22000,"station_id":"","pricing_plan_id":"free"},{"bike_id":"e3f8d5c1-bfcd-4aa3-9cec-7f132ffbdec1","system_id":"levelo_inurba_marseille","lat":43.289184,"lon":5.366408,"is_reserved":false,"is_disabled":false,"rental_uris":{"android":"levelo://app?vid=e3f8d5c1-bfcd-4aa3-9cec-7f132ffbdec1","ios":"levelo://app?vid=e3f8d5c1-bfcd-4aa3-9cec-7f132ffbdec1"},"vehicle_type_id":"4","last_reported":1683745557,"current_range_meters":14400,"station_id":"ce4bhap2rcd13ifvqek0","pricing_plan_id":"free"},{"bike_id":"f0c35888-ba8b-46d7-90f3-5add6511d1ab","system_id":"levelo_inurba_marseille","lat":43.289184,"lon":5.366408,"is_reserved":false,"is_disabled":false,"rental_uris":{"android":"levelo://app?vid=f0c35888-ba8b-46d7-90f3-5add6511d1ab","ios":"levelo://app?vid=f0c35888-ba8b-46d7-90f3-5add6511d1ab"},"vehicle_type_id":"4","last_reported":1683745557,"current_range_meters":12400,"station_id":"ce4bhap2rcd13ifvqek0","pricing_plan_id":"free"},{"bike_id":"8bfd8aca-f20f-4ece-bfc7-ab4bb4388446","system_id":"levelo_inurba_marseille","lat":43.289184,"lon":5.366408,"is_reserved":false,"is_disabled":false,"rental_uris":{"android":"levelo://app?vid=8bfd8aca-f20f-4ece-bfc7-ab4bb4388446","ios":"levelo://app?vid=8bfd8aca-f20f-4ece-bfc7-ab4bb4388446"},"vehicle_type_id":"4","last_reported":1683745557,"current_range_meters":31200,"station_id":"ce4bhap2rcd13ifvqek0","pricing_plan_id":"free"},{"bike_id":"8a986751-fb3e-474d-ba84-13b546b93834","system_id":"levelo_inurba_marseille","lat":43.289184,"lon":5.366408,"is_reserved":false,"is_disabled":false,"rental_uris":{"android":"levelo://app?vid=8a986751-fb3e-474d-ba84-13b546b93834","ios":"levelo://app?vid=8a986751-fb3e-474d-ba84-13b546b93834"},"vehicle_type_id":"4","last_reported":1683745557,"current_range_meters":14800,"station_id":"ce4bhap2rcd13ifvqek0","pricing_plan_id":"free"},{"bike_id":"522043bb-1d07-415e-8a29-c2fa52c2c49b","system_id":"levelo_inurba_marseille","lat":43.28949,"lon":5.36396,"is_reserved":false,"is_disabled":false,"rental_uris":{"android":"levelo://app?vid=522043bb-1d07-415e-8a29-c2fa52c2c49b","ios":"levelo://app?vid=522043bb-1d07-415e-8a29-c2fa52c2c49b"},"vehicle_type_id":"4","last_reported":1683745557,"current_range_meters":12800,"station_id":"","pricing_plan_id":"free"},{"bike_id":"37a6ebcc-ce79-429e-aa8c-26aaebe329c0","system_id":"levelo_inurba_marseille","lat":43.289468,"lon":5.363719,"is_reserved":false,"is_disabled":false,"rental_uris":{"android":"levelo://app?vid=37a6ebcc-ce79-429e-aa8c-26aaebe329c0","ios":"levelo://app?vid=37a6ebcc-ce79-429e-aa8c-26aaebe329c0"},"vehicle_type_id":"4","last_reported":1683745557,"current_range_meters":0,"station_id":"ce4bhc92rcd13ifvqetg","pricing_plan_id":"free"},{"bike_id":"158653af-914b-411f-a355-cedce9d85e12","system_id":"levelo_inurba_marseille","lat":43.289468,"lon":5.363719,"is_reserved":false,"is_disabled":false,"rental_uris":{"android":"levelo://app?vid=158653af-914b-411f-a355-cedce9d85e12","ios":"levelo://app?vid=158653af-914b-411f-a355-cedce9d85e12"},"vehicle_type_id":"4","last_reported":1683745557,"current_range_meters":26000,"station_id":"ce4bhc92rcd13ifvqetg","pricing_plan_id":"free"},{"bike_id":"50c85b3a-add4-4e7d-83df-4b353462f7f3","system_id":"levelo_inurba_marseille","lat":43.289184,"lon":5.366408,"is_reserved":false,"is_disabled":false,"rental_uris":{"android":"levelo://app?vid=50c85b3a-add4-4e7d-83df-4b353462f7f3","ios":"levelo://app?vid=50c85b3a-add4-4e7d-83df-4b353462f7f3"},"vehicle_type_id":"4","last_reported":1683745557,"current_range_meters":11600,"station_id":"ce4bhap2rcd13ifvqek0","pricing_plan_id":"free"},{"bike_id":"646bef3e-9e4c-4e2e-a3d7-b5e8b03a4afb","system_id":"levelo_inurba_marseille","lat":43.292644,"lon":5.384257,"is_reserved":false,"is_disabled":false,"rental_uris":{"android":"levelo://app?vid=646bef3e-9e4c-4e2e-a3d7-b5e8b03a4afb","ios":"levelo://app?vid=646bef3e-9e4c-4e2e-a3d7-b5e8b03a4afb"},"vehicle_type_id":"4","last_reported":1683745557,"current_range_meters":13200,"station_id":"ce4bh692rcd13ifvqea0","pricing_plan_id":"free"},{"bike_id":"b9bded66-8991-4859-ac73-0a847de4a8b2","system_id":"levelo_inurba_marseille","lat":43.292644,"lon":5.384257,"is_reserved":false,"is_disabled":false,"rental_uris":{"android":"levelo://app?vid=b9bded66-8991-4859-ac73-0a847de4a8b2","ios":"levelo://app?vid=b9bded66-8991-4859-ac73-0a847de4a8b2"},"vehicle_type_id":"4","last_reported":1683745557,"current_range_meters":10000,"station_id":"ce4bh692rcd13ifvqea0","pricing_plan_id":"free"},{"bike_id":"86dd1284-55fc-48e5-b3cb-c2319020fbfa","system_id":"levelo_inurba_marseille","lat":43.292644,"lon":5.384257,"is_reserved":false,"is_disabled":false,"rental_uris":{"android":"levelo://app?vid=86dd1284-55fc-48e5-b3cb-c2319020fbfa","ios":"levelo://app?vid=86dd1284-55fc-48e5-b3cb-c2319020fbfa"},"vehicle_type_id":"4","last_reported":1683745557,"current_range_meters":13200,"station_id":"ce4bh692rcd13ifvqea0","pricing_plan_id":"free"},{"bike_id":"aa357d8e-833e-450d-83bd-189a06b89433","system_id":"levelo_inurba_marseille","lat":43.292644,"lon":5.384257,"is_reserved":false,"is_disabled":false,"rental_uris":{"android":"levelo://app?vid=aa357d8e-833e-450d-83bd-189a06b89433","ios":"levelo://app?vid=aa357d8e-833e-450d-83bd-189a06b89433"},"vehicle_type_id":"4","last_reported":1683745557,"current_range_meters":25200,"station_id":"ce4bh692rcd13ifvqea0","pricing_plan_id":"free"},{"bike_id":"e13b55b8-5a30-42aa-9a19-7ab293e74bbd","system_id":"levelo_inurba_marseille","lat":43.292644,"lon":5.384257,"is_reserved":false,"is_disabled":false,"rental_uris":{"android":"levelo://app?vid=e13b55b8-5a30-42aa-9a19-7ab293e74bbd","ios":"levelo://app?vid=e13b55b8-5a30-42aa-9a19-7ab293e74bbd"},"vehicle_type_id":"4","last_reported":1683745557,"current_range_meters":23200,"station_id":"ce4bh692rcd13ifvqea0","pricing_plan_id":"free"},{"bike_id":"7c91015a-ca61-46b5-87bb-fdde86aea38e","system_id":"levelo_inurba_marseille","lat":43.292644,"lon":5.384257,"is_reserved":false,"is_disabled":false,"rental_uris":{"android":"levelo://app?vid=7c91015a-ca61-46b5-87bb-fdde86aea38e","ios":"levelo://app?vid=7c91015a-ca61-46b5-87bb-fdde86aea38e"},"vehicle_type_id":"4","last_reported":1683745557,"current_range_meters":4800,"station_id":"ce4bh692rcd13ifvqea0","pricing_plan_id":"free"},{"bike_id":"790de16b-7c69-4b97-846f-8112526cde11","system_id":"levelo_inurba_marseille","lat":43.292644,"lon":5.384257,"is_reserved":false,"is_disabled":false,"rental_uris":{"android":"levelo://app?vid=790de16b-7c69-4b97-846f-8112526cde11","ios":"levelo://app?vid=790de16b-7c69-4b97-846f-8112526cde11"},"vehicle_type_id":"4","last_reported":1683745557,"current_range_meters":16400,"station_id":"ce4bh692rcd13ifvqea0","pricing_plan_id":"free"},{"bike_id":"d4e6673f-13b3-4eca-811d-319125c69608","system_id":"levelo_inurba_marseille","lat":43.292642,"lon":5.384254,"is_reserved":false,"is_disabled":false,"rental_uris":{"android":"levelo://app?vid=d4e6673f-13b3-4eca-811d-319125c69608","ios":"levelo://app?vid=d4e6673f-13b3-4eca-811d-319125c69608"},"vehicle_type_id":"4","last_reported":1683745557,"current_range_meters":30400,"station_id":"ce4bh692rcd13ifvqea0","pricing_plan_id":"free"},{"bike_id":"92e8322c-d087-4656-b9bc-28cf5c58fdcd","system_id":"levelo_inurba_marseille","lat":43.30428,"lon":5.39744,"is_reserved":false,"is_disabled":false,"rental_uris":{"android":"levelo://app?vid=92e8322c-d087-4656-b9bc-28cf5c58fdcd","ios":"levelo://app?vid=92e8322c-d087-4656-b9bc-28cf5c58fdcd"},"vehicle_type_id":"4","last_reported":1683745557,"current_range_meters":12000,"station_id":"ce4bh092rcd13ifvqd20","pricing_plan_id":"free"},{"bike_id":"a7179fcc-a82c-4847-b129-1f366fd9932d","system_id":"levelo_inurba_marseille","lat":43.292642,"lon":5.384254,"is_reserved":false,"is_disabled":false,"rental_uris":{"android":"levelo://app?vid=a7179fcc-a82c-4847-b129-1f366fd9932d","ios":"levelo://app?vid=a7179fcc-a82c-4847-b129-1f366fd9932d"},"vehicle_type_id":"4","last_reported":1683745557,"current_range_meters":31200,"station_id":"ce4bh692rcd13ifvqea0","pricing_plan_id":"free"},{"bike_id":"59fd59e3-3f5b-4736-b6de-6908348f7a4c","system_id":"levelo_inurba_marseille","lat":43.292642,"lon":5.384254,"is_reserved":false,"is_disabled":false,"rental_uris":{"android":"levelo://app?vid=59fd59e3-3f5b-4736-b6de-6908348f7a4c","ios":"levelo://app?vid=59fd59e3-3f5b-4736-b6de-6908348f7a4c"},"vehicle_type_id":"4","last_reported":1683745557,"current_range_meters":0,"station_id":"ce4bh692rcd13ifvqea0","pricing_plan_id":"free"},{"bike_id":"d6326a1c-e1d2-4445-a072-073ac8a88e0b","system_id":"levelo_inurba_marseille","lat":43.3043,"lon":5.39748,"is_reserved":false,"is_disabled":false,"rental_uris":{"android":"levelo://app?vid=d6326a1c-e1d2-4445-a072-073ac8a88e0b","ios":"levelo://app?vid=d6326a1c-e1d2-4445-a072-073ac8a88e0b"},"vehicle_type_id":"4","last_reported":1683745557,"current_range_meters":9200,"station_id":"","pricing_plan_id":"free"},{"bike_id":"211b7316-10de-4bc7-a044-db2211126bbf","system_id":"levelo_inurba_marseille","lat":43.330375,"lon":5.38906,"is_reserved":false,"is_disabled":false,"rental_uris":{"android":"levelo://app?vid=211b7316-10de-4bc7-a044-db2211126bbf","ios":"levelo://app?vid=211b7316-10de-4bc7-a044-db2211126bbf"},"vehicle_type_id":"4","last_reported":1683745557,"current_range_meters":21600,"station_id":"ce4bhr92rcd13ifvqhrg","pricing_plan_id":"free"},{"bike_id":"e45a6d54-ebde-4959-b233-813647ad9fd3","system_id":"levelo_inurba_marseille","lat":43.29018,"lon":5.3561,"is_reserved":false,"is_disabled":false,"rental_uris":{"android":"levelo://app?vid=e45a6d54-ebde-4959-b233-813647ad9fd3","ios":"levelo://app?vid=e45a6d54-ebde-4959-b233-813647ad9fd3"},"vehicle_type_id":"4","last_reported":1683745557,"current_range_meters":24400,"station_id":"ce4bhb92rcd13ifvqen0","pricing_plan_id":"free"},{"bike_id":"982f32ef-7bea-4d8e-849e-41a3a7f4fa51","system_id":"levelo_inurba_marseille","lat":43.290104,"lon":5.356111,"is_reserved":false,"is_disabled":false,"rental_uris":{"android":"levelo://app?vid=982f32ef-7bea-4d8e-849e-41a3a7f4fa51","ios":"levelo://app?vid=982f32ef-7bea-4d8e-849e-41a3a7f4fa51"},"vehicle_type_id":"4","last_reported":1683745557,"current_range_meters":5600,"station_id":"ce4bhb92rcd13ifvqen0","pricing_plan_id":"free"},{"bike_id":"d526d487-61f8-49f6-8f52-65f7607ddbdc","system_id":"levelo_inurba_marseille","lat":43.290104,"lon":5.356111,"is_reserved":false,"is_disabled":false,"rental_uris":{"android":"levelo://app?vid=d526d487-61f8-49f6-8f52-65f7607ddbdc","ios":"levelo://app?vid=d526d487-61f8-49f6-8f52-65f7607ddbdc"},"vehicle_type_id":"4","last_reported":1683745557,"current_range_meters":26400,"station_id":"ce4bhb92rcd13ifvqen0","pricing_plan_id":"free"},{"bike_id":"12b44b45-c325-4952-ae8e-29850f9f6848","system_id":"levelo_inurba_marseille","lat":43.29013,"lon":5.35617,"is_reserved":false,"is_disabled":false,"rental_uris":{"android":"levelo://app?vid=12b44b45-c325-4952-ae8e-29850f9f6848","ios":"levelo://app?vid=12b44b45-c325-4952-ae8e-29850f9f6848"},"vehicle_type_id":"4","last_reported":1683745557,"current_range_meters":5200,"station_id":"ce4bhb92rcd13ifvqen0","pricing_plan_id":"free"},{"bike_id":"f0e6b188-0396-4a8e-ab60-d2c87236b8e3","system_id":"levelo_inurba_marseille","lat":43.290104,"lon":5.356111,"is_reserved":false,"is_disabled":false,"rental_uris":{"android":"levelo://app?vid=f0e6b188-0396-4a8e-ab60-d2c87236b8e3","ios":"levelo://app?vid=f0e6b188-0396-4a8e-ab60-d2c87236b8e3"},"vehicle_type_id":"4","last_reported":1683745557,"current_range_meters":4800,"station_id":"ce4bhb92rcd13ifvqen0","pricing_plan_id":"free"},{"bike_id":"533447ea-3c61-4aa4-871e-1e8e0a441768","system_id":"levelo_inurba_marseille","lat":43.290104,"lon":5.356111,"is_reserved":false,"is_disabled":false,"rental_uris":{"android":"levelo://app?vid=533447ea-3c61-4aa4-871e-1e8e0a441768","ios":"levelo://app?vid=533447ea-3c61-4aa4-871e-1e8e0a441768"},"vehicle_type_id":"4","last_reported":1683745557,"current_range_meters":6800,"station_id":"ce4bhb92rcd13ifvqen0","pricing_plan_id":"free"},{"bike_id":"062eeed5-90ea-4681-bdf7-dd57a33301fc","system_id":"levelo_inurba_marseille","lat":43.290104,"lon":5.356111,"is_reserved":false,"is_disabled":false,"rental_uris":{"android":"levelo://app?vid=062eeed5-90ea-4681-bdf7-dd57a33301fc","ios":"levelo://app?vid=062eeed5-90ea-4681-bdf7-dd57a33301fc"},"vehicle_type_id":"4","last_reported":1683745557,"current_range_meters":31600,"station_id":"ce4bhb92rcd13ifvqen0","pricing_plan_id":"free"},{"bike_id":"76efe44c-d490-4e7b-8c9e-ed41e8d18909","system_id":"levelo_inurba_marseille","lat":43.33035,"lon":5.38925,"is_reserved":false,"is_disabled":false,"rental_uris":{"android":"levelo://app?vid=76efe44c-d490-4e7b-8c9e-ed41e8d18909","ios":"levelo://app?vid=76efe44c-d490-4e7b-8c9e-ed41e8d18909"},"vehicle_type_id":"4","last_reported":1683745557,"current_range_meters":9600,"station_id":"ce4bhr92rcd13ifvqhrg","pricing_plan_id":"free"},{"bike_id":"b42d28bf-cbbe-4d76-a55a-57b1de62d617","system_id":"levelo_inurba_marseille","lat":43.290104,"lon":5.356111,"is_reserved":false,"is_disabled":false,"rental_uris":{"android":"levelo://app?vid=b42d28bf-cbbe-4d76-a55a-57b1de62d617","ios":"levelo://app?vid=b42d28bf-cbbe-4d76-a55a-57b1de62d617"},"vehicle_type_id":"4","last_reported":1683745557,"current_range_meters":3600,"station_id":"ce4bhb92rcd13ifvqen0","pricing_plan_id":"free"},{"bike_id":"a2106999-cbed-416f-b403-3fdce7852dbc","system_id":"levelo_inurba_marseille","lat":43.290076,"lon":5.356217,"is_reserved":false,"is_disabled":false,"rental_uris":{"android":"levelo://app?vid=a2106999-cbed-416f-b403-3fdce7852dbc","ios":"levelo://app?vid=a2106999-cbed-416f-b403-3fdce7852dbc"},"vehicle_type_id":"4","last_reported":1683745557,"current_range_meters":3600,"station_id":"ce4bhb92rcd13ifvqen0","pricing_plan_id":"free"},{"bike_id":"07ddea00-57b3-4a60-bb95-ec9bb2ad0331","system_id":"levelo_inurba_marseille","lat":43.2901,"lon":5.35609,"is_reserved":false,"is_disabled":false,"rental_uris":{"android":"levelo://app?vid=07ddea00-57b3-4a60-bb95-ec9bb2ad0331","ios":"levelo://app?vid=07ddea00-57b3-4a60-bb95-ec9bb2ad0331"},"vehicle_type_id":"4","last_reported":1683745557,"current_range_meters":20800,"station_id":"ce4bhb92rcd13ifvqen0","pricing_plan_id":"free"},{"bike_id":"40aab31b-9469-44c1-aa9a-f3c8886ade6d","system_id":"levelo_inurba_marseille","lat":43.33041,"lon":5.3892,"is_reserved":false,"is_disabled":false,"rental_uris":{"android":"levelo://app?vid=40aab31b-9469-44c1-aa9a-f3c8886ade6d","ios":"levelo://app?vid=40aab31b-9469-44c1-aa9a-f3c8886ade6d"},"vehicle_type_id":"4","last_reported":1683745557,"current_range_meters":0,"station_id":"ce4bhr92rcd13ifvqhrg","pricing_plan_id":"free"},{"bike_id":"291e92dd-c2ab-4c58-b1dd-0973f1c413d5","system_id":"levelo_inurba_marseille","lat":43.330436,"lon":5.389168,"is_reserved":false,"is_disabled":false,"rental_uris":{"android":"levelo://app?vid=291e92dd-c2ab-4c58-b1dd-0973f1c413d5","ios":"levelo://app?vid=291e92dd-c2ab-4c58-b1dd-0973f1c413d5"},"vehicle_type_id":"4","last_reported":1683745557,"current_range_meters":6800,"station_id":"ce4bhr92rcd13ifvqhrg","pricing_plan_id":"free"},{"bike_id":"203b2f11-a3b5-475b-8f41-939e1d33a596","system_id":"levelo_inurba_marseille","lat":43.33045,"lon":5.38915,"is_reserved":false,"is_disabled":false,"rental_uris":{"android":"levelo://app?vid=203b2f11-a3b5-475b-8f41-939e1d33a596","ios":"levelo://app?vid=203b2f11-a3b5-475b-8f41-939e1d33a596"},"vehicle_type_id":"4","last_reported":1683745557,"current_range_meters":12800,"station_id":"ce4bhr92rcd13ifvqhrg","pricing_plan_id":"free"},{"bike_id":"705b789e-afc4-48e4-bbdc-ff4aeb948868","system_id":"levelo_inurba_marseille","lat":43.33046,"lon":5.38914,"is_reserved":false,"is_disabled":false,"rental_uris":{"android":"levelo://app?vid=705b789e-afc4-48e4-bbdc-ff4aeb948868","ios":"levelo://app?vid=705b789e-afc4-48e4-bbdc-ff4aeb948868"},"vehicle_type_id":"4","last_reported":1683745557,"current_range_meters":13600,"station_id":"ce4bhr92rcd13ifvqhrg","pricing_plan_id":"free"},{"bike_id":"5bc666d9-f4f5-4a16-9547-93d756cf34fa","system_id":"levelo_inurba_marseille","lat":43.290104,"lon":5.356111,"is_reserved":false,"is_disabled":false,"rental_uris":{"android":"levelo://app?vid=5bc666d9-f4f5-4a16-9547-93d756cf34fa","ios":"levelo://app?vid=5bc666d9-f4f5-4a16-9547-93d756cf34fa"},"vehicle_type_id":"4","last_reported":1683745557,"current_range_meters":5200,"station_id":"ce4bhb92rcd13ifvqen0","pricing_plan_id":"free"},{"bike_id":"a08ca31a-fef4-4149-8477-c04de38691a9","system_id":"levelo_inurba_marseille","lat":43.330462,"lon":5.389145,"is_reserved":false,"is_disabled":false,"rental_uris":{"android":"levelo://app?vid=a08ca31a-fef4-4149-8477-c04de38691a9","ios":"levelo://app?vid=a08ca31a-fef4-4149-8477-c04de38691a9"},"vehicle_type_id":"4","last_reported":1683745557,"current_range_meters":28400,"station_id":"ce4bhr92rcd13ifvqhrg","pricing_plan_id":"free"},{"bike_id":"ff79c64c-cf4a-4259-9b1d-2132f9e72daa","system_id":"levelo_inurba_marseille","lat":43.33044,"lon":5.38918,"is_reserved":false,"is_disabled":false,"rental_uris":{"android":"levelo://app?vid=ff79c64c-cf4a-4259-9b1d-2132f9e72daa","ios":"levelo://app?vid=ff79c64c-cf4a-4259-9b1d-2132f9e72daa"},"vehicle_type_id":"4","last_reported":1683745557,"current_range_meters":16000,"station_id":"ce4bhr92rcd13ifvqhrg","pricing_plan_id":"free"},{"bike_id":"c6f5c26f-c340-490b-9565-279ae36b6fb7","system_id":"levelo_inurba_marseille","lat":43.290104,"lon":5.356111,"is_reserved":false,"is_disabled":false,"rental_uris":{"android":"levelo://app?vid=c6f5c26f-c340-490b-9565-279ae36b6fb7","ios":"levelo://app?vid=c6f5c26f-c340-490b-9565-279ae36b6fb7"},"vehicle_type_id":"4","last_reported":1683745557,"current_range_meters":8800,"station_id":"ce4bhb92rcd13ifvqen0","pricing_plan_id":"free"},{"bike_id":"c4c7589f-b308-41ee-bd7e-ea3a683e9ae5","system_id":"levelo_inurba_marseille","lat":43.33045,"lon":5.38918,"is_reserved":false,"is_disabled":false,"rental_uris":{"android":"levelo://app?vid=c4c7589f-b308-41ee-bd7e-ea3a683e9ae5","ios":"levelo://app?vid=c4c7589f-b308-41ee-bd7e-ea3a683e9ae5"},"vehicle_type_id":"4","last_reported":1683745557,"current_range_meters":23600,"station_id":"ce4bhr92rcd13ifvqhrg","pricing_plan_id":"free"},{"bike_id":"53fca3f4-ec1a-4404-8b50-75211a973257","system_id":"levelo_inurba_marseille","lat":43.33041,"lon":5.38924,"is_reserved":false,"is_disabled":false,"rental_uris":{"android":"levelo://app?vid=53fca3f4-ec1a-4404-8b50-75211a973257","ios":"levelo://app?vid=53fca3f4-ec1a-4404-8b50-75211a973257"},"vehicle_type_id":"4","last_reported":1683745557,"current_range_meters":1200,"station_id":"ce4bhr92rcd13ifvqhrg","pricing_plan_id":"free"},{"bike_id":"94f7f6e0-6812-4bb8-bfbd-23abae7854e7","system_id":"levelo_inurba_marseille","lat":43.29012,"lon":5.35592,"is_reserved":false,"is_disabled":false,"rental_uris":{"android":"levelo://app?vid=94f7f6e0-6812-4bb8-bfbd-23abae7854e7","ios":"levelo://app?vid=94f7f6e0-6812-4bb8-bfbd-23abae7854e7"},"vehicle_type_id":"4","last_reported":1683745557,"current_range_meters":17200,"station_id":"ce4bhb92rcd13ifvqen0","pricing_plan_id":"free"},{"bike_id":"0dd22335-b0d0-4c9f-bacb-4a1c1dbac5ab","system_id":"levelo_inurba_marseille","lat":43.290104,"lon":5.356111,"is_reserved":false,"is_disabled":false,"rental_uris":{"android":"levelo://app?vid=0dd22335-b0d0-4c9f-bacb-4a1c1dbac5ab","ios":"levelo://app?vid=0dd22335-b0d0-4c9f-bacb-4a1c1dbac5ab"},"vehicle_type_id":"4","last_reported":1683745557,"current_range_meters":13200,"station_id":"ce4bhb92rcd13ifvqen0","pricing_plan_id":"free"},{"bike_id":"10f4115c-67ec-49f3-87b0-f2c4640f60fc","system_id":"levelo_inurba_marseille","lat":43.290104,"lon":5.356111,"is_reserved":false,"is_disabled":false,"rental_uris":{"android":"levelo://app?vid=10f4115c-67ec-49f3-87b0-f2c4640f60fc","ios":"levelo://app?vid=10f4115c-67ec-49f3-87b0-f2c4640f60fc"},"vehicle_type_id":"4","last_reported":1683745557,"current_range_meters":25600,"station_id":"ce4bhb92rcd13ifvqen0","pricing_plan_id":"free"},{"bike_id":"8ad703d9-997d-481e-945a-3f90bbb0b1a2","system_id":"levelo_inurba_marseille","lat":43.290103,"lon":5.356114,"is_reserved":false,"is_disabled":false,"rental_uris":{"android":"levelo://app?vid=8ad703d9-997d-481e-945a-3f90bbb0b1a2","ios":"levelo://app?vid=8ad703d9-997d-481e-945a-3f90bbb0b1a2"},"vehicle_type_id":"4","last_reported":1683745557,"current_range_meters":22400,"station_id":"ce4bhb92rcd13ifvqen0","pricing_plan_id":"free"},{"bike_id":"edb5b798-7253-4bd2-a327-d25d5e550ef1","system_id":"levelo_inurba_marseille","lat":43.33044,"lon":5.38923,"is_reserved":false,"is_disabled":false,"rental_uris":{"android":"levelo://app?vid=edb5b798-7253-4bd2-a327-d25d5e550ef1","ios":"levelo://app?vid=edb5b798-7253-4bd2-a327-d25d5e550ef1"},"vehicle_type_id":"4","last_reported":1683745557,"current_range_meters":28800,"station_id":"ce4bhr92rcd13ifvqhrg","pricing_plan_id":"free"},{"bike_id":"2694c67b-3f3c-4630-9f9c-df01de1d6a0b","system_id":"levelo_inurba_marseille","lat":43.33046,"lon":5.3892,"is_reserved":false,"is_disabled":false,"rental_uris":{"android":"levelo://app?vid=2694c67b-3f3c-4630-9f9c-df01de1d6a0b","ios":"levelo://app?vid=2694c67b-3f3c-4630-9f9c-df01de1d6a0b"},"vehicle_type_id":"4","last_reported":1683745557,"current_range_meters":22400,"station_id":"ce4bhr92rcd13ifvqhrg","pricing_plan_id":"free"},{"bike_id":"808b0fb5-4dc5-46a9-b132-4d472082a4e8","system_id":"levelo_inurba_marseille","lat":43.33048,"lon":5.38917,"is_reserved":false,"is_disabled":false,"rental_uris":{"android":"levelo://app?vid=808b0fb5-4dc5-46a9-b132-4d472082a4e8","ios":"levelo://app?vid=808b0fb5-4dc5-46a9-b132-4d472082a4e8"},"vehicle_type_id":"4","last_reported":1683745557,"current_range_meters":15200,"station_id":"ce4bhr92rcd13ifvqhrg","pricing_plan_id":"free"},{"bike_id":"56623d59-a17e-49c2-9785-13fa322b6d52","system_id":"levelo_inurba_marseille","lat":43.33047,"lon":5.38919,"is_reserved":false,"is_disabled":false,"rental_uris":{"android":"levelo://app?vid=56623d59-a17e-49c2-9785-13fa322b6d52","ios":"levelo://app?vid=56623d59-a17e-49c2-9785-13fa322b6d52"},"vehicle_type_id":"4","last_reported":1683745557,"current_range_meters":17200,"station_id":"ce4bhr92rcd13ifvqhrg","pricing_plan_id":"free"},{"bike_id":"f55f9613-885a-4d9f-b9d0-876dd874452b","system_id":"levelo_inurba_marseille","lat":43.33048,"lon":5.38918,"is_reserved":false,"is_disabled":false,"rental_uris":{"android":"levelo://app?vid=f55f9613-885a-4d9f-b9d0-876dd874452b","ios":"levelo://app?vid=f55f9613-885a-4d9f-b9d0-876dd874452b"},"vehicle_type_id":"4","last_reported":1683745557,"current_range_meters":26400,"station_id":"ce4bhr92rcd13ifvqhrg","pricing_plan_id":"free"},{"bike_id":"1c784880-042b-45c5-8204-7fdb8b62a885","system_id":"levelo_inurba_marseille","lat":43.330469,"lon":5.3892,"is_reserved":false,"is_disabled":false,"rental_uris":{"android":"levelo://app?vid=1c784880-042b-45c5-8204-7fdb8b62a885","ios":"levelo://app?vid=1c784880-042b-45c5-8204-7fdb8b62a885"},"vehicle_type_id":"4","last_reported":1683745557,"current_range_meters":23600,"station_id":"ce4bhr92rcd13ifvqhrg","pricing_plan_id":"free"},{"bike_id":"083536f9-bc11-4058-ab4e-f81353ac3bd8","system_id":"levelo_inurba_marseille","lat":43.33039,"lon":5.389338,"is_reserved":false,"is_disabled":false,"rental_uris":{"android":"levelo://app?vid=083536f9-bc11-4058-ab4e-f81353ac3bd8","ios":"levelo://app?vid=083536f9-bc11-4058-ab4e-f81353ac3bd8"},"vehicle_type_id":"4","last_reported":1683745557,"current_range_meters":19600,"station_id":"ce4bhr92rcd13ifvqhrg","pricing_plan_id":"free"},{"bike_id":"4d5d4da3-9ad4-42e5-a993-c85515ce9ca0","system_id":"levelo_inurba_marseille","lat":43.33051,"lon":5.38917,"is_reserved":false,"is_disabled":false,"rental_uris":{"android":"levelo://app?vid=4d5d4da3-9ad4-42e5-a993-c85515ce9ca0","ios":"levelo://app?vid=4d5d4da3-9ad4-42e5-a993-c85515ce9ca0"},"vehicle_type_id":"4","last_reported":1683745557,"current_range_meters":25600,"station_id":"ce4bhr92rcd13ifvqhrg","pricing_plan_id":"free"},{"bike_id":"7f1adfe6-dd3e-4e2e-8f92-1b2d49b6bafa","system_id":"levelo_inurba_marseille","lat":43.33048,"lon":5.38926,"is_reserved":false,"is_disabled":false,"rental_uris":{"android":"levelo://app?vid=7f1adfe6-dd3e-4e2e-8f92-1b2d49b6bafa","ios":"levelo://app?vid=7f1adfe6-dd3e-4e2e-8f92-1b2d49b6bafa"},"vehicle_type_id":"4","last_reported":1683745557,"current_range_meters":26800,"station_id":"ce4bhr92rcd13ifvqhrg","pricing_plan_id":"free"},{"bike_id":"28144eb9-970e-4bee-a321-40acab8419cf","system_id":"levelo_inurba_marseille","lat":43.28931,"lon":5.37627,"is_reserved":false,"is_disabled":false,"rental_uris":{"android":"levelo://app?vid=28144eb9-970e-4bee-a321-40acab8419cf","ios":"levelo://app?vid=28144eb9-970e-4bee-a321-40acab8419cf"},"vehicle_type_id":"4","last_reported":1683745557,"current_range_meters":4400,"station_id":"","pricing_plan_id":"free"},{"bike_id":"507d4192-bdcc-4c6d-9454-e2a4210bfe72","system_id":"levelo_inurba_marseille","lat":43.289732,"lon":5.378339,"is_reserved":false,"is_disabled":false,"rental_uris":{"android":"levelo://app?vid=507d4192-bdcc-4c6d-9454-e2a4210bfe72","ios":"levelo://app?vid=507d4192-bdcc-4c6d-9454-e2a4210bfe72"},"vehicle_type_id":"4","last_reported":1683745557,"current_range_meters":2800,"station_id":"","pricing_plan_id":"free"},{"bike_id":"e0103f3e-522e-4680-81a9-9f96b87b2bc3","system_id":"levelo_inurba_marseille","lat":43.2901,"lon":5.381269,"is_reserved":false,"is_disabled":false,"rental_uris":{"android":"levelo://app?vid=e0103f3e-522e-4680-81a9-9f96b87b2bc3","ios":"levelo://app?vid=e0103f3e-522e-4680-81a9-9f96b87b2bc3"},"vehicle_type_id":"4","last_reported":1683745557,"current_range_meters":5200,"station_id":"ce4bh4p2rcd13ifvqe1g","pricing_plan_id":"free"},{"bike_id":"93658ecf-4ac7-4bf5-a260-009d45a13ee0","system_id":"levelo_inurba_marseille","lat":43.28856,"lon":5.358371,"is_reserved":false,"is_disabled":false,"rental_uris":{"android":"levelo://app?vid=93658ecf-4ac7-4bf5-a260-009d45a13ee0","ios":"levelo://app?vid=93658ecf-4ac7-4bf5-a260-009d45a13ee0"},"vehicle_type_id":"4","last_reported":1683745557,"current_range_meters":30800,"station_id":"ce4bhb12rcd13ifvqem0","pricing_plan_id":"free"},{"bike_id":"b580e0e2-2f8d-4df7-94bc-e067ad6ab0cb","system_id":"levelo_inurba_marseille","lat":43.32678,"lon":5.39562,"is_reserved":false,"is_disabled":false,"rental_uris":{"android":"levelo://app?vid=b580e0e2-2f8d-4df7-94bc-e067ad6ab0cb","ios":"levelo://app?vid=b580e0e2-2f8d-4df7-94bc-e067ad6ab0cb"},"vehicle_type_id":"4","last_reported":1683745557,"current_range_meters":18800,"station_id":"","pricing_plan_id":"free"},{"bike_id":"d9da4d5b-4c19-4a9a-88bd-f6cd4044c42c","system_id":"levelo_inurba_marseille","lat":43.30642,"lon":5.401031,"is_reserved":false,"is_disabled":false,"rental_uris":{"android":"levelo://app?vid=d9da4d5b-4c19-4a9a-88bd-f6cd4044c42c","ios":"levelo://app?vid=d9da4d5b-4c19-4a9a-88bd-f6cd4044c42c"},"vehicle_type_id":"4","last_reported":1683745557,"current_range_meters":29600,"station_id":"ce4bh112rcd13ifvqda0","pricing_plan_id":"free"},{"bike_id":"262d3699-a088-432b-bd9d-d01aaccd431f","system_id":"levelo_inurba_marseille","lat":43.337489,"lon":5.374632,"is_reserved":false,"is_disabled":false,"rental_uris":{"android":"levelo://app?vid=262d3699-a088-432b-bd9d-d01aaccd431f","ios":"levelo://app?vid=262d3699-a088-432b-bd9d-d01aaccd431f"},"vehicle_type_id":"4","last_reported":1683745557,"current_range_meters":24800,"station_id":"","pricing_plan_id":"free"},{"bike_id":"37390c5a-8d1f-4608-ba60-ffbf8ee50c84","system_id":"levelo_inurba_marseille","lat":43.30642,"lon":5.401031,"is_reserved":false,"is_disabled":false,"rental_uris":{"android":"levelo://app?vid=37390c5a-8d1f-4608-ba60-ffbf8ee50c84","ios":"levelo://app?vid=37390c5a-8d1f-4608-ba60-ffbf8ee50c84"},"vehicle_type_id":"4","last_reported":1683745557,"current_range_meters":25200,"station_id":"ce4bh112rcd13ifvqda0","pricing_plan_id":"free"},{"bike_id":"24f2fbcc-9409-4f98-82fb-b573035e46b6","system_id":"levelo_inurba_marseille","lat":43.30642,"lon":5.401031,"is_reserved":false,"is_disabled":false,"rental_uris":{"android":"levelo://app?vid=24f2fbcc-9409-4f98-82fb-b573035e46b6","ios":"levelo://app?vid=24f2fbcc-9409-4f98-82fb-b573035e46b6"},"vehicle_type_id":"4","last_reported":1683745557,"current_range_meters":1200,"station_id":"ce4bh112rcd13ifvqda0","pricing_plan_id":"free"},{"bike_id":"8aeeb9d9-1925-41a8-8678-411e94ac6f12","system_id":"levelo_inurba_marseille","lat":43.30642,"lon":5.401031,"is_reserved":false,"is_disabled":false,"rental_uris":{"android":"levelo://app?vid=8aeeb9d9-1925-41a8-8678-411e94ac6f12","ios":"levelo://app?vid=8aeeb9d9-1925-41a8-8678-411e94ac6f12"},"vehicle_type_id":"4","last_reported":1683745557,"current_range_meters":0,"station_id":"ce4bh112rcd13ifvqda0","pricing_plan_id":"free"},{"bike_id":"74e4edad-791b-402d-b641-bdd8c2d7a929","system_id":"levelo_inurba_marseille","lat":43.33756,"lon":5.37445,"is_reserved":false,"is_disabled":false,"rental_uris":{"android":"levelo://app?vid=74e4edad-791b-402d-b641-bdd8c2d7a929","ios":"levelo://app?vid=74e4edad-791b-402d-b641-bdd8c2d7a929"},"vehicle_type_id":"4","last_reported":1683745557,"current_range_meters":21600,"station_id":"","pricing_plan_id":"free"},{"bike_id":"22317bce-1b03-4856-a45c-2890cecb9db1","system_id":"levelo_inurba_marseille","lat":43.30642,"lon":5.401031,"is_reserved":false,"is_disabled":false,"rental_uris":{"android":"levelo://app?vid=22317bce-1b03-4856-a45c-2890cecb9db1","ios":"levelo://app?vid=22317bce-1b03-4856-a45c-2890cecb9db1"},"vehicle_type_id":"4","last_reported":1683745557,"current_range_meters":0,"station_id":"ce4bh112rcd13ifvqda0","pricing_plan_id":"free"},{"bike_id":"f3c7bf7c-70d5-43b3-806a-d00f34df60c1","system_id":"levelo_inurba_marseille","lat":43.30642,"lon":5.401031,"is_reserved":false,"is_disabled":false,"rental_uris":{"android":"levelo://app?vid=f3c7bf7c-70d5-43b3-806a-d00f34df60c1","ios":"levelo://app?vid=f3c7bf7c-70d5-43b3-806a-d00f34df60c1"},"vehicle_type_id":"4","last_reported":1683745557,"current_range_meters":24000,"station_id":"ce4bh112rcd13ifvqda0","pricing_plan_id":"free"},{"bike_id":"f5ac2c24-cd9d-4bf7-95d5-e58d1f1d0dd4","system_id":"levelo_inurba_marseille","lat":43.30642,"lon":5.401031,"is_reserved":false,"is_disabled":false,"rental_uris":{"android":"levelo://app?vid=f5ac2c24-cd9d-4bf7-95d5-e58d1f1d0dd4","ios":"levelo://app?vid=f5ac2c24-cd9d-4bf7-95d5-e58d1f1d0dd4"},"vehicle_type_id":"4","last_reported":1683745557,"current_range_meters":4800,"station_id":"ce4bh112rcd13ifvqda0","pricing_plan_id":"free"},{"bike_id":"65dc25aa-e338-442d-a901-c7b13977267f","system_id":"levelo_inurba_marseille","lat":43.30642,"lon":5.401031,"is_reserved":false,"is_disabled":false,"rental_uris":{"android":"levelo://app?vid=65dc25aa-e338-442d-a901-c7b13977267f","ios":"levelo://app?vid=65dc25aa-e338-442d-a901-c7b13977267f"},"vehicle_type_id":"4","last_reported":1683745557,"current_range_meters":11600,"station_id":"ce4bh112rcd13ifvqda0","pricing_plan_id":"free"},{"bike_id":"0bbba654-d611-44e1-a284-779f32862664","system_id":"levelo_inurba_marseille","lat":43.301117,"lon":5.398795,"is_reserved":false,"is_disabled":false,"rental_uris":{"android":"levelo://app?vid=0bbba654-d611-44e1-a284-779f32862664","ios":"levelo://app?vid=0bbba654-d611-44e1-a284-779f32862664"},"vehicle_type_id":"4","last_reported":1683745557,"current_range_meters":18400,"station_id":"ce4bh0h2rcd13ifvqd40","pricing_plan_id":"free"},{"bike_id":"d1110b0b-83c9-485e-b10e-7d6c3d651eba","system_id":"levelo_inurba_marseille","lat":43.301117,"lon":5.398795,"is_reserved":false,"is_disabled":false,"rental_uris":{"android":"levelo://app?vid=d1110b0b-83c9-485e-b10e-7d6c3d651eba","ios":"levelo://app?vid=d1110b0b-83c9-485e-b10e-7d6c3d651eba"},"vehicle_type_id":"4","last_reported":1683745557,"current_range_meters":23600,"station_id":"ce4bh0h2rcd13ifvqd40","pricing_plan_id":"free"},{"bike_id":"f2cdd6f7-ae6d-43dd-aa7c-3ecf933e1cd9","system_id":"levelo_inurba_marseille","lat":43.301117,"lon":5.398795,"is_reserved":false,"is_disabled":false,"rental_uris":{"android":"levelo://app?vid=f2cdd6f7-ae6d-43dd-aa7c-3ecf933e1cd9","ios":"levelo://app?vid=f2cdd6f7-ae6d-43dd-aa7c-3ecf933e1cd9"},"vehicle_type_id":"4","last_reported":1683745557,"current_range_meters":23200,"station_id":"ce4bh0h2rcd13ifvqd40","pricing_plan_id":"free"},{"bike_id":"4f05df98-c571-4aa8-87cd-459eefc7d395","system_id":"levelo_inurba_marseille","lat":43.286591,"lon":5.363346,"is_reserved":false,"is_disabled":false,"rental_uris":{"android":"levelo://app?vid=4f05df98-c571-4aa8-87cd-459eefc7d395","ios":"levelo://app?vid=4f05df98-c571-4aa8-87cd-459eefc7d395"},"vehicle_type_id":"4","last_reported":1683745557,"current_range_meters":23200,"station_id":"ce4bhah2rcd13ifvqej0","pricing_plan_id":"free"},{"bike_id":"699ccb5b-9f8a-4519-b345-f3baa700c710","system_id":"levelo_inurba_marseille","lat":43.286591,"lon":5.363346,"is_reserved":false,"is_disabled":false,"rental_uris":{"android":"levelo://app?vid=699ccb5b-9f8a-4519-b345-f3baa700c710","ios":"levelo://app?vid=699ccb5b-9f8a-4519-b345-f3baa700c710"},"vehicle_type_id":"4","last_reported":1683745557,"current_range_meters":7200,"station_id":"ce4bhah2rcd13ifvqej0","pricing_plan_id":"free"},{"bike_id":"9ca843bc-aea1-4584-98ae-3e29bdc2abce","system_id":"levelo_inurba_marseille","lat":43.286591,"lon":5.363346,"is_reserved":false,"is_disabled":false,"rental_uris":{"android":"levelo://app?vid=9ca843bc-aea1-4584-98ae-3e29bdc2abce","ios":"levelo://app?vid=9ca843bc-aea1-4584-98ae-3e29bdc2abce"},"vehicle_type_id":"4","last_reported":1683745557,"current_range_meters":22000,"station_id":"ce4bhah2rcd13ifvqej0","pricing_plan_id":"free"},{"bike_id":"c5fd5d20-5b1a-4782-ae6e-cd6c83244816","system_id":"levelo_inurba_marseille","lat":43.286591,"lon":5.363346,"is_reserved":false,"is_disabled":false,"rental_uris":{"android":"levelo://app?vid=c5fd5d20-5b1a-4782-ae6e-cd6c83244816","ios":"levelo://app?vid=c5fd5d20-5b1a-4782-ae6e-cd6c83244816"},"vehicle_type_id":"4","last_reported":1683745557,"current_range_meters":17200,"station_id":"ce4bhah2rcd13ifvqej0","pricing_plan_id":"free"},{"bike_id":"7f2d7f27-c96b-4625-8783-704ab326fbbc","system_id":"levelo_inurba_marseille","lat":43.286591,"lon":5.363346,"is_reserved":false,"is_disabled":false,"rental_uris":{"android":"levelo://app?vid=7f2d7f27-c96b-4625-8783-704ab326fbbc","ios":"levelo://app?vid=7f2d7f27-c96b-4625-8783-704ab326fbbc"},"vehicle_type_id":"4","last_reported":1683745557,"current_range_meters":26000,"station_id":"ce4bhah2rcd13ifvqej0","pricing_plan_id":"free"},{"bike_id":"51cfb4fd-07c5-4b5a-9498-d2108ce8451e","system_id":"levelo_inurba_marseille","lat":43.286591,"lon":5.363346,"is_reserved":false,"is_disabled":false,"rental_uris":{"android":"levelo://app?vid=51cfb4fd-07c5-4b5a-9498-d2108ce8451e","ios":"levelo://app?vid=51cfb4fd-07c5-4b5a-9498-d2108ce8451e"},"vehicle_type_id":"4","last_reported":1683745557,"current_range_meters":1200,"station_id":"ce4bhah2rcd13ifvqej0","pricing_plan_id":"free"},{"bike_id":"ec19e44a-0ee3-435b-aab9-6abf819c8eda","system_id":"levelo_inurba_marseille","lat":43.286593,"lon":5.363346,"is_reserved":false,"is_disabled":false,"rental_uris":{"android":"levelo://app?vid=ec19e44a-0ee3-435b-aab9-6abf819c8eda","ios":"levelo://app?vid=ec19e44a-0ee3-435b-aab9-6abf819c8eda"},"vehicle_type_id":"4","last_reported":1683745557,"current_range_meters":22000,"station_id":"ce4bhah2rcd13ifvqej0","pricing_plan_id":"free"},{"bike_id":"a64727a4-37bd-4584-a2d5-74d67cd0de71","system_id":"levelo_inurba_marseille","lat":43.286593,"lon":5.363346,"is_reserved":false,"is_disabled":false,"rental_uris":{"android":"levelo://app?vid=a64727a4-37bd-4584-a2d5-74d67cd0de71","ios":"levelo://app?vid=a64727a4-37bd-4584-a2d5-74d67cd0de71"},"vehicle_type_id":"4","last_reported":1683745557,"current_range_meters":10400,"station_id":"ce4bhah2rcd13ifvqej0","pricing_plan_id":"free"},{"bike_id":"47af3bbe-6159-4bce-9ea4-ca3b8939b326","system_id":"levelo_inurba_marseille","lat":43.286591,"lon":5.363346,"is_reserved":false,"is_disabled":false,"rental_uris":{"android":"levelo://app?vid=47af3bbe-6159-4bce-9ea4-ca3b8939b326","ios":"levelo://app?vid=47af3bbe-6159-4bce-9ea4-ca3b8939b326"},"vehicle_type_id":"4","last_reported":1683745557,"current_range_meters":18800,"station_id":"ce4bhah2rcd13ifvqej0","pricing_plan_id":"free"},{"bike_id":"3d358fac-f632-41c0-897b-8d8befe89082","system_id":"levelo_inurba_marseille","lat":43.295196,"lon":5.39397,"is_reserved":false,"is_disabled":false,"rental_uris":{"android":"levelo://app?vid=3d358fac-f632-41c0-897b-8d8befe89082","ios":"levelo://app?vid=3d358fac-f632-41c0-897b-8d8befe89082"},"vehicle_type_id":"4","last_reported":1683745557,"current_range_meters":26000,"station_id":"ce4bh292rcd13ifvqdf0","pricing_plan_id":"free"},{"bike_id":"b50f4f86-8ce2-43d3-b6ed-9c834518cd1a","system_id":"levelo_inurba_marseille","lat":43.302759,"lon":5.400793,"is_reserved":false,"is_disabled":false,"rental_uris":{"android":"levelo://app?vid=b50f4f86-8ce2-43d3-b6ed-9c834518cd1a","ios":"levelo://app?vid=b50f4f86-8ce2-43d3-b6ed-9c834518cd1a"},"vehicle_type_id":"4","last_reported":1683745557,"current_range_meters":17200,"station_id":"ce4bgvh2rcd13ifvqcs0","pricing_plan_id":"free"},{"bike_id":"09a73dea-7b1f-4efc-9330-8aee568b0604","system_id":"levelo_inurba_marseille","lat":43.295194,"lon":5.39397,"is_reserved":false,"is_disabled":false,"rental_uris":{"android":"levelo://app?vid=09a73dea-7b1f-4efc-9330-8aee568b0604","ios":"levelo://app?vid=09a73dea-7b1f-4efc-9330-8aee568b0604"},"vehicle_type_id":"4","last_reported":1683745557,"current_range_meters":4800,"station_id":"ce4bh292rcd13ifvqdf0","pricing_plan_id":"free"},{"bike_id":"10ee2d5a-985e-41b8-9c55-828135b2fefe","system_id":"levelo_inurba_marseille","lat":43.302759,"lon":5.400793,"is_reserved":false,"is_disabled":false,"rental_uris":{"android":"levelo://app?vid=10ee2d5a-985e-41b8-9c55-828135b2fefe","ios":"levelo://app?vid=10ee2d5a-985e-41b8-9c55-828135b2fefe"},"vehicle_type_id":"4","last_reported":1683745557,"current_range_meters":0,"station_id":"ce4bgvh2rcd13ifvqcs0","pricing_plan_id":"free"},{"bike_id":"bc627116-1b50-4252-b82f-8a9a9696fe16","system_id":"levelo_inurba_marseille","lat":43.295194,"lon":5.39397,"is_reserved":false,"is_disabled":false,"rental_uris":{"android":"levelo://app?vid=bc627116-1b50-4252-b82f-8a9a9696fe16","ios":"levelo://app?vid=bc627116-1b50-4252-b82f-8a9a9696fe16"},"vehicle_type_id":"4","last_reported":1683745557,"current_range_meters":4000,"station_id":"ce4bh292rcd13ifvqdf0","pricing_plan_id":"free"},{"bike_id":"40f71603-217c-4dd9-8404-939dd4c731a8","system_id":"levelo_inurba_marseille","lat":43.30263,"lon":5.40054,"is_reserved":false,"is_disabled":false,"rental_uris":{"android":"levelo://app?vid=40f71603-217c-4dd9-8404-939dd4c731a8","ios":"levelo://app?vid=40f71603-217c-4dd9-8404-939dd4c731a8"},"vehicle_type_id":"4","last_reported":1683745557,"current_range_meters":13600,"station_id":"ce4bgvh2rcd13ifvqcs0","pricing_plan_id":"free"},{"bike_id":"cf324bde-d409-473b-a85e-4efa3d97425b","system_id":"levelo_inurba_marseille","lat":43.30261,"lon":5.40055,"is_reserved":false,"is_disabled":false,"rental_uris":{"android":"levelo://app?vid=cf324bde-d409-473b-a85e-4efa3d97425b","ios":"levelo://app?vid=cf324bde-d409-473b-a85e-4efa3d97425b"},"vehicle_type_id":"4","last_reported":1683745557,"current_range_meters":7200,"station_id":"ce4bgvh2rcd13ifvqcs0","pricing_plan_id":"free"},{"bike_id":"9249b067-3be9-4f46-b2b5-a9758f29a955","system_id":"levelo_inurba_marseille","lat":43.30253,"lon":5.40052,"is_reserved":false,"is_disabled":false,"rental_uris":{"android":"levelo://app?vid=9249b067-3be9-4f46-b2b5-a9758f29a955","ios":"levelo://app?vid=9249b067-3be9-4f46-b2b5-a9758f29a955"},"vehicle_type_id":"4","last_reported":1683745557,"current_range_meters":0,"station_id":"ce4bgvh2rcd13ifvqcs0","pricing_plan_id":"free"},{"bike_id":"3a2d6f75-a944-41a2-b96e-daf447bfa056","system_id":"levelo_inurba_marseille","lat":43.302759,"lon":5.400793,"is_reserved":false,"is_disabled":false,"rental_uris":{"android":"levelo://app?vid=3a2d6f75-a944-41a2-b96e-daf447bfa056","ios":"levelo://app?vid=3a2d6f75-a944-41a2-b96e-daf447bfa056"},"vehicle_type_id":"4","last_reported":1683745557,"current_range_meters":0,"station_id":"ce4bgvh2rcd13ifvqcs0","pricing_plan_id":"free"},{"bike_id":"aab4bcc1-e270-4bea-952a-7a49a3a20810","system_id":"levelo_inurba_marseille","lat":43.29036,"lon":5.38645,"is_reserved":false,"is_disabled":false,"rental_uris":{"android":"levelo://app?vid=aab4bcc1-e270-4bea-952a-7a49a3a20810","ios":"levelo://app?vid=aab4bcc1-e270-4bea-952a-7a49a3a20810"},"vehicle_type_id":"4","last_reported":1683745557,"current_range_meters":28400,"station_id":"ce4bh4p2rcd13ifvqe0g","pricing_plan_id":"free"},