{"last_updated":1701281360,"ttl":30,"version":"2.2","data":{"bikes":[{"bike_id":"4aac5522-1c29-4759-af83-ee8fc109674c","system_id":"levelo_inurba_marseille","lat":43.312239,"lon":5.368562,"is_reserved":false,"is_disabled":false,"rental_uris":{"android":"levelo://app?vid=4aac5522-1c29-4759-af83-ee8fc109674c","ios":"levelo://app?vid=4aac5522-1c29-4759-af83-ee8fc109674c"},"vehicle_type_id":"4","last_reported":1701281360,"current_range_meters":0,"station_id":"ce4bgl92rcd13ifvqbq0","pricing_plan_id":"free"},{"bike_id":"cb6f8b9b-7c6a-444f-8a29-9e98f75507fa","system_id":"levelo_inurba_marseille","lat":43.314811,"lon":5.373103,"is_reserved":false,"is_disabled":false,"rental_uris":{"android":"levelo://app?vid=cb6f8b9b-7c6a-444f-8a29-9e98f75507fa","ios":"levelo://app?vid=cb6f8b9b-7c6a-444f-8a29-9e98f75507fa"},"vehicle_type_id":"4","last_reported":1701281360,"current_range_meters":13600,"station_id":"ce4bgt12rcd13ifvqcd0","pricing_plan_id":"free"},{"bike_id":"55ff27be-a72f-44f4-8edc-a9d6726b95d7","system_id":"levelo_inurba_marseille","lat":43.308905,"lon":5.37196,"is_reserved":false,"is_disabled":false,"rental_uris":{"android":"levelo://app?vid=55ff27be-a72f-44f4-8edc-a9d6726b95d7","ios":"levelo://app?vid=55ff27be-a72f-44f4-8edc-a9d6726b95d7"},"vehicle_type_id":"4","last_reported":1701281360,"current_range_meters":0,"station_id":"ce4bguh2rcd13ifvqckg","pricing_plan_id":"free"},{"bike_id":"965a1d19-b90a-46fb-8b82-ff82339fc081","system_id":"levelo_inurba_marseille","lat":43.30884,"lon":5.37188,"is_reserved":false,"is_disabled":false,"rental_uris":{"android":"levelo://app?vid=965a1d19-b90a-46fb-8b82-ff82339fc081","ios":"levelo://app?vid=965a1d19-b90a-46fb-8b82-ff82339fc081"},"vehicle_type_id":"4","last_reported":1701281360,"current_range_meters":0,"station_id":"ce4bguh2rcd13ifvqckg","pricing_plan_id":"free"},{"bike_id":"b1455275-9540-4f01-9060-ffeffd3e7fef","system_id":"levelo_inurba_marseille","lat":43.305989,"lon":5.37225,"is_reserved":false,"is_disabled":false,"rental_uris":{"android":"levelo://app?vid=b1455275-9540-4f01-9060-ffeffd3e7fef","ios":"levelo://app?vid=b1455275-9540-4f01-9060-ffeffd3e7fef"},"vehicle_type_id":"4","last_reported":1701281360,"current_range_meters":1200,"station_id":"ce4bgqh2rcd13ifvqc4g","pricing_plan_id":"free"},{"bike_id":"663f4afb-fccd-433c-a911-1877ce94de6b","system_id":"levelo_inurba_marseille","lat":43.311149,"lon":5.3777,"is_reserved":false,"is_disabled":false,"rental_uris":{"android":"levelo://app?vid=663f4afb-fccd-433c-a911-1877ce94de6b","ios":"levelo://app?vid=663f4afb-fccd-433c-a911-1877ce94de6b"},"vehicle_type_id":"4","last_reported":1701281360,"current_range_meters":0,"station_id":"ce4bgt92rcd13ifvqcg0","pricing_plan_id":"free"},{"bike_id":"4a248075-0cef-4085-9bbc-e24d6f029e1a","system_id":"levelo_inurba_marseille","lat":43.311131,"lon":5.377651,"is_reserved":false,"is_disabled":false,"rental_uris":{"android":"levelo://app?vid=4a248075-0cef-4085-9bbc-e24d6f029e1a","ios":"levelo://app?vid=4a248075-0cef-4085-9bbc-e24d6f029e1a"},"vehicle_type_id":"4","last_reported":1701281360,"current_range_meters":9200,"station_id":"ce4bgt92rcd13ifvqcg0","pricing_plan_id":"free"},{"bike_id":"b5129530-3639-47e5-92b6-d358b01a2cff","system_id":"levelo_inurba_marseille","lat":43.308203,"lon":5.376596,"is_reserved":false,"is_disabled":false,"rental_uris":{"android":"levelo://app?vid=b5129530-3639-47e5-92b6-d358b01a2cff","ios":"levelo://app?vid=b5129530-3639-47e5-92b6-d358b01a2cff"},"vehicle_type_id":"4","last_reported":1701281360,"current_range_meters":24400,"station_id":"ce4bgv92rcd13ifvqcq0","pricing_plan_id":"free"},{"bike_id":"f427a2c3-6e4a-446b-ae2f-9be8aa7f4122","system_id":"levelo_inurba_marseille","lat":43.31719,"lon":5.376813,"is_reserved":false,"is_disabled":false,"rental_uris":{"android":"levelo://app?vid=f427a2c3-6e4a-446b-ae2f-9be8aa7f4122","ios":"levelo://app?vid=f427a2c3-6e4a-446b-ae2f-9be8aa7f4122"},"vehicle_type_id":"4","last_reported":1701281360,"current_range_meters":8800,"station_id":"ce4bgth2rcd13ifvqch0","pricing_plan_id":"free"},{"bike_id":"0962768a-4335-4f01-b06d-9143918364aa","system_id":"levelo_inurba_marseille","lat":43.307945,"lon":5.376487,"is_reserved":false,"is_disabled":false,"rental_uris":{"android":"levelo://app?vid=0962768a-4335-4f01-b06d-9143918364aa","ios":"levelo://app?vid=0962768a-4335-4f01-b06d-9143918364aa"},"vehicle_type_id":"4","last_reported":1701281360,"current_range_meters":16800,"station_id":"ce4bgv92rcd13ifvqcq0","pricing_plan_id":"free"},{"bike_id":"e913f328-1e31-4c22-bd87-f809ea246de4","system_id":"levelo_inurba_marseille","lat":43.317168,"lon":5.376883,"is_reserved":false,"is_disabled":false,"rental_uris":{"android":"levelo://app?vid=e913f328-1e31-4c22-bd87-f809ea246de4","ios":"levelo://app?vid=e913f328-1e31-4c22-bd87-f809ea246de4"},"vehicle_type_id":"4","last_reported":1701281360,"current_range_meters":11200,"station_id":"ce4bgth2rcd13ifvqch0","pricing_plan_id":"free"},{"bike_id":"d5e4077f-10ec-4ff5-ad67-be2c5535b78c","system_id":"levelo_inurba_marseille","lat":43.317075,"lon":5.377367,"is_reserved":false,"is_disabled":false,"rental_uris":{"android":"levelo://app?vid=d5e4077f-10ec-4ff5-ad67-be2c5535b78c","ios":"levelo://app?vid=d5e4077f-10ec-4ff5-ad67-be2c5535b78c"},"vehicle_type_id":"4","last_reported":1701281360,"current_range_meters":16000,"station_id":"ce4bgth2rcd13ifvqch0","pricing_plan_id":"free"},{"bike_id":"ec726c92-836e-4fd1-b696-fb4abb6fd0e7","system_id":"levelo_inurba_marseille","lat":43.317075,"lon":5.377367,"is_reserved":false,"is_disabled":false,"rental_uris":{"android":"levelo://app?vid=ec726c92-836e-4fd1-b696-fb4abb6fd0e7","ios":"levelo://app?vid=ec726c92-836e-4fd1-b696-fb4abb6fd0e7"},"vehicle_type_id":"4","last_reported":1701281360,"current_range_meters":16800,"station_id":"ce4bgth2rcd13ifvqch0","pricing_plan_id":"free"},{"bike_id":"0af02c56-96c0-425d-adb3-867e9188f097","system_id":"levelo_inurba_marseille","lat":43.317075,"lon":5.377367,"is_reserved":false,"is_disabled":false,"rental_uris":{"android":"levelo://app?vid=0af02c56-96c0-425d-adb3-867e9188f097","ios":"levelo://app?vid=0af02c56-96c0-425d-adb3-867e9188f097"},"vehicle_type_id":"4","last_reported":1701281360,"current_range_meters":400,"station_id":"ce4bgth2rcd13ifvqch0","pricing_plan_id":"free"},{"bike_id":"c3d2304c-398f-48fd-be06-37dc35b9bfcd","system_id":"levelo_inurba_marseille","lat":43.303046,"lon":5.368981,"is_reserved":false,"is_disabled":false,"rental_uris":{"android":"levelo://app?vid=c3d2304c-398f-48fd-be06-37dc35b9bfcd","ios":"levelo://app?vid=c3d2304c-398f-48fd-be06-37dc35b9bfcd"},"vehicle_type_id":"4","last_reported":1701281360,"current_range_meters":0,"station_id":"ce4bgqh2rcd13ifvqc5g","pricing_plan_id":"free"},{"bike_id":"3e09080e-9db5-4c48-951f-c5f672a60264","system_id":"levelo_inurba_marseille","lat":43.321469,"lon":5.374856,"is_reserved":false,"is_disabled":false,"rental_uris":{"android":"levelo://app?vid=3e09080e-9db5-4c48-951f-c5f672a60264","ios":"levelo://app?vid=3e09080e-9db5-4c48-951f-c5f672a60264"},"vehicle_type_id":"4","last_reported":1701281360,"current_range_meters":7200,"station_id":"","pricing_plan_id":"free"},{"bike_id":"44cec7d0-c196-4d75-836c-510f2a071132","system_id":"levelo_inurba_marseille","lat":43.301939,"lon":5.366286,"is_reserved":false,"is_disabled":false,"rental_uris":{"android":"levelo://app?vid=44cec7d0-c196-4d75-836c-510f2a071132","ios":"levelo://app?vid=44cec7d0-c196-4d75-836c-510f2a071132"},"vehicle_type_id":"4","last_reported":1701281360,"current_range_meters":16000,"station_id":"ce4bgrh2rcd13ifvqc8g","pricing_plan_id":"free"},{"bike_id":"9274419b-96db-4056-9c11-8ff89c5d69aa","system_id":"levelo_inurba_marseille","lat":43.30173,"lon":5.37036,"is_reserved":false,"is_disabled":false,"rental_uris":{"android":"levelo://app?vid=9274419b-96db-4056-9c11-8ff89c5d69aa","ios":"levelo://app?vid=9274419b-96db-4056-9c11-8ff89c5d69aa"},"vehicle_type_id":"4","last_reported":1701281360,"current_range_meters":0,"station_id":"","pricing_plan_id":"free"},{"bike_id":"e6945740-73a0-4a9f-9123-293cd8615992","system_id":"levelo_inurba_marseille","lat":43.304606,"lon":5.379026,"is_reserved":false,"is_disabled":false,"rental_uris":{"android":"levelo://app?vid=e6945740-73a0-4a9f-9123-293cd8615992","ios":"levelo://app?vid=e6945740-73a0-4a9f-9123-293cd8615992"},"vehicle_type_id":"4","last_reported":1701281360,"current_range_meters":0,"station_id":"ce4bgup2rcd13ifvqcn0","pricing_plan_id":"free"},{"bike_id":"3e01df68-27f0-42b4-ac09-2ec4a13acda6","system_id":"levelo_inurba_marseille","lat":43.319935,"lon":5.381699,"is_reserved":false,"is_disabled":false,"rental_uris":{"android":"levelo://app?vid=3e01df68-27f0-42b4-ac09-2ec4a13acda6","ios":"levelo://app?vid=3e01df68-27f0-42b4-ac09-2ec4a13acda6"},"vehicle_type_id":"4","last_reported":1701281360,"current_range_meters":12000,"station_id":"ce4bhr12rcd13ifvqhpg","pricing_plan_id":"free"},{"bike_id":"2275aca5-3158-4c2c-8022-ca5d2714bc86","system_id":"levelo_inurba_marseille","lat":43.319997,"lon":5.381594,"is_reserved":false,"is_disabled":false,"rental_uris":{"android":"levelo://app?vid=2275aca5-3158-4c2c-8022-ca5d2714bc86","ios":"levelo://app?vid=2275aca5-3158-4c2c-8022-ca5d2714bc86"},"vehicle_type_id":"4","last_reported":1701281360,"current_range_meters":26000,"station_id":"ce4bhr12rcd13ifvqhpg","pricing_plan_id":"free"},{"bike_id":"d5c02311-adaf-4f73-9cd5-a7cdbf8e01c8","system_id":"levelo_inurba_marseille","lat":43.29941,"lon":5.36553,"is_reserved":false,"is_disabled":false,"rental_uris":{"android":"levelo://app?vid=d5c02311-adaf-4f73-9cd5-a7cdbf8e01c8","ios":"levelo://app?vid=d5c02311-adaf-4f73-9cd5-a7cdbf8e01c8"},"vehicle_type_id":"4","last_reported":1701281360,"current_range_meters":15600,"station_id":"ce4bgm92rcd13ifvqbr0","pricing_plan_id":"free"},{"bike_id":"7beeabd8-5d5e-45ca-acfa-5657f79ee7e9","system_id":"levelo_inurba_marseille","lat":43.299724,"lon":5.371829,"is_reserved":false,"is_disabled":false,"rental_uris":{"android":"levelo://app?vid=7beeabd8-5d5e-45ca-acfa-5657f79ee7e9","ios":"levelo://app?vid=7beeabd8-5d5e-45ca-acfa-5657f79ee7e9"},"vehicle_type_id":"4","last_reported":1701281360,"current_range_meters":18800,"station_id":"ce4bgr92rcd13ifvqc7g","pricing_plan_id":"free"},{"bike_id":"e95f5d60-f9fa-4a11-b93b-9e38a30f72e5","system_id":"levelo_inurba_marseille","lat":43.298433,"lon":5.362774,"is_reserved":false,"is_disabled":false,"rental_uris":{"android":"levelo://app?vid=e95f5d60-f9fa-4a11-b93b-9e38a30f72e5","ios":"levelo://app?vid=e95f5d60-f9fa-4a11-b93b-9e38a30f72e5"},"vehicle_type_id":"4","last_reported":1701281360,"current_range_meters":2400,"station_id":"ce4bgpp2rcd13ifvqc3g","pricing_plan_id":"free"},{"bike_id":"fdaeddb1-8154-4fa6-a2c3-649c742f886c","system_id":"levelo_inurba_marseille","lat":43.299243,"lon":5.37481,"is_reserved":false,"is_disabled":false,"rental_uris":{"android":"levelo://app?vid=fdaeddb1-8154-4fa6-a2c3-649c742f886c","ios":"levelo://app?vid=fdaeddb1-8154-4fa6-a2c3-649c742f886c"},"vehicle_type_id":"4","last_reported":1701281360,"current_range_meters":22000,"station_id":"ce4bgjh2rcd13ifvqbg0","pricing_plan_id":"free"},{"bike_id":"aebb5f1f-3a1e-4323-a4f0-ae83e0b78d14","system_id":"levelo_inurba_marseille","lat":43.327603,"lon":5.36705,"is_reserved":false,"is_disabled":false,"rental_uris":{"android":"levelo://app?vid=aebb5f1f-3a1e-4323-a4f0-ae83e0b78d14","ios":"levelo://app?vid=aebb5f1f-3a1e-4323-a4f0-ae83e0b78d14"},"vehicle_type_id":"4","last_reported":1701281360,"current_range_meters":27600,"station_id":"","pricing_plan_id":"free"},{"bike_id":"d36e4daa-8cbf-4921-b012-b92a6a8b8bf6","system_id":"levelo_inurba_marseille","lat":43.322872,"lon":5.382756,"is_reserved":false,"is_disabled":false,"rental_uris":{"android":"levelo://app?vid=d36e4daa-8cbf-4921-b012-b92a6a8b8bf6","ios":"levelo://app?vid=d36e4daa-8cbf-4921-b012-b92a6a8b8bf6"},"vehicle_type_id":"4","last_reported":1701281360,"current_range_meters":17600,"station_id":"ce4bhr12rcd13ifvqhqg","pricing_plan_id":"free"},{"bike_id":"0da4b62f-0db6-4479-8cb1-8d25ba70b760","system_id":"levelo_inurba_marseille","lat":43.322872,"lon":5.382756,"is_reserved":false,"is_disabled":false,"rental_uris":{"android":"levelo://app?vid=0da4b62f-0db6-4479-8cb1-8d25ba70b760","ios":"levelo://app?vid=0da4b62f-0db6-4479-8cb1-8d25ba70b760"},"vehicle_type_id":"4","last_reported":1701281360,"current_range_meters":24400,"station_id":"ce4bhr12rcd13ifvqhqg","pricing_plan_id":"free"},{"bike_id":"3486d651-45b6-46b6-82dc-903d5fa070d2","system_id":"levelo_inurba_marseille","lat":43.32831,"lon":5.36675,"is_reserved":false,"is_disabled":false,"rental_uris":{"android":"levelo://app?vid=3486d651-45b6-46b6-82dc-903d5fa070d2","ios":"levelo://app?vid=3486d651-45b6-46b6-82dc-903d5fa070d2"},"vehicle_type_id":"4","last_reported":1701281360,"current_range_meters":19600,"station_id":"ce4bhs92rcd13ifvqi0g","pricing_plan_id":"free"},{"bike_id":"a5ac5b6e-f037-4dc5-aa8a-98feb3542f34","system_id":"levelo_inurba_marseille","lat":43.297163,"lon":5.365866,"is_reserved":false,"is_disabled":false,"rental_uris":{"android":"levelo://app?vid=a5ac5b6e-f037-4dc5-aa8a-98feb3542f34","ios":"levelo://app?vid=a5ac5b6e-f037-4dc5-aa8a-98feb3542f34"},"vehicle_type_id":"4","last_reported":1701281360,"current_range_meters":25600,"station_id":"ce4bgn12rcd13ifvqbt0","pricing_plan_id":"free"},{"bike_id":"886c0115-8d35-4232-ab27-66ddaa3d614d","system_id":"levelo_inurba_marseille","lat":43.297163,"lon":5.365866,"is_reserved":false,"is_disabled":false,"rental_uris":{"android":"levelo://app?vid=886c0115-8d35-4232-ab27-66ddaa3d614d","ios":"levelo://app?vid=886c0115-8d35-4232-ab27-66ddaa3d614d"},"vehicle_type_id":"4","last_reported":1701281360,"current_range_meters":400,"station_id":"ce4bgn12rcd13ifvqbt0","pricing_plan_id":"free"},{"bike_id":"59ffabfc-56e1-4236-83b1-4ecb43525466","system_id":"levelo_inurba_marseille","lat":43.297163,"lon":5.365866,"is_reserved":false,"is_disabled":false,"rental_uris":{"android":"levelo://app?vid=59ffabfc-56e1-4236-83b1-4ecb43525466","ios":"levelo://app?vid=59ffabfc-56e1-4236-83b1-4ecb43525466"},"vehicle_type_id":"4","last_reported":1701281360,"current_range_meters":3200,"station_id":"ce4bgn12rcd13ifvqbt0","pricing_plan_id":"free"},{"bike_id":"56768e4e-9386-4af4-86a9-5511352d419c","system_id":"levelo_inurba_marseille","lat":43.29607,"lon":5.367383,"is_reserved":false,"is_disabled":false,"rental_uris":{"android":"levelo://app?vid=56768e4e-9386-4af4-86a9-5511352d419c","ios":"levelo://app?vid=56768e4e-9386-4af4-86a9-5511352d419c"},"vehicle_type_id":"4","last_reported":1701281360,"current_range_meters":11200,"station_id":"ce4bgph2rcd13ifvqc2g","pricing_plan_id":"free"},{"bike_id":"ce3a14ae-3791-42d0-914a-cc075a4cfa5d","system_id":"levelo_inurba_marseille","lat":43.296131,"lon":5.370791,"is_reserved":false,"is_disabled":false,"rental_uris":{"android":"levelo://app?vid=ce3a14ae-3791-42d0-914a-cc075a4cfa5d","ios":"levelo://app?vid=ce3a14ae-3791-42d0-914a-cc075a4cfa5d"},"vehicle_type_id":"4","last_reported":1701281360,"current_range_meters":3600,"station_id":"ce4bgnh2rcd13ifvqc0g","pricing_plan_id":"free"},{"bike_id":"ea6b1184-e89a-4ea1-a67e-a17ff1c8e0a4","system_id":"levelo_inurba_marseille","lat":43.299028,"lon":5.381509,"is_reserved":false,"is_disabled":false,"rental_uris":{"android":"levelo://app?vid=ea6b1184-e89a-4ea1-a67e-a17ff1c8e0a4","ios":"levelo://app?vid=ea6b1184-e89a-4ea1-a67e-a17ff1c8e0a4"},"vehicle_type_id":"4","last_reported":1701281360,"current_range_meters":3200,"station_id":"ce4bgj12rcd13ifvqbc0","pricing_plan_id":"free"},{"bike_id":"af7bf3e2-96c1-4386-9dcd-7d55850f5fab","system_id":"levelo_inurba_marseille","lat":43.309589,"lon":5.390258,"is_reserved":false,"is_disabled":false,"rental_uris":{"android":"levelo://app?vid=af7bf3e2-96c1-4386-9dcd-7d55850f5fab","ios":"levelo://app?vid=af7bf3e2-96c1-4386-9dcd-7d55850f5fab"},"vehicle_type_id":"4","last_reported":1701281360,"current_range_meters":4400,"station_id":"ce4bgup2rcd13ifvqco0","pricing_plan_id":"free"},{"bike_id":"2127dbc9-09ad-4800-9008-7bb2a1ed92e4","system_id":"levelo_inurba_marseille","lat":43.309589,"lon":5.390258,"is_reserved":false,"is_disabled":false,"rental_uris":{"android":"levelo://app?vid=2127dbc9-09ad-4800-9008-7bb2a1ed92e4","ios":"levelo://app?vid=2127dbc9-09ad-4800-9008-7bb2a1ed92e4"},"vehicle_type_id":"4","last_reported":1701281360,"current_range_meters":18400,"station_id":"ce4bgup2rcd13ifvqco0","pricing_plan_id":"free"},{"bike_id":"ec38a4d9-6b25-44ed-b19c-55d0e382764c","system_id":"levelo_inurba_marseille","lat":43.309589,"lon":5.390258,"is_reserved":false,"is_disabled":false,"rental_uris":{"android":"levelo://app?vid=ec38a4d9-6b25-44ed-b19c-55d0e382764c","ios":"levelo://app?vid=ec38a4d9-6b25-44ed-b19c-55d0e382764c"},"vehicle_type_id":"4","last_reported":1701281360,"current_range_meters":10400,"station_id":"ce4bgup2rcd13ifvqco0","pricing_plan_id":"free"},{"bike_id":"b1069275-29a6-4d25-b8ae-2b10d1d6d1d5","system_id":"levelo_inurba_marseille","lat":43.309589,"lon":5.390258,"is_reserved":false,"is_disabled":false,"rental_uris":{"android":"levelo://app?vid=b1069275-29a6-4d25-b8ae-2b10d1d6d1d5","ios":"levelo://app?vid=b1069275-29a6-4d25-b8ae-2b10d1d6d1d5"},"vehicle_type_id":"4","last_reported":1701281360,"current_range_meters":5200,"station_id":"ce4bgup2rcd13ifvqco0","pricing_plan_id":"free"},{"bike_id":"2900d414-8317-45f2-b493-03449c666753","system_id":"levelo_inurba_marseille","lat":43.309589,"lon":5.390258,"is_reserved":false,"is_disabled":false,"rental_uris":{"android":"levelo://app?vid=2900d414-8317-45f2-b493-03449c666753","ios":"levelo://app?vid=2900d414-8317-45f2-b493-03449c666753"},"vehicle_type_id":"4","last_reported":1701281360,"current_range_meters":17600,"station_id":"ce4bgup2rcd13ifvqco0","pricing_plan_id":"free"},{"bike_id":"72a29674-04fb-4ca4-ad01-ef0aeb59334b","system_id":"levelo_inurba_marseille","lat":43.3095,"lon":5.39038,"is_reserved":false,"is_disabled":false,"rental_uris":{"android":"levelo://app?vid=72a29674-04fb-4ca4-ad01-ef0aeb59334b","ios":"levelo://app?vid=72a29674-04fb-4ca4-ad01-ef0aeb59334b"},"vehicle_type_id":"4","last_reported":1701281360,"current_range_meters":0,"station_id":"ce4bgup2rcd13ifvqco0","pricing_plan_id":"free"},{"bike_id":"5adc982d-00ec-4447-8553-869b333d843d","system_id":"levelo_inurba_marseille","lat":43.309589,"lon":5.390258,"is_reserved":false,"is_disabled":false,"rental_uris":{"android":"levelo://app?vid=5adc982d-00ec-4447-8553-869b333d843d","ios":"levelo://app?vid=5adc982d-00ec-4447-8553-869b333d843d"},"vehicle_type_id":"4","last_reported":1701281360,"current_range_meters":16000,"station_id":"ce4bgup2rcd13ifvqco0","pricing_plan_id":"free"},{"bike_id":"fd676318-9242-40be-8041-eabea863d62c","system_id":"levelo_inurba_marseille","lat":43.309589,"lon":5.390258,"is_reserved":false,"is_disabled":false,"rental_uris":{"android":"levelo://app?vid=fd676318-9242-40be-8041-eabea863d62c","ios":"levelo://app?vid=fd676318-9242-40be-8041-eabea863d62c"},"vehicle_type_id":"4","last_reported":1701281360,"current_range_meters":8400,"station_id":"ce4bgup2rcd13ifvqco0","pricing_plan_id":"free"},{"bike_id":"30073a7e-cf59-4b50-8742-34ed5c57f944","system_id":"levelo_inurba_marseille","lat":43.31007,"lon":5.39075,"is_reserved":false,"is_disabled":false,"rental_uris":{"android":"levelo://app?vid=30073a7e-cf59-4b50-8742-34ed5c57f944","ios":"levelo://app?vid=30073a7e-cf59-4b50-8742-34ed5c57f944"},"vehicle_type_id":"4","last_reported":1701281360,"current_range_meters":17200,"station_id":"","pricing_plan_id":"free"},{"bike_id":"057ae66f-c5eb-4cf3-ad62-ae217c15f56b","system_id":"levelo_inurba_marseille","lat":43.317557,"lon":5.390173,"is_reserved":false,"is_disabled":false,"rental_uris":{"android":"levelo://app?vid=057ae66f-c5eb-4cf3-ad62-ae217c15f56b","ios":"levelo://app?vid=057ae66f-c5eb-4cf3-ad62-ae217c15f56b"},"vehicle_type_id":"4","last_reported":1701281360,"current_range_meters":27600,"station_id":"ce4bhqp2rcd13ifvqhng","pricing_plan_id":"free"},{"bike_id":"17ea6d52-89ac-44ab-911e-e78d84f08f0a","system_id":"levelo_inurba_marseille","lat":43.296263,"lon":5.377094,"is_reserved":false,"is_disabled":false,"rental_uris":{"android":"levelo://app?vid=17ea6d52-89ac-44ab-911e-e78d84f08f0a","ios":"levelo://app?vid=17ea6d52-89ac-44ab-911e-e78d84f08f0a"},"vehicle_type_id":"4","last_reported":1701281360,"current_range_meters":12400,"station_id":"ce4bgi92rcd13ifvqb90","pricing_plan_id":"free"},{"bike_id":"2b954bc4-25c0-414f-bd9d-5a5124aaf00e","system_id":"levelo_inurba_marseille","lat":43.304278,"lon":5.388868,"is_reserved":false,"is_disabled":false,"rental_uris":{"android":"levelo://app?vid=2b954bc4-25c0-414f-bd9d-5a5124aaf00e","ios":"levelo://app?vid=2b954bc4-25c0-414f-bd9d-5a5124aaf00e"},"vehicle_type_id":"4","last_reported":1701281360,"current_range_meters":7200,"station_id":"ce4bgk12rcd13ifvqbi0","pricing_plan_id":"free"},{"bike_id":"0aa9af34-bf7f-4564-b85a-d5601a321747","system_id":"levelo_inurba_marseille","lat":43.296263,"lon":5.377094,"is_reserved":false,"is_disabled":false,"rental_uris":{"android":"levelo://app?vid=0aa9af34-bf7f-4564-b85a-d5601a321747","ios":"levelo://app?vid=0aa9af34-bf7f-4564-b85a-d5601a321747"},"vehicle_type_id":"4","last_reported":1701281360,"current_range_meters":18800,"station_id":"ce4bgi92rcd13ifvqb90","pricing_plan_id":"free"},{"bike_id":"640418f2-c618-4292-a9fa-7c480f3759f9","system_id":"levelo_inurba_marseille","lat":43.29973,"lon":5.38487,"is_reserved":false,"is_disabled":false,"rental_uris":{"android":"levelo://app?vid=640418f2-c618-4292-a9fa-7c480f3759f9","ios":"levelo://app?vid=640418f2-c618-4292-a9fa-7c480f3759f9"},"vehicle_type_id":"4","last_reported":1701281360,"current_range_meters":0,"station_id":"ce4bgj92rcd13ifvqbd0","pricing_plan_id":"free"},{"bike_id":"c8a82da8-08ae-447c-88a1-fe83f1c7d13d","system_id":"levelo_inurba_marseille","lat":43.295748,"lon":5.37522,"is_reserved":false,"is_disabled":false,"rental_uris":{"android":"levelo://app?vid=c8a82da8-08ae-447c-88a1-fe83f1c7d13d","ios":"levelo://app?vid=c8a82da8-08ae-447c-88a1-fe83f1c7d13d"},"vehicle_type_id":"4","last_reported":1701281360,"current_range_meters":16400,"station_id":"ce4bgh92rcd13ifvqb50","pricing_plan_id":"free"},{"bike_id":"ce84fd53-8ac3-4da5-ae48-47e09fb4f0ff","system_id":"levelo_inurba_marseille","lat":43.29275,"lon":5.36844,"is_reserved":false,"is_disabled":false,"rental_uris":{"android":"levelo://app?vid=ce84fd53-8ac3-4da5-ae48-47e09fb4f0ff","ios":"levelo://app?vid=ce84fd53-8ac3-4da5-ae48-47e09fb4f0ff"},"vehicle_type_id":"4","last_reported":1701281360,"current_range_meters":400,"station_id":"ce4bhbp2rcd13ifvqesg","pricing_plan_id":"free"},{"bike_id":"2e9f4e16-151e-42d6-a2f6-e431dd8a48a5","system_id":"levelo_inurba_marseille","lat":43.29275,"lon":5.36845,"is_reserved":false,"is_disabled":false,"rental_uris":{"android":"levelo://app?vid=2e9f4e16-151e-42d6-a2f6-e431dd8a48a5","ios":"levelo://app?vid=2e9f4e16-151e-42d6-a2f6-e431dd8a48a5"},"vehicle_type_id":"4","last_reported":1701281360,"current_range_meters":20400,"station_id":"ce4bhbp2rcd13ifvqesg","pricing_plan_id":"free"},{"bike_id":"41d70585-6e81-4799-b02f-ab223cbecfd1","system_id":"levelo_inurba_marseille","lat":43.29275,"lon":5.36848,"is_reserved":false,"is_disabled":false,"rental_uris":{"android":"levelo://app?vid=41d70585-6e81-4799-b02f-ab223cbecfd1","ios":"levelo://app?vid=41d70585-6e81-4799-b02f-ab223cbecfd1"},"vehicle_type_id":"4","last_reported":1701281360,"current_range_meters":12400,"station_id":"ce4bhbp2rcd13ifvqesg","pricing_plan_id":"free"},{"bike_id":"52bbaf17-0b84-4fa7-8822-841bda517aae","system_id":"levelo_inurba_marseille","lat":43.29275,"lon":5.36848,"is_reserved":false,"is_disabled":false,"rental_uris":{"android":"levelo://app?vid=52bbaf17-0b84-4fa7-8822-841bda517aae","ios":"levelo://app?vid=52bbaf17-0b84-4fa7-8822-841bda517aae"},"vehicle_type_id":"4","last_reported":1701281360,"current_range_meters":10800,"station_id":"ce4bhbp2rcd13ifvqesg","pricing_plan_id":"free"},{"bike_id":"4c3a5c87-7e4a-45c9-aff9-99bc41204ddf","system_id":"levelo_inurba_marseille","lat":43.292749,"lon":5.368402,"is_reserved":false,"is_disabled":false,"rental_uris":{"android":"levelo://app?vid=4c3a5c87-7e4a-45c9-aff9-99bc41204ddf","ios":"levelo://app?vid=4c3a5c87-7e4a-45c9-aff9-99bc41204ddf"},"vehicle_type_id":"4","last_reported":1701281360,"current_range_meters":26000,"station_id":"ce4bhbp2rcd13ifvqesg","pricing_plan_id":"free"},{"bike_id":"759045cd-3abc-4ed9-a621-9aec60ce8043","system_id":"levelo_inurba_marseille","lat":43.2927,"lon":5.36845,"is_reserved":false,"is_disabled":false,"rental_uris":{"android":"levelo://app?vid=759045cd-3abc-4ed9-a621-9aec60ce8043","ios":"levelo://app?vid=759045cd-3abc-4ed9-a621-9aec60ce8043"},"vehicle_type_id":"4","last_reported":1701281360,"current_range_meters":6800,"station_id":"ce4bhbp2rcd13ifvqesg","pricing_plan_id":"free"},{"bike_id":"294e789b-6e29-46a1-aa12-fd06feeb3a90","system_id":"levelo_inurba_marseille","lat":43.292749,"lon":5.368402,"is_reserved":false,"is_disabled":false,"rental_uris":{"android":"levelo://app?vid=294e789b-6e29-46a1-aa12-fd06feeb3a90","ios":"levelo://app?vid=294e789b-6e29-46a1-aa12-fd06feeb3a90"},"vehicle_type_id":"4","last_reported":1701281360,"current_range_meters":17200,"station_id":"ce4bhbp2rcd13ifvqesg","pricing_plan_id":"free"},{"bike_id":"f02620d0-f576-4649-bc8e-470574e8948e","system_id":"levelo_inurba_marseille","lat":43.292749,"lon":5.368402,"is_reserved":false,"is_disabled":false,"rental_uris":{"android":"levelo://app?vid=f02620d0-f576-4649-bc8e-470574e8948e","ios":"levelo://app?vid=f02620d0-f576-4649-bc8e-470574e8948e"},"vehicle_type_id":"4","last_reported":1701281360,"current_range_meters":22000,"station_id":"ce4bhbp2rcd13ifvqesg","pricing_plan_id":"free"},{"bike_id":"426f70d4-8a68-4876-ac52-13c9328b240a","system_id":"levelo_inurba_marseille","lat":43.293009,"lon":5.374584,"is_reserved":false,"is_disabled":false,"rental_uris":{"android":"levelo://app?vid=426f70d4-8a68-4876-ac52-13c9328b240a","ios":"levelo://app?vid=426f70d4-8a68-4876-ac52-13c9328b240a"},"vehicle_type_id":"4","last_reported":1701281360,"current_range_meters":27200,"station_id":"ce4bgi12rcd13ifvqb70","pricing_plan_id":"free"},{"bike_id":"b2559ba2-7891-4fd1-acb7-4391ea3e7d7a","system_id":"levelo_inurba_marseille","lat":43.293009,"lon":5.374584,"is_reserved":false,"is_disabled":false,"rental_uris":{"android":"levelo://app?vid=b2559ba2-7891-4fd1-acb7-4391ea3e7d7a","ios":"levelo://app?vid=b2559ba2-7891-4fd1-acb7-4391ea3e7d7a"},"vehicle_type_id":"4","last_reported":1701281360,"current_range_meters":10800,"station_id":"ce4bgi12rcd13ifvqb70","pricing_plan_id":"free"},{"bike_id":"7053df1b-624b-4669-ad41-a6a342e5dbfb","system_id":"levelo_inurba_marseille","lat":43.302992,"lon":5.392136,"is_reserved":false,"is_disabled":false,"rental_uris":{"android":"levelo://app?vid=7053df1b-624b-4669-ad41-a6a342e5dbfb","ios":"levelo://app?vid=7053df1b-624b-4669-ad41-a6a342e5dbfb"},"vehicle_type_id":"4","last_reported":1701281360,"current_range_meters":2400,"station_id":"ce4bgkh2rcd13ifvqbk0","pricing_plan_id":"free"},{"bike_id":"a88342d1-32b1-4311-844e-d2ed81ed0e1d","system_id":"levelo_inurba_marseille","lat":43.2936,"lon":5.37835,"is_reserved":false,"is_disabled":false,"rental_uris":{"android":"levelo://app?vid=a88342d1-32b1-4311-844e-d2ed81ed0e1d","ios":"levelo://app?vid=a88342d1-32b1-4311-844e-d2ed81ed0e1d"},"vehicle_type_id":"4","last_reported":1701281360,"current_range_meters":400,"station_id":"ce4bgjh2rcd13ifvqbf0","pricing_plan_id":"free"},{"bike_id":"985efebd-4b2a-4c1b-a4b9-e065eb3f62d0","system_id":"levelo_inurba_marseille","lat":43.300852,"lon":5.390859,"is_reserved":false,"is_disabled":false,"rental_uris":{"android":"levelo://app?vid=985efebd-4b2a-4c1b-a4b9-e065eb3f62d0","ios":"levelo://app?vid=985efebd-4b2a-4c1b-a4b9-e065eb3f62d0"},"vehicle_type_id":"4","last_reported":1701281360,"current_range_meters":12800,"station_id":"ce4bh192rcd13ifvqdb0","pricing_plan_id":"free"},{"bike_id":"50c2858a-e657-47ba-900b-0002a266a72d","system_id":"levelo_inurba_marseille","lat":43.30101,"lon":5.39093,"is_reserved":false,"is_disabled":false,"rental_uris":{"android":"levelo://app?vid=50c2858a-e657-47ba-900b-0002a266a72d","ios":"levelo://app?vid=50c2858a-e657-47ba-900b-0002a266a72d"},"vehicle_type_id":"4","last_reported":1701281360,"current_range_meters":16400,"station_id":"ce4bh192rcd13ifvqdb0","pricing_plan_id":"free"},{"bike_id":"d736a3a0-e0ba-44c9-be47-b2c5d3595594","system_id":"levelo_inurba_marseille","lat":43.313291,"lon":5.396838,"is_reserved":false,"is_disabled":false,"rental_uris":{"android":"levelo://app?vid=d736a3a0-e0ba-44c9-be47-b2c5d3595594","ios":"levelo://app?vid=d736a3a0-e0ba-44c9-be47-b2c5d3595594"},"vehicle_type_id":"4","last_reported":1701281360,"current_range_meters":0,"station_id":"ce4bgvp2rcd13ifvqcu0","pricing_plan_id":"free"},{"bike_id":"d869c316-14d9-4676-aba2-63c15e7c5d91","system_id":"levelo_inurba_marseille","lat":43.3133,"lon":5.39692,"is_reserved":false,"is_disabled":false,"rental_uris":{"android":"levelo://app?vid=d869c316-14d9-4676-aba2-63c15e7c5d91","ios":"levelo://app?vid=d869c316-14d9-4676-aba2-63c15e7c5d91"},"vehicle_type_id":"4","last_reported":1701281360,"current_range_meters":5200,"station_id":"ce4bgvp2rcd13ifvqcu0","pricing_plan_id":"free"},{"bike_id":"9fc02e1b-18cf-4ba2-a4b6-43fb4433d289","system_id":"levelo_inurba_marseille","lat":43.30892,"lon":5.39651,"is_reserved":false,"is_disabled":false,"rental_uris":{"android":"levelo://app?vid=9fc02e1b-18cf-4ba2-a4b6-43fb4433d289","ios":"levelo://app?vid=9fc02e1b-18cf-4ba2-a4b6-43fb4433d289"},"vehicle_type_id":"4","last_reported":1701281360,"current_range_meters":0,"station_id":"ce4bh012rcd13ifvqcv0","pricing_plan_id":"free"},{"bike_id":"4a09bbcc-4a9b-4e20-a1dd-dc2d704c2936","system_id":"levelo_inurba_marseille","lat":43.31331,"lon":5.397,"is_reserved":false,"is_disabled":false,"rental_uris":{"android":"levelo://app?vid=4a09bbcc-4a9b-4e20-a1dd-dc2d704c2936","ios":"levelo://app?vid=4a09bbcc-4a9b-4e20-a1dd-dc2d704c2936"},"vehicle_type_id":"4","last_reported":1701281360,"current_range_meters":0,"station_id":"ce4bgvp2rcd13ifvqcu0","pricing_plan_id":"free"},{"bike_id":"7a594fda-2858-47a7-aaf6-1b2723ff5767","system_id":"levelo_inurba_marseille","lat":43.302008,"lon":5.394694,"is_reserved":false,"is_disabled":false,"rental_uris":{"android":"levelo://app?vid=7a594fda-2858-47a7-aaf6-1b2723ff5767","ios":"levelo://app?vid=7a594fda-2858-47a7-aaf6-1b2723ff5767"},"vehicle_type_id":"4","last_reported":1701281360,"current_range_meters":11200,"station_id":"ce4bh0p2rcd13ifvqd70","pricing_plan_id":"free"},{"bike_id":"44e305a2-c7b1-4cf3-b61f-1328c9983c36","system_id":"levelo_inurba_marseille","lat":43.294153,"lon":5.386305,"is_reserved":false,"is_disabled":false,"rental_uris":{"android":"levelo://app?vid=44e305a2-c7b1-4cf3-b61f-1328c9983c36","ios":"levelo://app?vid=44e305a2-c7b1-4cf3-b61f-1328c9983c36"},"vehicle_type_id":"4","last_reported":1701281360,"current_range_meters":400,"station_id":"ce4bh2h2rcd13ifvqdh0","pricing_plan_id":"free"},{"bike_id":"ca477d51-7287-4bee-9a56-5014fa57e2fe","system_id":"levelo_inurba_marseille","lat":43.294162,"lon":5.386292,"is_reserved":false,"is_disabled":false,"rental_uris":{"android":"levelo://app?vid=ca477d51-7287-4bee-9a56-5014fa57e2fe","ios":"levelo://app?vid=ca477d51-7287-4bee-9a56-5014fa57e2fe"},"vehicle_type_id":"4","last_reported":1701281360,"current_range_meters":0,"station_id":"ce4bh2h2rcd13ifvqdh0","pricing_plan_id":"free"},{"bike_id":"78e46f09-b9db-4697-95df-a1f323ca3ceb","system_id":"levelo_inurba_marseille","lat":43.292644,"lon":5.384257,"is_reserved":false,"is_disabled":false,"rental_uris":{"android":"levelo://app?vid=78e46f09-b9db-4697-95df-a1f323ca3ceb","ios":"levelo://app?vid=78e46f09-b9db-4697-95df-a1f323ca3ceb"},"vehicle_type_id":"4","last_reported":1701281360,"current_range_meters":22800,"station_id":"ce4bh692rcd13ifvqea0","pricing_plan_id":"free"},{"bike_id":"bebe12e7-260f-4e34-bb53-85894ae12a40","system_id":"levelo_inurba_marseille","lat":43.304296,"lon":5.397513,"is_reserved":false,"is_disabled":false,"rental_uris":{"android":"levelo://app?vid=bebe12e7-260f-4e34-bb53-85894ae12a40","ios":"levelo://app?vid=bebe12e7-260f-4e34-bb53-85894ae12a40"},"vehicle_type_id":"4","last_reported":1701281360,"current_range_meters":1200,"station_id":"ce4bh092rcd13ifvqd20","pricing_plan_id":"free"},{"bike_id":"6fbaafce-95db-47ae-a4c6-ed990f93de13","system_id":"levelo_inurba_marseille","lat":43.292644,"lon":5.384257,"is_reserved":false,"is_disabled":false,"rental_uris":{"android":"levelo://app?vid=6fbaafce-95db-47ae-a4c6-ed990f93de13","ios":"levelo://app?vid=6fbaafce-95db-47ae-a4c6-ed990f93de13"},"vehicle_type_id":"4","last_reported":1701281360,"current_range_meters":4800,"station_id":"ce4bh692rcd13ifvqea0","pricing_plan_id":"free"},{"bike_id":"d599b142-0570-4a4d-adf0-3d3996523e32","system_id":"levelo_inurba_marseille","lat":43.290104,"lon":5.356111,"is_reserved":false,"is_disabled":false,"rental_uris":{"android":"levelo://app?vid=d599b142-0570-4a4d-adf0-3d3996523e32","ios":"levelo://app?vid=d599b142-0570-4a4d-adf0-3d3996523e32"},"vehicle_type_id":"4","last_reported":1701281360,"current_range_meters":3200,"station_id":"ce4bhb92rcd13ifvqen0","pricing_plan_id":"free"},{"bike_id":"d43e64cf-2217-47ec-8e96-5cd098a028ae","system_id":"levelo_inurba_marseille","lat":43.290104,"lon":5.356111,"is_reserved":false,"is_disabled":false,"rental_uris":{"android":"levelo://app?vid=d43e64cf-2217-47ec-8e96-5cd098a028ae","ios":"levelo://app?vid=d43e64cf-2217-47ec-8e96-5cd098a028ae"},"vehicle_type_id":"4","last_reported":1701281360,"current_range_meters":14800,"station_id":"ce4bhb92rcd13ifvqen0","pricing_plan_id":"free"},{"bike_id":"4d89dcc4-32a5-4a98-bb1e-6455723b165a","system_id":"levelo_inurba_marseille","lat":43.29004,"lon":5.35615,"is_reserved":false,"is_disabled":false,"rental_uris":{"android":"levelo://app?vid=4d89dcc4-32a5-4a98-bb1e-6455723b165a","ios":"levelo://app?vid=4d89dcc4-32a5-4a98-bb1e-6455723b165a"},"vehicle_type_id":"4","last_reported":1701281360,"current_range_meters":24000,"station_id":"ce4bhb92rcd13ifvqen0","pricing_plan_id":"free"},{"bike_id":"02720b14-e66b-4df6-8840-59c72969bafe","system_id":"levelo_inurba_marseille","lat":43.295169,"lon":5.390426,"is_reserved":false,"is_disabled":false,"rental_uris":{"android":"levelo://app?vid=02720b14-e66b-4df6-8840-59c72969bafe","ios":"levelo://app?vid=02720b14-e66b-4df6-8840-59c72969bafe"},"vehicle_type_id":"4","last_reported":1701281360,"current_range_meters":21200,"station_id":"ce4bh3p2rcd13ifvqdp0","pricing_plan_id":"free"},{"bike_id":"bd5a5c31-6495-426c-82e9-f1d928ff8b17","system_id":"levelo_inurba_marseille","lat":43.28856,"lon":5.358371,"is_reserved":false,"is_disabled":false,"rental_uris":{"android":"levelo://app?vid=bd5a5c31-6495-426c-82e9-f1d928ff8b17","ios":"levelo://app?vid=bd5a5c31-6495-426c-82e9-f1d928ff8b17"},"vehicle_type_id":"4","last_reported":1701281360,"current_range_meters":2800,"station_id":"ce4bhb12rcd13ifvqem0","pricing_plan_id":"free"},{"bike_id":"fb7aa3a5-ca37-4bac-bdbb-c731879eb205","system_id":"levelo_inurba_marseille","lat":43.28856,"lon":5.358371,"is_reserved":false,"is_disabled":false,"rental_uris":{"android":"levelo://app?vid=fb7aa3a5-ca37-4bac-bdbb-c731879eb205","ios":"levelo://app?vid=fb7aa3a5-ca37-4bac-bdbb-c731879eb205"},"vehicle_type_id":"4","last_reported":1701281360,"current_range_meters":6400,"station_id":"ce4bhb12rcd13ifvqem0","pricing_plan_id":"free"},{"bike_id":"ad769a60-5c19-4a7f-a268-702485fc2e0a","system_id":"levelo_inurba_marseille","lat":43.30927,"lon":5.40143,"is_reserved":false,"is_disabled":false,"rental_uris":{"android":"levelo://app?vid=ad769a60-5c19-4a7f-a268-702485fc2e0a","ios":"levelo://app?vid=ad769a60-5c19-4a7f-a268-702485fc2e0a"},"vehicle_type_id":"4","last_reported":1701281360,"current_range_meters":13200,"station_id":"ce4bgvp2rcd13ifvqct0","pricing_plan_id":"free"},{"bike_id":"959c7334-9895-402a-ad4a-727ec9a0454a","system_id":"levelo_inurba_marseille","lat":43.33754,"lon":5.37451,"is_reserved":false,"is_disabled":false,"rental_uris":{"android":"levelo://app?vid=959c7334-9895-402a-ad4a-727ec9a0454a","ios":"levelo://app?vid=959c7334-9895-402a-ad4a-727ec9a0454a"},"vehicle_type_id":"4","last_reported":1701281360,"current_range_meters":29600,"station_id":"","pricing_plan_id":"free"},{"bike_id":"fb5f170d-2490-4436-87a6-bba2582b13d8","system_id":"levelo_inurba_marseille","lat":43.33759,"lon":5.37443,"is_reserved":false,"is_disabled":false,"rental_uris":{"android":"levelo://app?vid=fb5f170d-2490-4436-87a6-bba2582b13d8","ios":"levelo://app?vid=fb5f170d-2490-4436-87a6-bba2582b13d8"},"vehicle_type_id":"4","last_reported":1701281360,"current_range_meters":20400,"station_id":"","pricing_plan_id":"free"},{"bike_id":"2cec37ad-d364-437e-a188-b08ae63ae513","system_id":"levelo_inurba_marseille","lat":43.301117,"lon":5.398795,"is_reserved":false,"is_disabled":false,"rental_uris":{"android":"levelo://app?vid=2cec37ad-d364-437e-a188-b08ae63ae513","ios":"levelo://app?vid=2cec37ad-d364-437e-a188-b08ae63ae513"},"vehicle_type_id":"4","last_reported":1701281360,"current_range_meters":6000,"station_id":"ce4bh0h2rcd13ifvqd40","pricing_plan_id":"free"},{"bike_id":"b6bfb40e-65a1-492e-a856-c0fc1d572b89","system_id":"levelo_inurba_marseille","lat":43.298681,"lon":5.397225,"is_reserved":false,"is_disabled":false,"rental_uris":{"android":"levelo://app?vid=b6bfb40e-65a1-492e-a856-c0fc1d572b89","ios":"levelo://app?vid=b6bfb40e-65a1-492e-a856-c0fc1d572b89"},"vehicle_type_id":"4","last_reported":1701281360,"current_range_meters":11600,"station_id":"ce4bh0h2rcd13ifvqd50","pricing_plan_id":"free"},{"bike_id":"17ae8ca7-1b25-4081-b0e8-716a3e0500b9","system_id":"levelo_inurba_marseille","lat":43.2987,"lon":5.397447,"is_reserved":false,"is_disabled":false,"rental_uris":{"android":"levelo://app?vid=17ae8ca7-1b25-4081-b0e8-716a3e0500b9","ios":"levelo://app?vid=17ae8ca7-1b25-4081-b0e8-716a3e0500b9"},"vehicle_type_id":"4","last_reported":1701281360,"current_range_meters":22000,"station_id":"ce4bh0h2rcd13ifvqd50","pricing_plan_id":"free"},{"bike_id":"da2ea852-6412-4b4b-bfee-193e64755186","system_id":"levelo_inurba_marseille","lat":43.302759,"lon":5.400793,"is_reserved":false,"is_disabled":false,"rental_uris":{"android":"levelo://app?vid=da2ea852-6412-4b4b-bfee-193e64755186","ios":"levelo://app?vid=da2ea852-6412-4b4b-bfee-193e64755186"},"vehicle_type_id":"4","last_reported":1701281360,"current_range_meters":18000,"station_id":"ce4bgvh2rcd13ifvqcs0","pricing_plan_id":"free"},{"bike_id":"f2ea8347-169c-407b-9d96-4e377f679873","system_id":"levelo_inurba_marseille","lat":43.29025,"lon":5.38637,"is_reserved":false,"is_disabled":false,"rental_uris":{"android":"levelo://app?vid=f2ea8347-169c-407b-9d96-4e377f679873","ios":"levelo://app?vid=f2ea8347-169c-407b-9d96-4e377f679873"},"vehicle_type_id":"4","last_reported":1701281360,"current_range_meters":19200,"station_id":"","pricing_plan_id":"free"},{"bike_id":"f049f5e4-fa99-435e-88c9-976a5ac05bf8","system_id":"levelo_inurba_marseille","lat":43.30249,"lon":5.40072,"is_reserved":false,"is_disabled":false,"rental_uris":{"android":"levelo://app?vid=f049f5e4-fa99-435e-88c9-976a5ac05bf8","ios":"levelo://app?vid=f049f5e4-fa99-435e-88c9-976a5ac05bf8"},"vehicle_type_id":"4","last_reported":1701281360,"current_range_meters":18800,"station_id":"ce4bgvh2rcd13ifvqcs0","pricing_plan_id":"free"},{"bike_id":"954f4efa-609b-491c-b070-69b1a37e943b","system_id":"levelo_inurba_marseille","lat":43.286039,"lon":5.370679,"is_reserved":false,"is_disabled":false,"rental_uris":{"android":"levelo://app?vid=954f4efa-609b-491c-b070-69b1a37e943b","ios":"levelo://app?vid=954f4efa-609b-491c-b070-69b1a37e943b"},"vehicle_type_id":"4","last_reported":1701281360,"current_range_meters":10800,"station_id":"ce4bht12rcd13ifvqi60","pricing_plan_id":"free"},{"bike_id":"6cab62b9-f3a7-4f2c-a493-5a6b2281dd48","system_id":"levelo_inurba_marseille","lat":43.291994,"lon":5.392907,"is_reserved":false,"is_disabled":false,"rental_uris":{"android":"levelo://app?vid=6cab62b9-f3a7-4f2c-a493-5a6b2281dd48","ios":"levelo://app?vid=6cab62b9-f3a7-4f2c-a493-5a6b2281dd48"},"vehicle_type_id":"4","last_reported":1701281360,"current_range_meters":0,"station_id":"ce4bh192rcd13ifvqdd0","pricing_plan_id":"free"},{"bike_id":"02fcc584-c8b8-4992-9f27-1b91b53f8229","system_id":"levelo_inurba_marseille","lat":43.28462,"lon":5.35899,"is_reserved":false,"is_disabled":false,"rental_uris":{"android":"levelo://app?vid=02fcc584-c8b8-4992-9f27-1b91b53f8229","ios":"levelo://app?vid=02fcc584-c8b8-4992-9f27-1b91b53f8229"},"vehicle_type_id":"4","last_reported":1701281360,"current_range_meters":0,"station_id":"ce4bhah2rcd13ifvqei0","pricing_plan_id":"free"},{"bike_id":"bce8683f-c779-4be1-a388-197e44b65b21","system_id":"levelo_inurba_marseille","lat":43.28462,"lon":5.358905,"is_reserved":false,"is_disabled":false,"rental_uris":{"android":"levelo://app?vid=bce8683f-c779-4be1-a388-197e44b65b21","ios":"levelo://app?vid=bce8683f-c779-4be1-a388-197e44b65b21"},"vehicle_type_id":"4","last_reported":1701281360,"current_range_meters":5600,"station_id":"ce4bhah2rcd13ifvqei0","pricing_plan_id":"free"},{"bike_id":"2c8fe754-f892-4e3d-9d6e-cfcf2f3ab48d","system_id":"levelo_inurba_marseille","lat":43.284534,"lon":5.358662,"is_reserved":false,"is_disabled":false,"rental_uris":{"android":"levelo://app?vid=2c8fe754-f892-4e3d-9d6e-cfcf2f3ab48d","ios":"levelo://app?vid=2c8fe754-f892-4e3d-9d6e-cfcf2f3ab48d"},"vehicle_type_id":"4","last_reported":1701281360,"current_range_meters":0,"station_id":"ce4bhah2rcd13ifvqei0","pricing_plan_id":"free"},{"bike_id":"1f1ca563-358a-4120-8cd6-64730c1d51af","system_id":"levelo_inurba_marseille","lat":43.284538,"lon":5.358657,"is_reserved":false,"is_disabled":false,"rental_uris":{"android":"levelo://app?vid=1f1ca563-358a-4120-8cd6-64730c1d51af","ios":"levelo://app?vid=1f1ca563-358a-4120-8cd6-64730c1d51af"},"vehicle_type_id":"4","last_reported":1701281360,"current_range_meters":19600,"station_id":"ce4bhah2rcd13ifvqei0","pricing_plan_id":"free"},{"bike_id":"52f300b5-2517-4d60-bf42-81013e1d3c7a","system_id":"levelo_inurba_marseille","lat":43.284538,"lon":5.358657,"is_reserved":false,"is_disabled":false,"rental_uris":{"android":"levelo://app?vid=52f300b5-2517-4d60-bf42-81013e1d3c7a","ios":"levelo://app?vid=52f300b5-2517-4d60-bf42-81013e1d3c7a"},"vehicle_type_id":"4","last_reported":1701281360,"current_range_meters":28400,"station_id":"ce4bhah2rcd13ifvqei0","pricing_plan_id":"free"},{"bike_id":"d52fa670-44e0-45af-8592-3ec1e05b6b9d","system_id":"levelo_inurba_marseille","lat":43.284534,"lon":5.358662,"is_reserved":false,"is_disabled":false,"rental_uris":{"android":"levelo://app?vid=d52fa670-44e0-45af-8592-3ec1e05b6b9d","ios":"levelo://app?vid=d52fa670-44e0-45af-8592-3ec1e05b6b9d"},"vehicle_type_id":"4","last_reported":1701281360,"current_range_meters":10400,"station_id":"ce4bhah2rcd13ifvqei0","pricing_plan_id":"free"},{"bike_id":"01a10890-a98c-4a91-abe5-efec6518afe3","system_id":"levelo_inurba_marseille","lat":43.285856,"lon":5.350771,"is_reserved":false,"is_disabled":false,"rental_uris":{"android":"levelo://app?vid=01a10890-a98c-4a91-abe5-efec6518afe3","ios":"levelo://app?vid=01a10890-a98c-4a91-abe5-efec6518afe3"},"vehicle_type_id":"4","last_reported":1701281360,"current_range_meters":19200,"station_id":"ce4bhch2rcd13ifvqeug","pricing_plan_id":"free"},{"bike_id":"f9601311-7b5a-45ca-b201-3634bd08062d","system_id":"levelo_inurba_marseille","lat":43.28615,"lon":5.35101,"is_reserved":false,"is_disabled":false,"rental_uris":{"android":"levelo://app?vid=f9601311-7b5a-45ca-b201-3634bd08062d","ios":"levelo://app?vid=f9601311-7b5a-45ca-b201-3634bd08062d"},"vehicle_type_id":"4","last_reported":1701281360,"current_range_meters":20800,"station_id":"ce4bhch2rcd13ifvqeug","pricing_plan_id":"free"},{"bike_id":"d218de44-a2f2-4963-a66e-7c4ed2783986","system_id":"levelo_inurba_marseille","lat":43.283998,"lon":5.375062,"is_reserved":false,"is_disabled":false,"rental_uris":{"android":"levelo://app?vid=d218de44-a2f2-4963-a66e-7c4ed2783986","ios":"levelo://app?vid=d218de44-a2f2-4963-a66e-7c4ed2783986"},"vehicle_type_id":"4","last_reported":1701281360,"current_range_meters":21200,"station_id":"ce4bh412rcd13ifvqds0","pricing_plan_id":"free"},{"bike_id":"2dfcd6c0-d476-407d-8e90-41fa43af57fa","system_id":"levelo_inurba_marseille","lat":43.283998,"lon":5.375062,"is_reserved":false,"is_disabled":false,"rental_uris":{"android":"levelo://app?vid=2dfcd6c0-d476-407d-8e90-41fa43af57fa","ios":"levelo://app?vid=2dfcd6c0-d476-407d-8e90-41fa43af57fa"},"vehicle_type_id":"4","last_reported":1701281360,"current_range_meters":10400,"station_id":"ce4bh412rcd13ifvqds0","pricing_plan_id":"free"},{"bike_id":"b782336d-a541-49ec-bb03-fbc45fcd275e","system_id":"levelo_inurba_marseille","lat":43.283998,"lon":5.375062,"is_reserved":false,"is_disabled":false,"rental_uris":{"android":"levelo://app?vid=b782336d-a541-49ec-bb03-fbc45fcd275e","ios":"levelo://app?vid=b782336d-a541-49ec-bb03-fbc45fcd275e"},"vehicle_type_id":"4","last_reported":1701281360,"current_range_meters":13200,"station_id":"ce4bh412rcd13ifvqds0","pricing_plan_id":"free"},{"bike_id":"75b1cbf6-d895-4c6a-8f34-221692971604","system_id":"levelo_inurba_marseille","lat":43.283998,"lon":5.375062,"is_reserved":false,"is_disabled":false,"rental_uris":{"android":"levelo://app?vid=75b1cbf6-d895-4c6a-8f34-221692971604","ios":"levelo://app?vid=75b1cbf6-d895-4c6a-8f34-221692971604"},"vehicle_type_id":"4","last_reported":1701281360,"current_range_meters":8400,"station_id":"ce4bh412rcd13ifvqds0","pricing_plan_id":"free"},{"bike_id":"0451e31b-05a2-4899-b146-dd8a99fff120","system_id":"levelo_inurba_marseille","lat":43.286595,"lon":5.386795,"is_reserved":false,"is_disabled":false,"rental_uris":{"android":"levelo://app?vid=0451e31b-05a2-4899-b146-dd8a99fff120","ios":"levelo://app?vid=0451e31b-05a2-4899-b146-dd8a99fff120"},"vehicle_type_id":"4","last_reported":1701281360,"current_range_meters":4800,"station_id":"ce4bh492rcd13ifvqdug","pricing_plan_id":"free"},{"bike_id":"3ea87625-3037-47e2-b826-b0d3479b5cb1","system_id":"levelo_inurba_marseille","lat":43.288485,"lon":5.393227,"is_reserved":false,"is_disabled":false,"rental_uris":{"android":"levelo://app?vid=3ea87625-3037-47e2-b826-b0d3479b5cb1","ios":"levelo://app?vid=3ea87625-3037-47e2-b826-b0d3479b5cb1"},"vehicle_type_id":"4","last_reported":1701281360,"current_range_meters":4800,"station_id":"","pricing_plan_id":"free"},{"bike_id":"93c0e140-4249-4ce3-b832-517358680cbb","system_id":"levelo_inurba_marseille","lat":43.283494,"lon":5.380945,"is_reserved":false,"is_disabled":false,"rental_uris":{"android":"levelo://app?vid=93c0e140-4249-4ce3-b832-517358680cbb","ios":"levelo://app?vid=93c0e140-4249-4ce3-b832-517358680cbb"},"vehicle_type_id":"4","last_reported":1701281360,"current_range_meters":4000,"station_id":"ce4bh412rcd13ifvqdr0","pricing_plan_id":"free"},{"bike_id":"7667d5c8-f1ad-4b55-8adb-6fc16e98062c","system_id":"levelo_inurba_marseille","lat":43.283494,"lon":5.380945,"is_reserved":false,"is_disabled":false,"rental_uris":{"android":"levelo://app?vid=7667d5c8-f1ad-4b55-8adb-6fc16e98062c","ios":"levelo://app?vid=7667d5c8-f1ad-4b55-8adb-6fc16e98062c"},"vehicle_type_id":"4","last_reported":1701281360,"current_range_meters":13600,"station_id":"ce4bh412rcd13ifvqdr0","pricing_plan_id":"free"},{"bike_id":"d2120d76-0fad-47eb-b244-dc59d199f1f4","system_id":"levelo_inurba_marseille","lat":43.33343,"lon":5.398677,"is_reserved":false,"is_disabled":false,"rental_uris":{"android":"levelo://app?vid=d2120d76-0fad-47eb-b244-dc59d199f1f4","ios":"levelo://app?vid=d2120d76-0fad-47eb-b244-dc59d199f1f4"},"vehicle_type_id":"4","last_reported":1701281360,"current_range_meters":2000,"station_id":"","pricing_plan_id":"free"},{"bike_id":"ae20ad0f-a53b-4115-b8ff-40952e32b19e","system_id":"levelo_inurba_marseille","lat":43.283498,"lon":5.380948,"is_reserved":false,"is_disabled":false,"rental_uris":{"android":"levelo://app?vid=ae20ad0f-a53b-4115-b8ff-40952e32b19e","ios":"levelo://app?vid=ae20ad0f-a53b-4115-b8ff-40952e32b19e"},"vehicle_type_id":"4","last_reported":1701281360,"current_range_meters":5200,"station_id":"ce4bh412rcd13ifvqdr0","pricing_plan_id":"free"},{"bike_id":"3d0858c7-ef53-48c7-aeb0-415dc6f87d92","system_id":"levelo_inurba_marseille","lat":43.292724,"lon":5.401131,"is_reserved":false,"is_disabled":false,"rental_uris":{"android":"levelo://app?vid=3d0858c7-ef53-48c7-aeb0-415dc6f87d92","ios":"levelo://app?vid=3d0858c7-ef53-48c7-aeb0-415dc6f87d92"},"vehicle_type_id":"4","last_reported":1701281360,"current_range_meters":800,"station_id":"ce4bh312rcd13ifvqdk0","pricing_plan_id":"free"},{"bike_id":"327b52cd-8557-4581-b8ce-25f046e2373c","system_id":"levelo_inurba_marseille","lat":43.283502,"lon":5.386471,"is_reserved":false,"is_disabled":false,"rental_uris":{"android":"levelo://app?vid=327b52cd-8557-4581-b8ce-25f046e2373c","ios":"levelo://app?vid=327b52cd-8557-4581-b8ce-25f046e2373c"},"vehicle_type_id":"4","last_reported":1701281360,"current_range_meters":17200,"station_id":"ce4bh492rcd13ifvqdvg","pricing_plan_id":"free"},{"bike_id":"57779e04-8afa-4377-95b2-da8342b685c2","system_id":"levelo_inurba_marseille","lat":43.282754,"lon":5.350519,"is_reserved":false,"is_disabled":false,"rental_uris":{"android":"levelo://app?vid=57779e04-8afa-4377-95b2-da8342b685c2","ios":"levelo://app?vid=57779e04-8afa-4377-95b2-da8342b685c2"},"vehicle_type_id":"4","last_reported":1701281360,"current_range_meters":0,"station_id":"ce4bhbp2rcd13ifvqerg","pricing_plan_id":"free"},{"bike_id":"275d6402-0ea6-4af0-8fc5-9b35462d469f","system_id":"levelo_inurba_marseille","lat":43.280382,"lon":5.369291,"is_reserved":false,"is_disabled":false,"rental_uris":{"android":"levelo://app?vid=275d6402-0ea6-4af0-8fc5-9b35462d469f","ios":"levelo://app?vid=275d6402-0ea6-4af0-8fc5-9b35462d469f"},"vehicle_type_id":"4","last_reported":1701281360,"current_range_meters":4400,"station_id":"ce4bha12rcd13ifvqef0","pricing_plan_id":"free"},{"bike_id":"f3edfa28-1f6b-4879-b4f7-158bdbbdee95","system_id":"levelo_inurba_marseille","lat":43.280382,"lon":5.369291,"is_reserved":false,"is_disabled":false,"rental_uris":{"android":"levelo://app?vid=f3edfa28-1f6b-4879-b4f7-158bdbbdee95","ios":"levelo://app?vid=f3edfa28-1f6b-4879-b4f7-158bdbbdee95"},"vehicle_type_id":"4","last_reported":1701281360,"current_range_meters":24800,"station_id":"ce4bha12rcd13ifvqef0","pricing_plan_id":"free"},{"bike_id":"730d6574-35f2-4c7e-a4c2-72ac67eb3b70","system_id":"levelo_inurba_marseille","lat":43.280382,"lon":5.369291,"is_reserved":false,"is_disabled":false,"rental_uris":{"android":"levelo://app?vid=730d6574-35f2-4c7e-a4c2-72ac67eb3b70","ios":"levelo://app?vid=730d6574-35f2-4c7e-a4c2-72ac67eb3b70"},"vehicle_type_id":"4","last_reported":1701281360,"current_range_meters":15600,"station_id":"ce4bha12rcd13ifvqef0","pricing_plan_id":"free"},{"bike_id":"f6ebb7a9-b097-4f65-bad2-e6900739b283","system_id":"levelo_inurba_marseille","lat":43.28039,"lon":5.369297,"is_reserved":false,"is_disabled":false,"rental_uris":{"android":"levelo://app?vid=f6ebb7a9-b097-4f65-bad2-e6900739b283","ios":"levelo://app?vid=f6ebb7a9-b097-4f65-bad2-e6900739b283"},"vehicle_type_id":"4","last_reported":1701281360,"current_range_meters":28000,"station_id":"ce4bha12rcd13ifvqef0","pricing_plan_id":"free"},{"bike_id":"777c747e-0e3d-45c3-aed4-9d16d44c806e","system_id":"levelo_inurba_marseille","lat":43.28994,"lon":5.39894,"is_reserved":false,"is_disabled":false,"rental_uris":{"android":"levelo://app?vid=777c747e-0e3d-45c3-aed4-9d16d44c806e","ios":"levelo://app?vid=777c747e-0e3d-45c3-aed4-9d16d44c806e"},"vehicle_type_id":"4","last_reported":1701281360,"current_range_meters":0,"station_id":"","pricing_plan_id":"free"},{"bike_id":"d961d3ec-8875-4bd8-8d51-4024e9d78ed2","system_id":"levelo_inurba_marseille","lat":43.281044,"lon":5.378308,"is_reserved":false,"is_disabled":false,"rental_uris":{"android":"levelo://app?vid=d961d3ec-8875-4bd8-8d51-4024e9d78ed2","ios":"levelo://app?vid=d961d3ec-8875-4bd8-8d51-4024e9d78ed2"},"vehicle_type_id":"4","last_reported":1701281360,"current_range_meters":19600,"station_id":"ce4bha12rcd13ifvqee0","pricing_plan_id":"free"},{"bike_id":"98d78070-eec9-4a1b-ab75-52e6b8aeb6f1","system_id":"levelo_inurba_marseille","lat":43.281044,"lon":5.378308,"is_reserved":false,"is_disabled":false,"rental_uris":{"android":"levelo://app?vid=98d78070-eec9-4a1b-ab75-52e6b8aeb6f1","ios":"levelo://app?vid=98d78070-eec9-4a1b-ab75-52e6b8aeb6f1"},"vehicle_type_id":"4","last_reported":1701281360,"current_range_meters":31600,"station_id":"ce4bha12rcd13ifvqee0","pricing_plan_id":"free"},{"bike_id":"cf30d56c-e639-4ef7-90f0-ecdb92523cf7","system_id":"levelo_inurba_marseille","lat":43.284462,"lon":5.392121,"is_reserved":false,"is_disabled":false,"rental_uris":{"android":"levelo://app?vid=cf30d56c-e639-4ef7-90f0-ecdb92523cf7","ios":"levelo://app?vid=cf30d56c-e639-4ef7-90f0-ecdb92523cf7"},"vehicle_type_id":"4","last_reported":1701281360,"current_range_meters":26400,"station_id":"ce4bhoh2rcd13ifvqh5g","pricing_plan_id":"free"},{"bike_id":"0b351026-4ab6-4a77-8128-223daa590a9e","system_id":"levelo_inurba_marseille","lat":43.285742,"lon":5.395004,"is_reserved":false,"is_disabled":false,"rental_uris":{"android":"levelo://app?vid=0b351026-4ab6-4a77-8128-223daa590a9e","ios":"levelo://app?vid=0b351026-4ab6-4a77-8128-223daa590a9e"},"vehicle_type_id":"4","last_reported":1701281360,"current_range_meters":23200,"station_id":"ce4bh292rcd13ifvqdg0","pricing_plan_id":"free"},{"bike_id":"010d9f9f-5238-4fb9-b42b-e62d985c34ce","system_id":"levelo_inurba_marseille","lat":43.304188,"lon":5.412904,"is_reserved":false,"is_disabled":false,"rental_uris":{"android":"levelo://app?vid=010d9f9f-5238-4fb9-b42b-e62d985c34ce","ios":"levelo://app?vid=010d9f9f-5238-4fb9-b42b-e62d985c34ce"},"vehicle_type_id":"4","last_reported":1701281360,"current_range_meters":1600,"station_id":"ce4bhop2rcd13ifvqh8g","pricing_plan_id":"free"},{"bike_id":"fd8aa719-f666-48ee-9d54-2a479c02ee10","system_id":"levelo_inurba_marseille","lat":43.304188,"lon":5.412904,"is_reserved":false,"is_disabled":false,"rental_uris":{"android":"levelo://app?vid=fd8aa719-f666-48ee-9d54-2a479c02ee10","ios":"levelo://app?vid=fd8aa719-f666-48ee-9d54-2a479c02ee10"},"vehicle_type_id":"4","last_reported":1701281360,"current_range_meters":6800,"station_id":"ce4bhop2rcd13ifvqh8g","pricing_plan_id":"free"},{"bike_id":"83397cea-2635-43e5-b2fa-f1ab4be41b4c","system_id":"levelo_inurba_marseille","lat":43.27903,"lon":5.38019,"is_reserved":false,"is_disabled":false,"rental_uris":{"android":"levelo://app?vid=83397cea-2635-43e5-b2fa-f1ab4be41b4c","ios":"levelo://app?vid=83397cea-2635-43e5-b2fa-f1ab4be41b4c"},"vehicle_type_id":"4","last_reported":1701281360,"current_range_meters":0,"station_id":"ce4bhf92rcd13ifvqf50","pricing_plan_id":"free"},{"bike_id":"89411fcc-94d6-4a78-807c-6b29a3cbf631","system_id":"levelo_inurba_marseille","lat":43.279087,"lon":5.380114,"is_reserved":false,"is_disabled":false,"rental_uris":{"android":"levelo://app?vid=89411fcc-94d6-4a78-807c-6b29a3cbf631","ios":"levelo://app?vid=89411fcc-94d6-4a78-807c-6b29a3cbf631"},"vehicle_type_id":"4","last_reported":1701281360,"current_range_meters":22400,"station_id":"ce4bhf92rcd13ifvqf50","pricing_plan_id":"free"},{"bike_id":"9d9dde7c-a379-46ec-bd14-f3753880234a","system_id":"levelo_inurba_marseille","lat":43.287154,"lon":5.399979,"is_reserved":false,"is_disabled":false,"rental_uris":{"android":"levelo://app?vid=9d9dde7c-a379-46ec-bd14-f3753880234a","ios":"levelo://app?vid=9d9dde7c-a379-46ec-bd14-f3753880234a"},"vehicle_type_id":"4","last_reported":1701281360,"current_range_meters":0,"station_id":"ce4bho92rcd13ifvqh3g","pricing_plan_id":"free"},{"bike_id":"9bb9eaca-33d6-4c48-8c1d-d329d024fe0b","system_id":"levelo_inurba_marseille","lat":43.320045,"lon":5.415048,"is_reserved":false,"is_disabled":false,"rental_uris":{"android":"levelo://app?vid=9bb9eaca-33d6-4c48-8c1d-d329d024fe0b","ios":"levelo://app?vid=9bb9eaca-33d6-4c48-8c1d-d329d024fe0b"},"vehicle_type_id":"4","last_reported":1701281360,"current_range_meters":4800,"station_id":"ce4bhq92rcd13ifvqhkg","pricing_plan_id":"free"},{"bike_id":"cc4d4169-9d5e-403a-80b0-3d8bf4a25344","system_id":"levelo_inurba_marseille","lat":43.287154,"lon":5.399979,"is_reserved":false,"is_disabled":false,"rental_uris":{"android":"levelo://app?vid=cc4d4169-9d5e-403a-80b0-3d8bf4a25344","ios":"levelo://app?vid=cc4d4169-9d5e-403a-80b0-3d8bf4a25344"},"vehicle_type_id":"4","last_reported":1701281360,"current_range_meters":8400,"station_id":"ce4bho92rcd13ifvqh3g","pricing_plan_id":"free"},{"bike_id":"58f21121-c218-41b5-bcc6-3f208ebb7419","system_id":"levelo_inurba_marseille","lat":43.292571,"lon":5.409107,"is_reserved":false,"is_disabled":false,"rental_uris":{"android":"levelo://app?vid=58f21121-c218-41b5-bcc6-3f208ebb7419","ios":"levelo://app?vid=58f21121-c218-41b5-bcc6-3f208ebb7419"},"vehicle_type_id":"4","last_reported":1701281360,"current_range_meters":4800,"station_id":"ce4bh192rcd13ifvqdc0","pricing_plan_id":"free"},{"bike_id":"c8a7d8fa-856a-42ab-b389-55d5dfc4a19e","system_id":"levelo_inurba_marseille","lat":43.280784,"lon":5.396622,"is_reserved":false,"is_disabled":false,"rental_uris":{"android":"levelo://app?vid=c8a7d8fa-856a-42ab-b389-55d5dfc4a19e","ios":"levelo://app?vid=c8a7d8fa-856a-42ab-b389-55d5dfc4a19e"},"vehicle_type_id":"4","last_reported":1701281360,"current_range_meters":22400,"station_id":"ce4bho12rcd13ifvqh2g","pricing_plan_id":"free"},{"bike_id":"d555acc5-d5bf-4795-a798-f657e24ab2b0","system_id":"levelo_inurba_marseille","lat":43.280784,"lon":5.396622,"is_reserved":false,"is_disabled":false,"rental_uris":{"android":"levelo://app?vid=d555acc5-d5bf-4795-a798-f657e24ab2b0","ios":"levelo://app?vid=d555acc5-d5bf-4795-a798-f657e24ab2b0"},"vehicle_type_id":"4","last_reported":1701281360,"current_range_meters":20800,"station_id":"ce4bho12rcd13ifvqh2g","pricing_plan_id":"free"},{"bike_id":"0eb93a81-e8eb-4b25-bbe9-31c9cc6f18c5","system_id":"levelo_inurba_marseille","lat":43.278399,"lon":5.392139,"is_reserved":false,"is_disabled":false,"rental_uris":{"android":"levelo://app?vid=0eb93a81-e8eb-4b25-bbe9-31c9cc6f18c5","ios":"levelo://app?vid=0eb93a81-e8eb-4b25-bbe9-31c9cc6f18c5"},"vehicle_type_id":"4","last_reported":1701281360,"current_range_meters":400,"station_id":"ce4bhjp2rcd13ifvqga0","pricing_plan_id":"free"},{"bike_id":"f24bc288-73f9-4d38-b2ff-bbd72ec4c6da","system_id":"levelo_inurba_marseille","lat":43.2784,"lon":5.3921,"is_reserved":false,"is_disabled":false,"rental_uris":{"android":"levelo://app?vid=f24bc288-73f9-4d38-b2ff-bbd72ec4c6da","ios":"levelo://app?vid=f24bc288-73f9-4d38-b2ff-bbd72ec4c6da"},"vehicle_type_id":"4","last_reported":1701281360,"current_range_meters":0,"station_id":"ce4bhjp2rcd13ifvqga0","pricing_plan_id":"free"},{"bike_id":"0a049d50-b041-4147-af81-584cd5aff2e6","system_id":"levelo_inurba_marseille","lat":43.278401,"lon":5.392152,"is_reserved":false,"is_disabled":false,"rental_uris":{"android":"levelo://app?vid=0a049d50-b041-4147-af81-584cd5aff2e6","ios":"levelo://app?vid=0a049d50-b041-4147-af81-584cd5aff2e6"},"vehicle_type_id":"4","last_reported":1701281360,"current_range_meters":15200,"station_id":"ce4bhjp2rcd13ifvqga0","pricing_plan_id":"free"},{"bike_id":"296f705c-8804-4ce5-861e-e9c04f4fe098","system_id":"levelo_inurba_marseille","lat":43.278399,"lon":5.392139,"is_reserved":false,"is_disabled":false,"rental_uris":{"android":"levelo://app?vid=296f705c-8804-4ce5-861e-e9c04f4fe098","ios":"levelo://app?vid=296f705c-8804-4ce5-861e-e9c04f4fe098"},"vehicle_type_id":"4","last_reported":1701281360,"current_range_meters":13200,"station_id":"ce4bhjp2rcd13ifvqga0","pricing_plan_id":"free"},{"bike_id":"f446fc7b-7371-4f46-a6d1-ad41abff8e72","system_id":"levelo_inurba_marseille","lat":43.278399,"lon":5.392139,"is_reserved":false,"is_disabled":false,"rental_uris":{"android":"levelo://app?vid=f446fc7b-7371-4f46-a6d1-ad41abff8e72","ios":"levelo://app?vid=f446fc7b-7371-4f46-a6d1-ad41abff8e72"},"vehicle_type_id":"4","last_reported":1701281360,"current_range_meters":8800,"station_id":"ce4bhjp2rcd13ifvqga0","pricing_plan_id":"free"},{"bike_id":"96c0ee03-bed2-400b-9f0a-86ee56de7e86","system_id":"levelo_inurba_marseille","lat":43.275625,"lon":5.384392,"is_reserved":false,"is_disabled":false,"rental_uris":{"android":"levelo://app?vid=96c0ee03-bed2-400b-9f0a-86ee56de7e86","ios":"levelo://app?vid=96c0ee03-bed2-400b-9f0a-86ee56de7e86"},"vehicle_type_id":"4","last_reported":1701281360,"current_range_meters":9200,"station_id":"ce4bhh92rcd13ifvqfi0","pricing_plan_id":"free"},{"bike_id":"4a99b6f4-4cec-462e-9dff-0a802b155fad","system_id":"levelo_inurba_marseille","lat":43.276769,"lon":5.388787,"is_reserved":false,"is_disabled":false,"rental_uris":{"android":"levelo://app?vid=4a99b6f4-4cec-462e-9dff-0a802b155fad","ios":"levelo://app?vid=4a99b6f4-4cec-462e-9dff-0a802b155fad"},"vehicle_type_id":"4","last_reported":1701281360,"current_range_meters":1600,"station_id":"ce4bhi12rcd13ifvqfo0","pricing_plan_id":"free"},{"bike_id":"11344069-1894-4a16-bf66-7a61c4c360c1","system_id":"levelo_inurba_marseille","lat":43.275625,"lon":5.384392,"is_reserved":false,"is_disabled":false,"rental_uris":{"android":"levelo://app?vid=11344069-1894-4a16-bf66-7a61c4c360c1","ios":"levelo://app?vid=11344069-1894-4a16-bf66-7a61c4c360c1"},"vehicle_type_id":"4","last_reported":1701281360,"current_range_meters":20800,"station_id":"ce4bhh92rcd13ifvqfi0","pricing_plan_id":"free"},{"bike_id":"2ff8d530-edfd-4dcb-b395-370a78501d2b","system_id":"levelo_inurba_marseille","lat":43.27592,"lon":5.38938,"is_reserved":false,"is_disabled":false,"rental_uris":{"android":"levelo://app?vid=2ff8d530-edfd-4dcb-b395-370a78501d2b","ios":"levelo://app?vid=2ff8d530-edfd-4dcb-b395-370a78501d2b"},"vehicle_type_id":"4","last_reported":1701281360,"current_range_meters":26800,"station_id":"","pricing_plan_id":"free"},{"bike_id":"87aebced-b45d-4985-9a93-633d9470d2eb","system_id":"levelo_inurba_marseille","lat":43.279952,"lon":5.400085,"is_reserved":false,"is_disabled":false,"rental_uris":{"android":"levelo://app?vid=87aebced-b45d-4985-9a93-633d9470d2eb","ios":"levelo://app?vid=87aebced-b45d-4985-9a93-633d9470d2eb"},"vehicle_type_id":"4","last_reported":1701281360,"current_range_meters":18400,"station_id":"ce4bho92rcd13ifvqh4g","pricing_plan_id":"free"},{"bike_id":"f3d8b928-76ed-4254-92d8-6ae044be212c","system_id":"levelo_inurba_marseille","lat":43.279952,"lon":5.400085,"is_reserved":false,"is_disabled":false,"rental_uris":{"android":"levelo://app?vid=f3d8b928-76ed-4254-92d8-6ae044be212c","ios":"levelo://app?vid=f3d8b928-76ed-4254-92d8-6ae044be212c"},"vehicle_type_id":"4","last_reported":1701281360,"current_range_meters":31200,"station_id":"ce4bho92rcd13ifvqh4g","pricing_plan_id":"free"},{"bike_id":"69074476-d243-4f41-9b35-a2ca1c437551","system_id":"levelo_inurba_marseille","lat":43.317121,"lon":5.423936,"is_reserved":false,"is_disabled":false,"rental_uris":{"android":"levelo://app?vid=69074476-d243-4f41-9b35-a2ca1c437551","ios":"levelo://app?vid=69074476-d243-4f41-9b35-a2ca1c437551"},"vehicle_type_id":"4","last_reported":1701281360,"current_range_meters":23600,"station_id":"ce4bhp92rcd13ifvqhbg","pricing_plan_id":"free"},{"bike_id":"424e844a-64fb-4c70-93b3-32bfdf9e396a","system_id":"levelo_inurba_marseille","lat":43.273125,"lon":5.390731,"is_reserved":false,"is_disabled":false,"rental_uris":{"android":"levelo://app?vid=424e844a-64fb-4c70-93b3-32bfdf9e396a","ios":"levelo://app?vid=424e844a-64fb-4c70-93b3-32bfdf9e396a"},"vehicle_type_id":"4","last_reported":1701281360,"current_range_meters":0,"station_id":"ce4bhgp2rcd13ifvqfe0","pricing_plan_id":"free"},{"bike_id":"fd08ff47-e7cf-40ba-8990-cee2d0c12a08","system_id":"levelo_inurba_marseille","lat":43.274099,"lon":5.394019,"is_reserved":false,"is_disabled":false,"rental_uris":{"android":"levelo://app?vid=fd08ff47-e7cf-40ba-8990-cee2d0c12a08","ios":"levelo://app?vid=fd08ff47-e7cf-40ba-8990-cee2d0c12a08"},"vehicle_type_id":"4","last_reported":1701281360,"current_range_meters":7600,"station_id":"ce4bhdp2rcd13ifvqf20","pricing_plan_id":"free"},{"bike_id":"4c433f1d-9cbf-4c8a-8755-69e9d2ccc789","system_id":"levelo_inurba_marseille","lat":43.304096,"lon":5.425385,"is_reserved":false,"is_disabled":false,"rental_uris":{"android":"levelo://app?vid=4c433f1d-9cbf-4c8a-8755-69e9d2ccc789","ios":"levelo://app?vid=4c433f1d-9cbf-4c8a-8755-69e9d2ccc789"},"vehicle_type_id":"4","last_reported":1701281360,"current_range_meters":26400,"station_id":"ce4bhoh2rcd13ifvqh6g","pricing_plan_id":"free"},{"bike_id":"4629788e-4f7a-4103-b95e-583d0b30f54b","system_id":"levelo_inurba_marseille","lat":43.27283,"lon":5.39092,"is_reserved":false,"is_disabled":false,"rental_uris":{"android":"levelo://app?vid=4629788e-4f7a-4103-b95e-583d0b30f54b","ios":"levelo://app?vid=4629788e-4f7a-4103-b95e-583d0b30f54b"},"vehicle_type_id":"4","last_reported":1701281360,"current_range_meters":0,"station_id":"ce4bhgp2rcd13ifvqfe0","pricing_plan_id":"free"},{"bike_id":"0120dbbf-4353-4df3-96d2-747d00c5e0f6","system_id":"levelo_inurba_marseille","lat":43.2952,"lon":5.42276,"is_reserved":false,"is_disabled":false,"rental_uris":{"android":"levelo://app?vid=0120dbbf-4353-4df3-96d2-747d00c5e0f6","ios":"levelo://app?vid=0120dbbf-4353-4df3-96d2-747d00c5e0f6"},"vehicle_type_id":"4","last_reported":1701281360,"current_range_meters":24000,"station_id":"ce4bhph2rcd13ifvqhdg","pricing_plan_id":"free"},{"bike_id":"7bcacaae-398b-4b8a-8632-1f6019ab9485","system_id":"levelo_inurba_marseille","lat":43.304274,"lon":5.388873,"is_reserved":false,"is_disabled":false,"rental_uris":{"android":"levelo://app?vid=7bcacaae-398b-4b8a-8632-1f6019ab9485","ios":"levelo://app?vid=7bcacaae-398b-4b8a-8632-1f6019ab9485"},"vehicle_type_id":"4","last_reported":1701281360,"current_range_meters":19200,"station_id":"ce4bgk12rcd13ifvqbi0","pricing_plan_id":"free"},{"bike_id":"cab2b387-5000-4451-b4ff-7c901b46c7d6","system_id":"levelo_inurba_marseille","lat":43.269467,"lon":5.386439,"is_reserved":false,"is_disabled":false,"rental_uris":{"android":"levelo://app?vid=cab2b387-5000-4451-b4ff-7c901b46c7d6","ios":"levelo://app?vid=cab2b387-5000-4451-b4ff-7c901b46c7d6"},"vehicle_type_id":"4","last_reported":1701281360,"current_range_meters":18400,"station_id":"ce4bhh92rcd13ifvqfh0","pricing_plan_id":"free"},{"bike_id":"54076147-df7c-4bc4-a8d6-b055c0c3f6f9","system_id":"levelo_inurba_marseille","lat":43.26554,"lon":5.3729,"is_reserved":false,"is_disabled":false,"rental_uris":{"android":"levelo://app?vid=54076147-df7c-4bc4-a8d6-b055c0c3f6f9","ios":"levelo://app?vid=54076147-df7c-4bc4-a8d6-b055c0c3f6f9"},"vehicle_type_id":"4","last_reported":1701281360,"current_range_meters":0,"station_id":"ce4bhg12rcd13ifvqf70","pricing_plan_id":"free"},{"bike_id":"678707f0-f18b-4526-938d-cbb54df77004","system_id":"levelo_inurba_marseille","lat":43.270787,"lon":5.399417,"is_reserved":false,"is_disabled":false,"rental_uris":{"android":"levelo://app?vid=678707f0-f18b-4526-938d-cbb54df77004","ios":"levelo://app?vid=678707f0-f18b-4526-938d-cbb54df77004"},"vehicle_type_id":"4","last_reported":1701281360,"current_range_meters":30400,"station_id":"","pricing_plan_id":"free"},{"bike_id":"b86dbd69-5cf9-4dd0-9316-a75973d7ca26","system_id":"levelo_inurba_marseille","lat":43.28,"lon":5.41659,"is_reserved":false,"is_disabled":false,"rental_uris":{"android":"levelo://app?vid=b86dbd69-5cf9-4dd0-9316-a75973d7ca26","ios":"levelo://app?vid=b86dbd69-5cf9-4dd0-9316-a75973d7ca26"},"vehicle_type_id":"4","last_reported":1701281360,"current_range_meters":20400,"station_id":"ce4bho12rcd13ifvqh1g","pricing_plan_id":"free"},{"bike_id":"da6ef7f0-750e-48d3-b61a-faf9efe941a0","system_id":"levelo_inurba_marseille","lat":43.27996,"lon":5.416624,"is_reserved":false,"is_disabled":false,"rental_uris":{"android":"levelo://app?vid=da6ef7f0-750e-48d3-b61a-faf9efe941a0","ios":"levelo://app?vid=da6ef7f0-750e-48d3-b61a-faf9efe941a0"},"vehicle_type_id":"4","last_reported":1701281360,"current_range_meters":18000,"station_id":"ce4bho12rcd13ifvqh1g","pricing_plan_id":"free"},{"bike_id":"5b8d6ebd-7a55-479a-89ac-ee7802dc6529","system_id":"levelo_inurba_marseille","lat":43.265714,"lon":5.372891,"is_reserved":false,"is_disabled":false,"rental_uris":{"android":"levelo://app?vid=5b8d6ebd-7a55-479a-89ac-ee7802dc6529","ios":"levelo://app?vid=5b8d6ebd-7a55-479a-89ac-ee7802dc6529"},"vehicle_type_id":"4","last_reported":1701281360,"current_range_meters":13600,"station_id":"ce4bhg12rcd13ifvqf70","pricing_plan_id":"free"},{"bike_id":"41bb4c7b-e964-49c7-9e0c-a0d7453b1535","system_id":"levelo_inurba_marseille","lat":43.265714,"lon":5.372891,"is_reserved":false,"is_disabled":false,"rental_uris":{"android":"levelo://app?vid=41bb4c7b-e964-49c7-9e0c-a0d7453b1535","ios":"levelo://app?vid=41bb4c7b-e964-49c7-9e0c-a0d7453b1535"},"vehicle_type_id":"4","last_reported":1701281360,"current_range_meters":6800,"station_id":"ce4bhg12rcd13ifvqf70","pricing_plan_id":"free"},{"bike_id":"b1d0d1da-bf10-438f-a3a9-2297c14626ff","system_id":"levelo_inurba_marseille","lat":43.265714,"lon":5.372891,"is_reserved":false,"is_disabled":false,"rental_uris":{"android":"levelo://app?vid=b1d0d1da-bf10-438f-a3a9-2297c14626ff","ios":"levelo://app?vid=b1d0d1da-bf10-438f-a3a9-2297c14626ff"},"vehicle_type_id":"4","last_reported":1701281360,"current_range_meters":8800,"station_id":"ce4bhg12rcd13ifvqf70","pricing_plan_id":"free"},{"bike_id":"6a70a29f-8075-4d0f-a727-6e87e65d74de","system_id":"levelo_inurba_marseille","lat":43.267966,"lon":5.393976,"is_reserved":false,"is_disabled":false,"rental_uris":{"android":"levelo://app?vid=6a70a29f-8075-4d0f-a727-6e87e65d74de","ios":"levelo://app?vid=6a70a29f-8075-4d0f-a727-6e87e65d74de"},"vehicle_type_id":"4","last_reported":1701281360,"current_range_meters":10000,"station_id":"ce4bhh12rcd13ifvqfg0","pricing_plan_id":"free"},{"bike_id":"c6379d7f-c0c5-44e8-ad09-9ea54b728abb","system_id":"levelo_inurba_marseille","lat":43.308051,"lon":5.43527,"is_reserved":false,"is_disabled":false,"rental_uris":{"android":"levelo://app?vid=c6379d7f-c0c5-44e8-ad09-9ea54b728abb","ios":"levelo://app?vid=c6379d7f-c0c5-44e8-ad09-9ea54b728abb"},"vehicle_type_id":"4","last_reported":1701281360,"current_range_meters":24400,"station_id":"ce4bhph2rcd13ifvqheg","pricing_plan_id":"free"},{"bike_id":"94656e69-49a6-4332-a7df-c8b3d9caa526","system_id":"levelo_inurba_marseille","lat":43.269236,"lon":5.402724,"is_reserved":false,"is_disabled":false,"rental_uris":{"android":"levelo://app?vid=94656e69-49a6-4332-a7df-c8b3d9caa526","ios":"levelo://app?vid=94656e69-49a6-4332-a7df-c8b3d9caa526"},"vehicle_type_id":"4","last_reported":1701281360,"current_range_meters":1200,"station_id":"cjm6bp8fraef2m0cb0m0","pricing_plan_id":"free"},{"bike_id":"f554caff-ea27-4c9a-835c-3ef548d12f07","system_id":"levelo_inurba_marseille","lat":43.317104,"lon":5.436818,"is_reserved":false,"is_disabled":false,"rental_uris":{"android":"levelo://app?vid=f554caff-ea27-4c9a-835c-3ef548d12f07","ios":"levelo://app?vid=f554caff-ea27-4c9a-835c-3ef548d12f07"},"vehicle_type_id":"4","last_reported":1701281360,"current_range_meters":5600,"station_id":"ce4bhp92rcd13ifvqhcg","pricing_plan_id":"free"},{"bike_id":"1c859d8c-6823-4772-9abb-da577a635321","system_id":"levelo_inurba_marseille","lat":43.317104,"lon":5.436818,"is_reserved":false,"is_disabled":false,"rental_uris":{"android":"levelo://app?vid=1c859d8c-6823-4772-9abb-da577a635321","ios":"levelo://app?vid=1c859d8c-6823-4772-9abb-da577a635321"},"vehicle_type_id":"4","last_reported":1701281360,"current_range_meters":20800,"station_id":"ce4bhp92rcd13ifvqhcg","pricing_plan_id":"free"},{"bike_id":"99d63533-62af-4498-b6d6-41c459d84925","system_id":"levelo_inurba_marseille","lat":43.317104,"lon":5.436818,"is_reserved":false,"is_disabled":false,"rental_uris":{"android":"levelo://app?vid=99d63533-62af-4498-b6d6-41c459d84925","ios":"levelo://app?vid=99d63533-62af-4498-b6d6-41c459d84925"},"vehicle_type_id":"4","last_reported":1701281360,"current_range_meters":22400,"station_id":"ce4bhp92rcd13ifvqhcg","pricing_plan_id":"free"},{"bike_id":"9bd45e5e-52fc-41b1-9dc3-7691501b0b47","system_id":"levelo_inurba_marseille","lat":43.271368,"lon":5.40928,"is_reserved":false,"is_disabled":false,"rental_uris":{"android":"levelo://app?vid=9bd45e5e-52fc-41b1-9dc3-7691501b0b47","ios":"levelo://app?vid=9bd45e5e-52fc-41b1-9dc3-7691501b0b47"},"vehicle_type_id":"4","last_reported":1701281360,"current_range_meters":11200,"station_id":"ce4bhl12rcd13ifvqgf0","pricing_plan_id":"free"},{"bike_id":"21a03390-fa51-48ce-b3df-632632e9af2b","system_id":"levelo_inurba_marseille","lat":43.298768,"lon":5.43643,"is_reserved":false,"is_disabled":false,"rental_uris":{"android":"levelo://app?vid=21a03390-fa51-48ce-b3df-632632e9af2b","ios":"levelo://app?vid=21a03390-fa51-48ce-b3df-632632e9af2b"},"vehicle_type_id":"4","last_reported":1701281360,"current_range_meters":15200,"station_id":"ce4bhpp2rcd13ifvqhfg","pricing_plan_id":"free"},{"bike_id":"0048fac2-56d5-4842-9efe-a79340b04119","system_id":"levelo_inurba_marseille","lat":43.298768,"lon":5.43643,"is_reserved":false,"is_disabled":false,"rental_uris":{"android":"levelo://app?vid=0048fac2-56d5-4842-9efe-a79340b04119","ios":"levelo://app?vid=0048fac2-56d5-4842-9efe-a79340b04119"},"vehicle_type_id":"4","last_reported":1701281360,"current_range_meters":15200,"station_id":"ce4bhpp2rcd13ifvqhfg","pricing_plan_id":"free"},{"bike_id":"6f84c55d-bb59-4e45-aace-0862fdfac904","system_id":"levelo_inurba_marseille","lat":43.298768,"lon":5.43643,"is_reserved":false,"is_disabled":false,"rental_uris":{"android":"levelo://app?vid=6f84c55d-bb59-4e45-aace-0862fdfac904","ios":"levelo://app?vid=6f84c55d-bb59-4e45-aace-0862fdfac904"},"vehicle_type_id":"4","last_reported":1701281360,"current_range_meters":10000,"station_id":"ce4bhpp2rcd13ifvqhfg","pricing_plan_id":"free"},{"bike_id":"cf79ef16-5b21-49cb-a587-4111e2745d6f","system_id":"levelo_inurba_marseille","lat":43.260219,"lon":5.37546,"is_reserved":false,"is_disabled":false,"rental_uris":{"android":"levelo://app?vid=cf79ef16-5b21-49cb-a587-4111e2745d6f","ios":"levelo://app?vid=cf79ef16-5b21-49cb-a587-4111e2745d6f"},"vehicle_type_id":"4","last_reported":1701281360,"current_range_meters":27600,"station_id":"ce4bhgh2rcd13ifvqfa0","pricing_plan_id":"free"},{"bike_id":"2cbd4b3c-d8dd-4b95-ac76-1323d53b4182","system_id":"levelo_inurba_marseille","lat":43.281548,"lon":5.42643,"is_reserved":false,"is_disabled":false,"rental_uris":{"android":"levelo://app?vid=2cbd4b3c-d8dd-4b95-ac76-1323d53b4182","ios":"levelo://app?vid=2cbd4b3c-d8dd-4b95-ac76-1323d53b4182"},"vehicle_type_id":"4","last_reported":1701281360,"current_range_meters":29600,"station_id":"ce4bhnh2rcd13ifvqgug","pricing_plan_id":"free"},{"bike_id":"6a423f92-9b07-4949-8514-2ee167e03bcf","system_id":"levelo_inurba_marseille","lat":43.281548,"lon":5.42643,"is_reserved":false,"is_disabled":false,"rental_uris":{"android":"levelo://app?vid=6a423f92-9b07-4949-8514-2ee167e03bcf","ios":"levelo://app?vid=6a423f92-9b07-4949-8514-2ee167e03bcf"},"vehicle_type_id":"4","last_reported":1701281360,"current_range_meters":28000,"station_id":"ce4bhnh2rcd13ifvqgug","pricing_plan_id":"free"},{"bike_id":"e065900e-2004-4fd5-9b99-974e8cea6bd2","system_id":"levelo_inurba_marseille","lat":43.281548,"lon":5.42643,"is_reserved":false,"is_disabled":false,"rental_uris":{"android":"levelo://app?vid=e065900e-2004-4fd5-9b99-974e8cea6bd2","ios":"levelo://app?vid=e065900e-2004-4fd5-9b99-974e8cea6bd2"},"vehicle_type_id":"4","last_reported":1701281360,"current_range_meters":9600,"station_id":"ce4bhnh2rcd13ifvqgug","pricing_plan_id":"free"},{"bike_id":"5d6c08b1-f1a5-4de3-874d-829b5159ed1d","system_id":"levelo_inurba_marseille","lat":43.281548,"lon":5.42643,"is_reserved":false,"is_disabled":false,"rental_uris":{"android":"levelo://app?vid=5d6c08b1-f1a5-4de3-874d-829b5159ed1d","ios":"levelo://app?vid=5d6c08b1-f1a5-4de3-874d-829b5159ed1d"},"vehicle_type_id":"4","last_reported":1701281360,"current_range_meters":10400,"station_id":"ce4bhnh2rcd13ifvqgug","pricing_plan_id":"free"},{"bike_id":"54e7103a-044b-433e-9f97-9f60b9ff0bee","system_id":"levelo_inurba_marseille","lat":43.281548,"lon":5.42643,"is_reserved":false,"is_disabled":false,"rental_uris":{"android":"levelo://app?vid=54e7103a-044b-433e-9f97-9f60b9ff0bee","ios":"levelo://app?vid=54e7103a-044b-433e-9f97-9f60b9ff0bee"},"vehicle_type_id":"4","last_reported":1701281360,"current_range_meters":13200,"station_id":"ce4bhnh2rcd13ifvqgug","pricing_plan_id":"free"},{"bike_id":"00d1bf49-5f2f-40eb-ba1c-6d61ac984990","system_id":"levelo_inurba_marseille","lat":43.281548,"lon":5.42643,"is_reserved":false,"is_disabled":false,"rental_uris":{"android":"levelo://app?vid=00d1bf49-5f2f-40eb-ba1c-6d61ac984990","ios":"levelo://app?vid=00d1bf49-5f2f-40eb-ba1c-6d61ac984990"},"vehicle_type_id":"4","last_reported":1701281360,"current_range_meters":29200,"station_id":"ce4bhnh2rcd13ifvqgug","pricing_plan_id":"free"},{"bike_id":"af194385-9d88-4239-bc79-52ad5f088bb8","system_id":"levelo_inurba_marseille","lat":43.2607,"lon":5.393983,"is_reserved":false,"is_disabled":false,"rental_uris":{"android":"levelo://app?vid=af194385-9d88-4239-bc79-52ad5f088bb8","ios":"levelo://app?vid=af194385-9d88-4239-bc79-52ad5f088bb8"},"vehicle_type_id":"4","last_reported":1701281360,"current_range_meters":6800,"station_id":"ce4bhh92rcd13ifvqfj0","pricing_plan_id":"free"},{"bike_id":"05bc4474-9391-4871-b7cf-0932ce771063","system_id":"levelo_inurba_marseille","lat":43.2558,"lon":5.38234,"is_reserved":false,"is_disabled":false,"rental_uris":{"android":"levelo://app?vid=05bc4474-9391-4871-b7cf-0932ce771063","ios":"levelo://app?vid=05bc4474-9391-4871-b7cf-0932ce771063"},"vehicle_type_id":"4","last_reported":1701281360,"current_range_meters":1600,"station_id":"ce4bhih2rcd13ifvqfs0","pricing_plan_id":"free"},{"bike_id":"ecf17c06-f85c-45b3-88f9-e573b3bb3c29","system_id":"levelo_inurba_marseille","lat":43.258224,"lon":5.394369,"is_reserved":false,"is_disabled":false,"rental_uris":{"android":"levelo://app?vid=ecf17c06-f85c-45b3-88f9-e573b3bb3c29","ios":"levelo://app?vid=ecf17c06-f85c-45b3-88f9-e573b3bb3c29"},"vehicle_type_id":"4","last_reported":1701281360,"current_range_meters":12000,"station_id":"ce4bhip2rcd13ifvqft0","pricing_plan_id":"free"},{"bike_id":"c8f50670-8adb-4818-a3e9-418cc08bdd0e","system_id":"levelo_inurba_marseille","lat":43.254947,"lon":5.376454,"is_reserved":false,"is_disabled":false,"rental_uris":{"android":"levelo://app?vid=c8f50670-8adb-4818-a3e9-418cc08bdd0e","ios":"levelo://app?vid=c8f50670-8adb-4818-a3e9-418cc08bdd0e"},"vehicle_type_id":"4","last_reported":1701281360,"current_range_meters":24800,"station_id":"ce4bhh12rcd13ifvqff0","pricing_plan_id":"free"},{"bike_id":"19029ed7-bf97-4f4d-a8c2-7d27e70ef7f7","system_id":"levelo_inurba_marseille","lat":43.270721,"lon":5.422764,"is_reserved":false,"is_disabled":false,"rental_uris":{"android":"levelo://app?vid=19029ed7-bf97-4f4d-a8c2-7d27e70ef7f7","ios":"levelo://app?vid=19029ed7-bf97-4f4d-a8c2-7d27e70ef7f7"},"vehicle_type_id":"4","last_reported":1701281360,"current_range_meters":28800,"station_id":"ce4bhk92rcd13ifvqgb0","pricing_plan_id":"free"},{"bike_id":"08f02361-5df3-4783-8256-33d18b44d326","system_id":"levelo_inurba_marseille","lat":43.258658,"lon":5.398935,"is_reserved":false,"is_disabled":false,"rental_uris":{"android":"levelo://app?vid=08f02361-5df3-4783-8256-33d18b44d326","ios":"levelo://app?vid=08f02361-5df3-4783-8256-33d18b44d326"},"vehicle_type_id":"4","last_reported":1701281360,"current_range_meters":9600,"station_id":"ce4bhl92rcd13ifvqghg","pricing_plan_id":"free"},{"bike_id":"25a65a87-265e-4842-acd7-5eaab446bd6d","system_id":"levelo_inurba_marseille","lat":43.258658,"lon":5.398935,"is_reserved":false,"is_disabled":false,"rental_uris":{"android":"levelo://app?vid=25a65a87-265e-4842-acd7-5eaab446bd6d","ios":"levelo://app?vid=25a65a87-265e-4842-acd7-5eaab446bd6d"},"vehicle_type_id":"4","last_reported":1701281360,"current_range_meters":19200,"station_id":"ce4bhl92rcd13ifvqghg","pricing_plan_id":"free"},{"bike_id":"916224f8-83b6-4e7c-8933-ae5fb7bcd879","system_id":"levelo_inurba_marseille","lat":43.257079,"lon":5.411051,"is_reserved":false,"is_disabled":false,"rental_uris":{"android":"levelo://app?vid=916224f8-83b6-4e7c-8933-ae5fb7bcd879","ios":"levelo://app?vid=916224f8-83b6-4e7c-8933-ae5fb7bcd879"},"vehicle_type_id":"4","last_reported":1701281360,"current_range_meters":14000,"station_id":"ce4bhkp2rcd13ifvqgd0","pricing_plan_id":"free"},{"bike_id":"89a99e0e-84f9-4cb4-9aa6-53df93c20d13","system_id":"levelo_inurba_marseille","lat":43.2572,"lon":5.41115,"is_reserved":false,"is_disabled":false,"rental_uris":{"android":"levelo://app?vid=89a99e0e-84f9-4cb4-9aa6-53df93c20d13","ios":"levelo://app?vid=89a99e0e-84f9-4cb4-9aa6-53df93c20d13"},"vehicle_type_id":"4","last_reported":1701281360,"current_range_meters":18800,"station_id":"ce4bhkp2rcd13ifvqgd0","pricing_plan_id":"free"},{"bike_id":"92b3011e-be75-4c80-980e-0a338b0bc6f3","system_id":"levelo_inurba_marseille","lat":43.2479,"lon":5.374457,"is_reserved":false,"is_disabled":false,"rental_uris":{"android":"levelo://app?vid=92b3011e-be75-4c80-980e-0a338b0bc6f3","ios":"levelo://app?vid=92b3011e-be75-4c80-980e-0a338b0bc6f3"},"vehicle_type_id":"4","last_reported":1701281360,"current_range_meters":9600,"station_id":"ce4bhgh2rcd13ifvqfb0","pricing_plan_id":"free"},{"bike_id":"a83a69c1-cd07-43a0-965f-501437ea80b4","system_id":"levelo_inurba_marseille","lat":43.2479,"lon":5.374457,"is_reserved":false,"is_disabled":false,"rental_uris":{"android":"levelo://app?vid=a83a69c1-cd07-43a0-965f-501437ea80b4","ios":"levelo://app?vid=a83a69c1-cd07-43a0-965f-501437ea80b4"},"vehicle_type_id":"4","last_reported":1701281360,"current_range_meters":27200,"station_id":"ce4bhgh2rcd13ifvqfb0","pricing_plan_id":"free"},{"bike_id":"987ff51d-b31d-4176-9915-e7c653778fdc","system_id":"levelo_inurba_marseille","lat":43.250897,"lon":5.395161,"is_reserved":false,"is_disabled":false,"rental_uris":{"android":"levelo://app?vid=987ff51d-b31d-4176-9915-e7c653778fdc","ios":"levelo://app?vid=987ff51d-b31d-4176-9915-e7c653778fdc"},"vehicle_type_id":"4","last_reported":1701281360,"current_range_meters":12000,"station_id":"ce4bhm12rcd13ifvqgkg","pricing_plan_id":"free"},{"bike_id":"4967ab4e-a884-4957-bdb9-f89f823e0acd","system_id":"levelo_inurba_marseille","lat":43.250966,"lon":5.395186,"is_reserved":false,"is_disabled":false,"rental_uris":{"android":"levelo://app?vid=4967ab4e-a884-4957-bdb9-f89f823e0acd","ios":"levelo://app?vid=4967ab4e-a884-4957-bdb9-f89f823e0acd"},"vehicle_type_id":"4","last_reported":1701281360,"current_range_meters":20000,"station_id":"ce4bhm12rcd13ifvqgkg","pricing_plan_id":"free"},{"bike_id":"9228a6fe-c5e2-45f4-a167-7f60ff317749","system_id":"levelo_inurba_marseille","lat":43.25086,"lon":5.39525,"is_reserved":false,"is_disabled":false,"rental_uris":{"android":"levelo://app?vid=9228a6fe-c5e2-45f4-a167-7f60ff317749","ios":"levelo://app?vid=9228a6fe-c5e2-45f4-a167-7f60ff317749"},"vehicle_type_id":"4","last_reported":1701281360,"current_range_meters":9200,"station_id":"ce4bhm12rcd13ifvqgkg","pricing_plan_id":"free"},{"bike_id":"51b49d2c-71aa-4e8a-9241-da25f3d4ff8c","system_id":"levelo_inurba_marseille","lat":43.25085,"lon":5.39523,"is_reserved":false,"is_disabled":false,"rental_uris":{"android":"levelo://app?vid=51b49d2c-71aa-4e8a-9241-da25f3d4ff8c","ios":"levelo://app?vid=51b49d2c-71aa-4e8a-9241-da25f3d4ff8c"},"vehicle_type_id":"4","last_reported":1701281360,"current_range_meters":0,"station_id":"ce4bhm12rcd13ifvqgkg","pricing_plan_id":"free"},{"bike_id":"a54bf141-eeae-413d-a91b-735a4fdf1317","system_id":"levelo_inurba_marseille","lat":43.25109,"lon":5.4033,"is_reserved":false,"is_disabled":false,"rental_uris":{"android":"levelo://app?vid=a54bf141-eeae-413d-a91b-735a4fdf1317","ios":"levelo://app?vid=a54bf141-eeae-413d-a91b-735a4fdf1317"},"vehicle_type_id":"4","last_reported":1701281360,"current_range_meters":31200,"station_id":"ce4bhlh2rcd13ifvqgig","pricing_plan_id":"free"},{"bike_id":"fdcf38f3-d4f1-4e07-a513-36367a461231","system_id":"levelo_inurba_marseille","lat":43.243884,"lon":5.370737,"is_reserved":false,"is_disabled":false,"rental_uris":{"android":"levelo://app?vid=fdcf38f3-d4f1-4e07-a513-36367a461231","ios":"levelo://app?vid=fdcf38f3-d4f1-4e07-a513-36367a461231"},"vehicle_type_id":"4","last_reported":1701281360,"current_range_meters":18000,"station_id":"ce4bhhh2rcd13ifvqfk0","pricing_plan_id":"free"},{"bike_id":"bae450d4-0dd8-4937-a099-78153b6b9a44","system_id":"levelo_inurba_marseille","lat":43.2455,"lon":5.39523,"is_reserved":false,"is_disabled":false,"rental_uris":{"android":"levelo://app?vid=bae450d4-0dd8-4937-a099-78153b6b9a44","ios":"levelo://app?vid=bae450d4-0dd8-4937-a099-78153b6b9a44"},"vehicle_type_id":"4","last_reported":1701281360,"current_range_meters":0,"station_id":"ce4bhlp2rcd13ifvqgjg","pricing_plan_id":"free"},{"bike_id":"72cddfac-add6-49c8-8c38-8b67a598d05b","system_id":"levelo_inurba_marseille","lat":43.24073,"lon":5.37764,"is_reserved":false,"is_disabled":false,"rental_uris":{"android":"levelo://app?vid=72cddfac-add6-49c8-8c38-8b67a598d05b","ios":"levelo://app?vid=72cddfac-add6-49c8-8c38-8b67a598d05b"},"vehicle_type_id":"4","last_reported":1701281360,"current_range_meters":20800,"station_id":"ce4bhnp2rcd13ifvqgvg","pricing_plan_id":"free"},{"bike_id":"675c970c-c0cf-4822-a023-175273da4489","system_id":"levelo_inurba_marseille","lat":43.231923,"lon":5.355545,"is_reserved":false,"is_disabled":false,"rental_uris":{"android":"levelo://app?vid=675c970c-c0cf-4822-a023-175273da4489","ios":"levelo://app?vid=675c970c-c0cf-4822-a023-175273da4489"},"vehicle_type_id":"4","last_reported":1701281360,"current_range_meters":10800,"station_id":"ce4bhu92rcd13ifvqi70","pricing_plan_id":"free"},{"bike_id":"3bbe1fd5-b7d2-484c-969b-f57a381950c3","system_id":"levelo_inurba_marseille","lat":43.231923,"lon":5.355545,"is_reserved":false,"is_disabled":false,"rental_uris":{"android":"levelo://app?vid=3bbe1fd5-b7d2-484c-969b-f57a381950c3","ios":"levelo://app?vid=3bbe1fd5-b7d2-484c-969b-f57a381950c3"},"vehicle_type_id":"4","last_reported":1701281360,"current_range_meters":14400,"station_id":"ce4bhu92rcd13ifvqi70","pricing_plan_id":"free"},{"bike_id":"5823558f-5e45-4b8f-8bb1-5079aaae37c9","system_id":"levelo_inurba_marseille","lat":43.231923,"lon":5.355545,"is_reserved":false,"is_disabled":false,"rental_uris":{"android":"levelo://app?vid=5823558f-5e45-4b8f-8bb1-5079aaae37c9","ios":"levelo://app?vid=5823558f-5e45-4b8f-8bb1-5079aaae37c9"},"vehicle_type_id":"4","last_reported":1701281360,"current_range_meters":17200,"station_id":"ce4bhu92rcd13ifvqi70","pricing_plan_id":"free"},{"bike_id":"26cd3036-9e31-4635-8449-e01c086f6041","system_id":"levelo_inurba_marseille","lat":43.231923,"lon":5.355545,"is_reserved":false,"is_disabled":false,"rental_uris":{"android":"levelo://app?vid=26cd3036-9e31-4635-8449-e01c086f6041","ios":"levelo://app?vid=26cd3036-9e31-4635-8449-e01c086f6041"},"vehicle_type_id":"4","last_reported":1701281360,"current_range_meters":22000,"station_id":"ce4bhu92rcd13ifvqi70","pricing_plan_id":"free"},{"bike_id":"6a15bd61-65f5-44c0-9706-42eeb78c349c","system_id":"levelo_inurba_marseille","lat":43.231919,"lon":5.355532,"is_reserved":false,"is_disabled":false,"rental_uris":{"android":"levelo://app?vid=6a15bd61-65f5-44c0-9706-42eeb78c349c","ios":"levelo://app?vid=6a15bd61-65f5-44c0-9706-42eeb78c349c"},"vehicle_type_id":"4","last_reported":1701281360,"current_range_meters":31200,"station_id":"ce4bhu92rcd13ifvqi70","pricing_plan_id":"free"},{"bike_id":"be42eec5-4aaf-4f1c-8445-219a8901db92","system_id":"levelo_inurba_marseille","lat":43.231923,"lon":5.355545,"is_reserved":false,"is_disabled":false,"rental_uris":{"android":"levelo://app?vid=be42eec5-4aaf-4f1c-8445-219a8901db92","ios":"levelo://app?vid=be42eec5-4aaf-4f1c-8445-219a8901db92"},"vehicle_type_id":"4","last_reported":1701281360,"current_range_meters":4000,"station_id":"ce4bhu92rcd13ifvqi70","pricing_plan_id":"free"},{"bike_id":"b37cf8bc-ef87-4960-b38c-3279b894369f","system_id":"levelo_inurba_marseille","lat":43.231923,"lon":5.355545,"is_reserved":false,"is_disabled":false,"rental_uris":{"android":"levelo://app?vid=b37cf8bc-ef87-4960-b38c-3279b894369f","ios":"levelo://app?vid=b37cf8bc-ef87-4960-b38c-3279b894369f"},"vehicle_type_id":"4","last_reported":1701281360,"current_range_meters":31600,"station_id":"ce4bhu92rcd13ifvqi70","pricing_plan_id":"free"},{"bike_id":"d1703505-b125-4a98-a807-11024241bc04","system_id":"levelo_inurba_marseille","lat":43.231923,"lon":5.355545,"is_reserved":false,"is_disabled":false,"rental_uris":{"android":"levelo://app?vid=d1703505-b125-4a98-a807-11024241bc04","ios":"levelo://app?vid=d1703505-b125-4a98-a807-11024241bc04"},"vehicle_type_id":"4","last_reported":1701281360,"current_range_meters":31600,"station_id":"ce4bhu92rcd13ifvqi70","pricing_plan_id":"free"},{"bike_id":"c0c7fee1-5737-446f-a765-fa607e9e3e85","system_id":"levelo_inurba_marseille","lat":43.231793,"lon":5.400044,"is_reserved":false,"is_disabled":false,"rental_uris":{"android":"levelo://app?vid=c0c7fee1-5737-446f-a765-fa607e9e3e85","ios":"levelo://app?vid=c0c7fee1-5737-446f-a765-fa607e9e3e85"},"vehicle_type_id":"4","last_reported":1701281360,"current_range_meters":20400,"station_id":"ce4bhn12rcd13ifvqgqg","pricing_plan_id":"free"},{"bike_id":"aa92b96d-64d8-4c3b-a126-5fd9d905cd28","system_id":"levelo_inurba_marseille","lat":43.231793,"lon":5.400044,"is_reserved":false,"is_disabled":false,"rental_uris":{"android":"levelo://app?vid=aa92b96d-64d8-4c3b-a126-5fd9d905cd28","ios":"levelo://app?vid=aa92b96d-64d8-4c3b-a126-5fd9d905cd28"},"vehicle_type_id":"4","last_reported":1701281360,"current_range_meters":31600,"station_id":"ce4bhn12rcd13ifvqgqg","pricing_plan_id":"free"},{"bike_id":"017c7298-0a0b-4b52-accd-1cfa244cac68","system_id":"levelo_inurba_marseille","lat":43.231793,"lon":5.400044,"is_reserved":false,"is_disabled":false,"rental_uris":{"android":"levelo://app?vid=017c7298-0a0b-4b52-accd-1cfa244cac68","ios":"levelo://app?vid=017c7298-0a0b-4b52-accd-1cfa244cac68"},"vehicle_type_id":"4","last_reported":1701281360,"current_range_meters":30800,"station_id":"ce4bhn12rcd13ifvqgqg","pricing_plan_id":"free"},{"bike_id":"5c24af45-4ee2-4093-93e4-b4426fd403c2","system_id":"levelo_inurba_marseille","lat":43.231794,"lon":5.400052,"is_reserved":false,"is_disabled":false,"rental_uris":{"android":"levelo://app?vid=5c24af45-4ee2-4093-93e4-b4426fd403c2","ios":"levelo://app?vid=5c24af45-4ee2-4093-93e4-b4426fd403c2"},"vehicle_type_id":"4","last_reported":1701281360,"current_range_meters":29200,"station_id":"ce4bhn12rcd13ifvqgqg","pricing_plan_id":"free"},{"bike_id":"5ff68776-d431-4895-866c-f190f6faec3c","system_id":"levelo_inurba_marseille","lat":43.231793,"lon":5.400044,"is_reserved":false,"is_disabled":false,"rental_uris":{"android":"levelo://app?vid=5ff68776-d431-4895-866c-f190f6faec3c","ios":"levelo://app?vid=5ff68776-d431-4895-866c-f190f6faec3c"},"vehicle_type_id":"4","last_reported":1701281360,"current_range_meters":31600,"station_id":"ce4bhn12rcd13ifvqgqg","pricing_plan_id":"free"},{"bike_id":"bf302e61-4f67-454e-a18b-ae01c9d54d0c","system_id":"levelo_inurba_marseille","lat":43.231793,"lon":5.400044,"is_reserved":false,"is_disabled":false,"rental_uris":{"android":"levelo://app?vid=bf302e61-4f67-454e-a18b-ae01c9d54d0c","ios":"levelo://app?vid=bf302e61-4f67-454e-a18b-ae01c9d54d0c"},"vehicle_type_id":"4","last_reported":1701281360,"current_range_meters":20000,"station_id":"ce4bhn12rcd13ifvqgqg","pricing_plan_id":"free"},{"bike_id":"1cc950d9-b775-4678-93c4-e31b06221635","system_id":"levelo_inurba_marseille","lat":43.23185,"lon":5.39982,"is_reserved":false,"is_disabled":false,"rental_uris":{"android":"levelo://app?vid=1cc950d9-b775-4678-93c4-e31b06221635","ios":"levelo://app?vid=1cc950d9-b775-4678-93c4-e31b06221635"},"vehicle_type_id":"4","last_reported":1701281360,"current_range_meters":10000,"station_id":"ce4bhn12rcd13ifvqgqg","pricing_plan_id":"free"},{"bike_id":"06853db6-aa55-4d29-9d8f-a856bd2de594","system_id":"levelo_inurba_marseille","lat":43.231793,"lon":5.400044,"is_reserved":false,"is_disabled":false,"rental_uris":{"android":"levelo://app?vid=06853db6-aa55-4d29-9d8f-a856bd2de594","ios":"levelo://app?vid=06853db6-aa55-4d29-9d8f-a856bd2de594"},"vehicle_type_id":"4","last_reported":1701281360,"current_range_meters":25200,"station_id":"ce4bhn12rcd13ifvqgqg","pricing_plan_id":"free"},{"bike_id":"bf960234-cffc-43d1-ad60-fe105776c7f7","system_id":"levelo_inurba_marseille","lat":43.23184,"lon":5.39996,"is_reserved":false,"is_disabled":false,"rental_uris":{"android":"levelo://app?vid=bf960234-cffc-43d1-ad60-fe105776c7f7","ios":"levelo://app?vid=bf960234-cffc-43d1-ad60-fe105776c7f7"},"vehicle_type_id":"4","last_reported":1701281360,"current_range_meters":0,"station_id":"ce4bhn12rcd13ifvqgqg","pricing_plan_id":"free"},{"bike_id":"5aaac2be-844c-4cf3-8da3-46c7e8da8247","system_id":"levelo_inurba_marseille","lat":43.231793,"lon":5.400044,"is_reserved":false,"is_disabled":false,"rental_uris":{"android":"levelo://app?vid=5aaac2be-844c-4cf3-8da3-46c7e8da8247","ios":"levelo://app?vid=5aaac2be-844c-4cf3-8da3-46c7e8da8247"},"vehicle_type_id":"4","last_reported":1701281360,"current_range_meters":10400,"station_id":"ce4bhn12rcd13ifvqgqg","pricing_plan_id":"free"},{"bike_id":"429fd36b-cb83-44c4-aa6c-85355f42987e","system_id":"levelo_inurba_marseille","lat":43.23155,"lon":5.43699,"is_reserved":false,"is_disabled":false,"rental_uris":{"android":"levelo://app?vid=429fd36b-cb83-44c4-aa6c-85355f42987e","ios":"levelo://app?vid=429fd36b-cb83-44c4-aa6c-85355f42987e"},"vehicle_type_id":"4","last_reported":1701281360,"current_range_meters":29200,"station_id":"ce4bhmp2rcd13ifvqgog","pricing_plan_id":"free"}]}}