{"last_updated":1778796005,"ttl":60,"version":"2.2","data":{"bikes":[{"bike_id":"fe0a4e88-fdbc-4a91-9fd8-49f052eff52d","system_id":"levelo_inurba_marseille","lat":43.31732,"lon":5.40187,"is_reserved":false,"is_disabled":false,"rental_uris":{"android":"levelo://app?vid=fe0a4e88-fdbc-4a91-9fd8-49f052eff52d","ios":"levelo://app?vid=fe0a4e88-fdbc-4a91-9fd8-49f052eff52d"},"vehicle_type_id":"4","last_reported":1778796006,"current_range_meters":2000,"station_id":"","pricing_plan_id":"cebpf4jnsgd1na2vs0mg"},{"bike_id":"e0860555-0e0f-48e2-9d15-18de5ed5335e","system_id":"levelo_inurba_marseille","lat":43.30151,"lon":5.37419,"is_reserved":false,"is_disabled":false,"rental_uris":{"android":"levelo://app?vid=e0860555-0e0f-48e2-9d15-18de5ed5335e","ios":"levelo://app?vid=e0860555-0e0f-48e2-9d15-18de5ed5335e"},"vehicle_type_id":"4","last_reported":1778796006,"current_range_meters":2800,"station_id":"ce4bgs92rcd13ifvqcc0","pricing_plan_id":"cebpf4jnsgd1na2vs0mg"},{"bike_id":"80fc07cc-8acf-47df-924a-e97132c371a3","system_id":"levelo_inurba_marseille","lat":43.28457,"lon":5.35871,"is_reserved":false,"is_disabled":true,"rental_uris":{"android":"levelo://app?vid=80fc07cc-8acf-47df-924a-e97132c371a3","ios":"levelo://app?vid=80fc07cc-8acf-47df-924a-e97132c371a3"},"vehicle_type_id":"4","last_reported":1778796006,"current_range_meters":2800,"station_id":"ce4bhah2rcd13ifvqei0","pricing_plan_id":"cebpf4jnsgd1na2vs0mg"},{"bike_id":"f3760b5c-4b2e-485d-8f2f-9d8b6ea54212","system_id":"levelo_inurba_marseille","lat":43.29885,"lon":5.42089,"is_reserved":false,"is_disabled":false,"rental_uris":{"android":"levelo://app?vid=f3760b5c-4b2e-485d-8f2f-9d8b6ea54212","ios":"levelo://app?vid=f3760b5c-4b2e-485d-8f2f-9d8b6ea54212"},"vehicle_type_id":"4","last_reported":1778796006,"current_range_meters":2800,"station_id":"st_d6tc004otcvc738tfe70","pricing_plan_id":"cebpf4jnsgd1na2vs0mg"},{"bike_id":"af9b2828-3be3-4a22-903d-fcc4d531e6f9","system_id":"levelo_inurba_marseille","lat":43.29215,"lon":5.39967,"is_reserved":false,"is_disabled":false,"rental_uris":{"android":"levelo://app?vid=af9b2828-3be3-4a22-903d-fcc4d531e6f9","ios":"levelo://app?vid=af9b2828-3be3-4a22-903d-fcc4d531e6f9"},"vehicle_type_id":"4","last_reported":1778796006,"current_range_meters":2800,"station_id":"","pricing_plan_id":"cebpf4jnsgd1na2vs0mg"},{"bike_id":"6a26079e-c259-4a56-a844-2c8bca0c51da","system_id":"levelo_inurba_marseille","lat":43.28574,"lon":5.39495,"is_reserved":false,"is_disabled":false,"rental_uris":{"android":"levelo://app?vid=6a26079e-c259-4a56-a844-2c8bca0c51da","ios":"levelo://app?vid=6a26079e-c259-4a56-a844-2c8bca0c51da"},"vehicle_type_id":"4","last_reported":1778796006,"current_range_meters":2800,"station_id":"ce4bh292rcd13ifvqdg0","pricing_plan_id":"cebpf4jnsgd1na2vs0mg"},{"bike_id":"bbecbf96-983e-485f-aaae-2684d8fbe4e0","system_id":"levelo_inurba_marseille","lat":43.2853,"lon":5.44099,"is_reserved":false,"is_disabled":false,"rental_uris":{"android":"levelo://app?vid=bbecbf96-983e-485f-aaae-2684d8fbe4e0","ios":"levelo://app?vid=bbecbf96-983e-485f-aaae-2684d8fbe4e0"},"vehicle_type_id":"4","last_reported":1778796006,"current_range_meters":2800,"station_id":"st_d3j3df2ikq2c7380ej80","pricing_plan_id":"cebpf4jnsgd1na2vs0mg"},{"bike_id":"6e45b7ea-c9e7-480c-8b3c-a1dcee9e3192","system_id":"levelo_inurba_marseille","lat":43.27808,"lon":5.40707,"is_reserved":false,"is_disabled":false,"rental_uris":{"android":"levelo://app?vid=6e45b7ea-c9e7-480c-8b3c-a1dcee9e3192","ios":"levelo://app?vid=6e45b7ea-c9e7-480c-8b3c-a1dcee9e3192"},"vehicle_type_id":"4","last_reported":1778796006,"current_range_meters":3200,"station_id":"ce4bhnh2rcd13ifvqgtg","pricing_plan_id":"cebpf4jnsgd1na2vs0mg"},{"bike_id":"0240e4b1-4c31-4f6d-b3fe-aed4e2aff6e2","system_id":"levelo_inurba_marseille","lat":43.28665,"lon":5.36345,"is_reserved":false,"is_disabled":false,"rental_uris":{"android":"levelo://app?vid=0240e4b1-4c31-4f6d-b3fe-aed4e2aff6e2","ios":"levelo://app?vid=0240e4b1-4c31-4f6d-b3fe-aed4e2aff6e2"},"vehicle_type_id":"4","last_reported":1778796006,"current_range_meters":3200,"station_id":"ce4bhah2rcd13ifvqej0","pricing_plan_id":"cebpf4jnsgd1na2vs0mg"},{"bike_id":"7b839973-404a-493f-a452-c1df6461cbb3","system_id":"levelo_inurba_marseille","lat":43.23898,"lon":5.37457,"is_reserved":false,"is_disabled":false,"rental_uris":{"android":"levelo://app?vid=7b839973-404a-493f-a452-c1df6461cbb3","ios":"levelo://app?vid=7b839973-404a-493f-a452-c1df6461cbb3"},"vehicle_type_id":"4","last_reported":1778796006,"current_range_meters":3200,"station_id":"st_d6sm7csbq4hs73f8fpjg","pricing_plan_id":"cebpf4jnsgd1na2vs0mg"},{"bike_id":"77b2237e-a74c-4a22-9b81-75407fa98b0a","system_id":"levelo_inurba_marseille","lat":43.28433,"lon":5.39182,"is_reserved":false,"is_disabled":false,"rental_uris":{"android":"levelo://app?vid=77b2237e-a74c-4a22-9b81-75407fa98b0a","ios":"levelo://app?vid=77b2237e-a74c-4a22-9b81-75407fa98b0a"},"vehicle_type_id":"4","last_reported":1778796006,"current_range_meters":3200,"station_id":"ce4bhoh2rcd13ifvqh5g","pricing_plan_id":"cebpf4jnsgd1na2vs0mg"},{"bike_id":"18a2f905-2015-4c21-8a23-e19900b49241","system_id":"levelo_inurba_marseille","lat":43.29533,"lon":5.37515,"is_reserved":false,"is_disabled":false,"rental_uris":{"android":"levelo://app?vid=18a2f905-2015-4c21-8a23-e19900b49241","ios":"levelo://app?vid=18a2f905-2015-4c21-8a23-e19900b49241"},"vehicle_type_id":"4","last_reported":1778796006,"current_range_meters":3200,"station_id":"ce4bgkp2rcd13ifvqbmg","pricing_plan_id":"cebpf4jnsgd1na2vs0mg"},{"bike_id":"3516f707-d44b-458c-b8a7-897b4586e405","system_id":"levelo_inurba_marseille","lat":43.2841,"lon":5.34987,"is_reserved":false,"is_disabled":false,"rental_uris":{"android":"levelo://app?vid=3516f707-d44b-458c-b8a7-897b4586e405","ios":"levelo://app?vid=3516f707-d44b-458c-b8a7-897b4586e405"},"vehicle_type_id":"4","last_reported":1778796006,"current_range_meters":3200,"station_id":"ce4bhbh2rcd13ifvqepg","pricing_plan_id":"cebpf4jnsgd1na2vs0mg"},{"bike_id":"ab589c5d-ea33-4c8e-b062-dbb34b344522","system_id":"levelo_inurba_marseille","lat":43.26227,"lon":5.40447,"is_reserved":false,"is_disabled":false,"rental_uris":{"android":"levelo://app?vid=ab589c5d-ea33-4c8e-b062-dbb34b344522","ios":"levelo://app?vid=ab589c5d-ea33-4c8e-b062-dbb34b344522"},"vehicle_type_id":"4","last_reported":1778796006,"current_range_meters":3200,"station_id":"ce4bhmh2rcd13ifvqgmg","pricing_plan_id":"cebpf4jnsgd1na2vs0mg"},{"bike_id":"070f4be3-7bc8-4497-a12a-27b796f0ae53","system_id":"levelo_inurba_marseille","lat":43.22566,"lon":5.41614,"is_reserved":false,"is_disabled":false,"rental_uris":{"android":"levelo://app?vid=070f4be3-7bc8-4497-a12a-27b796f0ae53","ios":"levelo://app?vid=070f4be3-7bc8-4497-a12a-27b796f0ae53"},"vehicle_type_id":"4","last_reported":1778796006,"current_range_meters":3200,"station_id":"st_d2o4gvlbi1j2169b742g","pricing_plan_id":"cebpf4jnsgd1na2vs0mg"},{"bike_id":"bb8d58e3-c608-408b-978b-b0c844171c54","system_id":"levelo_inurba_marseille","lat":43.27997,"lon":5.41667,"is_reserved":false,"is_disabled":false,"rental_uris":{"android":"levelo://app?vid=bb8d58e3-c608-408b-978b-b0c844171c54","ios":"levelo://app?vid=bb8d58e3-c608-408b-978b-b0c844171c54"},"vehicle_type_id":"4","last_reported":1778796006,"current_range_meters":3200,"station_id":"ce4bho12rcd13ifvqh1g","pricing_plan_id":"cebpf4jnsgd1na2vs0mg"},{"bike_id":"5e8620f7-476d-479d-b824-0ee8299b38df","system_id":"levelo_inurba_marseille","lat":43.31218,"lon":5.37826,"is_reserved":false,"is_disabled":false,"rental_uris":{"android":"levelo://app?vid=5e8620f7-476d-479d-b824-0ee8299b38df","ios":"levelo://app?vid=5e8620f7-476d-479d-b824-0ee8299b38df"},"vehicle_type_id":"4","last_reported":1778796006,"current_range_meters":3600,"station_id":"","pricing_plan_id":"cebpf4jnsgd1na2vs0mg"},{"bike_id":"a9ba8863-0646-4a30-9ac2-32f86ae49762","system_id":"levelo_inurba_marseille","lat":43.29448,"lon":5.38231,"is_reserved":false,"is_disabled":false,"rental_uris":{"android":"levelo://app?vid=a9ba8863-0646-4a30-9ac2-32f86ae49762","ios":"levelo://app?vid=a9ba8863-0646-4a30-9ac2-32f86ae49762"},"vehicle_type_id":"4","last_reported":1778796006,"current_range_meters":3600,"station_id":"","pricing_plan_id":"cebpf4jnsgd1na2vs0mg"},{"bike_id":"444e590a-d5c6-4ed8-8472-111cbab46855","system_id":"levelo_inurba_marseille","lat":43.24069,"lon":5.3775,"is_reserved":false,"is_disabled":false,"rental_uris":{"android":"levelo://app?vid=444e590a-d5c6-4ed8-8472-111cbab46855","ios":"levelo://app?vid=444e590a-d5c6-4ed8-8472-111cbab46855"},"vehicle_type_id":"4","last_reported":1778796006,"current_range_meters":3600,"station_id":"ce4bhnp2rcd13ifvqgvg","pricing_plan_id":"cebpf4jnsgd1na2vs0mg"},{"bike_id":"466c3253-1f7e-46ee-b969-6fd2230c1501","system_id":"levelo_inurba_marseille","lat":43.24949,"lon":5.40484,"is_reserved":false,"is_disabled":false,"rental_uris":{"android":"levelo://app?vid=466c3253-1f7e-46ee-b969-6fd2230c1501","ios":"levelo://app?vid=466c3253-1f7e-46ee-b969-6fd2230c1501"},"vehicle_type_id":"4","last_reported":1778796006,"current_range_meters":3600,"station_id":"st_d2ngiaodas8pm72gd1h0","pricing_plan_id":"cebpf4jnsgd1na2vs0mg"},{"bike_id":"8c7c9dc7-311f-4d28-b404-3a7cf27160be","system_id":"levelo_inurba_marseille","lat":43.29784,"lon":5.38524,"is_reserved":false,"is_disabled":false,"rental_uris":{"android":"levelo://app?vid=8c7c9dc7-311f-4d28-b404-3a7cf27160be","ios":"levelo://app?vid=8c7c9dc7-311f-4d28-b404-3a7cf27160be"},"vehicle_type_id":"4","last_reported":1778796006,"current_range_meters":3600,"station_id":"","pricing_plan_id":"cebpf4jnsgd1na2vs0mg"},{"bike_id":"4baa9b72-17a6-459d-8a63-49a6eeb5a1bd","system_id":"levelo_inurba_marseille","lat":43.29255,"lon":5.38434,"is_reserved":false,"is_disabled":true,"rental_uris":{"android":"levelo://app?vid=4baa9b72-17a6-459d-8a63-49a6eeb5a1bd","ios":"levelo://app?vid=4baa9b72-17a6-459d-8a63-49a6eeb5a1bd"},"vehicle_type_id":"4","last_reported":1778796006,"current_range_meters":3600,"station_id":"ce4bh692rcd13ifvqea0","pricing_plan_id":"cebpf4jnsgd1na2vs0mg"},{"bike_id":"f8a5149b-f19e-4377-9344-32e1511bcbba","system_id":"levelo_inurba_marseille","lat":43.28697,"lon":5.46684,"is_reserved":false,"is_disabled":false,"rental_uris":{"android":"levelo://app?vid=f8a5149b-f19e-4377-9344-32e1511bcbba","ios":"levelo://app?vid=f8a5149b-f19e-4377-9344-32e1511bcbba"},"vehicle_type_id":"4","last_reported":1778796006,"current_range_meters":3600,"station_id":"st_d6tc3vkotcvc738tfjhg","pricing_plan_id":"cebpf4jnsgd1na2vs0mg"},{"bike_id":"ea11b4d1-1979-4d60-80e0-6b6d65088d4f","system_id":"levelo_inurba_marseille","lat":43.2721,"lon":5.3919,"is_reserved":false,"is_disabled":true,"rental_uris":{"android":"levelo://app?vid=ea11b4d1-1979-4d60-80e0-6b6d65088d4f","ios":"levelo://app?vid=ea11b4d1-1979-4d60-80e0-6b6d65088d4f"},"vehicle_type_id":"4","last_reported":1778796006,"current_range_meters":3600,"station_id":"ce4bhhp2rcd13ifvqfm0","pricing_plan_id":"cebpf4jnsgd1na2vs0mg"},{"bike_id":"3125a78f-3ac7-4cbd-b7ab-80700d32dfdb","system_id":"levelo_inurba_marseille","lat":43.29068,"lon":5.371568,"is_reserved":false,"is_disabled":false,"rental_uris":{"android":"levelo://app?vid=3125a78f-3ac7-4cbd-b7ab-80700d32dfdb","ios":"levelo://app?vid=3125a78f-3ac7-4cbd-b7ab-80700d32dfdb"},"vehicle_type_id":"4","last_reported":1778796006,"current_range_meters":3600,"station_id":"ce4bh5p2rcd13ifvqe4g","pricing_plan_id":"cebpf4jnsgd1na2vs0mg"},{"bike_id":"8d4647d7-937b-4405-87ef-7f615ed94ea0","system_id":"levelo_inurba_marseille","lat":43.29276,"lon":5.40122,"is_reserved":false,"is_disabled":false,"rental_uris":{"android":"levelo://app?vid=8d4647d7-937b-4405-87ef-7f615ed94ea0","ios":"levelo://app?vid=8d4647d7-937b-4405-87ef-7f615ed94ea0"},"vehicle_type_id":"4","last_reported":1778796006,"current_range_meters":4000,"station_id":"ce4bh312rcd13ifvqdk0","pricing_plan_id":"cebpf4jnsgd1na2vs0mg"},{"bike_id":"451884af-2111-4fc4-b1be-ddb7a28232bd","system_id":"levelo_inurba_marseille","lat":43.28533,"lon":5.44087,"is_reserved":false,"is_disabled":false,"rental_uris":{"android":"levelo://app?vid=451884af-2111-4fc4-b1be-ddb7a28232bd","ios":"levelo://app?vid=451884af-2111-4fc4-b1be-ddb7a28232bd"},"vehicle_type_id":"4","last_reported":1778796006,"current_range_meters":4000,"station_id":"st_d3j3df2ikq2c7380ej80","pricing_plan_id":"cebpf4jnsgd1na2vs0mg"},{"bike_id":"f6b324ec-97d0-4c9e-8ac0-fb5fdc3c15cf","system_id":"levelo_inurba_marseille","lat":43.30713,"lon":5.42443,"is_reserved":false,"is_disabled":false,"rental_uris":{"android":"levelo://app?vid=f6b324ec-97d0-4c9e-8ac0-fb5fdc3c15cf","ios":"levelo://app?vid=f6b324ec-97d0-4c9e-8ac0-fb5fdc3c15cf"},"vehicle_type_id":"4","last_reported":1778796006,"current_range_meters":4000,"station_id":"st_cvj6ca6bvosntc0bfgr0","pricing_plan_id":"cebpf4jnsgd1na2vs0mg"},{"bike_id":"0851f791-575d-4580-b469-9a5c98e28a8c","system_id":"levelo_inurba_marseille","lat":43.29133,"lon":5.42442,"is_reserved":false,"is_disabled":false,"rental_uris":{"android":"levelo://app?vid=0851f791-575d-4580-b469-9a5c98e28a8c","ios":"levelo://app?vid=0851f791-575d-4580-b469-9a5c98e28a8c"},"vehicle_type_id":"4","last_reported":1778796006,"current_range_meters":4400,"station_id":"","pricing_plan_id":"cebpf4jnsgd1na2vs0mg"},{"bike_id":"0450ae6f-6f17-4c43-8fb9-91bf94b35e18","system_id":"levelo_inurba_marseille","lat":43.30187,"lon":5.36562,"is_reserved":false,"is_disabled":false,"rental_uris":{"android":"levelo://app?vid=0450ae6f-6f17-4c43-8fb9-91bf94b35e18","ios":"levelo://app?vid=0450ae6f-6f17-4c43-8fb9-91bf94b35e18"},"vehicle_type_id":"4","last_reported":1778796006,"current_range_meters":4400,"station_id":"","pricing_plan_id":"cebpf4jnsgd1na2vs0mg"},{"bike_id":"db547773-5428-49f8-a749-b92f8f9a342a","system_id":"levelo_inurba_marseille","lat":43.23964,"lon":5.36626,"is_reserved":false,"is_disabled":false,"rental_uris":{"android":"levelo://app?vid=db547773-5428-49f8-a749-b92f8f9a342a","ios":"levelo://app?vid=db547773-5428-49f8-a749-b92f8f9a342a"},"vehicle_type_id":"4","last_reported":1778796006,"current_range_meters":4400,"station_id":"ce4bhi12rcd13ifvqfp0","pricing_plan_id":"cebpf4jnsgd1na2vs0mg"},{"bike_id":"824ef9b0-4b09-45b5-b34a-37d98013db94","system_id":"levelo_inurba_marseille","lat":43.31719,"lon":5.42389,"is_reserved":false,"is_disabled":false,"rental_uris":{"android":"levelo://app?vid=824ef9b0-4b09-45b5-b34a-37d98013db94","ios":"levelo://app?vid=824ef9b0-4b09-45b5-b34a-37d98013db94"},"vehicle_type_id":"4","last_reported":1778796006,"current_range_meters":4400,"station_id":"ce4bhp92rcd13ifvqhbg","pricing_plan_id":"cebpf4jnsgd1na2vs0mg"},{"bike_id":"8b467899-d7be-4610-b502-70708c4f8094","system_id":"levelo_inurba_marseille","lat":43.31123,"lon":5.37753,"is_reserved":false,"is_disabled":false,"rental_uris":{"android":"levelo://app?vid=8b467899-d7be-4610-b502-70708c4f8094","ios":"levelo://app?vid=8b467899-d7be-4610-b502-70708c4f8094"},"vehicle_type_id":"4","last_reported":1778796006,"current_range_meters":4400,"station_id":"ce4bgt92rcd13ifvqcg0","pricing_plan_id":"cebpf4jnsgd1na2vs0mg"},{"bike_id":"da9d6cbb-1bc2-4da6-806e-58a26ec7fa3a","system_id":"levelo_inurba_marseille","lat":43.28415,"lon":5.34971,"is_reserved":false,"is_disabled":false,"rental_uris":{"android":"levelo://app?vid=da9d6cbb-1bc2-4da6-806e-58a26ec7fa3a","ios":"levelo://app?vid=da9d6cbb-1bc2-4da6-806e-58a26ec7fa3a"},"vehicle_type_id":"4","last_reported":1778796006,"current_range_meters":4400,"station_id":"ce4bhbh2rcd13ifvqepg","pricing_plan_id":"cebpf4jnsgd1na2vs0mg"},{"bike_id":"9c861895-7fc9-49d9-b3bd-d641d7630397","system_id":"levelo_inurba_marseille","lat":43.232,"lon":5.3997,"is_reserved":false,"is_disabled":false,"rental_uris":{"android":"levelo://app?vid=9c861895-7fc9-49d9-b3bd-d641d7630397","ios":"levelo://app?vid=9c861895-7fc9-49d9-b3bd-d641d7630397"},"vehicle_type_id":"4","last_reported":1778796006,"current_range_meters":4400,"station_id":"ce4bhn12rcd13ifvqgqg","pricing_plan_id":"cebpf4jnsgd1na2vs0mg"},{"bike_id":"1e376547-28d1-4c71-ad38-dccc2473beb9","system_id":"levelo_inurba_marseille","lat":43.28488,"lon":5.48382,"is_reserved":false,"is_disabled":false,"rental_uris":{"android":"levelo://app?vid=1e376547-28d1-4c71-ad38-dccc2473beb9","ios":"levelo://app?vid=1e376547-28d1-4c71-ad38-dccc2473beb9"},"vehicle_type_id":"4","last_reported":1778796006,"current_range_meters":4400,"station_id":"st_d3svhcjqgbts73a3dn0g","pricing_plan_id":"cebpf4jnsgd1na2vs0mg"},{"bike_id":"33b84942-cf5f-4afa-869d-950d91a6d306","system_id":"levelo_inurba_marseille","lat":43.28596,"lon":5.38637,"is_reserved":false,"is_disabled":false,"rental_uris":{"android":"levelo://app?vid=33b84942-cf5f-4afa-869d-950d91a6d306","ios":"levelo://app?vid=33b84942-cf5f-4afa-869d-950d91a6d306"},"vehicle_type_id":"4","last_reported":1778796006,"current_range_meters":4400,"station_id":"","pricing_plan_id":"cebpf4jnsgd1na2vs0mg"},{"bike_id":"ea00ca07-7443-4180-9c35-5c1c2dd062cc","system_id":"levelo_inurba_marseille","lat":43.31862,"lon":5.36805,"is_reserved":false,"is_disabled":false,"rental_uris":{"android":"levelo://app?vid=ea00ca07-7443-4180-9c35-5c1c2dd062cc","ios":"levelo://app?vid=ea00ca07-7443-4180-9c35-5c1c2dd062cc"},"vehicle_type_id":"4","last_reported":1778796006,"current_range_meters":4400,"station_id":"st_d6o2h0d0559c73evc1b0","pricing_plan_id":"cebpf4jnsgd1na2vs0mg"},{"bike_id":"95ff8216-e909-4846-87c0-fc76a6e4650f","system_id":"levelo_inurba_marseille","lat":43.30304,"lon":5.39209,"is_reserved":false,"is_disabled":false,"rental_uris":{"android":"levelo://app?vid=95ff8216-e909-4846-87c0-fc76a6e4650f","ios":"levelo://app?vid=95ff8216-e909-4846-87c0-fc76a6e4650f"},"vehicle_type_id":"4","last_reported":1778796006,"current_range_meters":4400,"station_id":"ce4bgkh2rcd13ifvqbk0","pricing_plan_id":"cebpf4jnsgd1na2vs0mg"},{"bike_id":"33155f76-2c96-4a21-843e-0f4ca54c0c62","system_id":"levelo_inurba_marseille","lat":43.30798,"lon":5.381643,"is_reserved":false,"is_disabled":false,"rental_uris":{"android":"levelo://app?vid=33155f76-2c96-4a21-843e-0f4ca54c0c62","ios":"levelo://app?vid=33155f76-2c96-4a21-843e-0f4ca54c0c62"},"vehicle_type_id":"4","last_reported":1778796006,"current_range_meters":4800,"station_id":"ce4bgt12rcd13ifvqce0","pricing_plan_id":"cebpf4jnsgd1na2vs0mg"},{"bike_id":"925734c3-1250-45c0-9661-a26d1053b54b","system_id":"levelo_inurba_marseille","lat":43.25592,"lon":5.38216,"is_reserved":false,"is_disabled":false,"rental_uris":{"android":"levelo://app?vid=925734c3-1250-45c0-9661-a26d1053b54b","ios":"levelo://app?vid=925734c3-1250-45c0-9661-a26d1053b54b"},"vehicle_type_id":"4","last_reported":1778796006,"current_range_meters":4800,"station_id":"ce4bhih2rcd13ifvqfs0","pricing_plan_id":"cebpf4jnsgd1na2vs0mg"},{"bike_id":"35394411-26ac-4a0d-8a71-dcd4b32a1c36","system_id":"levelo_inurba_marseille","lat":43.283478,"lon":5.381076,"is_reserved":false,"is_disabled":false,"rental_uris":{"android":"levelo://app?vid=35394411-26ac-4a0d-8a71-dcd4b32a1c36","ios":"levelo://app?vid=35394411-26ac-4a0d-8a71-dcd4b32a1c36"},"vehicle_type_id":"4","last_reported":1778796006,"current_range_meters":4800,"station_id":"ce4bh412rcd13ifvqdr0","pricing_plan_id":"cebpf4jnsgd1na2vs0mg"},{"bike_id":"2351facd-e0b5-47b2-b77a-87fff66ae3e7","system_id":"levelo_inurba_marseille","lat":43.21767,"lon":5.34586,"is_reserved":false,"is_disabled":false,"rental_uris":{"android":"levelo://app?vid=2351facd-e0b5-47b2-b77a-87fff66ae3e7","ios":"levelo://app?vid=2351facd-e0b5-47b2-b77a-87fff66ae3e7"},"vehicle_type_id":"4","last_reported":1778796006,"current_range_meters":5600,"station_id":"st_cvj6r9ubvosntc0bgbag","pricing_plan_id":"cebpf4jnsgd1na2vs0mg"},{"bike_id":"fee86087-3b79-41b3-af60-2de759232281","system_id":"levelo_inurba_marseille","lat":43.29784,"lon":5.3809,"is_reserved":false,"is_disabled":false,"rental_uris":{"android":"levelo://app?vid=fee86087-3b79-41b3-af60-2de759232281","ios":"levelo://app?vid=fee86087-3b79-41b3-af60-2de759232281"},"vehicle_type_id":"4","last_reported":1778796006,"current_range_meters":5600,"station_id":"ce4bgip2rcd13ifvqbb0","pricing_plan_id":"cebpf4jnsgd1na2vs0mg"},{"bike_id":"36171f44-6e4b-499c-9f3d-272981e78653","system_id":"levelo_inurba_marseille","lat":43.2622,"lon":5.37448,"is_reserved":false,"is_disabled":false,"rental_uris":{"android":"levelo://app?vid=36171f44-6e4b-499c-9f3d-272981e78653","ios":"levelo://app?vid=36171f44-6e4b-499c-9f3d-272981e78653"},"vehicle_type_id":"4","last_reported":1778796006,"current_range_meters":5600,"station_id":"ce4bhgp2rcd13ifvqfc0","pricing_plan_id":"cebpf4jnsgd1na2vs0mg"},{"bike_id":"501d5cea-52c1-4650-8f94-f27184eedc64","system_id":"levelo_inurba_marseille","lat":43.30423,"lon":5.39706,"is_reserved":false,"is_disabled":false,"rental_uris":{"android":"levelo://app?vid=501d5cea-52c1-4650-8f94-f27184eedc64","ios":"levelo://app?vid=501d5cea-52c1-4650-8f94-f27184eedc64"},"vehicle_type_id":"4","last_reported":1778796006,"current_range_meters":5600,"station_id":"ce4bh092rcd13ifvqd20","pricing_plan_id":"cebpf4jnsgd1na2vs0mg"},{"bike_id":"8cbadb2c-15eb-47a5-955d-61b92ae0b932","system_id":"levelo_inurba_marseille","lat":43.30814,"lon":5.38164,"is_reserved":false,"is_disabled":false,"rental_uris":{"android":"levelo://app?vid=8cbadb2c-15eb-47a5-955d-61b92ae0b932","ios":"levelo://app?vid=8cbadb2c-15eb-47a5-955d-61b92ae0b932"},"vehicle_type_id":"4","last_reported":1778796006,"current_range_meters":5600,"station_id":"ce4bgt12rcd13ifvqce0","pricing_plan_id":"cebpf4jnsgd1na2vs0mg"},{"bike_id":"673c00b0-81e3-4663-ac58-dd553f9b4e48","system_id":"levelo_inurba_marseille","lat":43.2952,"lon":5.39396,"is_reserved":false,"is_disabled":false,"rental_uris":{"android":"levelo://app?vid=673c00b0-81e3-4663-ac58-dd553f9b4e48","ios":"levelo://app?vid=673c00b0-81e3-4663-ac58-dd553f9b4e48"},"vehicle_type_id":"4","last_reported":1778796006,"current_range_meters":5600,"station_id":"ce4bh292rcd13ifvqdf0","pricing_plan_id":"cebpf4jnsgd1na2vs0mg"},{"bike_id":"07901982-752d-4b1b-a3d8-7d8ebd2d57d5","system_id":"levelo_inurba_marseille","lat":43.31822,"lon":5.36871,"is_reserved":false,"is_disabled":false,"rental_uris":{"android":"levelo://app?vid=07901982-752d-4b1b-a3d8-7d8ebd2d57d5","ios":"levelo://app?vid=07901982-752d-4b1b-a3d8-7d8ebd2d57d5"},"vehicle_type_id":"4","last_reported":1778796006,"current_range_meters":5600,"station_id":"","pricing_plan_id":"cebpf4jnsgd1na2vs0mg"},{"bike_id":"f0dfe750-6a85-4630-8635-ed2adbbe38ba","system_id":"levelo_inurba_marseille","lat":43.31357,"lon":5.36624,"is_reserved":false,"is_disabled":false,"rental_uris":{"android":"levelo://app?vid=f0dfe750-6a85-4630-8635-ed2adbbe38ba","ios":"levelo://app?vid=f0dfe750-6a85-4630-8635-ed2adbbe38ba"},"vehicle_type_id":"4","last_reported":1778796006,"current_range_meters":6000,"station_id":"","pricing_plan_id":"cebpf4jnsgd1na2vs0mg"},{"bike_id":"99d016b5-db26-43a2-b902-f07852d3d0a2","system_id":"levelo_inurba_marseille","lat":43.23147,"lon":5.43713,"is_reserved":false,"is_disabled":false,"rental_uris":{"android":"levelo://app?vid=99d016b5-db26-43a2-b902-f07852d3d0a2","ios":"levelo://app?vid=99d016b5-db26-43a2-b902-f07852d3d0a2"},"vehicle_type_id":"4","last_reported":1778796006,"current_range_meters":6000,"station_id":"ce4bhmp2rcd13ifvqgog","pricing_plan_id":"cebpf4jnsgd1na2vs0mg"},{"bike_id":"87ce4688-a9b6-435d-98b0-56df941a79fe","system_id":"levelo_inurba_marseille","lat":43.28601,"lon":5.39895,"is_reserved":false,"is_disabled":false,"rental_uris":{"android":"levelo://app?vid=87ce4688-a9b6-435d-98b0-56df941a79fe","ios":"levelo://app?vid=87ce4688-a9b6-435d-98b0-56df941a79fe"},"vehicle_type_id":"4","last_reported":1778796006,"current_range_meters":6000,"station_id":"st_d4a7ka997mjs738ck50g","pricing_plan_id":"cebpf4jnsgd1na2vs0mg"},{"bike_id":"17874f6c-4d54-44c9-8cdc-701aa7b888c6","system_id":"levelo_inurba_marseille","lat":43.295776,"lon":5.375038,"is_reserved":false,"is_disabled":true,"rental_uris":{"android":"levelo://app?vid=17874f6c-4d54-44c9-8cdc-701aa7b888c6","ios":"levelo://app?vid=17874f6c-4d54-44c9-8cdc-701aa7b888c6"},"vehicle_type_id":"4","last_reported":1778796006,"current_range_meters":6000,"station_id":"ce4bgh92rcd13ifvqb50","pricing_plan_id":"cebpf4jnsgd1na2vs0mg"},{"bike_id":"b280a10f-2c1b-4d5d-88dd-1fa8a56e3191","system_id":"levelo_inurba_marseille","lat":43.26575,"lon":5.39001,"is_reserved":false,"is_disabled":false,"rental_uris":{"android":"levelo://app?vid=b280a10f-2c1b-4d5d-88dd-1fa8a56e3191","ios":"levelo://app?vid=b280a10f-2c1b-4d5d-88dd-1fa8a56e3191"},"vehicle_type_id":"4","last_reported":1778796006,"current_range_meters":6000,"station_id":"ce4bhe12rcd13ifvqf30","pricing_plan_id":"cebpf4jnsgd1na2vs0mg"},{"bike_id":"29b4558e-e8d4-4198-958d-0e51be2acce4","system_id":"levelo_inurba_marseille","lat":43.26565,"lon":5.37286,"is_reserved":false,"is_disabled":false,"rental_uris":{"android":"levelo://app?vid=29b4558e-e8d4-4198-958d-0e51be2acce4","ios":"levelo://app?vid=29b4558e-e8d4-4198-958d-0e51be2acce4"},"vehicle_type_id":"4","last_reported":1778796006,"current_range_meters":6000,"station_id":"ce4bhg12rcd13ifvqf70","pricing_plan_id":"cebpf4jnsgd1na2vs0mg"},{"bike_id":"8b1a5088-1d38-4514-8b57-325ca8670dbe","system_id":"levelo_inurba_marseille","lat":43.26244,"lon":5.38771,"is_reserved":false,"is_disabled":false,"rental_uris":{"android":"levelo://app?vid=8b1a5088-1d38-4514-8b57-325ca8670dbe","ios":"levelo://app?vid=8b1a5088-1d38-4514-8b57-325ca8670dbe"},"vehicle_type_id":"4","last_reported":1778796006,"current_range_meters":6000,"station_id":"","pricing_plan_id":"cebpf4jnsgd1na2vs0mg"},{"bike_id":"a8a4aacb-9106-4a71-bfdf-c60a82ea5544","system_id":"levelo_inurba_marseille","lat":43.23891,"lon":5.37446,"is_reserved":false,"is_disabled":false,"rental_uris":{"android":"levelo://app?vid=a8a4aacb-9106-4a71-bfdf-c60a82ea5544","ios":"levelo://app?vid=a8a4aacb-9106-4a71-bfdf-c60a82ea5544"},"vehicle_type_id":"4","last_reported":1778796006,"current_range_meters":6000,"station_id":"st_d6sm7csbq4hs73f8fpjg","pricing_plan_id":"cebpf4jnsgd1na2vs0mg"},{"bike_id":"c47a522f-503d-4c66-9cdc-c06ae3edfea9","system_id":"levelo_inurba_marseille","lat":43.28867,"lon":5.42515,"is_reserved":false,"is_disabled":false,"rental_uris":{"android":"levelo://app?vid=c47a522f-503d-4c66-9cdc-c06ae3edfea9","ios":"levelo://app?vid=c47a522f-503d-4c66-9cdc-c06ae3edfea9"},"vehicle_type_id":"4","last_reported":1778796006,"current_range_meters":6000,"station_id":"st_d3b462108ojc7389ooeg","pricing_plan_id":"cebpf4jnsgd1na2vs0mg"},{"bike_id":"b06e1bda-e59f-423b-9caf-1f463bac74d5","system_id":"levelo_inurba_marseille","lat":43.316879,"lon":5.404735,"is_reserved":false,"is_disabled":false,"rental_uris":{"android":"levelo://app?vid=b06e1bda-e59f-423b-9caf-1f463bac74d5","ios":"levelo://app?vid=b06e1bda-e59f-423b-9caf-1f463bac74d5"},"vehicle_type_id":"4","last_reported":1778796006,"current_range_meters":6000,"station_id":"ce4bh012rcd13ifvqd00","pricing_plan_id":"cebpf4jnsgd1na2vs0mg"},{"bike_id":"4336eb3e-4dcb-40af-a6f6-5758e7c48f2e","system_id":"levelo_inurba_marseille","lat":43.2886,"lon":5.3582,"is_reserved":false,"is_disabled":false,"rental_uris":{"android":"levelo://app?vid=4336eb3e-4dcb-40af-a6f6-5758e7c48f2e","ios":"levelo://app?vid=4336eb3e-4dcb-40af-a6f6-5758e7c48f2e"},"vehicle_type_id":"4","last_reported":1778796006,"current_range_meters":6400,"station_id":"ce4bhb12rcd13ifvqem0","pricing_plan_id":"cebpf4jnsgd1na2vs0mg"},{"bike_id":"21630f77-eda1-40f0-8566-04dd068e8503","system_id":"levelo_inurba_marseille","lat":43.33545,"lon":5.37479,"is_reserved":false,"is_disabled":false,"rental_uris":{"android":"levelo://app?vid=21630f77-eda1-40f0-8566-04dd068e8503","ios":"levelo://app?vid=21630f77-eda1-40f0-8566-04dd068e8503"},"vehicle_type_id":"4","last_reported":1778796006,"current_range_meters":6400,"station_id":"st_d46tts09ee8s73dlu43g","pricing_plan_id":"cebpf4jnsgd1na2vs0mg"},{"bike_id":"cf46be16-acd9-4edf-ba5f-56559105c3df","system_id":"levelo_inurba_marseille","lat":43.24817,"lon":5.37436,"is_reserved":false,"is_disabled":false,"rental_uris":{"android":"levelo://app?vid=cf46be16-acd9-4edf-ba5f-56559105c3df","ios":"levelo://app?vid=cf46be16-acd9-4edf-ba5f-56559105c3df"},"vehicle_type_id":"4","last_reported":1778796006,"current_range_meters":6400,"station_id":"ce4bhgh2rcd13ifvqfb0","pricing_plan_id":"cebpf4jnsgd1na2vs0mg"},{"bike_id":"f319d43d-d58c-4aac-9f61-b07539060c76","system_id":"levelo_inurba_marseille","lat":43.33218,"lon":5.43052,"is_reserved":false,"is_disabled":false,"rental_uris":{"android":"levelo://app?vid=f319d43d-d58c-4aac-9f61-b07539060c76","ios":"levelo://app?vid=f319d43d-d58c-4aac-9f61-b07539060c76"},"vehicle_type_id":"4","last_reported":1778796006,"current_range_meters":6400,"station_id":"","pricing_plan_id":"cebpf4jnsgd1na2vs0mg"},{"bike_id":"844ba2e9-d6f2-464b-b65c-48ffd5f895a5","system_id":"levelo_inurba_marseille","lat":43.2606,"lon":5.39392,"is_reserved":false,"is_disabled":false,"rental_uris":{"android":"levelo://app?vid=844ba2e9-d6f2-464b-b65c-48ffd5f895a5","ios":"levelo://app?vid=844ba2e9-d6f2-464b-b65c-48ffd5f895a5"},"vehicle_type_id":"4","last_reported":1778796006,"current_range_meters":6400,"station_id":"ce4bhh92rcd13ifvqfj0","pricing_plan_id":"cebpf4jnsgd1na2vs0mg"},{"bike_id":"50ecd2a5-280a-4059-9de9-3aee985c1f30","system_id":"levelo_inurba_marseille","lat":43.31759,"lon":5.37842,"is_reserved":false,"is_disabled":false,"rental_uris":{"android":"levelo://app?vid=50ecd2a5-280a-4059-9de9-3aee985c1f30","ios":"levelo://app?vid=50ecd2a5-280a-4059-9de9-3aee985c1f30"},"vehicle_type_id":"4","last_reported":1778796006,"current_range_meters":6400,"station_id":"","pricing_plan_id":"cebpf4jnsgd1na2vs0mg"},{"bike_id":"75f753fc-9c52-4208-a22b-7f1d28b00c6c","system_id":"levelo_inurba_marseille","lat":43.24716,"lon":5.39305,"is_reserved":false,"is_disabled":false,"rental_uris":{"android":"levelo://app?vid=75f753fc-9c52-4208-a22b-7f1d28b00c6c","ios":"levelo://app?vid=75f753fc-9c52-4208-a22b-7f1d28b00c6c"},"vehicle_type_id":"4","last_reported":1778796006,"current_range_meters":6400,"station_id":"","pricing_plan_id":"cebpf4jnsgd1na2vs0mg"},{"bike_id":"c7cc8da8-6564-4f26-9ba4-7dbaf5f793ff","system_id":"levelo_inurba_marseille","lat":43.25484,"lon":5.37646,"is_reserved":false,"is_disabled":false,"rental_uris":{"android":"levelo://app?vid=c7cc8da8-6564-4f26-9ba4-7dbaf5f793ff","ios":"levelo://app?vid=c7cc8da8-6564-4f26-9ba4-7dbaf5f793ff"},"vehicle_type_id":"4","last_reported":1778796006,"current_range_meters":6400,"station_id":"ce4bhh12rcd13ifvqff0","pricing_plan_id":"cebpf4jnsgd1na2vs0mg"},{"bike_id":"8e8da42d-03bd-4b9b-97b5-52713d72ebe4","system_id":"levelo_inurba_marseille","lat":43.32114,"lon":5.36777,"is_reserved":false,"is_disabled":false,"rental_uris":{"android":"levelo://app?vid=8e8da42d-03bd-4b9b-97b5-52713d72ebe4","ios":"levelo://app?vid=8e8da42d-03bd-4b9b-97b5-52713d72ebe4"},"vehicle_type_id":"4","last_reported":1778796006,"current_range_meters":6400,"station_id":"ce4bhrh2rcd13ifvqhug","pricing_plan_id":"cebpf4jnsgd1na2vs0mg"},{"bike_id":"e060ee54-6256-40ae-9ad5-aaead461bedc","system_id":"levelo_inurba_marseille","lat":43.28844,"lon":5.39312,"is_reserved":false,"is_disabled":false,"rental_uris":{"android":"levelo://app?vid=e060ee54-6256-40ae-9ad5-aaead461bedc","ios":"levelo://app?vid=e060ee54-6256-40ae-9ad5-aaead461bedc"},"vehicle_type_id":"4","last_reported":1778796006,"current_range_meters":6400,"station_id":"ce4bh2p2rcd13ifvqdi0","pricing_plan_id":"cebpf4jnsgd1na2vs0mg"},{"bike_id":"41370752-6d32-4ea7-b0ca-4e494e59ea57","system_id":"levelo_inurba_marseille","lat":43.2894,"lon":5.36413,"is_reserved":false,"is_disabled":false,"rental_uris":{"android":"levelo://app?vid=41370752-6d32-4ea7-b0ca-4e494e59ea57","ios":"levelo://app?vid=41370752-6d32-4ea7-b0ca-4e494e59ea57"},"vehicle_type_id":"4","last_reported":1778796006,"current_range_meters":6400,"station_id":"ce4bhc92rcd13ifvqetg","pricing_plan_id":"cebpf4jnsgd1na2vs0mg"},{"bike_id":"c59ef67e-59cb-436e-be93-b110e102b5eb","system_id":"levelo_inurba_marseille","lat":43.28704,"lon":5.46688,"is_reserved":false,"is_disabled":false,"rental_uris":{"android":"levelo://app?vid=c59ef67e-59cb-436e-be93-b110e102b5eb","ios":"levelo://app?vid=c59ef67e-59cb-436e-be93-b110e102b5eb"},"vehicle_type_id":"4","last_reported":1778796006,"current_range_meters":6800,"station_id":"st_d6tc3vkotcvc738tfjhg","pricing_plan_id":"cebpf4jnsgd1na2vs0mg"},{"bike_id":"fcf8a0f0-cb16-4e15-a163-4dec9a08d1bc","system_id":"levelo_inurba_marseille","lat":43.32045,"lon":5.41538,"is_reserved":false,"is_disabled":false,"rental_uris":{"android":"levelo://app?vid=fcf8a0f0-cb16-4e15-a163-4dec9a08d1bc","ios":"levelo://app?vid=fcf8a0f0-cb16-4e15-a163-4dec9a08d1bc"},"vehicle_type_id":"4","last_reported":1778796006,"current_range_meters":6800,"station_id":"ce4bhq92rcd13ifvqhkg","pricing_plan_id":"cebpf4jnsgd1na2vs0mg"},{"bike_id":"8729db00-a1d9-4736-9fca-f79003d2e8fc","system_id":"levelo_inurba_marseille","lat":43.2853,"lon":5.44092,"is_reserved":false,"is_disabled":false,"rental_uris":{"android":"levelo://app?vid=8729db00-a1d9-4736-9fca-f79003d2e8fc","ios":"levelo://app?vid=8729db00-a1d9-4736-9fca-f79003d2e8fc"},"vehicle_type_id":"4","last_reported":1778796006,"current_range_meters":6800,"station_id":"st_d3j3df2ikq2c7380ej80","pricing_plan_id":"cebpf4jnsgd1na2vs0mg"},{"bike_id":"f5e8d085-0bd0-40db-958c-eda5fc60abc3","system_id":"levelo_inurba_marseille","lat":43.26221,"lon":5.38766,"is_reserved":false,"is_disabled":false,"rental_uris":{"android":"levelo://app?vid=f5e8d085-0bd0-40db-958c-eda5fc60abc3","ios":"levelo://app?vid=f5e8d085-0bd0-40db-958c-eda5fc60abc3"},"vehicle_type_id":"4","last_reported":1778796006,"current_range_meters":6800,"station_id":"","pricing_plan_id":"cebpf4jnsgd1na2vs0mg"},{"bike_id":"09924bdb-e236-4d6d-86a2-12ee8afd31fd","system_id":"levelo_inurba_marseille","lat":43.25469,"lon":5.37643,"is_reserved":false,"is_disabled":false,"rental_uris":{"android":"levelo://app?vid=09924bdb-e236-4d6d-86a2-12ee8afd31fd","ios":"levelo://app?vid=09924bdb-e236-4d6d-86a2-12ee8afd31fd"},"vehicle_type_id":"4","last_reported":1778796006,"current_range_meters":6800,"station_id":"ce4bhh12rcd13ifvqff0","pricing_plan_id":"cebpf4jnsgd1na2vs0mg"},{"bike_id":"7fbd6be8-999f-43d2-8e8e-a4a691a7c961","system_id":"levelo_inurba_marseille","lat":43.25336,"lon":5.42155,"is_reserved":false,"is_disabled":false,"rental_uris":{"android":"levelo://app?vid=7fbd6be8-999f-43d2-8e8e-a4a691a7c961","ios":"levelo://app?vid=7fbd6be8-999f-43d2-8e8e-a4a691a7c961"},"vehicle_type_id":"4","last_reported":1778796006,"current_range_meters":6800,"station_id":"st_d2m65c5bi1j21697t3ng","pricing_plan_id":"cebpf4jnsgd1na2vs0mg"},{"bike_id":"db8fd6e1-3e2e-4ba5-b4dc-e15fa2785925","system_id":"levelo_inurba_marseille","lat":43.25494,"lon":5.37648,"is_reserved":false,"is_disabled":false,"rental_uris":{"android":"levelo://app?vid=db8fd6e1-3e2e-4ba5-b4dc-e15fa2785925","ios":"levelo://app?vid=db8fd6e1-3e2e-4ba5-b4dc-e15fa2785925"},"vehicle_type_id":"4","last_reported":1778796006,"current_range_meters":6800,"station_id":"ce4bhh12rcd13ifvqff0","pricing_plan_id":"cebpf4jnsgd1na2vs0mg"},{"bike_id":"f4749437-504c-459a-ac2b-50ee037c1395","system_id":"levelo_inurba_marseille","lat":43.26025,"lon":5.37546,"is_reserved":false,"is_disabled":false,"rental_uris":{"android":"levelo://app?vid=f4749437-504c-459a-ac2b-50ee037c1395","ios":"levelo://app?vid=f4749437-504c-459a-ac2b-50ee037c1395"},"vehicle_type_id":"4","last_reported":1778796006,"current_range_meters":6800,"station_id":"ce4bhgh2rcd13ifvqfa0","pricing_plan_id":"cebpf4jnsgd1na2vs0mg"},{"bike_id":"988afeef-8fa0-4222-9994-711b55a606f6","system_id":"levelo_inurba_marseille","lat":43.25342,"lon":5.42162,"is_reserved":false,"is_disabled":false,"rental_uris":{"android":"levelo://app?vid=988afeef-8fa0-4222-9994-711b55a606f6","ios":"levelo://app?vid=988afeef-8fa0-4222-9994-711b55a606f6"},"vehicle_type_id":"4","last_reported":1778796006,"current_range_meters":6800,"station_id":"st_d2m65c5bi1j21697t3ng","pricing_plan_id":"cebpf4jnsgd1na2vs0mg"},{"bike_id":"399e8a02-5579-4dbf-b4de-b68767f02a1e","system_id":"levelo_inurba_marseille","lat":43.26176,"lon":5.3744,"is_reserved":false,"is_disabled":false,"rental_uris":{"android":"levelo://app?vid=399e8a02-5579-4dbf-b4de-b68767f02a1e","ios":"levelo://app?vid=399e8a02-5579-4dbf-b4de-b68767f02a1e"},"vehicle_type_id":"4","last_reported":1778796006,"current_range_meters":6800,"station_id":"ce4bhgp2rcd13ifvqfc0","pricing_plan_id":"cebpf4jnsgd1na2vs0mg"},{"bike_id":"98f12bd4-e0da-4149-bced-c3e88c88c817","system_id":"levelo_inurba_marseille","lat":43.29444,"lon":5.3978,"is_reserved":false,"is_disabled":false,"rental_uris":{"android":"levelo://app?vid=98f12bd4-e0da-4149-bced-c3e88c88c817","ios":"levelo://app?vid=98f12bd4-e0da-4149-bced-c3e88c88c817"},"vehicle_type_id":"4","last_reported":1778796006,"current_range_meters":6800,"station_id":"ce4bh3h2rcd13ifvqdo0","pricing_plan_id":"cebpf4jnsgd1na2vs0mg"},{"bike_id":"d57105bf-9d91-4478-be3d-b075be3b1024","system_id":"levelo_inurba_marseille","lat":43.30593,"lon":5.39357,"is_reserved":false,"is_disabled":false,"rental_uris":{"android":"levelo://app?vid=d57105bf-9d91-4478-be3d-b075be3b1024","ios":"levelo://app?vid=d57105bf-9d91-4478-be3d-b075be3b1024"},"vehicle_type_id":"4","last_reported":1778796006,"current_range_meters":6800,"station_id":"ce4bh0p2rcd13ifvqd80","pricing_plan_id":"cebpf4jnsgd1na2vs0mg"},{"bike_id":"1c4eecf6-c248-4f21-af12-a1da19407bc5","system_id":"levelo_inurba_marseille","lat":43.3078,"lon":5.37643,"is_reserved":false,"is_disabled":false,"rental_uris":{"android":"levelo://app?vid=1c4eecf6-c248-4f21-af12-a1da19407bc5","ios":"levelo://app?vid=1c4eecf6-c248-4f21-af12-a1da19407bc5"},"vehicle_type_id":"4","last_reported":1778796006,"current_range_meters":6800,"station_id":"ce4bgv92rcd13ifvqcq0","pricing_plan_id":"cebpf4jnsgd1na2vs0mg"},{"bike_id":"a2a00526-33a2-4133-9639-1bf79490a021","system_id":"levelo_inurba_marseille","lat":43.33182,"lon":5.4062,"is_reserved":false,"is_disabled":false,"rental_uris":{"android":"levelo://app?vid=a2a00526-33a2-4133-9639-1bf79490a021","ios":"levelo://app?vid=a2a00526-33a2-4133-9639-1bf79490a021"},"vehicle_type_id":"4","last_reported":1778796006,"current_range_meters":6800,"station_id":"","pricing_plan_id":"cebpf4jnsgd1na2vs0mg"},{"bike_id":"0e2a8cf4-b6d5-4204-a1d9-87687e55a4e8","system_id":"levelo_inurba_marseille","lat":43.29593,"lon":5.38102,"is_reserved":false,"is_disabled":false,"rental_uris":{"android":"levelo://app?vid=0e2a8cf4-b6d5-4204-a1d9-87687e55a4e8","ios":"levelo://app?vid=0e2a8cf4-b6d5-4204-a1d9-87687e55a4e8"},"vehicle_type_id":"4","last_reported":1778796006,"current_range_meters":6800,"station_id":"ce4bgl12rcd13ifvqbo0","pricing_plan_id":"cebpf4jnsgd1na2vs0mg"},{"bike_id":"7c97047b-2262-4fed-8712-0d89900374c4","system_id":"levelo_inurba_marseille","lat":43.24653,"lon":5.38904,"is_reserved":false,"is_disabled":false,"rental_uris":{"android":"levelo://app?vid=7c97047b-2262-4fed-8712-0d89900374c4","ios":"levelo://app?vid=7c97047b-2262-4fed-8712-0d89900374c4"},"vehicle_type_id":"4","last_reported":1778796006,"current_range_meters":6800,"station_id":"ce4bhg12rcd13ifvqf60","pricing_plan_id":"cebpf4jnsgd1na2vs0mg"},{"bike_id":"2db3afd2-a95d-4fbf-b003-3cb23c027f39","system_id":"levelo_inurba_marseille","lat":43.29514,"lon":5.37491,"is_reserved":false,"is_disabled":false,"rental_uris":{"android":"levelo://app?vid=2db3afd2-a95d-4fbf-b003-3cb23c027f39","ios":"levelo://app?vid=2db3afd2-a95d-4fbf-b003-3cb23c027f39"},"vehicle_type_id":"4","last_reported":1778796006,"current_range_meters":6800,"station_id":"ce4bgkp2rcd13ifvqbmg","pricing_plan_id":"cebpf4jnsgd1na2vs0mg"},{"bike_id":"820c2d91-aeef-411e-8944-84db8c6310a5","system_id":"levelo_inurba_marseille","lat":43.28856,"lon":5.35835,"is_reserved":false,"is_disabled":false,"rental_uris":{"android":"levelo://app?vid=820c2d91-aeef-411e-8944-84db8c6310a5","ios":"levelo://app?vid=820c2d91-aeef-411e-8944-84db8c6310a5"},"vehicle_type_id":"4","last_reported":1778796006,"current_range_meters":6800,"station_id":"ce4bhb12rcd13ifvqem0","pricing_plan_id":"cebpf4jnsgd1na2vs0mg"},{"bike_id":"d7e97781-7864-4d48-a10e-e09d15b1fad1","system_id":"levelo_inurba_marseille","lat":43.29633,"lon":5.38015,"is_reserved":false,"is_disabled":false,"rental_uris":{"android":"levelo://app?vid=d7e97781-7864-4d48-a10e-e09d15b1fad1","ios":"levelo://app?vid=d7e97781-7864-4d48-a10e-e09d15b1fad1"},"vehicle_type_id":"4","last_reported":1778796006,"current_range_meters":6800,"station_id":"","pricing_plan_id":"cebpf4jnsgd1na2vs0mg"},{"bike_id":"0f34fb8a-0bdd-4f60-af13-795b8d68e1ca","system_id":"levelo_inurba_marseille","lat":43.29876,"lon":5.38066,"is_reserved":false,"is_disabled":false,"rental_uris":{"android":"levelo://app?vid=0f34fb8a-0bdd-4f60-af13-795b8d68e1ca","ios":"levelo://app?vid=0f34fb8a-0bdd-4f60-af13-795b8d68e1ca"},"vehicle_type_id":"4","last_reported":1778796006,"current_range_meters":6800,"station_id":"","pricing_plan_id":"cebpf4jnsgd1na2vs0mg"},{"bike_id":"12fc783a-5743-49f1-a8aa-4c1155b53891","system_id":"levelo_inurba_marseille","lat":43.24458,"lon":5.42476,"is_reserved":false,"is_disabled":false,"rental_uris":{"android":"levelo://app?vid=12fc783a-5743-49f1-a8aa-4c1155b53891","ios":"levelo://app?vid=12fc783a-5743-49f1-a8aa-4c1155b53891"},"vehicle_type_id":"4","last_reported":1778796006,"current_range_meters":7200,"station_id":"","pricing_plan_id":"cebpf4jnsgd1na2vs0mg"},{"bike_id":"9fcf9d8d-238f-4a11-b40c-4c58f8f84b59","system_id":"levelo_inurba_marseille","lat":43.23147,"lon":5.43711,"is_reserved":false,"is_disabled":false,"rental_uris":{"android":"levelo://app?vid=9fcf9d8d-238f-4a11-b40c-4c58f8f84b59","ios":"levelo://app?vid=9fcf9d8d-238f-4a11-b40c-4c58f8f84b59"},"vehicle_type_id":"4","last_reported":1778796006,"current_range_meters":7200,"station_id":"ce4bhmp2rcd13ifvqgog","pricing_plan_id":"cebpf4jnsgd1na2vs0mg"},{"bike_id":"f5c43fa3-ab6d-4af1-9674-22af5bbae61c","system_id":"levelo_inurba_marseille","lat":43.30888,"lon":5.39634,"is_reserved":false,"is_disabled":false,"rental_uris":{"android":"levelo://app?vid=f5c43fa3-ab6d-4af1-9674-22af5bbae61c","ios":"levelo://app?vid=f5c43fa3-ab6d-4af1-9674-22af5bbae61c"},"vehicle_type_id":"4","last_reported":1778796006,"current_range_meters":7200,"station_id":"ce4bh012rcd13ifvqcv0","pricing_plan_id":"cebpf4jnsgd1na2vs0mg"},{"bike_id":"600ae21f-84ee-4e17-83e0-645ec9d8a39d","system_id":"levelo_inurba_marseille","lat":43.26366,"lon":5.41065,"is_reserved":false,"is_disabled":false,"rental_uris":{"android":"levelo://app?vid=600ae21f-84ee-4e17-83e0-645ec9d8a39d","ios":"levelo://app?vid=600ae21f-84ee-4e17-83e0-645ec9d8a39d"},"vehicle_type_id":"4","last_reported":1778796006,"current_range_meters":7200,"station_id":"st_d4e5ca6na9uc73bfl5fg","pricing_plan_id":"cebpf4jnsgd1na2vs0mg"},{"bike_id":"39481e13-fb19-40b9-9611-cd35a8bf33b1","system_id":"levelo_inurba_marseille","lat":43.27477,"lon":5.41637,"is_reserved":false,"is_disabled":false,"rental_uris":{"android":"levelo://app?vid=39481e13-fb19-40b9-9611-cd35a8bf33b1","ios":"levelo://app?vid=39481e13-fb19-40b9-9611-cd35a8bf33b1"},"vehicle_type_id":"4","last_reported":1778796006,"current_range_meters":7200,"station_id":"","pricing_plan_id":"cebpf4jnsgd1na2vs0mg"},{"bike_id":"b38ec2e7-b225-4624-a9d8-c26ecc599591","system_id":"levelo_inurba_marseille","lat":43.28574,"lon":5.39488,"is_reserved":false,"is_disabled":false,"rental_uris":{"android":"levelo://app?vid=b38ec2e7-b225-4624-a9d8-c26ecc599591","ios":"levelo://app?vid=b38ec2e7-b225-4624-a9d8-c26ecc599591"},"vehicle_type_id":"4","last_reported":1778796006,"current_range_meters":7200,"station_id":"ce4bh292rcd13ifvqdg0","pricing_plan_id":"cebpf4jnsgd1na2vs0mg"},{"bike_id":"250d9c24-8278-4dac-b464-7960f87205e4","system_id":"levelo_inurba_marseille","lat":43.30524,"lon":5.39893,"is_reserved":false,"is_disabled":false,"rental_uris":{"android":"levelo://app?vid=250d9c24-8278-4dac-b464-7960f87205e4","ios":"levelo://app?vid=250d9c24-8278-4dac-b464-7960f87205e4"},"vehicle_type_id":"4","last_reported":1778796006,"current_range_meters":7200,"station_id":"","pricing_plan_id":"cebpf4jnsgd1na2vs0mg"},{"bike_id":"56ebb272-f35a-4495-95fc-289a89d13fb2","system_id":"levelo_inurba_marseille","lat":43.3081,"lon":5.38142,"is_reserved":false,"is_disabled":false,"rental_uris":{"android":"levelo://app?vid=56ebb272-f35a-4495-95fc-289a89d13fb2","ios":"levelo://app?vid=56ebb272-f35a-4495-95fc-289a89d13fb2"},"vehicle_type_id":"4","last_reported":1778796006,"current_range_meters":7200,"station_id":"ce4bgt12rcd13ifvqce0","pricing_plan_id":"cebpf4jnsgd1na2vs0mg"},{"bike_id":"0f5eafa3-7164-49d0-bd71-3c9cf8b1a60c","system_id":"levelo_inurba_marseille","lat":43.31351,"lon":5.38487,"is_reserved":false,"is_disabled":false,"rental_uris":{"android":"levelo://app?vid=0f5eafa3-7164-49d0-bd71-3c9cf8b1a60c","ios":"levelo://app?vid=0f5eafa3-7164-49d0-bd71-3c9cf8b1a60c"},"vehicle_type_id":"4","last_reported":1778796006,"current_range_meters":7200,"station_id":"ce4bgt92rcd13ifvqcf0","pricing_plan_id":"cebpf4jnsgd1na2vs0mg"},{"bike_id":"3417cf8f-8380-49cf-9b96-8708c600b7b9","system_id":"levelo_inurba_marseille","lat":43.29876,"lon":5.38916,"is_reserved":false,"is_disabled":true,"rental_uris":{"android":"levelo://app?vid=3417cf8f-8380-49cf-9b96-8708c600b7b9","ios":"levelo://app?vid=3417cf8f-8380-49cf-9b96-8708c600b7b9"},"vehicle_type_id":"4","last_reported":1778796006,"current_range_meters":7200,"station_id":"ce4bh392rcd13ifvqdl0","pricing_plan_id":"cebpf4jnsgd1na2vs0mg"},{"bike_id":"2ec38b6d-3f9e-46f7-84b5-164e4356bd7e","system_id":"levelo_inurba_marseille","lat":43.286676,"lon":5.363481,"is_reserved":false,"is_disabled":false,"rental_uris":{"android":"levelo://app?vid=2ec38b6d-3f9e-46f7-84b5-164e4356bd7e","ios":"levelo://app?vid=2ec38b6d-3f9e-46f7-84b5-164e4356bd7e"},"vehicle_type_id":"4","last_reported":1778796006,"current_range_meters":7200,"station_id":"ce4bhah2rcd13ifvqej0","pricing_plan_id":"cebpf4jnsgd1na2vs0mg"},{"bike_id":"4c08e552-05b3-492e-9965-80ac08a5dda5","system_id":"levelo_inurba_marseille","lat":43.27543,"lon":5.39548,"is_reserved":false,"is_disabled":false,"rental_uris":{"android":"levelo://app?vid=4c08e552-05b3-492e-9965-80ac08a5dda5","ios":"levelo://app?vid=4c08e552-05b3-492e-9965-80ac08a5dda5"},"vehicle_type_id":"4","last_reported":1778796006,"current_range_meters":7200,"station_id":"","pricing_plan_id":"cebpf4jnsgd1na2vs0mg"},{"bike_id":"04d3d691-3e5e-41ed-a448-313897978df0","system_id":"levelo_inurba_marseille","lat":43.3105,"lon":5.37169,"is_reserved":false,"is_disabled":false,"rental_uris":{"android":"levelo://app?vid=04d3d691-3e5e-41ed-a448-313897978df0","ios":"levelo://app?vid=04d3d691-3e5e-41ed-a448-313897978df0"},"vehicle_type_id":"4","last_reported":1778796006,"current_range_meters":7200,"station_id":"st_d4kl2rp97mjs73e7tdfg","pricing_plan_id":"cebpf4jnsgd1na2vs0mg"},{"bike_id":"b942de8b-7ed7-423c-b5f5-c55a01482354","system_id":"levelo_inurba_marseille","lat":43.3032,"lon":5.36884,"is_reserved":false,"is_disabled":false,"rental_uris":{"android":"levelo://app?vid=b942de8b-7ed7-423c-b5f5-c55a01482354","ios":"levelo://app?vid=b942de8b-7ed7-423c-b5f5-c55a01482354"},"vehicle_type_id":"4","last_reported":1778796006,"current_range_meters":7200,"station_id":"ce4bgqh2rcd13ifvqc5g","pricing_plan_id":"cebpf4jnsgd1na2vs0mg"},{"bike_id":"64443b67-959f-442a-a45a-64c734670d63","system_id":"levelo_inurba_marseille","lat":43.2656,"lon":5.38996,"is_reserved":false,"is_disabled":false,"rental_uris":{"android":"levelo://app?vid=64443b67-959f-442a-a45a-64c734670d63","ios":"levelo://app?vid=64443b67-959f-442a-a45a-64c734670d63"},"vehicle_type_id":"4","last_reported":1778796006,"current_range_meters":7200,"station_id":"ce4bhe12rcd13ifvqf30","pricing_plan_id":"cebpf4jnsgd1na2vs0mg"},{"bike_id":"628cddb6-40ab-4c5e-880c-d64e345eaa5e","system_id":"levelo_inurba_marseille","lat":43.29255,"lon":5.40904,"is_reserved":false,"is_disabled":false,"rental_uris":{"android":"levelo://app?vid=628cddb6-40ab-4c5e-880c-d64e345eaa5e","ios":"levelo://app?vid=628cddb6-40ab-4c5e-880c-d64e345eaa5e"},"vehicle_type_id":"4","last_reported":1778796006,"current_range_meters":7200,"station_id":"ce4bh192rcd13ifvqdc0","pricing_plan_id":"cebpf4jnsgd1na2vs0mg"},{"bike_id":"5e70c149-f7fa-4313-9070-5d5d06af8c49","system_id":"levelo_inurba_marseille","lat":43.311075,"lon":5.377722,"is_reserved":false,"is_disabled":false,"rental_uris":{"android":"levelo://app?vid=5e70c149-f7fa-4313-9070-5d5d06af8c49","ios":"levelo://app?vid=5e70c149-f7fa-4313-9070-5d5d06af8c49"},"vehicle_type_id":"4","last_reported":1778796006,"current_range_meters":7200,"station_id":"ce4bgt92rcd13ifvqcg0","pricing_plan_id":"cebpf4jnsgd1na2vs0mg"},{"bike_id":"58823816-a493-4a14-90bb-e87b7aaa2f09","system_id":"levelo_inurba_marseille","lat":43.28851,"lon":5.35851,"is_reserved":false,"is_disabled":false,"rental_uris":{"android":"levelo://app?vid=58823816-a493-4a14-90bb-e87b7aaa2f09","ios":"levelo://app?vid=58823816-a493-4a14-90bb-e87b7aaa2f09"},"vehicle_type_id":"4","last_reported":1778796006,"current_range_meters":7200,"station_id":"ce4bhb12rcd13ifvqem0","pricing_plan_id":"cebpf4jnsgd1na2vs0mg"},{"bike_id":"781caba9-8a1d-492f-8f32-6bb508d561ff","system_id":"levelo_inurba_marseille","lat":43.28703,"lon":5.42651,"is_reserved":false,"is_disabled":false,"rental_uris":{"android":"levelo://app?vid=781caba9-8a1d-492f-8f32-6bb508d561ff","ios":"levelo://app?vid=781caba9-8a1d-492f-8f32-6bb508d561ff"},"vehicle_type_id":"4","last_reported":1778796006,"current_range_meters":7200,"station_id":"","pricing_plan_id":"cebpf4jnsgd1na2vs0mg"},{"bike_id":"8b46e691-901f-4394-882a-f00bc785823f","system_id":"levelo_inurba_marseille","lat":43.27813,"lon":5.40707,"is_reserved":false,"is_disabled":false,"rental_uris":{"android":"levelo://app?vid=8b46e691-901f-4394-882a-f00bc785823f","ios":"levelo://app?vid=8b46e691-901f-4394-882a-f00bc785823f"},"vehicle_type_id":"4","last_reported":1778796006,"current_range_meters":7200,"station_id":"ce4bhnh2rcd13ifvqgtg","pricing_plan_id":"cebpf4jnsgd1na2vs0mg"},{"bike_id":"f081dad8-e43c-45df-a012-7144fff947d7","system_id":"levelo_inurba_marseille","lat":43.286169,"lon":5.351102,"is_reserved":false,"is_disabled":false,"rental_uris":{"android":"levelo://app?vid=f081dad8-e43c-45df-a012-7144fff947d7","ios":"levelo://app?vid=f081dad8-e43c-45df-a012-7144fff947d7"},"vehicle_type_id":"4","last_reported":1778796006,"current_range_meters":8000,"station_id":"ce4bhch2rcd13ifvqeug","pricing_plan_id":"cebpf4jnsgd1na2vs0mg"},{"bike_id":"c62b18ba-aa48-40db-a1b4-06b99deae7f5","system_id":"levelo_inurba_marseille","lat":43.27997,"lon":5.38723,"is_reserved":false,"is_disabled":false,"rental_uris":{"android":"levelo://app?vid=c62b18ba-aa48-40db-a1b4-06b99deae7f5","ios":"levelo://app?vid=c62b18ba-aa48-40db-a1b4-06b99deae7f5"},"vehicle_type_id":"4","last_reported":1778796006,"current_range_meters":8000,"station_id":"ce4bhg12rcd13ifvqf80","pricing_plan_id":"cebpf4jnsgd1na2vs0mg"},{"bike_id":"e2ce1f63-0d73-4c38-b80b-527dbbe87d12","system_id":"levelo_inurba_marseille","lat":43.26199,"lon":5.3744,"is_reserved":false,"is_disabled":false,"rental_uris":{"android":"levelo://app?vid=e2ce1f63-0d73-4c38-b80b-527dbbe87d12","ios":"levelo://app?vid=e2ce1f63-0d73-4c38-b80b-527dbbe87d12"},"vehicle_type_id":"4","last_reported":1778796006,"current_range_meters":8000,"station_id":"ce4bhgp2rcd13ifvqfc0","pricing_plan_id":"cebpf4jnsgd1na2vs0mg"},{"bike_id":"51187b76-c735-41d4-9574-0c4068f68b58","system_id":"levelo_inurba_marseille","lat":43.28611,"lon":5.35093,"is_reserved":false,"is_disabled":false,"rental_uris":{"android":"levelo://app?vid=51187b76-c735-41d4-9574-0c4068f68b58","ios":"levelo://app?vid=51187b76-c735-41d4-9574-0c4068f68b58"},"vehicle_type_id":"4","last_reported":1778796006,"current_range_meters":8000,"station_id":"ce4bhch2rcd13ifvqeug","pricing_plan_id":"cebpf4jnsgd1na2vs0mg"},{"bike_id":"409c3b3b-a922-4e30-9f80-abcbec3d38d4","system_id":"levelo_inurba_marseille","lat":43.29593,"lon":5.38677,"is_reserved":false,"is_disabled":false,"rental_uris":{"android":"levelo://app?vid=409c3b3b-a922-4e30-9f80-abcbec3d38d4","ios":"levelo://app?vid=409c3b3b-a922-4e30-9f80-abcbec3d38d4"},"vehicle_type_id":"4","last_reported":1778796006,"current_range_meters":8000,"station_id":"ce4bgih2rcd13ifvqba0","pricing_plan_id":"cebpf4jnsgd1na2vs0mg"},{"bike_id":"a88bc9ae-d88b-46fc-8169-6fe5eb0d8652","system_id":"levelo_inurba_marseille","lat":43.28478,"lon":5.48403,"is_reserved":false,"is_disabled":false,"rental_uris":{"android":"levelo://app?vid=a88bc9ae-d88b-46fc-8169-6fe5eb0d8652","ios":"levelo://app?vid=a88bc9ae-d88b-46fc-8169-6fe5eb0d8652"},"vehicle_type_id":"4","last_reported":1778796006,"current_range_meters":8000,"station_id":"st_d3svhcjqgbts73a3dn0g","pricing_plan_id":"cebpf4jnsgd1na2vs0mg"},{"bike_id":"93cb6135-41e4-408e-8113-4e3c54fddb3b","system_id":"levelo_inurba_marseille","lat":43.29036,"lon":5.3997,"is_reserved":false,"is_disabled":false,"rental_uris":{"android":"levelo://app?vid=93cb6135-41e4-408e-8113-4e3c54fddb3b","ios":"levelo://app?vid=93cb6135-41e4-408e-8113-4e3c54fddb3b"},"vehicle_type_id":"4","last_reported":1778796006,"current_range_meters":8000,"station_id":"ce4bh392rcd13ifvqdm0","pricing_plan_id":"cebpf4jnsgd1na2vs0mg"},{"bike_id":"511c1b75-28d0-408e-8090-dcf02c519f9c","system_id":"levelo_inurba_marseille","lat":43.30537,"lon":5.36502,"is_reserved":false,"is_disabled":false,"rental_uris":{"android":"levelo://app?vid=511c1b75-28d0-408e-8090-dcf02c519f9c","ios":"levelo://app?vid=511c1b75-28d0-408e-8090-dcf02c519f9c"},"vehicle_type_id":"4","last_reported":1778796006,"current_range_meters":8000,"station_id":"","pricing_plan_id":"cebpf4jnsgd1na2vs0mg"},{"bike_id":"98b788f6-0955-4fd7-8e5b-9bd841faaf5e","system_id":"levelo_inurba_marseille","lat":43.33537,"lon":5.37467,"is_reserved":false,"is_disabled":false,"rental_uris":{"android":"levelo://app?vid=98b788f6-0955-4fd7-8e5b-9bd841faaf5e","ios":"levelo://app?vid=98b788f6-0955-4fd7-8e5b-9bd841faaf5e"},"vehicle_type_id":"4","last_reported":1778796006,"current_range_meters":8000,"station_id":"st_d46tts09ee8s73dlu43g","pricing_plan_id":"cebpf4jnsgd1na2vs0mg"},{"bike_id":"3cae48fe-6e61-4718-836e-21ed86d4a126","system_id":"levelo_inurba_marseille","lat":43.29875,"lon":5.38921,"is_reserved":false,"is_disabled":false,"rental_uris":{"android":"levelo://app?vid=3cae48fe-6e61-4718-836e-21ed86d4a126","ios":"levelo://app?vid=3cae48fe-6e61-4718-836e-21ed86d4a126"},"vehicle_type_id":"4","last_reported":1778796006,"current_range_meters":8000,"station_id":"ce4bh392rcd13ifvqdl0","pricing_plan_id":"cebpf4jnsgd1na2vs0mg"},{"bike_id":"2de54cfa-527c-4386-926f-717294da9ce0","system_id":"levelo_inurba_marseille","lat":43.29299,"lon":5.3746,"is_reserved":false,"is_disabled":false,"rental_uris":{"android":"levelo://app?vid=2de54cfa-527c-4386-926f-717294da9ce0","ios":"levelo://app?vid=2de54cfa-527c-4386-926f-717294da9ce0"},"vehicle_type_id":"4","last_reported":1778796006,"current_range_meters":8000,"station_id":"ce4bgi12rcd13ifvqb70","pricing_plan_id":"cebpf4jnsgd1na2vs0mg"},{"bike_id":"64a8d44a-7dc0-438b-a689-a19958a2c8f7","system_id":"levelo_inurba_marseille","lat":43.33004,"lon":5.39034,"is_reserved":false,"is_disabled":false,"rental_uris":{"android":"levelo://app?vid=64a8d44a-7dc0-438b-a689-a19958a2c8f7","ios":"levelo://app?vid=64a8d44a-7dc0-438b-a689-a19958a2c8f7"},"vehicle_type_id":"4","last_reported":1778796006,"current_range_meters":8000,"station_id":"ce4bhr92rcd13ifvqhrg","pricing_plan_id":"cebpf4jnsgd1na2vs0mg"},{"bike_id":"7f5acffe-f62d-41df-8f26-c6a329dd4663","system_id":"levelo_inurba_marseille","lat":43.30891,"lon":5.39621,"is_reserved":false,"is_disabled":false,"rental_uris":{"android":"levelo://app?vid=7f5acffe-f62d-41df-8f26-c6a329dd4663","ios":"levelo://app?vid=7f5acffe-f62d-41df-8f26-c6a329dd4663"},"vehicle_type_id":"4","last_reported":1778796006,"current_range_meters":8000,"station_id":"ce4bh012rcd13ifvqcv0","pricing_plan_id":"cebpf4jnsgd1na2vs0mg"},{"bike_id":"314c7953-4a9b-4ba4-9227-1be859c33df7","system_id":"levelo_inurba_marseille","lat":43.28,"lon":5.40012,"is_reserved":false,"is_disabled":false,"rental_uris":{"android":"levelo://app?vid=314c7953-4a9b-4ba4-9227-1be859c33df7","ios":"levelo://app?vid=314c7953-4a9b-4ba4-9227-1be859c33df7"},"vehicle_type_id":"4","last_reported":1778796006,"current_range_meters":8000,"station_id":"ce4bho92rcd13ifvqh4g","pricing_plan_id":"cebpf4jnsgd1na2vs0mg"},{"bike_id":"3770903e-9831-4a06-8226-646ab042500a","system_id":"levelo_inurba_marseille","lat":43.28532,"lon":5.44089,"is_reserved":false,"is_disabled":false,"rental_uris":{"android":"levelo://app?vid=3770903e-9831-4a06-8226-646ab042500a","ios":"levelo://app?vid=3770903e-9831-4a06-8226-646ab042500a"},"vehicle_type_id":"4","last_reported":1778796006,"current_range_meters":8000,"station_id":"st_d3j3df2ikq2c7380ej80","pricing_plan_id":"cebpf4jnsgd1na2vs0mg"},{"bike_id":"658da880-75f0-4b3a-9be9-ad436002d4d0","system_id":"levelo_inurba_marseille","lat":43.25324,"lon":5.42161,"is_reserved":false,"is_disabled":false,"rental_uris":{"android":"levelo://app?vid=658da880-75f0-4b3a-9be9-ad436002d4d0","ios":"levelo://app?vid=658da880-75f0-4b3a-9be9-ad436002d4d0"},"vehicle_type_id":"4","last_reported":1778796006,"current_range_meters":8000,"station_id":"st_d2m65c5bi1j21697t3ng","pricing_plan_id":"cebpf4jnsgd1na2vs0mg"},{"bike_id":"d46792ac-f5ff-4481-98df-fd0ffbee973c","system_id":"levelo_inurba_marseille","lat":43.29055,"lon":5.39963,"is_reserved":false,"is_disabled":true,"rental_uris":{"android":"levelo://app?vid=d46792ac-f5ff-4481-98df-fd0ffbee973c","ios":"levelo://app?vid=d46792ac-f5ff-4481-98df-fd0ffbee973c"},"vehicle_type_id":"4","last_reported":1778796006,"current_range_meters":8000,"station_id":"ce4bh392rcd13ifvqdm0","pricing_plan_id":"cebpf4jnsgd1na2vs0mg"},{"bike_id":"6c8a1720-2a5c-4e5c-ae69-8af4e6466b4d","system_id":"levelo_inurba_marseille","lat":43.31225,"lon":5.38465,"is_reserved":false,"is_disabled":false,"rental_uris":{"android":"levelo://app?vid=6c8a1720-2a5c-4e5c-ae69-8af4e6466b4d","ios":"levelo://app?vid=6c8a1720-2a5c-4e5c-ae69-8af4e6466b4d"},"vehicle_type_id":"4","last_reported":1778796006,"current_range_meters":8400,"station_id":"","pricing_plan_id":"cebpf4jnsgd1na2vs0mg"},{"bike_id":"e53adcd6-4f59-4fbc-a29b-267cfe56f44a","system_id":"levelo_inurba_marseille","lat":43.26492,"lon":5.3954,"is_reserved":false,"is_disabled":false,"rental_uris":{"android":"levelo://app?vid=e53adcd6-4f59-4fbc-a29b-267cfe56f44a","ios":"levelo://app?vid=e53adcd6-4f59-4fbc-a29b-267cfe56f44a"},"vehicle_type_id":"4","last_reported":1778796006,"current_range_meters":8400,"station_id":"ce4bhi12rcd13ifvqfq0","pricing_plan_id":"cebpf4jnsgd1na2vs0mg"},{"bike_id":"5c3a0349-61e9-454c-87f7-3f958ea4175c","system_id":"levelo_inurba_marseille","lat":43.2952,"lon":5.37487,"is_reserved":false,"is_disabled":false,"rental_uris":{"android":"levelo://app?vid=5c3a0349-61e9-454c-87f7-3f958ea4175c","ios":"levelo://app?vid=5c3a0349-61e9-454c-87f7-3f958ea4175c"},"vehicle_type_id":"4","last_reported":1778796006,"current_range_meters":8400,"station_id":"ce4bgkp2rcd13ifvqbmg","pricing_plan_id":"cebpf4jnsgd1na2vs0mg"},{"bike_id":"c5fa3b16-6a1d-48ed-90c5-0d892f974715","system_id":"levelo_inurba_marseille","lat":43.29845,"lon":5.36268,"is_reserved":false,"is_disabled":false,"rental_uris":{"android":"levelo://app?vid=c5fa3b16-6a1d-48ed-90c5-0d892f974715","ios":"levelo://app?vid=c5fa3b16-6a1d-48ed-90c5-0d892f974715"},"vehicle_type_id":"4","last_reported":1778796006,"current_range_meters":8400,"station_id":"ce4bgpp2rcd13ifvqc3g","pricing_plan_id":"cebpf4jnsgd1na2vs0mg"},{"bike_id":"a4882181-b919-4ecc-b9b3-387fb9d8d338","system_id":"levelo_inurba_marseille","lat":43.28481,"lon":5.38406,"is_reserved":false,"is_disabled":false,"rental_uris":{"android":"levelo://app?vid=a4882181-b919-4ecc-b9b3-387fb9d8d338","ios":"levelo://app?vid=a4882181-b919-4ecc-b9b3-387fb9d8d338"},"vehicle_type_id":"4","last_reported":1778796006,"current_range_meters":8400,"station_id":"ce4bh512rcd13ifvqe3g","pricing_plan_id":"cebpf4jnsgd1na2vs0mg"},{"bike_id":"303d4dac-b7d9-41ea-b606-603d954d33f9","system_id":"levelo_inurba_marseille","lat":43.29991,"lon":5.38488,"is_reserved":false,"is_disabled":false,"rental_uris":{"android":"levelo://app?vid=303d4dac-b7d9-41ea-b606-603d954d33f9","ios":"levelo://app?vid=303d4dac-b7d9-41ea-b606-603d954d33f9"},"vehicle_type_id":"4","last_reported":1778796006,"current_range_meters":8400,"station_id":"ce4bgj92rcd13ifvqbd0","pricing_plan_id":"cebpf4jnsgd1na2vs0mg"},{"bike_id":"a0a1325a-63f5-41af-9d9d-5e12a0090207","system_id":"levelo_inurba_marseille","lat":43.30954,"lon":5.3905,"is_reserved":false,"is_disabled":false,"rental_uris":{"android":"levelo://app?vid=a0a1325a-63f5-41af-9d9d-5e12a0090207","ios":"levelo://app?vid=a0a1325a-63f5-41af-9d9d-5e12a0090207"},"vehicle_type_id":"4","last_reported":1778796006,"current_range_meters":8400,"station_id":"ce4bgup2rcd13ifvqco0","pricing_plan_id":"cebpf4jnsgd1na2vs0mg"},{"bike_id":"12844884-e294-4141-bf9e-9b78681f58fa","system_id":"levelo_inurba_marseille","lat":43.30432,"lon":5.38879,"is_reserved":false,"is_disabled":false,"rental_uris":{"android":"levelo://app?vid=12844884-e294-4141-bf9e-9b78681f58fa","ios":"levelo://app?vid=12844884-e294-4141-bf9e-9b78681f58fa"},"vehicle_type_id":"4","last_reported":1778796006,"current_range_meters":8400,"station_id":"ce4bgk12rcd13ifvqbi0","pricing_plan_id":"cebpf4jnsgd1na2vs0mg"},{"bike_id":"daf89c1a-ac46-4a29-a9a8-75dba19355f0","system_id":"levelo_inurba_marseille","lat":43.24393,"lon":5.37059,"is_reserved":false,"is_disabled":false,"rental_uris":{"android":"levelo://app?vid=daf89c1a-ac46-4a29-a9a8-75dba19355f0","ios":"levelo://app?vid=daf89c1a-ac46-4a29-a9a8-75dba19355f0"},"vehicle_type_id":"4","last_reported":1778796006,"current_range_meters":8400,"station_id":"ce4bhhh2rcd13ifvqfk0","pricing_plan_id":"cebpf4jnsgd1na2vs0mg"},{"bike_id":"f6256870-c4dd-4b62-b17e-01ae8d80757a","system_id":"levelo_inurba_marseille","lat":43.26218,"lon":5.38768,"is_reserved":false,"is_disabled":false,"rental_uris":{"android":"levelo://app?vid=f6256870-c4dd-4b62-b17e-01ae8d80757a","ios":"levelo://app?vid=f6256870-c4dd-4b62-b17e-01ae8d80757a"},"vehicle_type_id":"4","last_reported":1778796006,"current_range_meters":8400,"station_id":"","pricing_plan_id":"cebpf4jnsgd1na2vs0mg"},{"bike_id":"f5f79339-f7bf-4874-a985-2850d221bb5f","system_id":"levelo_inurba_marseille","lat":43.33541,"lon":5.3748,"is_reserved":false,"is_disabled":false,"rental_uris":{"android":"levelo://app?vid=f5f79339-f7bf-4874-a985-2850d221bb5f","ios":"levelo://app?vid=f5f79339-f7bf-4874-a985-2850d221bb5f"},"vehicle_type_id":"4","last_reported":1778796006,"current_range_meters":8400,"station_id":"st_d46tts09ee8s73dlu43g","pricing_plan_id":"cebpf4jnsgd1na2vs0mg"},{"bike_id":"0bacd873-aa02-475e-8ec2-0090ebda90fa","system_id":"levelo_inurba_marseille","lat":43.29522,"lon":5.38533,"is_reserved":false,"is_disabled":false,"rental_uris":{"android":"levelo://app?vid=0bacd873-aa02-475e-8ec2-0090ebda90fa","ios":"levelo://app?vid=0bacd873-aa02-475e-8ec2-0090ebda90fa"},"vehicle_type_id":"4","last_reported":1778796006,"current_range_meters":8400,"station_id":"ce4bgih2rcd13ifvqba0","pricing_plan_id":"cebpf4jnsgd1na2vs0mg"},{"bike_id":"043fd45d-dfb2-4626-a65d-bb08ca503db3","system_id":"levelo_inurba_marseille","lat":43.27949,"lon":5.3844,"is_reserved":false,"is_disabled":false,"rental_uris":{"android":"levelo://app?vid=043fd45d-dfb2-4626-a65d-bb08ca503db3","ios":"levelo://app?vid=043fd45d-dfb2-4626-a65d-bb08ca503db3"},"vehicle_type_id":"4","last_reported":1778796006,"current_range_meters":8400,"station_id":"","pricing_plan_id":"cebpf4jnsgd1na2vs0mg"},{"bike_id":"d1a7e548-e76e-4d47-8cad-74f36fcb5ab7","system_id":"levelo_inurba_marseille","lat":43.31366,"lon":5.38485,"is_reserved":false,"is_disabled":false,"rental_uris":{"android":"levelo://app?vid=d1a7e548-e76e-4d47-8cad-74f36fcb5ab7","ios":"levelo://app?vid=d1a7e548-e76e-4d47-8cad-74f36fcb5ab7"},"vehicle_type_id":"4","last_reported":1778796006,"current_range_meters":8400,"station_id":"ce4bgt92rcd13ifvqcf0","pricing_plan_id":"cebpf4jnsgd1na2vs0mg"},{"bike_id":"27e462ae-aa3c-45da-85f8-0fca40243682","system_id":"levelo_inurba_marseille","lat":43.29528,"lon":5.38539,"is_reserved":false,"is_disabled":false,"rental_uris":{"android":"levelo://app?vid=27e462ae-aa3c-45da-85f8-0fca40243682","ios":"levelo://app?vid=27e462ae-aa3c-45da-85f8-0fca40243682"},"vehicle_type_id":"4","last_reported":1778796006,"current_range_meters":8400,"station_id":"ce4bgih2rcd13ifvqba0","pricing_plan_id":"cebpf4jnsgd1na2vs0mg"},{"bike_id":"5163ddc8-b81f-4505-a853-8046da93af32","system_id":"levelo_inurba_marseille","lat":43.29792,"lon":5.40393,"is_reserved":false,"is_disabled":false,"rental_uris":{"android":"levelo://app?vid=5163ddc8-b81f-4505-a853-8046da93af32","ios":"levelo://app?vid=5163ddc8-b81f-4505-a853-8046da93af32"},"vehicle_type_id":"4","last_reported":1778796006,"current_range_meters":8400,"station_id":"ce4bh112rcd13ifvqd90","pricing_plan_id":"cebpf4jnsgd1na2vs0mg"},{"bike_id":"c9e64344-17ed-4b4a-b320-753cc1f13f79","system_id":"levelo_inurba_marseille","lat":43.30477,"lon":5.37913,"is_reserved":false,"is_disabled":false,"rental_uris":{"android":"levelo://app?vid=c9e64344-17ed-4b4a-b320-753cc1f13f79","ios":"levelo://app?vid=c9e64344-17ed-4b4a-b320-753cc1f13f79"},"vehicle_type_id":"4","last_reported":1778796006,"current_range_meters":8400,"station_id":"ce4bgup2rcd13ifvqcn0","pricing_plan_id":"cebpf4jnsgd1na2vs0mg"},{"bike_id":"4d1adb8b-faa6-4c2e-8fbc-936628286a75","system_id":"levelo_inurba_marseille","lat":43.26375,"lon":5.40299,"is_reserved":false,"is_disabled":false,"rental_uris":{"android":"levelo://app?vid=4d1adb8b-faa6-4c2e-8fbc-936628286a75","ios":"levelo://app?vid=4d1adb8b-faa6-4c2e-8fbc-936628286a75"},"vehicle_type_id":"4","last_reported":1778796006,"current_range_meters":8400,"station_id":"","pricing_plan_id":"cebpf4jnsgd1na2vs0mg"},{"bike_id":"9275dd93-ac1a-4e6e-ba50-f59f37d5eacf","system_id":"levelo_inurba_marseille","lat":43.24476,"lon":5.42529,"is_reserved":false,"is_disabled":false,"rental_uris":{"android":"levelo://app?vid=9275dd93-ac1a-4e6e-ba50-f59f37d5eacf","ios":"levelo://app?vid=9275dd93-ac1a-4e6e-ba50-f59f37d5eacf"},"vehicle_type_id":"4","last_reported":1778796006,"current_range_meters":8400,"station_id":"st_d4a3vfp97mjs738cd8kg","pricing_plan_id":"cebpf4jnsgd1na2vs0mg"},{"bike_id":"59e80b5b-31bb-4f08-bb59-581a034e7f28","system_id":"levelo_inurba_marseille","lat":43.28273,"lon":5.35067,"is_reserved":false,"is_disabled":false,"rental_uris":{"android":"levelo://app?vid=59e80b5b-31bb-4f08-bb59-581a034e7f28","ios":"levelo://app?vid=59e80b5b-31bb-4f08-bb59-581a034e7f28"},"vehicle_type_id":"4","last_reported":1778796006,"current_range_meters":8400,"station_id":"ce4bhbp2rcd13ifvqerg","pricing_plan_id":"cebpf4jnsgd1na2vs0mg"},{"bike_id":"2b7b4933-8829-463c-a55e-f6264c1ec7c1","system_id":"levelo_inurba_marseille","lat":43.28694,"lon":5.46681,"is_reserved":false,"is_disabled":false,"rental_uris":{"android":"levelo://app?vid=2b7b4933-8829-463c-a55e-f6264c1ec7c1","ios":"levelo://app?vid=2b7b4933-8829-463c-a55e-f6264c1ec7c1"},"vehicle_type_id":"4","last_reported":1778796006,"current_range_meters":8400,"station_id":"st_d6tc3vkotcvc738tfjhg","pricing_plan_id":"cebpf4jnsgd1na2vs0mg"},{"bike_id":"f7214043-017b-4c5a-be3b-dcd4536be574","system_id":"levelo_inurba_marseille","lat":43.29512,"lon":5.39038,"is_reserved":false,"is_disabled":false,"rental_uris":{"android":"levelo://app?vid=f7214043-017b-4c5a-be3b-dcd4536be574","ios":"levelo://app?vid=f7214043-017b-4c5a-be3b-dcd4536be574"},"vehicle_type_id":"4","last_reported":1778796006,"current_range_meters":8800,"station_id":"ce4bh3p2rcd13ifvqdp0","pricing_plan_id":"cebpf4jnsgd1na2vs0mg"},{"bike_id":"8dabe7c5-4c83-45c9-8c0c-e25db8846543","system_id":"levelo_inurba_marseille","lat":43.29962,"lon":5.38489,"is_reserved":false,"is_disabled":false,"rental_uris":{"android":"levelo://app?vid=8dabe7c5-4c83-45c9-8c0c-e25db8846543","ios":"levelo://app?vid=8dabe7c5-4c83-45c9-8c0c-e25db8846543"},"vehicle_type_id":"4","last_reported":1778796006,"current_range_meters":8800,"station_id":"ce4bgj92rcd13ifvqbd0","pricing_plan_id":"cebpf4jnsgd1na2vs0mg"},{"bike_id":"69ee6bed-5601-48fd-a542-34b0427c1ca0","system_id":"levelo_inurba_marseille","lat":43.25642,"lon":5.38518,"is_reserved":false,"is_disabled":false,"rental_uris":{"android":"levelo://app?vid=69ee6bed-5601-48fd-a542-34b0427c1ca0","ios":"levelo://app?vid=69ee6bed-5601-48fd-a542-34b0427c1ca0"},"vehicle_type_id":"4","last_reported":1778796006,"current_range_meters":8800,"station_id":"","pricing_plan_id":"cebpf4jnsgd1na2vs0mg"},{"bike_id":"b603718f-f496-4aae-89bc-19b5968b973b","system_id":"levelo_inurba_marseille","lat":43.2798,"lon":5.38726,"is_reserved":false,"is_disabled":false,"rental_uris":{"android":"levelo://app?vid=b603718f-f496-4aae-89bc-19b5968b973b","ios":"levelo://app?vid=b603718f-f496-4aae-89bc-19b5968b973b"},"vehicle_type_id":"4","last_reported":1778796006,"current_range_meters":8800,"station_id":"ce4bhg12rcd13ifvqf80","pricing_plan_id":"cebpf4jnsgd1na2vs0mg"},{"bike_id":"ce53c828-abe6-4bce-9c28-c4fd91b5e9ce","system_id":"levelo_inurba_marseille","lat":43.28848,"lon":5.39341,"is_reserved":false,"is_disabled":false,"rental_uris":{"android":"levelo://app?vid=ce53c828-abe6-4bce-9c28-c4fd91b5e9ce","ios":"levelo://app?vid=ce53c828-abe6-4bce-9c28-c4fd91b5e9ce"},"vehicle_type_id":"4","last_reported":1778796006,"current_range_meters":8800,"station_id":"ce4bh2p2rcd13ifvqdi0","pricing_plan_id":"cebpf4jnsgd1na2vs0mg"},{"bike_id":"fa59a2f1-3a57-4d10-8122-2871d8480ac9","system_id":"levelo_inurba_marseille","lat":43.27919,"lon":5.39223,"is_reserved":false,"is_disabled":false,"rental_uris":{"android":"levelo://app?vid=fa59a2f1-3a57-4d10-8122-2871d8480ac9","ios":"levelo://app?vid=fa59a2f1-3a57-4d10-8122-2871d8480ac9"},"vehicle_type_id":"4","last_reported":1778796006,"current_range_meters":8800,"station_id":"","pricing_plan_id":"cebpf4jnsgd1na2vs0mg"},{"bike_id":"5678d171-aa4c-4e18-8510-e7723263d165","system_id":"levelo_inurba_marseille","lat":43.23161,"lon":5.43719,"is_reserved":false,"is_disabled":false,"rental_uris":{"android":"levelo://app?vid=5678d171-aa4c-4e18-8510-e7723263d165","ios":"levelo://app?vid=5678d171-aa4c-4e18-8510-e7723263d165"},"vehicle_type_id":"4","last_reported":1778796006,"current_range_meters":8800,"station_id":"ce4bhmp2rcd13ifvqgog","pricing_plan_id":"cebpf4jnsgd1na2vs0mg"},{"bike_id":"27704a09-2a84-4e44-8cae-7a34ca42d9c1","system_id":"levelo_inurba_marseille","lat":43.26655,"lon":5.3725,"is_reserved":false,"is_disabled":false,"rental_uris":{"android":"levelo://app?vid=27704a09-2a84-4e44-8cae-7a34ca42d9c1","ios":"levelo://app?vid=27704a09-2a84-4e44-8cae-7a34ca42d9c1"},"vehicle_type_id":"4","last_reported":1778796006,"current_range_meters":8800,"station_id":"","pricing_plan_id":"cebpf4jnsgd1na2vs0mg"},{"bike_id":"992593cf-8c58-433c-b2f5-8a671b870530","system_id":"levelo_inurba_marseille","lat":43.28928,"lon":5.36204,"is_reserved":false,"is_disabled":false,"rental_uris":{"android":"levelo://app?vid=992593cf-8c58-433c-b2f5-8a671b870530","ios":"levelo://app?vid=992593cf-8c58-433c-b2f5-8a671b870530"},"vehicle_type_id":"4","last_reported":1778796006,"current_range_meters":8800,"station_id":"ce4bhc92rcd13ifvqetg","pricing_plan_id":"cebpf4jnsgd1na2vs0mg"},{"bike_id":"51f2aac7-f9be-4b98-a404-4dc10e7dae1c","system_id":"levelo_inurba_marseille","lat":43.29844,"lon":5.36256,"is_reserved":false,"is_disabled":false,"rental_uris":{"android":"levelo://app?vid=51f2aac7-f9be-4b98-a404-4dc10e7dae1c","ios":"levelo://app?vid=51f2aac7-f9be-4b98-a404-4dc10e7dae1c"},"vehicle_type_id":"4","last_reported":1778796006,"current_range_meters":8800,"station_id":"ce4bgpp2rcd13ifvqc3g","pricing_plan_id":"cebpf4jnsgd1na2vs0mg"},{"bike_id":"623178b3-0db7-4274-9482-5f75eca72f16","system_id":"levelo_inurba_marseille","lat":43.28431,"lon":5.39188,"is_reserved":false,"is_disabled":false,"rental_uris":{"android":"levelo://app?vid=623178b3-0db7-4274-9482-5f75eca72f16","ios":"levelo://app?vid=623178b3-0db7-4274-9482-5f75eca72f16"},"vehicle_type_id":"4","last_reported":1778796006,"current_range_meters":8800,"station_id":"ce4bhoh2rcd13ifvqh5g","pricing_plan_id":"cebpf4jnsgd1na2vs0mg"},{"bike_id":"ee8beb7e-e013-4d1c-aa6c-db030df27c05","system_id":"levelo_inurba_marseille","lat":43.29898,"lon":5.38143,"is_reserved":false,"is_disabled":false,"rental_uris":{"android":"levelo://app?vid=ee8beb7e-e013-4d1c-aa6c-db030df27c05","ios":"levelo://app?vid=ee8beb7e-e013-4d1c-aa6c-db030df27c05"},"vehicle_type_id":"4","last_reported":1778796006,"current_range_meters":8800,"station_id":"ce4bgj12rcd13ifvqbc0","pricing_plan_id":"cebpf4jnsgd1na2vs0mg"},{"bike_id":"1902f9f2-9ba8-46c0-bacf-8cac75c83ba5","system_id":"levelo_inurba_marseille","lat":43.31385,"lon":5.36682,"is_reserved":false,"is_disabled":false,"rental_uris":{"android":"levelo://app?vid=1902f9f2-9ba8-46c0-bacf-8cac75c83ba5","ios":"levelo://app?vid=1902f9f2-9ba8-46c0-bacf-8cac75c83ba5"},"vehicle_type_id":"4","last_reported":1778796006,"current_range_meters":8800,"station_id":"","pricing_plan_id":"cebpf4jnsgd1na2vs0mg"},{"bike_id":"75fbf40b-61b5-48a3-a920-f758ef4ada58","system_id":"levelo_inurba_marseille","lat":43.30159,"lon":5.38079,"is_reserved":false,"is_disabled":false,"rental_uris":{"android":"levelo://app?vid=75fbf40b-61b5-48a3-a920-f758ef4ada58","ios":"levelo://app?vid=75fbf40b-61b5-48a3-a920-f758ef4ada58"},"vehicle_type_id":"4","last_reported":1778796006,"current_range_meters":8800,"station_id":"ce4bgjp2rcd13ifvqbh0","pricing_plan_id":"cebpf4jnsgd1na2vs0mg"},{"bike_id":"6b379858-4a6b-45a0-96f4-19512c9626ea","system_id":"levelo_inurba_marseille","lat":43.23199,"lon":5.39996,"is_reserved":false,"is_disabled":false,"rental_uris":{"android":"levelo://app?vid=6b379858-4a6b-45a0-96f4-19512c9626ea","ios":"levelo://app?vid=6b379858-4a6b-45a0-96f4-19512c9626ea"},"vehicle_type_id":"4","last_reported":1778796006,"current_range_meters":8800,"station_id":"ce4bhn12rcd13ifvqgqg","pricing_plan_id":"cebpf4jnsgd1na2vs0mg"},{"bike_id":"3cdb0195-4f96-4947-92dd-52d1afc71788","system_id":"levelo_inurba_marseille","lat":43.22562,"lon":5.41637,"is_reserved":false,"is_disabled":false,"rental_uris":{"android":"levelo://app?vid=3cdb0195-4f96-4947-92dd-52d1afc71788","ios":"levelo://app?vid=3cdb0195-4f96-4947-92dd-52d1afc71788"},"vehicle_type_id":"4","last_reported":1778796006,"current_range_meters":8800,"station_id":"st_d2o4gvlbi1j2169b742g","pricing_plan_id":"cebpf4jnsgd1na2vs0mg"},{"bike_id":"ab5d2c88-2225-4484-b022-e013d40ae356","system_id":"levelo_inurba_marseille","lat":43.27359,"lon":5.36243,"is_reserved":false,"is_disabled":false,"rental_uris":{"android":"levelo://app?vid=ab5d2c88-2225-4484-b022-e013d40ae356","ios":"levelo://app?vid=ab5d2c88-2225-4484-b022-e013d40ae356"},"vehicle_type_id":"4","last_reported":1778796006,"current_range_meters":8800,"station_id":"ce4bhbh2rcd13ifvqeo0","pricing_plan_id":"cebpf4jnsgd1na2vs0mg"},{"bike_id":"88c0458d-410d-486d-8514-53ff65f224d5","system_id":"levelo_inurba_marseille","lat":43.26213,"lon":5.3743,"is_reserved":false,"is_disabled":false,"rental_uris":{"android":"levelo://app?vid=88c0458d-410d-486d-8514-53ff65f224d5","ios":"levelo://app?vid=88c0458d-410d-486d-8514-53ff65f224d5"},"vehicle_type_id":"4","last_reported":1778796006,"current_range_meters":8800,"station_id":"ce4bhgp2rcd13ifvqfc0","pricing_plan_id":"cebpf4jnsgd1na2vs0mg"},{"bike_id":"27fb9d97-50b6-4b38-aaf8-70afe93aed74","system_id":"levelo_inurba_marseille","lat":43.30146,"lon":5.37414,"is_reserved":false,"is_disabled":false,"rental_uris":{"android":"levelo://app?vid=27fb9d97-50b6-4b38-aaf8-70afe93aed74","ios":"levelo://app?vid=27fb9d97-50b6-4b38-aaf8-70afe93aed74"},"vehicle_type_id":"4","last_reported":1778796006,"current_range_meters":8800,"station_id":"ce4bgs92rcd13ifvqcc0","pricing_plan_id":"cebpf4jnsgd1na2vs0mg"},{"bike_id":"7721e457-13f9-4d25-8803-7e0bf53167c3","system_id":"levelo_inurba_marseille","lat":43.29048,"lon":5.35903,"is_reserved":false,"is_disabled":false,"rental_uris":{"android":"levelo://app?vid=7721e457-13f9-4d25-8803-7e0bf53167c3","ios":"levelo://app?vid=7721e457-13f9-4d25-8803-7e0bf53167c3"},"vehicle_type_id":"4","last_reported":1778796006,"current_range_meters":8800,"station_id":"ce4bha92rcd13ifvqeg0","pricing_plan_id":"cebpf4jnsgd1na2vs0mg"},{"bike_id":"10609d51-c5c4-4c4a-8ede-827be8579f7d","system_id":"levelo_inurba_marseille","lat":43.292,"lon":5.3582,"is_reserved":false,"is_disabled":false,"rental_uris":{"android":"levelo://app?vid=10609d51-c5c4-4c4a-8ede-827be8579f7d","ios":"levelo://app?vid=10609d51-c5c4-4c4a-8ede-827be8579f7d"},"vehicle_type_id":"4","last_reported":1778796006,"current_range_meters":8800,"station_id":"ce4bhb12rcd13ifvqel0","pricing_plan_id":"cebpf4jnsgd1na2vs0mg"},{"bike_id":"af20cc9b-d3fb-4902-b77a-283d964c8cb8","system_id":"levelo_inurba_marseille","lat":43.28704,"lon":5.46678,"is_reserved":false,"is_disabled":false,"rental_uris":{"android":"levelo://app?vid=af20cc9b-d3fb-4902-b77a-283d964c8cb8","ios":"levelo://app?vid=af20cc9b-d3fb-4902-b77a-283d964c8cb8"},"vehicle_type_id":"4","last_reported":1778796006,"current_range_meters":8800,"station_id":"st_d6tc3vkotcvc738tfjhg","pricing_plan_id":"cebpf4jnsgd1na2vs0mg"},{"bike_id":"6c54aeef-79cb-4fd6-ad4c-53d115ee9a89","system_id":"levelo_inurba_marseille","lat":43.26561,"lon":5.38988,"is_reserved":false,"is_disabled":false,"rental_uris":{"android":"levelo://app?vid=6c54aeef-79cb-4fd6-ad4c-53d115ee9a89","ios":"levelo://app?vid=6c54aeef-79cb-4fd6-ad4c-53d115ee9a89"},"vehicle_type_id":"4","last_reported":1778796006,"current_range_meters":8800,"station_id":"ce4bhe12rcd13ifvqf30","pricing_plan_id":"cebpf4jnsgd1na2vs0mg"},{"bike_id":"e5342490-485a-4302-a5b2-800cb8c2300e","system_id":"levelo_inurba_marseille","lat":43.29949,"lon":5.38674,"is_reserved":false,"is_disabled":false,"rental_uris":{"android":"levelo://app?vid=e5342490-485a-4302-a5b2-800cb8c2300e","ios":"levelo://app?vid=e5342490-485a-4302-a5b2-800cb8c2300e"},"vehicle_type_id":"4","last_reported":1778796006,"current_range_meters":8800,"station_id":"","pricing_plan_id":"cebpf4jnsgd1na2vs0mg"},{"bike_id":"dcb505ac-4cc6-4f11-8d3d-d28754416324","system_id":"levelo_inurba_marseille","lat":43.28437,"lon":5.3504,"is_reserved":false,"is_disabled":false,"rental_uris":{"android":"levelo://app?vid=dcb505ac-4cc6-4f11-8d3d-d28754416324","ios":"levelo://app?vid=dcb505ac-4cc6-4f11-8d3d-d28754416324"},"vehicle_type_id":"4","last_reported":1778796006,"current_range_meters":8800,"station_id":"ce4bhbh2rcd13ifvqepg","pricing_plan_id":"cebpf4jnsgd1na2vs0mg"},{"bike_id":"7d5e3739-999a-4364-94f6-8925c1422467","system_id":"levelo_inurba_marseille","lat":43.24078,"lon":5.37757,"is_reserved":false,"is_disabled":false,"rental_uris":{"android":"levelo://app?vid=7d5e3739-999a-4364-94f6-8925c1422467","ios":"levelo://app?vid=7d5e3739-999a-4364-94f6-8925c1422467"},"vehicle_type_id":"4","last_reported":1778796006,"current_range_meters":9200,"station_id":"ce4bhnp2rcd13ifvqgvg","pricing_plan_id":"cebpf4jnsgd1na2vs0mg"},{"bike_id":"53d89b78-fbfa-4765-86e4-2d5e25a39c79","system_id":"levelo_inurba_marseille","lat":43.24807,"lon":5.3746,"is_reserved":false,"is_disabled":false,"rental_uris":{"android":"levelo://app?vid=53d89b78-fbfa-4765-86e4-2d5e25a39c79","ios":"levelo://app?vid=53d89b78-fbfa-4765-86e4-2d5e25a39c79"},"vehicle_type_id":"4","last_reported":1778796006,"current_range_meters":9200,"station_id":"ce4bhgh2rcd13ifvqfb0","pricing_plan_id":"cebpf4jnsgd1na2vs0mg"},{"bike_id":"bde9888f-9b59-42e7-a131-a0b960621f11","system_id":"levelo_inurba_marseille","lat":43.23782,"lon":5.36616,"is_reserved":false,"is_disabled":false,"rental_uris":{"android":"levelo://app?vid=bde9888f-9b59-42e7-a131-a0b960621f11","ios":"levelo://app?vid=bde9888f-9b59-42e7-a131-a0b960621f11"},"vehicle_type_id":"4","last_reported":1778796006,"current_range_meters":9200,"station_id":"st_d3nk18o9ro0c73en2l3g","pricing_plan_id":"cebpf4jnsgd1na2vs0mg"},{"bike_id":"24f270e3-6a33-4c20-91d1-50cadf27be12","system_id":"levelo_inurba_marseille","lat":43.26543,"lon":5.3729,"is_reserved":false,"is_disabled":false,"rental_uris":{"android":"levelo://app?vid=24f270e3-6a33-4c20-91d1-50cadf27be12","ios":"levelo://app?vid=24f270e3-6a33-4c20-91d1-50cadf27be12"},"vehicle_type_id":"4","last_reported":1778796006,"current_range_meters":9200,"station_id":"ce4bhg12rcd13ifvqf70","pricing_plan_id":"cebpf4jnsgd1na2vs0mg"},{"bike_id":"542d668d-94a3-43d7-8122-dc170ac76fcb","system_id":"levelo_inurba_marseille","lat":43.24466,"lon":5.42528,"is_reserved":false,"is_disabled":false,"rental_uris":{"android":"levelo://app?vid=542d668d-94a3-43d7-8122-dc170ac76fcb","ios":"levelo://app?vid=542d668d-94a3-43d7-8122-dc170ac76fcb"},"vehicle_type_id":"4","last_reported":1778796006,"current_range_meters":9200,"station_id":"st_d4a3vfp97mjs738cd8kg","pricing_plan_id":"cebpf4jnsgd1na2vs0mg"},{"bike_id":"3f31eb34-2034-48e0-acfb-781783e4399a","system_id":"levelo_inurba_marseille","lat":43.30532,"lon":5.36443,"is_reserved":false,"is_disabled":false,"rental_uris":{"android":"levelo://app?vid=3f31eb34-2034-48e0-acfb-781783e4399a","ios":"levelo://app?vid=3f31eb34-2034-48e0-acfb-781783e4399a"},"vehicle_type_id":"4","last_reported":1778796006,"current_range_meters":9200,"station_id":"","pricing_plan_id":"cebpf4jnsgd1na2vs0mg"},{"bike_id":"4fb14df7-438c-42fa-8aa0-5f524ef701e9","system_id":"levelo_inurba_marseille","lat":43.25603,"lon":5.41772,"is_reserved":false,"is_disabled":false,"rental_uris":{"android":"levelo://app?vid=4fb14df7-438c-42fa-8aa0-5f524ef701e9","ios":"levelo://app?vid=4fb14df7-438c-42fa-8aa0-5f524ef701e9"},"vehicle_type_id":"4","last_reported":1778796006,"current_range_meters":9200,"station_id":"","pricing_plan_id":"cebpf4jnsgd1na2vs0mg"},{"bike_id":"d2ed1282-4750-42a3-8abd-a7d87451c65b","system_id":"levelo_inurba_marseille","lat":43.29438,"lon":5.39774,"is_reserved":false,"is_disabled":false,"rental_uris":{"android":"levelo://app?vid=d2ed1282-4750-42a3-8abd-a7d87451c65b","ios":"levelo://app?vid=d2ed1282-4750-42a3-8abd-a7d87451c65b"},"vehicle_type_id":"4","last_reported":1778796006,"current_range_meters":9200,"station_id":"ce4bh3h2rcd13ifvqdo0","pricing_plan_id":"cebpf4jnsgd1na2vs0mg"},{"bike_id":"e3daeb47-2cac-4056-935b-8ebdfcdf5f8d","system_id":"levelo_inurba_marseille","lat":43.28841,"lon":5.35831,"is_reserved":false,"is_disabled":false,"rental_uris":{"android":"levelo://app?vid=e3daeb47-2cac-4056-935b-8ebdfcdf5f8d","ios":"levelo://app?vid=e3daeb47-2cac-4056-935b-8ebdfcdf5f8d"},"vehicle_type_id":"4","last_reported":1778796006,"current_range_meters":9200,"station_id":"ce4bhb12rcd13ifvqem0","pricing_plan_id":"cebpf4jnsgd1na2vs0mg"},{"bike_id":"aad9f584-de40-4638-8e27-42078febf3bb","system_id":"levelo_inurba_marseille","lat":43.32003,"lon":5.38152,"is_reserved":false,"is_disabled":false,"rental_uris":{"android":"levelo://app?vid=aad9f584-de40-4638-8e27-42078febf3bb","ios":"levelo://app?vid=aad9f584-de40-4638-8e27-42078febf3bb"},"vehicle_type_id":"4","last_reported":1778796006,"current_range_meters":9200,"station_id":"ce4bhr12rcd13ifvqhpg","pricing_plan_id":"cebpf4jnsgd1na2vs0mg"},{"bike_id":"7e0abb9d-45cd-4f2e-9dc0-1d0641b37ff5","system_id":"levelo_inurba_marseille","lat":43.29251,"lon":5.37622,"is_reserved":false,"is_disabled":true,"rental_uris":{"android":"levelo://app?vid=7e0abb9d-45cd-4f2e-9dc0-1d0641b37ff5","ios":"levelo://app?vid=7e0abb9d-45cd-4f2e-9dc0-1d0641b37ff5"},"vehicle_type_id":"4","last_reported":1778796006,"current_range_meters":9200,"station_id":"ce4bgi12rcd13ifvqb80","pricing_plan_id":"cebpf4jnsgd1na2vs0mg"},{"bike_id":"487f5b2a-e05f-4486-a861-37010242d8f5","system_id":"levelo_inurba_marseille","lat":43.28532,"lon":5.44095,"is_reserved":false,"is_disabled":false,"rental_uris":{"android":"levelo://app?vid=487f5b2a-e05f-4486-a861-37010242d8f5","ios":"levelo://app?vid=487f5b2a-e05f-4486-a861-37010242d8f5"},"vehicle_type_id":"4","last_reported":1778796006,"current_range_meters":9200,"station_id":"st_d3j3df2ikq2c7380ej80","pricing_plan_id":"cebpf4jnsgd1na2vs0mg"},{"bike_id":"0ee7e7d5-d25e-446f-bfb7-9c213be9c8fc","system_id":"levelo_inurba_marseille","lat":43.23955,"lon":5.36634,"is_reserved":false,"is_disabled":false,"rental_uris":{"android":"levelo://app?vid=0ee7e7d5-d25e-446f-bfb7-9c213be9c8fc","ios":"levelo://app?vid=0ee7e7d5-d25e-446f-bfb7-9c213be9c8fc"},"vehicle_type_id":"4","last_reported":1778796006,"current_range_meters":9200,"station_id":"ce4bhi12rcd13ifvqfp0","pricing_plan_id":"cebpf4jnsgd1na2vs0mg"},{"bike_id":"cf7b705c-7a37-4054-aa6c-b54b5684440f","system_id":"levelo_inurba_marseille","lat":43.23154,"lon":5.4372,"is_reserved":false,"is_disabled":false,"rental_uris":{"android":"levelo://app?vid=cf7b705c-7a37-4054-aa6c-b54b5684440f","ios":"levelo://app?vid=cf7b705c-7a37-4054-aa6c-b54b5684440f"},"vehicle_type_id":"4","last_reported":1778796006,"current_range_meters":9200,"station_id":"ce4bhmp2rcd13ifvqgog","pricing_plan_id":"cebpf4jnsgd1na2vs0mg"},{"bike_id":"4117bcd0-5d2a-4316-b81a-9e802b6736aa","system_id":"levelo_inurba_marseille","lat":43.30518,"lon":5.3653,"is_reserved":false,"is_disabled":false,"rental_uris":{"android":"levelo://app?vid=4117bcd0-5d2a-4316-b81a-9e802b6736aa","ios":"levelo://app?vid=4117bcd0-5d2a-4316-b81a-9e802b6736aa"},"vehicle_type_id":"4","last_reported":1778796006,"current_range_meters":9200,"station_id":"","pricing_plan_id":"cebpf4jnsgd1na2vs0mg"},{"bike_id":"c6628fba-a420-42a8-8aa0-14ae8baa765a","system_id":"levelo_inurba_marseille","lat":43.30652,"lon":5.40125,"is_reserved":false,"is_disabled":false,"rental_uris":{"android":"levelo://app?vid=c6628fba-a420-42a8-8aa0-14ae8baa765a","ios":"levelo://app?vid=c6628fba-a420-42a8-8aa0-14ae8baa765a"},"vehicle_type_id":"4","last_reported":1778796006,"current_range_meters":9200,"station_id":"ce4bh112rcd13ifvqda0","pricing_plan_id":"cebpf4jnsgd1na2vs0mg"},{"bike_id":"43fd08e9-8801-41b6-946e-6e125f9fb580","system_id":"levelo_inurba_marseille","lat":43.28419,"lon":5.34969,"is_reserved":false,"is_disabled":false,"rental_uris":{"android":"levelo://app?vid=43fd08e9-8801-41b6-946e-6e125f9fb580","ios":"levelo://app?vid=43fd08e9-8801-41b6-946e-6e125f9fb580"},"vehicle_type_id":"4","last_reported":1778796006,"current_range_meters":9200,"station_id":"ce4bhbh2rcd13ifvqepg","pricing_plan_id":"cebpf4jnsgd1na2vs0mg"},{"bike_id":"03e84744-5673-4e78-b03d-059e16e5b07c","system_id":"levelo_inurba_marseille","lat":43.23148,"lon":5.43715,"is_reserved":false,"is_disabled":false,"rental_uris":{"android":"levelo://app?vid=03e84744-5673-4e78-b03d-059e16e5b07c","ios":"levelo://app?vid=03e84744-5673-4e78-b03d-059e16e5b07c"},"vehicle_type_id":"4","last_reported":1778796006,"current_range_meters":9200,"station_id":"ce4bhmp2rcd13ifvqgog","pricing_plan_id":"cebpf4jnsgd1na2vs0mg"},{"bike_id":"8e264f13-2d43-4038-8012-adade1af7959","system_id":"levelo_inurba_marseille","lat":43.27675,"lon":5.3888,"is_reserved":false,"is_disabled":false,"rental_uris":{"android":"levelo://app?vid=8e264f13-2d43-4038-8012-adade1af7959","ios":"levelo://app?vid=8e264f13-2d43-4038-8012-adade1af7959"},"vehicle_type_id":"4","last_reported":1778796006,"current_range_meters":9200,"station_id":"ce4bhi12rcd13ifvqfo0","pricing_plan_id":"cebpf4jnsgd1na2vs0mg"},{"bike_id":"3f9370f5-e1d7-4e52-a0f8-2dee3674c4e9","system_id":"levelo_inurba_marseille","lat":43.31752,"lon":5.37777,"is_reserved":false,"is_disabled":false,"rental_uris":{"android":"levelo://app?vid=3f9370f5-e1d7-4e52-a0f8-2dee3674c4e9","ios":"levelo://app?vid=3f9370f5-e1d7-4e52-a0f8-2dee3674c4e9"},"vehicle_type_id":"4","last_reported":1778796006,"current_range_meters":9200,"station_id":"","pricing_plan_id":"cebpf4jnsgd1na2vs0mg"},{"bike_id":"b92da105-00ff-46b1-bd98-22771d6da483","system_id":"levelo_inurba_marseille","lat":43.24318,"lon":5.3842,"is_reserved":false,"is_disabled":false,"rental_uris":{"android":"levelo://app?vid=b92da105-00ff-46b1-bd98-22771d6da483","ios":"levelo://app?vid=b92da105-00ff-46b1-bd98-22771d6da483"},"vehicle_type_id":"4","last_reported":1778796006,"current_range_meters":9200,"station_id":"","pricing_plan_id":"cebpf4jnsgd1na2vs0mg"},{"bike_id":"f829f4b9-58d1-45a6-9014-d64b4b0b3b6f","system_id":"levelo_inurba_marseille","lat":43.29153,"lon":5.37164,"is_reserved":false,"is_disabled":false,"rental_uris":{"android":"levelo://app?vid=f829f4b9-58d1-45a6-9014-d64b4b0b3b6f","ios":"levelo://app?vid=f829f4b9-58d1-45a6-9014-d64b4b0b3b6f"},"vehicle_type_id":"4","last_reported":1778796006,"current_range_meters":9600,"station_id":"ce4bha92rcd13ifvqeh0","pricing_plan_id":"cebpf4jnsgd1na2vs0mg"},{"bike_id":"ebc5f8a4-4dc7-4926-b512-125079a7684c","system_id":"levelo_inurba_marseille","lat":43.24398,"lon":5.37038,"is_reserved":false,"is_disabled":false,"rental_uris":{"android":"levelo://app?vid=ebc5f8a4-4dc7-4926-b512-125079a7684c","ios":"levelo://app?vid=ebc5f8a4-4dc7-4926-b512-125079a7684c"},"vehicle_type_id":"4","last_reported":1778796006,"current_range_meters":9600,"station_id":"ce4bhhh2rcd13ifvqfk0","pricing_plan_id":"cebpf4jnsgd1na2vs0mg"},{"bike_id":"9b2021d8-c5d8-448d-a392-8636bb8f2d73","system_id":"levelo_inurba_marseille","lat":43.255,"lon":5.37649,"is_reserved":false,"is_disabled":false,"rental_uris":{"android":"levelo://app?vid=9b2021d8-c5d8-448d-a392-8636bb8f2d73","ios":"levelo://app?vid=9b2021d8-c5d8-448d-a392-8636bb8f2d73"},"vehicle_type_id":"4","last_reported":1778796006,"current_range_meters":9600,"station_id":"ce4bhh12rcd13ifvqff0","pricing_plan_id":"cebpf4jnsgd1na2vs0mg"},{"bike_id":"41245f3e-8502-4c14-9b14-d511a01ed938","system_id":"levelo_inurba_marseille","lat":43.30178,"lon":5.38092,"is_reserved":false,"is_disabled":false,"rental_uris":{"android":"levelo://app?vid=41245f3e-8502-4c14-9b14-d511a01ed938","ios":"levelo://app?vid=41245f3e-8502-4c14-9b14-d511a01ed938"},"vehicle_type_id":"4","last_reported":1778796006,"current_range_meters":9600,"station_id":"ce4bgjp2rcd13ifvqbh0","pricing_plan_id":"cebpf4jnsgd1na2vs0mg"},{"bike_id":"69da7701-4b44-4146-b220-f7228b8fafcc","system_id":"levelo_inurba_marseille","lat":43.28664,"lon":5.36353,"is_reserved":false,"is_disabled":false,"rental_uris":{"android":"levelo://app?vid=69da7701-4b44-4146-b220-f7228b8fafcc","ios":"levelo://app?vid=69da7701-4b44-4146-b220-f7228b8fafcc"},"vehicle_type_id":"4","last_reported":1778796006,"current_range_meters":9600,"station_id":"ce4bhah2rcd13ifvqej0","pricing_plan_id":"cebpf4jnsgd1na2vs0mg"},{"bike_id":"065c0af5-591b-421a-a738-917f3edd34fb","system_id":"levelo_inurba_marseille","lat":43.32324,"lon":5.38266,"is_reserved":false,"is_disabled":false,"rental_uris":{"android":"levelo://app?vid=065c0af5-591b-421a-a738-917f3edd34fb","ios":"levelo://app?vid=065c0af5-591b-421a-a738-917f3edd34fb"},"vehicle_type_id":"4","last_reported":1778796006,"current_range_meters":9600,"station_id":"ce4bhr12rcd13ifvqhqg","pricing_plan_id":"cebpf4jnsgd1na2vs0mg"},{"bike_id":"e0b16637-3ef6-48f5-a000-6d4a4719dd04","system_id":"levelo_inurba_marseille","lat":43.26211,"lon":5.37426,"is_reserved":false,"is_disabled":false,"rental_uris":{"android":"levelo://app?vid=e0b16637-3ef6-48f5-a000-6d4a4719dd04","ios":"levelo://app?vid=e0b16637-3ef6-48f5-a000-6d4a4719dd04"},"vehicle_type_id":"4","last_reported":1778796006,"current_range_meters":9600,"station_id":"ce4bhgp2rcd13ifvqfc0","pricing_plan_id":"cebpf4jnsgd1na2vs0mg"},{"bike_id":"b1b8a201-16dc-495b-b24d-5d532dcc2067","system_id":"levelo_inurba_marseille","lat":43.29606,"lon":5.38091,"is_reserved":false,"is_disabled":false,"rental_uris":{"android":"levelo://app?vid=b1b8a201-16dc-495b-b24d-5d532dcc2067","ios":"levelo://app?vid=b1b8a201-16dc-495b-b24d-5d532dcc2067"},"vehicle_type_id":"4","last_reported":1778796006,"current_range_meters":9600,"station_id":"ce4bgl12rcd13ifvqbo0","pricing_plan_id":"cebpf4jnsgd1na2vs0mg"},{"bike_id":"30419022-73cd-4276-b8a6-a3580d3e3dd0","system_id":"levelo_inurba_marseille","lat":43.29041,"lon":5.39959,"is_reserved":false,"is_disabled":false,"rental_uris":{"android":"levelo://app?vid=30419022-73cd-4276-b8a6-a3580d3e3dd0","ios":"levelo://app?vid=30419022-73cd-4276-b8a6-a3580d3e3dd0"},"vehicle_type_id":"4","last_reported":1778796006,"current_range_meters":9600,"station_id":"ce4bh392rcd13ifvqdm0","pricing_plan_id":"cebpf4jnsgd1na2vs0mg"},{"bike_id":"8bcf7ee7-c49a-481a-b794-ca198b099158","system_id":"levelo_inurba_marseille","lat":43.32552,"lon":5.41462,"is_reserved":false,"is_disabled":false,"rental_uris":{"android":"levelo://app?vid=8bcf7ee7-c49a-481a-b794-ca198b099158","ios":"levelo://app?vid=8bcf7ee7-c49a-481a-b794-ca198b099158"},"vehicle_type_id":"4","last_reported":1778796006,"current_range_meters":9600,"station_id":"ce4bhq12rcd13ifvqhhg","pricing_plan_id":"cebpf4jnsgd1na2vs0mg"},{"bike_id":"cf098b1d-2906-438f-99f4-4842fdc29b6a","system_id":"levelo_inurba_marseille","lat":43.29602,"lon":5.38096,"is_reserved":false,"is_disabled":false,"rental_uris":{"android":"levelo://app?vid=cf098b1d-2906-438f-99f4-4842fdc29b6a","ios":"levelo://app?vid=cf098b1d-2906-438f-99f4-4842fdc29b6a"},"vehicle_type_id":"4","last_reported":1778796006,"current_range_meters":9600,"station_id":"ce4bgl12rcd13ifvqbo0","pricing_plan_id":"cebpf4jnsgd1na2vs0mg"},{"bike_id":"4ce04e68-5f15-489f-bccc-1b78761f7dfb","system_id":"levelo_inurba_marseille","lat":43.27313,"lon":5.39075,"is_reserved":false,"is_disabled":false,"rental_uris":{"android":"levelo://app?vid=4ce04e68-5f15-489f-bccc-1b78761f7dfb","ios":"levelo://app?vid=4ce04e68-5f15-489f-bccc-1b78761f7dfb"},"vehicle_type_id":"4","last_reported":1778796006,"current_range_meters":9600,"station_id":"ce4bhgp2rcd13ifvqfe0","pricing_plan_id":"cebpf4jnsgd1na2vs0mg"},{"bike_id":"51664d14-16b2-48cc-bb95-c2f0a523d053","system_id":"levelo_inurba_marseille","lat":43.30017,"lon":5.43061,"is_reserved":false,"is_disabled":false,"rental_uris":{"android":"levelo://app?vid=51664d14-16b2-48cc-bb95-c2f0a523d053","ios":"levelo://app?vid=51664d14-16b2-48cc-bb95-c2f0a523d053"},"vehicle_type_id":"4","last_reported":1778796006,"current_range_meters":9600,"station_id":"","pricing_plan_id":"cebpf4jnsgd1na2vs0mg"},{"bike_id":"5fb2702e-ddb4-4bfc-9173-e5d371dcb492","system_id":"levelo_inurba_marseille","lat":43.28614,"lon":5.35094,"is_reserved":false,"is_disabled":false,"rental_uris":{"android":"levelo://app?vid=5fb2702e-ddb4-4bfc-9173-e5d371dcb492","ios":"levelo://app?vid=5fb2702e-ddb4-4bfc-9173-e5d371dcb492"},"vehicle_type_id":"4","last_reported":1778796006,"current_range_meters":9600,"station_id":"ce4bhch2rcd13ifvqeug","pricing_plan_id":"cebpf4jnsgd1na2vs0mg"},{"bike_id":"5086b699-3dcc-4806-b878-78b08fee24d3","system_id":"levelo_inurba_marseille","lat":43.3106,"lon":5.37173,"is_reserved":false,"is_disabled":false,"rental_uris":{"android":"levelo://app?vid=5086b699-3dcc-4806-b878-78b08fee24d3","ios":"levelo://app?vid=5086b699-3dcc-4806-b878-78b08fee24d3"},"vehicle_type_id":"4","last_reported":1778796006,"current_range_meters":9600,"station_id":"st_d4kl2rp97mjs73e7tdfg","pricing_plan_id":"cebpf4jnsgd1na2vs0mg"},{"bike_id":"0f02f473-ee92-4932-a24a-51ca976f5c6c","system_id":"levelo_inurba_marseille","lat":43.30876,"lon":5.39624,"is_reserved":false,"is_disabled":false,"rental_uris":{"android":"levelo://app?vid=0f02f473-ee92-4932-a24a-51ca976f5c6c","ios":"levelo://app?vid=0f02f473-ee92-4932-a24a-51ca976f5c6c"},"vehicle_type_id":"4","last_reported":1778796006,"current_range_meters":9600,"station_id":"ce4bh012rcd13ifvqcv0","pricing_plan_id":"cebpf4jnsgd1na2vs0mg"},{"bike_id":"3f0b8eb4-f73c-4731-9f6c-46466aa6196b","system_id":"levelo_inurba_marseille","lat":43.28413,"lon":5.34993,"is_reserved":false,"is_disabled":false,"rental_uris":{"android":"levelo://app?vid=3f0b8eb4-f73c-4731-9f6c-46466aa6196b","ios":"levelo://app?vid=3f0b8eb4-f73c-4731-9f6c-46466aa6196b"},"vehicle_type_id":"4","last_reported":1778796006,"current_range_meters":9600,"station_id":"ce4bhbh2rcd13ifvqepg","pricing_plan_id":"cebpf4jnsgd1na2vs0mg"},{"bike_id":"fb2045b4-b09b-4da4-b84c-8b811fca3a9d","system_id":"levelo_inurba_marseille","lat":43.29178,"lon":5.38616,"is_reserved":false,"is_disabled":false,"rental_uris":{"android":"levelo://app?vid=fb2045b4-b09b-4da4-b84c-8b811fca3a9d","ios":"levelo://app?vid=fb2045b4-b09b-4da4-b84c-8b811fca3a9d"},"vehicle_type_id":"4","last_reported":1778796006,"current_range_meters":9600,"station_id":"","pricing_plan_id":"cebpf4jnsgd1na2vs0mg"},{"bike_id":"fdb1420c-8cba-495e-8621-8fdd81cc0df7","system_id":"levelo_inurba_marseille","lat":43.27993,"lon":5.41654,"is_reserved":false,"is_disabled":false,"rental_uris":{"android":"levelo://app?vid=fdb1420c-8cba-495e-8621-8fdd81cc0df7","ios":"levelo://app?vid=fdb1420c-8cba-495e-8621-8fdd81cc0df7"},"vehicle_type_id":"4","last_reported":1778796006,"current_range_meters":9600,"station_id":"ce4bho12rcd13ifvqh1g","pricing_plan_id":"cebpf4jnsgd1na2vs0mg"},{"bike_id":"245034ef-13bc-42be-8840-165da39a6c37","system_id":"levelo_inurba_marseille","lat":43.31682,"lon":5.3779,"is_reserved":false,"is_disabled":false,"rental_uris":{"android":"levelo://app?vid=245034ef-13bc-42be-8840-165da39a6c37","ios":"levelo://app?vid=245034ef-13bc-42be-8840-165da39a6c37"},"vehicle_type_id":"4","last_reported":1778796006,"current_range_meters":9600,"station_id":"","pricing_plan_id":"cebpf4jnsgd1na2vs0mg"},{"bike_id":"d74d3f33-a8dc-4d72-b28b-2cf586e298d3","system_id":"levelo_inurba_marseille","lat":43.28536,"lon":5.44099,"is_reserved":false,"is_disabled":false,"rental_uris":{"android":"levelo://app?vid=d74d3f33-a8dc-4d72-b28b-2cf586e298d3","ios":"levelo://app?vid=d74d3f33-a8dc-4d72-b28b-2cf586e298d3"},"vehicle_type_id":"4","last_reported":1778796006,"current_range_meters":9600,"station_id":"st_d3j3df2ikq2c7380ej80","pricing_plan_id":"cebpf4jnsgd1na2vs0mg"},{"bike_id":"2be2dfbb-5fc9-4d40-99ae-8f0a1bd0747d","system_id":"levelo_inurba_marseille","lat":43.22564,"lon":5.41622,"is_reserved":false,"is_disabled":false,"rental_uris":{"android":"levelo://app?vid=2be2dfbb-5fc9-4d40-99ae-8f0a1bd0747d","ios":"levelo://app?vid=2be2dfbb-5fc9-4d40-99ae-8f0a1bd0747d"},"vehicle_type_id":"4","last_reported":1778796006,"current_range_meters":9600,"station_id":"st_d2o4gvlbi1j2169b742g","pricing_plan_id":"cebpf4jnsgd1na2vs0mg"},{"bike_id":"14f10cf8-3c1f-4ae3-ac40-bc26c23ae538","system_id":"levelo_inurba_marseille","lat":43.24697,"lon":5.39209,"is_reserved":false,"is_disabled":false,"rental_uris":{"android":"levelo://app?vid=14f10cf8-3c1f-4ae3-ac40-bc26c23ae538","ios":"levelo://app?vid=14f10cf8-3c1f-4ae3-ac40-bc26c23ae538"},"vehicle_type_id":"4","last_reported":1778796006,"current_range_meters":9600,"station_id":"","pricing_plan_id":"cebpf4jnsgd1na2vs0mg"},{"bike_id":"c0cfd3d3-466f-48d3-8921-1e72b828172f","system_id":"levelo_inurba_marseille","lat":43.24469,"lon":5.42543,"is_reserved":false,"is_disabled":false,"rental_uris":{"android":"levelo://app?vid=c0cfd3d3-466f-48d3-8921-1e72b828172f","ios":"levelo://app?vid=c0cfd3d3-466f-48d3-8921-1e72b828172f"},"vehicle_type_id":"4","last_reported":1778796006,"current_range_meters":9600,"station_id":"st_d4a3vfp97mjs738cd8kg","pricing_plan_id":"cebpf4jnsgd1na2vs0mg"},{"bike_id":"099f847a-5a20-4db9-baf2-ecf3bab7de31","system_id":"levelo_inurba_marseille","lat":43.29267,"lon":5.36851,"is_reserved":false,"is_disabled":false,"rental_uris":{"android":"levelo://app?vid=099f847a-5a20-4db9-baf2-ecf3bab7de31","ios":"levelo://app?vid=099f847a-5a20-4db9-baf2-ecf3bab7de31"},"vehicle_type_id":"4","last_reported":1778796006,"current_range_meters":9600,"station_id":"ce4bhbp2rcd13ifvqesg","pricing_plan_id":"cebpf4jnsgd1na2vs0mg"},{"bike_id":"e4e24f4a-73a4-4198-84e8-bfce7ee7c808","system_id":"levelo_inurba_marseille","lat":43.29445,"lon":5.39753,"is_reserved":false,"is_disabled":false,"rental_uris":{"android":"levelo://app?vid=e4e24f4a-73a4-4198-84e8-bfce7ee7c808","ios":"levelo://app?vid=e4e24f4a-73a4-4198-84e8-bfce7ee7c808"},"vehicle_type_id":"4","last_reported":1778796006,"current_range_meters":9600,"station_id":"ce4bh3h2rcd13ifvqdo0","pricing_plan_id":"cebpf4jnsgd1na2vs0mg"},{"bike_id":"2dad678a-eba2-49e6-88bf-98c3fc40e9cc","system_id":"levelo_inurba_marseille","lat":43.24074,"lon":5.37747,"is_reserved":false,"is_disabled":false,"rental_uris":{"android":"levelo://app?vid=2dad678a-eba2-49e6-88bf-98c3fc40e9cc","ios":"levelo://app?vid=2dad678a-eba2-49e6-88bf-98c3fc40e9cc"},