{"last_updated":1783274078,"ttl":60,"version":"2.2","data":{"bikes":[{"bike_id":"ba0c28b1-8732-48e2-8079-f25b2b3fbc3c","system_id":"levelo_inurba_marseille","lat":43.337444,"lon":5.374475,"is_reserved":false,"is_disabled":false,"rental_uris":{"android":"levelo://app?vid=ba0c28b1-8732-48e2-8079-f25b2b3fbc3c","ios":"levelo://app?vid=ba0c28b1-8732-48e2-8079-f25b2b3fbc3c"},"vehicle_type_id":"4","last_reported":1783274079,"current_range_meters":0,"station_id":"","pricing_plan_id":"cebpf4jnsgd1na2vs0mg"},{"bike_id":"bf4e3ec7-1fda-4f06-9aed-28b9517289a7","system_id":"levelo_inurba_marseille","lat":43.24809,"lon":5.37434,"is_reserved":false,"is_disabled":false,"rental_uris":{"android":"levelo://app?vid=bf4e3ec7-1fda-4f06-9aed-28b9517289a7","ios":"levelo://app?vid=bf4e3ec7-1fda-4f06-9aed-28b9517289a7"},"vehicle_type_id":"4","last_reported":1783274079,"current_range_meters":2800,"station_id":"ce4bhgh2rcd13ifvqfb0","pricing_plan_id":"cebpf4jnsgd1na2vs0mg"},{"bike_id":"abfcbfeb-97f4-4219-bff4-cddd55cf49f8","system_id":"levelo_inurba_marseille","lat":43.23189,"lon":5.35541,"is_reserved":false,"is_disabled":false,"rental_uris":{"android":"levelo://app?vid=abfcbfeb-97f4-4219-bff4-cddd55cf49f8","ios":"levelo://app?vid=abfcbfeb-97f4-4219-bff4-cddd55cf49f8"},"vehicle_type_id":"4","last_reported":1783274079,"current_range_meters":2800,"station_id":"ce4bhu92rcd13ifvqi70","pricing_plan_id":"cebpf4jnsgd1na2vs0mg"},{"bike_id":"7dcdb77e-5520-404c-a8e4-5410b21ff636","system_id":"levelo_inurba_marseille","lat":43.29585,"lon":5.42398,"is_reserved":false,"is_disabled":false,"rental_uris":{"android":"levelo://app?vid=7dcdb77e-5520-404c-a8e4-5410b21ff636","ios":"levelo://app?vid=7dcdb77e-5520-404c-a8e4-5410b21ff636"},"vehicle_type_id":"4","last_reported":1783274079,"current_range_meters":2800,"station_id":"","pricing_plan_id":"cebpf4jnsgd1na2vs0mg"},{"bike_id":"2c52e4bc-365b-40fb-ace9-a63bc2aa685a","system_id":"levelo_inurba_marseille","lat":43.33079,"lon":5.38568,"is_reserved":false,"is_disabled":false,"rental_uris":{"android":"levelo://app?vid=2c52e4bc-365b-40fb-ace9-a63bc2aa685a","ios":"levelo://app?vid=2c52e4bc-365b-40fb-ace9-a63bc2aa685a"},"vehicle_type_id":"4","last_reported":1783274079,"current_range_meters":2800,"station_id":"","pricing_plan_id":"cebpf4jnsgd1na2vs0mg"},{"bike_id":"abf1c1fa-1405-476f-bd73-54723798211b","system_id":"levelo_inurba_marseille","lat":43.23706,"lon":5.40179,"is_reserved":false,"is_disabled":false,"rental_uris":{"android":"levelo://app?vid=abf1c1fa-1405-476f-bd73-54723798211b","ios":"levelo://app?vid=abf1c1fa-1405-476f-bd73-54723798211b"},"vehicle_type_id":"4","last_reported":1783274079,"current_range_meters":2800,"station_id":"","pricing_plan_id":"cebpf4jnsgd1na2vs0mg"},{"bike_id":"fa75c9cf-5e85-4bfd-bf47-a038dc5b5b76","system_id":"levelo_inurba_marseille","lat":43.29892,"lon":5.38889,"is_reserved":false,"is_disabled":false,"rental_uris":{"android":"levelo://app?vid=fa75c9cf-5e85-4bfd-bf47-a038dc5b5b76","ios":"levelo://app?vid=fa75c9cf-5e85-4bfd-bf47-a038dc5b5b76"},"vehicle_type_id":"4","last_reported":1783274079,"current_range_meters":2800,"station_id":"ce4bh392rcd13ifvqdl0","pricing_plan_id":"cebpf4jnsgd1na2vs0mg"},{"bike_id":"95898401-ac88-419c-bada-af8293a26cdc","system_id":"levelo_inurba_marseille","lat":43.2957,"lon":5.39968,"is_reserved":false,"is_disabled":false,"rental_uris":{"android":"levelo://app?vid=95898401-ac88-419c-bada-af8293a26cdc","ios":"levelo://app?vid=95898401-ac88-419c-bada-af8293a26cdc"},"vehicle_type_id":"4","last_reported":1783274079,"current_range_meters":2800,"station_id":"ce4bh312rcd13ifvqdj0","pricing_plan_id":"cebpf4jnsgd1na2vs0mg"},{"bike_id":"61cd84df-f76f-41ad-9da2-1b4df883e51c","system_id":"levelo_inurba_marseille","lat":43.26253,"lon":5.3896,"is_reserved":false,"is_disabled":false,"rental_uris":{"android":"levelo://app?vid=61cd84df-f76f-41ad-9da2-1b4df883e51c","ios":"levelo://app?vid=61cd84df-f76f-41ad-9da2-1b4df883e51c"},"vehicle_type_id":"4","last_reported":1783274079,"current_range_meters":2800,"station_id":"","pricing_plan_id":"cebpf4jnsgd1na2vs0mg"},{"bike_id":"367e2c77-1840-403a-b532-0336e7732bd2","system_id":"levelo_inurba_marseille","lat":43.25571,"lon":5.38235,"is_reserved":false,"is_disabled":true,"rental_uris":{"android":"levelo://app?vid=367e2c77-1840-403a-b532-0336e7732bd2","ios":"levelo://app?vid=367e2c77-1840-403a-b532-0336e7732bd2"},"vehicle_type_id":"4","last_reported":1783274079,"current_range_meters":3200,"station_id":"ce4bhih2rcd13ifvqfs0","pricing_plan_id":"cebpf4jnsgd1na2vs0mg"},{"bike_id":"50aa6815-cb65-48bd-999a-1d2dfbbe24c7","system_id":"levelo_inurba_marseille","lat":43.28471,"lon":5.4838,"is_reserved":false,"is_disabled":false,"rental_uris":{"android":"levelo://app?vid=50aa6815-cb65-48bd-999a-1d2dfbbe24c7","ios":"levelo://app?vid=50aa6815-cb65-48bd-999a-1d2dfbbe24c7"},"vehicle_type_id":"4","last_reported":1783274079,"current_range_meters":3200,"station_id":"st_d3svhcjqgbts73a3dn0g","pricing_plan_id":"cebpf4jnsgd1na2vs0mg"},{"bike_id":"b7c7c1e8-84e9-49fb-a54d-fbe5086cd61a","system_id":"levelo_inurba_marseille","lat":43.27822,"lon":5.40695,"is_reserved":false,"is_disabled":true,"rental_uris":{"android":"levelo://app?vid=b7c7c1e8-84e9-49fb-a54d-fbe5086cd61a","ios":"levelo://app?vid=b7c7c1e8-84e9-49fb-a54d-fbe5086cd61a"},"vehicle_type_id":"4","last_reported":1783274079,"current_range_meters":3200,"station_id":"ce4bhnh2rcd13ifvqgtg","pricing_plan_id":"cebpf4jnsgd1na2vs0mg"},{"bike_id":"aac6d6f5-5414-4268-950d-e95baa8a24a9","system_id":"levelo_inurba_marseille","lat":43.32485,"lon":5.36578,"is_reserved":false,"is_disabled":false,"rental_uris":{"android":"levelo://app?vid=aac6d6f5-5414-4268-950d-e95baa8a24a9","ios":"levelo://app?vid=aac6d6f5-5414-4268-950d-e95baa8a24a9"},"vehicle_type_id":"4","last_reported":1783274079,"current_range_meters":3200,"station_id":"ce4bhs12rcd13ifvqhvg","pricing_plan_id":"cebpf4jnsgd1na2vs0mg"},{"bike_id":"3edad406-7310-4441-b103-43aa843ff572","system_id":"levelo_inurba_marseille","lat":43.27913,"lon":5.3721,"is_reserved":false,"is_disabled":false,"rental_uris":{"android":"levelo://app?vid=3edad406-7310-4441-b103-43aa843ff572","ios":"levelo://app?vid=3edad406-7310-4441-b103-43aa843ff572"},"vehicle_type_id":"4","last_reported":1783274079,"current_range_meters":3200,"station_id":"","pricing_plan_id":"cebpf4jnsgd1na2vs0mg"},{"bike_id":"1672c8cc-b68e-4341-8176-cb0c75f46473","system_id":"levelo_inurba_marseille","lat":43.25518,"lon":5.37653,"is_reserved":false,"is_disabled":false,"rental_uris":{"android":"levelo://app?vid=1672c8cc-b68e-4341-8176-cb0c75f46473","ios":"levelo://app?vid=1672c8cc-b68e-4341-8176-cb0c75f46473"},"vehicle_type_id":"4","last_reported":1783274079,"current_range_meters":3200,"station_id":"ce4bhh12rcd13ifvqff0","pricing_plan_id":"cebpf4jnsgd1na2vs0mg"},{"bike_id":"4c907ce7-e11d-49a7-8a2b-f8e6d28203bb","system_id":"levelo_inurba_marseille","lat":43.28869,"lon":5.42522,"is_reserved":false,"is_disabled":false,"rental_uris":{"android":"levelo://app?vid=4c907ce7-e11d-49a7-8a2b-f8e6d28203bb","ios":"levelo://app?vid=4c907ce7-e11d-49a7-8a2b-f8e6d28203bb"},"vehicle_type_id":"4","last_reported":1783274079,"current_range_meters":3200,"station_id":"st_d3b462108ojc7389ooeg","pricing_plan_id":"cebpf4jnsgd1na2vs0mg"},{"bike_id":"693afbfa-e70f-40d9-9271-5aba390db9b6","system_id":"levelo_inurba_marseille","lat":43.24103,"lon":5.36276,"is_reserved":false,"is_disabled":false,"rental_uris":{"android":"levelo://app?vid=693afbfa-e70f-40d9-9271-5aba390db9b6","ios":"levelo://app?vid=693afbfa-e70f-40d9-9271-5aba390db9b6"},"vehicle_type_id":"4","last_reported":1783274079,"current_range_meters":3200,"station_id":"","pricing_plan_id":"cebpf4jnsgd1na2vs0mg"},{"bike_id":"74d3c365-f7fc-49de-94b7-141f836eb85a","system_id":"levelo_inurba_marseille","lat":43.29067,"lon":5.37157,"is_reserved":false,"is_disabled":false,"rental_uris":{"android":"levelo://app?vid=74d3c365-f7fc-49de-94b7-141f836eb85a","ios":"levelo://app?vid=74d3c365-f7fc-49de-94b7-141f836eb85a"},"vehicle_type_id":"4","last_reported":1783274079,"current_range_meters":3200,"station_id":"ce4bh5p2rcd13ifvqe4g","pricing_plan_id":"cebpf4jnsgd1na2vs0mg"},{"bike_id":"40fdd1cf-c3bf-484e-8ffd-9f5f22190a77","system_id":"levelo_inurba_marseille","lat":43.3208,"lon":5.36766,"is_reserved":false,"is_disabled":false,"rental_uris":{"android":"levelo://app?vid=40fdd1cf-c3bf-484e-8ffd-9f5f22190a77","ios":"levelo://app?vid=40fdd1cf-c3bf-484e-8ffd-9f5f22190a77"},"vehicle_type_id":"4","last_reported":1783274079,"current_range_meters":3200,"station_id":"ce4bhrh2rcd13ifvqhug","pricing_plan_id":"cebpf4jnsgd1na2vs0mg"},{"bike_id":"9d413c83-a919-4de1-bc1f-e6ae331c88f3","system_id":"levelo_inurba_marseille","lat":43.290366,"lon":5.379837,"is_reserved":false,"is_disabled":false,"rental_uris":{"android":"levelo://app?vid=9d413c83-a919-4de1-bc1f-e6ae331c88f3","ios":"levelo://app?vid=9d413c83-a919-4de1-bc1f-e6ae331c88f3"},"vehicle_type_id":"4","last_reported":1783274079,"current_range_meters":3200,"station_id":"ce4bh4p2rcd13ifvqe0g","pricing_plan_id":"cebpf4jnsgd1na2vs0mg"},{"bike_id":"0a9ebcff-1b56-45db-9b33-1cda38943cf9","system_id":"levelo_inurba_marseille","lat":43.24495,"lon":5.40712,"is_reserved":false,"is_disabled":false,"rental_uris":{"android":"levelo://app?vid=0a9ebcff-1b56-45db-9b33-1cda38943cf9","ios":"levelo://app?vid=0a9ebcff-1b56-45db-9b33-1cda38943cf9"},"vehicle_type_id":"4","last_reported":1783274079,"current_range_meters":3200,"station_id":"","pricing_plan_id":"cebpf4jnsgd1na2vs0mg"},{"bike_id":"355a5789-491e-4d9e-bf20-080f019e9630","system_id":"levelo_inurba_marseille","lat":43.28999,"lon":5.35607,"is_reserved":false,"is_disabled":false,"rental_uris":{"android":"levelo://app?vid=355a5789-491e-4d9e-bf20-080f019e9630","ios":"levelo://app?vid=355a5789-491e-4d9e-bf20-080f019e9630"},"vehicle_type_id":"4","last_reported":1783274079,"current_range_meters":3200,"station_id":"ce4bhb92rcd13ifvqen0","pricing_plan_id":"cebpf4jnsgd1na2vs0mg"},{"bike_id":"cf7a4545-8b8f-47a7-86d4-13f1c9fc8c59","system_id":"levelo_inurba_marseille","lat":43.30133,"lon":5.38779,"is_reserved":false,"is_disabled":false,"rental_uris":{"android":"levelo://app?vid=cf7a4545-8b8f-47a7-86d4-13f1c9fc8c59","ios":"levelo://app?vid=cf7a4545-8b8f-47a7-86d4-13f1c9fc8c59"},"vehicle_type_id":"4","last_reported":1783274079,"current_range_meters":3200,"station_id":"ce4bghh2rcd13ifvqb60","pricing_plan_id":"cebpf4jnsgd1na2vs0mg"},{"bike_id":"adf781d1-b3dc-4123-b375-519d6858951a","system_id":"levelo_inurba_marseille","lat":43.26205,"lon":5.37921,"is_reserved":false,"is_disabled":false,"rental_uris":{"android":"levelo://app?vid=adf781d1-b3dc-4123-b375-519d6858951a","ios":"levelo://app?vid=adf781d1-b3dc-4123-b375-519d6858951a"},"vehicle_type_id":"4","last_reported":1783274079,"current_range_meters":3200,"station_id":"ce4bhjp2rcd13ifvqg90","pricing_plan_id":"cebpf4jnsgd1na2vs0mg"},{"bike_id":"e7f4f12c-e520-4482-967c-6c0cd913f057","system_id":"levelo_inurba_marseille","lat":43.29263,"lon":5.38447,"is_reserved":false,"is_disabled":false,"rental_uris":{"android":"levelo://app?vid=e7f4f12c-e520-4482-967c-6c0cd913f057","ios":"levelo://app?vid=e7f4f12c-e520-4482-967c-6c0cd913f057"},"vehicle_type_id":"4","last_reported":1783274079,"current_range_meters":3200,"station_id":"ce4bh692rcd13ifvqea0","pricing_plan_id":"cebpf4jnsgd1na2vs0mg"},{"bike_id":"05a7f806-a0a4-45de-ab0c-832d1a5d8265","system_id":"levelo_inurba_marseille","lat":43.25974,"lon":5.40911,"is_reserved":false,"is_disabled":false,"rental_uris":{"android":"levelo://app?vid=05a7f806-a0a4-45de-ab0c-832d1a5d8265","ios":"levelo://app?vid=05a7f806-a0a4-45de-ab0c-832d1a5d8265"},"vehicle_type_id":"4","last_reported":1783274079,"current_range_meters":3200,"station_id":"ce4bhm92rcd13ifvqglg","pricing_plan_id":"cebpf4jnsgd1na2vs0mg"},{"bike_id":"a8a3d26b-f9a3-4e70-83ec-3900177cd4f4","system_id":"levelo_inurba_marseille","lat":43.28407,"lon":5.37499,"is_reserved":false,"is_disabled":false,"rental_uris":{"android":"levelo://app?vid=a8a3d26b-f9a3-4e70-83ec-3900177cd4f4","ios":"levelo://app?vid=a8a3d26b-f9a3-4e70-83ec-3900177cd4f4"},"vehicle_type_id":"4","last_reported":1783274079,"current_range_meters":3200,"station_id":"ce4bh412rcd13ifvqds0","pricing_plan_id":"cebpf4jnsgd1na2vs0mg"},{"bike_id":"cdb96f67-4069-4baa-a896-228f7764dacd","system_id":"levelo_inurba_marseille","lat":43.29557,"lon":5.37896,"is_reserved":false,"is_disabled":false,"rental_uris":{"android":"levelo://app?vid=cdb96f67-4069-4baa-a896-228f7764dacd","ios":"levelo://app?vid=cdb96f67-4069-4baa-a896-228f7764dacd"},"vehicle_type_id":"4","last_reported":1783274079,"current_range_meters":3600,"station_id":"","pricing_plan_id":"cebpf4jnsgd1na2vs0mg"},{"bike_id":"3bc6d12d-59c0-4162-9cda-07f3d37dc2e0","system_id":"levelo_inurba_marseille","lat":43.24422,"lon":5.40294,"is_reserved":false,"is_disabled":false,"rental_uris":{"android":"levelo://app?vid=3bc6d12d-59c0-4162-9cda-07f3d37dc2e0","ios":"levelo://app?vid=3bc6d12d-59c0-4162-9cda-07f3d37dc2e0"},"vehicle_type_id":"4","last_reported":1783274079,"current_range_meters":3600,"station_id":"","pricing_plan_id":"cebpf4jnsgd1na2vs0mg"},{"bike_id":"2af317b6-ff95-4fd5-bf56-914c4e01732c","system_id":"levelo_inurba_marseille","lat":43.26493,"lon":5.39561,"is_reserved":false,"is_disabled":false,"rental_uris":{"android":"levelo://app?vid=2af317b6-ff95-4fd5-bf56-914c4e01732c","ios":"levelo://app?vid=2af317b6-ff95-4fd5-bf56-914c4e01732c"},"vehicle_type_id":"4","last_reported":1783274079,"current_range_meters":3600,"station_id":"ce4bhi12rcd13ifvqfq0","pricing_plan_id":"cebpf4jnsgd1na2vs0mg"},{"bike_id":"cbc52736-20c1-47af-a227-5a95ce81634a","system_id":"levelo_inurba_marseille","lat":43.25585,"lon":5.38226,"is_reserved":false,"is_disabled":false,"rental_uris":{"android":"levelo://app?vid=cbc52736-20c1-47af-a227-5a95ce81634a","ios":"levelo://app?vid=cbc52736-20c1-47af-a227-5a95ce81634a"},"vehicle_type_id":"4","last_reported":1783274079,"current_range_meters":3600,"station_id":"ce4bhih2rcd13ifvqfs0","pricing_plan_id":"cebpf4jnsgd1na2vs0mg"},{"bike_id":"0df3073c-4d91-4aad-99ca-3266164a2dbe","system_id":"levelo_inurba_marseille","lat":43.28411,"lon":5.37505,"is_reserved":false,"is_disabled":true,"rental_uris":{"android":"levelo://app?vid=0df3073c-4d91-4aad-99ca-3266164a2dbe","ios":"levelo://app?vid=0df3073c-4d91-4aad-99ca-3266164a2dbe"},"vehicle_type_id":"4","last_reported":1783274079,"current_range_meters":3600,"station_id":"ce4bh412rcd13ifvqds0","pricing_plan_id":"cebpf4jnsgd1na2vs0mg"},{"bike_id":"e2770b29-2b53-4a1b-b237-7b8799569b06","system_id":"levelo_inurba_marseille","lat":43.29502,"lon":5.39392,"is_reserved":false,"is_disabled":true,"rental_uris":{"android":"levelo://app?vid=e2770b29-2b53-4a1b-b237-7b8799569b06","ios":"levelo://app?vid=e2770b29-2b53-4a1b-b237-7b8799569b06"},"vehicle_type_id":"4","last_reported":1783274079,"current_range_meters":3600,"station_id":"ce4bh292rcd13ifvqdf0","pricing_plan_id":"cebpf4jnsgd1na2vs0mg"},{"bike_id":"c4e67a02-d904-4f02-86bf-6b3800bdc3aa","system_id":"levelo_inurba_marseille","lat":43.23405,"lon":5.41264,"is_reserved":false,"is_disabled":false,"rental_uris":{"android":"levelo://app?vid=c4e67a02-d904-4f02-86bf-6b3800bdc3aa","ios":"levelo://app?vid=c4e67a02-d904-4f02-86bf-6b3800bdc3aa"},"vehicle_type_id":"4","last_reported":1783274079,"current_range_meters":3600,"station_id":"st_d75pvndhf9lc73cqq3eg","pricing_plan_id":"cebpf4jnsgd1na2vs0mg"},{"bike_id":"f5a68b71-3761-443f-a16c-225019d233b9","system_id":"levelo_inurba_marseille","lat":43.25373,"lon":5.37524,"is_reserved":false,"is_disabled":false,"rental_uris":{"android":"levelo://app?vid=f5a68b71-3761-443f-a16c-225019d233b9","ios":"levelo://app?vid=f5a68b71-3761-443f-a16c-225019d233b9"},"vehicle_type_id":"4","last_reported":1783274079,"current_range_meters":3600,"station_id":"","pricing_plan_id":"cebpf4jnsgd1na2vs0mg"},{"bike_id":"f4c490b5-dc48-483a-b891-cbc3d779a738","system_id":"levelo_inurba_marseille","lat":43.31608,"lon":5.38832,"is_reserved":false,"is_disabled":false,"rental_uris":{"android":"levelo://app?vid=f4c490b5-dc48-483a-b891-cbc3d779a738","ios":"levelo://app?vid=f4c490b5-dc48-483a-b891-cbc3d779a738"},"vehicle_type_id":"4","last_reported":1783274079,"current_range_meters":3600,"station_id":"","pricing_plan_id":"cebpf4jnsgd1na2vs0mg"},{"bike_id":"255c162d-d371-4e42-b6ca-5ebdcc4ace2f","system_id":"levelo_inurba_marseille","lat":43.290376,"lon":5.399704,"is_reserved":false,"is_disabled":false,"rental_uris":{"android":"levelo://app?vid=255c162d-d371-4e42-b6ca-5ebdcc4ace2f","ios":"levelo://app?vid=255c162d-d371-4e42-b6ca-5ebdcc4ace2f"},"vehicle_type_id":"4","last_reported":1783274079,"current_range_meters":3600,"station_id":"ce4bh392rcd13ifvqdm0","pricing_plan_id":"cebpf4jnsgd1na2vs0mg"},{"bike_id":"d431316b-6f11-4fcf-9289-e091c76429a8","system_id":"levelo_inurba_marseille","lat":43.30946,"lon":5.39027,"is_reserved":false,"is_disabled":false,"rental_uris":{"android":"levelo://app?vid=d431316b-6f11-4fcf-9289-e091c76429a8","ios":"levelo://app?vid=d431316b-6f11-4fcf-9289-e091c76429a8"},"vehicle_type_id":"4","last_reported":1783274079,"current_range_meters":3600,"station_id":"ce4bgup2rcd13ifvqco0","pricing_plan_id":"cebpf4jnsgd1na2vs0mg"},{"bike_id":"6f07ca1d-5d08-4b3e-afac-6b2815edb6d9","system_id":"levelo_inurba_marseille","lat":43.30317,"lon":5.36899,"is_reserved":false,"is_disabled":false,"rental_uris":{"android":"levelo://app?vid=6f07ca1d-5d08-4b3e-afac-6b2815edb6d9","ios":"levelo://app?vid=6f07ca1d-5d08-4b3e-afac-6b2815edb6d9"},"vehicle_type_id":"4","last_reported":1783274079,"current_range_meters":3600,"station_id":"ce4bgqh2rcd13ifvqc5g","pricing_plan_id":"cebpf4jnsgd1na2vs0mg"},{"bike_id":"15478bc2-201e-4716-a0ae-965d5b1cafb5","system_id":"levelo_inurba_marseille","lat":43.29265,"lon":5.38443,"is_reserved":false,"is_disabled":false,"rental_uris":{"android":"levelo://app?vid=15478bc2-201e-4716-a0ae-965d5b1cafb5","ios":"levelo://app?vid=15478bc2-201e-4716-a0ae-965d5b1cafb5"},"vehicle_type_id":"4","last_reported":1783274079,"current_range_meters":3600,"station_id":"ce4bh692rcd13ifvqea0","pricing_plan_id":"cebpf4jnsgd1na2vs0mg"},{"bike_id":"e15d9f9b-3259-4a8f-a3fa-d2fc718cffc4","system_id":"levelo_inurba_marseille","lat":43.25084,"lon":5.39514,"is_reserved":false,"is_disabled":false,"rental_uris":{"android":"levelo://app?vid=e15d9f9b-3259-4a8f-a3fa-d2fc718cffc4","ios":"levelo://app?vid=e15d9f9b-3259-4a8f-a3fa-d2fc718cffc4"},"vehicle_type_id":"4","last_reported":1783274079,"current_range_meters":3600,"station_id":"ce4bhm12rcd13ifvqgkg","pricing_plan_id":"cebpf4jnsgd1na2vs0mg"},{"bike_id":"5c7ebe47-e6a7-4024-a42e-76011627cf42","system_id":"levelo_inurba_marseille","lat":43.30135,"lon":5.38769,"is_reserved":false,"is_disabled":false,"rental_uris":{"android":"levelo://app?vid=5c7ebe47-e6a7-4024-a42e-76011627cf42","ios":"levelo://app?vid=5c7ebe47-e6a7-4024-a42e-76011627cf42"},"vehicle_type_id":"4","last_reported":1783274079,"current_range_meters":3600,"station_id":"ce4bghh2rcd13ifvqb60","pricing_plan_id":"cebpf4jnsgd1na2vs0mg"},{"bike_id":"4f4f6c2e-2840-4055-baaa-273944b4539f","system_id":"levelo_inurba_marseille","lat":43.28098,"lon":5.37827,"is_reserved":false,"is_disabled":false,"rental_uris":{"android":"levelo://app?vid=4f4f6c2e-2840-4055-baaa-273944b4539f","ios":"levelo://app?vid=4f4f6c2e-2840-4055-baaa-273944b4539f"},"vehicle_type_id":"4","last_reported":1783274079,"current_range_meters":3600,"station_id":"ce4bha12rcd13ifvqee0","pricing_plan_id":"cebpf4jnsgd1na2vs0mg"},{"bike_id":"190f53f5-1748-48a1-9fe2-500cc8cefa8e","system_id":"levelo_inurba_marseille","lat":43.32564,"lon":5.36538,"is_reserved":false,"is_disabled":false,"rental_uris":{"android":"levelo://app?vid=190f53f5-1748-48a1-9fe2-500cc8cefa8e","ios":"levelo://app?vid=190f53f5-1748-48a1-9fe2-500cc8cefa8e"},"vehicle_type_id":"4","last_reported":1783274079,"current_range_meters":3600,"station_id":"","pricing_plan_id":"cebpf4jnsgd1na2vs0mg"},{"bike_id":"5658cfe3-ed59-45e9-8a44-0561163fcd3f","system_id":"levelo_inurba_marseille","lat":43.30845,"lon":5.40498,"is_reserved":false,"is_disabled":false,"rental_uris":{"android":"levelo://app?vid=5658cfe3-ed59-45e9-8a44-0561163fcd3f","ios":"levelo://app?vid=5658cfe3-ed59-45e9-8a44-0561163fcd3f"},"vehicle_type_id":"4","last_reported":1783274079,"current_range_meters":3600,"station_id":"","pricing_plan_id":"cebpf4jnsgd1na2vs0mg"},{"bike_id":"e8681717-72d3-496d-8982-2138fb8d1cca","system_id":"levelo_inurba_marseille","lat":43.287033,"lon":5.373761,"is_reserved":false,"is_disabled":false,"rental_uris":{"android":"levelo://app?vid=e8681717-72d3-496d-8982-2138fb8d1cca","ios":"levelo://app?vid=e8681717-72d3-496d-8982-2138fb8d1cca"},"vehicle_type_id":"4","last_reported":1783274079,"current_range_meters":3600,"station_id":"ce4bh3p2rcd13ifvqdq0","pricing_plan_id":"cebpf4jnsgd1na2vs0mg"},{"bike_id":"94fb7598-a25f-4a60-b73d-63dddeecfc92","system_id":"levelo_inurba_marseille","lat":43.25255,"lon":5.40049,"is_reserved":false,"is_disabled":false,"rental_uris":{"android":"levelo://app?vid=94fb7598-a25f-4a60-b73d-63dddeecfc92","ios":"levelo://app?vid=94fb7598-a25f-4a60-b73d-63dddeecfc92"},"vehicle_type_id":"4","last_reported":1783274079,"current_range_meters":3600,"station_id":"","pricing_plan_id":"cebpf4jnsgd1na2vs0mg"},{"bike_id":"1afd20d6-d483-4adf-95ab-4266ebd462f5","system_id":"levelo_inurba_marseille","lat":43.28705,"lon":5.36387,"is_reserved":false,"is_disabled":false,"rental_uris":{"android":"levelo://app?vid=1afd20d6-d483-4adf-95ab-4266ebd462f5","ios":"levelo://app?vid=1afd20d6-d483-4adf-95ab-4266ebd462f5"},"vehicle_type_id":"4","last_reported":1783274079,"current_range_meters":4000,"station_id":"","pricing_plan_id":"cebpf4jnsgd1na2vs0mg"},{"bike_id":"f32649e7-7632-4652-b17b-3ae6b603dcc2","system_id":"levelo_inurba_marseille","lat":43.32129,"lon":5.36795,"is_reserved":false,"is_disabled":false,"rental_uris":{"android":"levelo://app?vid=f32649e7-7632-4652-b17b-3ae6b603dcc2","ios":"levelo://app?vid=f32649e7-7632-4652-b17b-3ae6b603dcc2"},"vehicle_type_id":"4","last_reported":1783274079,"current_range_meters":4000,"station_id":"ce4bhrh2rcd13ifvqhug","pricing_plan_id":"cebpf4jnsgd1na2vs0mg"},{"bike_id":"de6914c1-a127-4bad-9192-c1a2795bb81d","system_id":"levelo_inurba_marseille","lat":43.21217,"lon":5.35057,"is_reserved":false,"is_disabled":false,"rental_uris":{"android":"levelo://app?vid=de6914c1-a127-4bad-9192-c1a2795bb81d","ios":"levelo://app?vid=de6914c1-a127-4bad-9192-c1a2795bb81d"},"vehicle_type_id":"4","last_reported":1783274079,"current_range_meters":4000,"station_id":"st_cvj6sg6p6f1abm77japg","pricing_plan_id":"cebpf4jnsgd1na2vs0mg"},{"bike_id":"7f220556-b0a6-468b-9882-f75938e7d4c9","system_id":"levelo_inurba_marseille","lat":43.27329,"lon":5.39066,"is_reserved":false,"is_disabled":true,"rental_uris":{"android":"levelo://app?vid=7f220556-b0a6-468b-9882-f75938e7d4c9","ios":"levelo://app?vid=7f220556-b0a6-468b-9882-f75938e7d4c9"},"vehicle_type_id":"4","last_reported":1783274079,"current_range_meters":4000,"station_id":"ce4bhgp2rcd13ifvqfe0","pricing_plan_id":"cebpf4jnsgd1na2vs0mg"},{"bike_id":"bde4fe8f-be40-4b5e-85e0-e4fdf22fb694","system_id":"levelo_inurba_marseille","lat":43.29276,"lon":5.36842,"is_reserved":false,"is_disabled":true,"rental_uris":{"android":"levelo://app?vid=bde4fe8f-be40-4b5e-85e0-e4fdf22fb694","ios":"levelo://app?vid=bde4fe8f-be40-4b5e-85e0-e4fdf22fb694"},"vehicle_type_id":"4","last_reported":1783274079,"current_range_meters":4000,"station_id":"ce4bhbp2rcd13ifvqesg","pricing_plan_id":"cebpf4jnsgd1na2vs0mg"},{"bike_id":"6cc9f99c-fc8e-44a0-b10a-d0f26f11a833","system_id":"levelo_inurba_marseille","lat":43.28242,"lon":5.38556,"is_reserved":false,"is_disabled":false,"rental_uris":{"android":"levelo://app?vid=6cc9f99c-fc8e-44a0-b10a-d0f26f11a833","ios":"levelo://app?vid=6cc9f99c-fc8e-44a0-b10a-d0f26f11a833"},"vehicle_type_id":"4","last_reported":1783274079,"current_range_meters":4000,"station_id":"","pricing_plan_id":"cebpf4jnsgd1na2vs0mg"},{"bike_id":"664d653d-919d-4371-b516-a4f465272eb6","system_id":"levelo_inurba_marseille","lat":43.28623,"lon":5.35104,"is_reserved":false,"is_disabled":false,"rental_uris":{"android":"levelo://app?vid=664d653d-919d-4371-b516-a4f465272eb6","ios":"levelo://app?vid=664d653d-919d-4371-b516-a4f465272eb6"},"vehicle_type_id":"4","last_reported":1783274079,"current_range_meters":4000,"station_id":"ce4bhch2rcd13ifvqeug","pricing_plan_id":"cebpf4jnsgd1na2vs0mg"},{"bike_id":"8c51c550-068e-4ee8-9e6b-2b6156bd353f","system_id":"levelo_inurba_marseille","lat":43.30205,"lon":5.36634,"is_reserved":false,"is_disabled":true,"rental_uris":{"android":"levelo://app?vid=8c51c550-068e-4ee8-9e6b-2b6156bd353f","ios":"levelo://app?vid=8c51c550-068e-4ee8-9e6b-2b6156bd353f"},"vehicle_type_id":"4","last_reported":1783274079,"current_range_meters":4000,"station_id":"ce4bgrh2rcd13ifvqc8g","pricing_plan_id":"cebpf4jnsgd1na2vs0mg"},{"bike_id":"7f01936b-783f-4c86-b3b3-a96fda369574","system_id":"levelo_inurba_marseille","lat":43.29274,"lon":5.36843,"is_reserved":false,"is_disabled":false,"rental_uris":{"android":"levelo://app?vid=7f01936b-783f-4c86-b3b3-a96fda369574","ios":"levelo://app?vid=7f01936b-783f-4c86-b3b3-a96fda369574"},"vehicle_type_id":"4","last_reported":1783274079,"current_range_meters":4000,"station_id":"ce4bhbp2rcd13ifvqesg","pricing_plan_id":"cebpf4jnsgd1na2vs0mg"},{"bike_id":"910a0e56-3842-458a-b929-4deeebc2ab76","system_id":"levelo_inurba_marseille","lat":43.21193,"lon":5.35042,"is_reserved":false,"is_disabled":false,"rental_uris":{"android":"levelo://app?vid=910a0e56-3842-458a-b929-4deeebc2ab76","ios":"levelo://app?vid=910a0e56-3842-458a-b929-4deeebc2ab76"},"vehicle_type_id":"4","last_reported":1783274079,"current_range_meters":4000,"station_id":"st_cvj6sg6p6f1abm77japg","pricing_plan_id":"cebpf4jnsgd1na2vs0mg"},{"bike_id":"d1cdcfbb-a242-478a-9f0c-9ee2c708daa5","system_id":"levelo_inurba_marseille","lat":43.33022,"lon":5.39035,"is_reserved":false,"is_disabled":false,"rental_uris":{"android":"levelo://app?vid=d1cdcfbb-a242-478a-9f0c-9ee2c708daa5","ios":"levelo://app?vid=d1cdcfbb-a242-478a-9f0c-9ee2c708daa5"},"vehicle_type_id":"4","last_reported":1783274079,"current_range_meters":4000,"station_id":"ce4bhr92rcd13ifvqhrg","pricing_plan_id":"cebpf4jnsgd1na2vs0mg"},{"bike_id":"85051f57-a90a-4875-aae6-d05daf9da20d","system_id":"levelo_inurba_marseille","lat":43.284004,"lon":5.375105,"is_reserved":false,"is_disabled":false,"rental_uris":{"android":"levelo://app?vid=85051f57-a90a-4875-aae6-d05daf9da20d","ios":"levelo://app?vid=85051f57-a90a-4875-aae6-d05daf9da20d"},"vehicle_type_id":"4","last_reported":1783274079,"current_range_meters":4000,"station_id":"ce4bh412rcd13ifvqds0","pricing_plan_id":"cebpf4jnsgd1na2vs0mg"},{"bike_id":"3af208fb-ed62-4f29-bcd1-b301d13a9628","system_id":"levelo_inurba_marseille","lat":43.28406,"lon":5.36425,"is_reserved":false,"is_disabled":false,"rental_uris":{"android":"levelo://app?vid=3af208fb-ed62-4f29-bcd1-b301d13a9628","ios":"levelo://app?vid=3af208fb-ed62-4f29-bcd1-b301d13a9628"},"vehicle_type_id":"4","last_reported":1783274079,"current_range_meters":4000,"station_id":"","pricing_plan_id":"cebpf4jnsgd1na2vs0mg"},{"bike_id":"e4ee63c7-9eff-4911-8f46-91d4a1859e49","system_id":"levelo_inurba_marseille","lat":43.21197,"lon":5.35088,"is_reserved":false,"is_disabled":false,"rental_uris":{"android":"levelo://app?vid=e4ee63c7-9eff-4911-8f46-91d4a1859e49","ios":"levelo://app?vid=e4ee63c7-9eff-4911-8f46-91d4a1859e49"},"vehicle_type_id":"4","last_reported":1783274079,"current_range_meters":4000,"station_id":"st_cvj6sg6p6f1abm77japg","pricing_plan_id":"cebpf4jnsgd1na2vs0mg"},{"bike_id":"7a239ef8-3325-427c-90f6-f8a6311bfab5","system_id":"levelo_inurba_marseille","lat":43.25079,"lon":5.39516,"is_reserved":false,"is_disabled":false,"rental_uris":{"android":"levelo://app?vid=7a239ef8-3325-427c-90f6-f8a6311bfab5","ios":"levelo://app?vid=7a239ef8-3325-427c-90f6-f8a6311bfab5"},"vehicle_type_id":"4","last_reported":1783274079,"current_range_meters":4000,"station_id":"ce4bhm12rcd13ifvqgkg","pricing_plan_id":"cebpf4jnsgd1na2vs0mg"},{"bike_id":"696dc738-3c86-46fd-93b8-7bc1359ff003","system_id":"levelo_inurba_marseille","lat":43.25718,"lon":5.41094,"is_reserved":false,"is_disabled":false,"rental_uris":{"android":"levelo://app?vid=696dc738-3c86-46fd-93b8-7bc1359ff003","ios":"levelo://app?vid=696dc738-3c86-46fd-93b8-7bc1359ff003"},"vehicle_type_id":"4","last_reported":1783274079,"current_range_meters":4000,"station_id":"ce4bhkp2rcd13ifvqgd0","pricing_plan_id":"cebpf4jnsgd1na2vs0mg"},{"bike_id":"b74a6af5-a71e-45ab-9495-4254ae9deec2","system_id":"levelo_inurba_marseille","lat":43.21754,"lon":5.34596,"is_reserved":false,"is_disabled":false,"rental_uris":{"android":"levelo://app?vid=b74a6af5-a71e-45ab-9495-4254ae9deec2","ios":"levelo://app?vid=b74a6af5-a71e-45ab-9495-4254ae9deec2"},"vehicle_type_id":"4","last_reported":1783274079,"current_range_meters":4000,"station_id":"st_cvj6r9ubvosntc0bgbag","pricing_plan_id":"cebpf4jnsgd1na2vs0mg"},{"bike_id":"0ae27b3b-d38f-4118-b04e-7baffad1aebf","system_id":"levelo_inurba_marseille","lat":43.31573,"lon":5.3885,"is_reserved":false,"is_disabled":false,"rental_uris":{"android":"levelo://app?vid=0ae27b3b-d38f-4118-b04e-7baffad1aebf","ios":"levelo://app?vid=0ae27b3b-d38f-4118-b04e-7baffad1aebf"},"vehicle_type_id":"4","last_reported":1783274079,"current_range_meters":4400,"station_id":"","pricing_plan_id":"cebpf4jnsgd1na2vs0mg"},{"bike_id":"25801e0a-e313-4f6c-8662-d1791b0082b9","system_id":"levelo_inurba_marseille","lat":43.25113,"lon":5.40317,"is_reserved":false,"is_disabled":false,"rental_uris":{"android":"levelo://app?vid=25801e0a-e313-4f6c-8662-d1791b0082b9","ios":"levelo://app?vid=25801e0a-e313-4f6c-8662-d1791b0082b9"},"vehicle_type_id":"4","last_reported":1783274079,"current_range_meters":4400,"station_id":"ce4bhlh2rcd13ifvqgig","pricing_plan_id":"cebpf4jnsgd1na2vs0mg"},{"bike_id":"6c62b6f5-23c9-4b93-9f23-65fcc098b5dd","system_id":"levelo_inurba_marseille","lat":43.28267,"lon":5.35053,"is_reserved":false,"is_disabled":false,"rental_uris":{"android":"levelo://app?vid=6c62b6f5-23c9-4b93-9f23-65fcc098b5dd","ios":"levelo://app?vid=6c62b6f5-23c9-4b93-9f23-65fcc098b5dd"},"vehicle_type_id":"4","last_reported":1783274079,"current_range_meters":4400,"station_id":"ce4bhbp2rcd13ifvqerg","pricing_plan_id":"cebpf4jnsgd1na2vs0mg"},{"bike_id":"40c60d26-7793-4225-aaf2-3a67b9faf4fc","system_id":"levelo_inurba_marseille","lat":43.23496,"lon":5.38085,"is_reserved":false,"is_disabled":false,"rental_uris":{"android":"levelo://app?vid=40c60d26-7793-4225-aaf2-3a67b9faf4fc","ios":"levelo://app?vid=40c60d26-7793-4225-aaf2-3a67b9faf4fc"},"vehicle_type_id":"4","last_reported":1783274079,"current_range_meters":4400,"station_id":"","pricing_plan_id":"cebpf4jnsgd1na2vs0mg"},{"bike_id":"abaf61ae-3293-4ea8-b207-7a41230a04f3","system_id":"levelo_inurba_marseille","lat":43.231906,"lon":5.355522,"is_reserved":false,"is_disabled":false,"rental_uris":{"android":"levelo://app?vid=abaf61ae-3293-4ea8-b207-7a41230a04f3","ios":"levelo://app?vid=abaf61ae-3293-4ea8-b207-7a41230a04f3"},"vehicle_type_id":"4","last_reported":1783274079,"current_range_meters":4400,"station_id":"ce4bhu92rcd13ifvqi70","pricing_plan_id":"cebpf4jnsgd1na2vs0mg"},{"bike_id":"827b7a8c-7d4a-47c3-aa86-889d2054d5de","system_id":"levelo_inurba_marseille","lat":43.26935,"lon":5.38616,"is_reserved":false,"is_disabled":false,"rental_uris":{"android":"levelo://app?vid=827b7a8c-7d4a-47c3-aa86-889d2054d5de","ios":"levelo://app?vid=827b7a8c-7d4a-47c3-aa86-889d2054d5de"},"vehicle_type_id":"4","last_reported":1783274079,"current_range_meters":4400,"station_id":"ce4bhh92rcd13ifvqfh0","pricing_plan_id":"cebpf4jnsgd1na2vs0mg"},{"bike_id":"640e9eab-79f7-4cdb-9553-46f3d8fc9a9e","system_id":"levelo_inurba_marseille","lat":43.21202,"lon":5.35059,"is_reserved":false,"is_disabled":false,"rental_uris":{"android":"levelo://app?vid=640e9eab-79f7-4cdb-9553-46f3d8fc9a9e","ios":"levelo://app?vid=640e9eab-79f7-4cdb-9553-46f3d8fc9a9e"},"vehicle_type_id":"4","last_reported":1783274079,"current_range_meters":4400,"station_id":"st_cvj6sg6p6f1abm77japg","pricing_plan_id":"cebpf4jnsgd1na2vs0mg"},{"bike_id":"b5b88d55-a2bf-42df-a10a-e26cfc98a363","system_id":"levelo_inurba_marseille","lat":43.28154,"lon":5.42637,"is_reserved":false,"is_disabled":false,"rental_uris":{"android":"levelo://app?vid=b5b88d55-a2bf-42df-a10a-e26cfc98a363","ios":"levelo://app?vid=b5b88d55-a2bf-42df-a10a-e26cfc98a363"},"vehicle_type_id":"4","last_reported":1783274079,"current_range_meters":4400,"station_id":"ce4bhnh2rcd13ifvqgug","pricing_plan_id":"cebpf4jnsgd1na2vs0mg"},{"bike_id":"87598ed7-b27b-4140-aaea-c015765247bb","system_id":"levelo_inurba_marseille","lat":43.21193,"lon":5.35064,"is_reserved":false,"is_disabled":false,"rental_uris":{"android":"levelo://app?vid=87598ed7-b27b-4140-aaea-c015765247bb","ios":"levelo://app?vid=87598ed7-b27b-4140-aaea-c015765247bb"},"vehicle_type_id":"4","last_reported":1783274079,"current_range_meters":4400,"station_id":"st_cvj6sg6p6f1abm77japg","pricing_plan_id":"cebpf4jnsgd1na2vs0mg"},{"bike_id":"ec8a7f26-fc51-4d8e-9d3b-55a7e6afbdcd","system_id":"levelo_inurba_marseille","lat":43.25925,"lon":5.40864,"is_reserved":false,"is_disabled":false,"rental_uris":{"android":"levelo://app?vid=ec8a7f26-fc51-4d8e-9d3b-55a7e6afbdcd","ios":"levelo://app?vid=ec8a7f26-fc51-4d8e-9d3b-55a7e6afbdcd"},"vehicle_type_id":"4","last_reported":1783274079,"current_range_meters":4400,"station_id":"ce4bhm92rcd13ifvqglg","pricing_plan_id":"cebpf4jnsgd1na2vs0mg"},{"bike_id":"7a71c416-c3b5-4289-ad0e-531bcb18f06d","system_id":"levelo_inurba_marseille","lat":43.3314,"lon":5.37853,"is_reserved":false,"is_disabled":false,"rental_uris":{"android":"levelo://app?vid=7a71c416-c3b5-4289-ad0e-531bcb18f06d","ios":"levelo://app?vid=7a71c416-c3b5-4289-ad0e-531bcb18f06d"},"vehicle_type_id":"4","last_reported":1783274079,"current_range_meters":4400,"station_id":"","pricing_plan_id":"cebpf4jnsgd1na2vs0mg"},{"bike_id":"fcd4b9ed-406c-48f5-b03f-b07145ac41f5","system_id":"levelo_inurba_marseille","lat":43.24176,"lon":5.3886,"is_reserved":false,"is_disabled":false,"rental_uris":{"android":"levelo://app?vid=fcd4b9ed-406c-48f5-b03f-b07145ac41f5","ios":"levelo://app?vid=fcd4b9ed-406c-48f5-b03f-b07145ac41f5"},"vehicle_type_id":"4","last_reported":1783274079,"current_range_meters":4400,"station_id":"","pricing_plan_id":"cebpf4jnsgd1na2vs0mg"},{"bike_id":"66c6e5ad-12fd-409e-a59d-315fc11950b1","system_id":"levelo_inurba_marseille","lat":43.275607,"lon":5.384147,"is_reserved":false,"is_disabled":true,"rental_uris":{"android":"levelo://app?vid=66c6e5ad-12fd-409e-a59d-315fc11950b1","ios":"levelo://app?vid=66c6e5ad-12fd-409e-a59d-315fc11950b1"},"vehicle_type_id":"4","last_reported":1783274079,"current_range_meters":4400,"station_id":"ce4bhh92rcd13ifvqfi0","pricing_plan_id":"cebpf4jnsgd1na2vs0mg"},{"bike_id":"637ca6f2-621c-4ae1-adb4-7b5112bde475","system_id":"levelo_inurba_marseille","lat":43.2866,"lon":5.36341,"is_reserved":false,"is_disabled":true,"rental_uris":{"android":"levelo://app?vid=637ca6f2-621c-4ae1-adb4-7b5112bde475","ios":"levelo://app?vid=637ca6f2-621c-4ae1-adb4-7b5112bde475"},"vehicle_type_id":"4","last_reported":1783274079,"current_range_meters":4400,"station_id":"ce4bhah2rcd13ifvqej0","pricing_plan_id":"cebpf4jnsgd1na2vs0mg"},{"bike_id":"7fcca41e-2146-47b2-bf38-372ba8763a88","system_id":"levelo_inurba_marseille","lat":43.27986,"lon":5.41659,"is_reserved":false,"is_disabled":false,"rental_uris":{"android":"levelo://app?vid=7fcca41e-2146-47b2-bf38-372ba8763a88","ios":"levelo://app?vid=7fcca41e-2146-47b2-bf38-372ba8763a88"},"vehicle_type_id":"4","last_reported":1783274079,"current_range_meters":4400,"station_id":"ce4bho12rcd13ifvqh1g","pricing_plan_id":"cebpf4jnsgd1na2vs0mg"},{"bike_id":"9efeb665-6ac9-4e70-ba70-20bf3b204b4c","system_id":"levelo_inurba_marseille","lat":43.299059,"lon":5.381578,"is_reserved":false,"is_disabled":false,"rental_uris":{"android":"levelo://app?vid=9efeb665-6ac9-4e70-ba70-20bf3b204b4c","ios":"levelo://app?vid=9efeb665-6ac9-4e70-ba70-20bf3b204b4c"},"vehicle_type_id":"4","last_reported":1783274079,"current_range_meters":4400,"station_id":"ce4bgip2rcd13ifvqbb0","pricing_plan_id":"cebpf4jnsgd1na2vs0mg"},{"bike_id":"8dc16573-7d08-4c7c-af47-fe2fbe403ca2","system_id":"levelo_inurba_marseille","lat":43.29711,"lon":5.37695,"is_reserved":false,"is_disabled":false,"rental_uris":{"android":"levelo://app?vid=8dc16573-7d08-4c7c-af47-fe2fbe403ca2","ios":"levelo://app?vid=8dc16573-7d08-4c7c-af47-fe2fbe403ca2"},"vehicle_type_id":"4","last_reported":1783274079,"current_range_meters":4400,"station_id":"ce4bgkh2rcd13ifvqbl0","pricing_plan_id":"cebpf4jnsgd1na2vs0mg"},{"bike_id":"48bea527-63bf-4476-a5bd-aab069262191","system_id":"levelo_inurba_marseille","lat":43.29273,"lon":5.38423,"is_reserved":false,"is_disabled":false,"rental_uris":{"android":"levelo://app?vid=48bea527-63bf-4476-a5bd-aab069262191","ios":"levelo://app?vid=48bea527-63bf-4476-a5bd-aab069262191"},"vehicle_type_id":"4","last_reported":1783274079,"current_range_meters":4400,"station_id":"ce4bh692rcd13ifvqea0","pricing_plan_id":"cebpf4jnsgd1na2vs0mg"},{"bike_id":"0dc7de81-95c2-48a7-88ed-cb7adbb586a8","system_id":"levelo_inurba_marseille","lat":43.27415,"lon":5.39378,"is_reserved":false,"is_disabled":false,"rental_uris":{"android":"levelo://app?vid=0dc7de81-95c2-48a7-88ed-cb7adbb586a8","ios":"levelo://app?vid=0dc7de81-95c2-48a7-88ed-cb7adbb586a8"},"vehicle_type_id":"4","last_reported":1783274079,"current_range_meters":4800,"station_id":"ce4bhdp2rcd13ifvqf20","pricing_plan_id":"cebpf4jnsgd1na2vs0mg"},{"bike_id":"2f1e7c27-cdbb-4552-bcb6-438088afd41d","system_id":"levelo_inurba_marseille","lat":43.297995,"lon":5.381091,"is_reserved":false,"is_disabled":false,"rental_uris":{"android":"levelo://app?vid=2f1e7c27-cdbb-4552-bcb6-438088afd41d","ios":"levelo://app?vid=2f1e7c27-cdbb-4552-bcb6-438088afd41d"},"vehicle_type_id":"4","last_reported":1783274079,"current_range_meters":4800,"station_id":"ce4bgl12rcd13ifvqbo0","pricing_plan_id":"cebpf4jnsgd1na2vs0mg"},{"bike_id":"718c826c-5424-4765-ba8f-db3ba26fcb0e","system_id":"levelo_inurba_marseille","lat":43.26234,"lon":5.37419,"is_reserved":false,"is_disabled":true,"rental_uris":{"android":"levelo://app?vid=718c826c-5424-4765-ba8f-db3ba26fcb0e","ios":"levelo://app?vid=718c826c-5424-4765-ba8f-db3ba26fcb0e"},"vehicle_type_id":"4","last_reported":1783274079,"current_range_meters":4800,"station_id":"","pricing_plan_id":"cebpf4jnsgd1na2vs0mg"},{"bike_id":"87c35c52-0310-4811-aa93-0356809a2ac3","system_id":"levelo_inurba_marseille","lat":43.29263,"lon":5.38433,"is_reserved":false,"is_disabled":false,"rental_uris":{"android":"levelo://app?vid=87c35c52-0310-4811-aa93-0356809a2ac3","ios":"levelo://app?vid=87c35c52-0310-4811-aa93-0356809a2ac3"},"vehicle_type_id":"4","last_reported":1783274079,"current_range_meters":4800,"station_id":"ce4bh692rcd13ifvqea0","pricing_plan_id":"cebpf4jnsgd1na2vs0mg"},{"bike_id":"90e28033-4ee9-4dc0-a9f5-714648bb8811","system_id":"levelo_inurba_marseille","lat":43.26784,"lon":5.39413,"is_reserved":false,"is_disabled":false,"rental_uris":{"android":"levelo://app?vid=90e28033-4ee9-4dc0-a9f5-714648bb8811","ios":"levelo://app?vid=90e28033-4ee9-4dc0-a9f5-714648bb8811"},"vehicle_type_id":"4","last_reported":1783274079,"current_range_meters":4800,"station_id":"ce4bhh12rcd13ifvqfg0","pricing_plan_id":"cebpf4jnsgd1na2vs0mg"},{"bike_id":"9249ee1a-143f-4c71-b1ba-2814542e46c9","system_id":"levelo_inurba_marseille","lat":43.24532,"lon":5.39483,"is_reserved":false,"is_disabled":false,"rental_uris":{"android":"levelo://app?vid=9249ee1a-143f-4c71-b1ba-2814542e46c9","ios":"levelo://app?vid=9249ee1a-143f-4c71-b1ba-2814542e46c9"},"vehicle_type_id":"4","last_reported":1783274079,"current_range_meters":4800,"station_id":"ce4bhlp2rcd13ifvqgjg","pricing_plan_id":"cebpf4jnsgd1na2vs0mg"},{"bike_id":"9b388ad2-6114-4ac9-a8c8-e35320a88ae5","system_id":"levelo_inurba_marseille","lat":43.284585,"lon":5.375705,"is_reserved":false,"is_disabled":false,"rental_uris":{"android":"levelo://app?vid=9b388ad2-6114-4ac9-a8c8-e35320a88ae5","ios":"levelo://app?vid=9b388ad2-6114-4ac9-a8c8-e35320a88ae5"},"vehicle_type_id":"4","last_reported":1783274079,"current_range_meters":4800,"station_id":"ce4bh412rcd13ifvqds0","pricing_plan_id":"cebpf4jnsgd1na2vs0mg"},{"bike_id":"04909e4d-fd9a-4db5-acd1-6dd906aa9d85","system_id":"levelo_inurba_marseille","lat":43.29036,"lon":5.35905,"is_reserved":false,"is_disabled":true,"rental_uris":{"android":"levelo://app?vid=04909e4d-fd9a-4db5-acd1-6dd906aa9d85","ios":"levelo://app?vid=04909e4d-fd9a-4db5-acd1-6dd906aa9d85"},"vehicle_type_id":"4","last_reported":1783274079,"current_range_meters":4800,"station_id":"ce4bha92rcd13ifvqeg0","pricing_plan_id":"cebpf4jnsgd1na2vs0mg"},{"bike_id":"9972642f-35aa-4c20-918a-dcbc07e9e004","system_id":"levelo_inurba_marseille","lat":43.29555,"lon":5.36742,"is_reserved":false,"is_disabled":true,"rental_uris":{"android":"levelo://app?vid=9972642f-35aa-4c20-918a-dcbc07e9e004","ios":"levelo://app?vid=9972642f-35aa-4c20-918a-dcbc07e9e004"},"vehicle_type_id":"4","last_reported":1783274079,"current_range_meters":4800,"station_id":"ce4bgph2rcd13ifvqc2g","pricing_plan_id":"cebpf4jnsgd1na2vs0mg"},{"bike_id":"42018e9b-f438-4af0-93f4-16ec185d296d","system_id":"levelo_inurba_marseille","lat":43.30128,"lon":5.3878,"is_reserved":false,"is_disabled":false,"rental_uris":{"android":"levelo://app?vid=42018e9b-f438-4af0-93f4-16ec185d296d","ios":"levelo://app?vid=42018e9b-f438-4af0-93f4-16ec185d296d"},"vehicle_type_id":"4","last_reported":1783274079,"current_range_meters":4800,"station_id":"ce4bghh2rcd13ifvqb60","pricing_plan_id":"cebpf4jnsgd1na2vs0mg"},{"bike_id":"c1ccc9fb-cfef-4d69-940e-737868fce7ad","system_id":"levelo_inurba_marseille","lat":43.29555,"lon":5.375196,"is_reserved":false,"is_disabled":false,"rental_uris":{"android":"levelo://app?vid=c1ccc9fb-cfef-4d69-940e-737868fce7ad","ios":"levelo://app?vid=c1ccc9fb-cfef-4d69-940e-737868fce7ad"},"vehicle_type_id":"4","last_reported":1783274079,"current_range_meters":4800,"station_id":"ce4bgi92rcd13ifvqb90","pricing_plan_id":"cebpf4jnsgd1na2vs0mg"},{"bike_id":"d455396b-25c8-4bf4-aa48-4df15ad83f7e","system_id":"levelo_inurba_marseille","lat":43.33884,"lon":5.34761,"is_reserved":false,"is_disabled":false,"rental_uris":{"android":"levelo://app?vid=d455396b-25c8-4bf4-aa48-4df15ad83f7e","ios":"levelo://app?vid=d455396b-25c8-4bf4-aa48-4df15ad83f7e"},"vehicle_type_id":"4","last_reported":1783274079,"current_range_meters":4800,"station_id":"","pricing_plan_id":"cebpf4jnsgd1na2vs0mg"},{"bike_id":"128c98b0-5c8a-4043-be90-d5616b94b24d","system_id":"levelo_inurba_marseille","lat":43.26707,"lon":5.3827,"is_reserved":false,"is_disabled":false,"rental_uris":{"android":"levelo://app?vid=128c98b0-5c8a-4043-be90-d5616b94b24d","ios":"levelo://app?vid=128c98b0-5c8a-4043-be90-d5616b94b24d"},"vehicle_type_id":"4","last_reported":1783274079,"current_range_meters":4800,"station_id":"ce4bhg92rcd13ifvqf90","pricing_plan_id":"cebpf4jnsgd1na2vs0mg"},{"bike_id":"c77b8b43-f6d4-4329-aaea-f019b0913248","system_id":"levelo_inurba_marseille","lat":43.28935,"lon":5.36634,"is_reserved":false,"is_disabled":false,"rental_uris":{"android":"levelo://app?vid=c77b8b43-f6d4-4329-aaea-f019b0913248","ios":"levelo://app?vid=c77b8b43-f6d4-4329-aaea-f019b0913248"},"vehicle_type_id":"4","last_reported":1783274079,"current_range_meters":4800,"station_id":"ce4bhap2rcd13ifvqek0","pricing_plan_id":"cebpf4jnsgd1na2vs0mg"},{"bike_id":"d4902f7b-dfb4-4a85-9f69-8cb9ccdacb28","system_id":"levelo_inurba_marseille","lat":43.30956,"lon":5.39005,"is_reserved":false,"is_disabled":false,"rental_uris":{"android":"levelo://app?vid=d4902f7b-dfb4-4a85-9f69-8cb9ccdacb28","ios":"levelo://app?vid=d4902f7b-dfb4-4a85-9f69-8cb9ccdacb28"},"vehicle_type_id":"4","last_reported":1783274079,"current_range_meters":4800,"station_id":"ce4bgup2rcd13ifvqco0","pricing_plan_id":"cebpf4jnsgd1na2vs0mg"},{"bike_id":"d7114047-9c99-4531-8436-c41770c509c2","system_id":"levelo_inurba_marseille","lat":43.27495,"lon":5.42455,"is_reserved":false,"is_disabled":false,"rental_uris":{"android":"levelo://app?vid=d7114047-9c99-4531-8436-c41770c509c2","ios":"levelo://app?vid=d7114047-9c99-4531-8436-c41770c509c2"},"vehicle_type_id":"4","last_reported":1783274079,"current_range_meters":4800,"station_id":"ce4bhn92rcd13ifvqgrg","pricing_plan_id":"cebpf4jnsgd1na2vs0mg"},{"bike_id":"c301d16b-ee57-4fd4-9a90-e97a40c526fa","system_id":"levelo_inurba_marseille","lat":43.29012,"lon":5.35625,"is_reserved":false,"is_disabled":false,"rental_uris":{"android":"levelo://app?vid=c301d16b-ee57-4fd4-9a90-e97a40c526fa","ios":"levelo://app?vid=c301d16b-ee57-4fd4-9a90-e97a40c526fa"},"vehicle_type_id":"4","last_reported":1783274079,"current_range_meters":4800,"station_id":"ce4bhb92rcd13ifvqen0","pricing_plan_id":"cebpf4jnsgd1na2vs0mg"},{"bike_id":"9f804934-1a3f-4f50-bea6-ee0a3cdf6135","system_id":"levelo_inurba_marseille","lat":43.28687,"lon":5.38633,"is_reserved":false,"is_disabled":false,"rental_uris":{"android":"levelo://app?vid=9f804934-1a3f-4f50-bea6-ee0a3cdf6135","ios":"levelo://app?vid=9f804934-1a3f-4f50-bea6-ee0a3cdf6135"},"vehicle_type_id":"4","last_reported":1783274079,"current_range_meters":5600,"station_id":"ce4bh492rcd13ifvqdug","pricing_plan_id":"cebpf4jnsgd1na2vs0mg"},{"bike_id":"90956858-67b4-4bbd-82de-736588e9511e","system_id":"levelo_inurba_marseille","lat":43.22555,"lon":5.41625,"is_reserved":false,"is_disabled":false,"rental_uris":{"android":"levelo://app?vid=90956858-67b4-4bbd-82de-736588e9511e","ios":"levelo://app?vid=90956858-67b4-4bbd-82de-736588e9511e"},"vehicle_type_id":"4","last_reported":1783274079,"current_range_meters":5600,"station_id":"st_d2o4gvlbi1j2169b742g","pricing_plan_id":"cebpf4jnsgd1na2vs0mg"},{"bike_id":"841caf17-a03c-4ae5-86bb-e7c199cdbdeb","system_id":"levelo_inurba_marseille","lat":43.306,"lon":5.37226,"is_reserved":false,"is_disabled":false,"rental_uris":{"android":"levelo://app?vid=841caf17-a03c-4ae5-86bb-e7c199cdbdeb","ios":"levelo://app?vid=841caf17-a03c-4ae5-86bb-e7c199cdbdeb"},"vehicle_type_id":"4","last_reported":1783274079,"current_range_meters":5600,"station_id":"ce4bgqh2rcd13ifvqc4g","pricing_plan_id":"cebpf4jnsgd1na2vs0mg"},{"bike_id":"d832a3d0-79c6-4ba7-ac9f-b53b8986b84b","system_id":"levelo_inurba_marseille","lat":43.293733,"lon":5.378506,"is_reserved":false,"is_disabled":false,"rental_uris":{"android":"levelo://app?vid=d832a3d0-79c6-4ba7-ac9f-b53b8986b84b","ios":"levelo://app?vid=d832a3d0-79c6-4ba7-ac9f-b53b8986b84b"},"vehicle_type_id":"4","last_reported":1783274079,"current_range_meters":5600,"station_id":"ce4bhch2rcd13ifvqeug","pricing_plan_id":"cebpf4jnsgd1na2vs0mg"},{"bike_id":"617b8d27-faac-4a7b-b31f-c8d5d7522f8c","system_id":"levelo_inurba_marseille","lat":43.28086,"lon":5.42554,"is_reserved":false,"is_disabled":false,"rental_uris":{"android":"levelo://app?vid=617b8d27-faac-4a7b-b31f-c8d5d7522f8c","ios":"levelo://app?vid=617b8d27-faac-4a7b-b31f-c8d5d7522f8c"},"vehicle_type_id":"4","last_reported":1783274079,"current_range_meters":5600,"station_id":"","pricing_plan_id":"cebpf4jnsgd1na2vs0mg"},{"bike_id":"1c3439c1-3a9d-4e3c-87d1-7bf85587f455","system_id":"levelo_inurba_marseille","lat":43.2813,"lon":5.38251,"is_reserved":false,"is_disabled":false,"rental_uris":{"android":"levelo://app?vid=1c3439c1-3a9d-4e3c-87d1-7bf85587f455","ios":"levelo://app?vid=1c3439c1-3a9d-4e3c-87d1-7bf85587f455"},"vehicle_type_id":"4","last_reported":1783274079,"current_range_meters":5600,"station_id":"","pricing_plan_id":"cebpf4jnsgd1na2vs0mg"},{"bike_id":"6a9c0134-176b-4a21-a999-80279b7716a8","system_id":"levelo_inurba_marseille","lat":43.30183,"lon":5.36622,"is_reserved":false,"is_disabled":false,"rental_uris":{"android":"levelo://app?vid=6a9c0134-176b-4a21-a999-80279b7716a8","ios":"levelo://app?vid=6a9c0134-176b-4a21-a999-80279b7716a8"},"vehicle_type_id":"4","last_reported":1783274079,"current_range_meters":5600,"station_id":"ce4bgrh2rcd13ifvqc8g","pricing_plan_id":"cebpf4jnsgd1na2vs0mg"},{"bike_id":"fb9851a7-3b41-4c13-b7aa-7a3fcae5a769","system_id":"levelo_inurba_marseille","lat":43.26553,"lon":5.37284,"is_reserved":false,"is_disabled":false,"rental_uris":{"android":"levelo://app?vid=fb9851a7-3b41-4c13-b7aa-7a3fcae5a769","ios":"levelo://app?vid=fb9851a7-3b41-4c13-b7aa-7a3fcae5a769"},"vehicle_type_id":"4","last_reported":1783274079,"current_range_meters":5600,"station_id":"ce4bhg12rcd13ifvqf70","pricing_plan_id":"cebpf4jnsgd1na2vs0mg"},{"bike_id":"0280cae0-08d7-4f06-a94a-abe8e009ab51","system_id":"levelo_inurba_marseille","lat":43.24877,"lon":5.39416,"is_reserved":false,"is_disabled":false,"rental_uris":{"android":"levelo://app?vid=0280cae0-08d7-4f06-a94a-abe8e009ab51","ios":"levelo://app?vid=0280cae0-08d7-4f06-a94a-abe8e009ab51"},"vehicle_type_id":"4","last_reported":1783274079,"current_range_meters":5600,"station_id":"","pricing_plan_id":"cebpf4jnsgd1na2vs0mg"},{"bike_id":"defe664f-116a-400b-aa68-5aba6647b941","system_id":"levelo_inurba_marseille","lat":43.29312,"lon":5.44571,"is_reserved":false,"is_disabled":false,"rental_uris":{"android":"levelo://app?vid=defe664f-116a-400b-aa68-5aba6647b941","ios":"levelo://app?vid=defe664f-116a-400b-aa68-5aba6647b941"},"vehicle_type_id":"4","last_reported":1783274079,"current_range_meters":5600,"station_id":"","pricing_plan_id":"cebpf4jnsgd1na2vs0mg"},{"bike_id":"7508aa2a-5047-473a-95e0-e19c7a4fcbeb","system_id":"levelo_inurba_marseille","lat":43.24553,"lon":5.39525,"is_reserved":false,"is_disabled":false,"rental_uris":{"android":"levelo://app?vid=7508aa2a-5047-473a-95e0-e19c7a4fcbeb","ios":"levelo://app?vid=7508aa2a-5047-473a-95e0-e19c7a4fcbeb"},"vehicle_type_id":"4","last_reported":1783274079,"current_range_meters":5600,"station_id":"ce4bhlp2rcd13ifvqgjg","pricing_plan_id":"cebpf4jnsgd1na2vs0mg"},{"bike_id":"988f6eb2-476b-4395-993c-77c42e0c0e6a","system_id":"levelo_inurba_marseille","lat":43.26223,"lon":5.38749,"is_reserved":false,"is_disabled":false,"rental_uris":{"android":"levelo://app?vid=988f6eb2-476b-4395-993c-77c42e0c0e6a","ios":"levelo://app?vid=988f6eb2-476b-4395-993c-77c42e0c0e6a"},"vehicle_type_id":"4","last_reported":1783274079,"current_range_meters":5600,"station_id":"st_d8gjfg747rts73coq3b0","pricing_plan_id":"cebpf4jnsgd1na2vs0mg"},{"bike_id":"9fdcee7d-acc3-4513-87a9-c9dec739e207","system_id":"levelo_inurba_marseille","lat":43.24058,"lon":5.37728,"is_reserved":false,"is_disabled":true,"rental_uris":{"android":"levelo://app?vid=9fdcee7d-acc3-4513-87a9-c9dec739e207","ios":"levelo://app?vid=9fdcee7d-acc3-4513-87a9-c9dec739e207"},"vehicle_type_id":"4","last_reported":1783274079,"current_range_meters":5600,"station_id":"ce4bhnp2rcd13ifvqgvg","pricing_plan_id":"cebpf4jnsgd1na2vs0mg"},{"bike_id":"d338de33-8249-430e-bd97-b516f2a2d2ef","system_id":"levelo_inurba_marseille","lat":43.29266,"lon":5.3684,"is_reserved":false,"is_disabled":false,"rental_uris":{"android":"levelo://app?vid=d338de33-8249-430e-bd97-b516f2a2d2ef","ios":"levelo://app?vid=d338de33-8249-430e-bd97-b516f2a2d2ef"},"vehicle_type_id":"4","last_reported":1783274079,"current_range_meters":5600,"station_id":"ce4bhbp2rcd13ifvqesg","pricing_plan_id":"cebpf4jnsgd1na2vs0mg"},{"bike_id":"43481c16-69bb-408c-8213-8fa7a3f3232c","system_id":"levelo_inurba_marseille","lat":43.28566,"lon":5.39494,"is_reserved":false,"is_disabled":false,"rental_uris":{"android":"levelo://app?vid=43481c16-69bb-408c-8213-8fa7a3f3232c","ios":"levelo://app?vid=43481c16-69bb-408c-8213-8fa7a3f3232c"},"vehicle_type_id":"4","last_reported":1783274079,"current_range_meters":5600,"station_id":"ce4bh292rcd13ifvqdg0","pricing_plan_id":"cebpf4jnsgd1na2vs0mg"},{"bike_id":"98e6e248-2a70-4fe6-9a5d-a0124df80d02","system_id":"levelo_inurba_marseille","lat":43.26203,"lon":5.37435,"is_reserved":false,"is_disabled":false,"rental_uris":{"android":"levelo://app?vid=98e6e248-2a70-4fe6-9a5d-a0124df80d02","ios":"levelo://app?vid=98e6e248-2a70-4fe6-9a5d-a0124df80d02"},"vehicle_type_id":"4","last_reported":1783274079,"current_range_meters":5600,"station_id":"ce4bhgp2rcd13ifvqfc0","pricing_plan_id":"cebpf4jnsgd1na2vs0mg"},{"bike_id":"95fad6a2-725d-40e1-944a-ec62cb2eae90","system_id":"levelo_inurba_marseille","lat":43.25132,"lon":5.40294,"is_reserved":false,"is_disabled":false,"rental_uris":{"android":"levelo://app?vid=95fad6a2-725d-40e1-944a-ec62cb2eae90","ios":"levelo://app?vid=95fad6a2-725d-40e1-944a-ec62cb2eae90"},"vehicle_type_id":"4","last_reported":1783274079,"current_range_meters":5600,"station_id":"ce4bhlh2rcd13ifvqgig","pricing_plan_id":"cebpf4jnsgd1na2vs0mg"},{"bike_id":"98756643-3664-4a0c-9dc4-0be5ab60cc96","system_id":"levelo_inurba_marseille","lat":43.28618,"lon":5.35102,"is_reserved":false,"is_disabled":false,"rental_uris":{"android":"levelo://app?vid=98756643-3664-4a0c-9dc4-0be5ab60cc96","ios":"levelo://app?vid=98756643-3664-4a0c-9dc4-0be5ab60cc96"},"vehicle_type_id":"4","last_reported":1783274079,"current_range_meters":5600,"station_id":"ce4bhch2rcd13ifvqeug","pricing_plan_id":"cebpf4jnsgd1na2vs0mg"},{"bike_id":"e6c339eb-e8df-419a-a0f3-1c95db4e1937","system_id":"levelo_inurba_marseille","lat":43.26191,"lon":5.37449,"is_reserved":false,"is_disabled":false,"rental_uris":{"android":"levelo://app?vid=e6c339eb-e8df-419a-a0f3-1c95db4e1937","ios":"levelo://app?vid=e6c339eb-e8df-419a-a0f3-1c95db4e1937"},"vehicle_type_id":"4","last_reported":1783274079,"current_range_meters":5600,"station_id":"ce4bhgp2rcd13ifvqfc0","pricing_plan_id":"cebpf4jnsgd1na2vs0mg"},{"bike_id":"4db1a738-7f04-42e5-a031-6eb9900c6581","system_id":"levelo_inurba_marseille","lat":43.26197,"lon":5.37408,"is_reserved":false,"is_disabled":false,"rental_uris":{"android":"levelo://app?vid=4db1a738-7f04-42e5-a031-6eb9900c6581","ios":"levelo://app?vid=4db1a738-7f04-42e5-a031-6eb9900c6581"},"vehicle_type_id":"4","last_reported":1783274079,"current_range_meters":5600,"station_id":"ce4bhgp2rcd13ifvqfc0","pricing_plan_id":"cebpf4jnsgd1na2vs0mg"},{"bike_id":"67ff903d-b2b0-4196-be8d-ce9048cbff4d","system_id":"levelo_inurba_marseille","lat":43.22971,"lon":5.44474,"is_reserved":false,"is_disabled":false,"rental_uris":{"android":"levelo://app?vid=67ff903d-b2b0-4196-be8d-ce9048cbff4d","ios":"levelo://app?vid=67ff903d-b2b0-4196-be8d-ce9048cbff4d"},"vehicle_type_id":"4","last_reported":1783274079,"current_range_meters":5600,"station_id":"","pricing_plan_id":"cebpf4jnsgd1na2vs0mg"},{"bike_id":"f5d895ef-c089-403e-ab80-fa5c68c05b11","system_id":"levelo_inurba_marseille","lat":43.299771,"lon":5.37179,"is_reserved":false,"is_disabled":false,"rental_uris":{"android":"levelo://app?vid=f5d895ef-c089-403e-ab80-fa5c68c05b11","ios":"levelo://app?vid=f5d895ef-c089-403e-ab80-fa5c68c05b11"},"vehicle_type_id":"4","last_reported":1783274079,"current_range_meters":6000,"station_id":"ce4bgr92rcd13ifvqc7g","pricing_plan_id":"cebpf4jnsgd1na2vs0mg"},{"bike_id":"5cf8ff3f-002e-4490-b36d-5909b772d854","system_id":"levelo_inurba_marseille","lat":43.22544,"lon":5.34842,"is_reserved":false,"is_disabled":true,"rental_uris":{"android":"levelo://app?vid=5cf8ff3f-002e-4490-b36d-5909b772d854","ios":"levelo://app?vid=5cf8ff3f-002e-4490-b36d-5909b772d854"},"vehicle_type_id":"4","last_reported":1783274079,"current_range_meters":6000,"station_id":"st_cvj5dfep6f1abm77gieg","pricing_plan_id":"cebpf4jnsgd1na2vs0mg"},{"bike_id":"097703ec-cc97-424c-9bee-1ad2d40222d4","system_id":"levelo_inurba_marseille","lat":43.24821,"lon":5.3745,"is_reserved":false,"is_disabled":false,"rental_uris":{"android":"levelo://app?vid=097703ec-cc97-424c-9bee-1ad2d40222d4","ios":"levelo://app?vid=097703ec-cc97-424c-9bee-1ad2d40222d4"},"vehicle_type_id":"4","last_reported":1783274079,"current_range_meters":6000,"station_id":"ce4bhgh2rcd13ifvqfb0","pricing_plan_id":"cebpf4jnsgd1na2vs0mg"},{"bike_id":"98d9ab63-952f-49d0-8775-50ac81ca5fd7","system_id":"levelo_inurba_marseille","lat":43.30924,"lon":5.37497,"is_reserved":false,"is_disabled":false,"rental_uris":{"android":"levelo://app?vid=98d9ab63-952f-49d0-8775-50ac81ca5fd7","ios":"levelo://app?vid=98d9ab63-952f-49d0-8775-50ac81ca5fd7"},"vehicle_type_id":"4","last_reported":1783274079,"current_range_meters":6000,"station_id":"","pricing_plan_id":"cebpf4jnsgd1na2vs0mg"},{"bike_id":"6b4bd43f-9d60-40f8-96cc-0292b478f552","system_id":"levelo_inurba_marseille","lat":43.28779,"lon":5.4662,"is_reserved":false,"is_disabled":false,"rental_uris":{"android":"levelo://app?vid=6b4bd43f-9d60-40f8-96cc-0292b478f552","ios":"levelo://app?vid=6b4bd43f-9d60-40f8-96cc-0292b478f552"},"vehicle_type_id":"4","last_reported":1783274079,"current_range_meters":6000,"station_id":"","pricing_plan_id":"cebpf4jnsgd1na2vs0mg"},{"bike_id":"38360f99-2bce-4f28-bc36-3bc8367dcc77","system_id":"levelo_inurba_marseille","lat":43.302907,"lon":5.377195,"is_reserved":false,"is_disabled":false,"rental_uris":{"android":"levelo://app?vid=38360f99-2bce-4f28-bc36-3bc8367dcc77","ios":"levelo://app?vid=38360f99-2bce-4f28-bc36-3bc8367dcc77"},"vehicle_type_id":"4","last_reported":1783274079,"current_range_meters":6000,"station_id":"ce4bgqh2rcd13ifvqc5g","pricing_plan_id":"cebpf4jnsgd1na2vs0mg"},{"bike_id":"4d52a61b-5c30-41df-a6ac-71b42f016aed","system_id":"levelo_inurba_marseille","lat":43.25865,"lon":5.39906,"is_reserved":false,"is_disabled":true,"rental_uris":{"android":"levelo://app?vid=4d52a61b-5c30-41df-a6ac-71b42f016aed","ios":"levelo://app?vid=4d52a61b-5c30-41df-a6ac-71b42f016aed"},"vehicle_type_id":"4","last_reported":1783274079,"current_range_meters":6000,"station_id":"ce4bhl92rcd13ifvqghg","pricing_plan_id":"cebpf4jnsgd1na2vs0mg"},{"bike_id":"35d85b29-e809-4adb-8fc3-2febcfc379ef","system_id":"levelo_inurba_marseille","lat":43.29059,"lon":5.37146,"is_reserved":false,"is_disabled":false,"rental_uris":{"android":"levelo://app?vid=35d85b29-e809-4adb-8fc3-2febcfc379ef","ios":"levelo://app?vid=35d85b29-e809-4adb-8fc3-2febcfc379ef"},"vehicle_type_id":"4","last_reported":1783274079,"current_range_meters":6000,"station_id":"ce4bh5p2rcd13ifvqe4g","pricing_plan_id":"cebpf4jnsgd1na2vs0mg"},{"bike_id":"2a8f592d-3ebd-4853-bf23-1a2cca68a093","system_id":"levelo_inurba_marseille","lat":43.27062,"lon":5.38525,"is_reserved":false,"is_disabled":false,"rental_uris":{"android":"levelo://app?vid=2a8f592d-3ebd-4853-bf23-1a2cca68a093","ios":"levelo://app?vid=2a8f592d-3ebd-4853-bf23-1a2cca68a093"},"vehicle_type_id":"4","last_reported":1783274079,"current_range_meters":6000,"station_id":"","pricing_plan_id":"cebpf4jnsgd1na2vs0mg"},{"bike_id":"74c027a4-4b67-40ff-a2fc-35f79d498796","system_id":"levelo_inurba_marseille","lat":43.29235,"lon":5.36059,"is_reserved":false,"is_disabled":true,"rental_uris":{"android":"levelo://app?vid=74c027a4-4b67-40ff-a2fc-35f79d498796","ios":"levelo://app?vid=74c027a4-4b67-40ff-a2fc-35f79d498796"},"vehicle_type_id":"4","last_reported":1783274079,"current_range_meters":6000,"station_id":"ce4bhbh2rcd13ifvqeqg","pricing_plan_id":"cebpf4jnsgd1na2vs0mg"},{"bike_id":"a12a4f83-c050-4064-a9cd-bf7775a31f2f","system_id":"levelo_inurba_marseille","lat":43.24655,"lon":5.38076,"is_reserved":false,"is_disabled":true,"rental_uris":{"android":"levelo://app?vid=a12a4f83-c050-4064-a9cd-bf7775a31f2f","ios":"levelo://app?vid=a12a4f83-c050-4064-a9cd-bf7775a31f2f"},"vehicle_type_id":"4","last_reported":1783274079,"current_range_meters":6000,"station_id":"","pricing_plan_id":"cebpf4jnsgd1na2vs0mg"},{"bike_id":"95e2c5d3-ee09-417b-93c0-7f04fa895ada","system_id":"levelo_inurba_marseille","lat":43.31913,"lon":5.37358,"is_reserved":false,"is_disabled":false,"rental_uris":{"android":"levelo://app?vid=95e2c5d3-ee09-417b-93c0-7f04fa895ada","ios":"levelo://app?vid=95e2c5d3-ee09-417b-93c0-7f04fa895ada"},"vehicle_type_id":"4","last_reported":1783274079,"current_range_meters":6000,"station_id":"","pricing_plan_id":"cebpf4jnsgd1na2vs0mg"},{"bike_id":"4ef0e82a-f639-45b3-b7b1-995a738f0be6","system_id":"levelo_inurba_marseille","lat":43.30305,"lon":5.36893,"is_reserved":false,"is_disabled":false,"rental_uris":{"android":"levelo://app?vid=4ef0e82a-f639-45b3-b7b1-995a738f0be6","ios":"levelo://app?vid=4ef0e82a-f639-45b3-b7b1-995a738f0be6"},"vehicle_type_id":"4","last_reported":1783274079,"current_range_meters":6000,"station_id":"ce4bgqh2rcd13ifvqc5g","pricing_plan_id":"cebpf4jnsgd1na2vs0mg"},{"bike_id":"1ef77d10-3808-4032-a625-bdc5532d78f3","system_id":"levelo_inurba_marseille","lat":43.28973,"lon":5.37831,"is_reserved":false,"is_disabled":true,"rental_uris":{"android":"levelo://app?vid=1ef77d10-3808-4032-a625-bdc5532d78f3","ios":"levelo://app?vid=1ef77d10-3808-4032-a625-bdc5532d78f3"},"vehicle_type_id":"4","last_reported":1783274079,"current_range_meters":6000,"station_id":"ce4bh9p2rcd13ifvqed0","pricing_plan_id":"cebpf4jnsgd1na2vs0mg"},{"bike_id":"9aad7fb2-4b68-4ff1-a63e-5832ca4f6501","system_id":"levelo_inurba_marseille","lat":43.26919,"lon":5.38502,"is_reserved":false,"is_disabled":false,"rental_uris":{"android":"levelo://app?vid=9aad7fb2-4b68-4ff1-a63e-5832ca4f6501","ios":"levelo://app?vid=9aad7fb2-4b68-4ff1-a63e-5832ca4f6501"},"vehicle_type_id":"4","last_reported":1783274079,"current_range_meters":6000,"station_id":"","pricing_plan_id":"cebpf4jnsgd1na2vs0mg"},{"bike_id":"be97f77b-683a-44ce-8240-f5ff6433cfe3","system_id":"levelo_inurba_marseille","lat":43.23208,"lon":5.35535,"is_reserved":false,"is_disabled":true,"rental_uris":{"android":"levelo://app?vid=be97f77b-683a-44ce-8240-f5ff6433cfe3","ios":"levelo://app?vid=be97f77b-683a-44ce-8240-f5ff6433cfe3"},"vehicle_type_id":"4","last_reported":1783274079,"current_range_meters":6000,"station_id":"ce4bhu92rcd13ifvqi70","pricing_plan_id":"cebpf4jnsgd1na2vs0mg"},{"bike_id":"7c427d21-5ba3-47e9-b621-2ca7d29df3d2","system_id":"levelo_inurba_marseille","lat":43.2846,"lon":5.43743,"is_reserved":false,"is_disabled":false,"rental_uris":{"android":"levelo://app?vid=7c427d21-5ba3-47e9-b621-2ca7d29df3d2","ios":"levelo://app?vid=7c427d21-5ba3-47e9-b621-2ca7d29df3d2"},"vehicle_type_id":"4","last_reported":1783274079,"current_range_meters":6000,"station_id":"","pricing_plan_id":"cebpf4jnsgd1na2vs0mg"},{"bike_id":"7f12e5a2-955f-42a0-87a4-54480f18e191","system_id":"levelo_inurba_marseille","lat":43.289465,"lon":5.363946,"is_reserved":false,"is_disabled":false,"rental_uris":{"android":"levelo://app?vid=7f12e5a2-955f-42a0-87a4-54480f18e191","ios":"levelo://app?vid=7f12e5a2-955f-42a0-87a4-54480f18e191"},"vehicle_type_id":"4","last_reported":1783274079,"current_range_meters":6000,"station_id":"","pricing_plan_id":"cebpf4jnsgd1na2vs0mg"},{"bike_id":"2fa22b1d-12bf-4888-8ff4-67a11349c948","system_id":"levelo_inurba_marseille","lat":43.21192,"lon":5.35077,"is_reserved":false,"is_disabled":false,"rental_uris":{"android":"levelo://app?vid=2fa22b1d-12bf-4888-8ff4-67a11349c948","ios":"levelo://app?vid=2fa22b1d-12bf-4888-8ff4-67a11349c948"},"vehicle_type_id":"4","last_reported":1783274079,"current_range_meters":6400,"station_id":"st_cvj6sg6p6f1abm77japg","pricing_plan_id":"cebpf4jnsgd1na2vs0mg"},{"bike_id":"84d729f8-b819-4bf9-a99a-1960a40842c4","system_id":"levelo_inurba_marseille","lat":43.26207,"lon":5.37446,"is_reserved":false,"is_disabled":false,"rental_uris":{"android":"levelo://app?vid=84d729f8-b819-4bf9-a99a-1960a40842c4","ios":"levelo://app?vid=84d729f8-b819-4bf9-a99a-1960a40842c4"},"vehicle_type_id":"4","last_reported":1783274079,"current_range_meters":6400,"station_id":"ce4bhgp2rcd13ifvqfc0","pricing_plan_id":"cebpf4jnsgd1na2vs0mg"},{"bike_id":"8add3d14-7583-4bbe-a39a-8070d5f4d47a","system_id":"levelo_inurba_marseille","lat":43.32511,"lon":5.38291,"is_reserved":false,"is_disabled":false,"rental_uris":{"android":"levelo://app?vid=8add3d14-7583-4bbe-a39a-8070d5f4d47a","ios":"levelo://app?vid=8add3d14-7583-4bbe-a39a-8070d5f4d47a"},"vehicle_type_id":"4","last_reported":1783274079,"current_range_meters":6400,"station_id":"st_d4asgbiv49dc73anf9m0","pricing_plan_id":"cebpf4jnsgd1na2vs0mg"},{"bike_id":"8fec6c78-b460-42d7-b78b-be9ed7c2fffd","system_id":"levelo_inurba_marseille","lat":43.28202,"lon":5.42658,"is_reserved":false,"is_disabled":false,"rental_uris":{"android":"levelo://app?vid=8fec6c78-b460-42d7-b78b-be9ed7c2fffd","ios":"levelo://app?vid=8fec6c78-b460-42d7-b78b-be9ed7c2fffd"},"vehicle_type_id":"4","last_reported":1783274079,"current_range_meters":6400,"station_id":"","pricing_plan_id":"cebpf4jnsgd1na2vs0mg"},{"bike_id":"154ea9c7-a22d-408d-9f47-f19863086613","system_id":"levelo_inurba_marseille","lat":43.24816,"lon":5.37455,"is_reserved":false,"is_disabled":false,"rental_uris":{"android":"levelo://app?vid=154ea9c7-a22d-408d-9f47-f19863086613","ios":"levelo://app?vid=154ea9c7-a22d-408d-9f47-f19863086613"},"vehicle_type_id":"4","last_reported":1783274079,"current_range_meters":6400,"station_id":"ce4bhgh2rcd13ifvqfb0","pricing_plan_id":"cebpf4jnsgd1na2vs0mg"},{"bike_id":"ced74b9f-b178-40c4-b05a-f65c4f2b3f5d","system_id":"levelo_inurba_marseille","lat":43.27949,"lon":5.41037,"is_reserved":false,"is_disabled":true,"rental_uris":{"android":"levelo://app?vid=ced74b9f-b178-40c4-b05a-f65c4f2b3f5d","ios":"levelo://app?vid=ced74b9f-b178-40c4-b05a-f65c4f2b3f5d"},"vehicle_type_id":"4","last_reported":1783274079,"current_range_meters":6400,"station_id":"ce4bhnp2rcd13ifvqh0g","pricing_plan_id":"cebpf4jnsgd1na2vs0mg"},{"bike_id":"c64fd8b2-f458-4a6e-88eb-895f5a6985c2","system_id":"levelo_inurba_marseille","lat":43.3143,"lon":5.39368,"is_reserved":false,"is_disabled":true,"rental_uris":{"android":"levelo://app?vid=c64fd8b2-f458-4a6e-88eb-895f5a6985c2","ios":"levelo://app?vid=c64fd8b2-f458-4a6e-88eb-895f5a6985c2"},"vehicle_type_id":"4","last_reported":1783274079,"current_range_meters":6400,"station_id":"","pricing_plan_id":"cebpf4jnsgd1na2vs0mg"},{"bike_id":"340ba085-7f04-4d51-8eda-6216a0914d5e","system_id":"levelo_inurba_marseille","lat":43.29634,"lon":5.38673,"is_reserved":false,"is_disabled":false,"rental_uris":{"android":"levelo://app?vid=340ba085-7f04-4d51-8eda-6216a0914d5e","ios":"levelo://app?vid=340ba085-7f04-4d51-8eda-6216a0914d5e"},"vehicle_type_id":"4","last_reported":1783274079,"current_range_meters":6400,"station_id":"","pricing_plan_id":"cebpf4jnsgd1na2vs0mg"},{"bike_id":"8220ecc2-6bf9-4e7d-8a35-6858c0daf5f4","system_id":"levelo_inurba_marseille","lat":43.21193,"lon":5.35076,"is_reserved":false,"is_disabled":false,"rental_uris":{"android":"levelo://app?vid=8220ecc2-6bf9-4e7d-8a35-6858c0daf5f4","ios":"levelo://app?vid=8220ecc2-6bf9-4e7d-8a35-6858c0daf5f4"},"vehicle_type_id":"4","last_reported":1783274079,"current_range_meters":6400,"station_id":"st_cvj6sg6p6f1abm77japg","pricing_plan_id":"cebpf4jnsgd1na2vs0mg"},{"bike_id":"b99fa2fa-6caa-4e97-a941-8427d6ff2309","system_id":"levelo_inurba_marseille","lat":43.26248,"lon":5.38775,"is_reserved":false,"is_disabled":true,"rental_uris":{"android":"levelo://app?vid=b99fa2fa-6caa-4e97-a941-8427d6ff2309","ios":"levelo://app?vid=b99fa2fa-6caa-4e97-a941-8427d6ff2309"},"vehicle_type_id":"4","last_reported":1783274079,"current_range_meters":6400,"station_id":"st_d8gjfg747rts73coq3b0","pricing_plan_id":"cebpf4jnsgd1na2vs0mg"},{"bike_id":"4f6e4a1b-5c3c-4596-935b-1a5e9d8ff77a","system_id":"levelo_inurba_marseille","lat":43.27426,"lon":5.39416,"is_reserved":false,"is_disabled":false,"rental_uris":{"android":"levelo://app?vid=4f6e4a1b-5c3c-4596-935b-1a5e9d8ff77a","ios":"levelo://app?vid=4f6e4a1b-5c3c-4596-935b-1a5e9d8ff77a"},"vehicle_type_id":"4","last_reported":1783274079,"current_range_meters":6400,"station_id":"ce4bhdp2rcd13ifvqf20","pricing_plan_id":"cebpf4jnsgd1na2vs0mg"},{"bike_id":"3892050e-cb6a-457e-90e6-5def440715fd","system_id":"levelo_inurba_marseille","lat":43.28684,"lon":5.46673,"is_reserved":false,"is_disabled":false,"rental_uris":{"android":"levelo://app?vid=3892050e-cb6a-457e-90e6-5def440715fd","ios":"levelo://app?vid=3892050e-cb6a-457e-90e6-5def440715fd"},"vehicle_type_id":"4","last_reported":1783274079,"current_range_meters":6400,"station_id":"st_d6tc3vkotcvc738tfjhg","pricing_plan_id":"cebpf4jnsgd1na2vs0mg"},{"bike_id":"ce96bab4-bfc4-4150-8d40-74272b92e348","system_id":"levelo_inurba_marseille","lat":43.23188,"lon":5.3555,"is_reserved":false,"is_disabled":false,"rental_uris":{"android":"levelo://app?vid=ce96bab4-bfc4-4150-8d40-74272b92e348","ios":"levelo://app?vid=ce96bab4-bfc4-4150-8d40-74272b92e348"},"vehicle_type_id":"4","last_reported":1783274079,"current_range_meters":6400,"station_id":"ce4bhu92rcd13ifvqi70","pricing_plan_id":"cebpf4jnsgd1na2vs0mg"},{"bike_id":"f8904c74-6830-40fe-b3c8-4f67e33c09e0","system_id":"levelo_inurba_marseille","lat":43.29895,"lon":5.383,"is_reserved":false,"is_disabled":false,"rental_uris":{"android":"levelo://app?vid=f8904c74-6830-40fe-b3c8-4f67e33c09e0","ios":"levelo://app?vid=f8904c74-6830-40fe-b3c8-4f67e33c09e0"},"vehicle_type_id":"4","last_reported":1783274079,"current_range_meters":6400,"station_id":"","pricing_plan_id":"cebpf4jnsgd1na2vs0mg"},{"bike_id":"66f64495-157d-434d-a3ef-5a17f45e04e3","system_id":"levelo_inurba_marseille","lat":43.24121,"lon":5.41004,"is_reserved":false,"is_disabled":false,"rental_uris":{"android":"levelo://app?vid=66f64495-157d-434d-a3ef-5a17f45e04e3","ios":"levelo://app?vid=66f64495-157d-434d-a3ef-5a17f45e04e3"},"vehicle_type_id":"4","last_reported":1783274079,"current_range_meters":6400,"station_id":"","pricing_plan_id":"cebpf4jnsgd1na2vs0mg"},{"bike_id":"22e51985-5466-4990-900d-03da7effeec1","system_id":"levelo_inurba_marseille","lat":43.24659,"lon":5.38918,"is_reserved":false,"is_disabled":false,"rental_uris":{"android":"levelo://app?vid=22e51985-5466-4990-900d-03da7effeec1","ios":"levelo://app?vid=22e51985-5466-4990-900d-03da7effeec1"},"vehicle_type_id":"4","last_reported":1783274079,"current_range_meters":6400,"station_id":"ce4bhg12rcd13ifvqf60","pricing_plan_id":"cebpf4jnsgd1na2vs0mg"},{"bike_id":"d230c7da-04b9-477c-ac31-d2650e0427fd","system_id":"levelo_inurba_marseille","lat":43.31123,"lon":5.37786,"is_reserved":false,"is_disabled":true,"rental_uris":{"android":"levelo://app?vid=d230c7da-04b9-477c-ac31-d2650e0427fd","ios":"levelo://app?vid=d230c7da-04b9-477c-ac31-d2650e0427fd"},"vehicle_type_id":"4","last_reported":1783274079,"current_range_meters":6400,"station_id":"ce4bgt92rcd13ifvqcg0","pricing_plan_id":"cebpf4jnsgd1na2vs0mg"},{"bike_id":"6c5fe4f7-262b-4001-9eb8-7e80f3afa3a3","system_id":"levelo_inurba_marseille","lat":43.26022,"lon":5.37558,"is_reserved":false,"is_disabled":false,"rental_uris":{"android":"levelo://app?vid=6c5fe4f7-262b-4001-9eb8-7e80f3afa3a3","ios":"levelo://app?vid=6c5fe4f7-262b-4001-9eb8-7e80f3afa3a3"},"vehicle_type_id":"4","last_reported":1783274079,"current_range_meters":6400,"station_id":"ce4bhgh2rcd13ifvqfa0","pricing_plan_id":"cebpf4jnsgd1na2vs0mg"},{"bike_id":"6c83a1d2-0261-4cb8-9609-a9d6494b40a6","system_id":"levelo_inurba_marseille","lat":43.29412,"lon":5.37588,"is_reserved":false,"is_disabled":false,"rental_uris":{"android":"levelo://app?vid=6c83a1d2-0261-4cb8-9609-a9d6494b40a6","ios":"levelo://app?vid=6c83a1d2-0261-4cb8-9609-a9d6494b40a6"},"vehicle_type_id":"4","last_reported":1783274079,"current_range_meters":6400,"station_id":"","pricing_plan_id":"cebpf4jnsgd1na2vs0mg"},{"bike_id":"d0c0c075-24a6-4022-bf20-68515e3775b7","system_id":"levelo_inurba_marseille","lat":43.28422,"lon":5.34969,"is_reserved":false,"is_disabled":false,"rental_uris":{"android":"levelo://app?vid=d0c0c075-24a6-4022-bf20-68515e3775b7","ios":"levelo://app?vid=d0c0c075-24a6-4022-bf20-68515e3775b7"},"vehicle_type_id":"4","last_reported":1783274079,"current_range_meters":6800,"station_id":"ce4bhbh2rcd13ifvqepg","pricing_plan_id":"cebpf4jnsgd1na2vs0mg"},{"bike_id":"d3cd9571-4983-47b4-bcd2-4b7d6f46304f","system_id":"levelo_inurba_marseille","lat":43.23792,"lon":5.36595,"is_reserved":false,"is_disabled":false,"rental_uris":{"android":"levelo://app?vid=d3cd9571-4983-47b4-bcd2-4b7d6f46304f","ios":"levelo://app?vid=d3cd9571-4983-47b4-bcd2-4b7d6f46304f"},"vehicle_type_id":"4","last_reported":1783274079,"current_range_meters":6800,"station_id":"st_d3nk18o9ro0c73en2l3g","pricing_plan_id":"cebpf4jnsgd1na2vs0mg"},{"bike_id":"fce22383-56e7-4c24-833e-871f7afffe52","system_id":"levelo_inurba_marseille","lat":43.27952,"lon":5.41009,"is_reserved":false,"is_disabled":false,"rental_uris":{"android":"levelo://app?vid=fce22383-56e7-4c24-833e-871f7afffe52","ios":"levelo://app?vid=fce22383-56e7-4c24-833e-871f7afffe52"},"vehicle_type_id":"4","last_reported":1783274079,"current_range_meters":6800,"station_id":"ce4bhnp2rcd13ifvqh0g","pricing_plan_id":"cebpf4jnsgd1na2vs0mg"},{"bike_id":"3fa27ca9-8063-4045-9608-92c73c3c3eaf","system_id":"levelo_inurba_marseille","lat":43.28352,"lon":5.38627,"is_reserved":false,"is_disabled":false,"rental_uris":{"android":"levelo://app?vid=3fa27ca9-8063-4045-9608-92c73c3c3eaf","ios":"levelo://app?vid=3fa27ca9-8063-4045-9608-92c73c3c3eaf"},"vehicle_type_id":"4","last_reported":1783274079,"current_range_meters":6800,"station_id":"ce4bh492rcd13ifvqdvg","pricing_plan_id":"cebpf4jnsgd1na2vs0mg"},{"bike_id":"d1f95cf9-3c50-44e1-afec-1a16e5b009af","system_id":"levelo_inurba_marseille","lat":43.266713,"lon":5.372395,"is_reserved":false,"is_disabled":false,"rental_uris":{"android":"levelo://app?vid=d1f95cf9-3c50-44e1-afec-1a16e5b009af","ios":"levelo://app?vid=d1f95cf9-3c50-44e1-afec-1a16e5b009af"},"vehicle_type_id":"4","last_reported":1783274079,"current_range_meters":6800,"station_id":"","pricing_plan_id":"cebpf4jnsgd1na2vs0mg"},{"bike_id":"e212048e-36e5-4dea-a4dc-4f4603b01b54","system_id":"levelo_inurba_marseille","lat":43.30163,"lon":5.38082,"is_reserved":false,"is_disabled":true,"rental_uris":{"android":"levelo://app?vid=e212048e-36e5-4dea-a4dc-4f4603b01b54","ios":"levelo://app?vid=e212048e-36e5-4dea-a4dc-4f4603b01b54"},"vehicle_type_id":"4","last_reported":1783274079,"current_range_meters":6800,"station_id":"ce4bgjp2rcd13ifvqbh0","pricing_plan_id":"cebpf4jnsgd1na2vs0mg"},{"bike_id":"2d3dd4f4-c2be-4315-be3d-f35763bc2c71","system_id":"levelo_inurba_marseille","lat":43.26694,"lon":5.40192,"is_reserved":false,"is_disabled":false,"rental_uris":{"android":"levelo://app?vid=2d3dd4f4-c2be-4315-be3d-f35763bc2c71","ios":"levelo://app?vid=2d3dd4f4-c2be-4315-be3d-f35763bc2c71"},"vehicle_type_id":"4","last_reported":1783274079,"current_range_meters":6800,"station_id":"","pricing_plan_id":"cebpf4jnsgd1na2vs0mg"},{"bike_id":"3fcf6205-f23c-4cee-8363-04389955351d","system_id":"levelo_inurba_marseille","lat":43.22562,"lon":5.41611,"is_reserved":false,"is_disabled":false,"rental_uris":{"android":"levelo://app?vid=3fcf6205-f23c-4cee-8363-04389955351d","ios":"levelo://app?vid=3fcf6205-f23c-4cee-8363-04389955351d"},"vehicle_type_id":"4","last_reported":1783274079,"current_range_meters":6800,"station_id":"st_d2o4gvlbi1j2169b742g","pricing_plan_id":"cebpf4jnsgd1na2vs0mg"},{"bike_id":"6ada8e71-0cda-4e7b-8320-75e5339360ac","system_id":"levelo_inurba_marseille","lat":43.23186,"lon":5.39983,"is_reserved":false,"is_disabled":false,"rental_uris":{"android":"levelo://app?vid=6ada8e71-0cda-4e7b-8320-75e5339360ac","ios":"levelo://app?vid=6ada8e71-0cda-4e7b-8320-75e5339360ac"},"vehicle_type_id":"4","last_reported":1783274079,"current_range_meters":6800,"station_id":"ce4bhn12rcd13ifvqgqg","pricing_plan_id":"cebpf4jnsgd1na2vs0mg"},{"bike_id":"6988656b-b9bf-42fd-86c6-85441f215ca5","system_id":"levelo_inurba_marseille","lat":43.21185,"lon":5.35085,"is_reserved":false,"is_disabled":false,"rental_uris":{"android":"levelo://app?vid=6988656b-b9bf-42fd-86c6-85441f215ca5","ios":"levelo://app?vid=6988656b-b9bf-42fd-86c6-85441f215ca5"},"vehicle_type_id":"4","last_reported":1783274079,"current_range_meters":6800,"station_id":"st_cvj6sg6p6f1abm77japg","pricing_plan_id":"cebpf4jnsgd1na2vs0mg"},{"bike_id":"73c8701a-5534-4d6e-b634-9acc1e8fe67a","system_id":"levelo_inurba_marseille","lat":43.27635,"lon":5.42128,"is_reserved":false,"is_disabled":false,"rental_uris":{"android":"levelo://app?vid=73c8701a-5534-4d6e-b634-9acc1e8fe67a","ios":"levelo://app?vid=73c8701a-5534-4d6e-b634-9acc1e8fe67a"},"vehicle_type_id":"4","last_reported":1783274079,"current_range_meters":6800,"station_id":"","pricing_plan_id":"cebpf4jnsgd1na2vs0mg"},{"bike_id":"8573ae4c-c9fc-4ff8-a5e9-0df2486e1c40","system_id":"levelo_inurba_marseille","lat":43.26032,"lon":5.37541,"is_reserved":false,"is_disabled":true,"rental_uris":{"android":"levelo://app?vid=8573ae4c-c9fc-4ff8-a5e9-0df2486e1c40","ios":"levelo://app?vid=8573ae4c-c9fc-4ff8-a5e9-0df2486e1c40"},"vehicle_type_id":"4","last_reported":1783274079,"current_range_meters":6800,"station_id":"ce4bhgh2rcd13ifvqfa0","pricing_plan_id":"cebpf4jnsgd1na2vs0mg"},{"bike_id":"94ef77d9-7d9a-4888-af4e-c7c5c50814bd","system_id":"levelo_inurba_marseille","lat":43.24389,"lon":5.37066,"is_reserved":false,"is_disabled":false,"rental_uris":{"android":"levelo://app?vid=94ef77d9-7d9a-4888-af4e-c7c5c50814bd","ios":"levelo://app?vid=94ef77d9-7d9a-4888-af4e-c7c5c50814bd"},"vehicle_type_id":"4","last_reported":1783274079,"current_range_meters":6800,"station_id":"ce4bhhh2rcd13ifvqfk0","pricing_plan_id":"cebpf4jnsgd1na2vs0mg"},{"bike_id":"3fed7d49-8c83-4497-bd8d-d218e90ad35f","system_id":"levelo_inurba_marseille","lat":43.3016,"lon":5.38066,"is_reserved":false,"is_disabled":false,"rental_uris":{"android":"levelo://app?vid=3fed7d49-8c83-4497-bd8d-d218e90ad35f","ios":"levelo://app?vid=3fed7d49-8c83-4497-bd8d-d218e90ad35f"},"vehicle_type_id":"4","last_reported":1783274079,"current_range_meters":6800,"station_id":"ce4bgjp2rcd13ifvqbh0","pricing_plan_id":"cebpf4jnsgd1na2vs0mg"},{"bike_id":"80a42793-bd5b-4893-98fe-ed4ba85e0db0","system_id":"levelo_inurba_marseille","lat":43.3237,"lon":5.38882,"is_reserved":false,"is_disabled":false,"rental_uris":{"android":"levelo://app?vid=80a42793-bd5b-4893-98fe-ed4ba85e0db0","ios":"levelo://app?vid=80a42793-bd5b-4893-98fe-ed4ba85e0db0"},"vehicle_type_id":"4","last_reported":1783274079,"current_range_meters":6800,"station_id":"ce4bhqp2rcd13ifvqhog","pricing_plan_id":"cebpf4jnsgd1na2vs0mg"},{"bike_id":"1bc69c0e-0bef-4dd0-9c32-f25cac91de35","system_id":"levelo_inurba_marseille","lat":43.26894,"lon":5.36907,"is_reserved":false,"is_disabled":false,"rental_uris":{"android":"levelo://app?vid=1bc69c0e-0bef-4dd0-9c32-f25cac91de35","ios":"levelo://app?vid=1bc69c0e-0bef-4dd0-9c32-f25cac91de35"},"vehicle_type_id":"4","last_reported":1783274079,"current_range_meters":6800,"station_id":"","pricing_plan_id":"cebpf4jnsgd1na2vs0mg"},{"bike_id":"cc738f32-f811-4e3f-b968-0bc0d7c9be0d","system_id":"levelo_inurba_marseille","lat":43.29253,"lon":5.40902,"is_reserved":false,"is_disabled":true,"rental_uris":{"android":"levelo://app?vid=cc738f32-f811-4e3f-b968-0bc0d7c9be0d","ios":"levelo://app?vid=cc738f32-f811-4e3f-b968-0bc0d7c9be0d"},"vehicle_type_id":"4","last_reported":1783274079,"current_range_meters":6800,"station_id":"ce4bh192rcd13ifvqdc0","pricing_plan_id":"cebpf4jnsgd1na2vs0mg"},{"bike_id":"6f74e72f-4daa-466c-8061-7f39615bd85c","system_id":"levelo_inurba_marseille","lat":43.29216,"lon":5.36023,"is_reserved":false,"is_disabled":false,"rental_uris":{"android":"levelo://app?vid=6f74e72f-4daa-466c-8061-7f39615bd85c","ios":"levelo://app?vid=6f74e72f-4daa-466c-8061-7f39615bd85c"},"vehicle_type_id":"4","last_reported":1783274079,"current_range_meters":6800,"station_id":"ce4bhbh2rcd13ifvqeqg","pricing_plan_id":"cebpf4jnsgd1na2vs0mg"},{"bike_id":"ebb69cdb-f57c-486a-9d37-3814132e26e5","system_id":"levelo_inurba_marseille","lat":43.28016,"lon":5.36978,"is_reserved":false,"is_disabled":true,"rental_uris":{"android":"levelo://app?vid=ebb69cdb-f57c-486a-9d37-3814132e26e5","ios":"levelo://app?vid=ebb69cdb-f57c-486a-9d37-3814132e26e5"},"vehicle_type_id":"4","last_reported":1783274079,"current_range_meters":6800,"station_id":"ce4bha12rcd13ifvqef0","pricing_plan_id":"cebpf4jnsgd1na2vs0mg"},{"bike_id":"d542e80b-c621-4744-a175-6c723a1aa866","system_id":"levelo_inurba_marseille","lat":43.29316,"lon":5.44567,"is_reserved":false,"is_disabled":false,"rental_uris":{"android":"levelo://app?vid=d542e80b-c621-4744-a175-6c723a1aa866","ios":"levelo://app?vid=d542e80b-c621-4744-a175-6c723a1aa866"},"vehicle_type_id":"4","last_reported":1783274079,"current_range_meters":6800,"station_id":"","pricing_plan_id":"cebpf4jnsgd1na2vs0mg"},{"bike_id":"75efaf6c-211b-4195-9354-372029404c1d","system_id":"levelo_inurba_marseille","lat":43.25082,"lon":5.39502,"is_reserved":false,"is_disabled":false,"rental_uris":{"android":"levelo://app?vid=75efaf6c-211b-4195-9354-372029404c1d","ios":"levelo://app?vid=75efaf6c-211b-4195-9354-372029404c1d"},"vehicle_type_id":"4","last_reported":1783274079,"current_range_meters":6800,"station_id":"ce4bhm12rcd13ifvqgkg","pricing_plan_id":"cebpf4jnsgd1na2vs0mg"},{"bike_id":"b5b0fdc2-e308-4378-807f-07d01a0b3b22","system_id":"levelo_inurba_marseille","lat":43.2844,"lon":5.39199,"is_reserved":false,"is_disabled":false,"rental_uris":{"android":"levelo://app?vid=b5b0fdc2-e308-4378-807f-07d01a0b3b22","ios":"levelo://app?vid=b5b0fdc2-e308-4378-807f-07d01a0b3b22"},"vehicle_type_id":"4","last_reported":1783274079,"current_range_meters":6800,"station_id":"ce4bhoh2rcd13ifvqh5g","pricing_plan_id":"cebpf4jnsgd1na2vs0mg"},{"bike_id":"537ca998-8fd3-4dae-915c-356daecbb82f","system_id":"levelo_inurba_marseille","lat":43.29027,"lon":5.38657,"is_reserved":false,"is_disabled":true,"rental_uris":{"android":"levelo://app?vid=537ca998-8fd3-4dae-915c-356daecbb82f","ios":"levelo://app?vid=537ca998-8fd3-4dae-915c-356daecbb82f"},"vehicle_type_id":"4","last_reported":1783274079,"current_range_meters":6800,"station_id":"ce4bh4p2rcd13ifvqe0g","pricing_plan_id":"cebpf4jnsgd1na2vs0mg"},{"bike_id":"4ea05420-4688-4f88-ab4d-87e93bd11b74","system_id":"levelo_inurba_marseille","lat":43.2927,"lon":5.40898,"is_reserved":false,"is_disabled":false,"rental_uris":{"android":"levelo://app?vid=4ea05420-4688-4f88-ab4d-87e93bd11b74","ios":"levelo://app?vid=4ea05420-4688-4f88-ab4d-87e93bd11b74"},"vehicle_type_id":"4","last_reported":1783274079,"current_range_meters":6800,"station_id":"ce4bh192rcd13ifvqdc0","pricing_plan_id":"cebpf4jnsgd1na2vs0mg"},{"bike_id":"d7243867-d830-4852-bcaf-39fdde4db026","system_id":"levelo_inurba_marseille","lat":43.25579,"lon":5.38219,"is_reserved":false,"is_disabled":false,"rental_uris":{"android":"levelo://app?vid=d7243867-d830-4852-bcaf-39fdde4db026","ios":"levelo://app?vid=d7243867-d830-4852-bcaf-39fdde4db026"},"vehicle_type_id":"4","last_reported":1783274079,"current_range_meters":6800,"station_id":"ce4bhih2rcd13ifvqfs0","pricing_plan_id":"cebpf4jnsgd1na2vs0mg"},{"bike_id":"b6aa2529-47a5-48dc-8a53-0cb13d718c83","system_id":"levelo_inurba_marseille","lat":43.233,"lon":5.40821,"is_reserved":false,"is_disabled":false,"rental_uris":{"android":"levelo://app?vid=b6aa2529-47a5-48dc-8a53-0cb13d718c83","ios":"levelo://app?vid=b6aa2529-47a5-48dc-8a53-0cb13d718c83"},"vehicle_type_id":"4","last_reported":1783274079,"current_range_meters":6800,"station_id":"","pricing_plan_id":"cebpf4jnsgd1na2vs0mg"},{"bike_id":"44ac5658-8402-4afd-a922-7976582b02d3","system_id":"levelo_inurba_marseille","lat":43.31059,"lon":5.37159,"is_reserved":false,"is_disabled":false,"rental_uris":{"android":"levelo://app?vid=44ac5658-8402-4afd-a922-7976582b02d3","ios":"levelo://app?vid=44ac5658-8402-4afd-a922-7976582b02d3"},"vehicle_type_id":"4","last_reported":1783274079,"current_range_meters":6800,"station_id":"st_d4kl2rp97mjs73e7tdfg","pricing_plan_id":"cebpf4jnsgd1na2vs0mg"},{"bike_id":"c9445652-b236-402b-8ec1-fb5567a22b0f","system_id":"levelo_inurba_marseille","lat":43.24456,"lon":5.40946,"is_reserved":false,"is_disabled":false,"rental_uris":{"android":"levelo://app?vid=c9445652-b236-402b-8ec1-fb5567a22b0f","ios":"levelo://app?vid=c9445652-b236-402b-8ec1-fb5567a22b0f"},"vehicle_type_id":"4","last_reported":1783274079,"current_range_meters":6800,"station_id":"","pricing_plan_id":"cebpf4jnsgd1na2vs0mg"},{"bike_id":"acb6b183-d4d6-4d8e-974e-924b61f91a80","system_id":"levelo_inurba_marseille","lat":43.34412,"lon":5.42035,"is_reserved":false,"is_disabled":false,"rental_uris":{"android":"levelo://app?vid=acb6b183-d4d6-4d8e-974e-924b61f91a80","ios":"levelo://app?vid=acb6b183-d4d6-4d8e-974e-924b61f91a80"},"vehicle_type_id":"4","last_reported":1783274079,"current_range_meters":6800,"station_id":"","pricing_plan_id":"cebpf4jnsgd1na2vs0mg"},{"bike_id":"fc5d7b22-bed1-4640-a4b2-9379b1406486","system_id":"levelo_inurba_marseille","lat":43.29447,"lon":5.38431,"is_reserved":false,"is_disabled":true,"rental_uris":{"android":"levelo://app?vid=fc5d7b22-bed1-4640-a4b2-9379b1406486","ios":"levelo://app?vid=fc5d7b22-bed1-4640-a4b2-9379b1406486"},"vehicle_type_id":"4","last_reported":1783274079,"current_range_meters":6800,"station_id":"","pricing_plan_id":"cebpf4jnsgd1na2vs0mg"},{"bike_id":"b00f0b0d-26c5-4715-82d7-c01529d9dabe","system_id":"levelo_inurba_marseille","lat":43.28921,"lon":5.38378,"is_reserved":false,"is_disabled":false,"rental_uris":{"android":"levelo://app?vid=b00f0b0d-26c5-4715-82d7-c01529d9dabe","ios":"levelo://app?vid=b00f0b0d-26c5-4715-82d7-c01529d9dabe"},"vehicle_type_id":"4","last_reported":1783274079,"current_range_meters":6800,"station_id":"ce4bh612rcd13ifvqe6g","pricing_plan_id":"cebpf4jnsgd1na2vs0mg"},{"bike_id":"c30c18eb-e4c5-4df2-89c8-3b03e6442ed5","system_id":"levelo_inurba_marseille","lat":43.28643,"lon":5.35065,"is_reserved":false,"is_disabled":false,"rental_uris":{"android":"levelo://app?vid=c30c18eb-e4c5-4df2-89c8-3b03e6442ed5","ios":"levelo://app?vid=c30c18eb-e4c5-4df2-89c8-3b03e6442ed5"},"vehicle_type_id":"4","last_reported":1783274079,"current_range_meters":6800,"station_id":"ce4bhch2rcd13ifvqeug","pricing_plan_id":"cebpf4jnsgd1na2vs0mg"},{"bike_id":"4b306b1b-f9cd-4984-9198-efac61832370","system_id":"levelo_inurba_marseille","lat":43.28617,"lon":5.35097,"is_reserved":false,"is_disabled":false,"rental_uris":{"android":"levelo://app?vid=4b306b1b-f9cd-4984-9198-efac61832370","ios":"levelo://app?vid=4b306b1b-f9cd-4984-9198-efac61832370"},"vehicle_type_id":"4","last_reported":1783274079,"current_range_meters":6800,"station_id":"ce4bhch2rcd13ifvqeug","pricing_plan_id":"cebpf4jnsgd1na2vs0mg"},{"bike_id":"e4adf029-8a59-4fef-ba3d-6bc4081090ac","system_id":"levelo_inurba_marseille","lat":43.29249,"lon":5.36836,"is_reserved":false,"is_disabled":false,"rental_uris":{"android":"levelo://app?vid=e4adf029-8a59-4fef-ba3d-6bc4081090ac","ios":"levelo://app?vid=e4adf029-8a59-4fef-ba3d-6bc4081090ac"},"vehicle_type_id":"4","last_reported":1783274079,"current_range_meters":6800,"station_id":"ce4bhbp2rcd13ifvqesg","pricing_plan_id":"cebpf4jnsgd1na2vs0mg"},{"bike_id":"f7826c83-beb8-416f-bc97-d9c1cfbddb0b","system_id":"levelo_inurba_marseille","lat":43.25177,"lon":5.40439,"is_reserved":false,"is_disabled":false,"rental_uris":{"android":"levelo://app?vid=f7826c83-beb8-416f-bc97-d9c1cfbddb0b","ios":"levelo://app?vid=f7826c83-beb8-416f-bc97-d9c1cfbddb0b"},"vehicle_type_id":"4","last_reported":1783274079,"current_range_meters":6800,"station_id":"","pricing_plan_id":"cebpf4jnsgd1na2vs0mg"},{"bike_id":"39f26185-04d3-493d-a657-dc6a7952024b","system_id":"levelo_inurba_marseille","lat":43.240767,"lon":5.377442,"is_reserved":false,"is_disabled":false,"rental_uris":{"android":"levelo://app?vid=39f26185-04d3-493d-a657-dc6a7952024b","ios":"levelo://app?vid=39f26185-04d3-493d-a657-dc6a7952024b"},"vehicle_type_id":"4","last_reported":1783274079,"current_range_meters":6800,"station_id":"ce4bhnp2rcd13ifvqgvg","pricing_plan_id":"cebpf4jnsgd1na2vs0mg"},{"bike_id":"042aa53d-4ec3-477c-b412-9e56cf0ac38d","system_id":"levelo_inurba_marseille","lat":43.31919,"lon":5.36814,"is_reserved":false,"is_disabled":false,"rental_uris":{"android":"levelo://app?vid=042aa53d-4ec3-477c-b412-9e56cf0ac38d","ios":"levelo://app?vid=042aa53d-4ec3-477c-b412-9e56cf0ac38d"},"vehicle_type_id":"4","last_reported":1783274079,"current_range_meters":7200,"station_id":"st_d6o2h0d0559c73evc1b0","pricing_plan_id":"cebpf4jnsgd1na2vs0mg"},{"bike_id":"6e28c7de-4432-46c6-8824-5a05812aca65","system_id":"levelo_inurba_marseille","lat":43.22534,"lon":5.3483,"is_reserved":false,"is_disabled":false,"rental_uris":{"android":"levelo://app?vid=6e28c7de-4432-46c6-8824-5a05812aca65","ios":"levelo://app?vid=6e28c7de-4432-46c6-8824-5a05812aca65"},"vehicle_type_id":"4","last_reported":1783274079,"current_range_meters":7200,"station_id":"st_cvj5dfep6f1abm77gieg","pricing_plan_id":"cebpf4jnsgd1na2vs0mg"},{"bike_id":"88a63305-30b1-4ee9-a79e-cc5dc5b7d5d1","system_id":"levelo_inurba_marseille","lat":43.26965,"lon":5.38615,"is_reserved":false,"is_disabled":false,"rental_uris":{"android":"levelo://app?vid=88a63305-30b1-4ee9-a79e-cc5dc5b7d5d1","ios":"levelo://app?vid=88a63305-30b1-4ee9-a79e-cc5dc5b7d5d1"},"vehicle_type_id":"4","last_reported":1783274079,"current_range_meters":7200,"station_id":"ce4bhh92rcd13ifvqfh0","pricing_plan_id":"cebpf4jnsgd1na2vs0mg"},{"bike_id":"12b2d4ce-4735-4507-9fde-29557bacb2eb","system_id":"levelo_inurba_marseille","lat":43.28483,"lon":5.48395,"is_reserved":false,"is_disabled":false,"rental_uris":{"android":"levelo://app?vid=12b2d4ce-4735-4507-9fde-29557bacb2eb","ios":"levelo://app?vid=12b2d4ce-4735-4507-9fde-29557bacb2eb"},"vehicle_type_id":"4","last_reported":1783274079,"current_range_meters":7200,"station_id":"st_d3svhcjqgbts73a3dn0g","pricing_plan_id":"cebpf4jnsgd1na2vs0mg"},{"bike_id":"5d123b67-040e-4855-bacb-b5d5d04edd27","system_id":"levelo_inurba_marseille","lat":43.28408,"lon":5.37528,"is_reserved":false,"is_disabled":false,"rental_uris":{"android":"levelo://app?vid=5d123b67-040e-4855-bacb-b5d5d04edd27","ios":"levelo://app?vid=5d123b67-040e-4855-bacb-b5d5d04edd27"},"vehicle_type_id":"4","last_reported":1783274079,"current_range_meters":7200,"station_id":"ce4bh412rcd13ifvqds0","pricing_plan_id":"cebpf4jnsgd1na2vs0mg"},{"bike_id":"f1fa67ea-70e8-494e-90f1-3cd8a54e2aac","system_id":"levelo_inurba_marseille","lat":43.282779,"lon":5.350631,"is_reserved":false,"is_disabled":true,"rental_uris":{"android":"levelo://app?vid=f1fa67ea-70e8-494e-90f1-3cd8a54e2aac","ios":"levelo://app?vid=f1fa67ea-70e8-494e-90f1-3cd8a54e2aac"},"vehicle_type_id":"4","last_reported":1783274079,"current_range_meters":7200,"station_id":"ce4bhbp2rcd13ifvqerg","pricing_plan_id":"cebpf4jnsgd1na2vs0mg"},{"bike_id":"40e722f2-64dd-416f-9e57-d96111c77e32","system_id":"levelo_inurba_marseille","lat":43.28711,"lon":5.46683,"is_reserved":false,"is_disabled":false,"rental_uris":{"android":"levelo://app?vid=40e722f2-64dd-416f-9e57-d96111c77e32","ios":"levelo://app?vid=40e722f2-64dd-416f-9e57-d96111c77e32"},"vehicle_type_id":"4","last_reported":1783274079,"current_range_meters":7200,"station_id":"st_d6tc3vkotcvc738tfjhg","pricing_plan_id":"cebpf4jnsgd1na2vs0mg"},{"bike_id":"73f82224-db80-4538-a13f-c55f773a8355","system_id":"levelo_inurba_marseille","lat":43.293035,"lon":5.374687,"is_reserved":false,"is_disabled":false,"rental_uris":{"android":"levelo://app?vid=73f82224-db80-4538-a13f-c55f773a8355","ios":"levelo://app?vid=73f82224-db80-4538-a13f-c55f773a8355"},"vehicle_type_id":"4","last_reported":1783274079,"current_range_meters":7200,"station_id":"ce4bgi12rcd13ifvqb70","pricing_plan_id":"cebpf4jnsgd1na2vs0mg"},{"bike_id":"d51d3555-13dc-4b21-8aad-599e9c9970b7","system_id":"levelo_inurba_marseille","lat":43.29374,"lon":5.37849,"is_reserved":false,"is_disabled":false,"rental_uris":{"android":"levelo://app?vid=d51d3555-13dc-4b21-8aad-599e9c9970b7","ios":"levelo://app?vid=d51d3555-13dc-4b21-8aad-599e9c9970b7"},"vehicle_type_id":"4","last_reported":1783274079,"current_range_meters":7200,"station_id":"ce4bgjh2rcd13ifvqbf0","pricing_plan_id":"cebpf4jnsgd1na2vs0mg"},{"bike_id":"6b703ae7-b021-4d07-a990-ef927f27bcc0","system_id":"levelo_inurba_marseille","lat":43.25434,"lon":5.37598,"is_reserved":false,"is_disabled":false,"rental_uris":{"android":"levelo://app?vid=6b703ae7-b021-4d07-a990-ef927f27bcc0","ios":"levelo://app?vid=6b703ae7-b021-4d07-a990-ef927f27bcc0"},"vehicle_type_id":"4","last_reported":1783274079,"current_range_meters":7200,"station_id":"","pricing_plan_id":"cebpf4jnsgd1na2vs0mg"},{"bike_id":"cdd16efe-3de9-4e7b-a40b-653fbdac83b5","system_id":"levelo_inurba_marseille","lat":43.30948,"lon":5.39025,"is_reserved":false,"is_disabled":false,"rental_uris":{"android":"levelo://app?vid=cdd16efe-3de9-4e7b-a40b-653fbdac83b5","ios":"levelo://app?vid=cdd16efe-3de9-4e7b-a40b-653fbdac83b5"},"vehicle_type_id":"4","last_reported":1783274079,"current_range_meters":7200,"station_id":"ce4bgup2rcd13ifvqco0","pricing_plan_id":"cebpf4jnsgd1na2vs0mg"},{"bike_id":"9d78fba1-2e64-4928-8665-b72f71b4a149","system_id":"levelo_inurba_marseille","lat":43.29005,"lon":5.3858,"is_reserved":false,"is_disabled":false,"rental_uris":{"android":"levelo://app?vid=9d78fba1-2e64-4928-8665-b72f71b4a149","ios":"levelo://app?vid=9d78fba1-2e64-4928-8665-b72f71b4a149"},"vehicle_type_id":"4","last_reported":1783274079,"current_range_meters":7200,"station_id":"ce4bh4p2rcd13ifvqe0g","pricing_plan_id":"cebpf4jnsgd1na2vs0mg"},{"bike_id":"a4f9ee3b-b427-4829-b639-bd7508b29e83","system_id":"levelo_inurba_marseille","lat":43.282707,"lon":5.350577,"is_reserved":false,"is_disabled":true,"rental_uris":{"android":"levelo://app?vid=a4f9ee3b-b427-4829-b639-bd7508b29e83","ios":"levelo://app?vid=a4f9ee3b-b427-4829-b639-bd7508b29e83"},"vehicle_type_id":"4","last_reported":1783274079,"current_range_meters":7200,"station_id":"ce4bhbp2rcd13ifvqerg","pricing_plan_id":"cebpf4jnsgd1na2vs0mg"},{"bike_id":"8bc199c6-fa2d-4c70-9249-7d435dcab9a6","system_id":"levelo_inurba_marseille","lat":43.29279,"lon":5.36842,"is_reserved":false,"is_disabled":true,"rental_uris":{"android":"levelo://app?vid=8bc199c6-fa2d-4c70-9249-7d435dcab9a6","ios":"levelo://app?vid=8bc199c6-fa2d-4c70-9249-7d435dcab9a6"},"vehicle_type_id":"4","last_reported":1783274079,"current_range_meters":7200,"station_id":"ce4bhbp2rcd13ifvqesg","pricing_plan_id":"cebpf4jnsgd1na2vs0mg"},{"bike_id":"a99e8568-afd3-423f-b32d-3e2eda81c54b","system_id":"levelo_inurba_marseille","lat":43.26197,"lon":5.37928,"is_reserved":false,"is_disabled":false,"rental_uris":{"android":"levelo://app?vid=a99e8568-afd3-423f-b32d-3e2eda81c54b","ios":"levelo://app?vid=a99e8568-afd3-423f-b32d-3e2eda81c54b"},"vehicle_type_id":"4","last_reported":1783274079,"current_range_meters":7200,"station_id":"ce4bhjp2rcd13ifvqg90","pricing_plan_id":"cebpf4jnsgd1na2vs0mg"},{"bike_id":"f56c5a55-490f-470f-bccd-8a878283165b","system_id":"levelo_inurba_marseille","lat":43.31796,"lon":5.368,"is_reserved":false,"is_disabled":false,"rental_uris":{"android":"levelo://app?vid=f56c5a55-490f-470f-bccd-8a878283165b","ios":"levelo://app?vid=f56c5a55-490f-470f-bccd-8a878283165b"},"vehicle_type_id":"4","last_reported":1783274079,"current_range_meters":7200,"station_id":"","pricing_plan_id":"cebpf4jnsgd1na2vs0mg"},{"bike_id":"ca803bbb-df34-4e95-a7c2-94aa897ae6b5","system_id":"levelo_inurba_marseille","lat":43.28692,"lon":5.46662,"is_reserved":false,"is_disabled":false,"rental_uris":{"android":"levelo://app?vid=ca803bbb-df34-4e95-a7c2-94aa897ae6b5","ios":"levelo://app?vid=ca803bbb-df34-4e95-a7c2-94aa897ae6b5"},"vehicle_type_id":"4","last_reported":1783274079,"current_range_meters":7200,"station_id":"st_d6tc3vkotcvc738tfjhg","pricing_plan_id":"cebpf4jnsgd1na2vs0mg"},{"bike_id":"cb34bd76-9ca2-4b46-8568-b381d63b6f07","system_id":"levelo_inurba_marseille","lat":43.23216,"lon":5.355,"is_reserved":false,"is_disabled":false,"rental_uris":{"android":"levelo://app?vid=cb34bd76-9ca2-4b46-8568-b381d63b6f07","ios":"levelo://app?vid=cb34bd76-9ca2-4b46-8568-b381d63b6f07"},"vehicle_type_id":"4","last_reported":1783274079,"current_range_meters":7200,"station_id":"","pricing_plan_id":"cebpf4jnsgd1na2vs0mg"},{"bike_id":"2bd79137-03b5-4309-b0d7-20c725d16088","system_id":"levelo_inurba_marseille","lat":43.30896,"lon":5.36859,"is_reserved":false,"is_disabled":false,"rental_uris":{"android":"levelo://app?vid=2bd79137-03b5-4309-b0d7-20c725d16088","ios":"levelo://app?vid=2bd79137-03b5-4309-b0d7-20c725d16088"},"vehicle_type_id":"4","last_reported":1783274079,"current_range_meters":7200,"station_id":"ce4bgn92rcd13ifvqbvg","pricing_plan_id":"cebpf4jnsgd1na2vs0mg"},{"bike_id":"15984761-c9b0-49ba-9da6-11664f9ab181","system_id":"levelo_inurba_marseille","lat":43.26566,"lon":5.39005,"is_reserved":false,"is_disabled":false,"rental_uris":{"android":"levelo://app?vid=15984761-c9b0-49ba-9da6-11664f9ab181","ios":"levelo://app?vid=15984761-c9b0-49ba-9da6-11664f9ab181"},"vehicle_type_id":"4","last_reported":1783274079,"current_range_meters":7200,"station_id":"ce4bhe12rcd13ifvqf30","pricing_plan_id":"cebpf4jnsgd1na2vs0mg"},{"bike_id":"a1e201ac-a450-433e-9b2a-1fec85ba15e3","system_id":"levelo_inurba_marseille","lat":43.30951,"lon":5.39032,"is_reserved":false,"is_disabled":false,"rental_uris":{"android":"levelo://app?vid=a1e201ac-a450-433e-9b2a-1fec85ba15e3","ios":"levelo://app?vid=a1e201ac-a450-433e-9b2a-1fec85ba15e3"},"vehicle_type_id":"4","last_reported":1783274079,"current_range_meters":7200,"station_id":"ce4bgup2rcd13ifvqco0","pricing_plan_id":"cebpf4jnsgd1na2vs0mg"},{"bike_id":"e00d0afb-ac80-42d8-8e53-c3dd7e3d351c","system_id":"levelo_inurba_marseille","lat":43.26184,"lon":5.37519,"is_reserved":false,"is_disabled":false,"rental_uris":{"android":"levelo://app?vid=e00d0afb-ac80-42d8-8e53-c3dd7e3d351c","ios":"levelo://app?vid=e00d0afb-ac80-42d8-8e53-c3dd7e3d351c"},"vehicle_type_id":"4","last_reported":1783274079,"current_range_meters":7200,"station_id":"","pricing_plan_id":"cebpf4jnsgd1na2vs0mg"},{"bike_id":"faeb78d4-b176-4279-963a-c634ef38eba1","system_id":"levelo_inurba_marseille","lat":43.29368,"lon":5.37834,"is_reserved":false,"is_disabled":false,"rental_uris":{"android":"levelo://app?vid=faeb78d4-b176-4279-963a-c634ef38eba1","ios":"levelo://app?vid=faeb78d4-b176-4279-963a-c634ef38eba1"},"vehicle_type_id":"4","last_reported":1783274079,"current_range_meters":7200,"station_id":"ce4bgjh2rcd13ifvqbf0","pricing_plan_id":"cebpf4jnsgd1na2vs0mg"},{"bike_id":"0047db14-848d-4c1e-b9fc-784c4fd808c7","system_id":"levelo_inurba_marseille","lat":43.26553,"lon":5.37295,"is_reserved":false,"is_disabled":false,"rental_uris":{"android":"levelo://app?vid=0047db14-848d-4c1e-b9fc-784c4fd808c7","ios":"levelo://app?vid=0047db14-848d-4c1e-b9fc-784c4fd808c7"},"vehicle_type_id":"4","last_reported":1783274079,"current_range_meters":7200,"station_id":"ce4bhg12rcd13ifvqf70","pricing_plan_id":"cebpf4jnsgd1na2vs0mg"},{"bike_id":"c1c88b11-92f5-437b-85af-b745aa920b32","system_id":"levelo_inurba_marseille","lat":43.26686,"lon":5.38722,"is_reserved":false,"is_disabled":false,"rental_uris":{"android":"levelo://app?vid=c1c88b11-92f5-437b-85af-b745aa920b32","ios":"levelo://app?vid=c1c88b11-92f5-437b-85af-b745aa920b32"},"vehicle_type_id":"4","last_reported":1783274079,"current_range_meters":7200,"station_id":"","pricing_plan_id":"cebpf4jnsgd1na2vs0mg"},{"bike_id":"b039a727-71b1-4709-945e-51f5aeb9fa7f","system_id":"levelo_inurba_marseille","lat":43.22516,"lon":5.34838,"is_reserved":false,"is_disabled":false,"rental_uris":{"android":"levelo://app?vid=b039a727-71b1-4709-945e-51f5aeb9fa7f","ios":"levelo://app?vid=b039a727-71b1-4709-945e-51f5aeb9fa7f"},"vehicle_type_id":"4","last_reported":1783274079,"current_range_meters":7200,"station_id":"st_cvj5dfep6f1abm77gieg","pricing_plan_id":"cebpf4jnsgd1na2vs0mg"},{"bike_id":"9e456402-c486-41b9-a74c-8f403e2a35f7","system_id":"levelo_inurba_marseille","lat":43.26231,"lon":5.38779,"is_reserved":false,"is_disabled":false,"rental_uris":{"android":"levelo://app?vid=9e456402-c486-41b9-a74c-8f403e2a35f7","ios":"levelo://app?vid=9e456402-c486-41b9-a74c-8f403e2a35f7"},"vehicle_type_id":"4","last_reported":1783274079,"current_range_meters":7200,"station_id":"st_d8gjfg747rts73coq3b0","pricing_plan_id":"cebpf4jnsgd1na2vs0mg"},{"bike_id":"d4f3166b-54c1-4653-8b5b-9596c7d9c0c9","system_id":"levelo_inurba_marseille","lat":43.30145,"lon":5.38085,"is_reserved":false,"is_disabled":false,"rental_uris":{"android":"levelo://app?vid=d4f3166b-54c1-4653-8b5b-9596c7d9c0c9","ios":"levelo://app?vid=d4f3166b-54c1-4653-8b5b-9596c7d9c0c9"},"vehicle_type_id":"4","last_reported":1783274079,"current_range_meters":8000,"station_id":"ce4bgjp2rcd13ifvqbh0","pricing_plan_id":"cebpf4jnsgd1na2vs0mg"},