{"last_updated":1760821650,"ttl":60,"version":"2.2","data":{"bikes":[{"bike_id":"74447bb4-d29d-4972-b7e1-b2148a89f852","system_id":"levelo_inurba_marseille","lat":43.313833,"lon":5.385535,"is_reserved":false,"is_disabled":false,"rental_uris":{"android":"levelo://app?vid=74447bb4-d29d-4972-b7e1-b2148a89f852","ios":"levelo://app?vid=74447bb4-d29d-4972-b7e1-b2148a89f852"},"vehicle_type_id":"4","last_reported":1760821650,"current_range_meters":2800,"station_id":"ce4bgt92rcd13ifvqcf0","pricing_plan_id":"cebpf4jnsgd1na2vs0mg"},{"bike_id":"5090d3d3-08b6-489d-89a1-e9e3f2d27b6f","system_id":"levelo_inurba_marseille","lat":43.26924,"lon":5.40276,"is_reserved":false,"is_disabled":false,"rental_uris":{"android":"levelo://app?vid=5090d3d3-08b6-489d-89a1-e9e3f2d27b6f","ios":"levelo://app?vid=5090d3d3-08b6-489d-89a1-e9e3f2d27b6f"},"vehicle_type_id":"4","last_reported":1760821650,"current_range_meters":2800,"station_id":"cjm6bp8fraef2m0cb0m0","pricing_plan_id":"cebpf4jnsgd1na2vs0mg"},{"bike_id":"d5607cc7-ef0e-4aad-9eda-1e6f6362bc5c","system_id":"levelo_inurba_marseille","lat":43.29497,"lon":5.43298,"is_reserved":false,"is_disabled":false,"rental_uris":{"android":"levelo://app?vid=d5607cc7-ef0e-4aad-9eda-1e6f6362bc5c","ios":"levelo://app?vid=d5607cc7-ef0e-4aad-9eda-1e6f6362bc5c"},"vehicle_type_id":"4","last_reported":1760821650,"current_range_meters":2800,"station_id":"st_d3j5ugp08ojc73fj9d10","pricing_plan_id":"cebpf4jnsgd1na2vs0mg"},{"bike_id":"0d21a819-125a-4256-8148-4beefbeff6dd","system_id":"levelo_inurba_marseille","lat":43.29265,"lon":5.38431,"is_reserved":false,"is_disabled":false,"rental_uris":{"android":"levelo://app?vid=0d21a819-125a-4256-8148-4beefbeff6dd","ios":"levelo://app?vid=0d21a819-125a-4256-8148-4beefbeff6dd"},"vehicle_type_id":"4","last_reported":1760821650,"current_range_meters":2800,"station_id":"ce4bh692rcd13ifvqea0","pricing_plan_id":"cebpf4jnsgd1na2vs0mg"},{"bike_id":"bd164b4b-02d7-440b-90ec-35c656cd4d42","system_id":"levelo_inurba_marseille","lat":43.3169,"lon":5.40466,"is_reserved":false,"is_disabled":false,"rental_uris":{"android":"levelo://app?vid=bd164b4b-02d7-440b-90ec-35c656cd4d42","ios":"levelo://app?vid=bd164b4b-02d7-440b-90ec-35c656cd4d42"},"vehicle_type_id":"4","last_reported":1760821650,"current_range_meters":2800,"station_id":"ce4bh012rcd13ifvqd00","pricing_plan_id":"cebpf4jnsgd1na2vs0mg"},{"bike_id":"e257a5c9-b99e-4af1-ac4f-b017f1c8b418","system_id":"levelo_inurba_marseille","lat":43.33759,"lon":5.37438,"is_reserved":false,"is_disabled":false,"rental_uris":{"android":"levelo://app?vid=e257a5c9-b99e-4af1-ac4f-b017f1c8b418","ios":"levelo://app?vid=e257a5c9-b99e-4af1-ac4f-b017f1c8b418"},"vehicle_type_id":"4","last_reported":1760821650,"current_range_meters":3200,"station_id":"","pricing_plan_id":"cebpf4jnsgd1na2vs0mg"},{"bike_id":"6dead0d0-105b-487d-8a00-f9fa3dad8ebc","system_id":"levelo_inurba_marseille","lat":43.29245,"lon":5.383896,"is_reserved":false,"is_disabled":false,"rental_uris":{"android":"levelo://app?vid=6dead0d0-105b-487d-8a00-f9fa3dad8ebc","ios":"levelo://app?vid=6dead0d0-105b-487d-8a00-f9fa3dad8ebc"},"vehicle_type_id":"4","last_reported":1760821650,"current_range_meters":3200,"station_id":"","pricing_plan_id":"cebpf4jnsgd1na2vs0mg"},{"bike_id":"61aeb6e2-8bfe-4557-9a0c-4bf7ed822e30","system_id":"levelo_inurba_marseille","lat":43.292633,"lon":5.384464,"is_reserved":false,"is_disabled":false,"rental_uris":{"android":"levelo://app?vid=61aeb6e2-8bfe-4557-9a0c-4bf7ed822e30","ios":"levelo://app?vid=61aeb6e2-8bfe-4557-9a0c-4bf7ed822e30"},"vehicle_type_id":"4","last_reported":1760821650,"current_range_meters":3600,"station_id":"","pricing_plan_id":"cebpf4jnsgd1na2vs0mg"},{"bike_id":"c576e601-1fc4-4717-8e9e-67b4eaf62d34","system_id":"levelo_inurba_marseille","lat":43.29557,"lon":5.42284,"is_reserved":false,"is_disabled":false,"rental_uris":{"android":"levelo://app?vid=c576e601-1fc4-4717-8e9e-67b4eaf62d34","ios":"levelo://app?vid=c576e601-1fc4-4717-8e9e-67b4eaf62d34"},"vehicle_type_id":"4","last_reported":1760821650,"current_range_meters":3600,"station_id":"ce4bhph2rcd13ifvqhdg","pricing_plan_id":"cebpf4jnsgd1na2vs0mg"},{"bike_id":"05e4e091-97e9-45b8-9c0f-0da3f01b8ca2","system_id":"levelo_inurba_marseille","lat":43.255056,"lon":5.376504,"is_reserved":false,"is_disabled":false,"rental_uris":{"android":"levelo://app?vid=05e4e091-97e9-45b8-9c0f-0da3f01b8ca2","ios":"levelo://app?vid=05e4e091-97e9-45b8-9c0f-0da3f01b8ca2"},"vehicle_type_id":"4","last_reported":1760821650,"current_range_meters":3600,"station_id":"ce4bhh12rcd13ifvqff0","pricing_plan_id":"cebpf4jnsgd1na2vs0mg"},{"bike_id":"6af86244-5655-4827-b8e7-5e0131f4833c","system_id":"levelo_inurba_marseille","lat":43.28754,"lon":5.37543,"is_reserved":false,"is_disabled":false,"rental_uris":{"android":"levelo://app?vid=6af86244-5655-4827-b8e7-5e0131f4833c","ios":"levelo://app?vid=6af86244-5655-4827-b8e7-5e0131f4833c"},"vehicle_type_id":"4","last_reported":1760821650,"current_range_meters":3600,"station_id":"","pricing_plan_id":"cebpf4jnsgd1na2vs0mg"},{"bike_id":"e373aabb-9798-4301-81e0-673786d6924d","system_id":"levelo_inurba_marseille","lat":43.31229,"lon":5.36855,"is_reserved":false,"is_disabled":false,"rental_uris":{"android":"levelo://app?vid=e373aabb-9798-4301-81e0-673786d6924d","ios":"levelo://app?vid=e373aabb-9798-4301-81e0-673786d6924d"},"vehicle_type_id":"4","last_reported":1760821650,"current_range_meters":4000,"station_id":"ce4bgl92rcd13ifvqbq0","pricing_plan_id":"cebpf4jnsgd1na2vs0mg"},{"bike_id":"96574f7d-c82c-4dad-af24-a5e062fafcaf","system_id":"levelo_inurba_marseille","lat":43.2328,"lon":5.35635,"is_reserved":false,"is_disabled":false,"rental_uris":{"android":"levelo://app?vid=96574f7d-c82c-4dad-af24-a5e062fafcaf","ios":"levelo://app?vid=96574f7d-c82c-4dad-af24-a5e062fafcaf"},"vehicle_type_id":"4","last_reported":1760821650,"current_range_meters":4000,"station_id":"","pricing_plan_id":"cebpf4jnsgd1na2vs0mg"},{"bike_id":"cfdaac18-da71-41e4-aa06-9ee9de0b543a","system_id":"levelo_inurba_marseille","lat":43.29282,"lon":5.38432,"is_reserved":false,"is_disabled":false,"rental_uris":{"android":"levelo://app?vid=cfdaac18-da71-41e4-aa06-9ee9de0b543a","ios":"levelo://app?vid=cfdaac18-da71-41e4-aa06-9ee9de0b543a"},"vehicle_type_id":"4","last_reported":1760821650,"current_range_meters":4000,"station_id":"ce4bh692rcd13ifvqea0","pricing_plan_id":"cebpf4jnsgd1na2vs0mg"},{"bike_id":"c6feed30-56d0-49de-bee6-f58d135d7e1a","system_id":"levelo_inurba_marseille","lat":43.31388,"lon":5.38482,"is_reserved":false,"is_disabled":false,"rental_uris":{"android":"levelo://app?vid=c6feed30-56d0-49de-bee6-f58d135d7e1a","ios":"levelo://app?vid=c6feed30-56d0-49de-bee6-f58d135d7e1a"},"vehicle_type_id":"4","last_reported":1760821650,"current_range_meters":4000,"station_id":"ce4bgt92rcd13ifvqcf0","pricing_plan_id":"cebpf4jnsgd1na2vs0mg"},{"bike_id":"d6bb979c-b38b-451e-b7ec-4b76d4e62c5f","system_id":"levelo_inurba_marseille","lat":43.29031,"lon":5.386425,"is_reserved":false,"is_disabled":false,"rental_uris":{"android":"levelo://app?vid=d6bb979c-b38b-451e-b7ec-4b76d4e62c5f","ios":"levelo://app?vid=d6bb979c-b38b-451e-b7ec-4b76d4e62c5f"},"vehicle_type_id":"4","last_reported":1760821650,"current_range_meters":4000,"station_id":"","pricing_plan_id":"cebpf4jnsgd1na2vs0mg"},{"bike_id":"a50b1b67-8140-406e-a5cc-91d5e48e44f6","system_id":"levelo_inurba_marseille","lat":43.31364,"lon":5.38476,"is_reserved":false,"is_disabled":false,"rental_uris":{"android":"levelo://app?vid=a50b1b67-8140-406e-a5cc-91d5e48e44f6","ios":"levelo://app?vid=a50b1b67-8140-406e-a5cc-91d5e48e44f6"},"vehicle_type_id":"4","last_reported":1760821650,"current_range_meters":4000,"station_id":"ce4bgt92rcd13ifvqcf0","pricing_plan_id":"cebpf4jnsgd1na2vs0mg"},{"bike_id":"24d82d64-1145-442f-a9f5-19238b0b39ef","system_id":"levelo_inurba_marseille","lat":43.272133,"lon":5.391866,"is_reserved":false,"is_disabled":false,"rental_uris":{"android":"levelo://app?vid=24d82d64-1145-442f-a9f5-19238b0b39ef","ios":"levelo://app?vid=24d82d64-1145-442f-a9f5-19238b0b39ef"},"vehicle_type_id":"4","last_reported":1760821650,"current_range_meters":4400,"station_id":"","pricing_plan_id":"cebpf4jnsgd1na2vs0mg"},{"bike_id":"920c0ce2-5784-420c-9b8f-1f3343e07cae","system_id":"levelo_inurba_marseille","lat":43.29539,"lon":5.38537,"is_reserved":false,"is_disabled":false,"rental_uris":{"android":"levelo://app?vid=920c0ce2-5784-420c-9b8f-1f3343e07cae","ios":"levelo://app?vid=920c0ce2-5784-420c-9b8f-1f3343e07cae"},"vehicle_type_id":"4","last_reported":1760821650,"current_range_meters":4400,"station_id":"ce4bgih2rcd13ifvqba0","pricing_plan_id":"cebpf4jnsgd1na2vs0mg"},{"bike_id":"85846703-a01e-4ec4-8032-4b72461bac38","system_id":"levelo_inurba_marseille","lat":43.304641,"lon":5.379179,"is_reserved":false,"is_disabled":false,"rental_uris":{"android":"levelo://app?vid=85846703-a01e-4ec4-8032-4b72461bac38","ios":"levelo://app?vid=85846703-a01e-4ec4-8032-4b72461bac38"},"vehicle_type_id":"4","last_reported":1760821650,"current_range_meters":4400,"station_id":"ce4bgup2rcd13ifvqcn0","pricing_plan_id":"cebpf4jnsgd1na2vs0mg"},{"bike_id":"8c130e2a-fcf2-4271-86da-7ffbfba2fde7","system_id":"levelo_inurba_marseille","lat":43.29276,"lon":5.38441,"is_reserved":false,"is_disabled":false,"rental_uris":{"android":"levelo://app?vid=8c130e2a-fcf2-4271-86da-7ffbfba2fde7","ios":"levelo://app?vid=8c130e2a-fcf2-4271-86da-7ffbfba2fde7"},"vehicle_type_id":"4","last_reported":1760821650,"current_range_meters":4800,"station_id":"ce4bh692rcd13ifvqea0","pricing_plan_id":"cebpf4jnsgd1na2vs0mg"},{"bike_id":"83a5c5bb-9d06-4146-9e27-b63caec2964c","system_id":"levelo_inurba_marseille","lat":43.30589,"lon":5.37212,"is_reserved":false,"is_disabled":false,"rental_uris":{"android":"levelo://app?vid=83a5c5bb-9d06-4146-9e27-b63caec2964c","ios":"levelo://app?vid=83a5c5bb-9d06-4146-9e27-b63caec2964c"},"vehicle_type_id":"4","last_reported":1760821650,"current_range_meters":4800,"station_id":"ce4bgqh2rcd13ifvqc4g","pricing_plan_id":"cebpf4jnsgd1na2vs0mg"},{"bike_id":"355c7cfa-be79-479e-88e5-040f5fdc6941","system_id":"levelo_inurba_marseille","lat":43.280731,"lon":5.378427,"is_reserved":false,"is_disabled":false,"rental_uris":{"android":"levelo://app?vid=355c7cfa-be79-479e-88e5-040f5fdc6941","ios":"levelo://app?vid=355c7cfa-be79-479e-88e5-040f5fdc6941"},"vehicle_type_id":"4","last_reported":1760821650,"current_range_meters":4800,"station_id":"ce4bha12rcd13ifvqee0","pricing_plan_id":"cebpf4jnsgd1na2vs0mg"},{"bike_id":"d80e4eff-a647-4708-af48-6543ade23ef1","system_id":"levelo_inurba_marseille","lat":43.30311,"lon":5.3688,"is_reserved":false,"is_disabled":false,"rental_uris":{"android":"levelo://app?vid=d80e4eff-a647-4708-af48-6543ade23ef1","ios":"levelo://app?vid=d80e4eff-a647-4708-af48-6543ade23ef1"},"vehicle_type_id":"4","last_reported":1760821650,"current_range_meters":4800,"station_id":"ce4bgqh2rcd13ifvqc5g","pricing_plan_id":"cebpf4jnsgd1na2vs0mg"},{"bike_id":"ffd1ec8d-801d-4561-bfd6-3a829743b238","system_id":"levelo_inurba_marseille","lat":43.237877,"lon":5.366307,"is_reserved":false,"is_disabled":false,"rental_uris":{"android":"levelo://app?vid=ffd1ec8d-801d-4561-bfd6-3a829743b238","ios":"levelo://app?vid=ffd1ec8d-801d-4561-bfd6-3a829743b238"},"vehicle_type_id":"4","last_reported":1760821650,"current_range_meters":4800,"station_id":"st_d3nk18o9ro0c73en2l3g","pricing_plan_id":"cebpf4jnsgd1na2vs0mg"},{"bike_id":"f38c9429-f42d-47e0-b0e2-0a80e2e8681a","system_id":"levelo_inurba_marseille","lat":43.292633,"lon":5.384512,"is_reserved":false,"is_disabled":false,"rental_uris":{"android":"levelo://app?vid=f38c9429-f42d-47e0-b0e2-0a80e2e8681a","ios":"levelo://app?vid=f38c9429-f42d-47e0-b0e2-0a80e2e8681a"},"vehicle_type_id":"4","last_reported":1760821650,"current_range_meters":5600,"station_id":"ce4bh412rcd13ifvqds0","pricing_plan_id":"cebpf4jnsgd1na2vs0mg"},{"bike_id":"38f8d65f-2952-48b0-8187-906022ee1faa","system_id":"levelo_inurba_marseille","lat":43.29612,"lon":5.38105,"is_reserved":false,"is_disabled":false,"rental_uris":{"android":"levelo://app?vid=38f8d65f-2952-48b0-8187-906022ee1faa","ios":"levelo://app?vid=38f8d65f-2952-48b0-8187-906022ee1faa"},"vehicle_type_id":"4","last_reported":1760821650,"current_range_meters":5600,"station_id":"ce4bgl12rcd13ifvqbo0","pricing_plan_id":"cebpf4jnsgd1na2vs0mg"},{"bike_id":"b198fdae-a02e-4380-b40a-23fa0f5e4197","system_id":"levelo_inurba_marseille","lat":43.286234,"lon":5.406955,"is_reserved":false,"is_disabled":false,"rental_uris":{"android":"levelo://app?vid=b198fdae-a02e-4380-b40a-23fa0f5e4197","ios":"levelo://app?vid=b198fdae-a02e-4380-b40a-23fa0f5e4197"},"vehicle_type_id":"4","last_reported":1760821650,"current_range_meters":5600,"station_id":"","pricing_plan_id":"cebpf4jnsgd1na2vs0mg"},{"bike_id":"4887fda1-9211-444f-afbf-98cf0fa59229","system_id":"levelo_inurba_marseille","lat":43.29266,"lon":5.38397,"is_reserved":false,"is_disabled":false,"rental_uris":{"android":"levelo://app?vid=4887fda1-9211-444f-afbf-98cf0fa59229","ios":"levelo://app?vid=4887fda1-9211-444f-afbf-98cf0fa59229"},"vehicle_type_id":"4","last_reported":1760821650,"current_range_meters":5600,"station_id":"ce4bh692rcd13ifvqea0","pricing_plan_id":"cebpf4jnsgd1na2vs0mg"},{"bike_id":"ce87f571-de00-47bf-ad06-62e300dc239f","system_id":"levelo_inurba_marseille","lat":43.29273,"lon":5.38444,"is_reserved":false,"is_disabled":false,"rental_uris":{"android":"levelo://app?vid=ce87f571-de00-47bf-ad06-62e300dc239f","ios":"levelo://app?vid=ce87f571-de00-47bf-ad06-62e300dc239f"},"vehicle_type_id":"4","last_reported":1760821650,"current_range_meters":6000,"station_id":"ce4bh692rcd13ifvqea0","pricing_plan_id":"cebpf4jnsgd1na2vs0mg"},{"bike_id":"9dd1d8fe-c2a8-4a70-a175-61f5f9fe7fd2","system_id":"levelo_inurba_marseille","lat":43.31553,"lon":5.38852,"is_reserved":false,"is_disabled":false,"rental_uris":{"android":"levelo://app?vid=9dd1d8fe-c2a8-4a70-a175-61f5f9fe7fd2","ios":"levelo://app?vid=9dd1d8fe-c2a8-4a70-a175-61f5f9fe7fd2"},"vehicle_type_id":"4","last_reported":1760821650,"current_range_meters":6000,"station_id":"","pricing_plan_id":"cebpf4jnsgd1na2vs0mg"},{"bike_id":"5cf58e81-7552-4ebd-a932-79bba6f62907","system_id":"levelo_inurba_marseille","lat":43.29014,"lon":5.38629,"is_reserved":false,"is_disabled":true,"rental_uris":{"android":"levelo://app?vid=5cf58e81-7552-4ebd-a932-79bba6f62907","ios":"levelo://app?vid=5cf58e81-7552-4ebd-a932-79bba6f62907"},"vehicle_type_id":"4","last_reported":1760821650,"current_range_meters":6000,"station_id":"ce4bh3h2rcd13ifvqdo0","pricing_plan_id":"cebpf4jnsgd1na2vs0mg"},{"bike_id":"a05bb335-089d-41d5-a54e-9257ac0bf19e","system_id":"levelo_inurba_marseille","lat":43.29701,"lon":5.36599,"is_reserved":false,"is_disabled":false,"rental_uris":{"android":"levelo://app?vid=a05bb335-089d-41d5-a54e-9257ac0bf19e","ios":"levelo://app?vid=a05bb335-089d-41d5-a54e-9257ac0bf19e"},"vehicle_type_id":"4","last_reported":1760821650,"current_range_meters":6000,"station_id":"ce4bgn12rcd13ifvqbt0","pricing_plan_id":"cebpf4jnsgd1na2vs0mg"},{"bike_id":"dcc00e67-1191-4314-ab42-5b6a0efd1bdf","system_id":"levelo_inurba_marseille","lat":43.26248,"lon":5.40444,"is_reserved":false,"is_disabled":false,"rental_uris":{"android":"levelo://app?vid=dcc00e67-1191-4314-ab42-5b6a0efd1bdf","ios":"levelo://app?vid=dcc00e67-1191-4314-ab42-5b6a0efd1bdf"},"vehicle_type_id":"4","last_reported":1760821650,"current_range_meters":6000,"station_id":"ce4bhmh2rcd13ifvqgmg","pricing_plan_id":"cebpf4jnsgd1na2vs0mg"},{"bike_id":"416f580b-31c7-4ade-8604-dbd86eb8155f","system_id":"levelo_inurba_marseille","lat":43.28157,"lon":5.42111,"is_reserved":false,"is_disabled":false,"rental_uris":{"android":"levelo://app?vid=416f580b-31c7-4ade-8604-dbd86eb8155f","ios":"levelo://app?vid=416f580b-31c7-4ade-8604-dbd86eb8155f"},"vehicle_type_id":"4","last_reported":1760821650,"current_range_meters":6000,"station_id":"","pricing_plan_id":"cebpf4jnsgd1na2vs0mg"},{"bike_id":"57db5fd0-fae8-4d9d-9082-08e3f1139740","system_id":"levelo_inurba_marseille","lat":43.26553,"lon":5.37281,"is_reserved":false,"is_disabled":false,"rental_uris":{"android":"levelo://app?vid=57db5fd0-fae8-4d9d-9082-08e3f1139740","ios":"levelo://app?vid=57db5fd0-fae8-4d9d-9082-08e3f1139740"},"vehicle_type_id":"4","last_reported":1760821650,"current_range_meters":6000,"station_id":"ce4bhg12rcd13ifvqf70","pricing_plan_id":"cebpf4jnsgd1na2vs0mg"},{"bike_id":"5fe6e873-dba1-40dd-bc65-77de126f2710","system_id":"levelo_inurba_marseille","lat":43.332893,"lon":5.395256,"is_reserved":false,"is_disabled":true,"rental_uris":{"android":"levelo://app?vid=5fe6e873-dba1-40dd-bc65-77de126f2710","ios":"levelo://app?vid=5fe6e873-dba1-40dd-bc65-77de126f2710"},"vehicle_type_id":"4","last_reported":1760821650,"current_range_meters":6000,"station_id":"","pricing_plan_id":"cebpf4jnsgd1na2vs0mg"},{"bike_id":"79144d6b-3691-44b4-9fb5-2955eb47511e","system_id":"levelo_inurba_marseille","lat":43.27983,"lon":5.41658,"is_reserved":false,"is_disabled":false,"rental_uris":{"android":"levelo://app?vid=79144d6b-3691-44b4-9fb5-2955eb47511e","ios":"levelo://app?vid=79144d6b-3691-44b4-9fb5-2955eb47511e"},"vehicle_type_id":"4","last_reported":1760821650,"current_range_meters":6400,"station_id":"ce4bho12rcd13ifvqh1g","pricing_plan_id":"cebpf4jnsgd1na2vs0mg"},{"bike_id":"676fd588-494b-4028-8203-f37ef89d1fbb","system_id":"levelo_inurba_marseille","lat":43.22566,"lon":5.41623,"is_reserved":false,"is_disabled":false,"rental_uris":{"android":"levelo://app?vid=676fd588-494b-4028-8203-f37ef89d1fbb","ios":"levelo://app?vid=676fd588-494b-4028-8203-f37ef89d1fbb"},"vehicle_type_id":"4","last_reported":1760821650,"current_range_meters":6400,"station_id":"st_d2o4gvlbi1j2169b742g","pricing_plan_id":"cebpf4jnsgd1na2vs0mg"},{"bike_id":"24188127-83ff-4103-9fc0-3079ea4dfb07","system_id":"levelo_inurba_marseille","lat":43.29262,"lon":5.384308,"is_reserved":false,"is_disabled":false,"rental_uris":{"android":"levelo://app?vid=24188127-83ff-4103-9fc0-3079ea4dfb07","ios":"levelo://app?vid=24188127-83ff-4103-9fc0-3079ea4dfb07"},"vehicle_type_id":"4","last_reported":1760821650,"current_range_meters":6400,"station_id":"ce4bh692rcd13ifvqea0","pricing_plan_id":"cebpf4jnsgd1na2vs0mg"},{"bike_id":"4f2f7cc2-9c0e-4992-baac-b3017530f1bc","system_id":"levelo_inurba_marseille","lat":43.24169,"lon":5.3639,"is_reserved":false,"is_disabled":false,"rental_uris":{"android":"levelo://app?vid=4f2f7cc2-9c0e-4992-baac-b3017530f1bc","ios":"levelo://app?vid=4f2f7cc2-9c0e-4992-baac-b3017530f1bc"},"vehicle_type_id":"4","last_reported":1760821650,"current_range_meters":6400,"station_id":"cpo36qri1sfpv3e86is0","pricing_plan_id":"cebpf4jnsgd1na2vs0mg"},{"bike_id":"6fa39166-3783-4dde-a00e-1aa9e0a9da45","system_id":"levelo_inurba_marseille","lat":43.295166,"lon":5.390361,"is_reserved":false,"is_disabled":false,"rental_uris":{"android":"levelo://app?vid=6fa39166-3783-4dde-a00e-1aa9e0a9da45","ios":"levelo://app?vid=6fa39166-3783-4dde-a00e-1aa9e0a9da45"},"vehicle_type_id":"4","last_reported":1760821650,"current_range_meters":6400,"station_id":"ce4bh3p2rcd13ifvqdp0","pricing_plan_id":"cebpf4jnsgd1na2vs0mg"},{"bike_id":"4b08cfe7-5df1-4e29-905e-03a9992f8dfa","system_id":"levelo_inurba_marseille","lat":43.337758,"lon":5.374597,"is_reserved":false,"is_disabled":false,"rental_uris":{"android":"levelo://app?vid=4b08cfe7-5df1-4e29-905e-03a9992f8dfa","ios":"levelo://app?vid=4b08cfe7-5df1-4e29-905e-03a9992f8dfa"},"vehicle_type_id":"4","last_reported":1760821650,"current_range_meters":6400,"station_id":"","pricing_plan_id":"cebpf4jnsgd1na2vs0mg"},{"bike_id":"a6e7e774-c8c3-484e-b7e5-a6f60c3933f0","system_id":"levelo_inurba_marseille","lat":43.31069,"lon":5.38347,"is_reserved":false,"is_disabled":false,"rental_uris":{"android":"levelo://app?vid=a6e7e774-c8c3-484e-b7e5-a6f60c3933f0","ios":"levelo://app?vid=a6e7e774-c8c3-484e-b7e5-a6f60c3933f0"},"vehicle_type_id":"4","last_reported":1760821650,"current_range_meters":6400,"station_id":"ce4bgv92rcd13ifvqcr0","pricing_plan_id":"cebpf4jnsgd1na2vs0mg"},{"bike_id":"fafbd404-0daa-4a8b-95c8-2c17ea348e5c","system_id":"levelo_inurba_marseille","lat":43.279951,"lon":5.416663,"is_reserved":false,"is_disabled":false,"rental_uris":{"android":"levelo://app?vid=fafbd404-0daa-4a8b-95c8-2c17ea348e5c","ios":"levelo://app?vid=fafbd404-0daa-4a8b-95c8-2c17ea348e5c"},"vehicle_type_id":"4","last_reported":1760821650,"current_range_meters":6400,"station_id":"ce4bho12rcd13ifvqh1g","pricing_plan_id":"cebpf4jnsgd1na2vs0mg"},{"bike_id":"e7fd232a-342b-4abf-8e5d-e4ef030e9b1b","system_id":"levelo_inurba_marseille","lat":43.29522,"lon":5.38544,"is_reserved":false,"is_disabled":false,"rental_uris":{"android":"levelo://app?vid=e7fd232a-342b-4abf-8e5d-e4ef030e9b1b","ios":"levelo://app?vid=e7fd232a-342b-4abf-8e5d-e4ef030e9b1b"},"vehicle_type_id":"4","last_reported":1760821650,"current_range_meters":6400,"station_id":"ce4bgih2rcd13ifvqba0","pricing_plan_id":"cebpf4jnsgd1na2vs0mg"},{"bike_id":"c5e45447-2956-450f-bd7e-88aaf308c04d","system_id":"levelo_inurba_marseille","lat":43.28997,"lon":5.36532,"is_reserved":false,"is_disabled":false,"rental_uris":{"android":"levelo://app?vid=c5e45447-2956-450f-bd7e-88aaf308c04d","ios":"levelo://app?vid=c5e45447-2956-450f-bd7e-88aaf308c04d"},"vehicle_type_id":"4","last_reported":1760821650,"current_range_meters":6800,"station_id":"","pricing_plan_id":"cebpf4jnsgd1na2vs0mg"},{"bike_id":"245a030c-0c43-41f8-a4cc-088d55252b06","system_id":"levelo_inurba_marseille","lat":43.24477,"lon":5.36934,"is_reserved":false,"is_disabled":false,"rental_uris":{"android":"levelo://app?vid=245a030c-0c43-41f8-a4cc-088d55252b06","ios":"levelo://app?vid=245a030c-0c43-41f8-a4cc-088d55252b06"},"vehicle_type_id":"4","last_reported":1760821650,"current_range_meters":6800,"station_id":"","pricing_plan_id":"cebpf4jnsgd1na2vs0mg"},{"bike_id":"d8d047d4-f165-40cc-a74c-e2d78e66f7e1","system_id":"levelo_inurba_marseille","lat":43.27363,"lon":5.36253,"is_reserved":false,"is_disabled":false,"rental_uris":{"android":"levelo://app?vid=d8d047d4-f165-40cc-a74c-e2d78e66f7e1","ios":"levelo://app?vid=d8d047d4-f165-40cc-a74c-e2d78e66f7e1"},"vehicle_type_id":"4","last_reported":1760821650,"current_range_meters":6800,"station_id":"ce4bhbh2rcd13ifvqeo0","pricing_plan_id":"cebpf4jnsgd1na2vs0mg"},{"bike_id":"5410e722-b77f-421b-85bb-cc6762227ad0","system_id":"levelo_inurba_marseille","lat":43.28538,"lon":5.44104,"is_reserved":false,"is_disabled":false,"rental_uris":{"android":"levelo://app?vid=5410e722-b77f-421b-85bb-cc6762227ad0","ios":"levelo://app?vid=5410e722-b77f-421b-85bb-cc6762227ad0"},"vehicle_type_id":"4","last_reported":1760821650,"current_range_meters":6800,"station_id":"st_d3j3df2ikq2c7380ej80","pricing_plan_id":"cebpf4jnsgd1na2vs0mg"},{"bike_id":"94039e9a-f1c6-48b5-9984-590ebd73a21e","system_id":"levelo_inurba_marseille","lat":43.257202,"lon":5.411167,"is_reserved":false,"is_disabled":false,"rental_uris":{"android":"levelo://app?vid=94039e9a-f1c6-48b5-9984-590ebd73a21e","ios":"levelo://app?vid=94039e9a-f1c6-48b5-9984-590ebd73a21e"},"vehicle_type_id":"4","last_reported":1760821650,"current_range_meters":6800,"station_id":"ce4bhkp2rcd13ifvqgd0","pricing_plan_id":"cebpf4jnsgd1na2vs0mg"},{"bike_id":"a817b630-bbed-48d3-97f4-9bd571b9ebab","system_id":"levelo_inurba_marseille","lat":43.3,"lon":5.37334,"is_reserved":false,"is_disabled":false,"rental_uris":{"android":"levelo://app?vid=a817b630-bbed-48d3-97f4-9bd571b9ebab","ios":"levelo://app?vid=a817b630-bbed-48d3-97f4-9bd571b9ebab"},"vehicle_type_id":"4","last_reported":1760821650,"current_range_meters":6800,"station_id":"","pricing_plan_id":"cebpf4jnsgd1na2vs0mg"},{"bike_id":"480476d8-4cd3-406e-8583-8cae3aa74638","system_id":"levelo_inurba_marseille","lat":43.29505,"lon":5.43282,"is_reserved":false,"is_disabled":false,"rental_uris":{"android":"levelo://app?vid=480476d8-4cd3-406e-8583-8cae3aa74638","ios":"levelo://app?vid=480476d8-4cd3-406e-8583-8cae3aa74638"},"vehicle_type_id":"4","last_reported":1760821650,"current_range_meters":6800,"station_id":"st_d3j5ugp08ojc73fj9d10","pricing_plan_id":"cebpf4jnsgd1na2vs0mg"},{"bike_id":"8bd272a3-683a-4148-9970-3334beb0a457","system_id":"levelo_inurba_marseille","lat":43.285312,"lon":5.441004,"is_reserved":false,"is_disabled":false,"rental_uris":{"android":"levelo://app?vid=8bd272a3-683a-4148-9970-3334beb0a457","ios":"levelo://app?vid=8bd272a3-683a-4148-9970-3334beb0a457"},"vehicle_type_id":"4","last_reported":1760821650,"current_range_meters":7200,"station_id":"st_d3j3df2ikq2c7380ej80","pricing_plan_id":"cebpf4jnsgd1na2vs0mg"},{"bike_id":"c9d290c7-5c4d-4440-8ce5-b8844432edab","system_id":"levelo_inurba_marseille","lat":43.29265,"lon":5.38431,"is_reserved":false,"is_disabled":false,"rental_uris":{"android":"levelo://app?vid=c9d290c7-5c4d-4440-8ce5-b8844432edab","ios":"levelo://app?vid=c9d290c7-5c4d-4440-8ce5-b8844432edab"},"vehicle_type_id":"4","last_reported":1760821650,"current_range_meters":7200,"station_id":"ce4bh692rcd13ifvqea0","pricing_plan_id":"cebpf4jnsgd1na2vs0mg"},{"bike_id":"bca439f4-8529-442c-ba12-52509859b9df","system_id":"levelo_inurba_marseille","lat":43.2733,"lon":5.39079,"is_reserved":false,"is_disabled":false,"rental_uris":{"android":"levelo://app?vid=bca439f4-8529-442c-ba12-52509859b9df","ios":"levelo://app?vid=bca439f4-8529-442c-ba12-52509859b9df"},"vehicle_type_id":"4","last_reported":1760821650,"current_range_meters":7200,"station_id":"ce4bhgp2rcd13ifvqfe0","pricing_plan_id":"cebpf4jnsgd1na2vs0mg"},{"bike_id":"2cc6af61-e519-4e7f-9fd2-d6ed2d8a770b","system_id":"levelo_inurba_marseille","lat":43.292694,"lon":5.384465,"is_reserved":false,"is_disabled":false,"rental_uris":{"android":"levelo://app?vid=2cc6af61-e519-4e7f-9fd2-d6ed2d8a770b","ios":"levelo://app?vid=2cc6af61-e519-4e7f-9fd2-d6ed2d8a770b"},"vehicle_type_id":"4","last_reported":1760821650,"current_range_meters":7200,"station_id":"ce4bh692rcd13ifvqea0","pricing_plan_id":"cebpf4jnsgd1na2vs0mg"},{"bike_id":"15095a74-ab12-458e-8a71-0e564aef091a","system_id":"levelo_inurba_marseille","lat":43.253434,"lon":5.421692,"is_reserved":false,"is_disabled":false,"rental_uris":{"android":"levelo://app?vid=15095a74-ab12-458e-8a71-0e564aef091a","ios":"levelo://app?vid=15095a74-ab12-458e-8a71-0e564aef091a"},"vehicle_type_id":"4","last_reported":1760821650,"current_range_meters":7200,"station_id":"st_d2m65c5bi1j21697t3ng","pricing_plan_id":"cebpf4jnsgd1na2vs0mg"},{"bike_id":"09b33b3f-8f37-4c88-a605-5098b6c9747b","system_id":"levelo_inurba_marseille","lat":43.2799,"lon":5.41661,"is_reserved":false,"is_disabled":false,"rental_uris":{"android":"levelo://app?vid=09b33b3f-8f37-4c88-a605-5098b6c9747b","ios":"levelo://app?vid=09b33b3f-8f37-4c88-a605-5098b6c9747b"},"vehicle_type_id":"4","last_reported":1760821650,"current_range_meters":8000,"station_id":"ce4bho12rcd13ifvqh1g","pricing_plan_id":"cebpf4jnsgd1na2vs0mg"},{"bike_id":"95517d2e-464c-4bb9-8d8d-e2fba29fedbc","system_id":"levelo_inurba_marseille","lat":43.32115,"lon":5.36763,"is_reserved":false,"is_disabled":false,"rental_uris":{"android":"levelo://app?vid=95517d2e-464c-4bb9-8d8d-e2fba29fedbc","ios":"levelo://app?vid=95517d2e-464c-4bb9-8d8d-e2fba29fedbc"},"vehicle_type_id":"4","last_reported":1760821650,"current_range_meters":8000,"station_id":"ce4bhrh2rcd13ifvqhug","pricing_plan_id":"cebpf4jnsgd1na2vs0mg"},{"bike_id":"873ca021-b6fd-4cdc-ad6a-28091482f87b","system_id":"levelo_inurba_marseille","lat":43.29529,"lon":5.38556,"is_reserved":false,"is_disabled":false,"rental_uris":{"android":"levelo://app?vid=873ca021-b6fd-4cdc-ad6a-28091482f87b","ios":"levelo://app?vid=873ca021-b6fd-4cdc-ad6a-28091482f87b"},"vehicle_type_id":"4","last_reported":1760821650,"current_range_meters":8000,"station_id":"ce4bgih2rcd13ifvqba0","pricing_plan_id":"cebpf4jnsgd1na2vs0mg"},{"bike_id":"95dc26cd-56df-4da6-88df-2bdf377b3415","system_id":"levelo_inurba_marseille","lat":43.29266,"lon":5.38424,"is_reserved":false,"is_disabled":false,"rental_uris":{"android":"levelo://app?vid=95dc26cd-56df-4da6-88df-2bdf377b3415","ios":"levelo://app?vid=95dc26cd-56df-4da6-88df-2bdf377b3415"},"vehicle_type_id":"4","last_reported":1760821650,"current_range_meters":8000,"station_id":"ce4bh692rcd13ifvqea0","pricing_plan_id":"cebpf4jnsgd1na2vs0mg"},{"bike_id":"eb510d93-05e0-4709-b75c-9ae54c2a2339","system_id":"levelo_inurba_marseille","lat":43.29536,"lon":5.38536,"is_reserved":false,"is_disabled":false,"rental_uris":{"android":"levelo://app?vid=eb510d93-05e0-4709-b75c-9ae54c2a2339","ios":"levelo://app?vid=eb510d93-05e0-4709-b75c-9ae54c2a2339"},"vehicle_type_id":"4","last_reported":1760821650,"current_range_meters":8000,"station_id":"ce4bgih2rcd13ifvqba0","pricing_plan_id":"cebpf4jnsgd1na2vs0mg"},{"bike_id":"f180935b-e010-4b55-82c6-f45bfc98af5d","system_id":"levelo_inurba_marseille","lat":43.29028,"lon":5.38628,"is_reserved":false,"is_disabled":false,"rental_uris":{"android":"levelo://app?vid=f180935b-e010-4b55-82c6-f45bfc98af5d","ios":"levelo://app?vid=f180935b-e010-4b55-82c6-f45bfc98af5d"},"vehicle_type_id":"4","last_reported":1760821650,"current_range_meters":8400,"station_id":"ce4bh4p2rcd13ifvqe0g","pricing_plan_id":"cebpf4jnsgd1na2vs0mg"},{"bike_id":"c1a37dea-a08c-4b7d-947c-6df3e024a65c","system_id":"levelo_inurba_marseille","lat":43.2858,"lon":5.39485,"is_reserved":false,"is_disabled":false,"rental_uris":{"android":"levelo://app?vid=c1a37dea-a08c-4b7d-947c-6df3e024a65c","ios":"levelo://app?vid=c1a37dea-a08c-4b7d-947c-6df3e024a65c"},"vehicle_type_id":"4","last_reported":1760821650,"current_range_meters":8400,"station_id":"ce4bh292rcd13ifvqdg0","pricing_plan_id":"cebpf4jnsgd1na2vs0mg"},{"bike_id":"ce974585-3d50-40ce-a5dc-e857877785bc","system_id":"levelo_inurba_marseille","lat":43.28358,"lon":5.38087,"is_reserved":false,"is_disabled":false,"rental_uris":{"android":"levelo://app?vid=ce974585-3d50-40ce-a5dc-e857877785bc","ios":"levelo://app?vid=ce974585-3d50-40ce-a5dc-e857877785bc"},"vehicle_type_id":"4","last_reported":1760821650,"current_range_meters":8400,"station_id":"ce4bh412rcd13ifvqdr0","pricing_plan_id":"cebpf4jnsgd1na2vs0mg"},{"bike_id":"580f1fed-708a-4fef-ba07-b6536717e57b","system_id":"levelo_inurba_marseille","lat":43.29271,"lon":5.38441,"is_reserved":false,"is_disabled":false,"rental_uris":{"android":"levelo://app?vid=580f1fed-708a-4fef-ba07-b6536717e57b","ios":"levelo://app?vid=580f1fed-708a-4fef-ba07-b6536717e57b"},"vehicle_type_id":"4","last_reported":1760821650,"current_range_meters":8400,"station_id":"ce4bh692rcd13ifvqea0","pricing_plan_id":"cebpf4jnsgd1na2vs0mg"},{"bike_id":"ab3b05ce-9d4e-402a-aad3-521fdf353a78","system_id":"levelo_inurba_marseille","lat":43.29268,"lon":5.38436,"is_reserved":false,"is_disabled":false,"rental_uris":{"android":"levelo://app?vid=ab3b05ce-9d4e-402a-aad3-521fdf353a78","ios":"levelo://app?vid=ab3b05ce-9d4e-402a-aad3-521fdf353a78"},"vehicle_type_id":"4","last_reported":1760821650,"current_range_meters":8800,"station_id":"ce4bh692rcd13ifvqea0","pricing_plan_id":"cebpf4jnsgd1na2vs0mg"},{"bike_id":"566e8aef-ba4a-459c-916a-fe3e818c70f8","system_id":"levelo_inurba_marseille","lat":43.265621,"lon":5.372891,"is_reserved":false,"is_disabled":false,"rental_uris":{"android":"levelo://app?vid=566e8aef-ba4a-459c-916a-fe3e818c70f8","ios":"levelo://app?vid=566e8aef-ba4a-459c-916a-fe3e818c70f8"},"vehicle_type_id":"4","last_reported":1760821650,"current_range_meters":8800,"station_id":"ce4bhg12rcd13ifvqf70","pricing_plan_id":"cebpf4jnsgd1na2vs0mg"},{"bike_id":"1aeca3ed-e09e-4118-bb03-5bae919f4444","system_id":"levelo_inurba_marseille","lat":43.29289,"lon":5.38405,"is_reserved":false,"is_disabled":false,"rental_uris":{"android":"levelo://app?vid=1aeca3ed-e09e-4118-bb03-5bae919f4444","ios":"levelo://app?vid=1aeca3ed-e09e-4118-bb03-5bae919f4444"},"vehicle_type_id":"4","last_reported":1760821650,"current_range_meters":8800,"station_id":"ce4bh692rcd13ifvqea0","pricing_plan_id":"cebpf4jnsgd1na2vs0mg"},{"bike_id":"0c1d7f3c-8421-4b05-a23c-dc9192d22342","system_id":"levelo_inurba_marseille","lat":43.28165,"lon":5.42626,"is_reserved":false,"is_disabled":false,"rental_uris":{"android":"levelo://app?vid=0c1d7f3c-8421-4b05-a23c-dc9192d22342","ios":"levelo://app?vid=0c1d7f3c-8421-4b05-a23c-dc9192d22342"},"vehicle_type_id":"4","last_reported":1760821650,"current_range_meters":8800,"station_id":"ce4bhnh2rcd13ifvqgug","pricing_plan_id":"cebpf4jnsgd1na2vs0mg"},{"bike_id":"924ac669-be8b-47aa-9a8e-6f22baf815eb","system_id":"levelo_inurba_marseille","lat":43.337692,"lon":5.374734,"is_reserved":false,"is_disabled":false,"rental_uris":{"android":"levelo://app?vid=924ac669-be8b-47aa-9a8e-6f22baf815eb","ios":"levelo://app?vid=924ac669-be8b-47aa-9a8e-6f22baf815eb"},"vehicle_type_id":"4","last_reported":1760821650,"current_range_meters":8800,"station_id":"","pricing_plan_id":"cebpf4jnsgd1na2vs0mg"},{"bike_id":"34db604d-0b1d-47b1-859c-25f43faa8ba8","system_id":"levelo_inurba_marseille","lat":43.32111,"lon":5.36766,"is_reserved":false,"is_disabled":false,"rental_uris":{"android":"levelo://app?vid=34db604d-0b1d-47b1-859c-25f43faa8ba8","ios":"levelo://app?vid=34db604d-0b1d-47b1-859c-25f43faa8ba8"},"vehicle_type_id":"4","last_reported":1760821650,"current_range_meters":8800,"station_id":"ce4bhrh2rcd13ifvqhug","pricing_plan_id":"cebpf4jnsgd1na2vs0mg"},{"bike_id":"22dd2f64-c626-4eff-b863-82b8aa97ead0","system_id":"levelo_inurba_marseille","lat":43.29535,"lon":5.38541,"is_reserved":false,"is_disabled":false,"rental_uris":{"android":"levelo://app?vid=22dd2f64-c626-4eff-b863-82b8aa97ead0","ios":"levelo://app?vid=22dd2f64-c626-4eff-b863-82b8aa97ead0"},"vehicle_type_id":"4","last_reported":1760821650,"current_range_meters":9200,"station_id":"ce4bgih2rcd13ifvqba0","pricing_plan_id":"cebpf4jnsgd1na2vs0mg"},{"bike_id":"f13259c8-94da-45f6-abfa-9a31fb4ba202","system_id":"levelo_inurba_marseille","lat":43.271722,"lon":5.409938,"is_reserved":false,"is_disabled":false,"rental_uris":{"android":"levelo://app?vid=f13259c8-94da-45f6-abfa-9a31fb4ba202","ios":"levelo://app?vid=f13259c8-94da-45f6-abfa-9a31fb4ba202"},"vehicle_type_id":"4","last_reported":1760821650,"current_range_meters":9200,"station_id":"ce4bhl12rcd13ifvqgf0","pricing_plan_id":"cebpf4jnsgd1na2vs0mg"},{"bike_id":"1ae23019-ea31-4d05-9cf3-f48fd8ecdb6e","system_id":"levelo_inurba_marseille","lat":43.31101,"lon":5.42389,"is_reserved":false,"is_disabled":false,"rental_uris":{"android":"levelo://app?vid=1ae23019-ea31-4d05-9cf3-f48fd8ecdb6e","ios":"levelo://app?vid=1ae23019-ea31-4d05-9cf3-f48fd8ecdb6e"},"vehicle_type_id":"4","last_reported":1760821650,"current_range_meters":9600,"station_id":"ce4bhp92rcd13ifvqhag","pricing_plan_id":"cebpf4jnsgd1na2vs0mg"},{"bike_id":"75b02a51-1325-435e-9661-29bb451a696a","system_id":"levelo_inurba_marseille","lat":43.31448,"lon":5.38488,"is_reserved":false,"is_disabled":false,"rental_uris":{"android":"levelo://app?vid=75b02a51-1325-435e-9661-29bb451a696a","ios":"levelo://app?vid=75b02a51-1325-435e-9661-29bb451a696a"},"vehicle_type_id":"4","last_reported":1760821650,"current_range_meters":9600,"station_id":"","pricing_plan_id":"cebpf4jnsgd1na2vs0mg"},{"bike_id":"531099f3-f1bd-48d2-afd6-12826d4f5fef","system_id":"levelo_inurba_marseille","lat":43.27071,"lon":5.38307,"is_reserved":false,"is_disabled":false,"rental_uris":{"android":"levelo://app?vid=531099f3-f1bd-48d2-afd6-12826d4f5fef","ios":"levelo://app?vid=531099f3-f1bd-48d2-afd6-12826d4f5fef"},"vehicle_type_id":"4","last_reported":1760821650,"current_range_meters":9600,"station_id":"st_d3n2fo6cfp8s73cte1j0","pricing_plan_id":"cebpf4jnsgd1na2vs0mg"},{"bike_id":"efe9ce68-2381-43b7-93be-3d1380c37e45","system_id":"levelo_inurba_marseille","lat":43.295685,"lon":5.399694,"is_reserved":false,"is_disabled":false,"rental_uris":{"android":"levelo://app?vid=efe9ce68-2381-43b7-93be-3d1380c37e45","ios":"levelo://app?vid=efe9ce68-2381-43b7-93be-3d1380c37e45"},"vehicle_type_id":"4","last_reported":1760821650,"current_range_meters":9600,"station_id":"ce4bh312rcd13ifvqdj0","pricing_plan_id":"cebpf4jnsgd1na2vs0mg"},{"bike_id":"96187f0a-b870-49ee-b86c-8c23bfbaa0f5","system_id":"levelo_inurba_marseille","lat":43.2928,"lon":5.38461,"is_reserved":false,"is_disabled":false,"rental_uris":{"android":"levelo://app?vid=96187f0a-b870-49ee-b86c-8c23bfbaa0f5","ios":"levelo://app?vid=96187f0a-b870-49ee-b86c-8c23bfbaa0f5"},"vehicle_type_id":"4","last_reported":1760821650,"current_range_meters":10000,"station_id":"ce4bh692rcd13ifvqea0","pricing_plan_id":"cebpf4jnsgd1na2vs0mg"},{"bike_id":"0d67f819-112d-4682-8ee1-0f286a695555","system_id":"levelo_inurba_marseille","lat":43.29268,"lon":5.38434,"is_reserved":false,"is_disabled":false,"rental_uris":{"android":"levelo://app?vid=0d67f819-112d-4682-8ee1-0f286a695555","ios":"levelo://app?vid=0d67f819-112d-4682-8ee1-0f286a695555"},"vehicle_type_id":"4","last_reported":1760821650,"current_range_meters":10000,"station_id":"ce4bh692rcd13ifvqea0","pricing_plan_id":"cebpf4jnsgd1na2vs0mg"},{"bike_id":"d7de8a4b-054e-4f08-972f-750ba132f0ec","system_id":"levelo_inurba_marseille","lat":43.29192,"lon":5.3577,"is_reserved":false,"is_disabled":true,"rental_uris":{"android":"levelo://app?vid=d7de8a4b-054e-4f08-972f-750ba132f0ec","ios":"levelo://app?vid=d7de8a4b-054e-4f08-972f-750ba132f0ec"},"vehicle_type_id":"4","last_reported":1760821650,"current_range_meters":10000,"station_id":"ce4bhb12rcd13ifvqel0","pricing_plan_id":"cebpf4jnsgd1na2vs0mg"},{"bike_id":"b5c8575d-8596-4685-89b6-400d75563c68","system_id":"levelo_inurba_marseille","lat":43.27572,"lon":5.38402,"is_reserved":false,"is_disabled":false,"rental_uris":{"android":"levelo://app?vid=b5c8575d-8596-4685-89b6-400d75563c68","ios":"levelo://app?vid=b5c8575d-8596-4685-89b6-400d75563c68"},"vehicle_type_id":"4","last_reported":1760821650,"current_range_meters":10000,"station_id":"ce4bhh92rcd13ifvqfi0","pricing_plan_id":"cebpf4jnsgd1na2vs0mg"},{"bike_id":"5ec36f29-a595-43fb-81bc-e1f6ecf04525","system_id":"levelo_inurba_marseille","lat":43.21191,"lon":5.35076,"is_reserved":false,"is_disabled":true,"rental_uris":{"android":"levelo://app?vid=5ec36f29-a595-43fb-81bc-e1f6ecf04525","ios":"levelo://app?vid=5ec36f29-a595-43fb-81bc-e1f6ecf04525"},"vehicle_type_id":"4","last_reported":1760821650,"current_range_meters":10000,"station_id":"st_cvj6sg6p6f1abm77japg","pricing_plan_id":"cebpf4jnsgd1na2vs0mg"},{"bike_id":"bd4320ce-2aec-4623-8f05-878d797d1bb0","system_id":"levelo_inurba_marseille","lat":43.29293,"lon":5.38423,"is_reserved":false,"is_disabled":false,"rental_uris":{"android":"levelo://app?vid=bd4320ce-2aec-4623-8f05-878d797d1bb0","ios":"levelo://app?vid=bd4320ce-2aec-4623-8f05-878d797d1bb0"},"vehicle_type_id":"4","last_reported":1760821650,"current_range_meters":10000,"station_id":"ce4bh692rcd13ifvqea0","pricing_plan_id":"cebpf4jnsgd1na2vs0mg"},{"bike_id":"19f1d720-1467-4d66-818b-07fcae9c49fc","system_id":"levelo_inurba_marseille","lat":43.29035,"lon":5.38581,"is_reserved":false,"is_disabled":false,"rental_uris":{"android":"levelo://app?vid=19f1d720-1467-4d66-818b-07fcae9c49fc","ios":"levelo://app?vid=19f1d720-1467-4d66-818b-07fcae9c49fc"},"vehicle_type_id":"4","last_reported":1760821650,"current_range_meters":10000,"station_id":"","pricing_plan_id":"cebpf4jnsgd1na2vs0mg"},{"bike_id":"615708fb-5d96-4b55-9bac-803d0ef9fb5d","system_id":"levelo_inurba_marseille","lat":43.25332,"lon":5.42173,"is_reserved":false,"is_disabled":false,"rental_uris":{"android":"levelo://app?vid=615708fb-5d96-4b55-9bac-803d0ef9fb5d","ios":"levelo://app?vid=615708fb-5d96-4b55-9bac-803d0ef9fb5d"},"vehicle_type_id":"4","last_reported":1760821650,"current_range_meters":10000,"station_id":"st_d2m65c5bi1j21697t3ng","pricing_plan_id":"cebpf4jnsgd1na2vs0mg"},{"bike_id":"e411f132-45e3-4d92-b8d9-2a1acf7ef764","system_id":"levelo_inurba_marseille","lat":43.309319,"lon":5.401529,"is_reserved":false,"is_disabled":true,"rental_uris":{"android":"levelo://app?vid=e411f132-45e3-4d92-b8d9-2a1acf7ef764","ios":"levelo://app?vid=e411f132-45e3-4d92-b8d9-2a1acf7ef764"},"vehicle_type_id":"4","last_reported":1760821650,"current_range_meters":10000,"station_id":"ce4bgvp2rcd13ifvqct0","pricing_plan_id":"cebpf4jnsgd1na2vs0mg"},{"bike_id":"59742c94-4658-4515-a228-2a9d9f4b4338","system_id":"levelo_inurba_marseille","lat":43.282684,"lon":5.350728,"is_reserved":false,"is_disabled":false,"rental_uris":{"android":"levelo://app?vid=59742c94-4658-4515-a228-2a9d9f4b4338","ios":"levelo://app?vid=59742c94-4658-4515-a228-2a9d9f4b4338"},"vehicle_type_id":"4","last_reported":1760821650,"current_range_meters":10000,"station_id":"ce4bh692rcd13ifvqea0","pricing_plan_id":"cebpf4jnsgd1na2vs0mg"},{"bike_id":"f775c705-e91c-42b6-843f-9a21cee529df","system_id":"levelo_inurba_marseille","lat":43.29001,"lon":5.37167,"is_reserved":false,"is_disabled":false,"rental_uris":{"android":"levelo://app?vid=f775c705-e91c-42b6-843f-9a21cee529df","ios":"levelo://app?vid=f775c705-e91c-42b6-843f-9a21cee529df"},"vehicle_type_id":"4","last_reported":1760821650,"current_range_meters":10000,"station_id":"","pricing_plan_id":"cebpf4jnsgd1na2vs0mg"},{"bike_id":"e85a985f-404f-41f4-9182-9a6f877c3d8c","system_id":"levelo_inurba_marseille","lat":43.24958,"lon":5.40495,"is_reserved":false,"is_disabled":false,"rental_uris":{"android":"levelo://app?vid=e85a985f-404f-41f4-9182-9a6f877c3d8c","ios":"levelo://app?vid=e85a985f-404f-41f4-9182-9a6f877c3d8c"},"vehicle_type_id":"4","last_reported":1760821650,"current_range_meters":10000,"station_id":"st_d2ngiaodas8pm72gd1h0","pricing_plan_id":"cebpf4jnsgd1na2vs0mg"},{"bike_id":"0b170382-a38a-48fc-b060-b901de311f1a","system_id":"levelo_inurba_marseille","lat":43.33047,"lon":5.39024,"is_reserved":false,"is_disabled":true,"rental_uris":{"android":"levelo://app?vid=0b170382-a38a-48fc-b060-b901de311f1a","ios":"levelo://app?vid=0b170382-a38a-48fc-b060-b901de311f1a"},"vehicle_type_id":"4","last_reported":1760821650,"current_range_meters":10800,"station_id":"ce4bhr92rcd13ifvqhrg","pricing_plan_id":"cebpf4jnsgd1na2vs0mg"},{"bike_id":"7cef8056-68d9-444c-a71c-21caf6f8fd23","system_id":"levelo_inurba_marseille","lat":43.32121,"lon":5.36776,"is_reserved":false,"is_disabled":false,"rental_uris":{"android":"levelo://app?vid=7cef8056-68d9-444c-a71c-21caf6f8fd23","ios":"levelo://app?vid=7cef8056-68d9-444c-a71c-21caf6f8fd23"},"vehicle_type_id":"4","last_reported":1760821650,"current_range_meters":10800,"station_id":"ce4bhrh2rcd13ifvqhug","pricing_plan_id":"cebpf4jnsgd1na2vs0mg"},{"bike_id":"29deeaa9-e77a-408d-b13e-b6abc21d5df6","system_id":"levelo_inurba_marseille","lat":43.296509,"lon":5.386966,"is_reserved":false,"is_disabled":false,"rental_uris":{"android":"levelo://app?vid=29deeaa9-e77a-408d-b13e-b6abc21d5df6","ios":"levelo://app?vid=29deeaa9-e77a-408d-b13e-b6abc21d5df6"},"vehicle_type_id":"4","last_reported":1760821650,"current_range_meters":10800,"station_id":"","pricing_plan_id":"cebpf4jnsgd1na2vs0mg"},{"bike_id":"9b35f520-b47c-4550-9804-23f27fab5ce9","system_id":"levelo_inurba_marseille","lat":43.25505,"lon":5.37635,"is_reserved":false,"is_disabled":true,"rental_uris":{"android":"levelo://app?vid=9b35f520-b47c-4550-9804-23f27fab5ce9","ios":"levelo://app?vid=9b35f520-b47c-4550-9804-23f27fab5ce9"},"vehicle_type_id":"4","last_reported":1760821650,"current_range_meters":10800,"station_id":"ce4bhh12rcd13ifvqff0","pricing_plan_id":"cebpf4jnsgd1na2vs0mg"},{"bike_id":"8db440ca-7bab-4e69-b256-a172d962a3c0","system_id":"levelo_inurba_marseille","lat":43.31079,"lon":5.38343,"is_reserved":false,"is_disabled":false,"rental_uris":{"android":"levelo://app?vid=8db440ca-7bab-4e69-b256-a172d962a3c0","ios":"levelo://app?vid=8db440ca-7bab-4e69-b256-a172d962a3c0"},"vehicle_type_id":"4","last_reported":1760821650,"current_range_meters":10800,"station_id":"ce4bgv92rcd13ifvqcr0","pricing_plan_id":"cebpf4jnsgd1na2vs0mg"},{"bike_id":"394213f8-a678-4fef-874f-bcb7093d4f1d","system_id":"levelo_inurba_marseille","lat":43.28188,"lon":5.426339,"is_reserved":false,"is_disabled":false,"rental_uris":{"android":"levelo://app?vid=394213f8-a678-4fef-874f-bcb7093d4f1d","ios":"levelo://app?vid=394213f8-a678-4fef-874f-bcb7093d4f1d"},"vehicle_type_id":"4","last_reported":1760821650,"current_range_meters":10800,"station_id":"ce4bhnh2rcd13ifvqgug","pricing_plan_id":"cebpf4jnsgd1na2vs0mg"},{"bike_id":"8e6781bb-2e20-454e-8191-54182f17bdfc","system_id":"levelo_inurba_marseille","lat":43.21751,"lon":5.346,"is_reserved":false,"is_disabled":true,"rental_uris":{"android":"levelo://app?vid=8e6781bb-2e20-454e-8191-54182f17bdfc","ios":"levelo://app?vid=8e6781bb-2e20-454e-8191-54182f17bdfc"},"vehicle_type_id":"4","last_reported":1760821650,"current_range_meters":10800,"station_id":"st_cvj6r9ubvosntc0bgbag","pricing_plan_id":"cebpf4jnsgd1na2vs0mg"},{"bike_id":"9538e8d8-bb40-4147-916b-fefc0c6ded50","system_id":"levelo_inurba_marseille","lat":43.29525,"lon":5.38536,"is_reserved":false,"is_disabled":false,"rental_uris":{"android":"levelo://app?vid=9538e8d8-bb40-4147-916b-fefc0c6ded50","ios":"levelo://app?vid=9538e8d8-bb40-4147-916b-fefc0c6ded50"},"vehicle_type_id":"4","last_reported":1760821650,"current_range_meters":10800,"station_id":"ce4bgih2rcd13ifvqba0","pricing_plan_id":"cebpf4jnsgd1na2vs0mg"},{"bike_id":"23359616-fcdd-4218-b440-0be7e094a544","system_id":"levelo_inurba_marseille","lat":43.29698,"lon":5.36604,"is_reserved":false,"is_disabled":false,"rental_uris":{"android":"levelo://app?vid=23359616-fcdd-4218-b440-0be7e094a544","ios":"levelo://app?vid=23359616-fcdd-4218-b440-0be7e094a544"},"vehicle_type_id":"4","last_reported":1760821650,"current_range_meters":10800,"station_id":"ce4bgn12rcd13ifvqbt0","pricing_plan_id":"cebpf4jnsgd1na2vs0mg"},{"bike_id":"ad3d64d1-9fc4-4984-a728-3c6f477a597f","system_id":"levelo_inurba_marseille","lat":43.26557,"lon":5.37294,"is_reserved":false,"is_disabled":false,"rental_uris":{"android":"levelo://app?vid=ad3d64d1-9fc4-4984-a728-3c6f477a597f","ios":"levelo://app?vid=ad3d64d1-9fc4-4984-a728-3c6f477a597f"},"vehicle_type_id":"4","last_reported":1760821650,"current_range_meters":10800,"station_id":"ce4bhg12rcd13ifvqf70","pricing_plan_id":"cebpf4jnsgd1na2vs0mg"},{"bike_id":"657f303b-2417-4a96-a979-9bb80b1500f6","system_id":"levelo_inurba_marseille","lat":43.29852,"lon":5.36262,"is_reserved":false,"is_disabled":true,"rental_uris":{"android":"levelo://app?vid=657f303b-2417-4a96-a979-9bb80b1500f6","ios":"levelo://app?vid=657f303b-2417-4a96-a979-9bb80b1500f6"},"vehicle_type_id":"4","last_reported":1760821650,"current_range_meters":11200,"station_id":"ce4bgpp2rcd13ifvqc3g","pricing_plan_id":"cebpf4jnsgd1na2vs0mg"},{"bike_id":"1382b748-840e-4ecc-afc5-0fb4eeaeb841","system_id":"levelo_inurba_marseille","lat":43.30582,"lon":5.3748,"is_reserved":false,"is_disabled":false,"rental_uris":{"android":"levelo://app?vid=1382b748-840e-4ecc-afc5-0fb4eeaeb841","ios":"levelo://app?vid=1382b748-840e-4ecc-afc5-0fb4eeaeb841"},"vehicle_type_id":"4","last_reported":1760821650,"current_range_meters":11200,"station_id":"","pricing_plan_id":"cebpf4jnsgd1na2vs0mg"},{"bike_id":"90079440-5d87-4ae2-aa63-8b1b3bdcd425","system_id":"levelo_inurba_marseille","lat":43.29035,"lon":5.38634,"is_reserved":false,"is_disabled":false,"rental_uris":{"android":"levelo://app?vid=90079440-5d87-4ae2-aa63-8b1b3bdcd425","ios":"levelo://app?vid=90079440-5d87-4ae2-aa63-8b1b3bdcd425"},"vehicle_type_id":"4","last_reported":1760821650,"current_range_meters":11200,"station_id":"ce4bh4p2rcd13ifvqe0g","pricing_plan_id":"cebpf4jnsgd1na2vs0mg"},{"bike_id":"57772d0e-d6d9-48d5-bf04-c3ce0daf8e02","system_id":"levelo_inurba_marseille","lat":43.29269,"lon":5.38441,"is_reserved":false,"is_disabled":false,"rental_uris":{"android":"levelo://app?vid=57772d0e-d6d9-48d5-bf04-c3ce0daf8e02","ios":"levelo://app?vid=57772d0e-d6d9-48d5-bf04-c3ce0daf8e02"},"vehicle_type_id":"4","last_reported":1760821650,"current_range_meters":11600,"station_id":"ce4bh692rcd13ifvqea0","pricing_plan_id":"cebpf4jnsgd1na2vs0mg"},{"bike_id":"1bac7b26-9a7b-4684-a426-b8af7e0ca50e","system_id":"levelo_inurba_marseille","lat":43.28671,"lon":5.38653,"is_reserved":false,"is_disabled":false,"rental_uris":{"android":"levelo://app?vid=1bac7b26-9a7b-4684-a426-b8af7e0ca50e","ios":"levelo://app?vid=1bac7b26-9a7b-4684-a426-b8af7e0ca50e"},"vehicle_type_id":"4","last_reported":1760821650,"current_range_meters":11600,"station_id":"ce4bh492rcd13ifvqdug","pricing_plan_id":"cebpf4jnsgd1na2vs0mg"},{"bike_id":"7efa49d6-60c4-4523-b0cb-2e2bfdef8c46","system_id":"levelo_inurba_marseille","lat":43.34895,"lon":5.36615,"is_reserved":false,"is_disabled":false,"rental_uris":{"android":"levelo://app?vid=7efa49d6-60c4-4523-b0cb-2e2bfdef8c46","ios":"levelo://app?vid=7efa49d6-60c4-4523-b0cb-2e2bfdef8c46"},"vehicle_type_id":"4","last_reported":1760821650,"current_range_meters":11600,"station_id":"","pricing_plan_id":"cebpf4jnsgd1na2vs0mg"},{"bike_id":"3d837b9d-17ac-4ae6-8f77-4583e6ccdb7a","system_id":"levelo_inurba_marseille","lat":43.25944,"lon":5.40896,"is_reserved":false,"is_disabled":false,"rental_uris":{"android":"levelo://app?vid=3d837b9d-17ac-4ae6-8f77-4583e6ccdb7a","ios":"levelo://app?vid=3d837b9d-17ac-4ae6-8f77-4583e6ccdb7a"},"vehicle_type_id":"4","last_reported":1760821650,"current_range_meters":11600,"station_id":"ce4bhm92rcd13ifvqglg","pricing_plan_id":"cebpf4jnsgd1na2vs0mg"},{"bike_id":"b1db1391-3474-48f3-85bd-dfc79b190eda","system_id":"levelo_inurba_marseille","lat":43.29302,"lon":5.36096,"is_reserved":false,"is_disabled":false,"rental_uris":{"android":"levelo://app?vid=b1db1391-3474-48f3-85bd-dfc79b190eda","ios":"levelo://app?vid=b1db1391-3474-48f3-85bd-dfc79b190eda"},"vehicle_type_id":"4","last_reported":1760821650,"current_range_meters":11600,"station_id":"","pricing_plan_id":"cebpf4jnsgd1na2vs0mg"},{"bike_id":"41452954-d2d2-42bd-9d7b-51da3651adda","system_id":"levelo_inurba_marseille","lat":43.29282,"lon":5.38439,"is_reserved":false,"is_disabled":false,"rental_uris":{"android":"levelo://app?vid=41452954-d2d2-42bd-9d7b-51da3651adda","ios":"levelo://app?vid=41452954-d2d2-42bd-9d7b-51da3651adda"},"vehicle_type_id":"4","last_reported":1760821650,"current_range_meters":11600,"station_id":"ce4bh692rcd13ifvqea0","pricing_plan_id":"cebpf4jnsgd1na2vs0mg"},{"bike_id":"498e6b32-1cd3-4b3d-94fc-69a84a294cf9","system_id":"levelo_inurba_marseille","lat":43.26558,"lon":5.37281,"is_reserved":false,"is_disabled":false,"rental_uris":{"android":"levelo://app?vid=498e6b32-1cd3-4b3d-94fc-69a84a294cf9","ios":"levelo://app?vid=498e6b32-1cd3-4b3d-94fc-69a84a294cf9"},"vehicle_type_id":"4","last_reported":1760821650,"current_range_meters":11600,"station_id":"ce4bhg12rcd13ifvqf70","pricing_plan_id":"cebpf4jnsgd1na2vs0mg"},{"bike_id":"0a414463-fe1a-4833-8a11-178a3c2c879a","system_id":"levelo_inurba_marseille","lat":43.29852,"lon":5.37897,"is_reserved":false,"is_disabled":false,"rental_uris":{"android":"levelo://app?vid=0a414463-fe1a-4833-8a11-178a3c2c879a","ios":"levelo://app?vid=0a414463-fe1a-4833-8a11-178a3c2c879a"},"vehicle_type_id":"4","last_reported":1760821650,"current_range_meters":12000,"station_id":"","pricing_plan_id":"cebpf4jnsgd1na2vs0mg"},{"bike_id":"ea883585-d0e4-4bcb-922c-57b2a3efdeac","system_id":"levelo_inurba_marseille","lat":43.30512,"lon":5.3681,"is_reserved":false,"is_disabled":false,"rental_uris":{"android":"levelo://app?vid=ea883585-d0e4-4bcb-922c-57b2a3efdeac","ios":"levelo://app?vid=ea883585-d0e4-4bcb-922c-57b2a3efdeac"},"vehicle_type_id":"4","last_reported":1760821650,"current_range_meters":12000,"station_id":"","pricing_plan_id":"cebpf4jnsgd1na2vs0mg"},{"bike_id":"71dfa056-01e5-4adb-beeb-0291deea1131","system_id":"levelo_inurba_marseille","lat":43.29529,"lon":5.38541,"is_reserved":false,"is_disabled":false,"rental_uris":{"android":"levelo://app?vid=71dfa056-01e5-4adb-beeb-0291deea1131","ios":"levelo://app?vid=71dfa056-01e5-4adb-beeb-0291deea1131"},"vehicle_type_id":"4","last_reported":1760821650,"current_range_meters":12000,"station_id":"ce4bgih2rcd13ifvqba0","pricing_plan_id":"cebpf4jnsgd1na2vs0mg"},{"bike_id":"c6227cff-120f-49c6-93a2-5454dd916cde","system_id":"levelo_inurba_marseille","lat":43.26563,"lon":5.37299,"is_reserved":false,"is_disabled":true,"rental_uris":{"android":"levelo://app?vid=c6227cff-120f-49c6-93a2-5454dd916cde","ios":"levelo://app?vid=c6227cff-120f-49c6-93a2-5454dd916cde"},"vehicle_type_id":"4","last_reported":1760821650,"current_range_meters":12000,"station_id":"ce4bhg12rcd13ifvqf70","pricing_plan_id":"cebpf4jnsgd1na2vs0mg"},{"bike_id":"9565e4bc-9679-4866-90ab-72b95b82e4a7","system_id":"levelo_inurba_marseille","lat":43.30641,"lon":5.40076,"is_reserved":false,"is_disabled":false,"rental_uris":{"android":"levelo://app?vid=9565e4bc-9679-4866-90ab-72b95b82e4a7","ios":"levelo://app?vid=9565e4bc-9679-4866-90ab-72b95b82e4a7"},"vehicle_type_id":"4","last_reported":1760821650,"current_range_meters":12000,"station_id":"ce4bh112rcd13ifvqda0","pricing_plan_id":"cebpf4jnsgd1na2vs0mg"},{"bike_id":"e978660f-731d-4a95-8df5-e0a54d8fe8be","system_id":"levelo_inurba_marseille","lat":43.212098,"lon":5.350746,"is_reserved":false,"is_disabled":true,"rental_uris":{"android":"levelo://app?vid=e978660f-731d-4a95-8df5-e0a54d8fe8be","ios":"levelo://app?vid=e978660f-731d-4a95-8df5-e0a54d8fe8be"},"vehicle_type_id":"4","last_reported":1760821650,"current_range_meters":12000,"station_id":"st_cvj6sg6p6f1abm77japg","pricing_plan_id":"cebpf4jnsgd1na2vs0mg"},{"bike_id":"d5cdb9d0-4e3c-449a-8a92-010ee04aec14","system_id":"levelo_inurba_marseille","lat":43.254701,"lon":5.420416,"is_reserved":false,"is_disabled":false,"rental_uris":{"android":"levelo://app?vid=d5cdb9d0-4e3c-449a-8a92-010ee04aec14","ios":"levelo://app?vid=d5cdb9d0-4e3c-449a-8a92-010ee04aec14"},"vehicle_type_id":"4","last_reported":1760821650,"current_range_meters":12000,"station_id":"ce4bhk92rcd13ifvqgc0","pricing_plan_id":"cebpf4jnsgd1na2vs0mg"},{"bike_id":"94a80ed1-2fee-468c-bb76-25f1829c19bf","system_id":"levelo_inurba_marseille","lat":43.30465,"lon":5.37898,"is_reserved":false,"is_disabled":true,"rental_uris":{"android":"levelo://app?vid=94a80ed1-2fee-468c-bb76-25f1829c19bf","ios":"levelo://app?vid=94a80ed1-2fee-468c-bb76-25f1829c19bf"},"vehicle_type_id":"4","last_reported":1760821650,"current_range_meters":12000,"station_id":"ce4bgup2rcd13ifvqcn0","pricing_plan_id":"cebpf4jnsgd1na2vs0mg"},{"bike_id":"f153bba6-2071-46cc-b200-c6fdd8dcf500","system_id":"levelo_inurba_marseille","lat":43.29543,"lon":5.38541,"is_reserved":false,"is_disabled":false,"rental_uris":{"android":"levelo://app?vid=f153bba6-2071-46cc-b200-c6fdd8dcf500","ios":"levelo://app?vid=f153bba6-2071-46cc-b200-c6fdd8dcf500"},"vehicle_type_id":"4","last_reported":1760821650,"current_range_meters":12000,"station_id":"ce4bgih2rcd13ifvqba0","pricing_plan_id":"cebpf4jnsgd1na2vs0mg"},{"bike_id":"b9c18541-1aed-4523-80cf-0629e7f98b3e","system_id":"levelo_inurba_marseille","lat":43.29437,"lon":5.38449,"is_reserved":false,"is_disabled":false,"rental_uris":{"android":"levelo://app?vid=b9c18541-1aed-4523-80cf-0629e7f98b3e","ios":"levelo://app?vid=b9c18541-1aed-4523-80cf-0629e7f98b3e"},"vehicle_type_id":"4","last_reported":1760821650,"current_range_meters":12000,"station_id":"","pricing_plan_id":"cebpf4jnsgd1na2vs0mg"},{"bike_id":"05d4583f-638c-4ecf-91bb-c55ca2605e9e","system_id":"levelo_inurba_marseille","lat":43.253532,"lon":5.421718,"is_reserved":false,"is_disabled":false,"rental_uris":{"android":"levelo://app?vid=05d4583f-638c-4ecf-91bb-c55ca2605e9e","ios":"levelo://app?vid=05d4583f-638c-4ecf-91bb-c55ca2605e9e"},"vehicle_type_id":"4","last_reported":1760821650,"current_range_meters":12000,"station_id":"st_d2m65c5bi1j21697t3ng","pricing_plan_id":"cebpf4jnsgd1na2vs0mg"},{"bike_id":"ae6eb0f2-4874-4ceb-8d8c-7385a8266f58","system_id":"levelo_inurba_marseille","lat":43.29527,"lon":5.37921,"is_reserved":false,"is_disabled":false,"rental_uris":{"android":"levelo://app?vid=ae6eb0f2-4874-4ceb-8d8c-7385a8266f58","ios":"levelo://app?vid=ae6eb0f2-4874-4ceb-8d8c-7385a8266f58"},"vehicle_type_id":"4","last_reported":1760821650,"current_range_meters":12000,"station_id":"","pricing_plan_id":"cebpf4jnsgd1na2vs0mg"},{"bike_id":"83348da8-a4f5-46df-865e-64326525590d","system_id":"levelo_inurba_marseille","lat":43.21759,"lon":5.34592,"is_reserved":false,"is_disabled":false,"rental_uris":{"android":"levelo://app?vid=83348da8-a4f5-46df-865e-64326525590d","ios":"levelo://app?vid=83348da8-a4f5-46df-865e-64326525590d"},"vehicle_type_id":"4","last_reported":1760821650,"current_range_meters":12400,"station_id":"st_cvj6r9ubvosntc0bgbag","pricing_plan_id":"cebpf4jnsgd1na2vs0mg"},{"bike_id":"3586afa5-19c6-4385-ae3b-80726606c1bb","system_id":"levelo_inurba_marseille","lat":43.26377,"lon":5.39873,"is_reserved":false,"is_disabled":false,"rental_uris":{"android":"levelo://app?vid=3586afa5-19c6-4385-ae3b-80726606c1bb","ios":"levelo://app?vid=3586afa5-19c6-4385-ae3b-80726606c1bb"},"vehicle_type_id":"4","last_reported":1760821650,"current_range_meters":12400,"station_id":"","pricing_plan_id":"cebpf4jnsgd1na2vs0mg"},{"bike_id":"e9c8911f-6661-4330-b933-c7ef20dc0f45","system_id":"levelo_inurba_marseille","lat":43.28124,"lon":5.35025,"is_reserved":false,"is_disabled":false,"rental_uris":{"android":"levelo://app?vid=e9c8911f-6661-4330-b933-c7ef20dc0f45","ios":"levelo://app?vid=e9c8911f-6661-4330-b933-c7ef20dc0f45"},"vehicle_type_id":"4","last_reported":1760821650,"current_range_meters":12400,"station_id":"","pricing_plan_id":"cebpf4jnsgd1na2vs0mg"},{"bike_id":"9542deb9-0f97-45fa-9eda-5c779632d68f","system_id":"levelo_inurba_marseille","lat":43.29528,"lon":5.38551,"is_reserved":false,"is_disabled":false,"rental_uris":{"android":"levelo://app?vid=9542deb9-0f97-45fa-9eda-5c779632d68f","ios":"levelo://app?vid=9542deb9-0f97-45fa-9eda-5c779632d68f"},"vehicle_type_id":"4","last_reported":1760821650,"current_range_meters":12400,"station_id":"ce4bgih2rcd13ifvqba0","pricing_plan_id":"cebpf4jnsgd1na2vs0mg"},{"bike_id":"ae9d7a09-51b5-46fa-8b8e-6a2dcebc1f78","system_id":"levelo_inurba_marseille","lat":43.298008,"lon":5.381068,"is_reserved":false,"is_disabled":false,"rental_uris":{"android":"levelo://app?vid=ae9d7a09-51b5-46fa-8b8e-6a2dcebc1f78","ios":"levelo://app?vid=ae9d7a09-51b5-46fa-8b8e-6a2dcebc1f78"},"vehicle_type_id":"4","last_reported":1760821650,"current_range_meters":12800,"station_id":"","pricing_plan_id":"cebpf4jnsgd1na2vs0mg"},{"bike_id":"9aca6410-dfe2-4f0b-8309-4bbe61aef318","system_id":"levelo_inurba_marseille","lat":43.33033,"lon":5.39036,"is_reserved":false,"is_disabled":false,"rental_uris":{"android":"levelo://app?vid=9aca6410-dfe2-4f0b-8309-4bbe61aef318","ios":"levelo://app?vid=9aca6410-dfe2-4f0b-8309-4bbe61aef318"},"vehicle_type_id":"4","last_reported":1760821650,"current_range_meters":12800,"station_id":"ce4bhr92rcd13ifvqhrg","pricing_plan_id":"cebpf4jnsgd1na2vs0mg"},{"bike_id":"bf2c3617-0e72-4f4a-8585-0c63bcbc4fce","system_id":"levelo_inurba_marseille","lat":43.28618,"lon":5.35115,"is_reserved":false,"is_disabled":true,"rental_uris":{"android":"levelo://app?vid=bf2c3617-0e72-4f4a-8585-0c63bcbc4fce","ios":"levelo://app?vid=bf2c3617-0e72-4f4a-8585-0c63bcbc4fce"},"vehicle_type_id":"4","last_reported":1760821650,"current_range_meters":12800,"station_id":"ce4bhch2rcd13ifvqeug","pricing_plan_id":"cebpf4jnsgd1na2vs0mg"},{"bike_id":"61fd2045-bca1-4ccb-b5e7-4187f69819f2","system_id":"levelo_inurba_marseille","lat":43.29277,"lon":5.38432,"is_reserved":false,"is_disabled":false,"rental_uris":{"android":"levelo://app?vid=61fd2045-bca1-4ccb-b5e7-4187f69819f2","ios":"levelo://app?vid=61fd2045-bca1-4ccb-b5e7-4187f69819f2"},"vehicle_type_id":"4","last_reported":1760821650,"current_range_meters":12800,"station_id":"ce4bh692rcd13ifvqea0","pricing_plan_id":"cebpf4jnsgd1na2vs0mg"},{"bike_id":"4d639fc2-fd62-4b4f-8fc3-f0ee032daac3","system_id":"levelo_inurba_marseille","lat":43.24182,"lon":5.36417,"is_reserved":false,"is_disabled":false,"rental_uris":{"android":"levelo://app?vid=4d639fc2-fd62-4b4f-8fc3-f0ee032daac3","ios":"levelo://app?vid=4d639fc2-fd62-4b4f-8fc3-f0ee032daac3"},"vehicle_type_id":"4","last_reported":1760821650,"current_range_meters":12800,"station_id":"cpo36qri1sfpv3e86is0","pricing_plan_id":"cebpf4jnsgd1na2vs0mg"},{"bike_id":"fb0a6b7b-0a9d-4424-95fa-57fe51630c5e","system_id":"levelo_inurba_marseille","lat":43.273712,"lon":5.362631,"is_reserved":false,"is_disabled":false,"rental_uris":{"android":"levelo://app?vid=fb0a6b7b-0a9d-4424-95fa-57fe51630c5e","ios":"levelo://app?vid=fb0a6b7b-0a9d-4424-95fa-57fe51630c5e"},"vehicle_type_id":"4","last_reported":1760821650,"current_range_meters":12800,"station_id":"ce4bhbh2rcd13ifvqeo0","pricing_plan_id":"cebpf4jnsgd1na2vs0mg"},{"bike_id":"6632a0ad-f43a-451e-834c-e4d64180498e","system_id":"levelo_inurba_marseille","lat":43.32678,"lon":5.41007,"is_reserved":false,"is_disabled":false,"rental_uris":{"android":"levelo://app?vid=6632a0ad-f43a-451e-834c-e4d64180498e","ios":"levelo://app?vid=6632a0ad-f43a-451e-834c-e4d64180498e"},"vehicle_type_id":"4","last_reported":1760821650,"current_range_meters":12800,"station_id":"ce4bhpp2rcd13ifvqhgg","pricing_plan_id":"cebpf4jnsgd1na2vs0mg"},{"bike_id":"ea7560ca-5f03-426d-96e6-9f9c89122550","system_id":"levelo_inurba_marseille","lat":43.31367,"lon":5.38479,"is_reserved":false,"is_disabled":false,"rental_uris":{"android":"levelo://app?vid=ea7560ca-5f03-426d-96e6-9f9c89122550","ios":"levelo://app?vid=ea7560ca-5f03-426d-96e6-9f9c89122550"},"vehicle_type_id":"4","last_reported":1760821650,"current_range_meters":12800,"station_id":"ce4bgt92rcd13ifvqcf0","pricing_plan_id":"cebpf4jnsgd1na2vs0mg"},{"bike_id":"71914a0b-4078-4e91-8fe4-c4688186f52f","system_id":"levelo_inurba_marseille","lat":43.29261,"lon":5.38446,"is_reserved":false,"is_disabled":false,"rental_uris":{"android":"levelo://app?vid=71914a0b-4078-4e91-8fe4-c4688186f52f","ios":"levelo://app?vid=71914a0b-4078-4e91-8fe4-c4688186f52f"},"vehicle_type_id":"4","last_reported":1760821650,"current_range_meters":12800,"station_id":"ce4bh692rcd13ifvqea0","pricing_plan_id":"cebpf4jnsgd1na2vs0mg"},{"bike_id":"074be791-6c38-4f2f-8dd0-b227e073e27e","system_id":"levelo_inurba_marseille","lat":43.24209,"lon":5.36449,"is_reserved":false,"is_disabled":false,"rental_uris":{"android":"levelo://app?vid=074be791-6c38-4f2f-8dd0-b227e073e27e","ios":"levelo://app?vid=074be791-6c38-4f2f-8dd0-b227e073e27e"},"vehicle_type_id":"4","last_reported":1760821650,"current_range_meters":13600,"station_id":"","pricing_plan_id":"cebpf4jnsgd1na2vs0mg"},{"bike_id":"3f13991a-43fd-4b49-b31a-f84d43d4b745","system_id":"levelo_inurba_marseille","lat":43.289833,"lon":5.37172,"is_reserved":false,"is_disabled":false,"rental_uris":{"android":"levelo://app?vid=3f13991a-43fd-4b49-b31a-f84d43d4b745","ios":"levelo://app?vid=3f13991a-43fd-4b49-b31a-f84d43d4b745"},"vehicle_type_id":"4","last_reported":1760821650,"current_range_meters":13600,"station_id":"","pricing_plan_id":"cebpf4jnsgd1na2vs0mg"},{"bike_id":"2294fa70-f674-40bb-9bb7-1bf7b28aa4e4","system_id":"levelo_inurba_marseille","lat":43.3013,"lon":5.38776,"is_reserved":false,"is_disabled":false,"rental_uris":{"android":"levelo://app?vid=2294fa70-f674-40bb-9bb7-1bf7b28aa4e4","ios":"levelo://app?vid=2294fa70-f674-40bb-9bb7-1bf7b28aa4e4"},"vehicle_type_id":"4","last_reported":1760821650,"current_range_meters":13600,"station_id":"ce4bghh2rcd13ifvqb60","pricing_plan_id":"cebpf4jnsgd1na2vs0mg"},{"bike_id":"bb447e36-a9fe-469f-8b4b-4e97070a2180","system_id":"levelo_inurba_marseille","lat":43.29267,"lon":5.38413,"is_reserved":false,"is_disabled":false,"rental_uris":{"android":"levelo://app?vid=bb447e36-a9fe-469f-8b4b-4e97070a2180","ios":"levelo://app?vid=bb447e36-a9fe-469f-8b4b-4e97070a2180"},"vehicle_type_id":"4","last_reported":1760821650,"current_range_meters":13600,"station_id":"ce4bh692rcd13ifvqea0","pricing_plan_id":"cebpf4jnsgd1na2vs0mg"},{"bike_id":"684dea98-4fa8-4451-8c5f-30e274ad7842","system_id":"levelo_inurba_marseille","lat":43.25115,"lon":5.40322,"is_reserved":false,"is_disabled":false,"rental_uris":{"android":"levelo://app?vid=684dea98-4fa8-4451-8c5f-30e274ad7842","ios":"levelo://app?vid=684dea98-4fa8-4451-8c5f-30e274ad7842"},"vehicle_type_id":"4","last_reported":1760821650,"current_range_meters":13600,"station_id":"ce4bhlh2rcd13ifvqgig","pricing_plan_id":"cebpf4jnsgd1na2vs0mg"},{"bike_id":"0f2300b3-0e61-4887-9dcb-8b0d4561dc29","system_id":"levelo_inurba_marseille","lat":43.28715,"lon":5.39963,"is_reserved":false,"is_disabled":false,"rental_uris":{"android":"levelo://app?vid=0f2300b3-0e61-4887-9dcb-8b0d4561dc29","ios":"levelo://app?vid=0f2300b3-0e61-4887-9dcb-8b0d4561dc29"},"vehicle_type_id":"4","last_reported":1760821650,"current_range_meters":13600,"station_id":"ce4bho92rcd13ifvqh3g","pricing_plan_id":"cebpf4jnsgd1na2vs0mg"},{"bike_id":"6426e4fa-7f79-410d-acfa-0a51b3b2658a","system_id":"levelo_inurba_marseille","lat":43.31274,"lon":5.40365,"is_reserved":false,"is_disabled":false,"rental_uris":{"android":"levelo://app?vid=6426e4fa-7f79-410d-acfa-0a51b3b2658a","ios":"levelo://app?vid=6426e4fa-7f79-410d-acfa-0a51b3b2658a"},"vehicle_type_id":"4","last_reported":1760821650,"current_range_meters":14000,"station_id":"","pricing_plan_id":"cebpf4jnsgd1na2vs0mg"},{"bike_id":"365b1110-8604-4b2d-ad9b-3263b8a258f2","system_id":"levelo_inurba_marseille","lat":43.28655,"lon":5.3634,"is_reserved":false,"is_disabled":false,"rental_uris":{"android":"levelo://app?vid=365b1110-8604-4b2d-ad9b-3263b8a258f2","ios":"levelo://app?vid=365b1110-8604-4b2d-ad9b-3263b8a258f2"},"vehicle_type_id":"4","last_reported":1760821650,"current_range_meters":14000,"station_id":"ce4bhah2rcd13ifvqej0","pricing_plan_id":"cebpf4jnsgd1na2vs0mg"},{"bike_id":"ba8c7f8f-404a-4ee7-b514-9119151b4ba1","system_id":"levelo_inurba_marseille","lat":43.27314,"lon":5.39107,"is_reserved":false,"is_disabled":false,"rental_uris":{"android":"levelo://app?vid=ba8c7f8f-404a-4ee7-b514-9119151b4ba1","ios":"levelo://app?vid=ba8c7f8f-404a-4ee7-b514-9119151b4ba1"},"vehicle_type_id":"4","last_reported":1760821650,"current_range_meters":14000,"station_id":"ce4bhgp2rcd13ifvqfe0","pricing_plan_id":"cebpf4jnsgd1na2vs0mg"},{"bike_id":"ac6d2c4d-74a8-443d-a9f9-0d9807feacda","system_id":"levelo_inurba_marseille","lat":43.33772,"lon":5.37469,"is_reserved":false,"is_disabled":false,"rental_uris":{"android":"levelo://app?vid=ac6d2c4d-74a8-443d-a9f9-0d9807feacda","ios":"levelo://app?vid=ac6d2c4d-74a8-443d-a9f9-0d9807feacda"},"vehicle_type_id":"4","last_reported":1760821650,"current_range_meters":14000,"station_id":"","pricing_plan_id":"cebpf4jnsgd1na2vs0mg"},{"bike_id":"f4b21278-7a88-4f1e-8b50-4cb4a181722f","system_id":"levelo_inurba_marseille","lat":43.28519,"lon":5.44091,"is_reserved":false,"is_disabled":false,"rental_uris":{"android":"levelo://app?vid=f4b21278-7a88-4f1e-8b50-4cb4a181722f","ios":"levelo://app?vid=f4b21278-7a88-4f1e-8b50-4cb4a181722f"},"vehicle_type_id":"4","last_reported":1760821650,"current_range_meters":14000,"station_id":"st_d3j3df2ikq2c7380ej80","pricing_plan_id":"cebpf4jnsgd1na2vs0mg"},{"bike_id":"615165e9-7421-40aa-9c32-f33abb044a38","system_id":"levelo_inurba_marseille","lat":43.29527,"lon":5.38542,"is_reserved":false,"is_disabled":false,"rental_uris":{"android":"levelo://app?vid=615165e9-7421-40aa-9c32-f33abb044a38","ios":"levelo://app?vid=615165e9-7421-40aa-9c32-f33abb044a38"},"vehicle_type_id":"4","last_reported":1760821650,"current_range_meters":14000,"station_id":"ce4bgih2rcd13ifvqba0","pricing_plan_id":"cebpf4jnsgd1na2vs0mg"},{"bike_id":"38c3bc73-e885-467c-9015-110393934b88","system_id":"levelo_inurba_marseille","lat":43.29533,"lon":5.38524,"is_reserved":false,"is_disabled":false,"rental_uris":{"android":"levelo://app?vid=38c3bc73-e885-467c-9015-110393934b88","ios":"levelo://app?vid=38c3bc73-e885-467c-9015-110393934b88"},"vehicle_type_id":"4","last_reported":1760821650,"current_range_meters":14000,"station_id":"ce4bgih2rcd13ifvqba0","pricing_plan_id":"cebpf4jnsgd1na2vs0mg"},{"bike_id":"f24ed84e-6647-45f6-a2f7-d0da4b2fccc5","system_id":"levelo_inurba_marseille","lat":43.26917,"lon":5.40253,"is_reserved":false,"is_disabled":false,"rental_uris":{"android":"levelo://app?vid=f24ed84e-6647-45f6-a2f7-d0da4b2fccc5","ios":"levelo://app?vid=f24ed84e-6647-45f6-a2f7-d0da4b2fccc5"},"vehicle_type_id":"4","last_reported":1760821650,"current_range_meters":14000,"station_id":"cjm6bp8fraef2m0cb0m0","pricing_plan_id":"cebpf4jnsgd1na2vs0mg"},{"bike_id":"c0a350ee-be00-4102-bc12-87d53227b0f5","system_id":"levelo_inurba_marseille","lat":43.2927,"lon":5.38438,"is_reserved":false,"is_disabled":false,"rental_uris":{"android":"levelo://app?vid=c0a350ee-be00-4102-bc12-87d53227b0f5","ios":"levelo://app?vid=c0a350ee-be00-4102-bc12-87d53227b0f5"},"vehicle_type_id":"4","last_reported":1760821650,"current_range_meters":14000,"station_id":"ce4bh692rcd13ifvqea0","pricing_plan_id":"cebpf4jnsgd1na2vs0mg"},{"bike_id":"8d0dfff6-344d-44d4-a7c0-c8985a0e021b","system_id":"levelo_inurba_marseille","lat":43.29944,"lon":5.36833,"is_reserved":false,"is_disabled":false,"rental_uris":{"android":"levelo://app?vid=8d0dfff6-344d-44d4-a7c0-c8985a0e021b","ios":"levelo://app?vid=8d0dfff6-344d-44d4-a7c0-c8985a0e021b"},"vehicle_type_id":"4","last_reported":1760821650,"current_range_meters":14000,"station_id":"","pricing_plan_id":"cebpf4jnsgd1na2vs0mg"},{"bike_id":"3e5701e3-19c6-42fa-bc27-8518853e0b92","system_id":"levelo_inurba_marseille","lat":43.295207,"lon":5.390426,"is_reserved":false,"is_disabled":false,"rental_uris":{"android":"levelo://app?vid=3e5701e3-19c6-42fa-bc27-8518853e0b92","ios":"levelo://app?vid=3e5701e3-19c6-42fa-bc27-8518853e0b92"},"vehicle_type_id":"4","last_reported":1760821650,"current_range_meters":14400,"station_id":"ce4bh3p2rcd13ifvqdp0","pricing_plan_id":"cebpf4jnsgd1na2vs0mg"},{"bike_id":"d712d0ff-3096-41ad-87d0-b640167ff060","system_id":"levelo_inurba_marseille","lat":43.31541,"lon":5.38512,"is_reserved":false,"is_disabled":false,"rental_uris":{"android":"levelo://app?vid=d712d0ff-3096-41ad-87d0-b640167ff060","ios":"levelo://app?vid=d712d0ff-3096-41ad-87d0-b640167ff060"},"vehicle_type_id":"4","last_reported":1760821650,"current_range_meters":14400,"station_id":"","pricing_plan_id":"cebpf4jnsgd1na2vs0mg"},{"bike_id":"cf4c14bf-7635-4f96-a4b6-ee6481db3804","system_id":"levelo_inurba_marseille","lat":43.32293,"lon":5.38287,"is_reserved":false,"is_disabled":false,"rental_uris":{"android":"levelo://app?vid=cf4c14bf-7635-4f96-a4b6-ee6481db3804","ios":"levelo://app?vid=cf4c14bf-7635-4f96-a4b6-ee6481db3804"},"vehicle_type_id":"4","last_reported":1760821650,"current_range_meters":14400,"station_id":"ce4bhr12rcd13ifvqhqg","pricing_plan_id":"cebpf4jnsgd1na2vs0mg"},{"bike_id":"4ec8b0cc-1282-4437-9c7e-d089f0dd057c","system_id":"levelo_inurba_marseille","lat":43.29281,"lon":5.38433,"is_reserved":false,"is_disabled":false,"rental_uris":{"android":"levelo://app?vid=4ec8b0cc-1282-4437-9c7e-d089f0dd057c","ios":"levelo://app?vid=4ec8b0cc-1282-4437-9c7e-d089f0dd057c"},"vehicle_type_id":"4","last_reported":1760821650,"current_range_meters":14400,"station_id":"ce4bh692rcd13ifvqea0","pricing_plan_id":"cebpf4jnsgd1na2vs0mg"},{"bike_id":"ca66566f-bb6f-47c3-9261-9f948cee6a02","system_id":"levelo_inurba_marseille","lat":43.27334,"lon":5.39103,"is_reserved":false,"is_disabled":false,"rental_uris":{"android":"levelo://app?vid=ca66566f-bb6f-47c3-9261-9f948cee6a02","ios":"levelo://app?vid=ca66566f-bb6f-47c3-9261-9f948cee6a02"},"vehicle_type_id":"4","last_reported":1760821650,"current_range_meters":14400,"station_id":"ce4bhgp2rcd13ifvqfe0","pricing_plan_id":"cebpf4jnsgd1na2vs0mg"},{"bike_id":"ee5b9b4d-d120-41b9-a430-c7e48db5a413","system_id":"levelo_inurba_marseille","lat":43.27313,"lon":5.39089,"is_reserved":false,"is_disabled":false,"rental_uris":{"android":"levelo://app?vid=ee5b9b4d-d120-41b9-a430-c7e48db5a413","ios":"levelo://app?vid=ee5b9b4d-d120-41b9-a430-c7e48db5a413"},"vehicle_type_id":"4","last_reported":1760821650,"current_range_meters":14400,"station_id":"ce4bhgp2rcd13ifvqfe0","pricing_plan_id":"cebpf4jnsgd1na2vs0mg"},{"bike_id":"a7b3764b-b896-4840-bd7e-9880973af195","system_id":"levelo_inurba_marseille","lat":43.292287,"lon":5.360602,"is_reserved":false,"is_disabled":false,"rental_uris":{"android":"levelo://app?vid=a7b3764b-b896-4840-bd7e-9880973af195","ios":"levelo://app?vid=a7b3764b-b896-4840-bd7e-9880973af195"},"vehicle_type_id":"4","last_reported":1760821650,"current_range_meters":14400,"station_id":"","pricing_plan_id":"cebpf4jnsgd1na2vs0mg"},{"bike_id":"a3398e14-2419-4158-b680-43bd28c42022","system_id":"levelo_inurba_marseille","lat":43.307406,"lon":5.382152,"is_reserved":false,"is_disabled":false,"rental_uris":{"android":"levelo://app?vid=a3398e14-2419-4158-b680-43bd28c42022","ios":"levelo://app?vid=a3398e14-2419-4158-b680-43bd28c42022"},"vehicle_type_id":"4","last_reported":1760821650,"current_range_meters":14400,"station_id":"ce4bgt12rcd13ifvqce0","pricing_plan_id":"cebpf4jnsgd1na2vs0mg"},{"bike_id":"38a9801e-a76c-4cac-9bfb-ce539dc5f1ca","system_id":"levelo_inurba_marseille","lat":43.30419,"lon":5.41286,"is_reserved":false,"is_disabled":false,"rental_uris":{"android":"levelo://app?vid=38a9801e-a76c-4cac-9bfb-ce539dc5f1ca","ios":"levelo://app?vid=38a9801e-a76c-4cac-9bfb-ce539dc5f1ca"},"vehicle_type_id":"4","last_reported":1760821650,"current_range_meters":14800,"station_id":"ce4bhop2rcd13ifvqh8g","pricing_plan_id":"cebpf4jnsgd1na2vs0mg"},{"bike_id":"f00840dc-495e-40c5-904a-a70f6c5c5dc9","system_id":"levelo_inurba_marseille","lat":43.29026,"lon":5.38661,"is_reserved":false,"is_disabled":false,"rental_uris":{"android":"levelo://app?vid=f00840dc-495e-40c5-904a-a70f6c5c5dc9","ios":"levelo://app?vid=f00840dc-495e-40c5-904a-a70f6c5c5dc9"},"vehicle_type_id":"4","last_reported":1760821650,"current_range_meters":14800,"station_id":"ce4bh4p2rcd13ifvqe0g","pricing_plan_id":"cebpf4jnsgd1na2vs0mg"},{"bike_id":"346acee0-8b0f-49aa-a4d7-81f555556277","system_id":"levelo_inurba_marseille","lat":43.26944,"lon":5.40239,"is_reserved":false,"is_disabled":false,"rental_uris":{"android":"levelo://app?vid=346acee0-8b0f-49aa-a4d7-81f555556277","ios":"levelo://app?vid=346acee0-8b0f-49aa-a4d7-81f555556277"},"vehicle_type_id":"4","last_reported":1760821650,"current_range_meters":14800,"station_id":"cjm6bp8fraef2m0cb0m0","pricing_plan_id":"cebpf4jnsgd1na2vs0mg"},{"bike_id":"da645a59-3c37-4a6c-b300-727c90e60e75","system_id":"levelo_inurba_marseille","lat":43.29511,"lon":5.38534,"is_reserved":false,"is_disabled":false,"rental_uris":{"android":"levelo://app?vid=da645a59-3c37-4a6c-b300-727c90e60e75","ios":"levelo://app?vid=da645a59-3c37-4a6c-b300-727c90e60e75"},"vehicle_type_id":"4","last_reported":1760821650,"current_range_meters":14800,"station_id":"ce4bgih2rcd13ifvqba0","pricing_plan_id":"cebpf4jnsgd1na2vs0mg"},{"bike_id":"2e024493-35c3-471c-bd82-8a3dc53ad3c5","system_id":"levelo_inurba_marseille","lat":43.269405,"lon":5.40251,"is_reserved":false,"is_disabled":false,"rental_uris":{"android":"levelo://app?vid=2e024493-35c3-471c-bd82-8a3dc53ad3c5","ios":"levelo://app?vid=2e024493-35c3-471c-bd82-8a3dc53ad3c5"},"vehicle_type_id":"4","last_reported":1760821650,"current_range_meters":15200,"station_id":"cjm6bp8fraef2m0cb0m0","pricing_plan_id":"cebpf4jnsgd1na2vs0mg"},{"bike_id":"00b0c6e1-4d62-4ad2-a3d1-e4852b97e9df","system_id":"levelo_inurba_marseille","lat":43.27302,"lon":5.3912,"is_reserved":false,"is_disabled":false,"rental_uris":{"android":"levelo://app?vid=00b0c6e1-4d62-4ad2-a3d1-e4852b97e9df","ios":"levelo://app?vid=00b0c6e1-4d62-4ad2-a3d1-e4852b97e9df"},"vehicle_type_id":"4","last_reported":1760821650,"current_range_meters":15200,"station_id":"ce4bhgp2rcd13ifvqfe0","pricing_plan_id":"cebpf4jnsgd1na2vs0mg"},{"bike_id":"3723dc20-8123-4f5f-92a0-0c3073c1e3b9","system_id":"levelo_inurba_marseille","lat":43.2526,"lon":5.42203,"is_reserved":false,"is_disabled":false,"rental_uris":{"android":"levelo://app?vid=3723dc20-8123-4f5f-92a0-0c3073c1e3b9","ios":"levelo://app?vid=3723dc20-8123-4f5f-92a0-0c3073c1e3b9"},"vehicle_type_id":"4","last_reported":1760821650,"current_range_meters":15200,"station_id":"st_d2m65c5bi1j21697t3ng","pricing_plan_id":"cebpf4jnsgd1na2vs0mg"},{"bike_id":"74a0e418-9a8a-4d6c-82ac-4bcdbfc66662","system_id":"levelo_inurba_marseille","lat":43.29521,"lon":5.38526,"is_reserved":false,"is_disabled":true,"rental_uris":{"android":"levelo://app?vid=74a0e418-9a8a-4d6c-82ac-4bcdbfc66662","ios":"levelo://app?vid=74a0e418-9a8a-4d6c-82ac-4bcdbfc66662"},"vehicle_type_id":"4","last_reported":1760821650,"current_range_meters":16000,"station_id":"ce4bgih2rcd13ifvqba0","pricing_plan_id":"cebpf4jnsgd1na2vs0mg"},{"bike_id":"0cda47bc-2a80-4a3c-bed2-94f72f57aa66","system_id":"levelo_inurba_marseille","lat":43.29537,"lon":5.38533,"is_reserved":false,"is_disabled":false,"rental_uris":{"android":"levelo://app?vid=0cda47bc-2a80-4a3c-bed2-94f72f57aa66","ios":"levelo://app?vid=0cda47bc-2a80-4a3c-bed2-94f72f57aa66"},"vehicle_type_id":"4","last_reported":1760821650,"current_range_meters":16000,"station_id":"ce4bgih2rcd13ifvqba0","pricing_plan_id":"cebpf4jnsgd1na2vs0mg"},{"bike_id":"ae9688e3-9b02-4b3a-b315-b8dc42d95bb6","system_id":"levelo_inurba_marseille","lat":43.27311,"lon":5.39079,"is_reserved":false,"is_disabled":false,"rental_uris":{"android":"levelo://app?vid=ae9688e3-9b02-4b3a-b315-b8dc42d95bb6","ios":"levelo://app?vid=ae9688e3-9b02-4b3a-b315-b8dc42d95bb6"},"vehicle_type_id":"4","last_reported":1760821650,"current_range_meters":16000,"station_id":"ce4bhgp2rcd13ifvqfe0","pricing_plan_id":"cebpf4jnsgd1na2vs0mg"},{"bike_id":"18ed5a02-6af1-43a9-bcc7-1305b3c6b2e1","system_id":"levelo_inurba_marseille","lat":43.27335,"lon":5.39108,"is_reserved":false,"is_disabled":false,"rental_uris":{"android":"levelo://app?vid=18ed5a02-6af1-43a9-bcc7-1305b3c6b2e1","ios":"levelo://app?vid=18ed5a02-6af1-43a9-bcc7-1305b3c6b2e1"},"vehicle_type_id":"4","last_reported":1760821650,"current_range_meters":16000,"station_id":"ce4bhgp2rcd13ifvqfe0","pricing_plan_id":"cebpf4jnsgd1na2vs0mg"},{"bike_id":"d59cf217-2e48-4f01-a416-0cb84a436cd0","system_id":"levelo_inurba_marseille","lat":43.2953,"lon":5.38541,"is_reserved":false,"is_disabled":false,"rental_uris":{"android":"levelo://app?vid=d59cf217-2e48-4f01-a416-0cb84a436cd0","ios":"levelo://app?vid=d59cf217-2e48-4f01-a416-0cb84a436cd0"},"vehicle_type_id":"4","last_reported":1760821650,"current_range_meters":16000,"station_id":"ce4bgih2rcd13ifvqba0","pricing_plan_id":"cebpf4jnsgd1na2vs0mg"},{"bike_id":"09b729d3-4109-4180-ab77-4d92a7f08986","system_id":"levelo_inurba_marseille","lat":43.29018,"lon":5.38638,"is_reserved":false,"is_disabled":false,"rental_uris":{"android":"levelo://app?vid=09b729d3-4109-4180-ab77-4d92a7f08986","ios":"levelo://app?vid=09b729d3-4109-4180-ab77-4d92a7f08986"},"vehicle_type_id":"4","last_reported":1760821650,"current_range_meters":16000,"station_id":"ce4bh4p2rcd13ifvqe0g","pricing_plan_id":"cebpf4jnsgd1na2vs0mg"},{"bike_id":"08d862b5-0a0a-479e-8a4f-835bd9dc6030","system_id":"levelo_inurba_marseille","lat":43.2902,"lon":5.38635,"is_reserved":false,"is_disabled":false,"rental_uris":{"android":"levelo://app?vid=08d862b5-0a0a-479e-8a4f-835bd9dc6030","ios":"levelo://app?vid=08d862b5-0a0a-479e-8a4f-835bd9dc6030"},"vehicle_type_id":"4","last_reported":1760821650,"current_range_meters":16000,"station_id":"ce4bh4p2rcd13ifvqe0g","pricing_plan_id":"cebpf4jnsgd1na2vs0mg"},{"bike_id":"bfbbb102-44ce-4ef9-a799-11f98100ccbe","system_id":"levelo_inurba_marseille","lat":43.27919,"lon":5.39572,"is_reserved":false,"is_disabled":false,"rental_uris":{"android":"levelo://app?vid=bfbbb102-44ce-4ef9-a799-11f98100ccbe","ios":"levelo://app?vid=bfbbb102-44ce-4ef9-a799-11f98100ccbe"},"vehicle_type_id":"4","last_reported":1760821650,"current_range_meters":16400,"station_id":"ce4bhf92rcd13ifvqf40","pricing_plan_id":"cebpf4jnsgd1na2vs0mg"},{"bike_id":"4f10ecd9-3242-410e-9dce-06f5ef86b9df","system_id":"levelo_inurba_marseille","lat":43.29903,"lon":5.38665,"is_reserved":false,"is_disabled":false,"rental_uris":{"android":"levelo://app?vid=4f10ecd9-3242-410e-9dce-06f5ef86b9df","ios":"levelo://app?vid=4f10ecd9-3242-410e-9dce-06f5ef86b9df"},"vehicle_type_id":"4","last_reported":1760821650,"current_range_meters":16400,"station_id":"","pricing_plan_id":"cebpf4jnsgd1na2vs0mg"},{"bike_id":"7c893bb4-a0d0-478f-a6df-3c6e778c4047","system_id":"levelo_inurba_marseille","lat":43.30323,"lon":5.36876,"is_reserved":false,"is_disabled":false,"rental_uris":{"android":"levelo://app?vid=7c893bb4-a0d0-478f-a6df-3c6e778c4047","ios":"levelo://app?vid=7c893bb4-a0d0-478f-a6df-3c6e778c4047"},"vehicle_type_id":"4","last_reported":1760821650,"current_range_meters":16400,"station_id":"ce4bgqh2rcd13ifvqc5g","pricing_plan_id":"cebpf4jnsgd1na2vs0mg"},{"bike_id":"25d7784a-bf62-4829-b979-75617a7f4989","system_id":"levelo_inurba_marseille","lat":43.29524,"lon":5.38543,"is_reserved":false,"is_disabled":false,"rental_uris":{"android":"levelo://app?vid=25d7784a-bf62-4829-b979-75617a7f4989","ios":"levelo://app?vid=25d7784a-bf62-4829-b979-75617a7f4989"},"vehicle_type_id":"4","last_reported":1760821650,"current_range_meters":16400,"station_id":"ce4bgih2rcd13ifvqba0","pricing_plan_id":"cebpf4jnsgd1na2vs0mg"},{"bike_id":"8cd818e3-a9e2-4f48-92b2-26306f507696","system_id":"levelo_inurba_marseille","lat":43.31349,"lon":5.37913,"is_reserved":false,"is_disabled":false,"rental_uris":{"android":"levelo://app?vid=8cd818e3-a9e2-4f48-92b2-26306f507696","ios":"levelo://app?vid=8cd818e3-a9e2-4f48-92b2-26306f507696"},"vehicle_type_id":"4","last_reported":1760821650,"current_range_meters":16400,"station_id":"","pricing_plan_id":"cebpf4jnsgd1na2vs0mg"},{"bike_id":"557a1625-be77-42f7-b6c3-9292a2ecadfd","system_id":"levelo_inurba_marseille","lat":43.29263,"lon":5.38428,"is_reserved":false,"is_disabled":false,"rental_uris":{"android":"levelo://app?vid=557a1625-be77-42f7-b6c3-9292a2ecadfd","ios":"levelo://app?vid=557a1625-be77-42f7-b6c3-9292a2ecadfd"},"vehicle_type_id":"4","last_reported":1760821650,"current_range_meters":16400,"station_id":"ce4bh692rcd13ifvqea0","pricing_plan_id":"cebpf4jnsgd1na2vs0mg"},{"bike_id":"21c320e3-48a1-4f9f-86c7-355dd8645df3","system_id":"levelo_inurba_marseille","lat":43.30791,"lon":5.37647,"is_reserved":false,"is_disabled":false,"rental_uris":{"android":"levelo://app?vid=21c320e3-48a1-4f9f-86c7-355dd8645df3","ios":"levelo://app?vid=21c320e3-48a1-4f9f-86c7-355dd8645df3"},"vehicle_type_id":"4","last_reported":1760821650,"current_range_meters":16400,"station_id":"ce4bgv92rcd13ifvqcq0","pricing_plan_id":"cebpf4jnsgd1na2vs0mg"},{"bike_id":"367c1051-7e4c-4903-8a1f-171c98150810","system_id":"levelo_inurba_marseille","lat":43.24179,"lon":5.36376,"is_reserved":false,"is_disabled":false,"rental_uris":{"android":"levelo://app?vid=367c1051-7e4c-4903-8a1f-171c98150810","ios":"levelo://app?vid=367c1051-7e4c-4903-8a1f-171c98150810"},"vehicle_type_id":"4","last_reported":1760821650,"current_range_meters":16400,"station_id":"cpo36qri1sfpv3e86is0","pricing_plan_id":"cebpf4jnsgd1na2vs0mg"},{"bike_id":"ac9195b1-7ec5-4f53-8dcd-053a42b83109","system_id":"levelo_inurba_marseille","lat":43.29257,"lon":5.38444,"is_reserved":false,"is_disabled":false,"rental_uris":{"android":"levelo://app?vid=ac9195b1-7ec5-4f53-8dcd-053a42b83109","ios":"levelo://app?vid=ac9195b1-7ec5-4f53-8dcd-053a42b83109"},"vehicle_type_id":"4","last_reported":1760821650,"current_range_meters":16400,"station_id":"ce4bh692rcd13ifvqea0","pricing_plan_id":"cebpf4jnsgd1na2vs0mg"},{"bike_id":"5b3e47a2-b2b0-4b10-bee5-32b988a493ec","system_id":"levelo_inurba_marseille","lat":43.31369,"lon":5.38482,"is_reserved":false,"is_disabled":false,"rental_uris":{"android":"levelo://app?vid=5b3e47a2-b2b0-4b10-bee5-32b988a493ec","ios":"levelo://app?vid=5b3e47a2-b2b0-4b10-bee5-32b988a493ec"},"vehicle_type_id":"4","last_reported":1760821650,"current_range_meters":16400,"station_id":"ce4bgt92rcd13ifvqcf0","pricing_plan_id":"cebpf4jnsgd1na2vs0mg"},{"bike_id":"b9f4c452-f1a0-4b31-854c-2325a5b73556","system_id":"levelo_inurba_marseille","lat":43.21455,"lon":5.34309,"is_reserved":false,"is_disabled":false,"rental_uris":{"android":"levelo://app?vid=b9f4c452-f1a0-4b31-854c-2325a5b73556","ios":"levelo://app?vid=b9f4c452-f1a0-4b31-854c-2325a5b73556"},"vehicle_type_id":"4","last_reported":1760821650,"current_range_meters":16400,"station_id":"","pricing_plan_id":"cebpf4jnsgd1na2vs0mg"},{"bike_id":"01054a47-5995-4665-9576-c143be630707","system_id":"levelo_inurba_marseille","lat":43.29528,"lon":5.3855,"is_reserved":false,"is_disabled":false,"rental_uris":{"android":"levelo://app?vid=01054a47-5995-4665-9576-c143be630707","ios":"levelo://app?vid=01054a47-5995-4665-9576-c143be630707"},"vehicle_type_id":"4","last_reported":1760821650,"current_range_meters":16800,"station_id":"ce4bgih2rcd13ifvqba0","pricing_plan_id":"cebpf4jnsgd1na2vs0mg"},{"bike_id":"8f6c99a9-2111-4ea5-ba4d-4bb0a3b06aa1","system_id":"levelo_inurba_marseille","lat":43.29813,"lon":5.4404,"is_reserved":false,"is_disabled":false,"rental_uris":{"android":"levelo://app?vid=8f6c99a9-2111-4ea5-ba4d-4bb0a3b06aa1","ios":"levelo://app?vid=8f6c99a9-2111-4ea5-ba4d-4bb0a3b06aa1"},"vehicle_type_id":"4","last_reported":1760821650,"current_range_meters":16800,"station_id":"st_d3jp68qikq2c7381ktn0","pricing_plan_id":"cebpf4jnsgd1na2vs0mg"},{"bike_id":"7fd36eea-805d-4dce-89b5-46f277eaf158","system_id":"levelo_inurba_marseille","lat":43.305097,"lon":5.366695,"is_reserved":false,"is_disabled":false,"rental_uris":{"android":"levelo://app?vid=7fd36eea-805d-4dce-89b5-46f277eaf158","ios":"levelo://app?vid=7fd36eea-805d-4dce-89b5-46f277eaf158"},"vehicle_type_id":"4","last_reported":1760821650,"current_range_meters":16800,"station_id":"","pricing_plan_id":"cebpf4jnsgd1na2vs0mg"},{"bike_id":"3f9922fa-5fa2-4bb2-b6fe-411d28b8df2c","system_id":"levelo_inurba_marseille","lat":43.284529,"lon":5.381462,"is_reserved":false,"is_disabled":false,"rental_uris":{"android":"levelo://app?vid=3f9922fa-5fa2-4bb2-b6fe-411d28b8df2c","ios":"levelo://app?vid=3f9922fa-5fa2-4bb2-b6fe-411d28b8df2c"},"vehicle_type_id":"4","last_reported":1760821650,"current_range_meters":16800,"station_id":"","pricing_plan_id":"cebpf4jnsgd1na2vs0mg"},{"bike_id":"86ce52f8-f590-4694-90e1-216ddc477b29","system_id":"levelo_inurba_marseille","lat":43.30968,"lon":5.3812,"is_reserved":false,"is_disabled":false,"rental_uris":{"android":"levelo://app?vid=86ce52f8-f590-4694-90e1-216ddc477b29","ios":"levelo://app?vid=86ce52f8-f590-4694-90e1-216ddc477b29"},"vehicle_type_id":"4","last_reported":1760821650,"current_range_meters":16800,"station_id":"","pricing_plan_id":"cebpf4jnsgd1na2vs0mg"},{"bike_id":"c2109d25-d4ee-4a1f-897b-a03e90535513","system_id":"levelo_inurba_marseille","lat":43.28533,"lon":5.44111,"is_reserved":false,"is_disabled":false,"rental_uris":{"android":"levelo://app?vid=c2109d25-d4ee-4a1f-897b-a03e90535513","ios":"levelo://app?vid=c2109d25-d4ee-4a1f-897b-a03e90535513"},"vehicle_type_id":"4","last_reported":1760821650,"current_range_meters":16800,"station_id":"st_d3j3df2ikq2c7380ej80","pricing_plan_id":"cebpf4jnsgd1na2vs0mg"},{"bike_id":"4f7ab773-23c6-4468-b9e6-e35c7187d6b5","system_id":"levelo_inurba_marseille","lat":43.27994,"lon":5.41663,"is_reserved":false,"is_disabled":false,"rental_uris":{"android":"levelo://app?vid=4f7ab773-23c6-4468-b9e6-e35c7187d6b5","ios":"levelo://app?vid=4f7ab773-23c6-4468-b9e6-e35c7187d6b5"},"vehicle_type_id":"4","last_reported":1760821650,"current_range_meters":16800,"station_id":"ce4bho12rcd13ifvqh1g","pricing_plan_id":"cebpf4jnsgd1na2vs0mg"},{"bike_id":"0f787efd-37ca-4060-a03d-15d3c3ce389f","system_id":"levelo_inurba_marseille","lat":43.299987,"lon":5.373557,"is_reserved":false,"is_disabled":false,"rental_uris":{"android":"levelo://app?vid=0f787efd-37ca-4060-a03d-15d3c3ce389f","ios":"levelo://app?vid=0f787efd-37ca-4060-a03d-15d3c3ce389f"},"vehicle_type_id":"4","last_reported":1760821650,"current_range_meters":16800,"station_id":"","pricing_plan_id":"cebpf4jnsgd1na2vs0mg"},{"bike_id":"7a8ac50b-c3a4-490a-8f96-9c005f89ed5d","system_id":"levelo_inurba_marseille","lat":43.26521,"lon":5.39049,"is_reserved":false,"is_disabled":false,"rental_uris":{"android":"levelo://app?vid=7a8ac50b-c3a4-490a-8f96-9c005f89ed5d","ios":"levelo://app?vid=7a8ac50b-c3a4-490a-8f96-9c005f89ed5d"},"vehicle_type_id":"4","last_reported":1760821650,"current_range_meters":17200,"station_id":"","pricing_plan_id":"cebpf4jnsgd1na2vs0mg"},{"bike_id":"7b4102bf-aba1-447f-93de-ffef7042242e","system_id":"levelo_inurba_marseille","lat":43.27753,"lon":5.37572,"is_reserved":false,"is_disabled":false,"rental_uris":{"android":"levelo://app?vid=7b4102bf-aba1-447f-93de-ffef7042242e","ios":"levelo://app?vid=7b4102bf-aba1-447f-93de-ffef7042242e"},"vehicle_type_id":"4","last_reported":1760821650,"current_range_meters":17200,"station_id":"","pricing_plan_id":"cebpf4jnsgd1na2vs0mg"},{"bike_id":"5b9d48e6-9daa-4daf-8c71-8cb1033fcbf7","system_id":"levelo_inurba_marseille","lat":43.26923,"lon":5.40278,"is_reserved":false,"is_disabled":false,"rental_uris":{"android":"levelo://app?vid=5b9d48e6-9daa-4daf-8c71-8cb1033fcbf7","ios":"levelo://app?vid=5b9d48e6-9daa-4daf-8c71-8cb1033fcbf7"},"vehicle_type_id":"4","last_reported":1760821650,"current_range_meters":17200,"station_id":"cjm6bp8fraef2m0cb0m0","pricing_plan_id":"cebpf4jnsgd1na2vs0mg"},{"bike_id":"b3f8596e-5417-405b-a516-818e0361743f","system_id":"levelo_inurba_marseille","lat":43.29597,"lon":5.38081,"is_reserved":false,"is_disabled":false,"rental_uris":{"android":"levelo://app?vid=b3f8596e-5417-405b-a516-818e0361743f","ios":"levelo://app?vid=b3f8596e-5417-405b-a516-818e0361743f"},"vehicle_type_id":"4","last_reported":1760821650,"current_range_meters":17200,"station_id":"ce4bgl12rcd13ifvqbo0","pricing_plan_id":"cebpf4jnsgd1na2vs0mg"},{"bike_id":"fbe586dc-ebc7-45f2-b699-4812fb9ca15d","system_id":"levelo_inurba_marseille","lat":43.25502,"lon":5.37619,"is_reserved":false,"is_disabled":true,"rental_uris":{"android":"levelo://app?vid=fbe586dc-ebc7-45f2-b699-4812fb9ca15d","ios":"levelo://app?vid=fbe586dc-ebc7-45f2-b699-4812fb9ca15d"},"vehicle_type_id":"4","last_reported":1760821650,"current_range_meters":17200,"station_id":"ce4bhh12rcd13ifvqff0","pricing_plan_id":"cebpf4jnsgd1na2vs0mg"},{"bike_id":"981b4a31-6e85-4557-ace1-21006cc4f3f6","system_id":"levelo_inurba_marseille","lat":43.283542,"lon":5.380952,"is_reserved":false,"is_disabled":false,"rental_uris":{"android":"levelo://app?vid=981b4a31-6e85-4557-ace1-21006cc4f3f6","ios":"levelo://app?vid=981b4a31-6e85-4557-ace1-21006cc4f3f6"},"vehicle_type_id":"4","last_reported":1760821650,"current_range_meters":17200,"station_id":"ce4bh412rcd13ifvqdr0","pricing_plan_id":"cebpf4jnsgd1na2vs0mg"},{"bike_id":"4468f189-1e72-4e0b-baf4-97f5ef34b713","system_id":"levelo_inurba_marseille","lat":43.29878,"lon":5.39719,"is_reserved":false,"is_disabled":false,"rental_uris":{"android":"levelo://app?vid=4468f189-1e72-4e0b-baf4-97f5ef34b713","ios":"levelo://app?vid=4468f189-1e72-4e0b-baf4-97f5ef34b713"},"vehicle_type_id":"4","last_reported":1760821650,"current_range_meters":17200,"station_id":"ce4bh0h2rcd13ifvqd50","pricing_plan_id":"cebpf4jnsgd1na2vs0mg"},{"bike_id":"01992bb0-3e49-49d7-87ea-4922ce20cd93","system_id":"levelo_inurba_marseille","lat":43.29539,"lon":5.38529,"is_reserved":false,"is_disabled":false,"rental_uris":{"android":"levelo://app?vid=01992bb0-3e49-49d7-87ea-4922ce20cd93","ios":"levelo://app?vid=01992bb0-3e49-49d7-87ea-4922ce20cd93"},"vehicle_type_id":"4","last_reported":1760821650,"current_range_meters":17200,"station_id":"ce4bgih2rcd13ifvqba0","pricing_plan_id":"cebpf4jnsgd1na2vs0mg"},{"bike_id":"8f9e6b8e-63ee-477b-ad38-26fea8a21d24","system_id":"levelo_inurba_marseille","lat":43.295929,"lon":5.381004,"is_reserved":false,"is_disabled":false,"rental_uris":{"android":"levelo://app?vid=8f9e6b8e-63ee-477b-ad38-26fea8a21d24","ios":"levelo://app?vid=8f9e6b8e-63ee-477b-ad38-26fea8a21d24"},"vehicle_type_id":"4","last_reported":1760821650,"current_range_meters":17200,"station_id":"ce4bgl12rcd13ifvqbo0","pricing_plan_id":"cebpf4jnsgd1na2vs0mg"},{"bike_id":"9ef55a12-0368-4b91-a372-aa4bc05cd8f3","system_id":"levelo_inurba_marseille","lat":43.26554,"lon":5.372694,"is_reserved":false,"is_disabled":false,"rental_uris":{"android":"levelo://app?vid=9ef55a12-0368-4b91-a372-aa4bc05cd8f3","ios":"levelo://app?vid=9ef55a12-0368-4b91-a372-aa4bc05cd8f3"},"vehicle_type_id":"4","last_reported":1760821650,"current_range_meters":17200,"station_id":"ce4bhg12rcd13ifvqf70","pricing_plan_id":"cebpf4jnsgd1na2vs0mg"},{"bike_id":"e6a7d054-152f-48ef-adea-b2903c04274b","system_id":"levelo_inurba_marseille","lat":43.31072,"lon":5.38347,"is_reserved":false,"is_disabled":false,"rental_uris":{"android":"levelo://app?vid=e6a7d054-152f-48ef-adea-b2903c04274b","ios":"levelo://app?vid=e6a7d054-152f-48ef-adea-b2903c04274b"},"vehicle_type_id":"4","last_reported":1760821650,"current_range_meters":17200,"station_id":"ce4bgv92rcd13ifvqcr0","pricing_plan_id":"cebpf4jnsgd1na2vs0mg"},{"bike_id":"17601987-0e3e-4704-b9ac-fbf958efe6b1","system_id":"levelo_inurba_marseille","lat":43.29271,"lon":5.38434,"is_reserved":false,"is_disabled":false,"rental_uris":{"android":"levelo://app?vid=17601987-0e3e-4704-b9ac-fbf958efe6b1","ios":"levelo://app?vid=17601987-0e3e-4704-b9ac-fbf958efe6b1"},"vehicle_type_id":"4","last_reported":1760821650,"current_range_meters":17600,"station_id":"ce4bh692rcd13ifvqea0","pricing_plan_id":"cebpf4jnsgd1na2vs0mg"},{"bike_id":"2400abaa-0de5-4bcc-b075-d7b71fcc07f4","system_id":"levelo_inurba_marseille","lat":43.295326,"lon":5.385464,"is_reserved":false,"is_disabled":false,"rental_uris":{"android":"levelo://app?vid=2400abaa-0de5-4bcc-b075-d7b71fcc07f4","ios":"levelo://app?vid=2400abaa-0de5-4bcc-b075-d7b71fcc07f4"},"vehicle_type_id":"4","last_reported":1760821650,"current_range_meters":17600,"station_id":"ce4bgih2rcd13ifvqba0","pricing_plan_id":"cebpf4jnsgd1na2vs0mg"},{"bike_id":"281275b0-340b-4d2d-bc29-085f43a86d4d","system_id":"levelo_inurba_marseille","lat":43.27377,"lon":5.36251,"is_reserved":false,"is_disabled":false,"rental_uris":{"android":"levelo://app?vid=281275b0-340b-4d2d-bc29-085f43a86d4d","ios":"levelo://app?vid=281275b0-340b-4d2d-bc29-085f43a86d4d"},"vehicle_type_id":"4","last_reported":1760821650,"current_range_meters":17600,"station_id":"","pricing_plan_id":"cebpf4jnsgd1na2vs0mg"},{"bike_id":"c22e92c8-3fe0-4c56-ab21-210e12f7f0b4","system_id":"levelo_inurba_marseille","lat":43.31946,"lon":5.41524,"is_reserved":false,"is_disabled":false,"rental_uris":{"android":"levelo://app?vid=c22e92c8-3fe0-4c56-ab21-210e12f7f0b4","ios":"levelo://app?vid=c22e92c8-3fe0-4c56-ab21-210e12f7f0b4"},"vehicle_type_id":"4","last_reported":1760821650,"current_range_meters":17600,"station_id":"","pricing_plan_id":"cebpf4jnsgd1na2vs0mg"},{"bike_id":"b4c60d54-869b-4d29-a113-16e72a1e942a","system_id":"levelo_inurba_marseille","lat":43.27333,"lon":5.39073,"is_reserved":false,"is_disabled":false,"rental_uris":{"android":"levelo://app?vid=b4c60d54-869b-4d29-a113-16e72a1e942a","ios":"levelo://app?vid=b4c60d54-869b-4d29-a113-16e72a1e942a"},"vehicle_type_id":"4","last_reported":1760821650,"current_range_meters":17600,"station_id":"","pricing_plan_id":"cebpf4jnsgd1na2vs0mg"},{"bike_id":"3a2e0b7d-36a9-4d2f-8f05-38287a57ec75","system_id":"levelo_inurba_marseille","lat":43.26675,"lon":5.38261,"is_reserved":false,"is_disabled":false,"rental_uris":{"android":"levelo://app?vid=3a2e0b7d-36a9-4d2f-8f05-38287a57ec75","ios":"levelo://app?vid=3a2e0b7d-36a9-4d2f-8f05-38287a57ec75"},"vehicle_type_id":"4","last_reported":1760821650,"current_range_meters":17600,"station_id":"ce4bhg92rcd13ifvqf90","pricing_plan_id":"cebpf4jnsgd1na2vs0mg"},{"bike_id":"9652283e-21f4-4490-ac9e-ffa9429f0005","system_id":"levelo_inurba_marseille","lat":43.29046,"lon":5.40525,"is_reserved":false,"is_disabled":false,"rental_uris":{"android":"levelo://app?vid=9652283e-21f4-4490-ac9e-ffa9429f0005","ios":"levelo://app?vid=9652283e-21f4-4490-ac9e-ffa9429f0005"},"vehicle_type_id":"4","last_reported":1760821650,"current_range_meters":17600,"station_id":"","pricing_plan_id":"cebpf4jnsgd1na2vs0mg"},{"bike_id":"bce98ae8-dfdf-4c26-a4bd-718a9035c2fc","system_id":"levelo_inurba_marseille","lat":43.27947,"lon":5.41039,"is_reserved":false,"is_disabled":false,"rental_uris":{"android":"levelo://app?vid=bce98ae8-dfdf-4c26-a4bd-718a9035c2fc","ios":"levelo://app?vid=bce98ae8-dfdf-4c26-a4bd-718a9035c2fc"},"vehicle_type_id":"4","last_reported":1760821650,"current_range_meters":17600,"station_id":"ce4bhnp2rcd13ifvqh0g","pricing_plan_id":"cebpf4jnsgd1na2vs0mg"},{"bike_id":"f88329a3-2574-4585-8472-d2ab176b0327","system_id":"levelo_inurba_marseille","lat":43.31363,"lon":5.38491,"is_reserved":false,"is_disabled":false,"rental_uris":{"android":"levelo://app?vid=f88329a3-2574-4585-8472-d2ab176b0327","ios":"levelo://app?vid=f88329a3-2574-4585-8472-d2ab176b0327"},"vehicle_type_id":"4","last_reported":1760821650,"current_range_meters":17600,"station_id":"ce4bgt92rcd13ifvqcf0","pricing_plan_id":"cebpf4jnsgd1na2vs0mg"},{"bike_id":"3178cb75-9998-4500-a224-6bc42c1d29d5","system_id":"levelo_inurba_marseille","lat":43.286963,"lon":5.399811,"is_reserved":false,"is_disabled":false,"rental_uris":{"android":"levelo://app?vid=3178cb75-9998-4500-a224-6bc42c1d29d5","ios":"levelo://app?vid=3178cb75-9998-4500-a224-6bc42c1d29d5"},"vehicle_type_id":"4","last_reported":1760821650,"current_range_meters":17600,"station_id":"ce4bho92rcd13ifvqh3g","pricing_plan_id":"cebpf4jnsgd1na2vs0mg"},{"bike_id":"bd42553b-9a7c-4846-bf4c-8e10df9973c1","system_id":"levelo_inurba_marseille","lat":43.29269,"lon":5.38429,"is_reserved":false,"is_disabled":false,"rental_uris":{"android":"levelo://app?vid=bd42553b-9a7c-4846-bf4c-8e10df9973c1","ios":"levelo://app?vid=bd42553b-9a7c-4846-bf4c-8e10df9973c1"},"vehicle_type_id":"4","last_reported":1760821650,"current_range_meters":17600,"station_id":"ce4bh692rcd13ifvqea0","pricing_plan_id":"cebpf4jnsgd1na2vs0mg"},{"bike_id":"d1668fd5-d05d-42a9-b5d1-4388db8ac6a3","system_id":"levelo_inurba_marseille","lat":43.31764,"lon":5.39029,"is_reserved":false,"is_disabled":false,"rental_uris":{"android":"levelo://app?vid=d1668fd5-d05d-42a9-b5d1-4388db8ac6a3","ios":"levelo://app?vid=d1668fd5-d05d-42a9-b5d1-4388db8ac6a3"},"vehicle_type_id":"4","last_reported":1760821650,"current_range_meters":17600,"station_id":"ce4bhqp2rcd13ifvqhng","pricing_plan_id":"cebpf4jnsgd1na2vs0mg"},{"bike_id":"aa573aee-8605-4472-b7a5-d4179fc88342","system_id":"levelo_inurba_marseille","lat":43.2729,"lon":5.39013,"is_reserved":false,"is_disabled":false,"rental_uris":{"android":"levelo://app?vid=aa573aee-8605-4472-b7a5-d4179fc88342","ios":"levelo://app?vid=aa573aee-8605-4472-b7a5-d4179fc88342"},"vehicle_type_id":"4","last_reported":1760821650,"current_range_meters":18000,"station_id":"","pricing_plan_id":"cebpf4jnsgd1na2vs0mg"},{"bike_id":"bf40278b-4bc5-4d5b-be65-c18872b0fe60","system_id":"levelo_inurba_marseille","lat":43.21194,"lon":5.35084,"is_reserved":false,"is_disabled":false,"rental_uris":{"android":"levelo://app?vid=bf40278b-4bc5-4d5b-be65-c18872b0fe60","ios":"levelo://app?vid=bf40278b-4bc5-4d5b-be65-c18872b0fe60"},"vehicle_type_id":"4","last_reported":1760821650,"current_range_meters":18000,"station_id":"st_cvj6sg6p6f1abm77japg","pricing_plan_id":"cebpf4jnsgd1na2vs0mg"},{"bike_id":"4bbd6801-e86f-4670-a08c-5a08e1dabb92","system_id":"levelo_inurba_marseille","lat":43.292509,"lon":5.38401,"is_reserved":false,"is_disabled":false,"rental_uris":{"android":"levelo://app?vid=4bbd6801-e86f-4670-a08c-5a08e1dabb92","ios":"levelo://app?vid=4bbd6801-e86f-4670-a08c-5a08e1dabb92"},"vehicle_type_id":"4","last_reported":1760821650,"current_range_meters":18000,"station_id":"ce4bh692rcd13ifvqea0","pricing_plan_id":"cebpf4jnsgd1na2vs0mg"},{"bike_id":"70a67bd0-2619-4344-aba9-09ee31a596df","system_id":"levelo_inurba_marseille","lat":43.30295,"lon":5.36894,"is_reserved":false,"is_disabled":false,"rental_uris":{"android":"levelo://app?vid=70a67bd0-2619-4344-aba9-09ee31a596df","ios":"levelo://app?vid=70a67bd0-2619-4344-aba9-09ee31a596df"},"vehicle_type_id":"4","last_reported":1760821650,"current_range_meters":18000,"station_id":"ce4bgqh2rcd13ifvqc5g","pricing_plan_id":"cebpf4jnsgd1na2vs0mg"},{"bike_id":"aa2c52d2-e7e6-47b0-a9fa-299a85dfe360","system_id":"levelo_inurba_marseille","lat":43.29531,"lon":5.38537,"is_reserved":false,"is_disabled":false,"rental_uris":{"android":"levelo://app?vid=aa2c52d2-e7e6-47b0-a9fa-299a85dfe360","ios":"levelo://app?vid=aa2c52d2-e7e6-47b0-a9fa-299a85dfe360"},