{"last_updated":1741169406,"ttl":60,"version":"2.2","data":{"bikes":[{"bike_id":"511d8bfb-54fb-4e3b-8b58-cd0179111dc0","system_id":"levelo_inurba_marseille","lat":43.25307,"lon":5.40316,"is_reserved":false,"is_disabled":true,"rental_uris":{"android":"levelo://app?vid=511d8bfb-54fb-4e3b-8b58-cd0179111dc0","ios":"levelo://app?vid=511d8bfb-54fb-4e3b-8b58-cd0179111dc0"},"vehicle_type_id":"4","last_reported":1741169406,"current_range_meters":0,"station_id":"","pricing_plan_id":"cebpf4jnsgd1na2vs0mg"},{"bike_id":"835a4e87-2391-43ce-b287-aaceb84cb8af","system_id":"levelo_inurba_marseille","lat":43.27732,"lon":5.38887,"is_reserved":false,"is_disabled":true,"rental_uris":{"android":"levelo://app?vid=835a4e87-2391-43ce-b287-aaceb84cb8af","ios":"levelo://app?vid=835a4e87-2391-43ce-b287-aaceb84cb8af"},"vehicle_type_id":"4","last_reported":1741169406,"current_range_meters":0,"station_id":"","pricing_plan_id":"cebpf4jnsgd1na2vs0mg"},{"bike_id":"c13f884d-6fd8-4a40-a8e5-ae56bf400a54","system_id":"levelo_inurba_marseille","lat":43.26879,"lon":5.39328,"is_reserved":false,"is_disabled":true,"rental_uris":{"android":"levelo://app?vid=c13f884d-6fd8-4a40-a8e5-ae56bf400a54","ios":"levelo://app?vid=c13f884d-6fd8-4a40-a8e5-ae56bf400a54"},"vehicle_type_id":"4","last_reported":1741169406,"current_range_meters":0,"station_id":"","pricing_plan_id":"cebpf4jnsgd1na2vs0mg"},{"bike_id":"4c5ef6e0-6708-42a5-8222-440da291eecf","system_id":"levelo_inurba_marseille","lat":43.29617,"lon":5.37735,"is_reserved":false,"is_disabled":true,"rental_uris":{"android":"levelo://app?vid=4c5ef6e0-6708-42a5-8222-440da291eecf","ios":"levelo://app?vid=4c5ef6e0-6708-42a5-8222-440da291eecf"},"vehicle_type_id":"4","last_reported":1741169406,"current_range_meters":0,"station_id":"ce4bgi92rcd13ifvqb90","pricing_plan_id":"cebpf4jnsgd1na2vs0mg"},{"bike_id":"2a13763c-cee6-4301-a608-517ddfa79dac","system_id":"levelo_inurba_marseille","lat":43.30958,"lon":5.39029,"is_reserved":false,"is_disabled":true,"rental_uris":{"android":"levelo://app?vid=2a13763c-cee6-4301-a608-517ddfa79dac","ios":"levelo://app?vid=2a13763c-cee6-4301-a608-517ddfa79dac"},"vehicle_type_id":"4","last_reported":1741169406,"current_range_meters":0,"station_id":"ce4bgup2rcd13ifvqco0","pricing_plan_id":"cebpf4jnsgd1na2vs0mg"},{"bike_id":"ded7b4ea-79dd-431e-a272-aac580f1a459","system_id":"levelo_inurba_marseille","lat":43.31764,"lon":5.40405,"is_reserved":false,"is_disabled":true,"rental_uris":{"android":"levelo://app?vid=ded7b4ea-79dd-431e-a272-aac580f1a459","ios":"levelo://app?vid=ded7b4ea-79dd-431e-a272-aac580f1a459"},"vehicle_type_id":"4","last_reported":1741169406,"current_range_meters":0,"station_id":"ce4bh012rcd13ifvqd00","pricing_plan_id":"cebpf4jnsgd1na2vs0mg"},{"bike_id":"95c3570d-f46a-419d-b05d-35f1b815ef0f","system_id":"levelo_inurba_marseille","lat":43.28398,"lon":5.37536,"is_reserved":false,"is_disabled":true,"rental_uris":{"android":"levelo://app?vid=95c3570d-f46a-419d-b05d-35f1b815ef0f","ios":"levelo://app?vid=95c3570d-f46a-419d-b05d-35f1b815ef0f"},"vehicle_type_id":"4","last_reported":1741169406,"current_range_meters":0,"station_id":"ce4bh412rcd13ifvqds0","pricing_plan_id":"cebpf4jnsgd1na2vs0mg"},{"bike_id":"ee91bb7f-3549-448a-a02e-26b681983d13","system_id":"levelo_inurba_marseille","lat":43.29256,"lon":5.38447,"is_reserved":false,"is_disabled":true,"rental_uris":{"android":"levelo://app?vid=ee91bb7f-3549-448a-a02e-26b681983d13","ios":"levelo://app?vid=ee91bb7f-3549-448a-a02e-26b681983d13"},"vehicle_type_id":"4","last_reported":1741169406,"current_range_meters":0,"station_id":"ce4bh692rcd13ifvqea0","pricing_plan_id":"cebpf4jnsgd1na2vs0mg"},{"bike_id":"77e2384d-b561-4506-a153-6a0942910900","system_id":"levelo_inurba_marseille","lat":43.27382,"lon":5.36249,"is_reserved":false,"is_disabled":true,"rental_uris":{"android":"levelo://app?vid=77e2384d-b561-4506-a153-6a0942910900","ios":"levelo://app?vid=77e2384d-b561-4506-a153-6a0942910900"},"vehicle_type_id":"4","last_reported":1741169406,"current_range_meters":0,"station_id":"ce4bhbh2rcd13ifvqeo0","pricing_plan_id":"cebpf4jnsgd1na2vs0mg"},{"bike_id":"e34594ce-fa30-4d8c-bc2a-19c0243043c3","system_id":"levelo_inurba_marseille","lat":43.26677,"lon":5.38264,"is_reserved":false,"is_disabled":true,"rental_uris":{"android":"levelo://app?vid=e34594ce-fa30-4d8c-bc2a-19c0243043c3","ios":"levelo://app?vid=e34594ce-fa30-4d8c-bc2a-19c0243043c3"},"vehicle_type_id":"4","last_reported":1741169406,"current_range_meters":0,"station_id":"ce4bhg92rcd13ifvqf90","pricing_plan_id":"cebpf4jnsgd1na2vs0mg"},{"bike_id":"f026214c-7f67-42c5-95b2-32adbf396b19","system_id":"levelo_inurba_marseille","lat":43.26209,"lon":5.37448,"is_reserved":false,"is_disabled":true,"rental_uris":{"android":"levelo://app?vid=f026214c-7f67-42c5-95b2-32adbf396b19","ios":"levelo://app?vid=f026214c-7f67-42c5-95b2-32adbf396b19"},"vehicle_type_id":"4","last_reported":1741169406,"current_range_meters":0,"station_id":"ce4bhgp2rcd13ifvqfc0","pricing_plan_id":"cebpf4jnsgd1na2vs0mg"},{"bike_id":"3b592065-43a4-406e-9fdb-ffe4c42b5c76","system_id":"levelo_inurba_marseille","lat":43.26229,"lon":5.4046,"is_reserved":false,"is_disabled":true,"rental_uris":{"android":"levelo://app?vid=3b592065-43a4-406e-9fdb-ffe4c42b5c76","ios":"levelo://app?vid=3b592065-43a4-406e-9fdb-ffe4c42b5c76"},"vehicle_type_id":"4","last_reported":1741169406,"current_range_meters":0,"station_id":"ce4bhmh2rcd13ifvqgmg","pricing_plan_id":"cebpf4jnsgd1na2vs0mg"},{"bike_id":"7394d579-12af-4a2b-be49-f817598b4755","system_id":"levelo_inurba_marseille","lat":43.23153,"lon":5.43701,"is_reserved":false,"is_disabled":true,"rental_uris":{"android":"levelo://app?vid=7394d579-12af-4a2b-be49-f817598b4755","ios":"levelo://app?vid=7394d579-12af-4a2b-be49-f817598b4755"},"vehicle_type_id":"4","last_reported":1741169406,"current_range_meters":0,"station_id":"ce4bhmp2rcd13ifvqgog","pricing_plan_id":"cebpf4jnsgd1na2vs0mg"},{"bike_id":"4491335b-a712-4f70-b640-d19feeeac378","system_id":"levelo_inurba_marseille","lat":43.26575,"lon":5.39029,"is_reserved":false,"is_disabled":true,"rental_uris":{"android":"levelo://app?vid=4491335b-a712-4f70-b640-d19feeeac378","ios":"levelo://app?vid=4491335b-a712-4f70-b640-d19feeeac378"},"vehicle_type_id":"4","last_reported":1741169406,"current_range_meters":400,"station_id":"ce4bhe12rcd13ifvqf30","pricing_plan_id":"cebpf4jnsgd1na2vs0mg"},{"bike_id":"a8f83be2-1204-44f1-9486-14906e4d66c0","system_id":"levelo_inurba_marseille","lat":43.31322,"lon":5.39702,"is_reserved":false,"is_disabled":true,"rental_uris":{"android":"levelo://app?vid=a8f83be2-1204-44f1-9486-14906e4d66c0","ios":"levelo://app?vid=a8f83be2-1204-44f1-9486-14906e4d66c0"},"vehicle_type_id":"4","last_reported":1741169406,"current_range_meters":800,"station_id":"ce4bgvp2rcd13ifvqcu0","pricing_plan_id":"cebpf4jnsgd1na2vs0mg"},{"bike_id":"efaad284-d633-4d5e-92e7-a0e1b846d921","system_id":"levelo_inurba_marseille","lat":43.26945,"lon":5.38664,"is_reserved":false,"is_disabled":true,"rental_uris":{"android":"levelo://app?vid=efaad284-d633-4d5e-92e7-a0e1b846d921","ios":"levelo://app?vid=efaad284-d633-4d5e-92e7-a0e1b846d921"},"vehicle_type_id":"4","last_reported":1741169406,"current_range_meters":800,"station_id":"ce4bhh92rcd13ifvqfh0","pricing_plan_id":"cebpf4jnsgd1na2vs0mg"},{"bike_id":"6c84e1f9-12fa-470f-a60a-952ad29b2d5e","system_id":"levelo_inurba_marseille","lat":43.32553,"lon":5.41473,"is_reserved":false,"is_disabled":true,"rental_uris":{"android":"levelo://app?vid=6c84e1f9-12fa-470f-a60a-952ad29b2d5e","ios":"levelo://app?vid=6c84e1f9-12fa-470f-a60a-952ad29b2d5e"},"vehicle_type_id":"4","last_reported":1741169406,"current_range_meters":800,"station_id":"ce4bhq12rcd13ifvqhhg","pricing_plan_id":"cebpf4jnsgd1na2vs0mg"},{"bike_id":"c5e8cd2d-bc8c-432b-b100-b523341f5479","system_id":"levelo_inurba_marseille","lat":43.30869,"lon":5.38557,"is_reserved":false,"is_disabled":true,"rental_uris":{"android":"levelo://app?vid=c5e8cd2d-bc8c-432b-b100-b523341f5479","ios":"levelo://app?vid=c5e8cd2d-bc8c-432b-b100-b523341f5479"},"vehicle_type_id":"4","last_reported":1741169406,"current_range_meters":1200,"station_id":"","pricing_plan_id":"cebpf4jnsgd1na2vs0mg"},{"bike_id":"e7ec1ac1-2323-47bd-a2b5-7cd3afb282cf","system_id":"levelo_inurba_marseille","lat":43.269333,"lon":5.366704,"is_reserved":false,"is_disabled":true,"rental_uris":{"android":"levelo://app?vid=e7ec1ac1-2323-47bd-a2b5-7cd3afb282cf","ios":"levelo://app?vid=e7ec1ac1-2323-47bd-a2b5-7cd3afb282cf"},"vehicle_type_id":"4","last_reported":1741169406,"current_range_meters":1200,"station_id":"","pricing_plan_id":"cebpf4jnsgd1na2vs0mg"},{"bike_id":"e432fcbc-da49-4827-bc18-4179d60243bb","system_id":"levelo_inurba_marseille","lat":43.31175,"lon":5.36896,"is_reserved":false,"is_disabled":true,"rental_uris":{"android":"levelo://app?vid=e432fcbc-da49-4827-bc18-4179d60243bb","ios":"levelo://app?vid=e432fcbc-da49-4827-bc18-4179d60243bb"},"vehicle_type_id":"4","last_reported":1741169406,"current_range_meters":1200,"station_id":"ce4bgl92rcd13ifvqbq0","pricing_plan_id":"cebpf4jnsgd1na2vs0mg"},{"bike_id":"87d43b5a-522b-4ebc-96cf-6bd4dd06d277","system_id":"levelo_inurba_marseille","lat":43.2656,"lon":5.39015,"is_reserved":false,"is_disabled":true,"rental_uris":{"android":"levelo://app?vid=87d43b5a-522b-4ebc-96cf-6bd4dd06d277","ios":"levelo://app?vid=87d43b5a-522b-4ebc-96cf-6bd4dd06d277"},"vehicle_type_id":"4","last_reported":1741169406,"current_range_meters":1200,"station_id":"ce4bhe12rcd13ifvqf30","pricing_plan_id":"cebpf4jnsgd1na2vs0mg"},{"bike_id":"4978ec85-92e2-404a-9382-809079d3bf59","system_id":"levelo_inurba_marseille","lat":43.30951,"lon":5.39042,"is_reserved":false,"is_disabled":true,"rental_uris":{"android":"levelo://app?vid=4978ec85-92e2-404a-9382-809079d3bf59","ios":"levelo://app?vid=4978ec85-92e2-404a-9382-809079d3bf59"},"vehicle_type_id":"4","last_reported":1741169406,"current_range_meters":1600,"station_id":"ce4bgup2rcd13ifvqco0","pricing_plan_id":"cebpf4jnsgd1na2vs0mg"},{"bike_id":"771552a7-ab8d-491e-9bd8-ee533f6ca525","system_id":"levelo_inurba_marseille","lat":43.23146,"lon":5.43716,"is_reserved":false,"is_disabled":true,"rental_uris":{"android":"levelo://app?vid=771552a7-ab8d-491e-9bd8-ee533f6ca525","ios":"levelo://app?vid=771552a7-ab8d-491e-9bd8-ee533f6ca525"},"vehicle_type_id":"4","last_reported":1741169406,"current_range_meters":1600,"station_id":"ce4bhmp2rcd13ifvqgog","pricing_plan_id":"cebpf4jnsgd1na2vs0mg"},{"bike_id":"f696188d-3b32-43da-b39d-a04eff2ac177","system_id":"levelo_inurba_marseille","lat":43.23148,"lon":5.43728,"is_reserved":false,"is_disabled":true,"rental_uris":{"android":"levelo://app?vid=f696188d-3b32-43da-b39d-a04eff2ac177","ios":"levelo://app?vid=f696188d-3b32-43da-b39d-a04eff2ac177"},"vehicle_type_id":"4","last_reported":1741169406,"current_range_meters":1600,"station_id":"ce4bhmp2rcd13ifvqgog","pricing_plan_id":"cebpf4jnsgd1na2vs0mg"},{"bike_id":"bb5f7fc6-39a7-43e1-9bdd-fb2f3b796dd7","system_id":"levelo_inurba_marseille","lat":43.29797,"lon":5.38102,"is_reserved":false,"is_disabled":false,"rental_uris":{"android":"levelo://app?vid=bb5f7fc6-39a7-43e1-9bdd-fb2f3b796dd7","ios":"levelo://app?vid=bb5f7fc6-39a7-43e1-9bdd-fb2f3b796dd7"},"vehicle_type_id":"4","last_reported":1741169406,"current_range_meters":3200,"station_id":"ce4bgip2rcd13ifvqbb0","pricing_plan_id":"cebpf4jnsgd1na2vs0mg"},{"bike_id":"e307e0fd-e80f-44bc-af98-56c67a38fd36","system_id":"levelo_inurba_marseille","lat":43.29578,"lon":5.36746,"is_reserved":false,"is_disabled":false,"rental_uris":{"android":"levelo://app?vid=e307e0fd-e80f-44bc-af98-56c67a38fd36","ios":"levelo://app?vid=e307e0fd-e80f-44bc-af98-56c67a38fd36"},"vehicle_type_id":"4","last_reported":1741169406,"current_range_meters":3600,"station_id":"ce4bgph2rcd13ifvqc2g","pricing_plan_id":"cebpf4jnsgd1na2vs0mg"},{"bike_id":"f563e8d8-7714-425c-a36f-a02e2ea50b41","system_id":"levelo_inurba_marseille","lat":43.26942,"lon":5.38669,"is_reserved":false,"is_disabled":false,"rental_uris":{"android":"levelo://app?vid=f563e8d8-7714-425c-a36f-a02e2ea50b41","ios":"levelo://app?vid=f563e8d8-7714-425c-a36f-a02e2ea50b41"},"vehicle_type_id":"4","last_reported":1741169406,"current_range_meters":3600,"station_id":"ce4bhh92rcd13ifvqfh0","pricing_plan_id":"cebpf4jnsgd1na2vs0mg"},{"bike_id":"847e7035-c466-45fb-af31-4ce8e01d0291","system_id":"levelo_inurba_marseille","lat":43.27999,"lon":5.41668,"is_reserved":false,"is_disabled":false,"rental_uris":{"android":"levelo://app?vid=847e7035-c466-45fb-af31-4ce8e01d0291","ios":"levelo://app?vid=847e7035-c466-45fb-af31-4ce8e01d0291"},"vehicle_type_id":"4","last_reported":1741169406,"current_range_meters":3600,"station_id":"ce4bho12rcd13ifvqh1g","pricing_plan_id":"cebpf4jnsgd1na2vs0mg"},{"bike_id":"ca50a195-5ae6-44e2-be31-052e76ec5cfa","system_id":"levelo_inurba_marseille","lat":43.29276,"lon":5.36848,"is_reserved":false,"is_disabled":false,"rental_uris":{"android":"levelo://app?vid=ca50a195-5ae6-44e2-be31-052e76ec5cfa","ios":"levelo://app?vid=ca50a195-5ae6-44e2-be31-052e76ec5cfa"},"vehicle_type_id":"4","last_reported":1741169406,"current_range_meters":4000,"station_id":"ce4bhbp2rcd13ifvqesg","pricing_plan_id":"cebpf4jnsgd1na2vs0mg"},{"bike_id":"5cac15ac-8b59-4b74-8ab7-11447f124a80","system_id":"levelo_inurba_marseille","lat":43.27293,"lon":5.39105,"is_reserved":false,"is_disabled":false,"rental_uris":{"android":"levelo://app?vid=5cac15ac-8b59-4b74-8ab7-11447f124a80","ios":"levelo://app?vid=5cac15ac-8b59-4b74-8ab7-11447f124a80"},"vehicle_type_id":"4","last_reported":1741169406,"current_range_meters":4000,"station_id":"ce4bhgp2rcd13ifvqfe0","pricing_plan_id":"cebpf4jnsgd1na2vs0mg"},{"bike_id":"4023a6fd-b89c-4e19-9502-1f3fc1a085d9","system_id":"levelo_inurba_marseille","lat":43.27319,"lon":5.39071,"is_reserved":false,"is_disabled":false,"rental_uris":{"android":"levelo://app?vid=4023a6fd-b89c-4e19-9502-1f3fc1a085d9","ios":"levelo://app?vid=4023a6fd-b89c-4e19-9502-1f3fc1a085d9"},"vehicle_type_id":"4","last_reported":1741169406,"current_range_meters":4400,"station_id":"ce4bhgp2rcd13ifvqfe0","pricing_plan_id":"cebpf4jnsgd1na2vs0mg"},{"bike_id":"64953142-7637-42b4-b0d1-c449e63f1db7","system_id":"levelo_inurba_marseille","lat":43.29639,"lon":5.36021,"is_reserved":false,"is_disabled":false,"rental_uris":{"android":"levelo://app?vid=64953142-7637-42b4-b0d1-c449e63f1db7","ios":"levelo://app?vid=64953142-7637-42b4-b0d1-c449e63f1db7"},"vehicle_type_id":"4","last_reported":1741169406,"current_range_meters":4800,"station_id":"","pricing_plan_id":"cebpf4jnsgd1na2vs0mg"},{"bike_id":"4870617a-136d-4b04-9a85-78014d75d2e1","system_id":"levelo_inurba_marseille","lat":43.26685,"lon":5.38275,"is_reserved":false,"is_disabled":false,"rental_uris":{"android":"levelo://app?vid=4870617a-136d-4b04-9a85-78014d75d2e1","ios":"levelo://app?vid=4870617a-136d-4b04-9a85-78014d75d2e1"},"vehicle_type_id":"4","last_reported":1741169406,"current_range_meters":4800,"station_id":"ce4bhg92rcd13ifvqf90","pricing_plan_id":"cebpf4jnsgd1na2vs0mg"},{"bike_id":"89721c29-6bac-4f2b-8a58-9e1a16f55fe3","system_id":"levelo_inurba_marseille","lat":43.24688,"lon":5.37699,"is_reserved":false,"is_disabled":false,"rental_uris":{"android":"levelo://app?vid=89721c29-6bac-4f2b-8a58-9e1a16f55fe3","ios":"levelo://app?vid=89721c29-6bac-4f2b-8a58-9e1a16f55fe3"},"vehicle_type_id":"4","last_reported":1741169406,"current_range_meters":5600,"station_id":"","pricing_plan_id":"cebpf4jnsgd1na2vs0mg"},{"bike_id":"c2595706-1edd-435e-9487-c094a955ec40","system_id":"levelo_inurba_marseille","lat":43.31175,"lon":5.36866,"is_reserved":false,"is_disabled":false,"rental_uris":{"android":"levelo://app?vid=c2595706-1edd-435e-9487-c094a955ec40","ios":"levelo://app?vid=c2595706-1edd-435e-9487-c094a955ec40"},"vehicle_type_id":"4","last_reported":1741169406,"current_range_meters":5600,"station_id":"","pricing_plan_id":"cebpf4jnsgd1na2vs0mg"},{"bike_id":"87f1d084-cd37-42c3-97c1-f5a0183d1fc0","system_id":"levelo_inurba_marseille","lat":43.29257,"lon":5.37614,"is_reserved":false,"is_disabled":false,"rental_uris":{"android":"levelo://app?vid=87f1d084-cd37-42c3-97c1-f5a0183d1fc0","ios":"levelo://app?vid=87f1d084-cd37-42c3-97c1-f5a0183d1fc0"},"vehicle_type_id":"4","last_reported":1741169406,"current_range_meters":5600,"station_id":"ce4bgi12rcd13ifvqb80","pricing_plan_id":"cebpf4jnsgd1na2vs0mg"},{"bike_id":"2a727ccc-e7aa-420d-a349-4e24c75381d7","system_id":"levelo_inurba_marseille","lat":43.258991,"lon":5.398947,"is_reserved":false,"is_disabled":false,"rental_uris":{"android":"levelo://app?vid=2a727ccc-e7aa-420d-a349-4e24c75381d7","ios":"levelo://app?vid=2a727ccc-e7aa-420d-a349-4e24c75381d7"},"vehicle_type_id":"4","last_reported":1741169406,"current_range_meters":5600,"station_id":"ce4bhah2rcd13ifvqei0","pricing_plan_id":"cebpf4jnsgd1na2vs0mg"},{"bike_id":"74c65937-894e-4f4f-8f77-bff3b3be6162","system_id":"levelo_inurba_marseille","lat":43.26228,"lon":5.40464,"is_reserved":false,"is_disabled":false,"rental_uris":{"android":"levelo://app?vid=74c65937-894e-4f4f-8f77-bff3b3be6162","ios":"levelo://app?vid=74c65937-894e-4f4f-8f77-bff3b3be6162"},"vehicle_type_id":"4","last_reported":1741169406,"current_range_meters":5600,"station_id":"ce4bhmh2rcd13ifvqgmg","pricing_plan_id":"cebpf4jnsgd1na2vs0mg"},{"bike_id":"1ad783c1-b5f7-423d-a30d-96b2ac6c9cd8","system_id":"levelo_inurba_marseille","lat":43.29375,"lon":5.4004,"is_reserved":false,"is_disabled":false,"rental_uris":{"android":"levelo://app?vid=1ad783c1-b5f7-423d-a30d-96b2ac6c9cd8","ios":"levelo://app?vid=1ad783c1-b5f7-423d-a30d-96b2ac6c9cd8"},"vehicle_type_id":"4","last_reported":1741169406,"current_range_meters":6000,"station_id":"","pricing_plan_id":"cebpf4jnsgd1na2vs0mg"},{"bike_id":"50ebb0a5-c578-4cdc-838f-f55069eb7e1d","system_id":"levelo_inurba_marseille","lat":43.337444,"lon":5.374475,"is_reserved":false,"is_disabled":false,"rental_uris":{"android":"levelo://app?vid=50ebb0a5-c578-4cdc-838f-f55069eb7e1d","ios":"levelo://app?vid=50ebb0a5-c578-4cdc-838f-f55069eb7e1d"},"vehicle_type_id":"4","last_reported":1741169406,"current_range_meters":6000,"station_id":"","pricing_plan_id":"cebpf4jnsgd1na2vs0mg"},{"bike_id":"c55391e5-8d6a-47ab-b510-a79797ee94c5","system_id":"levelo_inurba_marseille","lat":43.29569,"lon":5.37525,"is_reserved":false,"is_disabled":false,"rental_uris":{"android":"levelo://app?vid=c55391e5-8d6a-47ab-b510-a79797ee94c5","ios":"levelo://app?vid=c55391e5-8d6a-47ab-b510-a79797ee94c5"},"vehicle_type_id":"4","last_reported":1741169406,"current_range_meters":6000,"station_id":"ce4bgh92rcd13ifvqb50","pricing_plan_id":"cebpf4jnsgd1na2vs0mg"},{"bike_id":"c683e039-8f59-4d99-8329-25356cbc1e1a","system_id":"levelo_inurba_marseille","lat":43.26559,"lon":5.37289,"is_reserved":false,"is_disabled":false,"rental_uris":{"android":"levelo://app?vid=c683e039-8f59-4d99-8329-25356cbc1e1a","ios":"levelo://app?vid=c683e039-8f59-4d99-8329-25356cbc1e1a"},"vehicle_type_id":"4","last_reported":1741169406,"current_range_meters":6000,"station_id":"ce4bhg12rcd13ifvqf70","pricing_plan_id":"cebpf4jnsgd1na2vs0mg"},{"bike_id":"8a7a2607-988e-4f1a-8b1e-c47cb37473b4","system_id":"levelo_inurba_marseille","lat":43.30904,"lon":5.36872,"is_reserved":false,"is_disabled":false,"rental_uris":{"android":"levelo://app?vid=8a7a2607-988e-4f1a-8b1e-c47cb37473b4","ios":"levelo://app?vid=8a7a2607-988e-4f1a-8b1e-c47cb37473b4"},"vehicle_type_id":"4","last_reported":1741169406,"current_range_meters":6400,"station_id":"ce4bgn92rcd13ifvqbvg","pricing_plan_id":"cebpf4jnsgd1na2vs0mg"},{"bike_id":"3b336de7-f142-49c0-9eca-1aacc9a41df6","system_id":"levelo_inurba_marseille","lat":43.30912,"lon":5.36854,"is_reserved":false,"is_disabled":false,"rental_uris":{"android":"levelo://app?vid=3b336de7-f142-49c0-9eca-1aacc9a41df6","ios":"levelo://app?vid=3b336de7-f142-49c0-9eca-1aacc9a41df6"},"vehicle_type_id":"4","last_reported":1741169406,"current_range_meters":6400,"station_id":"ce4bgn92rcd13ifvqbvg","pricing_plan_id":"cebpf4jnsgd1na2vs0mg"},{"bike_id":"42c0c91e-be4d-4363-8038-e12ba48d3a2a","system_id":"levelo_inurba_marseille","lat":43.27046,"lon":5.40271,"is_reserved":false,"is_disabled":false,"rental_uris":{"android":"levelo://app?vid=42c0c91e-be4d-4363-8038-e12ba48d3a2a","ios":"levelo://app?vid=42c0c91e-be4d-4363-8038-e12ba48d3a2a"},"vehicle_type_id":"4","last_reported":1741169406,"current_range_meters":6400,"station_id":"ce4bhk92rcd13ifvqgc0","pricing_plan_id":"cebpf4jnsgd1na2vs0mg"},{"bike_id":"90637203-948d-4c63-8efc-9933b6919ad6","system_id":"levelo_inurba_marseille","lat":43.31329,"lon":5.36738,"is_reserved":false,"is_disabled":false,"rental_uris":{"android":"levelo://app?vid=90637203-948d-4c63-8efc-9933b6919ad6","ios":"levelo://app?vid=90637203-948d-4c63-8efc-9933b6919ad6"},"vehicle_type_id":"4","last_reported":1741169406,"current_range_meters":6800,"station_id":"ce4bgr92rcd13ifvqc6g","pricing_plan_id":"cebpf4jnsgd1na2vs0mg"},{"bike_id":"2d3b3c09-42a9-4d38-ad3f-30c0062d2ff1","system_id":"levelo_inurba_marseille","lat":43.258189,"lon":5.394433,"is_reserved":false,"is_disabled":false,"rental_uris":{"android":"levelo://app?vid=2d3b3c09-42a9-4d38-ad3f-30c0062d2ff1","ios":"levelo://app?vid=2d3b3c09-42a9-4d38-ad3f-30c0062d2ff1"},"vehicle_type_id":"4","last_reported":1741169406,"current_range_meters":6800,"station_id":"ce4bhip2rcd13ifvqft0","pricing_plan_id":"cebpf4jnsgd1na2vs0mg"},{"bike_id":"8e83f4d3-dd65-4542-8785-b15b9a5e7357","system_id":"levelo_inurba_marseille","lat":43.25936,"lon":5.40914,"is_reserved":false,"is_disabled":false,"rental_uris":{"android":"levelo://app?vid=8e83f4d3-dd65-4542-8785-b15b9a5e7357","ios":"levelo://app?vid=8e83f4d3-dd65-4542-8785-b15b9a5e7357"},"vehicle_type_id":"4","last_reported":1741169406,"current_range_meters":6800,"station_id":"ce4bhm92rcd13ifvqglg","pricing_plan_id":"cebpf4jnsgd1na2vs0mg"},{"bike_id":"997217d4-9110-4f1d-bb92-525e0e2d4061","system_id":"levelo_inurba_marseille","lat":43.23152,"lon":5.43699,"is_reserved":false,"is_disabled":false,"rental_uris":{"android":"levelo://app?vid=997217d4-9110-4f1d-bb92-525e0e2d4061","ios":"levelo://app?vid=997217d4-9110-4f1d-bb92-525e0e2d4061"},"vehicle_type_id":"4","last_reported":1741169406,"current_range_meters":6800,"station_id":"ce4bhmp2rcd13ifvqgog","pricing_plan_id":"cebpf4jnsgd1na2vs0mg"},{"bike_id":"7e63248b-868f-4e6f-9c37-5a73e5f0423a","system_id":"levelo_inurba_marseille","lat":43.30133,"lon":5.38789,"is_reserved":false,"is_disabled":false,"rental_uris":{"android":"levelo://app?vid=7e63248b-868f-4e6f-9c37-5a73e5f0423a","ios":"levelo://app?vid=7e63248b-868f-4e6f-9c37-5a73e5f0423a"},"vehicle_type_id":"4","last_reported":1741169406,"current_range_meters":7200,"station_id":"ce4bghh2rcd13ifvqb60","pricing_plan_id":"cebpf4jnsgd1na2vs0mg"},{"bike_id":"b9f03359-6ec4-42b8-95eb-16479754f0e1","system_id":"levelo_inurba_marseille","lat":43.30904,"lon":5.36865,"is_reserved":false,"is_disabled":false,"rental_uris":{"android":"levelo://app?vid=b9f03359-6ec4-42b8-95eb-16479754f0e1","ios":"levelo://app?vid=b9f03359-6ec4-42b8-95eb-16479754f0e1"},"vehicle_type_id":"4","last_reported":1741169406,"current_range_meters":7200,"station_id":"ce4bgn92rcd13ifvqbvg","pricing_plan_id":"cebpf4jnsgd1na2vs0mg"},{"bike_id":"7e757512-bae9-4ad0-aec5-105ded7bdfd8","system_id":"levelo_inurba_marseille","lat":43.30494,"lon":5.37923,"is_reserved":false,"is_disabled":false,"rental_uris":{"android":"levelo://app?vid=7e757512-bae9-4ad0-aec5-105ded7bdfd8","ios":"levelo://app?vid=7e757512-bae9-4ad0-aec5-105ded7bdfd8"},"vehicle_type_id":"4","last_reported":1741169406,"current_range_meters":7200,"station_id":"ce4bgup2rcd13ifvqcn0","pricing_plan_id":"cebpf4jnsgd1na2vs0mg"},{"bike_id":"00b6801f-5a8f-4166-b167-c45d693b875f","system_id":"levelo_inurba_marseille","lat":43.26945,"lon":5.38655,"is_reserved":false,"is_disabled":false,"rental_uris":{"android":"levelo://app?vid=00b6801f-5a8f-4166-b167-c45d693b875f","ios":"levelo://app?vid=00b6801f-5a8f-4166-b167-c45d693b875f"},"vehicle_type_id":"4","last_reported":1741169406,"current_range_meters":7200,"station_id":"ce4bhh92rcd13ifvqfh0","pricing_plan_id":"cebpf4jnsgd1na2vs0mg"},{"bike_id":"f3f8a075-f2ce-49cf-993f-cd20f2d76af8","system_id":"levelo_inurba_marseille","lat":43.2606,"lon":5.39401,"is_reserved":false,"is_disabled":false,"rental_uris":{"android":"levelo://app?vid=f3f8a075-f2ce-49cf-993f-cd20f2d76af8","ios":"levelo://app?vid=f3f8a075-f2ce-49cf-993f-cd20f2d76af8"},"vehicle_type_id":"4","last_reported":1741169406,"current_range_meters":7200,"station_id":"ce4bhh92rcd13ifvqfj0","pricing_plan_id":"cebpf4jnsgd1na2vs0mg"},{"bike_id":"a88c142e-d928-4561-88fe-ca6968b4c6c1","system_id":"levelo_inurba_marseille","lat":43.26221,"lon":5.40455,"is_reserved":false,"is_disabled":false,"rental_uris":{"android":"levelo://app?vid=a88c142e-d928-4561-88fe-ca6968b4c6c1","ios":"levelo://app?vid=a88c142e-d928-4561-88fe-ca6968b4c6c1"},"vehicle_type_id":"4","last_reported":1741169406,"current_range_meters":7200,"station_id":"ce4bhmh2rcd13ifvqgmg","pricing_plan_id":"cebpf4jnsgd1na2vs0mg"},{"bike_id":"acc909e7-3836-42b3-b51d-082940d4d9ec","system_id":"levelo_inurba_marseille","lat":43.26228,"lon":5.40462,"is_reserved":false,"is_disabled":false,"rental_uris":{"android":"levelo://app?vid=acc909e7-3836-42b3-b51d-082940d4d9ec","ios":"levelo://app?vid=acc909e7-3836-42b3-b51d-082940d4d9ec"},"vehicle_type_id":"4","last_reported":1741169406,"current_range_meters":7200,"station_id":"ce4bhmh2rcd13ifvqgmg","pricing_plan_id":"cebpf4jnsgd1na2vs0mg"},{"bike_id":"4bc22bc8-57d9-4e3e-bbf9-5bb2e57875a0","system_id":"levelo_inurba_marseille","lat":43.27827,"lon":5.40723,"is_reserved":false,"is_disabled":false,"rental_uris":{"android":"levelo://app?vid=4bc22bc8-57d9-4e3e-bbf9-5bb2e57875a0","ios":"levelo://app?vid=4bc22bc8-57d9-4e3e-bbf9-5bb2e57875a0"},"vehicle_type_id":"4","last_reported":1741169406,"current_range_meters":7200,"station_id":"ce4bhnh2rcd13ifvqgtg","pricing_plan_id":"cebpf4jnsgd1na2vs0mg"},{"bike_id":"21b19842-9ad9-4db0-bc46-3d2827c0069e","system_id":"levelo_inurba_marseille","lat":43.23195,"lon":5.35545,"is_reserved":false,"is_disabled":false,"rental_uris":{"android":"levelo://app?vid=21b19842-9ad9-4db0-bc46-3d2827c0069e","ios":"levelo://app?vid=21b19842-9ad9-4db0-bc46-3d2827c0069e"},"vehicle_type_id":"4","last_reported":1741169406,"current_range_meters":7200,"station_id":"ce4bhu92rcd13ifvqi70","pricing_plan_id":"cebpf4jnsgd1na2vs0mg"},{"bike_id":"ee1d2ad1-36ca-49dd-a328-f2a9a9994ecb","system_id":"levelo_inurba_marseille","lat":43.31077,"lon":5.38137,"is_reserved":false,"is_disabled":false,"rental_uris":{"android":"levelo://app?vid=ee1d2ad1-36ca-49dd-a328-f2a9a9994ecb","ios":"levelo://app?vid=ee1d2ad1-36ca-49dd-a328-f2a9a9994ecb"},"vehicle_type_id":"4","last_reported":1741169406,"current_range_meters":8000,"station_id":"","pricing_plan_id":"cebpf4jnsgd1na2vs0mg"},{"bike_id":"84430ff1-4da1-429b-a388-b3b302ae238b","system_id":"levelo_inurba_marseille","lat":43.26059,"lon":5.393967,"is_reserved":false,"is_disabled":false,"rental_uris":{"android":"levelo://app?vid=84430ff1-4da1-429b-a388-b3b302ae238b","ios":"levelo://app?vid=84430ff1-4da1-429b-a388-b3b302ae238b"},"vehicle_type_id":"4","last_reported":1741169406,"current_range_meters":8000,"station_id":"ce4bhh92rcd13ifvqfj0","pricing_plan_id":"cebpf4jnsgd1na2vs0mg"},{"bike_id":"a9215dee-0d74-4dd7-86e8-407aa6a9a48b","system_id":"levelo_inurba_marseille","lat":43.23974,"lon":5.36626,"is_reserved":false,"is_disabled":false,"rental_uris":{"android":"levelo://app?vid=a9215dee-0d74-4dd7-86e8-407aa6a9a48b","ios":"levelo://app?vid=a9215dee-0d74-4dd7-86e8-407aa6a9a48b"},"vehicle_type_id":"4","last_reported":1741169406,"current_range_meters":8000,"station_id":"ce4bhi12rcd13ifvqfp0","pricing_plan_id":"cebpf4jnsgd1na2vs0mg"},{"bike_id":"e6a4f953-5895-4fa8-ac31-a0a59838afae","system_id":"levelo_inurba_marseille","lat":43.25942,"lon":5.40903,"is_reserved":false,"is_disabled":false,"rental_uris":{"android":"levelo://app?vid=e6a4f953-5895-4fa8-ac31-a0a59838afae","ios":"levelo://app?vid=e6a4f953-5895-4fa8-ac31-a0a59838afae"},"vehicle_type_id":"4","last_reported":1741169406,"current_range_meters":8000,"station_id":"ce4bhm92rcd13ifvqglg","pricing_plan_id":"cebpf4jnsgd1na2vs0mg"},{"bike_id":"641a5b08-86ef-4d02-a208-992a6eb55a4d","system_id":"levelo_inurba_marseille","lat":43.25928,"lon":5.40893,"is_reserved":false,"is_disabled":false,"rental_uris":{"android":"levelo://app?vid=641a5b08-86ef-4d02-a208-992a6eb55a4d","ios":"levelo://app?vid=641a5b08-86ef-4d02-a208-992a6eb55a4d"},"vehicle_type_id":"4","last_reported":1741169406,"current_range_meters":8000,"station_id":"ce4bhm92rcd13ifvqglg","pricing_plan_id":"cebpf4jnsgd1na2vs0mg"},{"bike_id":"c12ad3b5-5f23-4dd2-a1e5-e99ed8421cf8","system_id":"levelo_inurba_marseille","lat":43.24073,"lon":5.37748,"is_reserved":false,"is_disabled":false,"rental_uris":{"android":"levelo://app?vid=c12ad3b5-5f23-4dd2-a1e5-e99ed8421cf8","ios":"levelo://app?vid=c12ad3b5-5f23-4dd2-a1e5-e99ed8421cf8"},"vehicle_type_id":"4","last_reported":1741169406,"current_range_meters":8000,"station_id":"ce4bhnp2rcd13ifvqgvg","pricing_plan_id":"cebpf4jnsgd1na2vs0mg"},{"bike_id":"b8dacfd7-6aa1-4cb2-ac25-dfdf82e53218","system_id":"levelo_inurba_marseille","lat":43.32366,"lon":5.38885,"is_reserved":false,"is_disabled":false,"rental_uris":{"android":"levelo://app?vid=b8dacfd7-6aa1-4cb2-ac25-dfdf82e53218","ios":"levelo://app?vid=b8dacfd7-6aa1-4cb2-ac25-dfdf82e53218"},"vehicle_type_id":"4","last_reported":1741169406,"current_range_meters":8000,"station_id":"ce4bhqp2rcd13ifvqhog","pricing_plan_id":"cebpf4jnsgd1na2vs0mg"},{"bike_id":"62ba45d1-b478-4c4d-940d-ddcf51faf08e","system_id":"levelo_inurba_marseille","lat":43.337444,"lon":5.374475,"is_reserved":false,"is_disabled":false,"rental_uris":{"android":"levelo://app?vid=62ba45d1-b478-4c4d-940d-ddcf51faf08e","ios":"levelo://app?vid=62ba45d1-b478-4c4d-940d-ddcf51faf08e"},"vehicle_type_id":"4","last_reported":1741169406,"current_range_meters":8400,"station_id":"","pricing_plan_id":"cebpf4jnsgd1na2vs0mg"},{"bike_id":"19eb9a9c-5c57-4413-a5a4-954b9fe87aed","system_id":"levelo_inurba_marseille","lat":43.30469,"lon":5.37904,"is_reserved":false,"is_disabled":false,"rental_uris":{"android":"levelo://app?vid=19eb9a9c-5c57-4413-a5a4-954b9fe87aed","ios":"levelo://app?vid=19eb9a9c-5c57-4413-a5a4-954b9fe87aed"},"vehicle_type_id":"4","last_reported":1741169406,"current_range_meters":8400,"station_id":"ce4bgup2rcd13ifvqcn0","pricing_plan_id":"cebpf4jnsgd1na2vs0mg"},{"bike_id":"1251622a-c93e-431e-90d0-4106b158ac93","system_id":"levelo_inurba_marseille","lat":43.28417,"lon":5.34981,"is_reserved":false,"is_disabled":false,"rental_uris":{"android":"levelo://app?vid=1251622a-c93e-431e-90d0-4106b158ac93","ios":"levelo://app?vid=1251622a-c93e-431e-90d0-4106b158ac93"},"vehicle_type_id":"4","last_reported":1741169406,"current_range_meters":8400,"station_id":"ce4bhbh2rcd13ifvqepg","pricing_plan_id":"cebpf4jnsgd1na2vs0mg"},{"bike_id":"6b4ccd0a-d8d4-47e8-a23e-db23c42b230c","system_id":"levelo_inurba_marseille","lat":43.24999,"lon":5.38927,"is_reserved":false,"is_disabled":false,"rental_uris":{"android":"levelo://app?vid=6b4ccd0a-d8d4-47e8-a23e-db23c42b230c","ios":"levelo://app?vid=6b4ccd0a-d8d4-47e8-a23e-db23c42b230c"},"vehicle_type_id":"4","last_reported":1741169406,"current_range_meters":8400,"station_id":"ce4bhgp2rcd13ifvqfd0","pricing_plan_id":"cebpf4jnsgd1na2vs0mg"},{"bike_id":"41da4b56-604c-4398-a7b9-104be2ad83f3","system_id":"levelo_inurba_marseille","lat":43.23145,"lon":5.43713,"is_reserved":false,"is_disabled":false,"rental_uris":{"android":"levelo://app?vid=41da4b56-604c-4398-a7b9-104be2ad83f3","ios":"levelo://app?vid=41da4b56-604c-4398-a7b9-104be2ad83f3"},"vehicle_type_id":"4","last_reported":1741169406,"current_range_meters":8400,"station_id":"ce4bhmp2rcd13ifvqgog","pricing_plan_id":"cebpf4jnsgd1na2vs0mg"},{"bike_id":"b0479589-1011-43d8-ba32-9007c5d086cd","system_id":"levelo_inurba_marseille","lat":43.27496,"lon":5.42447,"is_reserved":false,"is_disabled":false,"rental_uris":{"android":"levelo://app?vid=b0479589-1011-43d8-ba32-9007c5d086cd","ios":"levelo://app?vid=b0479589-1011-43d8-ba32-9007c5d086cd"},"vehicle_type_id":"4","last_reported":1741169406,"current_range_meters":8400,"station_id":"ce4bhn92rcd13ifvqgrg","pricing_plan_id":"cebpf4jnsgd1na2vs0mg"},{"bike_id":"d0297490-db8c-4c8f-93d8-ca976c117f19","system_id":"levelo_inurba_marseille","lat":43.24055,"lon":5.37718,"is_reserved":false,"is_disabled":false,"rental_uris":{"android":"levelo://app?vid=d0297490-db8c-4c8f-93d8-ca976c117f19","ios":"levelo://app?vid=d0297490-db8c-4c8f-93d8-ca976c117f19"},"vehicle_type_id":"4","last_reported":1741169406,"current_range_meters":8400,"station_id":"ce4bhnp2rcd13ifvqgvg","pricing_plan_id":"cebpf4jnsgd1na2vs0mg"},{"bike_id":"44a7153b-0fd7-4509-836b-676bbf84fb06","system_id":"levelo_inurba_marseille","lat":43.23171,"lon":5.35564,"is_reserved":false,"is_disabled":false,"rental_uris":{"android":"levelo://app?vid=44a7153b-0fd7-4509-836b-676bbf84fb06","ios":"levelo://app?vid=44a7153b-0fd7-4509-836b-676bbf84fb06"},"vehicle_type_id":"4","last_reported":1741169406,"current_range_meters":8400,"station_id":"ce4bhu92rcd13ifvqi70","pricing_plan_id":"cebpf4jnsgd1na2vs0mg"},{"bike_id":"332abda5-2296-4955-8d29-1593f717e1c9","system_id":"levelo_inurba_marseille","lat":43.27952,"lon":5.41585,"is_reserved":false,"is_disabled":false,"rental_uris":{"android":"levelo://app?vid=332abda5-2296-4955-8d29-1593f717e1c9","ios":"levelo://app?vid=332abda5-2296-4955-8d29-1593f717e1c9"},"vehicle_type_id":"4","last_reported":1741169406,"current_range_meters":8800,"station_id":"","pricing_plan_id":"cebpf4jnsgd1na2vs0mg"},{"bike_id":"77330034-0a97-4833-9555-95e2b397eb86","system_id":"levelo_inurba_marseille","lat":43.24071,"lon":5.37687,"is_reserved":false,"is_disabled":false,"rental_uris":{"android":"levelo://app?vid=77330034-0a97-4833-9555-95e2b397eb86","ios":"levelo://app?vid=77330034-0a97-4833-9555-95e2b397eb86"},"vehicle_type_id":"4","last_reported":1741169406,"current_range_meters":8800,"station_id":"","pricing_plan_id":"cebpf4jnsgd1na2vs0mg"},{"bike_id":"c1fc374e-9788-4744-b476-9c2c2283eed8","system_id":"levelo_inurba_marseille","lat":43.31202,"lon":5.36892,"is_reserved":false,"is_disabled":false,"rental_uris":{"android":"levelo://app?vid=c1fc374e-9788-4744-b476-9c2c2283eed8","ios":"levelo://app?vid=c1fc374e-9788-4744-b476-9c2c2283eed8"},"vehicle_type_id":"4","last_reported":1741169406,"current_range_meters":8800,"station_id":"ce4bgl92rcd13ifvqbq0","pricing_plan_id":"cebpf4jnsgd1na2vs0mg"},{"bike_id":"ca36e6b5-c642-45ea-b3a1-58804c112bf5","system_id":"levelo_inurba_marseille","lat":43.337444,"lon":5.374475,"is_reserved":false,"is_disabled":false,"rental_uris":{"android":"levelo://app?vid=ca36e6b5-c642-45ea-b3a1-58804c112bf5","ios":"levelo://app?vid=ca36e6b5-c642-45ea-b3a1-58804c112bf5"},"vehicle_type_id":"4","last_reported":1741169406,"current_range_meters":8800,"station_id":"ce4bgnh2rcd13ifvqc0g","pricing_plan_id":"cebpf4jnsgd1na2vs0mg"},{"bike_id":"60941715-8975-4bc9-a01b-e4d9d25fa159","system_id":"levelo_inurba_marseille","lat":43.31489,"lon":5.37293,"is_reserved":false,"is_disabled":false,"rental_uris":{"android":"levelo://app?vid=60941715-8975-4bc9-a01b-e4d9d25fa159","ios":"levelo://app?vid=60941715-8975-4bc9-a01b-e4d9d25fa159"},"vehicle_type_id":"4","last_reported":1741169406,"current_range_meters":8800,"station_id":"ce4bgt12rcd13ifvqcd0","pricing_plan_id":"cebpf4jnsgd1na2vs0mg"},{"bike_id":"c82f8db4-5b8c-426c-bd31-ddbf17c5a92f","system_id":"levelo_inurba_marseille","lat":43.29009,"lon":5.35623,"is_reserved":false,"is_disabled":false,"rental_uris":{"android":"levelo://app?vid=c82f8db4-5b8c-426c-bd31-ddbf17c5a92f","ios":"levelo://app?vid=c82f8db4-5b8c-426c-bd31-ddbf17c5a92f"},"vehicle_type_id":"4","last_reported":1741169406,"current_range_meters":8800,"station_id":"ce4bhb92rcd13ifvqen0","pricing_plan_id":"cebpf4jnsgd1na2vs0mg"},{"bike_id":"9feb2387-f16e-4d05-820e-01e58b912336","system_id":"levelo_inurba_marseille","lat":43.24181,"lon":5.39728,"is_reserved":false,"is_disabled":false,"rental_uris":{"android":"levelo://app?vid=9feb2387-f16e-4d05-820e-01e58b912336","ios":"levelo://app?vid=9feb2387-f16e-4d05-820e-01e58b912336"},"vehicle_type_id":"4","last_reported":1741169406,"current_range_meters":8800,"station_id":"ce4bhn12rcd13ifvqgpg","pricing_plan_id":"cebpf4jnsgd1na2vs0mg"},{"bike_id":"d5846449-7219-4265-90f9-a2ede6b6465f","system_id":"levelo_inurba_marseille","lat":43.24182,"lon":5.39716,"is_reserved":false,"is_disabled":false,"rental_uris":{"android":"levelo://app?vid=d5846449-7219-4265-90f9-a2ede6b6465f","ios":"levelo://app?vid=d5846449-7219-4265-90f9-a2ede6b6465f"},"vehicle_type_id":"4","last_reported":1741169406,"current_range_meters":8800,"station_id":"ce4bhn12rcd13ifvqgpg","pricing_plan_id":"cebpf4jnsgd1na2vs0mg"},{"bike_id":"875e8a70-b504-4210-b16b-025f0da5b5e7","system_id":"levelo_inurba_marseille","lat":43.27501,"lon":5.42466,"is_reserved":false,"is_disabled":false,"rental_uris":{"android":"levelo://app?vid=875e8a70-b504-4210-b16b-025f0da5b5e7","ios":"levelo://app?vid=875e8a70-b504-4210-b16b-025f0da5b5e7"},"vehicle_type_id":"4","last_reported":1741169406,"current_range_meters":8800,"station_id":"ce4bhn92rcd13ifvqgrg","pricing_plan_id":"cebpf4jnsgd1na2vs0mg"},{"bike_id":"0b918abb-b826-4b94-a58d-88d001c48fda","system_id":"levelo_inurba_marseille","lat":43.24069,"lon":5.37767,"is_reserved":false,"is_disabled":false,"rental_uris":{"android":"levelo://app?vid=0b918abb-b826-4b94-a58d-88d001c48fda","ios":"levelo://app?vid=0b918abb-b826-4b94-a58d-88d001c48fda"},"vehicle_type_id":"4","last_reported":1741169406,"current_range_meters":8800,"station_id":"ce4bhnp2rcd13ifvqgvg","pricing_plan_id":"cebpf4jnsgd1na2vs0mg"},{"bike_id":"c69e1cc5-0899-4738-ab9b-d12f1eee9335","system_id":"levelo_inurba_marseille","lat":43.26575,"lon":5.39066,"is_reserved":false,"is_disabled":false,"rental_uris":{"android":"levelo://app?vid=c69e1cc5-0899-4738-ab9b-d12f1eee9335","ios":"levelo://app?vid=c69e1cc5-0899-4738-ab9b-d12f1eee9335"},"vehicle_type_id":"4","last_reported":1741169406,"current_range_meters":9200,"station_id":"","pricing_plan_id":"cebpf4jnsgd1na2vs0mg"},{"bike_id":"96794ea4-770a-4927-923a-493e9670ecf8","system_id":"levelo_inurba_marseille","lat":43.28431,"lon":5.34978,"is_reserved":false,"is_disabled":false,"rental_uris":{"android":"levelo://app?vid=96794ea4-770a-4927-923a-493e9670ecf8","ios":"levelo://app?vid=96794ea4-770a-4927-923a-493e9670ecf8"},"vehicle_type_id":"4","last_reported":1741169406,"current_range_meters":9200,"station_id":"ce4bhbh2rcd13ifvqepg","pricing_plan_id":"cebpf4jnsgd1na2vs0mg"},{"bike_id":"c4f6dbc4-4c1a-44db-b1db-89ba5056892d","system_id":"levelo_inurba_marseille","lat":43.24183,"lon":5.39739,"is_reserved":false,"is_disabled":false,"rental_uris":{"android":"levelo://app?vid=c4f6dbc4-4c1a-44db-b1db-89ba5056892d","ios":"levelo://app?vid=c4f6dbc4-4c1a-44db-b1db-89ba5056892d"},"vehicle_type_id":"4","last_reported":1741169406,"current_range_meters":9200,"station_id":"ce4bhn12rcd13ifvqgpg","pricing_plan_id":"cebpf4jnsgd1na2vs0mg"},{"bike_id":"48ca4e95-acb4-400e-8208-1e7b736cce43","system_id":"levelo_inurba_marseille","lat":43.24194,"lon":5.39746,"is_reserved":false,"is_disabled":false,"rental_uris":{"android":"levelo://app?vid=48ca4e95-acb4-400e-8208-1e7b736cce43","ios":"levelo://app?vid=48ca4e95-acb4-400e-8208-1e7b736cce43"},"vehicle_type_id":"4","last_reported":1741169406,"current_range_meters":9200,"station_id":"ce4bhn12rcd13ifvqgpg","pricing_plan_id":"cebpf4jnsgd1na2vs0mg"},{"bike_id":"de44d09a-d4db-4ce3-a2dd-62f4dc2e96ab","system_id":"levelo_inurba_marseille","lat":43.27515,"lon":5.4245,"is_reserved":false,"is_disabled":false,"rental_uris":{"android":"levelo://app?vid=de44d09a-d4db-4ce3-a2dd-62f4dc2e96ab","ios":"levelo://app?vid=de44d09a-d4db-4ce3-a2dd-62f4dc2e96ab"},"vehicle_type_id":"4","last_reported":1741169406,"current_range_meters":9200,"station_id":"ce4bhn92rcd13ifvqgrg","pricing_plan_id":"cebpf4jnsgd1na2vs0mg"},{"bike_id":"c1795612-a14f-4104-b866-370031b7e8be","system_id":"levelo_inurba_marseille","lat":43.33609,"lon":5.41031,"is_reserved":false,"is_disabled":false,"rental_uris":{"android":"levelo://app?vid=c1795612-a14f-4104-b866-370031b7e8be","ios":"levelo://app?vid=c1795612-a14f-4104-b866-370031b7e8be"},"vehicle_type_id":"4","last_reported":1741169406,"current_range_meters":9200,"station_id":"ce4bhqh2rcd13ifvqhmg","pricing_plan_id":"cebpf4jnsgd1na2vs0mg"},{"bike_id":"88a59982-c47d-47ce-8406-0a6e74973ba6","system_id":"levelo_inurba_marseille","lat":43.2694,"lon":5.4025,"is_reserved":false,"is_disabled":false,"rental_uris":{"android":"levelo://app?vid=88a59982-c47d-47ce-8406-0a6e74973ba6","ios":"levelo://app?vid=88a59982-c47d-47ce-8406-0a6e74973ba6"},"vehicle_type_id":"4","last_reported":1741169406,"current_range_meters":9200,"station_id":"cjm6bp8fraef2m0cb0m0","pricing_plan_id":"cebpf4jnsgd1na2vs0mg"},{"bike_id":"3d19ebae-804a-4730-9704-5acdb3604e45","system_id":"levelo_inurba_marseille","lat":43.29308,"lon":5.37451,"is_reserved":false,"is_disabled":false,"rental_uris":{"android":"levelo://app?vid=3d19ebae-804a-4730-9704-5acdb3604e45","ios":"levelo://app?vid=3d19ebae-804a-4730-9704-5acdb3604e45"},"vehicle_type_id":"4","last_reported":1741169406,"current_range_meters":9600,"station_id":"ce4bgi12rcd13ifvqb70","pricing_plan_id":"cebpf4jnsgd1na2vs0mg"},{"bike_id":"8e2d32d4-d868-46d5-86a0-1ff3fdd4ed25","system_id":"levelo_inurba_marseille","lat":43.29902,"lon":5.37484,"is_reserved":false,"is_disabled":false,"rental_uris":{"android":"levelo://app?vid=8e2d32d4-d868-46d5-86a0-1ff3fdd4ed25","ios":"levelo://app?vid=8e2d32d4-d868-46d5-86a0-1ff3fdd4ed25"},"vehicle_type_id":"4","last_reported":1741169406,"current_range_meters":9600,"station_id":"ce4bgjh2rcd13ifvqbg0","pricing_plan_id":"cebpf4jnsgd1na2vs0mg"},{"bike_id":"e24b58cd-1c8e-4e08-8a60-cc65b8817bf3","system_id":"levelo_inurba_marseille","lat":43.30899,"lon":5.36859,"is_reserved":false,"is_disabled":false,"rental_uris":{"android":"levelo://app?vid=e24b58cd-1c8e-4e08-8a60-cc65b8817bf3","ios":"levelo://app?vid=e24b58cd-1c8e-4e08-8a60-cc65b8817bf3"},"vehicle_type_id":"4","last_reported":1741169406,"current_range_meters":9600,"station_id":"ce4bgn92rcd13ifvqbvg","pricing_plan_id":"cebpf4jnsgd1na2vs0mg"},{"bike_id":"7fdd6db9-4421-4d12-82e9-7166f9096c99","system_id":"levelo_inurba_marseille","lat":43.29581,"lon":5.3674,"is_reserved":false,"is_disabled":false,"rental_uris":{"android":"levelo://app?vid=7fdd6db9-4421-4d12-82e9-7166f9096c99","ios":"levelo://app?vid=7fdd6db9-4421-4d12-82e9-7166f9096c99"},"vehicle_type_id":"4","last_reported":1741169406,"current_range_meters":9600,"station_id":"ce4bgph2rcd13ifvqc2g","pricing_plan_id":"cebpf4jnsgd1na2vs0mg"},{"bike_id":"8dd748f3-86d1-4e01-81af-feb812d072f4","system_id":"levelo_inurba_marseille","lat":43.29021,"lon":5.38651,"is_reserved":false,"is_disabled":false,"rental_uris":{"android":"levelo://app?vid=8dd748f3-86d1-4e01-81af-feb812d072f4","ios":"levelo://app?vid=8dd748f3-86d1-4e01-81af-feb812d072f4"},"vehicle_type_id":"4","last_reported":1741169406,"current_range_meters":9600,"station_id":"ce4bh4p2rcd13ifvqe0g","pricing_plan_id":"cebpf4jnsgd1na2vs0mg"},{"bike_id":"9d5dc8dc-fafd-479b-a07b-141caa4a8395","system_id":"levelo_inurba_marseille","lat":43.25103,"lon":5.40328,"is_reserved":false,"is_disabled":false,"rental_uris":{"android":"levelo://app?vid=9d5dc8dc-fafd-479b-a07b-141caa4a8395","ios":"levelo://app?vid=9d5dc8dc-fafd-479b-a07b-141caa4a8395"},"vehicle_type_id":"4","last_reported":1741169406,"current_range_meters":9600,"station_id":"ce4bhlh2rcd13ifvqgig","pricing_plan_id":"cebpf4jnsgd1na2vs0mg"},{"bike_id":"da012e55-56aa-4836-97eb-401c7578f569","system_id":"levelo_inurba_marseille","lat":43.25929,"lon":5.40917,"is_reserved":false,"is_disabled":false,"rental_uris":{"android":"levelo://app?vid=da012e55-56aa-4836-97eb-401c7578f569","ios":"levelo://app?vid=da012e55-56aa-4836-97eb-401c7578f569"},"vehicle_type_id":"4","last_reported":1741169406,"current_range_meters":9600,"station_id":"ce4bhm92rcd13ifvqglg","pricing_plan_id":"cebpf4jnsgd1na2vs0mg"},{"bike_id":"a4550b2d-8807-4ff9-9307-d30e6d04b40a","system_id":"levelo_inurba_marseille","lat":43.27488,"lon":5.42466,"is_reserved":false,"is_disabled":false,"rental_uris":{"android":"levelo://app?vid=a4550b2d-8807-4ff9-9307-d30e6d04b40a","ios":"levelo://app?vid=a4550b2d-8807-4ff9-9307-d30e6d04b40a"},"vehicle_type_id":"4","last_reported":1741169406,"current_range_meters":9600,"station_id":"ce4bhn92rcd13ifvqgrg","pricing_plan_id":"cebpf4jnsgd1na2vs0mg"},{"bike_id":"23cfecd0-a918-4543-928a-8cdde5fc5da1","system_id":"levelo_inurba_marseille","lat":43.27496,"lon":5.42448,"is_reserved":false,"is_disabled":false,"rental_uris":{"android":"levelo://app?vid=23cfecd0-a918-4543-928a-8cdde5fc5da1","ios":"levelo://app?vid=23cfecd0-a918-4543-928a-8cdde5fc5da1"},"vehicle_type_id":"4","last_reported":1741169406,"current_range_meters":9600,"station_id":"ce4bhn92rcd13ifvqgrg","pricing_plan_id":"cebpf4jnsgd1na2vs0mg"},{"bike_id":"51f6f578-8898-487a-9da7-ff3d6d379d1b","system_id":"levelo_inurba_marseille","lat":43.32096,"lon":5.36782,"is_reserved":false,"is_disabled":false,"rental_uris":{"android":"levelo://app?vid=51f6f578-8898-487a-9da7-ff3d6d379d1b","ios":"levelo://app?vid=51f6f578-8898-487a-9da7-ff3d6d379d1b"},"vehicle_type_id":"4","last_reported":1741169406,"current_range_meters":9600,"station_id":"ce4bhrh2rcd13ifvqhug","pricing_plan_id":"cebpf4jnsgd1na2vs0mg"},{"bike_id":"4c0e314a-87e2-48f0-a7b0-ec6605046de8","system_id":"levelo_inurba_marseille","lat":43.3209,"lon":5.36791,"is_reserved":false,"is_disabled":false,"rental_uris":{"android":"levelo://app?vid=4c0e314a-87e2-48f0-a7b0-ec6605046de8","ios":"levelo://app?vid=4c0e314a-87e2-48f0-a7b0-ec6605046de8"},"vehicle_type_id":"4","last_reported":1741169406,"current_range_meters":9600,"station_id":"ce4bhrh2rcd13ifvqhug","pricing_plan_id":"cebpf4jnsgd1na2vs0mg"},{"bike_id":"8f8dda39-9454-47be-8b5d-d5ab2618eafe","system_id":"levelo_inurba_marseille","lat":43.29881,"lon":5.38125,"is_reserved":false,"is_disabled":false,"rental_uris":{"android":"levelo://app?vid=8f8dda39-9454-47be-8b5d-d5ab2618eafe","ios":"levelo://app?vid=8f8dda39-9454-47be-8b5d-d5ab2618eafe"},"vehicle_type_id":"4","last_reported":1741169406,"current_range_meters":10000,"station_id":"ce4bgj12rcd13ifvqbc0","pricing_plan_id":"cebpf4jnsgd1na2vs0mg"},{"bike_id":"3de42499-332f-4f37-855f-942539a949a7","system_id":"levelo_inurba_marseille","lat":43.29764,"lon":5.37137,"is_reserved":false,"is_disabled":false,"rental_uris":{"android":"levelo://app?vid=3de42499-332f-4f37-855f-942539a949a7","ios":"levelo://app?vid=3de42499-332f-4f37-855f-942539a949a7"},"vehicle_type_id":"4","last_reported":1741169406,"current_range_meters":10000,"station_id":"ce4bgop2rcd13ifvqc1g","pricing_plan_id":"cebpf4jnsgd1na2vs0mg"},{"bike_id":"65454335-2b8f-41a7-9a83-ad755de99323","system_id":"levelo_inurba_marseille","lat":43.248056,"lon":5.374581,"is_reserved":false,"is_disabled":false,"rental_uris":{"android":"levelo://app?vid=65454335-2b8f-41a7-9a83-ad755de99323","ios":"levelo://app?vid=65454335-2b8f-41a7-9a83-ad755de99323"},"vehicle_type_id":"4","last_reported":1741169406,"current_range_meters":10000,"station_id":"ce4bhgh2rcd13ifvqfb0","pricing_plan_id":"cebpf4jnsgd1na2vs0mg"},{"bike_id":"895f4c40-8d49-47ad-ac3d-54bc4b80d81c","system_id":"levelo_inurba_marseille","lat":43.24393,"lon":5.37068,"is_reserved":false,"is_disabled":false,"rental_uris":{"android":"levelo://app?vid=895f4c40-8d49-47ad-ac3d-54bc4b80d81c","ios":"levelo://app?vid=895f4c40-8d49-47ad-ac3d-54bc4b80d81c"},"vehicle_type_id":"4","last_reported":1741169406,"current_range_meters":10000,"station_id":"ce4bhhh2rcd13ifvqfk0","pricing_plan_id":"cebpf4jnsgd1na2vs0mg"},{"bike_id":"c55557ad-1ed5-4997-aee7-ac92107f14b6","system_id":"levelo_inurba_marseille","lat":43.26469,"lon":5.37505,"is_reserved":false,"is_disabled":false,"rental_uris":{"android":"levelo://app?vid=c55557ad-1ed5-4997-aee7-ac92107f14b6","ios":"levelo://app?vid=c55557ad-1ed5-4997-aee7-ac92107f14b6"},"vehicle_type_id":"4","last_reported":1741169406,"current_range_meters":10800,"station_id":"","pricing_plan_id":"cebpf4jnsgd1na2vs0mg"},{"bike_id":"19fa311d-24d9-4ac7-b5f6-e17a46c9a8e6","system_id":"levelo_inurba_marseille","lat":43.3142,"lon":5.36687,"is_reserved":false,"is_disabled":false,"rental_uris":{"android":"levelo://app?vid=19fa311d-24d9-4ac7-b5f6-e17a46c9a8e6","ios":"levelo://app?vid=19fa311d-24d9-4ac7-b5f6-e17a46c9a8e6"},"vehicle_type_id":"4","last_reported":1741169406,"current_range_meters":10800,"station_id":"","pricing_plan_id":"cebpf4jnsgd1na2vs0mg"},{"bike_id":"a01e6505-7215-4fbf-ab17-2d8f73ae23cc","system_id":"levelo_inurba_marseille","lat":43.31165,"lon":5.38725,"is_reserved":false,"is_disabled":false,"rental_uris":{"android":"levelo://app?vid=a01e6505-7215-4fbf-ab17-2d8f73ae23cc","ios":"levelo://app?vid=a01e6505-7215-4fbf-ab17-2d8f73ae23cc"},"vehicle_type_id":"4","last_reported":1741169406,"current_range_meters":10800,"station_id":"ce4bgv12rcd13ifvqcp0","pricing_plan_id":"cebpf4jnsgd1na2vs0mg"},{"bike_id":"825e632d-0670-4be3-baf8-753ad9c75544","system_id":"levelo_inurba_marseille","lat":43.27203,"lon":5.39183,"is_reserved":false,"is_disabled":false,"rental_uris":{"android":"levelo://app?vid=825e632d-0670-4be3-baf8-753ad9c75544","ios":"levelo://app?vid=825e632d-0670-4be3-baf8-753ad9c75544"},"vehicle_type_id":"4","last_reported":1741169406,"current_range_meters":10800,"station_id":"ce4bhhp2rcd13ifvqfm0","pricing_plan_id":"cebpf4jnsgd1na2vs0mg"},{"bike_id":"9664280c-ec19-44a4-9913-206ac50d66b9","system_id":"levelo_inurba_marseille","lat":43.26239,"lon":5.40455,"is_reserved":false,"is_disabled":false,"rental_uris":{"android":"levelo://app?vid=9664280c-ec19-44a4-9913-206ac50d66b9","ios":"levelo://app?vid=9664280c-ec19-44a4-9913-206ac50d66b9"},"vehicle_type_id":"4","last_reported":1741169406,"current_range_meters":10800,"station_id":"ce4bhmh2rcd13ifvqgmg","pricing_plan_id":"cebpf4jnsgd1na2vs0mg"},{"bike_id":"e3d7bc68-e1c3-463f-8323-6b168c27cfde","system_id":"levelo_inurba_marseille","lat":43.23137,"lon":5.43736,"is_reserved":false,"is_disabled":false,"rental_uris":{"android":"levelo://app?vid=e3d7bc68-e1c3-463f-8323-6b168c27cfde","ios":"levelo://app?vid=e3d7bc68-e1c3-463f-8323-6b168c27cfde"},"vehicle_type_id":"4","last_reported":1741169406,"current_range_meters":10800,"station_id":"ce4bhmp2rcd13ifvqgog","pricing_plan_id":"cebpf4jnsgd1na2vs0mg"},{"bike_id":"e0e1d903-53d1-434c-9acd-0132349fb87e","system_id":"levelo_inurba_marseille","lat":43.23144,"lon":5.43723,"is_reserved":false,"is_disabled":false,"rental_uris":{"android":"levelo://app?vid=e0e1d903-53d1-434c-9acd-0132349fb87e","ios":"levelo://app?vid=e0e1d903-53d1-434c-9acd-0132349fb87e"},"vehicle_type_id":"4","last_reported":1741169406,"current_range_meters":10800,"station_id":"ce4bhmp2rcd13ifvqgog","pricing_plan_id":"cebpf4jnsgd1na2vs0mg"},{"bike_id":"3a596ab9-9103-4f48-9700-a5a62e1fc109","system_id":"levelo_inurba_marseille","lat":43.336,"lon":5.41007,"is_reserved":false,"is_disabled":false,"rental_uris":{"android":"levelo://app?vid=3a596ab9-9103-4f48-9700-a5a62e1fc109","ios":"levelo://app?vid=3a596ab9-9103-4f48-9700-a5a62e1fc109"},"vehicle_type_id":"4","last_reported":1741169406,"current_range_meters":10800,"station_id":"ce4bhqh2rcd13ifvqhmg","pricing_plan_id":"cebpf4jnsgd1na2vs0mg"},{"bike_id":"17c04b47-b4f3-4a2a-accd-d5f659a10fa3","system_id":"levelo_inurba_marseille","lat":43.32471,"lon":5.36576,"is_reserved":false,"is_disabled":false,"rental_uris":{"android":"levelo://app?vid=17c04b47-b4f3-4a2a-accd-d5f659a10fa3","ios":"levelo://app?vid=17c04b47-b4f3-4a2a-accd-d5f659a10fa3"},"vehicle_type_id":"4","last_reported":1741169406,"current_range_meters":10800,"station_id":"ce4bhs12rcd13ifvqhvg","pricing_plan_id":"cebpf4jnsgd1na2vs0mg"},{"bike_id":"7cd5e07c-ad2a-4af8-99d9-77c41335ce79","system_id":"levelo_inurba_marseille","lat":43.24165,"lon":5.36403,"is_reserved":false,"is_disabled":false,"rental_uris":{"android":"levelo://app?vid=7cd5e07c-ad2a-4af8-99d9-77c41335ce79","ios":"levelo://app?vid=7cd5e07c-ad2a-4af8-99d9-77c41335ce79"},"vehicle_type_id":"4","last_reported":1741169406,"current_range_meters":10800,"station_id":"cpo36qri1sfpv3e86is0","pricing_plan_id":"cebpf4jnsgd1na2vs0mg"},{"bike_id":"888881c8-b267-49a5-9b99-6f5a2936c0d6","system_id":"levelo_inurba_marseille","lat":43.30306,"lon":5.36902,"is_reserved":false,"is_disabled":false,"rental_uris":{"android":"levelo://app?vid=888881c8-b267-49a5-9b99-6f5a2936c0d6","ios":"levelo://app?vid=888881c8-b267-49a5-9b99-6f5a2936c0d6"},"vehicle_type_id":"4","last_reported":1741169406,"current_range_meters":11200,"station_id":"ce4bgqh2rcd13ifvqc5g","pricing_plan_id":"cebpf4jnsgd1na2vs0mg"},{"bike_id":"336711e2-dcda-49e7-bb12-36dde9f20145","system_id":"levelo_inurba_marseille","lat":43.273743,"lon":5.362619,"is_reserved":false,"is_disabled":false,"rental_uris":{"android":"levelo://app?vid=336711e2-dcda-49e7-bb12-36dde9f20145","ios":"levelo://app?vid=336711e2-dcda-49e7-bb12-36dde9f20145"},"vehicle_type_id":"4","last_reported":1741169406,"current_range_meters":11200,"station_id":"ce4bh0h2rcd13ifvqd60","pricing_plan_id":"cebpf4jnsgd1na2vs0mg"},{"bike_id":"3b219114-afa7-412a-84e6-60bc704150c0","system_id":"levelo_inurba_marseille","lat":43.23137,"lon":5.43687,"is_reserved":false,"is_disabled":false,"rental_uris":{"android":"levelo://app?vid=3b219114-afa7-412a-84e6-60bc704150c0","ios":"levelo://app?vid=3b219114-afa7-412a-84e6-60bc704150c0"},"vehicle_type_id":"4","last_reported":1741169406,"current_range_meters":11200,"station_id":"ce4bhmp2rcd13ifvqgog","pricing_plan_id":"cebpf4jnsgd1na2vs0mg"},{"bike_id":"e147a6d0-e38e-41ed-9620-b5ceb546b3f6","system_id":"levelo_inurba_marseille","lat":43.27496,"lon":5.42461,"is_reserved":false,"is_disabled":false,"rental_uris":{"android":"levelo://app?vid=e147a6d0-e38e-41ed-9620-b5ceb546b3f6","ios":"levelo://app?vid=e147a6d0-e38e-41ed-9620-b5ceb546b3f6"},"vehicle_type_id":"4","last_reported":1741169406,"current_range_meters":11200,"station_id":"ce4bhn92rcd13ifvqgrg","pricing_plan_id":"cebpf4jnsgd1na2vs0mg"},{"bike_id":"d8b2f561-15c4-4bc0-a0be-ead70d85ebe3","system_id":"levelo_inurba_marseille","lat":43.30453,"lon":5.37907,"is_reserved":false,"is_disabled":false,"rental_uris":{"android":"levelo://app?vid=d8b2f561-15c4-4bc0-a0be-ead70d85ebe3","ios":"levelo://app?vid=d8b2f561-15c4-4bc0-a0be-ead70d85ebe3"},"vehicle_type_id":"4","last_reported":1741169406,"current_range_meters":11600,"station_id":"ce4bgup2rcd13ifvqcn0","pricing_plan_id":"cebpf4jnsgd1na2vs0mg"},{"bike_id":"42854cbc-9ea4-4bb5-b767-b6b08b903392","system_id":"levelo_inurba_marseille","lat":43.30104,"lon":5.39069,"is_reserved":false,"is_disabled":false,"rental_uris":{"android":"levelo://app?vid=42854cbc-9ea4-4bb5-b767-b6b08b903392","ios":"levelo://app?vid=42854cbc-9ea4-4bb5-b767-b6b08b903392"},"vehicle_type_id":"4","last_reported":1741169406,"current_range_meters":11600,"station_id":"ce4bh192rcd13ifvqdb0","pricing_plan_id":"cebpf4jnsgd1na2vs0mg"},{"bike_id":"4e099002-469e-40dd-a988-90ba29d19792","system_id":"levelo_inurba_marseille","lat":43.24547,"lon":5.39525,"is_reserved":false,"is_disabled":false,"rental_uris":{"android":"levelo://app?vid=4e099002-469e-40dd-a988-90ba29d19792","ios":"levelo://app?vid=4e099002-469e-40dd-a988-90ba29d19792"},"vehicle_type_id":"4","last_reported":1741169406,"current_range_meters":11600,"station_id":"ce4bhlp2rcd13ifvqgjg","pricing_plan_id":"cebpf4jnsgd1na2vs0mg"},{"bike_id":"2a854996-14cd-4e77-aece-5ff4c4ebaec6","system_id":"levelo_inurba_marseille","lat":43.231503,"lon":5.437042,"is_reserved":false,"is_disabled":false,"rental_uris":{"android":"levelo://app?vid=2a854996-14cd-4e77-aece-5ff4c4ebaec6","ios":"levelo://app?vid=2a854996-14cd-4e77-aece-5ff4c4ebaec6"},"vehicle_type_id":"4","last_reported":1741169406,"current_range_meters":11600,"station_id":"ce4bhmp2rcd13ifvqgog","pricing_plan_id":"cebpf4jnsgd1na2vs0mg"},{"bike_id":"bf933193-4b31-4e4c-99f9-ee76a4681337","system_id":"levelo_inurba_marseille","lat":43.24088,"lon":5.37757,"is_reserved":false,"is_disabled":false,"rental_uris":{"android":"levelo://app?vid=bf933193-4b31-4e4c-99f9-ee76a4681337","ios":"levelo://app?vid=bf933193-4b31-4e4c-99f9-ee76a4681337"},"vehicle_type_id":"4","last_reported":1741169406,"current_range_meters":11600,"station_id":"ce4bhnp2rcd13ifvqgvg","pricing_plan_id":"cebpf4jnsgd1na2vs0mg"},{"bike_id":"2f211e9f-9490-4679-9f88-05585197039f","system_id":"levelo_inurba_marseille","lat":43.23195,"lon":5.35555,"is_reserved":false,"is_disabled":false,"rental_uris":{"android":"levelo://app?vid=2f211e9f-9490-4679-9f88-05585197039f","ios":"levelo://app?vid=2f211e9f-9490-4679-9f88-05585197039f"},"vehicle_type_id":"4","last_reported":1741169406,"current_range_meters":11600,"station_id":"ce4bhu92rcd13ifvqi70","pricing_plan_id":"cebpf4jnsgd1na2vs0mg"},{"bike_id":"006f1616-49f3-4fd5-bca1-949549e9c26e","system_id":"levelo_inurba_marseille","lat":43.26074,"lon":5.39401,"is_reserved":false,"is_disabled":false,"rental_uris":{"android":"levelo://app?vid=006f1616-49f3-4fd5-bca1-949549e9c26e","ios":"levelo://app?vid=006f1616-49f3-4fd5-bca1-949549e9c26e"},"vehicle_type_id":"4","last_reported":1741169406,"current_range_meters":12000,"station_id":"ce4bhh92rcd13ifvqfj0","pricing_plan_id":"cebpf4jnsgd1na2vs0mg"},{"bike_id":"0033bace-bb3f-41a6-a6c3-04766af7a916","system_id":"levelo_inurba_marseille","lat":43.29967,"lon":5.37176,"is_reserved":false,"is_disabled":false,"rental_uris":{"android":"levelo://app?vid=0033bace-bb3f-41a6-a6c3-04766af7a916","ios":"levelo://app?vid=0033bace-bb3f-41a6-a6c3-04766af7a916"},"vehicle_type_id":"4","last_reported":1741169406,"current_range_meters":12400,"station_id":"ce4bgr92rcd13ifvqc7g","pricing_plan_id":"cebpf4jnsgd1na2vs0mg"},{"bike_id":"1696ad22-fc88-4e57-8bbc-598583a5eb65","system_id":"levelo_inurba_marseille","lat":43.30248,"lon":5.40086,"is_reserved":false,"is_disabled":false,"rental_uris":{"android":"levelo://app?vid=1696ad22-fc88-4e57-8bbc-598583a5eb65","ios":"levelo://app?vid=1696ad22-fc88-4e57-8bbc-598583a5eb65"},"vehicle_type_id":"4","last_reported":1741169406,"current_range_meters":12400,"station_id":"ce4bgvh2rcd13ifvqcs0","pricing_plan_id":"cebpf4jnsgd1na2vs0mg"},{"bike_id":"a779ad18-ca56-4d89-afc4-19b5aa3f1bbf","system_id":"levelo_inurba_marseille","lat":43.23954,"lon":5.36651,"is_reserved":false,"is_disabled":false,"rental_uris":{"android":"levelo://app?vid=a779ad18-ca56-4d89-afc4-19b5aa3f1bbf","ios":"levelo://app?vid=a779ad18-ca56-4d89-afc4-19b5aa3f1bbf"},"vehicle_type_id":"4","last_reported":1741169406,"current_range_meters":12400,"station_id":"ce4bhi12rcd13ifvqfp0","pricing_plan_id":"cebpf4jnsgd1na2vs0mg"},{"bike_id":"4b37ce1f-b43f-429e-a19c-b8c9e00f65d3","system_id":"levelo_inurba_marseille","lat":43.24065,"lon":5.37753,"is_reserved":false,"is_disabled":false,"rental_uris":{"android":"levelo://app?vid=4b37ce1f-b43f-429e-a19c-b8c9e00f65d3","ios":"levelo://app?vid=4b37ce1f-b43f-429e-a19c-b8c9e00f65d3"},"vehicle_type_id":"4","last_reported":1741169406,"current_range_meters":12400,"station_id":"ce4bhnp2rcd13ifvqgvg","pricing_plan_id":"cebpf4jnsgd1na2vs0mg"},{"bike_id":"cba6a766-3158-4fdc-849a-5887af830bdc","system_id":"levelo_inurba_marseille","lat":43.29242,"lon":5.38208,"is_reserved":false,"is_disabled":false,"rental_uris":{"android":"levelo://app?vid=cba6a766-3158-4fdc-849a-5887af830bdc","ios":"levelo://app?vid=cba6a766-3158-4fdc-849a-5887af830bdc"},"vehicle_type_id":"4","last_reported":1741169406,"current_range_meters":12800,"station_id":"","pricing_plan_id":"cebpf4jnsgd1na2vs0mg"},{"bike_id":"88a22b1d-d9d1-4f92-ba32-0732f4e154bc","system_id":"levelo_inurba_marseille","lat":43.23153,"lon":5.43707,"is_reserved":false,"is_disabled":false,"rental_uris":{"android":"levelo://app?vid=88a22b1d-d9d1-4f92-ba32-0732f4e154bc","ios":"levelo://app?vid=88a22b1d-d9d1-4f92-ba32-0732f4e154bc"},"vehicle_type_id":"4","last_reported":1741169406,"current_range_meters":12800,"station_id":"ce4bhmp2rcd13ifvqgog","pricing_plan_id":"cebpf4jnsgd1na2vs0mg"},{"bike_id":"330426bc-0af9-4c3e-8e4c-6ec10833df11","system_id":"levelo_inurba_marseille","lat":43.299046,"lon":5.436696,"is_reserved":false,"is_disabled":false,"rental_uris":{"android":"levelo://app?vid=330426bc-0af9-4c3e-8e4c-6ec10833df11","ios":"levelo://app?vid=330426bc-0af9-4c3e-8e4c-6ec10833df11"},"vehicle_type_id":"4","last_reported":1741169406,"current_range_meters":12800,"station_id":"ce4bhpp2rcd13ifvqhfg","pricing_plan_id":"cebpf4jnsgd1na2vs0mg"},{"bike_id":"82d21fc7-a101-418f-9655-2b3c943bcdd1","system_id":"levelo_inurba_marseille","lat":43.337236,"lon":5.391934,"is_reserved":false,"is_disabled":false,"rental_uris":{"android":"levelo://app?vid=82d21fc7-a101-418f-9655-2b3c943bcdd1","ios":"levelo://app?vid=82d21fc7-a101-418f-9655-2b3c943bcdd1"},"vehicle_type_id":"4","last_reported":1741169406,"current_range_meters":12800,"station_id":"ce4bhr92rcd13ifvqhsg","pricing_plan_id":"cebpf4jnsgd1na2vs0mg"},{"bike_id":"e8fb3957-55aa-4712-b8af-a6da8b77890f","system_id":"levelo_inurba_marseille","lat":43.3016,"lon":5.38124,"is_reserved":false,"is_disabled":false,"rental_uris":{"android":"levelo://app?vid=e8fb3957-55aa-4712-b8af-a6da8b77890f","ios":"levelo://app?vid=e8fb3957-55aa-4712-b8af-a6da8b77890f"},"vehicle_type_id":"4","last_reported":1741169406,"current_range_meters":13600,"station_id":"ce4bgjp2rcd13ifvqbh0","pricing_plan_id":"cebpf4jnsgd1na2vs0mg"},{"bike_id":"7e141603-5076-446b-a90d-8e44d6246006","system_id":"levelo_inurba_marseille","lat":43.3122,"lon":5.36884,"is_reserved":false,"is_disabled":false,"rental_uris":{"android":"levelo://app?vid=7e141603-5076-446b-a90d-8e44d6246006","ios":"levelo://app?vid=7e141603-5076-446b-a90d-8e44d6246006"},"vehicle_type_id":"4","last_reported":1741169406,"current_range_meters":13600,"station_id":"ce4bgl92rcd13ifvqbq0","pricing_plan_id":"cebpf4jnsgd1na2vs0mg"},{"bike_id":"12e18254-b863-444d-8925-63c2865f1afd","system_id":"levelo_inurba_marseille","lat":43.31363,"lon":5.36695,"is_reserved":false,"is_disabled":false,"rental_uris":{"android":"levelo://app?vid=12e18254-b863-444d-8925-63c2865f1afd","ios":"levelo://app?vid=12e18254-b863-444d-8925-63c2865f1afd"},"vehicle_type_id":"4","last_reported":1741169406,"current_range_meters":13600,"station_id":"ce4bgr92rcd13ifvqc6g","pricing_plan_id":"cebpf4jnsgd1na2vs0mg"},{"bike_id":"9cbb5914-3ce0-45a9-bfe4-895657d5f46f","system_id":"levelo_inurba_marseille","lat":43.23203,"lon":5.3556,"is_reserved":false,"is_disabled":false,"rental_uris":{"android":"levelo://app?vid=9cbb5914-3ce0-45a9-bfe4-895657d5f46f","ios":"levelo://app?vid=9cbb5914-3ce0-45a9-bfe4-895657d5f46f"},"vehicle_type_id":"4","last_reported":1741169406,"current_range_meters":13600,"station_id":"ce4bhu92rcd13ifvqi70","pricing_plan_id":"cebpf4jnsgd1na2vs0mg"},{"bike_id":"8e67c6c2-1f86-420e-855b-676e159ed831","system_id":"levelo_inurba_marseille","lat":43.23062,"lon":5.35493,"is_reserved":false,"is_disabled":false,"rental_uris":{"android":"levelo://app?vid=8e67c6c2-1f86-420e-855b-676e159ed831","ios":"levelo://app?vid=8e67c6c2-1f86-420e-855b-676e159ed831"},"vehicle_type_id":"4","last_reported":1741169406,"current_range_meters":13600,"station_id":"cpo3342slgdg3j2ifvpg","pricing_plan_id":"cebpf4jnsgd1na2vs0mg"},{"bike_id":"ede2858e-42c8-47a9-9c7d-217d9038f08a","system_id":"levelo_inurba_marseille","lat":43.24657,"lon":5.38171,"is_reserved":false,"is_disabled":false,"rental_uris":{"android":"levelo://app?vid=ede2858e-42c8-47a9-9c7d-217d9038f08a","ios":"levelo://app?vid=ede2858e-42c8-47a9-9c7d-217d9038f08a"},"vehicle_type_id":"4","last_reported":1741169406,"current_range_meters":14000,"station_id":"ce4bhih2rcd13ifvqfr0","pricing_plan_id":"cebpf4jnsgd1na2vs0mg"},{"bike_id":"95a7f661-84a3-41c8-b322-371de73d76ec","system_id":"levelo_inurba_marseille","lat":43.25937,"lon":5.40902,"is_reserved":false,"is_disabled":false,"rental_uris":{"android":"levelo://app?vid=95a7f661-84a3-41c8-b322-371de73d76ec","ios":"levelo://app?vid=95a7f661-84a3-41c8-b322-371de73d76ec"},"vehicle_type_id":"4","last_reported":1741169406,"current_range_meters":14000,"station_id":"ce4bhm92rcd13ifvqglg","pricing_plan_id":"cebpf4jnsgd1na2vs0mg"},{"bike_id":"6eecd9a2-7f58-4d22-b3d0-d5ddac1cc0a6","system_id":"levelo_inurba_marseille","lat":43.27496,"lon":5.42462,"is_reserved":false,"is_disabled":false,"rental_uris":{"android":"levelo://app?vid=6eecd9a2-7f58-4d22-b3d0-d5ddac1cc0a6","ios":"levelo://app?vid=6eecd9a2-7f58-4d22-b3d0-d5ddac1cc0a6"},"vehicle_type_id":"4","last_reported":1741169406,"current_range_meters":14000,"station_id":"ce4bhn92rcd13ifvqgrg","pricing_plan_id":"cebpf4jnsgd1na2vs0mg"},{"bike_id":"7a4a9fca-a4db-4a2f-9666-4adc7290a5c2","system_id":"levelo_inurba_marseille","lat":43.337444,"lon":5.374475,"is_reserved":false,"is_disabled":false,"rental_uris":{"android":"levelo://app?vid=7a4a9fca-a4db-4a2f-9666-4adc7290a5c2","ios":"levelo://app?vid=7a4a9fca-a4db-4a2f-9666-4adc7290a5c2"},"vehicle_type_id":"4","last_reported":1741169406,"current_range_meters":14400,"station_id":"","pricing_plan_id":"cebpf4jnsgd1na2vs0mg"},{"bike_id":"9d446f7c-ee5a-453b-b8d4-a7573bc985a2","system_id":"levelo_inurba_marseille","lat":43.29294,"lon":5.37435,"is_reserved":false,"is_disabled":false,"rental_uris":{"android":"levelo://app?vid=9d446f7c-ee5a-453b-b8d4-a7573bc985a2","ios":"levelo://app?vid=9d446f7c-ee5a-453b-b8d4-a7573bc985a2"},"vehicle_type_id":"4","last_reported":1741169406,"current_range_meters":14400,"station_id":"ce4bgi12rcd13ifvqb70","pricing_plan_id":"cebpf4jnsgd1na2vs0mg"},{"bike_id":"e1c288c0-e41f-4e5c-ab24-b7f87e63b630","system_id":"levelo_inurba_marseille","lat":43.29964,"lon":5.38498,"is_reserved":false,"is_disabled":false,"rental_uris":{"android":"levelo://app?vid=e1c288c0-e41f-4e5c-ab24-b7f87e63b630","ios":"levelo://app?vid=e1c288c0-e41f-4e5c-ab24-b7f87e63b630"},"vehicle_type_id":"4","last_reported":1741169406,"current_range_meters":14400,"station_id":"ce4bgj92rcd13ifvqbd0","pricing_plan_id":"cebpf4jnsgd1na2vs0mg"},{"bike_id":"914c6412-5c6d-484b-892f-7130f00576ba","system_id":"levelo_inurba_marseille","lat":43.28475,"lon":5.38427,"is_reserved":false,"is_disabled":false,"rental_uris":{"android":"levelo://app?vid=914c6412-5c6d-484b-892f-7130f00576ba","ios":"levelo://app?vid=914c6412-5c6d-484b-892f-7130f00576ba"},"vehicle_type_id":"4","last_reported":1741169406,"current_range_meters":14400,"station_id":"ce4bh512rcd13ifvqe3g","pricing_plan_id":"cebpf4jnsgd1na2vs0mg"},{"bike_id":"6dc4ba01-0c1d-4792-80d4-886b417eb9b5","system_id":"levelo_inurba_marseille","lat":43.27677,"lon":5.3888,"is_reserved":false,"is_disabled":false,"rental_uris":{"android":"levelo://app?vid=6dc4ba01-0c1d-4792-80d4-886b417eb9b5","ios":"levelo://app?vid=6dc4ba01-0c1d-4792-80d4-886b417eb9b5"},"vehicle_type_id":"4","last_reported":1741169406,"current_range_meters":14400,"station_id":"ce4bhi12rcd13ifvqfo0","pricing_plan_id":"cebpf4jnsgd1na2vs0mg"},{"bike_id":"ee59b3a3-0f87-489f-91b5-15c91569f1b2","system_id":"levelo_inurba_marseille","lat":43.24173,"lon":5.36413,"is_reserved":false,"is_disabled":false,"rental_uris":{"android":"levelo://app?vid=ee59b3a3-0f87-489f-91b5-15c91569f1b2","ios":"levelo://app?vid=ee59b3a3-0f87-489f-91b5-15c91569f1b2"},"vehicle_type_id":"4","last_reported":1741169406,"current_range_meters":14400,"station_id":"cpo36qri1sfpv3e86is0","pricing_plan_id":"cebpf4jnsgd1na2vs0mg"},{"bike_id":"37daac2b-b440-4805-b0a3-514ded11a5e0","system_id":"levelo_inurba_marseille","lat":43.30518,"lon":5.36742,"is_reserved":false,"is_disabled":false,"rental_uris":{"android":"levelo://app?vid=37daac2b-b440-4805-b0a3-514ded11a5e0","ios":"levelo://app?vid=37daac2b-b440-4805-b0a3-514ded11a5e0"},"vehicle_type_id":"4","last_reported":1741169406,"current_range_meters":14800,"station_id":"ce4bgrp2rcd13ifvqc9g","pricing_plan_id":"cebpf4jnsgd1na2vs0mg"},{"bike_id":"6417ca70-305f-42a8-b1fe-d4d85a749dae","system_id":"levelo_inurba_marseille","lat":43.30204,"lon":5.39459,"is_reserved":false,"is_disabled":false,"rental_uris":{"android":"levelo://app?vid=6417ca70-305f-42a8-b1fe-d4d85a749dae","ios":"levelo://app?vid=6417ca70-305f-42a8-b1fe-d4d85a749dae"},"vehicle_type_id":"4","last_reported":1741169406,"current_range_meters":14800,"station_id":"ce4bh0p2rcd13ifvqd70","pricing_plan_id":"cebpf4jnsgd1na2vs0mg"},{"bike_id":"a194ad29-8812-45f2-92b0-ff08b8aae0e0","system_id":"levelo_inurba_marseille","lat":43.30527,"lon":5.36722,"is_reserved":false,"is_disabled":false,"rental_uris":{"android":"levelo://app?vid=a194ad29-8812-45f2-92b0-ff08b8aae0e0","ios":"levelo://app?vid=a194ad29-8812-45f2-92b0-ff08b8aae0e0"},"vehicle_type_id":"4","last_reported":1741169406,"current_range_meters":15200,"station_id":"ce4bgrp2rcd13ifvqc9g","pricing_plan_id":"cebpf4jnsgd1na2vs0mg"},{"bike_id":"5904a53a-156f-4190-a227-81ee6abe001e","system_id":"levelo_inurba_marseille","lat":43.23959,"lon":5.36629,"is_reserved":false,"is_disabled":false,"rental_uris":{"android":"levelo://app?vid=5904a53a-156f-4190-a227-81ee6abe001e","ios":"levelo://app?vid=5904a53a-156f-4190-a227-81ee6abe001e"},"vehicle_type_id":"4","last_reported":1741169406,"current_range_meters":15200,"station_id":"ce4bhi12rcd13ifvqfp0","pricing_plan_id":"cebpf4jnsgd1na2vs0mg"},{"bike_id":"c11f530c-99ab-49c1-bdcc-785cd598698f","system_id":"levelo_inurba_marseille","lat":43.32536,"lon":5.41439,"is_reserved":false,"is_disabled":false,"rental_uris":{"android":"levelo://app?vid=c11f530c-99ab-49c1-bdcc-785cd598698f","ios":"levelo://app?vid=c11f530c-99ab-49c1-bdcc-785cd598698f"},"vehicle_type_id":"4","last_reported":1741169406,"current_range_meters":15200,"station_id":"ce4bhq12rcd13ifvqhhg","pricing_plan_id":"cebpf4jnsgd1na2vs0mg"},{"bike_id":"34b2884b-456c-4db9-810e-745b24a65d05","system_id":"levelo_inurba_marseille","lat":43.30089,"lon":5.39069,"is_reserved":false,"is_disabled":false,"rental_uris":{"android":"levelo://app?vid=34b2884b-456c-4db9-810e-745b24a65d05","ios":"levelo://app?vid=34b2884b-456c-4db9-810e-745b24a65d05"},"vehicle_type_id":"4","last_reported":1741169406,"current_range_meters":16000,"station_id":"ce4bh192rcd13ifvqdb0","pricing_plan_id":"cebpf4jnsgd1na2vs0mg"},{"bike_id":"50eb3a7f-ec3f-4542-a0c5-0dead1bab79b","system_id":"levelo_inurba_marseille","lat":43.27913,"lon":5.39581,"is_reserved":false,"is_disabled":false,"rental_uris":{"android":"levelo://app?vid=50eb3a7f-ec3f-4542-a0c5-0dead1bab79b","ios":"levelo://app?vid=50eb3a7f-ec3f-4542-a0c5-0dead1bab79b"},"vehicle_type_id":"4","last_reported":1741169406,"current_range_meters":16000,"station_id":"ce4bhf92rcd13ifvqf40","pricing_plan_id":"cebpf4jnsgd1na2vs0mg"},{"bike_id":"2f20fe16-3dfa-4f85-9620-feefc22192a9","system_id":"levelo_inurba_marseille","lat":43.24808,"lon":5.37453,"is_reserved":false,"is_disabled":false,"rental_uris":{"android":"levelo://app?vid=2f20fe16-3dfa-4f85-9620-feefc22192a9","ios":"levelo://app?vid=2f20fe16-3dfa-4f85-9620-feefc22192a9"},"vehicle_type_id":"4","last_reported":1741169406,"current_range_meters":16000,"station_id":"ce4bhgh2rcd13ifvqfb0","pricing_plan_id":"cebpf4jnsgd1na2vs0mg"},{"bike_id":"9cdc0688-b476-4e47-b0c2-48124c4a767c","system_id":"levelo_inurba_marseille","lat":43.24977,"lon":5.38957,"is_reserved":false,"is_disabled":false,"rental_uris":{"android":"levelo://app?vid=9cdc0688-b476-4e47-b0c2-48124c4a767c","ios":"levelo://app?vid=9cdc0688-b476-4e47-b0c2-48124c4a767c"},"vehicle_type_id":"4","last_reported":1741169406,"current_range_meters":16000,"station_id":"ce4bhgp2rcd13ifvqfd0","pricing_plan_id":"cebpf4jnsgd1na2vs0mg"},{"bike_id":"2d82c4ed-58aa-4c1a-ad78-1a9308c97c61","system_id":"levelo_inurba_marseille","lat":43.27566,"lon":5.38418,"is_reserved":false,"is_disabled":false,"rental_uris":{"android":"levelo://app?vid=2d82c4ed-58aa-4c1a-ad78-1a9308c97c61","ios":"levelo://app?vid=2d82c4ed-58aa-4c1a-ad78-1a9308c97c61"},"vehicle_type_id":"4","last_reported":1741169406,"current_range_meters":16000,"station_id":"ce4bhh92rcd13ifvqfi0","pricing_plan_id":"cebpf4jnsgd1na2vs0mg"},{"bike_id":"582c2a00-2f0a-4448-b241-804b9569d8ed","system_id":"levelo_inurba_marseille","lat":43.274989,"lon":5.424547,"is_reserved":false,"is_disabled":false,"rental_uris":{"android":"levelo://app?vid=582c2a00-2f0a-4448-b241-804b9569d8ed","ios":"levelo://app?vid=582c2a00-2f0a-4448-b241-804b9569d8ed"},"vehicle_type_id":"4","last_reported":1741169406,"current_range_meters":16000,"station_id":"ce4bhn92rcd13ifvqgrg","pricing_plan_id":"cebpf4jnsgd1na2vs0mg"},{"bike_id":"25414228-005a-48f5-8dbb-cb11b5b42c64","system_id":"levelo_inurba_marseille","lat":43.3361,"lon":5.41019,"is_reserved":false,"is_disabled":false,"rental_uris":{"android":"levelo://app?vid=25414228-005a-48f5-8dbb-cb11b5b42c64","ios":"levelo://app?vid=25414228-005a-48f5-8dbb-cb11b5b42c64"},"vehicle_type_id":"4","last_reported":1741169406,"current_range_meters":16000,"station_id":"ce4bhqh2rcd13ifvqhmg","pricing_plan_id":"cebpf4jnsgd1na2vs0mg"},{"bike_id":"72489898-2190-4836-97e3-c5e72db90d8e","system_id":"levelo_inurba_marseille","lat":43.29309,"lon":5.37459,"is_reserved":false,"is_disabled":false,"rental_uris":{"android":"levelo://app?vid=72489898-2190-4836-97e3-c5e72db90d8e","ios":"levelo://app?vid=72489898-2190-4836-97e3-c5e72db90d8e"},"vehicle_type_id":"4","last_reported":1741169406,"current_range_meters":16400,"station_id":"ce4bgi12rcd13ifvqb70","pricing_plan_id":"cebpf4jnsgd1na2vs0mg"},{"bike_id":"eb12048f-0fec-4b29-9658-69c7a0ab9ea8","system_id":"levelo_inurba_marseille","lat":43.2969,"lon":5.3729,"is_reserved":false,"is_disabled":false,"rental_uris":{"android":"levelo://app?vid=eb12048f-0fec-4b29-9658-69c7a0ab9ea8","ios":"levelo://app?vid=eb12048f-0fec-4b29-9658-69c7a0ab9ea8"},"vehicle_type_id":"4","last_reported":1741169406,"current_range_meters":16400,"station_id":"ce4bgk12rcd13ifvqbj0","pricing_plan_id":"cebpf4jnsgd1na2vs0mg"},{"bike_id":"ba0569e5-d360-46bb-ada9-a8bef8eda250","system_id":"levelo_inurba_marseille","lat":43.30532,"lon":5.36721,"is_reserved":false,"is_disabled":false,"rental_uris":{"android":"levelo://app?vid=ba0569e5-d360-46bb-ada9-a8bef8eda250","ios":"levelo://app?vid=ba0569e5-d360-46bb-ada9-a8bef8eda250"},"vehicle_type_id":"4","last_reported":1741169406,"current_range_meters":16400,"station_id":"ce4bgrp2rcd13ifvqc9g","pricing_plan_id":"cebpf4jnsgd1na2vs0mg"},{"bike_id":"15467364-8919-47e1-8568-d5b1778476a0","system_id":"levelo_inurba_marseille","lat":43.26919,"lon":5.38928,"is_reserved":false,"is_disabled":false,"rental_uris":{"android":"levelo://app?vid=15467364-8919-47e1-8568-d5b1778476a0","ios":"levelo://app?vid=15467364-8919-47e1-8568-d5b1778476a0"},"vehicle_type_id":"4","last_reported":1741169406,"current_range_meters":16400,"station_id":"ce4bhhh2rcd13ifvqfl0","pricing_plan_id":"cebpf4jnsgd1na2vs0mg"},{"bike_id":"ba60ddd0-090a-4921-a3fa-f07dc23829f3","system_id":"levelo_inurba_marseille","lat":43.2799,"lon":5.41676,"is_reserved":false,"is_disabled":false,"rental_uris":{"android":"levelo://app?vid=ba60ddd0-090a-4921-a3fa-f07dc23829f3","ios":"levelo://app?vid=ba60ddd0-090a-4921-a3fa-f07dc23829f3"},"vehicle_type_id":"4","last_reported":1741169406,"current_range_meters":16400,"station_id":"ce4bho12rcd13ifvqh1g","pricing_plan_id":"cebpf4jnsgd1na2vs0mg"},{"bike_id":"7f1905bf-da4d-4f13-af14-c5d46804e585","system_id":"levelo_inurba_marseille","lat":43.23192,"lon":5.35572,"is_reserved":false,"is_disabled":false,"rental_uris":{"android":"levelo://app?vid=7f1905bf-da4d-4f13-af14-c5d46804e585","ios":"levelo://app?vid=7f1905bf-da4d-4f13-af14-c5d46804e585"},"vehicle_type_id":"4","last_reported":1741169406,"current_range_meters":16400,"station_id":"ce4bhu92rcd13ifvqi70","pricing_plan_id":"cebpf4jnsgd1na2vs0mg"},{"bike_id":"0b3cb245-c1ab-4265-9e03-36f6b9bfa685","system_id":"levelo_inurba_marseille","lat":43.23058,"lon":5.35507,"is_reserved":false,"is_disabled":false,"rental_uris":{"android":"levelo://app?vid=0b3cb245-c1ab-4265-9e03-36f6b9bfa685","ios":"levelo://app?vid=0b3cb245-c1ab-4265-9e03-36f6b9bfa685"},"vehicle_type_id":"4","last_reported":1741169406,"current_range_meters":16400,"station_id":"cpo3342slgdg3j2ifvpg","pricing_plan_id":"cebpf4jnsgd1na2vs0mg"},{"bike_id":"ba9d4a82-0ce6-487f-bc4b-86c56883a8c8","system_id":"levelo_inurba_marseille","lat":43.31231,"lon":5.36849,"is_reserved":false,"is_disabled":false,"rental_uris":{"android":"levelo://app?vid=ba9d4a82-0ce6-487f-bc4b-86c56883a8c8","ios":"levelo://app?vid=ba9d4a82-0ce6-487f-bc4b-86c56883a8c8"},"vehicle_type_id":"4","last_reported":1741169406,"current_range_meters":16800,"station_id":"ce4bgl92rcd13ifvqbq0","pricing_plan_id":"cebpf4jnsgd1na2vs0mg"},{"bike_id":"743ff6c4-52bb-4441-83b1-6b735d48e06f","system_id":"levelo_inurba_marseille","lat":43.30879,"lon":5.36867,"is_reserved":false,"is_disabled":false,"rental_uris":{"android":"levelo://app?vid=743ff6c4-52bb-4441-83b1-6b735d48e06f","ios":"levelo://app?vid=743ff6c4-52bb-4441-83b1-6b735d48e06f"},"vehicle_type_id":"4","last_reported":1741169406,"current_range_meters":16800,"station_id":"ce4bgn92rcd13ifvqbvg","pricing_plan_id":"cebpf4jnsgd1na2vs0mg"},{"bike_id":"e5d41598-0b8c-4934-983a-bc2927772685","system_id":"levelo_inurba_marseille","lat":43.30954,"lon":5.39049,"is_reserved":false,"is_disabled":false,"rental_uris":{"android":"levelo://app?vid=e5d41598-0b8c-4934-983a-bc2927772685","ios":"levelo://app?vid=e5d41598-0b8c-4934-983a-bc2927772685"},"vehicle_type_id":"4","last_reported":1741169406,"current_range_meters":16800,"station_id":"ce4bgup2rcd13ifvqco0","pricing_plan_id":"cebpf4jnsgd1na2vs0mg"},{"bike_id":"c5e46d82-d9a0-452c-a125-bbbee3eb847e","system_id":"levelo_inurba_marseille","lat":43.28268,"lon":5.35063,"is_reserved":false,"is_disabled":false,"rental_uris":{"android":"levelo://app?vid=c5e46d82-d9a0-452c-a125-bbbee3eb847e","ios":"levelo://app?vid=c5e46d82-d9a0-452c-a125-bbbee3eb847e"},"vehicle_type_id":"4","last_reported":1741169406,"current_range_meters":16800,"station_id":"ce4bhbp2rcd13ifvqerg","pricing_plan_id":"cebpf4jnsgd1na2vs0mg"},{"bike_id":"5981e5fd-8ca3-4e17-921d-10437ee17d35","system_id":"levelo_inurba_marseille","lat":43.24153,"lon":5.36417,"is_reserved":false,"is_disabled":false,"rental_uris":{"android":"levelo://app?vid=5981e5fd-8ca3-4e17-921d-10437ee17d35","ios":"levelo://app?vid=5981e5fd-8ca3-4e17-921d-10437ee17d35"},"vehicle_type_id":"4","last_reported":1741169406,"current_range_meters":16800,"station_id":"cpo36qri1sfpv3e86is0","pricing_plan_id":"cebpf4jnsgd1na2vs0mg"},{"bike_id":"1d7fd8e9-65af-4686-b682-d44750bf20ae","system_id":"levelo_inurba_marseille","lat":43.29552,"lon":5.37543,"is_reserved":false,"is_disabled":false,"rental_uris":{"android":"levelo://app?vid=1d7fd8e9-65af-4686-b682-d44750bf20ae","ios":"levelo://app?vid=1d7fd8e9-65af-4686-b682-d44750bf20ae"},"vehicle_type_id":"4","last_reported":1741169406,"current_range_meters":17200,"station_id":"ce4bgh92rcd13ifvqb50","pricing_plan_id":"cebpf4jnsgd1na2vs0mg"},{"bike_id":"c3bb38ed-eddf-48ae-9f55-cd5a3cb5e59e","system_id":"levelo_inurba_marseille","lat":43.288516,"lon":5.393078,"is_reserved":false,"is_disabled":false,"rental_uris":{"android":"levelo://app?vid=c3bb38ed-eddf-48ae-9f55-cd5a3cb5e59e","ios":"levelo://app?vid=c3bb38ed-eddf-48ae-9f55-cd5a3cb5e59e"},"vehicle_type_id":"4","last_reported":1741169406,"current_range_meters":17200,"station_id":"ce4bgvp2rcd13ifvqcu0","pricing_plan_id":"cebpf4jnsgd1na2vs0mg"},{"bike_id":"48dd4a66-c4e0-4334-8dbe-e71a1ce9eb4d","system_id":"levelo_inurba_marseille","lat":43.28127,"lon":5.37864,"is_reserved":false,"is_disabled":false,"rental_uris":{"android":"levelo://app?vid=48dd4a66-c4e0-4334-8dbe-e71a1ce9eb4d","ios":"levelo://app?vid=48dd4a66-c4e0-4334-8dbe-e71a1ce9eb4d"},"vehicle_type_id":"4","last_reported":1741169406,"current_range_meters":17200,"station_id":"ce4bha12rcd13ifvqee0","pricing_plan_id":"cebpf4jnsgd1na2vs0mg"},{"bike_id":"ad3cb376-d6f6-4d1b-8b79-ab0958d72c4e","system_id":"levelo_inurba_marseille","lat":43.26553,"lon":5.37285,"is_reserved":false,"is_disabled":false,"rental_uris":{"android":"levelo://app?vid=ad3cb376-d6f6-4d1b-8b79-ab0958d72c4e","ios":"levelo://app?vid=ad3cb376-d6f6-4d1b-8b79-ab0958d72c4e"},"vehicle_type_id":"4","last_reported":1741169406,"current_range_meters":17200,"station_id":"ce4bhg12rcd13ifvqf70","pricing_plan_id":"cebpf4jnsgd1na2vs0mg"},{"bike_id":"8cbe57c2-63fb-42e8-a901-9fb40f5acdb1","system_id":"levelo_inurba_marseille","lat":43.24993,"lon":5.38933,"is_reserved":false,"is_disabled":false,"rental_uris":{"android":"levelo://app?vid=8cbe57c2-63fb-42e8-a901-9fb40f5acdb1","ios":"levelo://app?vid=8cbe57c2-63fb-42e8-a901-9fb40f5acdb1"},"vehicle_type_id":"4","last_reported":1741169406,"current_range_meters":17200,"station_id":"ce4bhgp2rcd13ifvqfd0","pricing_plan_id":"cebpf4jnsgd1na2vs0mg"},{"bike_id":"6b0cb687-810f-4280-9d9e-1ba36e77b56b","system_id":"levelo_inurba_marseille","lat":43.2622,"lon":5.40497,"is_reserved":false,"is_disabled":false,"rental_uris":{"android":"levelo://app?vid=6b0cb687-810f-4280-9d9e-1ba36e77b56b","ios":"levelo://app?vid=6b0cb687-810f-4280-9d9e-1ba36e77b56b"},"vehicle_type_id":"4","last_reported":1741169406,"current_range_meters":17200,"station_id":"ce4bhmh2rcd13ifvqgmg","pricing_plan_id":"cebpf4jnsgd1na2vs0mg"},{"bike_id":"c40242ef-c243-471a-a3f5-e67b334e86dc","system_id":"levelo_inurba_marseille","lat":43.27492,"lon":5.42448,"is_reserved":false,"is_disabled":false,"rental_uris":{"android":"levelo://app?vid=c40242ef-c243-471a-a3f5-e67b334e86dc","ios":"levelo://app?vid=c40242ef-c243-471a-a3f5-e67b334e86dc"},"vehicle_type_id":"4","last_reported":1741169406,"current_range_meters":17200,"station_id":"ce4bhn92rcd13ifvqgrg","pricing_plan_id":"cebpf4jnsgd1na2vs0mg"},{"bike_id":"6b398da2-3a97-4577-b364-a26f612bc685","system_id":"levelo_inurba_marseille","lat":43.24071,"lon":5.37771,"is_reserved":false,"is_disabled":false,"rental_uris":{"android":"levelo://app?vid=6b398da2-3a97-4577-b364-a26f612bc685","ios":"levelo://app?vid=6b398da2-3a97-4577-b364-a26f612bc685"},"vehicle_type_id":"4","last_reported":1741169406,"current_range_meters":17200,"station_id":"ce4bhnp2rcd13ifvqgvg","pricing_plan_id":"cebpf4jnsgd1na2vs0mg"},{"bike_id":"bd8865c2-ae8f-4a7b-a592-d58cfa554a69","system_id":"levelo_inurba_marseille","lat":43.29895,"lon":5.43672,"is_reserved":false,"is_disabled":false,"rental_uris":{"android":"levelo://app?vid=bd8865c2-ae8f-4a7b-a592-d58cfa554a69","ios":"levelo://app?vid=bd8865c2-ae8f-4a7b-a592-d58cfa554a69"},"vehicle_type_id":"4","last_reported":1741169406,"current_range_meters":17200,"station_id":"ce4bhpp2rcd13ifvqhfg","pricing_plan_id":"cebpf4jnsgd1na2vs0mg"},{"bike_id":"69a8d9f5-5b63-47ea-a7f1-10c63bf92395","system_id":"levelo_inurba_marseille","lat":43.32534,"lon":5.41441,"is_reserved":false,"is_disabled":false,"rental_uris":{"android":"levelo://app?vid=69a8d9f5-5b63-47ea-a7f1-10c63bf92395","ios":"levelo://app?vid=69a8d9f5-5b63-47ea-a7f1-10c63bf92395"},"vehicle_type_id":"4","last_reported":1741169406,"current_range_meters":17200,"station_id":"ce4bhq12rcd13ifvqhhg","pricing_plan_id":"cebpf4jnsgd1na2vs0mg"},{"bike_id":"ef9d72fc-54ba-481d-841a-0433a295da7a","system_id":"levelo_inurba_marseille","lat":43.32479,"lon":5.36569,"is_reserved":false,"is_disabled":false,"rental_uris":{"android":"levelo://app?vid=ef9d72fc-54ba-481d-841a-0433a295da7a","ios":"levelo://app?vid=ef9d72fc-54ba-481d-841a-0433a295da7a"},"vehicle_type_id":"4","last_reported":1741169406,"current_range_meters":17200,"station_id":"ce4bhs12rcd13ifvqhvg","pricing_plan_id":"cebpf4jnsgd1na2vs0mg"},{"bike_id":"a44a860a-849c-4de6-b8fb-98925d13cc22","system_id":"levelo_inurba_marseille","lat":43.29687,"lon":5.3729,"is_reserved":false,"is_disabled":false,"rental_uris":{"android":"levelo://app?vid=a44a860a-849c-4de6-b8fb-98925d13cc22","ios":"levelo://app?vid=a44a860a-849c-4de6-b8fb-98925d13cc22"},"vehicle_type_id":"4","last_reported":1741169406,"current_range_meters":17600,"station_id":"ce4bgk12rcd13ifvqbj0","pricing_plan_id":"cebpf4jnsgd1na2vs0mg"},{"bike_id":"d024dcd4-73fa-4814-abdf-d4aad24a6982","system_id":"levelo_inurba_marseille","lat":43.29506,"lon":5.3752,"is_reserved":false,"is_disabled":false,"rental_uris":{"android":"levelo://app?vid=d024dcd4-73fa-4814-abdf-d4aad24a6982","ios":"levelo://app?vid=d024dcd4-73fa-4814-abdf-d4aad24a6982"},"vehicle_type_id":"4","last_reported":1741169406,"current_range_meters":17600,"station_id":"ce4bgkp2rcd13ifvqbmg","pricing_plan_id":"cebpf4jnsgd1na2vs0mg"},{"bike_id":"46bfb07b-d0be-4074-a4f8-99b4d2fbaacf","system_id":"levelo_inurba_marseille","lat":43.30932,"lon":5.36836,"is_reserved":false,"is_disabled":false,"rental_uris":{"android":"levelo://app?vid=46bfb07b-d0be-4074-a4f8-99b4d2fbaacf","ios":"levelo://app?vid=46bfb07b-d0be-4074-a4f8-99b4d2fbaacf"},"vehicle_type_id":"4","last_reported":1741169406,"current_range_meters":17600,"station_id":"ce4bgn92rcd13ifvqbvg","pricing_plan_id":"cebpf4jnsgd1na2vs0mg"},{"bike_id":"9afcea09-b249-460c-be6a-74a807e23e9b","system_id":"levelo_inurba_marseille","lat":43.31362,"lon":5.3671,"is_reserved":false,"is_disabled":false,"rental_uris":{"android":"levelo://app?vid=9afcea09-b249-460c-be6a-74a807e23e9b","ios":"levelo://app?vid=9afcea09-b249-460c-be6a-74a807e23e9b"},"vehicle_type_id":"4","last_reported":1741169406,"current_range_meters":17600,"station_id":"ce4bgr92rcd13ifvqc6g","pricing_plan_id":"cebpf4jnsgd1na2vs0mg"},{"bike_id":"e1520afc-da0b-43ee-a947-bfc1425d9ac4","system_id":"levelo_inurba_marseille","lat":43.30289,"lon":5.37726,"is_reserved":false,"is_disabled":false,"rental_uris":{"android":"levelo://app?vid=e1520afc-da0b-43ee-a947-bfc1425d9ac4","ios":"levelo://app?vid=e1520afc-da0b-43ee-a947-bfc1425d9ac4"},"vehicle_type_id":"4","last_reported":1741169406,"current_range_meters":17600,"station_id":"ce4bguh2rcd13ifvqcj0","pricing_plan_id":"cebpf4jnsgd1na2vs0mg"},{"bike_id":"5cb3e475-d1c3-4bea-bb58-71ceaca27c06","system_id":"levelo_inurba_marseille","lat":43.28424,"lon":5.34978,"is_reserved":false,"is_disabled":false,"rental_uris":{"android":"levelo://app?vid=5cb3e475-d1c3-4bea-bb58-71ceaca27c06","ios":"levelo://app?vid=5cb3e475-d1c3-4bea-bb58-71ceaca27c06"},"vehicle_type_id":"4","last_reported":1741169406,"current_range_meters":17600,"station_id":"ce4bhbh2rcd13ifvqepg","pricing_plan_id":"cebpf4jnsgd1na2vs0mg"},{"bike_id":"e5c73a43-22f8-4211-9a6a-94cff42387fd","system_id":"levelo_inurba_marseille","lat":43.26574,"lon":5.39018,"is_reserved":false,"is_disabled":false,"rental_uris":{"android":"levelo://app?vid=e5c73a43-22f8-4211-9a6a-94cff42387fd","ios":"levelo://app?vid=e5c73a43-22f8-4211-9a6a-94cff42387fd"},"vehicle_type_id":"4","last_reported":1741169406,"current_range_meters":17600,"station_id":"ce4bhe12rcd13ifvqf30","pricing_plan_id":"cebpf4jnsgd1na2vs0mg"},{"bike_id":"75b307a6-f393-4d81-b2db-461bae36272a","system_id":"levelo_inurba_marseille","lat":43.24177,"lon":5.39733,"is_reserved":false,"is_disabled":false,"rental_uris":{"android":"levelo://app?vid=75b307a6-f393-4d81-b2db-461bae36272a","ios":"levelo://app?vid=75b307a6-f393-4d81-b2db-461bae36272a"},"vehicle_type_id":"4","last_reported":1741169406,"current_range_meters":17600,"station_id":"ce4bhn12rcd13ifvqgpg","pricing_plan_id":"cebpf4jnsgd1na2vs0mg"},{"bike_id":"a995302d-d56b-4d0f-8c76-10b44420aec9","system_id":"levelo_inurba_marseille","lat":43.27503,"lon":5.42465,"is_reserved":false,"is_disabled":false,"rental_uris":{"android":"levelo://app?vid=a995302d-d56b-4d0f-8c76-10b44420aec9","ios":"levelo://app?vid=a995302d-d56b-4d0f-8c76-10b44420aec9"},"vehicle_type_id":"4","last_reported":1741169406,"current_range_meters":17600,"station_id":"ce4bhn92rcd13ifvqgrg","pricing_plan_id":"cebpf4jnsgd1na2vs0mg"},{"bike_id":"61631f3e-8349-4ca2-9e9f-bf291304017a","system_id":"levelo_inurba_marseille","lat":43.31206,"lon":5.36854,"is_reserved":false,"is_disabled":false,"rental_uris":{"android":"levelo://app?vid=61631f3e-8349-4ca2-9e9f-bf291304017a","ios":"levelo://app?vid=61631f3e-8349-4ca2-9e9f-bf291304017a"},"vehicle_type_id":"4","last_reported":1741169406,"current_range_meters":18000,"station_id":"ce4bgl92rcd13ifvqbq0","pricing_plan_id":"cebpf4jnsgd1na2vs0mg"},{"bike_id":"b20578c3-dfef-4d2f-ab23-13240a468f9b","system_id":"levelo_inurba_marseille","lat":43.29724,"lon":5.36622,"is_reserved":false,"is_disabled":false,"rental_uris":{"android":"levelo://app?vid=b20578c3-dfef-4d2f-ab23-13240a468f9b","ios":"levelo://app?vid=b20578c3-dfef-4d2f-ab23-13240a468f9b"},"vehicle_type_id":"4","last_reported":1741169406,"current_range_meters":18000,"station_id":"ce4bgn12rcd13ifvqbt0","pricing_plan_id":"cebpf4jnsgd1na2vs0mg"},{"bike_id":"b863a2f4-f641-4949-99dd-66f56827638e","system_id":"levelo_inurba_marseille","lat":43.29575,"lon":5.3674,"is_reserved":false,"is_disabled":false,"rental_uris":{"android":"levelo://app?vid=b863a2f4-f641-4949-99dd-66f56827638e","ios":"levelo://app?vid=b863a2f4-f641-4949-99dd-66f56827638e"},"vehicle_type_id":"4","last_reported":1741169406,"current_range_meters":18000,"station_id":"ce4bgph2rcd13ifvqc2g","pricing_plan_id":"cebpf4jnsgd1na2vs0mg"},{"bike_id":"8f14b1f2-8348-4ec1-bf51-9b745b8d048a","system_id":"levelo_inurba_marseille","lat":43.27494,"lon":5.42472,"is_reserved":false,"is_disabled":false,"rental_uris":{"android":"levelo://app?vid=8f14b1f2-8348-4ec1-bf51-9b745b8d048a","ios":"levelo://app?vid=8f14b1f2-8348-4ec1-bf51-9b745b8d048a"},"vehicle_type_id":"4","last_reported":1741169406,"current_range_meters":18000,"station_id":"ce4bhn92rcd13ifvqgrg","pricing_plan_id":"cebpf4jnsgd1na2vs0mg"},{"bike_id":"d6023b6b-8278-41c6-89f0-3ed5e4288b59","system_id":"levelo_inurba_marseille","lat":43.30921,"lon":5.36856,"is_reserved":false,"is_disabled":false,"rental_uris":{"android":"levelo://app?vid=d6023b6b-8278-41c6-89f0-3ed5e4288b59","ios":"levelo://app?vid=d6023b6b-8278-41c6-89f0-3ed5e4288b59"},"vehicle_type_id":"4","last_reported":1741169406,"current_range_meters":18800,"station_id":"ce4bgn92rcd13ifvqbvg","pricing_plan_id":"cebpf4jnsgd1na2vs0mg"},{"bike_id":"c4494a12-4434-42b1-9e23-17fa59284679","system_id":"levelo_inurba_marseille","lat":43.30555,"lon":5.36701,"is_reserved":false,"is_disabled":false,"rental_uris":{"android":"levelo://app?vid=c4494a12-4434-42b1-9e23-17fa59284679","ios":"levelo://app?vid=c4494a12-4434-42b1-9e23-17fa59284679"},"vehicle_type_id":"4","last_reported":1741169406,"current_range_meters":18800,"station_id":"ce4bgrp2rcd13ifvqc9g","pricing_plan_id":"cebpf4jnsgd1na2vs0mg"},{"bike_id":"e07b6a40-7a9a-4502-8dd6-b0c384b406c8","system_id":"levelo_inurba_marseille","lat":43.31074,"lon":5.38354,"is_reserved":false,"is_disabled":false,"rental_uris":{"android":"levelo://app?vid=e07b6a40-7a9a-4502-8dd6-b0c384b406c8","ios":"levelo://app?vid=e07b6a40-7a9a-4502-8dd6-b0c384b406c8"},"vehicle_type_id":"4","last_reported":1741169406,"current_range_meters":18800,"station_id":"ce4bgv92rcd13ifvqcr0","pricing_plan_id":"cebpf4jnsgd1na2vs0mg"},{"bike_id":"5f32d8b8-14ba-4546-a54b-3eb5f4e6d2a8","system_id":"levelo_inurba_marseille","lat":43.29095,"lon":5.38135,"is_reserved":false,"is_disabled":false,"rental_uris":{"android":"levelo://app?vid=5f32d8b8-14ba-4546-a54b-3eb5f4e6d2a8","ios":"levelo://app?vid=5f32d8b8-14ba-4546-a54b-3eb5f4e6d2a8"},"vehicle_type_id":"4","last_reported":1741169406,"current_range_meters":18800,"station_id":"ce4bh512rcd13ifvqe2g","pricing_plan_id":"cebpf4jnsgd1na2vs0mg"},{"bike_id":"c1f9a23c-1a77-4891-a47a-a78c07e7f331","system_id":"levelo_inurba_marseille","lat":43.28921,"lon":5.38396,"is_reserved":false,"is_disabled":false,"rental_uris":{"android":"levelo://app?vid=c1f9a23c-1a77-4891-a47a-a78c07e7f331","ios":"levelo://app?vid=c1f9a23c-1a77-4891-a47a-a78c07e7f331"},"vehicle_type_id":"4","last_reported":1741169406,"current_range_meters":18800,"station_id":"ce4bh612rcd13ifvqe6g","pricing_plan_id":"cebpf4jnsgd1na2vs0mg"},{"bike_id":"d98f7ee9-826c-49bd-93a3-512b0107c6f0","system_id":"levelo_inurba_marseille","lat":43.29256,"lon":5.38456,"is_reserved":false,"is_disabled":false,"rental_uris":{"android":"levelo://app?vid=d98f7ee9-826c-49bd-93a3-512b0107c6f0","ios":"levelo://app?vid=d98f7ee9-826c-49bd-93a3-512b0107c6f0"},"vehicle_type_id":"4","last_reported":1741169406,"current_range_meters":18800,"station_id":"ce4bh692rcd13ifvqea0","pricing_plan_id":"cebpf4jnsgd1na2vs0mg"},{"bike_id":"1fc061eb-3385-4727-9140-afe1cbaa1930","system_id":"levelo_inurba_marseille","lat":43.26492,"lon":5.39545,"is_reserved":false,"is_disabled":false,"rental_uris":{"android":"levelo://app?vid=1fc061eb-3385-4727-9140-afe1cbaa1930","ios":"levelo://app?vid=1fc061eb-3385-4727-9140-afe1cbaa1930"},"vehicle_type_id":"4","last_reported":1741169406,"current_range_meters":18800,"station_id":"ce4bhi12rcd13ifvqfo0","pricing_plan_id":"cebpf4jnsgd1na2vs0mg"},{"bike_id":"39b4b816-f862-4ea2-a386-1e041c43ef29","system_id":"levelo_inurba_marseille","lat":43.25934,"lon":5.40899,"is_reserved":false,"is_disabled":false,"rental_uris":{"android":"levelo://app?vid=39b4b816-f862-4ea2-a386-1e041c43ef29","ios":"levelo://app?vid=39b4b816-f862-4ea2-a386-1e041c43ef29"},"vehicle_type_id":"4","last_reported":1741169406,"current_range_meters":18800,"station_id":"ce4bhm92rcd13ifvqglg","pricing_plan_id":"cebpf4jnsgd1na2vs0mg"},{"bike_id":"99147f18-1e4e-41de-b90e-8a382c9a462f","system_id":"levelo_inurba_marseille","lat":43.2955,"lon":5.42295,"is_reserved":false,"is_disabled":false,"rental_uris":{"android":"levelo://app?vid=99147f18-1e4e-41de-b90e-8a382c9a462f","ios":"levelo://app?vid=99147f18-1e4e-41de-b90e-8a382c9a462f"},"vehicle_type_id":"4","last_reported":1741169406,"current_range_meters":18800,"station_id":"ce4bhph2rcd13ifvqhdg","pricing_plan_id":"cebpf4jnsgd1na2vs0mg"},{"bike_id":"31643a0f-b120-4714-86fe-29fd09fe5152","system_id":"levelo_inurba_marseille","lat":43.26578,"lon":5.3906,"is_reserved":false,"is_disabled":false,"rental_uris":{"android":"levelo://app?vid=31643a0f-b120-4714-86fe-29fd09fe5152","ios":"levelo://app?vid=31643a0f-b120-4714-86fe-29fd09fe5152"},"vehicle_type_id":"4","last_reported":1741169406,"current_range_meters":19200,"station_id":"","pricing_plan_id":"cebpf4jnsgd1na2vs0mg"},{"bike_id":"b4a502ed-69b8-4339-b546-5a0e987d05d6","system_id":"levelo_inurba_marseille","lat":43.26555,"lon":5.37286,"is_reserved":false,"is_disabled":false,"rental_uris":{"android":"levelo://app?vid=b4a502ed-69b8-4339-b546-5a0e987d05d6","ios":"levelo://app?vid=b4a502ed-69b8-4339-b546-5a0e987d05d6"},"vehicle_type_id":"4","last_reported":1741169406,"current_range_meters":19200,"station_id":"ce4bhg12rcd13ifvqf70","pricing_plan_id":"cebpf4jnsgd1na2vs0mg"},{"bike_id":"4499c8e5-3b50-4d6d-90e0-50bf05f4de6d","system_id":"levelo_inurba_marseille","lat":43.26678,"lon":5.38268,"is_reserved":false,"is_disabled":false,"rental_uris":{"android":"levelo://app?vid=4499c8e5-3b50-4d6d-90e0-50bf05f4de6d","ios":"levelo://app?vid=4499c8e5-3b50-4d6d-90e0-50bf05f4de6d"},"vehicle_type_id":"4","last_reported":1741169406,"current_range_meters":19200,"station_id":"ce4bhg92rcd13ifvqf90","pricing_plan_id":"cebpf4jnsgd1na2vs0mg"},{"bike_id":"0dc2e92c-371e-45c3-aba2-e4f1e0cd051b","system_id":"levelo_inurba_marseille","lat":43.25963,"lon":5.40909,"is_reserved":false,"is_disabled":false,"rental_uris":{"android":"levelo://app?vid=0dc2e92c-371e-45c3-aba2-e4f1e0cd051b","ios":"levelo://app?vid=0dc2e92c-371e-45c3-aba2-e4f1e0cd051b"},"vehicle_type_id":"4","last_reported":1741169406,"current_range_meters":19200,"station_id":"ce4bhm92rcd13ifvqglg","pricing_plan_id":"cebpf4jnsgd1na2vs0mg"},{"bike_id":"e3a3d938-7aaa-4111-841c-944dbd32d237","system_id":"levelo_inurba_marseille","lat":43.30419,"lon":5.39753,"is_reserved":false,"is_disabled":false,"rental_uris":{"android":"levelo://app?vid=e3a3d938-7aaa-4111-841c-944dbd32d237","ios":"levelo://app?vid=e3a3d938-7aaa-4111-841c-944dbd32d237"},"vehicle_type_id":"4","last_reported":1741169406,"current_range_meters":19600,"station_id":"ce4bh092rcd13ifvqd20","pricing_plan_id":"cebpf4jnsgd1na2vs0mg"},{"bike_id":"3b82b501-461f-4ffb-bba3-15465844ef02","system_id":"levelo_inurba_marseille","lat":43.26686,"lon":5.38262,"is_reserved":false,"is_disabled":false,"rental_uris":{"android":"levelo://app?vid=3b82b501-461f-4ffb-bba3-15465844ef02","ios":"levelo://app?vid=3b82b501-461f-4ffb-bba3-15465844ef02"},"vehicle_type_id":"4","last_reported":1741169406,"current_range_meters":19600,"station_id":"ce4bhg92rcd13ifvqf90","pricing_plan_id":"cebpf4jnsgd1na2vs0mg"},{"bike_id":"e896dc3a-b84d-49ee-8c0d-a289abcd52db","system_id":"levelo_inurba_marseille","lat":43.27325,"lon":5.39064,"is_reserved":false,"is_disabled":false,"rental_uris":{"android":"levelo://app?vid=e896dc3a-b84d-49ee-8c0d-a289abcd52db","ios":"levelo://app?vid=e896dc3a-b84d-49ee-8c0d-a289abcd52db"},"vehicle_type_id":"4","last_reported":1741169406,"current_range_meters":19600,"station_id":"ce4bhgp2rcd13ifvqfe0","pricing_plan_id":"cebpf4jnsgd1na2vs0mg"},{"bike_id":"e7926fce-c1b1-4c65-a59d-12b145877898","system_id":"levelo_inurba_marseille","lat":43.23158,"lon":5.43717,"is_reserved":false,"is_disabled":false,"rental_uris":{"android":"levelo://app?vid=e7926fce-c1b1-4c65-a59d-12b145877898","ios":"levelo://app?vid=e7926fce-c1b1-4c65-a59d-12b145877898"},"vehicle_type_id":"4","last_reported":1741169406,"current_range_meters":19600,"station_id":"ce4bhmp2rcd13ifvqgog","pricing_plan_id":"cebpf4jnsgd1na2vs0mg"},{"bike_id":"96043b7b-1194-42cd-a711-3704d24f97b4","system_id":"levelo_inurba_marseille","lat":43.23148,"lon":5.43709,"is_reserved":false,"is_disabled":false,"rental_uris":{"android":"levelo://app?vid=96043b7b-1194-42cd-a711-3704d24f97b4","ios":"levelo://app?vid=96043b7b-1194-42cd-a711-3704d24f97b4"},"vehicle_type_id":"4","last_reported":1741169406,"current_range_meters":19600,"station_id":"ce4bhmp2rcd13ifvqgog","pricing_plan_id":"cebpf4jnsgd1na2vs0mg"},{"bike_id":"e73907ab-f6da-4782-858c-e3c34a61c44b","system_id":"levelo_inurba_marseille","lat":43.24059,"lon":5.37744,"is_reserved":false,"is_disabled":false,"rental_uris":{"android":"levelo://app?vid=e73907ab-f6da-4782-858c-e3c34a61c44b","ios":"levelo://app?vid=e73907ab-f6da-4782-858c-e3c34a61c44b"},"vehicle_type_id":"4","last_reported":1741169406,"current_range_meters":19600,"station_id":"ce4bhnp2rcd13ifvqgvg","pricing_plan_id":"cebpf4jnsgd1na2vs0mg"},{"bike_id":"9f29270e-e3e0-4f6c-9810-ffbd26af91a3","system_id":"levelo_inurba_marseille","lat":43.33603,"lon":5.41025,"is_reserved":false,"is_disabled":false,"rental_uris":{"android":"levelo://app?vid=9f29270e-e3e0-4f6c-9810-ffbd26af91a3","ios":"levelo://app?vid=9f29270e-e3e0-4f6c-9810-ffbd26af91a3"},"vehicle_type_id":"4","last_reported":1741169406,"current_range_meters":19600,"station_id":"ce4bhqh2rcd13ifvqhmg","pricing_plan_id":"cebpf4jnsgd1na2vs0mg"},{"bike_id":"7940066d-cd24-41b6-836e-1355fc2b9e03","system_id":"levelo_inurba_marseille","lat":43.23189,"lon":5.35567,"is_reserved":false,"is_disabled":false,"rental_uris":{"android":"levelo://app?vid=7940066d-cd24-41b6-836e-1355fc2b9e03","ios":"levelo://app?vid=7940066d-cd24-41b6-836e-1355fc2b9e03"},"vehicle_type_id":"4","last_reported":1741169406,"current_range_meters":19600,"station_id":"ce4bhu92rcd13ifvqi70","pricing_plan_id":"cebpf4jnsgd1na2vs0mg"},{"bike_id":"245b7811-6eb3-4150-abc1-68a127d87db2","system_id":"levelo_inurba_marseille","lat":43.29262,"lon":5.38441,"is_reserved":false,"is_disabled":false,"rental_uris":{"android":"levelo://app?vid=245b7811-6eb3-4150-abc1-68a127d87db2","ios":"levelo://app?vid=245b7811-6eb3-4150-abc1-68a127d87db2"},"vehicle_type_id":"4","last_reported":1741169406,"current_range_meters":20000,"station_id":"ce4bh692rcd13ifvqea0","pricing_plan_id":"cebpf4jnsgd1na2vs0mg"},{"bike_id":"31faa001-4f04-4f81-8325-fd3cf9cdbbc6","system_id":"levelo_inurba_marseille","lat":43.25861,"lon":5.39906,"is_reserved":false,"is_disabled":false,"rental_uris":{"android":"levelo://app?vid=31faa001-4f04-4f81-8325-fd3cf9cdbbc6","ios":"levelo://app?vid=31faa001-4f04-4f81-8325-fd3cf9cdbbc6"},"vehicle_type_id":"4","last_reported":1741169406,"current_range_meters":20000,"station_id":"ce4bhl92rcd13ifvqghg","pricing_plan_id":"cebpf4jnsgd1na2vs0mg"},{"bike_id":"fd1cc631-3dce-44d0-8400-ae515369dc1f","system_id":"levelo_inurba_marseille","lat":43.25942,"lon":5.40897,"is_reserved":false,"is_disabled":false,"rental_uris":{"android":"levelo://app?vid=fd1cc631-3dce-44d0-8400-ae515369dc1f","ios":"levelo://app?vid=fd1cc631-3dce-44d0-8400-ae515369dc1f"},