{"last_updated":1762539295,"ttl":60,"version":"2.2","data":{"bikes":[{"bike_id":"46ea1783-79a5-4ee9-b0e7-3de645166e70","system_id":"levelo_inurba_marseille","lat":43.22566,"lon":5.41634,"is_reserved":false,"is_disabled":false,"rental_uris":{"android":"levelo://app?vid=46ea1783-79a5-4ee9-b0e7-3de645166e70","ios":"levelo://app?vid=46ea1783-79a5-4ee9-b0e7-3de645166e70"},"vehicle_type_id":"4","last_reported":1762539295,"current_range_meters":2800,"station_id":"st_d2o4gvlbi1j2169b742g","pricing_plan_id":"cebpf4jnsgd1na2vs0mg"},{"bike_id":"084610da-748b-469d-a571-2683fabecc80","system_id":"levelo_inurba_marseille","lat":43.29876,"lon":5.39748,"is_reserved":false,"is_disabled":false,"rental_uris":{"android":"levelo://app?vid=084610da-748b-469d-a571-2683fabecc80","ios":"levelo://app?vid=084610da-748b-469d-a571-2683fabecc80"},"vehicle_type_id":"4","last_reported":1762539295,"current_range_meters":3200,"station_id":"ce4bh0h2rcd13ifvqd50","pricing_plan_id":"cebpf4jnsgd1na2vs0mg"},{"bike_id":"cdc8a26d-849c-46ec-9bb4-aee76a27a1e5","system_id":"levelo_inurba_marseille","lat":43.30536,"lon":5.3656,"is_reserved":false,"is_disabled":false,"rental_uris":{"android":"levelo://app?vid=cdc8a26d-849c-46ec-9bb4-aee76a27a1e5","ios":"levelo://app?vid=cdc8a26d-849c-46ec-9bb4-aee76a27a1e5"},"vehicle_type_id":"4","last_reported":1762539295,"current_range_meters":3200,"station_id":"ce4bgs12rcd13ifvqcag","pricing_plan_id":"cebpf4jnsgd1na2vs0mg"},{"bike_id":"d3a8c452-bd73-4909-9cfe-f1c0285f3d0c","system_id":"levelo_inurba_marseille","lat":43.28478,"lon":5.48398,"is_reserved":false,"is_disabled":false,"rental_uris":{"android":"levelo://app?vid=d3a8c452-bd73-4909-9cfe-f1c0285f3d0c","ios":"levelo://app?vid=d3a8c452-bd73-4909-9cfe-f1c0285f3d0c"},"vehicle_type_id":"4","last_reported":1762539295,"current_range_meters":3600,"station_id":"","pricing_plan_id":"cebpf4jnsgd1na2vs0mg"},{"bike_id":"8bb1e1dc-5ade-4a07-9604-5301f03033e6","system_id":"levelo_inurba_marseille","lat":43.27993,"lon":5.40012,"is_reserved":false,"is_disabled":false,"rental_uris":{"android":"levelo://app?vid=8bb1e1dc-5ade-4a07-9604-5301f03033e6","ios":"levelo://app?vid=8bb1e1dc-5ade-4a07-9604-5301f03033e6"},"vehicle_type_id":"4","last_reported":1762539295,"current_range_meters":3600,"station_id":"ce4bho92rcd13ifvqh4g","pricing_plan_id":"cebpf4jnsgd1na2vs0mg"},{"bike_id":"ab9e8ba8-a0de-4eec-88c9-39e7cef81b5c","system_id":"levelo_inurba_marseille","lat":43.3014,"lon":5.39858,"is_reserved":false,"is_disabled":false,"rental_uris":{"android":"levelo://app?vid=ab9e8ba8-a0de-4eec-88c9-39e7cef81b5c","ios":"levelo://app?vid=ab9e8ba8-a0de-4eec-88c9-39e7cef81b5c"},"vehicle_type_id":"4","last_reported":1762539295,"current_range_meters":4000,"station_id":"ce4bh0h2rcd13ifvqd40","pricing_plan_id":"cebpf4jnsgd1na2vs0mg"},{"bike_id":"fa098071-282d-4a01-b56b-00e4e80202ef","system_id":"levelo_inurba_marseille","lat":43.297926,"lon":5.404101,"is_reserved":false,"is_disabled":false,"rental_uris":{"android":"levelo://app?vid=fa098071-282d-4a01-b56b-00e4e80202ef","ios":"levelo://app?vid=fa098071-282d-4a01-b56b-00e4e80202ef"},"vehicle_type_id":"4","last_reported":1762539295,"current_range_meters":4000,"station_id":"ce4bh112rcd13ifvqd90","pricing_plan_id":"cebpf4jnsgd1na2vs0mg"},{"bike_id":"528aac55-a761-46e1-8287-7274d8677e92","system_id":"levelo_inurba_marseille","lat":43.30248,"lon":5.40077,"is_reserved":false,"is_disabled":false,"rental_uris":{"android":"levelo://app?vid=528aac55-a761-46e1-8287-7274d8677e92","ios":"levelo://app?vid=528aac55-a761-46e1-8287-7274d8677e92"},"vehicle_type_id":"4","last_reported":1762539295,"current_range_meters":4400,"station_id":"ce4bgvh2rcd13ifvqcs0","pricing_plan_id":"cebpf4jnsgd1na2vs0mg"},{"bike_id":"d5b2339b-0a49-4644-88a7-7e2f175a7aeb","system_id":"levelo_inurba_marseille","lat":43.28707,"lon":5.37929,"is_reserved":false,"is_disabled":false,"rental_uris":{"android":"levelo://app?vid=d5b2339b-0a49-4644-88a7-7e2f175a7aeb","ios":"levelo://app?vid=d5b2339b-0a49-4644-88a7-7e2f175a7aeb"},"vehicle_type_id":"4","last_reported":1762539295,"current_range_meters":4400,"station_id":"ce4bh9p2rcd13ifvqec0","pricing_plan_id":"cebpf4jnsgd1na2vs0mg"},{"bike_id":"9d21ef74-a9a7-4c09-8d25-8d08e7c1744e","system_id":"levelo_inurba_marseille","lat":43.27373,"lon":5.36259,"is_reserved":false,"is_disabled":false,"rental_uris":{"android":"levelo://app?vid=9d21ef74-a9a7-4c09-8d25-8d08e7c1744e","ios":"levelo://app?vid=9d21ef74-a9a7-4c09-8d25-8d08e7c1744e"},"vehicle_type_id":"4","last_reported":1762539295,"current_range_meters":4800,"station_id":"ce4bhbh2rcd13ifvqeo0","pricing_plan_id":"cebpf4jnsgd1na2vs0mg"},{"bike_id":"549e9e51-ae7d-4e75-9f9f-cc64f374ba44","system_id":"levelo_inurba_marseille","lat":43.24141,"lon":5.39397,"is_reserved":false,"is_disabled":false,"rental_uris":{"android":"levelo://app?vid=549e9e51-ae7d-4e75-9f9f-cc64f374ba44","ios":"levelo://app?vid=549e9e51-ae7d-4e75-9f9f-cc64f374ba44"},"vehicle_type_id":"4","last_reported":1762539295,"current_range_meters":4800,"station_id":"","pricing_plan_id":"cebpf4jnsgd1na2vs0mg"},{"bike_id":"39eb2cb4-82b0-49e9-8932-7dcddd7e1f26","system_id":"levelo_inurba_marseille","lat":43.298,"lon":5.38091,"is_reserved":false,"is_disabled":false,"rental_uris":{"android":"levelo://app?vid=39eb2cb4-82b0-49e9-8932-7dcddd7e1f26","ios":"levelo://app?vid=39eb2cb4-82b0-49e9-8932-7dcddd7e1f26"},"vehicle_type_id":"4","last_reported":1762539295,"current_range_meters":4800,"station_id":"ce4bgip2rcd13ifvqbb0","pricing_plan_id":"cebpf4jnsgd1na2vs0mg"},{"bike_id":"390fa609-d3e8-43cb-b547-b0997f9eb3ff","system_id":"levelo_inurba_marseille","lat":43.29918,"lon":5.37491,"is_reserved":false,"is_disabled":false,"rental_uris":{"android":"levelo://app?vid=390fa609-d3e8-43cb-b547-b0997f9eb3ff","ios":"levelo://app?vid=390fa609-d3e8-43cb-b547-b0997f9eb3ff"},"vehicle_type_id":"4","last_reported":1762539295,"current_range_meters":4800,"station_id":"ce4bgjh2rcd13ifvqbg0","pricing_plan_id":"cebpf4jnsgd1na2vs0mg"},{"bike_id":"2a4a356b-1326-428b-9d25-4759f54cb54e","system_id":"levelo_inurba_marseille","lat":43.28661,"lon":5.36346,"is_reserved":false,"is_disabled":false,"rental_uris":{"android":"levelo://app?vid=2a4a356b-1326-428b-9d25-4759f54cb54e","ios":"levelo://app?vid=2a4a356b-1326-428b-9d25-4759f54cb54e"},"vehicle_type_id":"4","last_reported":1762539295,"current_range_meters":6000,"station_id":"ce4bhah2rcd13ifvqej0","pricing_plan_id":"cebpf4jnsgd1na2vs0mg"},{"bike_id":"08d77df5-5945-4605-b3c0-45df0e3812a4","system_id":"levelo_inurba_marseille","lat":43.29532,"lon":5.38551,"is_reserved":false,"is_disabled":false,"rental_uris":{"android":"levelo://app?vid=08d77df5-5945-4605-b3c0-45df0e3812a4","ios":"levelo://app?vid=08d77df5-5945-4605-b3c0-45df0e3812a4"},"vehicle_type_id":"4","last_reported":1762539295,"current_range_meters":6000,"station_id":"ce4bgih2rcd13ifvqba0","pricing_plan_id":"cebpf4jnsgd1na2vs0mg"},{"bike_id":"faf02dba-a063-4be7-b738-20d510b602ef","system_id":"levelo_inurba_marseille","lat":43.29804,"lon":5.38263,"is_reserved":false,"is_disabled":false,"rental_uris":{"android":"levelo://app?vid=faf02dba-a063-4be7-b738-20d510b602ef","ios":"levelo://app?vid=faf02dba-a063-4be7-b738-20d510b602ef"},"vehicle_type_id":"4","last_reported":1762539295,"current_range_meters":6000,"station_id":"","pricing_plan_id":"cebpf4jnsgd1na2vs0mg"},{"bike_id":"81dcc136-dea2-46c0-98af-42dbdee92b54","system_id":"levelo_inurba_marseille","lat":43.28484,"lon":5.48388,"is_reserved":false,"is_disabled":false,"rental_uris":{"android":"levelo://app?vid=81dcc136-dea2-46c0-98af-42dbdee92b54","ios":"levelo://app?vid=81dcc136-dea2-46c0-98af-42dbdee92b54"},"vehicle_type_id":"4","last_reported":1762539295,"current_range_meters":6000,"station_id":"","pricing_plan_id":"cebpf4jnsgd1na2vs0mg"},{"bike_id":"fc8334d2-8cc7-48bf-93cc-8304409e8292","system_id":"levelo_inurba_marseille","lat":43.21795,"lon":5.34677,"is_reserved":false,"is_disabled":false,"rental_uris":{"android":"levelo://app?vid=fc8334d2-8cc7-48bf-93cc-8304409e8292","ios":"levelo://app?vid=fc8334d2-8cc7-48bf-93cc-8304409e8292"},"vehicle_type_id":"4","last_reported":1762539295,"current_range_meters":6000,"station_id":"","pricing_plan_id":"cebpf4jnsgd1na2vs0mg"},{"bike_id":"fa3af744-95cb-4b03-b008-4cdaf437eb8f","system_id":"levelo_inurba_marseille","lat":43.28261,"lon":5.35073,"is_reserved":false,"is_disabled":false,"rental_uris":{"android":"levelo://app?vid=fa3af744-95cb-4b03-b008-4cdaf437eb8f","ios":"levelo://app?vid=fa3af744-95cb-4b03-b008-4cdaf437eb8f"},"vehicle_type_id":"4","last_reported":1762539295,"current_range_meters":6000,"station_id":"ce4bhbp2rcd13ifvqerg","pricing_plan_id":"cebpf4jnsgd1na2vs0mg"},{"bike_id":"b756e39d-e44b-44f9-b77e-3af4c6e8cb33","system_id":"levelo_inurba_marseille","lat":43.246581,"lon":5.381724,"is_reserved":false,"is_disabled":false,"rental_uris":{"android":"levelo://app?vid=b756e39d-e44b-44f9-b77e-3af4c6e8cb33","ios":"levelo://app?vid=b756e39d-e44b-44f9-b77e-3af4c6e8cb33"},"vehicle_type_id":"4","last_reported":1762539295,"current_range_meters":6400,"station_id":"ce4bhih2rcd13ifvqfr0","pricing_plan_id":"cebpf4jnsgd1na2vs0mg"},{"bike_id":"dfeb9412-9935-42f8-a6ea-5639731eebd6","system_id":"levelo_inurba_marseille","lat":43.30252,"lon":5.40059,"is_reserved":false,"is_disabled":false,"rental_uris":{"android":"levelo://app?vid=dfeb9412-9935-42f8-a6ea-5639731eebd6","ios":"levelo://app?vid=dfeb9412-9935-42f8-a6ea-5639731eebd6"},"vehicle_type_id":"4","last_reported":1762539295,"current_range_meters":6400,"station_id":"ce4bgvh2rcd13ifvqcs0","pricing_plan_id":"cebpf4jnsgd1na2vs0mg"},{"bike_id":"3b2223bd-d83a-447c-a230-9a38bd33b9d4","system_id":"levelo_inurba_marseille","lat":43.25838,"lon":5.39423,"is_reserved":false,"is_disabled":false,"rental_uris":{"android":"levelo://app?vid=3b2223bd-d83a-447c-a230-9a38bd33b9d4","ios":"levelo://app?vid=3b2223bd-d83a-447c-a230-9a38bd33b9d4"},"vehicle_type_id":"4","last_reported":1762539295,"current_range_meters":6400,"station_id":"ce4bhip2rcd13ifvqft0","pricing_plan_id":"cebpf4jnsgd1na2vs0mg"},{"bike_id":"a1524990-715d-4193-b1a6-cd47fc8bb9b5","system_id":"levelo_inurba_marseille","lat":43.31219,"lon":5.36855,"is_reserved":false,"is_disabled":false,"rental_uris":{"android":"levelo://app?vid=a1524990-715d-4193-b1a6-cd47fc8bb9b5","ios":"levelo://app?vid=a1524990-715d-4193-b1a6-cd47fc8bb9b5"},"vehicle_type_id":"4","last_reported":1762539295,"current_range_meters":6400,"station_id":"ce4bgl92rcd13ifvqbq0","pricing_plan_id":"cebpf4jnsgd1na2vs0mg"},{"bike_id":"874b186c-6ec7-4094-a4dd-a249e7cc9b62","system_id":"levelo_inurba_marseille","lat":43.27742,"lon":5.42718,"is_reserved":false,"is_disabled":false,"rental_uris":{"android":"levelo://app?vid=874b186c-6ec7-4094-a4dd-a249e7cc9b62","ios":"levelo://app?vid=874b186c-6ec7-4094-a4dd-a249e7cc9b62"},"vehicle_type_id":"4","last_reported":1762539295,"current_range_meters":6800,"station_id":"","pricing_plan_id":"cebpf4jnsgd1na2vs0mg"},{"bike_id":"e5c157c0-2a99-46b9-85c6-dfc0e3aa4cfc","system_id":"levelo_inurba_marseille","lat":43.284534,"lon":5.392104,"is_reserved":false,"is_disabled":false,"rental_uris":{"android":"levelo://app?vid=e5c157c0-2a99-46b9-85c6-dfc0e3aa4cfc","ios":"levelo://app?vid=e5c157c0-2a99-46b9-85c6-dfc0e3aa4cfc"},"vehicle_type_id":"4","last_reported":1762539295,"current_range_meters":6800,"station_id":"ce4bhoh2rcd13ifvqh5g","pricing_plan_id":"cebpf4jnsgd1na2vs0mg"},{"bike_id":"a26b15a9-d56c-4393-92cb-ca19ddf2372f","system_id":"levelo_inurba_marseille","lat":43.28617,"lon":5.35105,"is_reserved":false,"is_disabled":false,"rental_uris":{"android":"levelo://app?vid=a26b15a9-d56c-4393-92cb-ca19ddf2372f","ios":"levelo://app?vid=a26b15a9-d56c-4393-92cb-ca19ddf2372f"},"vehicle_type_id":"4","last_reported":1762539295,"current_range_meters":6800,"station_id":"ce4bhch2rcd13ifvqeug","pricing_plan_id":"cebpf4jnsgd1na2vs0mg"},{"bike_id":"71967476-752a-4f5e-b222-99c0eea95f39","system_id":"levelo_inurba_marseille","lat":43.32312,"lon":5.38425,"is_reserved":false,"is_disabled":false,"rental_uris":{"android":"levelo://app?vid=71967476-752a-4f5e-b222-99c0eea95f39","ios":"levelo://app?vid=71967476-752a-4f5e-b222-99c0eea95f39"},"vehicle_type_id":"4","last_reported":1762539295,"current_range_meters":6800,"station_id":"","pricing_plan_id":"cebpf4jnsgd1na2vs0mg"},{"bike_id":"7a6ba0ea-3274-4a35-9893-bdca49e1eada","system_id":"levelo_inurba_marseille","lat":43.28225,"lon":5.39081,"is_reserved":false,"is_disabled":false,"rental_uris":{"android":"levelo://app?vid=7a6ba0ea-3274-4a35-9893-bdca49e1eada","ios":"levelo://app?vid=7a6ba0ea-3274-4a35-9893-bdca49e1eada"},"vehicle_type_id":"4","last_reported":1762539295,"current_range_meters":6800,"station_id":"ce4bhn92rcd13ifvqgsg","pricing_plan_id":"cebpf4jnsgd1na2vs0mg"},{"bike_id":"aee6ed07-98c1-4c7d-bcf7-a035ddc68079","system_id":"levelo_inurba_marseille","lat":43.309271,"lon":5.371936,"is_reserved":false,"is_disabled":false,"rental_uris":{"android":"levelo://app?vid=aee6ed07-98c1-4c7d-bcf7-a035ddc68079","ios":"levelo://app?vid=aee6ed07-98c1-4c7d-bcf7-a035ddc68079"},"vehicle_type_id":"4","last_reported":1762539295,"current_range_meters":7200,"station_id":"ce4bguh2rcd13ifvqckg","pricing_plan_id":"cebpf4jnsgd1na2vs0mg"},{"bike_id":"7eea423d-0b12-4c70-82bf-8ece71dc07a3","system_id":"levelo_inurba_marseille","lat":43.23195,"lon":5.35554,"is_reserved":false,"is_disabled":false,"rental_uris":{"android":"levelo://app?vid=7eea423d-0b12-4c70-82bf-8ece71dc07a3","ios":"levelo://app?vid=7eea423d-0b12-4c70-82bf-8ece71dc07a3"},"vehicle_type_id":"4","last_reported":1762539295,"current_range_meters":7200,"station_id":"ce4bhu92rcd13ifvqi70","pricing_plan_id":"cebpf4jnsgd1na2vs0mg"},{"bike_id":"1e2074f1-6ac2-40fd-9f79-c1cc970837e3","system_id":"levelo_inurba_marseille","lat":43.32289,"lon":5.38279,"is_reserved":false,"is_disabled":false,"rental_uris":{"android":"levelo://app?vid=1e2074f1-6ac2-40fd-9f79-c1cc970837e3","ios":"levelo://app?vid=1e2074f1-6ac2-40fd-9f79-c1cc970837e3"},"vehicle_type_id":"4","last_reported":1762539295,"current_range_meters":7200,"station_id":"ce4bhr12rcd13ifvqhqg","pricing_plan_id":"cebpf4jnsgd1na2vs0mg"},{"bike_id":"3184944a-5c88-44ea-b673-1c35ed4a8392","system_id":"levelo_inurba_marseille","lat":43.28415,"lon":5.34981,"is_reserved":false,"is_disabled":false,"rental_uris":{"android":"levelo://app?vid=3184944a-5c88-44ea-b673-1c35ed4a8392","ios":"levelo://app?vid=3184944a-5c88-44ea-b673-1c35ed4a8392"},"vehicle_type_id":"4","last_reported":1762539295,"current_range_meters":7200,"station_id":"ce4bhbh2rcd13ifvqepg","pricing_plan_id":"cebpf4jnsgd1na2vs0mg"},{"bike_id":"a742a5a1-0351-47b8-97b0-d3451d71f985","system_id":"levelo_inurba_marseille","lat":43.3028,"lon":5.37701,"is_reserved":false,"is_disabled":false,"rental_uris":{"android":"levelo://app?vid=a742a5a1-0351-47b8-97b0-d3451d71f985","ios":"levelo://app?vid=a742a5a1-0351-47b8-97b0-d3451d71f985"},"vehicle_type_id":"4","last_reported":1762539295,"current_range_meters":7200,"station_id":"ce4bguh2rcd13ifvqcj0","pricing_plan_id":"cebpf4jnsgd1na2vs0mg"},{"bike_id":"a6b5c354-bbc4-46b2-9356-4b84838966f9","system_id":"levelo_inurba_marseille","lat":43.30698,"lon":5.40365,"is_reserved":false,"is_disabled":false,"rental_uris":{"android":"levelo://app?vid=a6b5c354-bbc4-46b2-9356-4b84838966f9","ios":"levelo://app?vid=a6b5c354-bbc4-46b2-9356-4b84838966f9"},"vehicle_type_id":"4","last_reported":1762539295,"current_range_meters":7200,"station_id":"","pricing_plan_id":"cebpf4jnsgd1na2vs0mg"},{"bike_id":"9dd3060d-4694-4f15-9eaa-a7e6f283ed81","system_id":"levelo_inurba_marseille","lat":43.29878,"lon":5.3973,"is_reserved":false,"is_disabled":false,"rental_uris":{"android":"levelo://app?vid=9dd3060d-4694-4f15-9eaa-a7e6f283ed81","ios":"levelo://app?vid=9dd3060d-4694-4f15-9eaa-a7e6f283ed81"},"vehicle_type_id":"4","last_reported":1762539295,"current_range_meters":7200,"station_id":"ce4bh0h2rcd13ifvqd50","pricing_plan_id":"cebpf4jnsgd1na2vs0mg"},{"bike_id":"aa073d3c-91f3-4920-9d1e-90bf82850b1e","system_id":"levelo_inurba_marseille","lat":43.33775,"lon":5.37463,"is_reserved":false,"is_disabled":false,"rental_uris":{"android":"levelo://app?vid=aa073d3c-91f3-4920-9d1e-90bf82850b1e","ios":"levelo://app?vid=aa073d3c-91f3-4920-9d1e-90bf82850b1e"},"vehicle_type_id":"4","last_reported":1762539295,"current_range_meters":7200,"station_id":"","pricing_plan_id":"cebpf4jnsgd1na2vs0mg"},{"bike_id":"6d6b4de6-1bff-4c19-8d1f-d94dfa31e91d","system_id":"levelo_inurba_marseille","lat":43.26949,"lon":5.40237,"is_reserved":false,"is_disabled":false,"rental_uris":{"android":"levelo://app?vid=6d6b4de6-1bff-4c19-8d1f-d94dfa31e91d","ios":"levelo://app?vid=6d6b4de6-1bff-4c19-8d1f-d94dfa31e91d"},"vehicle_type_id":"4","last_reported":1762539295,"current_range_meters":7200,"station_id":"cjm6bp8fraef2m0cb0m0","pricing_plan_id":"cebpf4jnsgd1na2vs0mg"},{"bike_id":"d9d822bc-af0d-4ed3-9877-ef7c99f99148","system_id":"levelo_inurba_marseille","lat":43.29633,"lon":5.40593,"is_reserved":false,"is_disabled":false,"rental_uris":{"android":"levelo://app?vid=d9d822bc-af0d-4ed3-9877-ef7c99f99148","ios":"levelo://app?vid=d9d822bc-af0d-4ed3-9877-ef7c99f99148"},"vehicle_type_id":"4","last_reported":1762539295,"current_range_meters":8000,"station_id":"ce4bh0h2rcd13ifvqd60","pricing_plan_id":"cebpf4jnsgd1na2vs0mg"},{"bike_id":"bb63203c-9a73-434f-91c1-38656fd7a04a","system_id":"levelo_inurba_marseille","lat":43.28569,"lon":5.395,"is_reserved":false,"is_disabled":false,"rental_uris":{"android":"levelo://app?vid=bb63203c-9a73-434f-91c1-38656fd7a04a","ios":"levelo://app?vid=bb63203c-9a73-434f-91c1-38656fd7a04a"},"vehicle_type_id":"4","last_reported":1762539295,"current_range_meters":8000,"station_id":"ce4bh292rcd13ifvqdg0","pricing_plan_id":"cebpf4jnsgd1na2vs0mg"},{"bike_id":"32c4054d-c111-4f1c-b188-9138aed42210","system_id":"levelo_inurba_marseille","lat":43.31977,"lon":5.41583,"is_reserved":false,"is_disabled":false,"rental_uris":{"android":"levelo://app?vid=32c4054d-c111-4f1c-b188-9138aed42210","ios":"levelo://app?vid=32c4054d-c111-4f1c-b188-9138aed42210"},"vehicle_type_id":"4","last_reported":1762539295,"current_range_meters":8000,"station_id":"","pricing_plan_id":"cebpf4jnsgd1na2vs0mg"},{"bike_id":"1053ed40-b5f7-44d2-ac25-e607b90e0782","system_id":"levelo_inurba_marseille","lat":43.29198,"lon":5.3934,"is_reserved":false,"is_disabled":false,"rental_uris":{"android":"levelo://app?vid=1053ed40-b5f7-44d2-ac25-e607b90e0782","ios":"levelo://app?vid=1053ed40-b5f7-44d2-ac25-e607b90e0782"},"vehicle_type_id":"4","last_reported":1762539295,"current_range_meters":8000,"station_id":"ce4bh192rcd13ifvqdd0","pricing_plan_id":"cebpf4jnsgd1na2vs0mg"},{"bike_id":"59b31ef2-3fe3-46e5-b5a5-685f264695ce","system_id":"levelo_inurba_marseille","lat":43.28466,"lon":5.48409,"is_reserved":false,"is_disabled":false,"rental_uris":{"android":"levelo://app?vid=59b31ef2-3fe3-46e5-b5a5-685f264695ce","ios":"levelo://app?vid=59b31ef2-3fe3-46e5-b5a5-685f264695ce"},"vehicle_type_id":"4","last_reported":1762539295,"current_range_meters":8000,"station_id":"","pricing_plan_id":"cebpf4jnsgd1na2vs0mg"},{"bike_id":"3ffe2c7b-f27f-49bd-95c3-0ecfbf0880d2","system_id":"levelo_inurba_marseille","lat":43.30685,"lon":5.38425,"is_reserved":false,"is_disabled":false,"rental_uris":{"android":"levelo://app?vid=3ffe2c7b-f27f-49bd-95c3-0ecfbf0880d2","ios":"levelo://app?vid=3ffe2c7b-f27f-49bd-95c3-0ecfbf0880d2"},"vehicle_type_id":"4","last_reported":1762539295,"current_range_meters":8000,"station_id":"","pricing_plan_id":"cebpf4jnsgd1na2vs0mg"},{"bike_id":"b7896031-9397-4e9d-9a30-7defccfe7802","system_id":"levelo_inurba_marseille","lat":43.25136,"lon":5.40359,"is_reserved":false,"is_disabled":false,"rental_uris":{"android":"levelo://app?vid=b7896031-9397-4e9d-9a30-7defccfe7802","ios":"levelo://app?vid=b7896031-9397-4e9d-9a30-7defccfe7802"},"vehicle_type_id":"4","last_reported":1762539295,"current_range_meters":8000,"station_id":"ce4bhlh2rcd13ifvqgig","pricing_plan_id":"cebpf4jnsgd1na2vs0mg"},{"bike_id":"ab3a4d6b-b442-44b9-8f02-c1c222f445ba","system_id":"levelo_inurba_marseille","lat":43.27426,"lon":5.3929,"is_reserved":false,"is_disabled":false,"rental_uris":{"android":"levelo://app?vid=ab3a4d6b-b442-44b9-8f02-c1c222f445ba","ios":"levelo://app?vid=ab3a4d6b-b442-44b9-8f02-c1c222f445ba"},"vehicle_type_id":"4","last_reported":1762539295,"current_range_meters":8400,"station_id":"","pricing_plan_id":"cebpf4jnsgd1na2vs0mg"},{"bike_id":"f1cfe9cc-9702-48c0-bd81-5c0fecd8c22b","system_id":"levelo_inurba_marseille","lat":43.30246,"lon":5.40061,"is_reserved":false,"is_disabled":false,"rental_uris":{"android":"levelo://app?vid=f1cfe9cc-9702-48c0-bd81-5c0fecd8c22b","ios":"levelo://app?vid=f1cfe9cc-9702-48c0-bd81-5c0fecd8c22b"},"vehicle_type_id":"4","last_reported":1762539295,"current_range_meters":8400,"station_id":"ce4bgvh2rcd13ifvqcs0","pricing_plan_id":"cebpf4jnsgd1na2vs0mg"},{"bike_id":"04d0f783-c5b8-4b3f-af75-3660ccbb2bf2","system_id":"levelo_inurba_marseille","lat":43.24953,"lon":5.40403,"is_reserved":false,"is_disabled":false,"rental_uris":{"android":"levelo://app?vid=04d0f783-c5b8-4b3f-af75-3660ccbb2bf2","ios":"levelo://app?vid=04d0f783-c5b8-4b3f-af75-3660ccbb2bf2"},"vehicle_type_id":"4","last_reported":1762539295,"current_range_meters":8400,"station_id":"","pricing_plan_id":"cebpf4jnsgd1na2vs0mg"},{"bike_id":"682478dc-93cf-4329-a8bd-304a0938b8a8","system_id":"levelo_inurba_marseille","lat":43.286987,"lon":5.373875,"is_reserved":false,"is_disabled":false,"rental_uris":{"android":"levelo://app?vid=682478dc-93cf-4329-a8bd-304a0938b8a8","ios":"levelo://app?vid=682478dc-93cf-4329-a8bd-304a0938b8a8"},"vehicle_type_id":"4","last_reported":1762539295,"current_range_meters":8400,"station_id":"ce4bh3p2rcd13ifvqdq0","pricing_plan_id":"cebpf4jnsgd1na2vs0mg"},{"bike_id":"07bf175a-9e11-4fb2-b4c7-81c07ffd93c9","system_id":"levelo_inurba_marseille","lat":43.27993,"lon":5.41672,"is_reserved":false,"is_disabled":false,"rental_uris":{"android":"levelo://app?vid=07bf175a-9e11-4fb2-b4c7-81c07ffd93c9","ios":"levelo://app?vid=07bf175a-9e11-4fb2-b4c7-81c07ffd93c9"},"vehicle_type_id":"4","last_reported":1762539295,"current_range_meters":8400,"station_id":"ce4bho12rcd13ifvqh1g","pricing_plan_id":"cebpf4jnsgd1na2vs0mg"},{"bike_id":"b0732b62-19ca-4ec8-88e7-432d75ca293d","system_id":"levelo_inurba_marseille","lat":43.21751,"lon":5.34602,"is_reserved":false,"is_disabled":false,"rental_uris":{"android":"levelo://app?vid=b0732b62-19ca-4ec8-88e7-432d75ca293d","ios":"levelo://app?vid=b0732b62-19ca-4ec8-88e7-432d75ca293d"},"vehicle_type_id":"4","last_reported":1762539295,"current_range_meters":8400,"station_id":"","pricing_plan_id":"cebpf4jnsgd1na2vs0mg"},{"bike_id":"5d07d960-0476-4a4a-bd62-61d3ccfd63f5","system_id":"levelo_inurba_marseille","lat":43.246574,"lon":5.381639,"is_reserved":false,"is_disabled":false,"rental_uris":{"android":"levelo://app?vid=5d07d960-0476-4a4a-bd62-61d3ccfd63f5","ios":"levelo://app?vid=5d07d960-0476-4a4a-bd62-61d3ccfd63f5"},"vehicle_type_id":"4","last_reported":1762539295,"current_range_meters":8800,"station_id":"ce4bhih2rcd13ifvqfr0","pricing_plan_id":"cebpf4jnsgd1na2vs0mg"},{"bike_id":"7fda5bbe-faf0-4db1-9a32-0750541c9309","system_id":"levelo_inurba_marseille","lat":43.29432,"lon":5.39755,"is_reserved":false,"is_disabled":false,"rental_uris":{"android":"levelo://app?vid=7fda5bbe-faf0-4db1-9a32-0750541c9309","ios":"levelo://app?vid=7fda5bbe-faf0-4db1-9a32-0750541c9309"},"vehicle_type_id":"4","last_reported":1762539295,"current_range_meters":8800,"station_id":"ce4bh3h2rcd13ifvqdo0","pricing_plan_id":"cebpf4jnsgd1na2vs0mg"},{"bike_id":"f02f5ce5-66f0-467a-96af-7c4c826bb601","system_id":"levelo_inurba_marseille","lat":43.30419,"lon":5.39745,"is_reserved":false,"is_disabled":false,"rental_uris":{"android":"levelo://app?vid=f02f5ce5-66f0-467a-96af-7c4c826bb601","ios":"levelo://app?vid=f02f5ce5-66f0-467a-96af-7c4c826bb601"},"vehicle_type_id":"4","last_reported":1762539295,"current_range_meters":8800,"station_id":"ce4bh092rcd13ifvqd20","pricing_plan_id":"cebpf4jnsgd1na2vs0mg"},{"bike_id":"4bef1ddc-6261-461e-8add-dc01c52ac97c","system_id":"levelo_inurba_marseille","lat":43.27616,"lon":5.361053,"is_reserved":false,"is_disabled":false,"rental_uris":{"android":"levelo://app?vid=4bef1ddc-6261-461e-8add-dc01c52ac97c","ios":"levelo://app?vid=4bef1ddc-6261-461e-8add-dc01c52ac97c"},"vehicle_type_id":"4","last_reported":1762539295,"current_range_meters":8800,"station_id":"ce4bgj92rcd13ifvqbe0","pricing_plan_id":"cebpf4jnsgd1na2vs0mg"},{"bike_id":"62b597ad-0183-45ab-83ea-6b1f25540269","system_id":"levelo_inurba_marseille","lat":43.32753,"lon":5.45204,"is_reserved":false,"is_disabled":false,"rental_uris":{"android":"levelo://app?vid=62b597ad-0183-45ab-83ea-6b1f25540269","ios":"levelo://app?vid=62b597ad-0183-45ab-83ea-6b1f25540269"},"vehicle_type_id":"4","last_reported":1762539295,"current_range_meters":8800,"station_id":"","pricing_plan_id":"cebpf4jnsgd1na2vs0mg"},{"bike_id":"664cd368-7274-4972-bcd6-e0d786b45fee","system_id":"levelo_inurba_marseille","lat":43.29914,"lon":5.38143,"is_reserved":false,"is_disabled":false,"rental_uris":{"android":"levelo://app?vid=664cd368-7274-4972-bcd6-e0d786b45fee","ios":"levelo://app?vid=664cd368-7274-4972-bcd6-e0d786b45fee"},"vehicle_type_id":"4","last_reported":1762539295,"current_range_meters":9200,"station_id":"ce4bgj12rcd13ifvqbc0","pricing_plan_id":"cebpf4jnsgd1na2vs0mg"},{"bike_id":"4b72d118-d357-4d07-a806-746eabe92374","system_id":"levelo_inurba_marseille","lat":43.292567,"lon":5.384381,"is_reserved":false,"is_disabled":false,"rental_uris":{"android":"levelo://app?vid=4b72d118-d357-4d07-a806-746eabe92374","ios":"levelo://app?vid=4b72d118-d357-4d07-a806-746eabe92374"},"vehicle_type_id":"4","last_reported":1762539295,"current_range_meters":9200,"station_id":"ce4bh692rcd13ifvqea0","pricing_plan_id":"cebpf4jnsgd1na2vs0mg"},{"bike_id":"0e20a5d9-0ab3-4e71-a3ef-c9be28fc5551","system_id":"levelo_inurba_marseille","lat":43.28518,"lon":5.44098,"is_reserved":false,"is_disabled":false,"rental_uris":{"android":"levelo://app?vid=0e20a5d9-0ab3-4e71-a3ef-c9be28fc5551","ios":"levelo://app?vid=0e20a5d9-0ab3-4e71-a3ef-c9be28fc5551"},"vehicle_type_id":"4","last_reported":1762539295,"current_range_meters":9200,"station_id":"st_d3j3df2ikq2c7380ej80","pricing_plan_id":"cebpf4jnsgd1na2vs0mg"},{"bike_id":"f8e9c0fe-0749-40a5-84b2-5934f231b519","system_id":"levelo_inurba_marseille","lat":43.28158,"lon":5.42648,"is_reserved":false,"is_disabled":false,"rental_uris":{"android":"levelo://app?vid=f8e9c0fe-0749-40a5-84b2-5934f231b519","ios":"levelo://app?vid=f8e9c0fe-0749-40a5-84b2-5934f231b519"},"vehicle_type_id":"4","last_reported":1762539295,"current_range_meters":9200,"station_id":"ce4bhnh2rcd13ifvqgug","pricing_plan_id":"cebpf4jnsgd1na2vs0mg"},{"bike_id":"f734e448-6622-4863-b053-9f21b42f3085","system_id":"levelo_inurba_marseille","lat":43.25868,"lon":5.39894,"is_reserved":false,"is_disabled":false,"rental_uris":{"android":"levelo://app?vid=f734e448-6622-4863-b053-9f21b42f3085","ios":"levelo://app?vid=f734e448-6622-4863-b053-9f21b42f3085"},"vehicle_type_id":"4","last_reported":1762539295,"current_range_meters":9200,"station_id":"ce4bhl92rcd13ifvqghg","pricing_plan_id":"cebpf4jnsgd1na2vs0mg"},{"bike_id":"f47c3da6-c029-41b4-8242-9b3b8c7c5bf1","system_id":"levelo_inurba_marseille","lat":43.29574,"lon":5.39962,"is_reserved":false,"is_disabled":false,"rental_uris":{"android":"levelo://app?vid=f47c3da6-c029-41b4-8242-9b3b8c7c5bf1","ios":"levelo://app?vid=f47c3da6-c029-41b4-8242-9b3b8c7c5bf1"},"vehicle_type_id":"4","last_reported":1762539295,"current_range_meters":9600,"station_id":"ce4bh312rcd13ifvqdj0","pricing_plan_id":"cebpf4jnsgd1na2vs0mg"},{"bike_id":"8a0747c0-b543-443f-b5f2-79700820d79e","system_id":"levelo_inurba_marseille","lat":43.29258,"lon":5.40899,"is_reserved":false,"is_disabled":false,"rental_uris":{"android":"levelo://app?vid=8a0747c0-b543-443f-b5f2-79700820d79e","ios":"levelo://app?vid=8a0747c0-b543-443f-b5f2-79700820d79e"},"vehicle_type_id":"4","last_reported":1762539295,"current_range_meters":9600,"station_id":"ce4bh192rcd13ifvqdc0","pricing_plan_id":"cebpf4jnsgd1na2vs0mg"},{"bike_id":"f15bc5cc-bf9e-4ae5-b4d9-ff0a9b68c8cf","system_id":"levelo_inurba_marseille","lat":43.23151,"lon":5.43703,"is_reserved":false,"is_disabled":false,"rental_uris":{"android":"levelo://app?vid=f15bc5cc-bf9e-4ae5-b4d9-ff0a9b68c8cf","ios":"levelo://app?vid=f15bc5cc-bf9e-4ae5-b4d9-ff0a9b68c8cf"},"vehicle_type_id":"4","last_reported":1762539295,"current_range_meters":10000,"station_id":"ce4bhmp2rcd13ifvqgog","pricing_plan_id":"cebpf4jnsgd1na2vs0mg"},{"bike_id":"711b5184-06a1-46c6-b1ad-270408b914a4","system_id":"levelo_inurba_marseille","lat":43.30008,"lon":5.40987,"is_reserved":false,"is_disabled":false,"rental_uris":{"android":"levelo://app?vid=711b5184-06a1-46c6-b1ad-270408b914a4","ios":"levelo://app?vid=711b5184-06a1-46c6-b1ad-270408b914a4"},"vehicle_type_id":"4","last_reported":1762539295,"current_range_meters":10000,"station_id":"","pricing_plan_id":"cebpf4jnsgd1na2vs0mg"},{"bike_id":"fc9ce2b9-f0ce-4c5a-9c8f-2d56054188ca","system_id":"levelo_inurba_marseille","lat":43.25121,"lon":5.40321,"is_reserved":false,"is_disabled":false,"rental_uris":{"android":"levelo://app?vid=fc9ce2b9-f0ce-4c5a-9c8f-2d56054188ca","ios":"levelo://app?vid=fc9ce2b9-f0ce-4c5a-9c8f-2d56054188ca"},"vehicle_type_id":"4","last_reported":1762539295,"current_range_meters":10000,"station_id":"ce4bhlh2rcd13ifvqgig","pricing_plan_id":"cebpf4jnsgd1na2vs0mg"},{"bike_id":"9693df76-f92c-4b2d-a377-737a427de146","system_id":"levelo_inurba_marseille","lat":43.251197,"lon":5.403192,"is_reserved":false,"is_disabled":false,"rental_uris":{"android":"levelo://app?vid=9693df76-f92c-4b2d-a377-737a427de146","ios":"levelo://app?vid=9693df76-f92c-4b2d-a377-737a427de146"},"vehicle_type_id":"4","last_reported":1762539295,"current_range_meters":10000,"station_id":"ce4bhlh2rcd13ifvqgig","pricing_plan_id":"cebpf4jnsgd1na2vs0mg"},{"bike_id":"735af335-66bf-4340-87fb-78f795989dcc","system_id":"levelo_inurba_marseille","lat":43.29898,"lon":5.38236,"is_reserved":false,"is_disabled":false,"rental_uris":{"android":"levelo://app?vid=735af335-66bf-4340-87fb-78f795989dcc","ios":"levelo://app?vid=735af335-66bf-4340-87fb-78f795989dcc"},"vehicle_type_id":"4","last_reported":1762539295,"current_range_meters":10000,"station_id":"","pricing_plan_id":"cebpf4jnsgd1na2vs0mg"},{"bike_id":"f3b9728a-d5dd-4800-a470-496c509b5639","system_id":"levelo_inurba_marseille","lat":43.26223,"lon":5.4045,"is_reserved":false,"is_disabled":true,"rental_uris":{"android":"levelo://app?vid=f3b9728a-d5dd-4800-a470-496c509b5639","ios":"levelo://app?vid=f3b9728a-d5dd-4800-a470-496c509b5639"},"vehicle_type_id":"4","last_reported":1762539295,"current_range_meters":10000,"station_id":"ce4bhmh2rcd13ifvqgmg","pricing_plan_id":"cebpf4jnsgd1na2vs0mg"},{"bike_id":"676f9b84-4eb4-49d4-bb45-1c4cb446cd66","system_id":"levelo_inurba_marseille","lat":43.33025,"lon":5.39035,"is_reserved":false,"is_disabled":false,"rental_uris":{"android":"levelo://app?vid=676f9b84-4eb4-49d4-bb45-1c4cb446cd66","ios":"levelo://app?vid=676f9b84-4eb4-49d4-bb45-1c4cb446cd66"},"vehicle_type_id":"4","last_reported":1762539295,"current_range_meters":10800,"station_id":"ce4bhr92rcd13ifvqhrg","pricing_plan_id":"cebpf4jnsgd1na2vs0mg"},{"bike_id":"dfb5db16-3bd6-4652-817a-53ea6168925a","system_id":"levelo_inurba_marseille","lat":43.292296,"lon":5.360776,"is_reserved":false,"is_disabled":false,"rental_uris":{"android":"levelo://app?vid=dfb5db16-3bd6-4652-817a-53ea6168925a","ios":"levelo://app?vid=dfb5db16-3bd6-4652-817a-53ea6168925a"},"vehicle_type_id":"4","last_reported":1762539295,"current_range_meters":10800,"station_id":"ce4bhbh2rcd13ifvqeqg","pricing_plan_id":"cebpf4jnsgd1na2vs0mg"},{"bike_id":"5bee8f0f-57fe-4257-a72a-04a4967570b5","system_id":"levelo_inurba_marseille","lat":43.30049,"lon":5.37715,"is_reserved":false,"is_disabled":false,"rental_uris":{"android":"levelo://app?vid=5bee8f0f-57fe-4257-a72a-04a4967570b5","ios":"levelo://app?vid=5bee8f0f-57fe-4257-a72a-04a4967570b5"},"vehicle_type_id":"4","last_reported":1762539295,"current_range_meters":10800,"station_id":"","pricing_plan_id":"cebpf4jnsgd1na2vs0mg"},{"bike_id":"c541d6c6-d855-480d-9416-ad1e26b18f93","system_id":"levelo_inurba_marseille","lat":43.2952,"lon":5.39399,"is_reserved":false,"is_disabled":true,"rental_uris":{"android":"levelo://app?vid=c541d6c6-d855-480d-9416-ad1e26b18f93","ios":"levelo://app?vid=c541d6c6-d855-480d-9416-ad1e26b18f93"},"vehicle_type_id":"4","last_reported":1762539295,"current_range_meters":10800,"station_id":"ce4bh292rcd13ifvqdf0","pricing_plan_id":"cebpf4jnsgd1na2vs0mg"},{"bike_id":"53632234-bc38-4663-bc68-d31fa31d816b","system_id":"levelo_inurba_marseille","lat":43.28701,"lon":5.39987,"is_reserved":false,"is_disabled":false,"rental_uris":{"android":"levelo://app?vid=53632234-bc38-4663-bc68-d31fa31d816b","ios":"levelo://app?vid=53632234-bc38-4663-bc68-d31fa31d816b"},"vehicle_type_id":"4","last_reported":1762539295,"current_range_meters":10800,"station_id":"ce4bho92rcd13ifvqh3g","pricing_plan_id":"cebpf4jnsgd1na2vs0mg"},{"bike_id":"5ff2b8fb-599d-4a20-882a-e30790ff8dab","system_id":"levelo_inurba_marseille","lat":43.27828,"lon":5.40718,"is_reserved":false,"is_disabled":false,"rental_uris":{"android":"levelo://app?vid=5ff2b8fb-599d-4a20-882a-e30790ff8dab","ios":"levelo://app?vid=5ff2b8fb-599d-4a20-882a-e30790ff8dab"},"vehicle_type_id":"4","last_reported":1762539295,"current_range_meters":10800,"station_id":"ce4bhnh2rcd13ifvqgtg","pricing_plan_id":"cebpf4jnsgd1na2vs0mg"},{"bike_id":"b79bb339-98d7-4fd8-ad43-8aef16c0401d","system_id":"levelo_inurba_marseille","lat":43.2884,"lon":5.39315,"is_reserved":false,"is_disabled":false,"rental_uris":{"android":"levelo://app?vid=b79bb339-98d7-4fd8-ad43-8aef16c0401d","ios":"levelo://app?vid=b79bb339-98d7-4fd8-ad43-8aef16c0401d"},"vehicle_type_id":"4","last_reported":1762539295,"current_range_meters":11200,"station_id":"ce4bh2p2rcd13ifvqdi0","pricing_plan_id":"cebpf4jnsgd1na2vs0mg"},{"bike_id":"5c17ed12-8897-4f84-bbfc-85419a7f8038","system_id":"levelo_inurba_marseille","lat":43.27096,"lon":5.39432,"is_reserved":false,"is_disabled":false,"rental_uris":{"android":"levelo://app?vid=5c17ed12-8897-4f84-bbfc-85419a7f8038","ios":"levelo://app?vid=5c17ed12-8897-4f84-bbfc-85419a7f8038"},"vehicle_type_id":"4","last_reported":1762539295,"current_range_meters":11200,"station_id":"","pricing_plan_id":"cebpf4jnsgd1na2vs0mg"},{"bike_id":"ec44e195-cde1-4252-aadf-701a64256dd7","system_id":"levelo_inurba_marseille","lat":43.24637,"lon":5.43142,"is_reserved":false,"is_disabled":false,"rental_uris":{"android":"levelo://app?vid=ec44e195-cde1-4252-aadf-701a64256dd7","ios":"levelo://app?vid=ec44e195-cde1-4252-aadf-701a64256dd7"},"vehicle_type_id":"4","last_reported":1762539295,"current_range_meters":11200,"station_id":"st_d2m6c4gdas8pm72e190g","pricing_plan_id":"cebpf4jnsgd1na2vs0mg"},{"bike_id":"2b48a41a-8cf4-413c-aa51-de614c139a44","system_id":"levelo_inurba_marseille","lat":43.28734,"lon":5.384,"is_reserved":false,"is_disabled":false,"rental_uris":{"android":"levelo://app?vid=2b48a41a-8cf4-413c-aa51-de614c139a44","ios":"levelo://app?vid=2b48a41a-8cf4-413c-aa51-de614c139a44"},"vehicle_type_id":"4","last_reported":1762539295,"current_range_meters":11200,"station_id":"","pricing_plan_id":"cebpf4jnsgd1na2vs0mg"},{"bike_id":"d186f3e4-6562-4dce-9b26-677c15ece916","system_id":"levelo_inurba_marseille","lat":43.278133,"lon":5.407143,"is_reserved":false,"is_disabled":false,"rental_uris":{"android":"levelo://app?vid=d186f3e4-6562-4dce-9b26-677c15ece916","ios":"levelo://app?vid=d186f3e4-6562-4dce-9b26-677c15ece916"},"vehicle_type_id":"4","last_reported":1762539295,"current_range_meters":11200,"station_id":"ce4bhnh2rcd13ifvqgtg","pricing_plan_id":"cebpf4jnsgd1na2vs0mg"},{"bike_id":"ff52e6d2-0126-428b-8241-f19a2cd5a014","system_id":"levelo_inurba_marseille","lat":43.26966,"lon":5.38648,"is_reserved":false,"is_disabled":true,"rental_uris":{"android":"levelo://app?vid=ff52e6d2-0126-428b-8241-f19a2cd5a014","ios":"levelo://app?vid=ff52e6d2-0126-428b-8241-f19a2cd5a014"},"vehicle_type_id":"4","last_reported":1762539295,"current_range_meters":11200,"station_id":"ce4bhh92rcd13ifvqfh0","pricing_plan_id":"cebpf4jnsgd1na2vs0mg"},{"bike_id":"b5af16cd-47af-4eb2-ac05-88173d577d5c","system_id":"levelo_inurba_marseille","lat":43.30323,"lon":5.40434,"is_reserved":false,"is_disabled":false,"rental_uris":{"android":"levelo://app?vid=b5af16cd-47af-4eb2-ac05-88173d577d5c","ios":"levelo://app?vid=b5af16cd-47af-4eb2-ac05-88173d577d5c"},"vehicle_type_id":"4","last_reported":1762539295,"current_range_meters":11200,"station_id":"ce4bh012rcd13ifvqd10","pricing_plan_id":"cebpf4jnsgd1na2vs0mg"},{"bike_id":"06d8a6d4-cde1-4774-80e5-91004a4fe543","system_id":"levelo_inurba_marseille","lat":43.298423,"lon":5.362831,"is_reserved":false,"is_disabled":false,"rental_uris":{"android":"levelo://app?vid=06d8a6d4-cde1-4774-80e5-91004a4fe543","ios":"levelo://app?vid=06d8a6d4-cde1-4774-80e5-91004a4fe543"},"vehicle_type_id":"4","last_reported":1762539295,"current_range_meters":11600,"station_id":"ce4bgpp2rcd13ifvqc3g","pricing_plan_id":"cebpf4jnsgd1na2vs0mg"},{"bike_id":"8d6b4679-b45c-4150-843a-a405a67bf27e","system_id":"levelo_inurba_marseille","lat":43.28154,"lon":5.42646,"is_reserved":false,"is_disabled":false,"rental_uris":{"android":"levelo://app?vid=8d6b4679-b45c-4150-843a-a405a67bf27e","ios":"levelo://app?vid=8d6b4679-b45c-4150-843a-a405a67bf27e"},"vehicle_type_id":"4","last_reported":1762539295,"current_range_meters":11600,"station_id":"ce4bhnh2rcd13ifvqgug","pricing_plan_id":"cebpf4jnsgd1na2vs0mg"},{"bike_id":"8f55fce0-7cec-4045-94fa-eed42623d89f","system_id":"levelo_inurba_marseille","lat":43.2509,"lon":5.3952,"is_reserved":false,"is_disabled":false,"rental_uris":{"android":"levelo://app?vid=8f55fce0-7cec-4045-94fa-eed42623d89f","ios":"levelo://app?vid=8f55fce0-7cec-4045-94fa-eed42623d89f"},"vehicle_type_id":"4","last_reported":1762539295,"current_range_meters":11600,"station_id":"ce4bhm12rcd13ifvqgkg","pricing_plan_id":"cebpf4jnsgd1na2vs0mg"},{"bike_id":"470fbe84-4292-424a-81a1-ddc5d0fc9959","system_id":"levelo_inurba_marseille","lat":43.33767,"lon":5.37433,"is_reserved":false,"is_disabled":false,"rental_uris":{"android":"levelo://app?vid=470fbe84-4292-424a-81a1-ddc5d0fc9959","ios":"levelo://app?vid=470fbe84-4292-424a-81a1-ddc5d0fc9959"},"vehicle_type_id":"4","last_reported":1762539295,"current_range_meters":11600,"station_id":"","pricing_plan_id":"cebpf4jnsgd1na2vs0mg"},{"bike_id":"2214147d-b2bc-47a5-8262-b29a2f3cbd90","system_id":"levelo_inurba_marseille","lat":43.28854,"lon":5.4252,"is_reserved":false,"is_disabled":false,"rental_uris":{"android":"levelo://app?vid=2214147d-b2bc-47a5-8262-b29a2f3cbd90","ios":"levelo://app?vid=2214147d-b2bc-47a5-8262-b29a2f3cbd90"},"vehicle_type_id":"4","last_reported":1762539295,"current_range_meters":11600,"station_id":"st_d3b462108ojc7389ooeg","pricing_plan_id":"cebpf4jnsgd1na2vs0mg"},{"bike_id":"9fb4c85b-b944-4739-883c-9c9af0aa5a74","system_id":"levelo_inurba_marseille","lat":43.24625,"lon":5.43136,"is_reserved":false,"is_disabled":false,"rental_uris":{"android":"levelo://app?vid=9fb4c85b-b944-4739-883c-9c9af0aa5a74","ios":"levelo://app?vid=9fb4c85b-b944-4739-883c-9c9af0aa5a74"},"vehicle_type_id":"4","last_reported":1762539295,"current_range_meters":12000,"station_id":"st_d2m6c4gdas8pm72e190g","pricing_plan_id":"cebpf4jnsgd1na2vs0mg"},{"bike_id":"b72920d5-4da6-493f-a1de-70193f5f2abe","system_id":"levelo_inurba_marseille","lat":43.29257,"lon":5.38436,"is_reserved":false,"is_disabled":false,"rental_uris":{"android":"levelo://app?vid=b72920d5-4da6-493f-a1de-70193f5f2abe","ios":"levelo://app?vid=b72920d5-4da6-493f-a1de-70193f5f2abe"},"vehicle_type_id":"4","last_reported":1762539295,"current_range_meters":12000,"station_id":"ce4bh692rcd13ifvqea0","pricing_plan_id":"cebpf4jnsgd1na2vs0mg"},{"bike_id":"dbb0c5dc-2a63-4042-b64e-2e78ba998ef1","system_id":"levelo_inurba_marseille","lat":43.286646,"lon":5.363477,"is_reserved":false,"is_disabled":false,"rental_uris":{"android":"levelo://app?vid=dbb0c5dc-2a63-4042-b64e-2e78ba998ef1","ios":"levelo://app?vid=dbb0c5dc-2a63-4042-b64e-2e78ba998ef1"},"vehicle_type_id":"4","last_reported":1762539295,"current_range_meters":12000,"station_id":"ce4bhah2rcd13ifvqej0","pricing_plan_id":"cebpf4jnsgd1na2vs0mg"},{"bike_id":"23d4b732-c785-4a74-a220-93191f06591d","system_id":"levelo_inurba_marseille","lat":43.21201,"lon":5.35073,"is_reserved":false,"is_disabled":true,"rental_uris":{"android":"levelo://app?vid=23d4b732-c785-4a74-a220-93191f06591d","ios":"levelo://app?vid=23d4b732-c785-4a74-a220-93191f06591d"},"vehicle_type_id":"4","last_reported":1762539295,"current_range_meters":12000,"station_id":"st_cvj6sg6p6f1abm77japg","pricing_plan_id":"cebpf4jnsgd1na2vs0mg"},{"bike_id":"2e0f5b64-65ed-42b3-9deb-fc4f03eedfcc","system_id":"levelo_inurba_marseille","lat":43.28529,"lon":5.44126,"is_reserved":false,"is_disabled":false,"rental_uris":{"android":"levelo://app?vid=2e0f5b64-65ed-42b3-9deb-fc4f03eedfcc","ios":"levelo://app?vid=2e0f5b64-65ed-42b3-9deb-fc4f03eedfcc"},"vehicle_type_id":"4","last_reported":1762539295,"current_range_meters":12000,"station_id":"st_d3j3df2ikq2c7380ej80","pricing_plan_id":"cebpf4jnsgd1na2vs0mg"},{"bike_id":"b41ec832-8f82-4184-afc1-071f3ed594e8","system_id":"levelo_inurba_marseille","lat":43.29576,"lon":5.39963,"is_reserved":false,"is_disabled":false,"rental_uris":{"android":"levelo://app?vid=b41ec832-8f82-4184-afc1-071f3ed594e8","ios":"levelo://app?vid=b41ec832-8f82-4184-afc1-071f3ed594e8"},"vehicle_type_id":"4","last_reported":1762539295,"current_range_meters":12400,"station_id":"ce4bh312rcd13ifvqdj0","pricing_plan_id":"cebpf4jnsgd1na2vs0mg"},{"bike_id":"7c392732-2900-41fd-8c6d-e5b49cdf67b5","system_id":"levelo_inurba_marseille","lat":43.2971,"lon":5.38255,"is_reserved":false,"is_disabled":false,"rental_uris":{"android":"levelo://app?vid=7c392732-2900-41fd-8c6d-e5b49cdf67b5","ios":"levelo://app?vid=7c392732-2900-41fd-8c6d-e5b49cdf67b5"},"vehicle_type_id":"4","last_reported":1762539295,"current_range_meters":12400,"station_id":"","pricing_plan_id":"cebpf4jnsgd1na2vs0mg"},{"bike_id":"40642e6c-3b42-4da5-8906-90812bb91823","system_id":"levelo_inurba_marseille","lat":43.25825,"lon":5.3943,"is_reserved":false,"is_disabled":false,"rental_uris":{"android":"levelo://app?vid=40642e6c-3b42-4da5-8906-90812bb91823","ios":"levelo://app?vid=40642e6c-3b42-4da5-8906-90812bb91823"},"vehicle_type_id":"4","last_reported":1762539295,"current_range_meters":12400,"station_id":"ce4bhip2rcd13ifvqft0","pricing_plan_id":"cebpf4jnsgd1na2vs0mg"},{"bike_id":"e29dcacd-c5cb-4908-af39-1ab6b3c10bce","system_id":"levelo_inurba_marseille","lat":43.28119,"lon":5.37846,"is_reserved":false,"is_disabled":false,"rental_uris":{"android":"levelo://app?vid=e29dcacd-c5cb-4908-af39-1ab6b3c10bce","ios":"levelo://app?vid=e29dcacd-c5cb-4908-af39-1ab6b3c10bce"},"vehicle_type_id":"4","last_reported":1762539295,"current_range_meters":12400,"station_id":"ce4bha12rcd13ifvqee0","pricing_plan_id":"cebpf4jnsgd1na2vs0mg"},{"bike_id":"4ce6153c-808d-4884-801c-66a2eb9198ef","system_id":"levelo_inurba_marseille","lat":43.2997,"lon":5.38493,"is_reserved":false,"is_disabled":false,"rental_uris":{"android":"levelo://app?vid=4ce6153c-808d-4884-801c-66a2eb9198ef","ios":"levelo://app?vid=4ce6153c-808d-4884-801c-66a2eb9198ef"},"vehicle_type_id":"4","last_reported":1762539295,"current_range_meters":12400,"station_id":"ce4bgj92rcd13ifvqbd0","pricing_plan_id":"cebpf4jnsgd1na2vs0mg"},{"bike_id":"33f5cab7-4943-4baf-9ef6-ff544c9f6584","system_id":"levelo_inurba_marseille","lat":43.2918,"lon":5.3933,"is_reserved":false,"is_disabled":false,"rental_uris":{"android":"levelo://app?vid=33f5cab7-4943-4baf-9ef6-ff544c9f6584","ios":"levelo://app?vid=33f5cab7-4943-4baf-9ef6-ff544c9f6584"},"vehicle_type_id":"4","last_reported":1762539295,"current_range_meters":12400,"station_id":"ce4bh192rcd13ifvqdd0","pricing_plan_id":"cebpf4jnsgd1na2vs0mg"},{"bike_id":"1fb6fc76-a463-4520-be34-0da0074dc553","system_id":"levelo_inurba_marseille","lat":43.278976,"lon":5.379992,"is_reserved":false,"is_disabled":false,"rental_uris":{"android":"levelo://app?vid=1fb6fc76-a463-4520-be34-0da0074dc553","ios":"levelo://app?vid=1fb6fc76-a463-4520-be34-0da0074dc553"},"vehicle_type_id":"4","last_reported":1762539295,"current_range_meters":12800,"station_id":"ce4bhf92rcd13ifvqf50","pricing_plan_id":"cebpf4jnsgd1na2vs0mg"},{"bike_id":"2c54771e-bc90-4fcb-a7c7-984aebd4a9b2","system_id":"levelo_inurba_marseille","lat":43.301292,"lon":5.387839,"is_reserved":false,"is_disabled":false,"rental_uris":{"android":"levelo://app?vid=2c54771e-bc90-4fcb-a7c7-984aebd4a9b2","ios":"levelo://app?vid=2c54771e-bc90-4fcb-a7c7-984aebd4a9b2"},"vehicle_type_id":"4","last_reported":1762539295,"current_range_meters":12800,"station_id":"ce4bghh2rcd13ifvqb60","pricing_plan_id":"cebpf4jnsgd1na2vs0mg"},{"bike_id":"e721a5b3-09de-4eca-8900-591b2e752f06","system_id":"levelo_inurba_marseille","lat":43.29793,"lon":5.38097,"is_reserved":false,"is_disabled":false,"rental_uris":{"android":"levelo://app?vid=e721a5b3-09de-4eca-8900-591b2e752f06","ios":"levelo://app?vid=e721a5b3-09de-4eca-8900-591b2e752f06"},"vehicle_type_id":"4","last_reported":1762539295,"current_range_meters":12800,"station_id":"ce4bgip2rcd13ifvqbb0","pricing_plan_id":"cebpf4jnsgd1na2vs0mg"},{"bike_id":"f78067c3-31aa-4d9c-b397-4174c2f5e418","system_id":"levelo_inurba_marseille","lat":43.295233,"lon":5.400663,"is_reserved":false,"is_disabled":false,"rental_uris":{"android":"levelo://app?vid=f78067c3-31aa-4d9c-b397-4174c2f5e418","ios":"levelo://app?vid=f78067c3-31aa-4d9c-b397-4174c2f5e418"},"vehicle_type_id":"4","last_reported":1762539295,"current_range_meters":12800,"station_id":"ce4bh312rcd13ifvqdj0","pricing_plan_id":"cebpf4jnsgd1na2vs0mg"},{"bike_id":"2dcfe196-a3fa-4707-a8f4-76164ae5ea20","system_id":"levelo_inurba_marseille","lat":43.294661,"lon":5.433113,"is_reserved":false,"is_disabled":false,"rental_uris":{"android":"levelo://app?vid=2dcfe196-a3fa-4707-a8f4-76164ae5ea20","ios":"levelo://app?vid=2dcfe196-a3fa-4707-a8f4-76164ae5ea20"},"vehicle_type_id":"4","last_reported":1762539295,"current_range_meters":12800,"station_id":"st_d3j5ugp08ojc73fj9d10","pricing_plan_id":"cebpf4jnsgd1na2vs0mg"},{"bike_id":"e9a3428e-d2af-4ded-ba49-5de94a507f2b","system_id":"levelo_inurba_marseille","lat":43.29034,"lon":5.3863,"is_reserved":false,"is_disabled":false,"rental_uris":{"android":"levelo://app?vid=e9a3428e-d2af-4ded-ba49-5de94a507f2b","ios":"levelo://app?vid=e9a3428e-d2af-4ded-ba49-5de94a507f2b"},"vehicle_type_id":"4","last_reported":1762539295,"current_range_meters":12800,"station_id":"ce4bh4p2rcd13ifvqe0g","pricing_plan_id":"cebpf4jnsgd1na2vs0mg"},{"bike_id":"3a6b939b-8483-4a00-8652-d825cdd856d7","system_id":"levelo_inurba_marseille","lat":43.22541,"lon":5.4163,"is_reserved":false,"is_disabled":false,"rental_uris":{"android":"levelo://app?vid=3a6b939b-8483-4a00-8652-d825cdd856d7","ios":"levelo://app?vid=3a6b939b-8483-4a00-8652-d825cdd856d7"},"vehicle_type_id":"4","last_reported":1762539295,"current_range_meters":12800,"station_id":"st_d2o4gvlbi1j2169b742g","pricing_plan_id":"cebpf4jnsgd1na2vs0mg"},{"bike_id":"beea4fa7-5641-4ca9-bc3d-923fcc0b34fe","system_id":"levelo_inurba_marseille","lat":43.25093,"lon":5.40303,"is_reserved":false,"is_disabled":false,"rental_uris":{"android":"levelo://app?vid=beea4fa7-5641-4ca9-bc3d-923fcc0b34fe","ios":"levelo://app?vid=beea4fa7-5641-4ca9-bc3d-923fcc0b34fe"},"vehicle_type_id":"4","last_reported":1762539295,"current_range_meters":13600,"station_id":"ce4bhlh2rcd13ifvqgig","pricing_plan_id":"cebpf4jnsgd1na2vs0mg"},{"bike_id":"a88522c2-7f31-460d-8b59-1c10109fed19","system_id":"levelo_inurba_marseille","lat":43.3143,"lon":5.37598,"is_reserved":false,"is_disabled":false,"rental_uris":{"android":"levelo://app?vid=a88522c2-7f31-460d-8b59-1c10109fed19","ios":"levelo://app?vid=a88522c2-7f31-460d-8b59-1c10109fed19"},"vehicle_type_id":"4","last_reported":1762539295,"current_range_meters":13600,"station_id":"","pricing_plan_id":"cebpf4jnsgd1na2vs0mg"},{"bike_id":"0b9755b6-c7fd-4287-ac1c-06c0d03c72ab","system_id":"levelo_inurba_marseille","lat":43.27496,"lon":5.42454,"is_reserved":false,"is_disabled":false,"rental_uris":{"android":"levelo://app?vid=0b9755b6-c7fd-4287-ac1c-06c0d03c72ab","ios":"levelo://app?vid=0b9755b6-c7fd-4287-ac1c-06c0d03c72ab"},"vehicle_type_id":"4","last_reported":1762539295,"current_range_meters":13600,"station_id":"ce4bhn92rcd13ifvqgrg","pricing_plan_id":"cebpf4jnsgd1na2vs0mg"},{"bike_id":"1df27b75-732b-4ad2-9673-9a1a56102106","system_id":"levelo_inurba_marseille","lat":43.29197,"lon":5.393264,"is_reserved":false,"is_disabled":false,"rental_uris":{"android":"levelo://app?vid=1df27b75-732b-4ad2-9673-9a1a56102106","ios":"levelo://app?vid=1df27b75-732b-4ad2-9673-9a1a56102106"},"vehicle_type_id":"4","last_reported":1762539295,"current_range_meters":13600,"station_id":"ce4bh192rcd13ifvqdd0","pricing_plan_id":"cebpf4jnsgd1na2vs0mg"},{"bike_id":"9e38f055-af01-4c9d-9e63-4093994a7faf","system_id":"levelo_inurba_marseille","lat":43.28624,"lon":5.35099,"is_reserved":false,"is_disabled":false,"rental_uris":{"android":"levelo://app?vid=9e38f055-af01-4c9d-9e63-4093994a7faf","ios":"levelo://app?vid=9e38f055-af01-4c9d-9e63-4093994a7faf"},"vehicle_type_id":"4","last_reported":1762539295,"current_range_meters":13600,"station_id":"ce4bhch2rcd13ifvqeug","pricing_plan_id":"cebpf4jnsgd1na2vs0mg"},{"bike_id":"310115a0-7bf2-4a4a-9d53-56bf6918e4d0","system_id":"levelo_inurba_marseille","lat":43.28451,"lon":5.48417,"is_reserved":false,"is_disabled":false,"rental_uris":{"android":"levelo://app?vid=310115a0-7bf2-4a4a-9d53-56bf6918e4d0","ios":"levelo://app?vid=310115a0-7bf2-4a4a-9d53-56bf6918e4d0"},"vehicle_type_id":"4","last_reported":1762539295,"current_range_meters":14000,"station_id":"st_d3svhcjqgbts73a3dn0g","pricing_plan_id":"cebpf4jnsgd1na2vs0mg"},{"bike_id":"05c639a2-6660-40ed-a12f-85b485fe188e","system_id":"levelo_inurba_marseille","lat":43.2924,"lon":5.35779,"is_reserved":false,"is_disabled":false,"rental_uris":{"android":"levelo://app?vid=05c639a2-6660-40ed-a12f-85b485fe188e","ios":"levelo://app?vid=05c639a2-6660-40ed-a12f-85b485fe188e"},"vehicle_type_id":"4","last_reported":1762539295,"current_range_meters":14000,"station_id":"ce4bhb12rcd13ifvqel0","pricing_plan_id":"cebpf4jnsgd1na2vs0mg"},{"bike_id":"6bda0665-cb5c-4ae7-af56-c17cb180cec7","system_id":"levelo_inurba_marseille","lat":43.281,"lon":5.37844,"is_reserved":false,"is_disabled":false,"rental_uris":{"android":"levelo://app?vid=6bda0665-cb5c-4ae7-af56-c17cb180cec7","ios":"levelo://app?vid=6bda0665-cb5c-4ae7-af56-c17cb180cec7"},"vehicle_type_id":"4","last_reported":1762539295,"current_range_meters":14000,"station_id":"ce4bha12rcd13ifvqee0","pricing_plan_id":"cebpf4jnsgd1na2vs0mg"},{"bike_id":"3771f242-ebc1-4678-84d4-230be10e9f54","system_id":"levelo_inurba_marseille","lat":43.25339,"lon":5.42163,"is_reserved":false,"is_disabled":false,"rental_uris":{"android":"levelo://app?vid=3771f242-ebc1-4678-84d4-230be10e9f54","ios":"levelo://app?vid=3771f242-ebc1-4678-84d4-230be10e9f54"},"vehicle_type_id":"4","last_reported":1762539295,"current_range_meters":14000,"station_id":"st_d2m65c5bi1j21697t3ng","pricing_plan_id":"cebpf4jnsgd1na2vs0mg"},{"bike_id":"cddba67f-c788-4913-a40f-497f7001f088","system_id":"levelo_inurba_marseille","lat":43.295227,"lon":5.385448,"is_reserved":false,"is_disabled":false,"rental_uris":{"android":"levelo://app?vid=cddba67f-c788-4913-a40f-497f7001f088","ios":"levelo://app?vid=cddba67f-c788-4913-a40f-497f7001f088"},"vehicle_type_id":"4","last_reported":1762539295,"current_range_meters":14000,"station_id":"ce4bguh2rcd13ifvqckg","pricing_plan_id":"cebpf4jnsgd1na2vs0mg"},{"bike_id":"81ec1508-d82b-4aac-9297-32378c509a80","system_id":"levelo_inurba_marseille","lat":43.29279,"lon":5.40127,"is_reserved":false,"is_disabled":false,"rental_uris":{"android":"levelo://app?vid=81ec1508-d82b-4aac-9297-32378c509a80","ios":"levelo://app?vid=81ec1508-d82b-4aac-9297-32378c509a80"},"vehicle_type_id":"4","last_reported":1762539295,"current_range_meters":14000,"station_id":"ce4bh312rcd13ifvqdk0","pricing_plan_id":"cebpf4jnsgd1na2vs0mg"},{"bike_id":"d53acc58-25de-4bab-96aa-555c1f973b51","system_id":"levelo_inurba_marseille","lat":43.295341,"lon":5.385415,"is_reserved":false,"is_disabled":false,"rental_uris":{"android":"levelo://app?vid=d53acc58-25de-4bab-96aa-555c1f973b51","ios":"levelo://app?vid=d53acc58-25de-4bab-96aa-555c1f973b51"},"vehicle_type_id":"4","last_reported":1762539295,"current_range_meters":14000,"station_id":"ce4bgih2rcd13ifvqba0","pricing_plan_id":"cebpf4jnsgd1na2vs0mg"},{"bike_id":"21dc4054-02ab-4edd-8e5e-af4b77e25dec","system_id":"levelo_inurba_marseille","lat":43.29801,"lon":5.40402,"is_reserved":false,"is_disabled":false,"rental_uris":{"android":"levelo://app?vid=21dc4054-02ab-4edd-8e5e-af4b77e25dec","ios":"levelo://app?vid=21dc4054-02ab-4edd-8e5e-af4b77e25dec"},"vehicle_type_id":"4","last_reported":1762539295,"current_range_meters":14400,"station_id":"ce4bh112rcd13ifvqd90","pricing_plan_id":"cebpf4jnsgd1na2vs0mg"},{"bike_id":"19b2c511-8dc4-46ee-8671-edb00e420145","system_id":"levelo_inurba_marseille","lat":43.29539,"lon":5.39023,"is_reserved":false,"is_disabled":false,"rental_uris":{"android":"levelo://app?vid=19b2c511-8dc4-46ee-8671-edb00e420145","ios":"levelo://app?vid=19b2c511-8dc4-46ee-8671-edb00e420145"},"vehicle_type_id":"4","last_reported":1762539295,"current_range_meters":14400,"station_id":"ce4bh3p2rcd13ifvqdp0","pricing_plan_id":"cebpf4jnsgd1na2vs0mg"},{"bike_id":"43cfab9e-f547-4304-9999-4a8329474751","system_id":"levelo_inurba_marseille","lat":43.211866,"lon":5.350836,"is_reserved":false,"is_disabled":false,"rental_uris":{"android":"levelo://app?vid=43cfab9e-f547-4304-9999-4a8329474751","ios":"levelo://app?vid=43cfab9e-f547-4304-9999-4a8329474751"},"vehicle_type_id":"4","last_reported":1762539295,"current_range_meters":14400,"station_id":"st_cvj6sg6p6f1abm77japg","pricing_plan_id":"cebpf4jnsgd1na2vs0mg"},{"bike_id":"dff6b6ac-b7da-4e65-b854-fe9dc1ccc19c","system_id":"levelo_inurba_marseille","lat":43.32026,"lon":5.41559,"is_reserved":false,"is_disabled":true,"rental_uris":{"android":"levelo://app?vid=dff6b6ac-b7da-4e65-b854-fe9dc1ccc19c","ios":"levelo://app?vid=dff6b6ac-b7da-4e65-b854-fe9dc1ccc19c"},"vehicle_type_id":"4","last_reported":1762539295,"current_range_meters":14400,"station_id":"ce4bhq92rcd13ifvqhkg","pricing_plan_id":"cebpf4jnsgd1na2vs0mg"},{"bike_id":"a48e1f78-222d-4078-82f2-58caa28d1f97","system_id":"levelo_inurba_marseille","lat":43.3043,"lon":5.38899,"is_reserved":false,"is_disabled":false,"rental_uris":{"android":"levelo://app?vid=a48e1f78-222d-4078-82f2-58caa28d1f97","ios":"levelo://app?vid=a48e1f78-222d-4078-82f2-58caa28d1f97"},"vehicle_type_id":"4","last_reported":1762539295,"current_range_meters":14400,"station_id":"ce4bgk12rcd13ifvqbi0","pricing_plan_id":"cebpf4jnsgd1na2vs0mg"},{"bike_id":"78bd5f74-b07f-4aac-b566-26ecec6fd5df","system_id":"levelo_inurba_marseille","lat":43.306804,"lon":5.38035,"is_reserved":false,"is_disabled":false,"rental_uris":{"android":"levelo://app?vid=78bd5f74-b07f-4aac-b566-26ecec6fd5df","ios":"levelo://app?vid=78bd5f74-b07f-4aac-b566-26ecec6fd5df"},"vehicle_type_id":"4","last_reported":1762539295,"current_range_meters":14400,"station_id":"","pricing_plan_id":"cebpf4jnsgd1na2vs0mg"},{"bike_id":"509d8e1f-8167-46d6-a7b5-95007fc7eaa1","system_id":"levelo_inurba_marseille","lat":43.25584,"lon":5.38229,"is_reserved":false,"is_disabled":false,"rental_uris":{"android":"levelo://app?vid=509d8e1f-8167-46d6-a7b5-95007fc7eaa1","ios":"levelo://app?vid=509d8e1f-8167-46d6-a7b5-95007fc7eaa1"},"vehicle_type_id":"4","last_reported":1762539295,"current_range_meters":14400,"station_id":"ce4bhih2rcd13ifvqfs0","pricing_plan_id":"cebpf4jnsgd1na2vs0mg"},{"bike_id":"2b577cad-f97e-4ded-b6cd-59ea3d364955","system_id":"levelo_inurba_marseille","lat":43.29617,"lon":5.37737,"is_reserved":false,"is_disabled":false,"rental_uris":{"android":"levelo://app?vid=2b577cad-f97e-4ded-b6cd-59ea3d364955","ios":"levelo://app?vid=2b577cad-f97e-4ded-b6cd-59ea3d364955"},"vehicle_type_id":"4","last_reported":1762539295,"current_range_meters":14400,"station_id":"ce4bgi92rcd13ifvqb90","pricing_plan_id":"cebpf4jnsgd1na2vs0mg"},{"bike_id":"401209f9-1098-407a-9275-182f209531f6","system_id":"levelo_inurba_marseille","lat":43.2956,"lon":5.42317,"is_reserved":false,"is_disabled":false,"rental_uris":{"android":"levelo://app?vid=401209f9-1098-407a-9275-182f209531f6","ios":"levelo://app?vid=401209f9-1098-407a-9275-182f209531f6"},"vehicle_type_id":"4","last_reported":1762539295,"current_range_meters":14400,"station_id":"ce4bhph2rcd13ifvqhdg","pricing_plan_id":"cebpf4jnsgd1na2vs0mg"},{"bike_id":"73f031fa-4f86-4ebd-92e6-fa27c1d49b7d","system_id":"levelo_inurba_marseille","lat":43.298478,"lon":5.362773,"is_reserved":false,"is_disabled":false,"rental_uris":{"android":"levelo://app?vid=73f031fa-4f86-4ebd-92e6-fa27c1d49b7d","ios":"levelo://app?vid=73f031fa-4f86-4ebd-92e6-fa27c1d49b7d"},"vehicle_type_id":"4","last_reported":1762539295,"current_range_meters":14400,"station_id":"ce4bgpp2rcd13ifvqc3g","pricing_plan_id":"cebpf4jnsgd1na2vs0mg"},{"bike_id":"cdda64f5-beb1-417e-b4eb-e960c588681c","system_id":"levelo_inurba_marseille","lat":43.3353,"lon":5.37429,"is_reserved":false,"is_disabled":false,"rental_uris":{"android":"levelo://app?vid=cdda64f5-beb1-417e-b4eb-e960c588681c","ios":"levelo://app?vid=cdda64f5-beb1-417e-b4eb-e960c588681c"},"vehicle_type_id":"4","last_reported":1762539295,"current_range_meters":14400,"station_id":"st_d46tts09ee8s73dlu43g","pricing_plan_id":"cebpf4jnsgd1na2vs0mg"},{"bike_id":"4548bfb3-06f4-4b10-aaa4-465cca5b7e05","system_id":"levelo_inurba_marseille","lat":43.28539,"lon":5.44105,"is_reserved":false,"is_disabled":false,"rental_uris":{"android":"levelo://app?vid=4548bfb3-06f4-4b10-aaa4-465cca5b7e05","ios":"levelo://app?vid=4548bfb3-06f4-4b10-aaa4-465cca5b7e05"},"vehicle_type_id":"4","last_reported":1762539295,"current_range_meters":14800,"station_id":"st_d3j3df2ikq2c7380ej80","pricing_plan_id":"cebpf4jnsgd1na2vs0mg"},{"bike_id":"22918fb7-a391-4f35-8c21-8eb60e2ab03f","system_id":"levelo_inurba_marseille","lat":43.2255,"lon":5.41643,"is_reserved":false,"is_disabled":false,"rental_uris":{"android":"levelo://app?vid=22918fb7-a391-4f35-8c21-8eb60e2ab03f","ios":"levelo://app?vid=22918fb7-a391-4f35-8c21-8eb60e2ab03f"},"vehicle_type_id":"4","last_reported":1762539295,"current_range_meters":14800,"station_id":"st_d2o4gvlbi1j2169b742g","pricing_plan_id":"cebpf4jnsgd1na2vs0mg"},{"bike_id":"755efed8-d4cd-4607-b2ac-87dbb7cf66a0","system_id":"levelo_inurba_marseille","lat":43.31708,"lon":5.37761,"is_reserved":false,"is_disabled":false,"rental_uris":{"android":"levelo://app?vid=755efed8-d4cd-4607-b2ac-87dbb7cf66a0","ios":"levelo://app?vid=755efed8-d4cd-4607-b2ac-87dbb7cf66a0"},"vehicle_type_id":"4","last_reported":1762539295,"current_range_meters":14800,"station_id":"ce4bgth2rcd13ifvqch0","pricing_plan_id":"cebpf4jnsgd1na2vs0mg"},{"bike_id":"ef1844ee-d184-44bf-b0ed-33a83d0529cf","system_id":"levelo_inurba_marseille","lat":43.29564,"lon":5.37512,"is_reserved":false,"is_disabled":false,"rental_uris":{"android":"levelo://app?vid=ef1844ee-d184-44bf-b0ed-33a83d0529cf","ios":"levelo://app?vid=ef1844ee-d184-44bf-b0ed-33a83d0529cf"},"vehicle_type_id":"4","last_reported":1762539295,"current_range_meters":14800,"station_id":"ce4bgh92rcd13ifvqb50","pricing_plan_id":"cebpf4jnsgd1na2vs0mg"},{"bike_id":"09564572-6458-4bbd-ab50-d2fa43c242aa","system_id":"levelo_inurba_marseille","lat":43.24649,"lon":5.38889,"is_reserved":false,"is_disabled":false,"rental_uris":{"android":"levelo://app?vid=09564572-6458-4bbd-ab50-d2fa43c242aa","ios":"levelo://app?vid=09564572-6458-4bbd-ab50-d2fa43c242aa"},"vehicle_type_id":"4","last_reported":1762539295,"current_range_meters":14800,"station_id":"ce4bhg12rcd13ifvqf60","pricing_plan_id":"cebpf4jnsgd1na2vs0mg"},{"bike_id":"2fdff41c-91f1-4990-9454-5fc6e91d9702","system_id":"levelo_inurba_marseille","lat":43.27911,"lon":5.3801,"is_reserved":false,"is_disabled":false,"rental_uris":{"android":"levelo://app?vid=2fdff41c-91f1-4990-9454-5fc6e91d9702","ios":"levelo://app?vid=2fdff41c-91f1-4990-9454-5fc6e91d9702"},"vehicle_type_id":"4","last_reported":1762539295,"current_range_meters":14800,"station_id":"ce4bhf92rcd13ifvqf50","pricing_plan_id":"cebpf4jnsgd1na2vs0mg"},{"bike_id":"fb9e9562-4e68-4b32-aa51-0d0a7bffba5e","system_id":"levelo_inurba_marseille","lat":43.24664,"lon":5.38168,"is_reserved":false,"is_disabled":false,"rental_uris":{"android":"levelo://app?vid=fb9e9562-4e68-4b32-aa51-0d0a7bffba5e","ios":"levelo://app?vid=fb9e9562-4e68-4b32-aa51-0d0a7bffba5e"},"vehicle_type_id":"4","last_reported":1762539295,"current_range_meters":15200,"station_id":"ce4bhih2rcd13ifvqfr0","pricing_plan_id":"cebpf4jnsgd1na2vs0mg"},{"bike_id":"9af0687b-3e79-4e11-b844-dd239618aeba","system_id":"levelo_inurba_marseille","lat":43.28852,"lon":5.42526,"is_reserved":false,"is_disabled":false,"rental_uris":{"android":"levelo://app?vid=9af0687b-3e79-4e11-b844-dd239618aeba","ios":"levelo://app?vid=9af0687b-3e79-4e11-b844-dd239618aeba"},"vehicle_type_id":"4","last_reported":1762539295,"current_range_meters":15200,"station_id":"st_d3b462108ojc7389ooeg","pricing_plan_id":"cebpf4jnsgd1na2vs0mg"},{"bike_id":"0d2aacdc-484e-4f2d-a82b-084422ef8fc3","system_id":"levelo_inurba_marseille","lat":43.28112,"lon":5.37837,"is_reserved":false,"is_disabled":false,"rental_uris":{"android":"levelo://app?vid=0d2aacdc-484e-4f2d-a82b-084422ef8fc3","ios":"levelo://app?vid=0d2aacdc-484e-4f2d-a82b-084422ef8fc3"},"vehicle_type_id":"4","last_reported":1762539295,"current_range_meters":15200,"station_id":"ce4bha12rcd13ifvqee0","pricing_plan_id":"cebpf4jnsgd1na2vs0mg"},{"bike_id":"b0eb36ef-53fe-4940-be4e-0838018d16be","system_id":"levelo_inurba_marseille","lat":43.29253,"lon":5.38437,"is_reserved":false,"is_disabled":false,"rental_uris":{"android":"levelo://app?vid=b0eb36ef-53fe-4940-be4e-0838018d16be","ios":"levelo://app?vid=b0eb36ef-53fe-4940-be4e-0838018d16be"},"vehicle_type_id":"4","last_reported":1762539295,"current_range_meters":15200,"station_id":"ce4bh692rcd13ifvqea0","pricing_plan_id":"cebpf4jnsgd1na2vs0mg"},{"bike_id":"cbaf6e70-be37-4c92-8bb7-677f9be0a37d","system_id":"levelo_inurba_marseille","lat":43.30118,"lon":5.43107,"is_reserved":false,"is_disabled":false,"rental_uris":{"android":"levelo://app?vid=cbaf6e70-be37-4c92-8bb7-677f9be0a37d","ios":"levelo://app?vid=cbaf6e70-be37-4c92-8bb7-677f9be0a37d"},"vehicle_type_id":"4","last_reported":1762539295,"current_range_meters":16000,"station_id":"st_d3js3co5814s73ftftug","pricing_plan_id":"cebpf4jnsgd1na2vs0mg"},{"bike_id":"dfa34025-d85c-4bfd-a583-e6e08019a90d","system_id":"levelo_inurba_marseille","lat":43.272046,"lon":5.408744,"is_reserved":false,"is_disabled":false,"rental_uris":{"android":"levelo://app?vid=dfa34025-d85c-4bfd-a583-e6e08019a90d","ios":"levelo://app?vid=dfa34025-d85c-4bfd-a583-e6e08019a90d"},"vehicle_type_id":"4","last_reported":1762539295,"current_range_meters":16000,"station_id":"ce4bhl12rcd13ifvqgf0","pricing_plan_id":"cebpf4jnsgd1na2vs0mg"},{"bike_id":"d192f26e-f9bb-4126-87ef-03a5209e6fe3","system_id":"levelo_inurba_marseille","lat":43.29049,"lon":5.37155,"is_reserved":false,"is_disabled":false,"rental_uris":{"android":"levelo://app?vid=d192f26e-f9bb-4126-87ef-03a5209e6fe3","ios":"levelo://app?vid=d192f26e-f9bb-4126-87ef-03a5209e6fe3"},"vehicle_type_id":"4","last_reported":1762539295,"current_range_meters":16000,"station_id":"ce4bh5p2rcd13ifvqe4g","pricing_plan_id":"cebpf4jnsgd1na2vs0mg"},{"bike_id":"7d00005c-df82-4780-9b92-1edd00550a3a","system_id":"levelo_inurba_marseille","lat":43.28721,"lon":5.361,"is_reserved":false,"is_disabled":false,"rental_uris":{"android":"levelo://app?vid=7d00005c-df82-4780-9b92-1edd00550a3a","ios":"levelo://app?vid=7d00005c-df82-4780-9b92-1edd00550a3a"},"vehicle_type_id":"4","last_reported":1762539295,"current_range_meters":16000,"station_id":"cki0cbj6b192h4jlfktg","pricing_plan_id":"cebpf4jnsgd1na2vs0mg"},{"bike_id":"65d83eaf-428a-43cd-a356-ecaed95948ff","system_id":"levelo_inurba_marseille","lat":43.248405,"lon":5.398028,"is_reserved":false,"is_disabled":false,"rental_uris":{"android":"levelo://app?vid=65d83eaf-428a-43cd-a356-ecaed95948ff","ios":"levelo://app?vid=65d83eaf-428a-43cd-a356-ecaed95948ff"},"vehicle_type_id":"4","last_reported":1762539295,"current_range_meters":16400,"station_id":"","pricing_plan_id":"cebpf4jnsgd1na2vs0mg"},{"bike_id":"46698b7d-6c4c-4218-bf0f-a42e405c9524","system_id":"levelo_inurba_marseille","lat":43.29552,"lon":5.38545,"is_reserved":false,"is_disabled":false,"rental_uris":{"android":"levelo://app?vid=46698b7d-6c4c-4218-bf0f-a42e405c9524","ios":"levelo://app?vid=46698b7d-6c4c-4218-bf0f-a42e405c9524"},"vehicle_type_id":"4","last_reported":1762539295,"current_range_meters":16400,"station_id":"ce4bgih2rcd13ifvqba0","pricing_plan_id":"cebpf4jnsgd1na2vs0mg"},{"bike_id":"2f373a5f-e6e9-4abe-805d-f20b12d39ee9","system_id":"levelo_inurba_marseille","lat":43.24956,"lon":5.40498,"is_reserved":false,"is_disabled":false,"rental_uris":{"android":"levelo://app?vid=2f373a5f-e6e9-4abe-805d-f20b12d39ee9","ios":"levelo://app?vid=2f373a5f-e6e9-4abe-805d-f20b12d39ee9"},"vehicle_type_id":"4","last_reported":1762539295,"current_range_meters":16400,"station_id":"st_d2ngiaodas8pm72gd1h0","pricing_plan_id":"cebpf4jnsgd1na2vs0mg"},{"bike_id":"7549bc35-ab50-4f24-8eb6-a15f03d47106","system_id":"levelo_inurba_marseille","lat":43.26831,"lon":5.39385,"is_reserved":false,"is_disabled":false,"rental_uris":{"android":"levelo://app?vid=7549bc35-ab50-4f24-8eb6-a15f03d47106","ios":"levelo://app?vid=7549bc35-ab50-4f24-8eb6-a15f03d47106"},"vehicle_type_id":"4","last_reported":1762539295,"current_range_meters":16400,"station_id":"ce4bhh12rcd13ifvqfg0","pricing_plan_id":"cebpf4jnsgd1na2vs0mg"},{"bike_id":"27ecc9c5-df9b-451e-a286-9cd8e54c58cb","system_id":"levelo_inurba_marseille","lat":43.27493,"lon":5.42451,"is_reserved":false,"is_disabled":false,"rental_uris":{"android":"levelo://app?vid=27ecc9c5-df9b-451e-a286-9cd8e54c58cb","ios":"levelo://app?vid=27ecc9c5-df9b-451e-a286-9cd8e54c58cb"},"vehicle_type_id":"4","last_reported":1762539295,"current_range_meters":16400,"station_id":"ce4bhn92rcd13ifvqgrg","pricing_plan_id":"cebpf4jnsgd1na2vs0mg"},{"bike_id":"ccccae5d-f0e8-4090-9069-7db18ab3a1dc","system_id":"levelo_inurba_marseille","lat":43.2511,"lon":5.40324,"is_reserved":false,"is_disabled":false,"rental_uris":{"android":"levelo://app?vid=ccccae5d-f0e8-4090-9069-7db18ab3a1dc","ios":"levelo://app?vid=ccccae5d-f0e8-4090-9069-7db18ab3a1dc"},"vehicle_type_id":"4","last_reported":1762539295,"current_range_meters":16400,"station_id":"ce4bhlh2rcd13ifvqgig","pricing_plan_id":"cebpf4jnsgd1na2vs0mg"},{"bike_id":"1bf477b3-55e6-4f59-a7a7-7034928d8403","system_id":"levelo_inurba_marseille","lat":43.253347,"lon":5.421726,"is_reserved":false,"is_disabled":false,"rental_uris":{"android":"levelo://app?vid=1bf477b3-55e6-4f59-a7a7-7034928d8403","ios":"levelo://app?vid=1bf477b3-55e6-4f59-a7a7-7034928d8403"},"vehicle_type_id":"4","last_reported":1762539295,"current_range_meters":16400,"station_id":"st_d2m65c5bi1j21697t3ng","pricing_plan_id":"cebpf4jnsgd1na2vs0mg"},{"bike_id":"b866c304-9b9c-42ba-b5e2-2e4a7ebd49d7","system_id":"levelo_inurba_marseille","lat":43.29783,"lon":5.38106,"is_reserved":false,"is_disabled":true,"rental_uris":{"android":"levelo://app?vid=b866c304-9b9c-42ba-b5e2-2e4a7ebd49d7","ios":"levelo://app?vid=b866c304-9b9c-42ba-b5e2-2e4a7ebd49d7"},"vehicle_type_id":"4","last_reported":1762539295,"current_range_meters":16400,"station_id":"ce4bgip2rcd13ifvqbb0","pricing_plan_id":"cebpf4jnsgd1na2vs0mg"},{"bike_id":"1732a4f5-328a-4621-910f-5e3fe9dfbe91","system_id":"levelo_inurba_marseille","lat":43.29677,"lon":5.37231,"is_reserved":false,"is_disabled":false,"rental_uris":{"android":"levelo://app?vid=1732a4f5-328a-4621-910f-5e3fe9dfbe91","ios":"levelo://app?vid=1732a4f5-328a-4621-910f-5e3fe9dfbe91"},"vehicle_type_id":"4","last_reported":1762539295,"current_range_meters":16400,"station_id":"ce4bgk12rcd13ifvqbj0","pricing_plan_id":"cebpf4jnsgd1na2vs0mg"},{"bike_id":"2970afc0-726c-4b5b-852f-c932d7169461","system_id":"levelo_inurba_marseille","lat":43.295418,"lon":5.375005,"is_reserved":false,"is_disabled":false,"rental_uris":{"android":"levelo://app?vid=2970afc0-726c-4b5b-852f-c932d7169461","ios":"levelo://app?vid=2970afc0-726c-4b5b-852f-c932d7169461"},"vehicle_type_id":"4","last_reported":1762539295,"current_range_meters":16400,"station_id":"ce4bgkp2rcd13ifvqbmg","pricing_plan_id":"cebpf4jnsgd1na2vs0mg"},{"bike_id":"4a455362-a1ad-473d-8b6e-9efc8dd1be98","system_id":"levelo_inurba_marseille","lat":43.27947,"lon":5.41027,"is_reserved":false,"is_disabled":false,"rental_uris":{"android":"levelo://app?vid=4a455362-a1ad-473d-8b6e-9efc8dd1be98","ios":"levelo://app?vid=4a455362-a1ad-473d-8b6e-9efc8dd1be98"},"vehicle_type_id":"4","last_reported":1762539295,"current_range_meters":16400,"station_id":"ce4bhnp2rcd13ifvqh0g","pricing_plan_id":"cebpf4jnsgd1na2vs0mg"},{"bike_id":"f052263b-6c2c-4415-837a-efdb2f0c2a21","system_id":"levelo_inurba_marseille","lat":43.311667,"lon":5.387129,"is_reserved":false,"is_disabled":false,"rental_uris":{"android":"levelo://app?vid=f052263b-6c2c-4415-837a-efdb2f0c2a21","ios":"levelo://app?vid=f052263b-6c2c-4415-837a-efdb2f0c2a21"},"vehicle_type_id":"4","last_reported":1762539295,"current_range_meters":16800,"station_id":"ce4bgv12rcd13ifvqcp0","pricing_plan_id":"cebpf4jnsgd1na2vs0mg"},{"bike_id":"75d7dc47-dceb-471d-8668-ef13189f4f02","system_id":"levelo_inurba_marseille","lat":43.32355,"lon":5.36742,"is_reserved":false,"is_disabled":false,"rental_uris":{"android":"levelo://app?vid=75d7dc47-dceb-471d-8668-ef13189f4f02","ios":"levelo://app?vid=75d7dc47-dceb-471d-8668-ef13189f4f02"},"vehicle_type_id":"4","last_reported":1762539295,"current_range_meters":16800,"station_id":"ce4bhsh2rcd13ifvqi2g","pricing_plan_id":"cebpf4jnsgd1na2vs0mg"},{"bike_id":"a718cc29-6f54-49e3-862a-351d7a32001f","system_id":"levelo_inurba_marseille","lat":43.28471,"lon":5.48403,"is_reserved":false,"is_disabled":false,"rental_uris":{"android":"levelo://app?vid=a718cc29-6f54-49e3-862a-351d7a32001f","ios":"levelo://app?vid=a718cc29-6f54-49e3-862a-351d7a32001f"},"vehicle_type_id":"4","last_reported":1762539295,"current_range_meters":16800,"station_id":"","pricing_plan_id":"cebpf4jnsgd1na2vs0mg"},{"bike_id":"77ede060-f268-410c-9976-6ecb826aba07","system_id":"levelo_inurba_marseille","lat":43.301236,"lon":5.398797,"is_reserved":false,"is_disabled":false,"rental_uris":{"android":"levelo://app?vid=77ede060-f268-410c-9976-6ecb826aba07","ios":"levelo://app?vid=77ede060-f268-410c-9976-6ecb826aba07"},"vehicle_type_id":"4","last_reported":1762539295,"current_range_meters":16800,"station_id":"ce4bh0h2rcd13ifvqd40","pricing_plan_id":"cebpf4jnsgd1na2vs0mg"},{"bike_id":"e4d7f881-bc19-407c-9d6a-bc3004825cc2","system_id":"levelo_inurba_marseille","lat":43.25113,"lon":5.40332,"is_reserved":false,"is_disabled":false,"rental_uris":{"android":"levelo://app?vid=e4d7f881-bc19-407c-9d6a-bc3004825cc2","ios":"levelo://app?vid=e4d7f881-bc19-407c-9d6a-bc3004825cc2"},"vehicle_type_id":"4","last_reported":1762539295,"current_range_meters":16800,"station_id":"ce4bhlh2rcd13ifvqgig","pricing_plan_id":"cebpf4jnsgd1na2vs0mg"},{"bike_id":"95c3d466-1a3a-482c-9dff-d78e7e80ef04","system_id":"levelo_inurba_marseille","lat":43.29538,"lon":5.38548,"is_reserved":false,"is_disabled":false,"rental_uris":{"android":"levelo://app?vid=95c3d466-1a3a-482c-9dff-d78e7e80ef04","ios":"levelo://app?vid=95c3d466-1a3a-482c-9dff-d78e7e80ef04"},"vehicle_type_id":"4","last_reported":1762539295,"current_range_meters":16800,"station_id":"ce4bgih2rcd13ifvqba0","pricing_plan_id":"cebpf4jnsgd1na2vs0mg"},{"bike_id":"0ff94a84-46fd-4352-866c-e134be757927","system_id":"levelo_inurba_marseille","lat":43.29523,"lon":5.38541,"is_reserved":false,"is_disabled":false,"rental_uris":{"android":"levelo://app?vid=0ff94a84-46fd-4352-866c-e134be757927","ios":"levelo://app?vid=0ff94a84-46fd-4352-866c-e134be757927"},"vehicle_type_id":"4","last_reported":1762539295,"current_range_meters":17200,"station_id":"ce4bgih2rcd13ifvqba0","pricing_plan_id":"cebpf4jnsgd1na2vs0mg"},{"bike_id":"c448769d-72a1-4a2a-80b2-791ccf525608","system_id":"levelo_inurba_marseille","lat":43.2573,"lon":5.41115,"is_reserved":false,"is_disabled":false,"rental_uris":{"android":"levelo://app?vid=c448769d-72a1-4a2a-80b2-791ccf525608","ios":"levelo://app?vid=c448769d-72a1-4a2a-80b2-791ccf525608"},"vehicle_type_id":"4","last_reported":1762539295,"current_range_meters":17200,"station_id":"ce4bhkp2rcd13ifvqgd0","pricing_plan_id":"cebpf4jnsgd1na2vs0mg"},{"bike_id":"64a7e14c-46d0-4d8c-91f0-19fb7c8ad288","system_id":"levelo_inurba_marseille","lat":43.305605,"lon":5.36711,"is_reserved":false,"is_disabled":true,"rental_uris":{"android":"levelo://app?vid=64a7e14c-46d0-4d8c-91f0-19fb7c8ad288","ios":"levelo://app?vid=64a7e14c-46d0-4d8c-91f0-19fb7c8ad288"},"vehicle_type_id":"4","last_reported":1762539295,"current_range_meters":17200,"station_id":"ce4bgrp2rcd13ifvqc9g","pricing_plan_id":"cebpf4jnsgd1na2vs0mg"},{"bike_id":"4aadc1d9-ba43-4b92-a5cd-e66ee29250dd","system_id":"levelo_inurba_marseille","lat":43.272059,"lon":5.391862,"is_reserved":false,"is_disabled":true,"rental_uris":{"android":"levelo://app?vid=4aadc1d9-ba43-4b92-a5cd-e66ee29250dd","ios":"levelo://app?vid=4aadc1d9-ba43-4b92-a5cd-e66ee29250dd"},"vehicle_type_id":"4","last_reported":1762539295,"current_range_meters":17200,"station_id":"ce4bhhp2rcd13ifvqfm0","pricing_plan_id":"cebpf4jnsgd1na2vs0mg"},{"bike_id":"aa1eec89-7f75-4e60-8caf-7b88980efd4a","system_id":"levelo_inurba_marseille","lat":43.273713,"lon":5.36263,"is_reserved":false,"is_disabled":false,"rental_uris":{"android":"levelo://app?vid=aa1eec89-7f75-4e60-8caf-7b88980efd4a","ios":"levelo://app?vid=aa1eec89-7f75-4e60-8caf-7b88980efd4a"},"vehicle_type_id":"4","last_reported":1762539295,"current_range_meters":17200,"station_id":"ce4bhbh2rcd13ifvqeo0","pricing_plan_id":"cebpf4jnsgd1na2vs0mg"},{"bike_id":"c508dfa6-c4b6-4cea-a4ec-947e346a8310","system_id":"levelo_inurba_marseille","lat":43.33605,"lon":5.4102,"is_reserved":false,"is_disabled":true,"rental_uris":{"android":"levelo://app?vid=c508dfa6-c4b6-4cea-a4ec-947e346a8310","ios":"levelo://app?vid=c508dfa6-c4b6-4cea-a4ec-947e346a8310"},"vehicle_type_id":"4","last_reported":1762539295,"current_range_meters":17200,"station_id":"ce4bhqh2rcd13ifvqhmg","pricing_plan_id":"cebpf4jnsgd1na2vs0mg"},{"bike_id":"cc4467a5-f9de-4d0d-b689-33861e50031a","system_id":"levelo_inurba_marseille","lat":43.298417,"lon":5.362708,"is_reserved":false,"is_disabled":false,"rental_uris":{"android":"levelo://app?vid=cc4467a5-f9de-4d0d-b689-33861e50031a","ios":"levelo://app?vid=cc4467a5-f9de-4d0d-b689-33861e50031a"},"vehicle_type_id":"4","last_reported":1762539295,"current_range_meters":17200,"station_id":"ce4bgpp2rcd13ifvqc3g","pricing_plan_id":"cebpf4jnsgd1na2vs0mg"},{"bike_id":"5f56c0e5-d14e-4d8d-97cb-954398e577d4","system_id":"levelo_inurba_marseille","lat":43.2848,"lon":5.38411,"is_reserved":false,"is_disabled":false,"rental_uris":{"android":"levelo://app?vid=5f56c0e5-d14e-4d8d-97cb-954398e577d4","ios":"levelo://app?vid=5f56c0e5-d14e-4d8d-97cb-954398e577d4"},"vehicle_type_id":"4","last_reported":1762539295,"current_range_meters":17200,"station_id":"ce4bh512rcd13ifvqe3g","pricing_plan_id":"cebpf4jnsgd1na2vs0mg"},{"bike_id":"74bb8ce2-1ec5-4414-94bf-bc4889d1e14c","system_id":"levelo_inurba_marseille","lat":43.324734,"lon":5.395385,"is_reserved":false,"is_disabled":false,"rental_uris":{"android":"levelo://app?vid=74bb8ce2-1ec5-4414-94bf-bc4889d1e14c","ios":"levelo://app?vid=74bb8ce2-1ec5-4414-94bf-bc4889d1e14c"},"vehicle_type_id":"4","last_reported":1762539295,"current_range_meters":17200,"station_id":"","pricing_plan_id":"cebpf4jnsgd1na2vs0mg"},{"bike_id":"025b3c27-2afb-462a-9132-f38de1204774","system_id":"levelo_inurba_marseille","lat":43.30613,"lon":5.37226,"is_reserved":false,"is_disabled":false,"rental_uris":{"android":"levelo://app?vid=025b3c27-2afb-462a-9132-f38de1204774","ios":"levelo://app?vid=025b3c27-2afb-462a-9132-f38de1204774"},"vehicle_type_id":"4","last_reported":1762539295,"current_range_meters":17200,"station_id":"ce4bgqh2rcd13ifvqc4g","pricing_plan_id":"cebpf4jnsgd1na2vs0mg"},{"bike_id":"58df984d-f6ad-47ef-818a-7818e887c7c9","system_id":"levelo_inurba_marseille","lat":43.3014,"lon":5.431543,"is_reserved":false,"is_disabled":false,"rental_uris":{"android":"levelo://app?vid=58df984d-f6ad-47ef-818a-7818e887c7c9","ios":"levelo://app?vid=58df984d-f6ad-47ef-818a-7818e887c7c9"},"vehicle_type_id":"4","last_reported":1762539295,"current_range_meters":17600,"station_id":"st_d3js3co5814s73ftftug","pricing_plan_id":"cebpf4jnsgd1na2vs0mg"},{"bike_id":"d8a5ad5c-82f5-4ef5-aa6d-27151cb82c39","system_id":"levelo_inurba_marseille","lat":43.29276,"lon":5.3762,"is_reserved":false,"is_disabled":false,"rental_uris":{"android":"levelo://app?vid=d8a5ad5c-82f5-4ef5-aa6d-27151cb82c39","ios":"levelo://app?vid=d8a5ad5c-82f5-4ef5-aa6d-27151cb82c39"},"vehicle_type_id":"4","last_reported":1762539295,"current_range_meters":17600,"station_id":"ce4bgi12rcd13ifvqb80","pricing_plan_id":"cebpf4jnsgd1na2vs0mg"},{"bike_id":"6b98c050-819a-4a8d-a432-48fea79c97c1","system_id":"levelo_inurba_marseille","lat":43.22943,"lon":5.35413,"is_reserved":false,"is_disabled":false,"rental_uris":{"android":"levelo://app?vid=6b98c050-819a-4a8d-a432-48fea79c97c1","ios":"levelo://app?vid=6b98c050-819a-4a8d-a432-48fea79c97c1"},"vehicle_type_id":"4","last_reported":1762539295,"current_range_meters":17600,"station_id":"cpo3532slgdg3j2ikp40","pricing_plan_id":"cebpf4jnsgd1na2vs0mg"},{"bike_id":"b92ef6a4-e35d-43ac-b3c3-437188c3a722","system_id":"levelo_inurba_marseille","lat":43.30145,"lon":5.39856,"is_reserved":false,"is_disabled":false,"rental_uris":{"android":"levelo://app?vid=b92ef6a4-e35d-43ac-b3c3-437188c3a722","ios":"levelo://app?vid=b92ef6a4-e35d-43ac-b3c3-437188c3a722"},"vehicle_type_id":"4","last_reported":1762539295,"current_range_meters":17600,"station_id":"ce4bh0h2rcd13ifvqd40","pricing_plan_id":"cebpf4jnsgd1na2vs0mg"},{"bike_id":"f85eec26-0a53-4a4d-b3b2-d69230d21ac8","system_id":"levelo_inurba_marseille","lat":43.286162,"lon":5.370603,"is_reserved":false,"is_disabled":false,"rental_uris":{"android":"levelo://app?vid=f85eec26-0a53-4a4d-b3b2-d69230d21ac8","ios":"levelo://app?vid=f85eec26-0a53-4a4d-b3b2-d69230d21ac8"},"vehicle_type_id":"4","last_reported":1762539295,"current_range_meters":17600,"station_id":"ce4bht12rcd13ifvqi60","pricing_plan_id":"cebpf4jnsgd1na2vs0mg"},{"bike_id":"6443ecc4-266f-48f1-85b4-4f4d7973c7e1","system_id":"levelo_inurba_marseille","lat":43.30144,"lon":5.38066,"is_reserved":false,"is_disabled":false,"rental_uris":{"android":"levelo://app?vid=6443ecc4-266f-48f1-85b4-4f4d7973c7e1","ios":"levelo://app?vid=6443ecc4-266f-48f1-85b4-4f4d7973c7e1"},"vehicle_type_id":"4","last_reported":1762539295,"current_range_meters":17600,"station_id":"ce4bgjp2rcd13ifvqbh0","pricing_plan_id":"cebpf4jnsgd1na2vs0mg"},{"bike_id":"3fa5a410-a934-45f2-98aa-3e192907514a","system_id":"levelo_inurba_marseille","lat":43.25335,"lon":5.42177,"is_reserved":false,"is_disabled":false,"rental_uris":{"android":"levelo://app?vid=3fa5a410-a934-45f2-98aa-3e192907514a","ios":"levelo://app?vid=3fa5a410-a934-45f2-98aa-3e192907514a"},"vehicle_type_id":"4","last_reported":1762539295,"current_range_meters":17600,"station_id":"st_d2m65c5bi1j21697t3ng","pricing_plan_id":"cebpf4jnsgd1na2vs0mg"},{"bike_id":"18aba0ac-6b6b-4a98-b74b-d647cb778742","system_id":"levelo_inurba_marseille","lat":43.30322,"lon":5.40431,"is_reserved":false,"is_disabled":false,"rental_uris":{"android":"levelo://app?vid=18aba0ac-6b6b-4a98-b74b-d647cb778742","ios":"levelo://app?vid=18aba0ac-6b6b-4a98-b74b-d647cb778742"},"vehicle_type_id":"4","last_reported":1762539295,"current_range_meters":18000,"station_id":"ce4bh012rcd13ifvqd10","pricing_plan_id":"cebpf4jnsgd1na2vs0mg"},{"bike_id":"5098c842-5e48-40e2-b457-cc6766f8dfac","system_id":"levelo_inurba_marseille","lat":43.25691,"lon":5.41057,"is_reserved":false,"is_disabled":false,"rental_uris":{"android":"levelo://app?vid=5098c842-5e48-40e2-b457-cc6766f8dfac","ios":"levelo://app?vid=5098c842-5e48-40e2-b457-cc6766f8dfac"},"vehicle_type_id":"4","last_reported":1762539295,"current_range_meters":18000,"station_id":"ce4bhkp2rcd13ifvqgd0","pricing_plan_id":"cebpf4jnsgd1na2vs0mg"},{"bike_id":"d7bcae65-d45c-4fe1-993c-85f1dd1b036b","system_id":"levelo_inurba_marseille","lat":43.336011,"lon":5.410326,"is_reserved":false,"is_disabled":false,"rental_uris":{"android":"levelo://app?vid=d7bcae65-d45c-4fe1-993c-85f1dd1b036b","ios":"levelo://app?vid=d7bcae65-d45c-4fe1-993c-85f1dd1b036b"},"vehicle_type_id":"4","last_reported":1762539295,"current_range_meters":18000,"station_id":"ce4bhqh2rcd13ifvqhmg","pricing_plan_id":"cebpf4jnsgd1na2vs0mg"},{"bike_id":"26d61277-7839-4b92-b60d-fb4c897494cf","system_id":"levelo_inurba_marseille","lat":43.29788,"lon":5.38104,"is_reserved":false,"is_disabled":false,"rental_uris":{"android":"levelo://app?vid=26d61277-7839-4b92-b60d-fb4c897494cf","ios":"levelo://app?vid=26d61277-7839-4b92-b60d-fb4c897494cf"},"vehicle_type_id":"4","last_reported":1762539295,"current_range_meters":18000,"station_id":"ce4bgip2rcd13ifvqbb0","pricing_plan_id":"cebpf4jnsgd1na2vs0mg"},{"bike_id":"d0486e4c-83e2-47ea-b815-83949b2897b4","system_id":"levelo_inurba_marseille","lat":43.25333,"lon":5.42145,"is_reserved":false,"is_disabled":false,"rental_uris":{"android":"levelo://app?vid=d0486e4c-83e2-47ea-b815-83949b2897b4","ios":"levelo://app?vid=d0486e4c-83e2-47ea-b815-83949b2897b4"},"vehicle_type_id":"4","last_reported":1762539295,"current_range_meters":18000,"station_id":"st_d2m65c5bi1j21697t3ng","pricing_plan_id":"cebpf4jnsgd1na2vs0mg"},{"bike_id":"6ea0001b-a94c-46de-82e7-55c3335f7142","system_id":"levelo_inurba_marseille","lat":43.294505,"lon":5.385942,"is_reserved":false,"is_disabled":false,"rental_uris":{"android":"levelo://app?vid=6ea0001b-a94c-46de-82e7-55c3335f7142","ios":"levelo://app?vid=6ea0001b-a94c-46de-82e7-55c3335f7142"},"vehicle_type_id":"4","last_reported":1762539295,"current_range_meters":18000,"station_id":"ce4bh5p2rcd13ifvqe4g","pricing_plan_id":"cebpf4jnsgd1na2vs0mg"},{"bike_id":"7720d517-d82a-422b-939b-f69fdea40831","system_id":"levelo_inurba_marseille","lat":43.31067,"lon":5.38492,"is_reserved":false,"is_disabled":false,"rental_uris":{"android":"levelo://app?vid=7720d517-d82a-422b-939b-f69fdea40831","ios":"levelo://app?vid=7720d517-d82a-422b-939b-f69fdea40831"},"vehicle_type_id":"4","last_reported":1762539295,"current_range_meters":18000,"station_id":"","pricing_plan_id":"cebpf4jnsgd1na2vs0mg"},{"bike_id":"d2991a60-dcfa-4252-8f9d-bfff4b1dc433","system_id":"levelo_inurba_marseille","lat":43.31091,"lon":5.37152,"is_reserved":false,"is_disabled":false,"rental_uris":{"android":"levelo://app?vid=d2991a60-dcfa-4252-8f9d-bfff4b1dc433","ios":"levelo://app?vid=d2991a60-dcfa-4252-8f9d-bfff4b1dc433"},"vehicle_type_id":"4","last_reported":1762539295,"current_range_meters":18000,"station_id":"","pricing_plan_id":"cebpf4jnsgd1na2vs0mg"},{"bike_id":"8ebfa37b-231a-4b33-b2f0-8a854c3e618b","system_id":"levelo_inurba_marseille","lat":43.301488,"lon":5.380898,"is_reserved":false,"is_disabled":false,"rental_uris":{"android":"levelo://app?vid=8ebfa37b-231a-4b33-b2f0-8a854c3e618b","ios":"levelo://app?vid=8ebfa37b-231a-4b33-b2f0-8a854c3e618b"},"vehicle_type_id":"4","last_reported":1762539295,"current_range_meters":18800,"station_id":"ce4bgjp2rcd13ifvqbh0","pricing_plan_id":"cebpf4jnsgd1na2vs0mg"},{"bike_id":"8e36ef40-2a97-42d7-bbc9-792d2abcb770","system_id":"levelo_inurba_marseille","lat":43.29987,"lon":5.38506,"is_reserved":false,"is_disabled":false,"rental_uris":{"android":"levelo://app?vid=8e36ef40-2a97-42d7-bbc9-792d2abcb770","ios":"levelo://app?vid=8e36ef40-2a97-42d7-bbc9-792d2abcb770"},"vehicle_type_id":"4","last_reported":1762539295,"current_range_meters":18800,"station_id":"ce4bgj92rcd13ifvqbd0","pricing_plan_id":"cebpf4jnsgd1na2vs0mg"},{"bike_id":"a7929130-e89e-4154-bcd2-fb27e2dab149","system_id":"levelo_inurba_marseille","lat":43.2965,"lon":5.3788,"is_reserved":false,"is_disabled":false,"rental_uris":{"android":"levelo://app?vid=a7929130-e89e-4154-bcd2-fb27e2dab149","ios":"levelo://app?vid=a7929130-e89e-4154-bcd2-fb27e2dab149"},"vehicle_type_id":"4","last_reported":1762539295,"current_range_meters":18800,"station_id":"","pricing_plan_id":"cebpf4jnsgd1na2vs0mg"},{"bike_id":"8fb5405d-56b8-4021-83b4-671acfdf4385","system_id":"levelo_inurba_marseille","lat":43.2952,"lon":5.39039,"is_reserved":false,"is_disabled":false,"rental_uris":{"android":"levelo://app?vid=8fb5405d-56b8-4021-83b4-671acfdf4385","ios":"levelo://app?vid=8fb5405d-56b8-4021-83b4-671acfdf4385"},"vehicle_type_id":"4","last_reported":1762539295,"current_range_meters":18800,"station_id":"ce4bh3p2rcd13ifvqdp0","pricing_plan_id":"cebpf4jnsgd1na2vs0mg"},{"bike_id":"106efc4b-3629-4c83-a1c4-3f4ee9d12cb6","system_id":"levelo_inurba_marseille","lat":43.30905,"lon":5.37288,"is_reserved":false,"is_disabled":false,"rental_uris":{"android":"levelo://app?vid=106efc4b-3629-4c83-a1c4-3f4ee9d12cb6","ios":"levelo://app?vid=106efc4b-3629-4c83-a1c4-3f4ee9d12cb6"},"vehicle_type_id":"4","last_reported":1762539295,"current_range_meters":18800,"station_id":"","pricing_plan_id":"cebpf4jnsgd1na2vs0mg"},{"bike_id":"5ebbfdc4-4988-4f8f-860a-a23e6d29751d","system_id":"levelo_inurba_marseille","lat":43.30536,"lon":5.36527,"is_reserved":false,"is_disabled":false,"rental_uris":{"android":"levelo://app?vid=5ebbfdc4-4988-4f8f-860a-a23e6d29751d","ios":"levelo://app?vid=5ebbfdc4-4988-4f8f-860a-a23e6d29751d"},"vehicle_type_id":"4","last_reported":1762539295,"current_range_meters":18800,"station_id":"ce4bgs12rcd13ifvqcag","pricing_plan_id":"cebpf4jnsgd1na2vs0mg"},{"bike_id":"ef276b08-ca25-45c3-96e3-87c3945d9bbf","system_id":"levelo_inurba_marseille","lat":43.24177,"lon":5.39697,"is_reserved":false,"is_disabled":false,"rental_uris":{"android":"levelo://app?vid=ef276b08-ca25-45c3-96e3-87c3945d9bbf","ios":"levelo://app?vid=ef276b08-ca25-45c3-96e3-87c3945d9bbf"},"vehicle_type_id":"4","last_reported":1762539295,"current_range_meters":18800,"station_id":"ce4bhn12rcd13ifvqgpg","pricing_plan_id":"cebpf4jnsgd1na2vs0mg"},{"bike_id":"36f56aa2-0dc9-4962-bb51-f608ea2b337a","system_id":"levelo_inurba_marseille","lat":43.29249,"lon":5.38449,"is_reserved":false,"is_disabled":false,"rental_uris":{"android":"levelo://app?vid=36f56aa2-0dc9-4962-bb51-f608ea2b337a","ios":"levelo://app?vid=36f56aa2-0dc9-4962-bb51-f608ea2b337a"},"vehicle_type_id":"4","last_reported":1762539295,"current_range_meters":18800,"station_id":"ce4bh692rcd13ifvqea0","pricing_plan_id":"cebpf4jnsgd1na2vs0mg"},{"bike_id":"4bce02cb-bdba-488a-a39f-eae80d4c7da8","system_id":"levelo_inurba_marseille","lat":43.28214,"lon":5.39058,"is_reserved":false,"is_disabled":true,"rental_uris":{"android":"levelo://app?vid=4bce02cb-bdba-488a-a39f-eae80d4c7da8","ios":"levelo://app?vid=4bce02cb-bdba-488a-a39f-eae80d4c7da8"},"vehicle_type_id":"4","last_reported":1762539295,"current_range_meters":18800,"station_id":"ce4bhn92rcd13ifvqgsg","pricing_plan_id":"cebpf4jnsgd1na2vs0mg"},{"bike_id":"6fed337d-58dd-4e60-825e-cee7ab5e51b1","system_id":"levelo_inurba_marseille","lat":43.29534,"lon":5.38546,"is_reserved":false,"is_disabled":false,"rental_uris":{"android":"levelo://app?vid=6fed337d-58dd-4e60-825e-cee7ab5e51b1","ios":"levelo://app?vid=6fed337d-58dd-4e60-825e-cee7ab5e51b1"},"vehicle_type_id":"4","last_reported":1762539295,"current_range_meters":18800,"station_id":"ce4bgih2rcd13ifvqba0","pricing_plan_id":"cebpf4jnsgd1na2vs0mg"},{"bike_id":"d912dfcb-1b62-44db-81fe-a3a2a403f09d","system_id":"levelo_inurba_marseille","lat":43.2926,"lon":5.38446,"is_reserved":false,"is_disabled":false,"rental_uris":{"android":"levelo://app?vid=d912dfcb-1b62-44db-81fe-a3a2a403f09d","ios":"levelo://app?vid=d912dfcb-1b62-44db-81fe-a3a2a403f09d"},"vehicle_type_id":"4","last_reported":1762539295,"current_range_meters":19200,"station_id":"ce4bh692rcd13ifvqea0","pricing_plan_id":"cebpf4jnsgd1na2vs0mg"},{"bike_id":"e270f0db-93b9-4456-a5ae-4ac7765b3816","system_id":"levelo_inurba_marseille","lat":43.30537,"lon":5.36534,"is_reserved":false,"is_disabled":false,"rental_uris":{"android":"levelo://app?vid=e270f0db-93b9-4456-a5ae-4ac7765b3816","ios":"levelo://app?vid=e270f0db-93b9-4456-a5ae-4ac7765b3816"},"vehicle_type_id":"4","last_reported":1762539295,"current_range_meters":19200,"station_id":"ce4bgs12rcd13ifvqcag","pricing_plan_id":"cebpf4jnsgd1na2vs0mg"},{"bike_id":"0e40b977-8772-43e1-98d4-439c6ff7226d","system_id":"levelo_inurba_marseille","lat":43.27369,"lon":5.36242,"is_reserved":false,"is_disabled":false,"rental_uris":{"android":"levelo://app?vid=0e40b977-8772-43e1-98d4-439c6ff7226d","ios":"levelo://app?vid=0e40b977-8772-43e1-98d4-439c6ff7226d"},"vehicle_type_id":"4","last_reported":1762539295,"current_range_meters":19200,"station_id":"ce4bhbh2rcd13ifvqeo0","pricing_plan_id":"cebpf4jnsgd1na2vs0mg"},{"bike_id":"7fc7b5d5-6c6e-4fe7-b61f-d9bb2694819f","system_id":"levelo_inurba_marseille","lat":43.298992,"lon":5.397604,"is_reserved":false,"is_disabled":false,"rental_uris":{"android":"levelo://app?vid=7fc7b5d5-6c6e-4fe7-b61f-d9bb2694819f","ios":"levelo://app?vid=7fc7b5d5-6c6e-4fe7-b61f-d9bb2694819f"},"vehicle_type_id":"4","last_reported":1762539295,"current_range_meters":19200,"station_id":"ce4bh0h2rcd13ifvqd50","pricing_plan_id":"cebpf4jnsgd1na2vs0mg"},{"bike_id":"d9fb9fdc-40a2-4288-83e7-55751630beb2","system_id":"levelo_inurba_marseille","lat":43.24684,"lon":5.38143,"is_reserved":false,"is_disabled":false,"rental_uris":{"android":"levelo://app?vid=d9fb9fdc-40a2-4288-83e7-55751630beb2","ios":"levelo://app?vid=d9fb9fdc-40a2-4288-83e7-55751630beb2"},"vehicle_type_id":"4","last_reported":1762539295,"current_range_meters":19200,"station_id":"ce4bhih2rcd13ifvqfr0","pricing_plan_id":"cebpf4jnsgd1na2vs0mg"},{"bike_id":"c58a0a26-c700-42ce-bd1b-70b1bbd8840c","system_id":"levelo_inurba_marseille","lat":43.311925,"lon":5.387349,"is_reserved":false,"is_disabled":false,"rental_uris":{"android":"levelo://app?vid=c58a0a26-c700-42ce-bd1b-70b1bbd8840c","ios":"levelo://app?vid=c58a0a26-c700-42ce-bd1b-70b1bbd8840c"},"vehicle_type_id":"4","last_reported":1762539295,"current_range_meters":19200,"station_id":"ce4bgv12rcd13ifvqcp0","pricing_plan_id":"cebpf4jnsgd1na2vs0mg"},{"bike_id":"a687018a-85a5-4072-8d5f-9857a9f91fac","system_id":"levelo_inurba_marseille","lat":43.249486,"lon":5.404927,"is_reserved":false,"is_disabled":false,"rental_uris":{"android":"levelo://app?vid=a687018a-85a5-4072-8d5f-9857a9f91fac","ios":"levelo://app?vid=a687018a-85a5-4072-8d5f-9857a9f91fac"},"vehicle_type_id":"4","last_reported":1762539295,"current_range_meters":19200,"station_id":"st_d2ngiaodas8pm72gd1h0","pricing_plan_id":"cebpf4jnsgd1na2vs0mg"},{"bike_id":"01b612c9-e2ea-4120-a543-ea80b7d0582c","system_id":"levelo_inurba_marseille","lat":43.32669,"lon":5.39214,"is_reserved":false,"is_disabled":false,"rental_uris":{"android":"levelo://app?vid=01b612c9-e2ea-4120-a543-ea80b7d0582c","ios":"levelo://app?vid=01b612c9-e2ea-4120-a543-ea80b7d0582c"},"vehicle_type_id":"4","last_reported":1762539295,"current_range_meters":19200,"station_id":"","pricing_plan_id":"cebpf4jnsgd1na2vs0mg"},{"bike_id":"a28cd4cd-435b-4648-9cba-a98d7854592c","system_id":"levelo_inurba_marseille","lat":43.29252,"lon":5.3844,"is_reserved":false,"is_disabled":false,"rental_uris":{"android":"levelo://app?vid=a28cd4cd-435b-4648-9cba-a98d7854592c","ios":"levelo://app?vid=a28cd4cd-435b-4648-9cba-a98d7854592c"},"vehicle_type_id":"4","last_reported":1762539295,"current_range_meters":19200,"station_id":"ce4bh692rcd13ifvqea0","pricing_plan_id":"cebpf4jnsgd1na2vs0mg"},{"bike_id":"9a9de712-a8f5-4770-aa0f-3e3540c719ba","system_id":"levelo_inurba_marseille","lat":43.28704,"lon":5.39985,"is_reserved":false,"is_disabled":false,"rental_uris":{"android":"levelo://app?vid=9a9de712-a8f5-4770-aa0f-3e3540c719ba","ios":"levelo://app?vid=9a9de712-a8f5-4770-aa0f-3e3540c719ba"},"vehicle_type_id":"4","last_reported":1762539295,"current_range_meters":19200,"station_id":"ce4bho92rcd13ifvqh3g","pricing_plan_id":"cebpf4jnsgd1na2vs0mg"},{"bike_id":"e5b60406-6050-4895-badc-44260999dd59","system_id":"levelo_inurba_marseille","lat":43.29262,"lon":5.38441,"is_reserved":false,"is_disabled":false,"rental_uris":{"android":"levelo://app?vid=e5b60406-6050-4895-badc-44260999dd59","ios":"levelo://app?vid=e5b60406-6050-4895-badc-44260999dd59"},"vehicle_type_id":"4","last_reported":1762539295,"current_range_meters":19200,"station_id":"ce4bh692rcd13ifvqea0","pricing_plan_id":"cebpf4jnsgd1na2vs0mg"},{"bike_id":"64f1a453-3493-4d2c-88d5-00bc9ceacd38","system_id":"levelo_inurba_marseille","lat":43.28457,"lon":5.35884,"is_reserved":false,"is_disabled":false,"rental_uris":{"android":"levelo://app?vid=64f1a453-3493-4d2c-88d5-00bc9ceacd38","ios":"levelo://app?vid=64f1a453-3493-4d2c-88d5-00bc9ceacd38"},"vehicle_type_id":"4","last_reported":1762539295,"current_range_meters":19600,"station_id":"ce4bhah2rcd13ifvqei0","pricing_plan_id":"cebpf4jnsgd1na2vs0mg"},{"bike_id":"6f8525c1-2339-4104-b349-3bd7c3126ed7","system_id":"levelo_inurba_marseille","lat":43.28838,"lon":5.35865,"is_reserved":false,"is_disabled":false,"rental_uris":{"android":"levelo://app?vid=6f8525c1-2339-4104-b349-3bd7c3126ed7","ios":"levelo://app?vid=6f8525c1-2339-4104-b349-3bd7c3126ed7"},"vehicle_type_id":"4","last_reported":1762539295,"current_range_meters":19600,"station_id":"ce4bhb12rcd13ifvqem0","pricing_plan_id":"cebpf4jnsgd1na2vs0mg"},{"bike_id":"ae36d8d8-1aac-4701-823c-705596cb4cbc","system_id":"levelo_inurba_marseille","lat":43.30138,"lon":5.39867,"is_reserved":false,"is_disabled":false,"rental_uris":{"android":"levelo://app?vid=ae36d8d8-1aac-4701-823c-705596cb4cbc","ios":"levelo://app?vid=ae36d8d8-1aac-4701-823c-705596cb4cbc"},"vehicle_type_id":"4","last_reported":1762539295,"current_range_meters":19600,"station_id":"ce4bh0h2rcd13ifvqd40","pricing_plan_id":"cebpf4jnsgd1na2vs0mg"},{"bike_id":"32833e27-33ca-4c1d-9e14-3f2d1bd9b8bf","system_id":"levelo_inurba_marseille","lat":43.33606,"lon":5.4103,"is_reserved":false,"is_disabled":false,"rental_uris":{"android":"levelo://app?vid=32833e27-33ca-4c1d-9e14-3f2d1bd9b8bf","ios":"levelo://app?vid=32833e27-33ca-4c1d-9e14-3f2d1bd9b8bf"},"vehicle_type_id":"4","last_reported":1762539295,"current_range_meters":19600,"station_id":"ce4bhqh2rcd13ifvqhmg","pricing_plan_id":"cebpf4jnsgd1na2vs0mg"},{"bike_id":"e14c5452-cc01-461d-8f5e-86c20a1ba5b2","system_id":"levelo_inurba_marseille","lat":43.265625,"lon":5.390271,"is_reserved":false,"is_disabled":false,"rental_uris":{"android":"levelo://app?vid=e14c5452-cc01-461d-8f5e-86c20a1ba5b2","ios":"levelo://app?vid=e14c5452-cc01-461d-8f5e-86c20a1ba5b2"},"vehicle_type_id":"4","last_reported":1762539295,"current_range_meters":19600,"station_id":"ce4bhe12rcd13ifvqf30","pricing_plan_id":"cebpf4jnsgd1na2vs0mg"},{"bike_id":"44022dea-f48f-4d22-9643-6cba92e316a1","system_id":"levelo_inurba_marseille","lat":43.32104,"lon":5.36779,"is_reserved":false,"is_disabled":false,"rental_uris":{"android":"levelo://app?vid=44022dea-f48f-4d22-9643-6cba92e316a1","ios":"levelo://app?vid=44022dea-f48f-4d22-9643-6cba92e316a1"},"vehicle_type_id":"4","last_reported":1762539295,"current_range_meters":19600,"station_id":"ce4bhrh2rcd13ifvqhug","pricing_plan_id":"cebpf4jnsgd1na2vs0mg"},{"bike_id":"a429371d-e4e4-4776-a1dd-27529722fe58","system_id":"levelo_inurba_marseille","lat":43.260614,"lon":5.393987,"is_reserved":false,"is_disabled":false,"rental_uris":{"android":"levelo://app?vid=a429371d-e4e4-4776-a1dd-27529722fe58","ios":"levelo://app?vid=a429371d-e4e4-4776-a1dd-27529722fe58"},"vehicle_type_id":"4","last_reported":1762539295,"current_range_meters":19600,"station_id":"ce4bhh92rcd13ifvqfj0","pricing_plan_id":"cebpf4jnsgd1na2vs0mg"},{"bike_id":"d9406ae0-a7d7-4070-8130-6f1d39eec4aa","system_id":"levelo_inurba_marseille","lat":43.28604,"lon":5.37068,"is_reserved":false,"is_disabled":false,"rental_uris":{"android":"levelo://app?vid=d9406ae0-a7d7-4070-8130-6f1d39eec4aa","ios":"levelo://app?vid=d9406ae0-a7d7-4070-8130-6f1d39eec4aa"},"vehicle_type_id":"4","last_reported":1762539295,"current_range_meters":19600,"station_id":"ce4bht12rcd13ifvqi60","pricing_plan_id":"cebpf4jnsgd1na2vs0mg"},{"bike_id":"6f921b26-0c7d-4581-9bf4-2c91e1f154f6","system_id":"levelo_inurba_marseille","lat":43.28477,"lon":5.38417,"is_reserved":false,"is_disabled":false,"rental_uris":{"android":"levelo://app?vid=6f921b26-0c7d-4581-9bf4-2c91e1f154f6","ios":"levelo://app?vid=6f921b26-0c7d-4581-9bf4-2c91e1f154f6"},"vehicle_type_id":"4","last_reported":1762539295,"current_range_meters":19600,"station_id":"ce4bh512rcd13ifvqe3g","pricing_plan_id":"cebpf4jnsgd1na2vs0mg"},{"bike_id":"0fe28076-79a4-4c58-8cb9-d4750cea7c8d","system_id":"levelo_inurba_marseille","lat":43.2535,"lon":5.4216,"is_reserved":false,"is_disabled":false,"rental_uris":{"android":"levelo://app?vid=0fe28076-79a4-4c58-8cb9-d4750cea7c8d","ios":"levelo://app?vid=0fe28076-79a4-4c58-8cb9-d4750cea7c8d"},"vehicle_type_id":"4","last_reported":1762539295,"current_range_meters":19600,"station_id":"st_d2m65c5bi1j21697t3ng","pricing_plan_id":"cebpf4jnsgd1na2vs0mg"},{"bike_id":"0a17fef9-a73a-46e5-a85e-7685794e7303","system_id":"levelo_inurba_marseille","lat":43.30136,"lon":5.39867,"is_reserved":false,"is_disabled":false,"rental_uris":{"android":"levelo://app?vid=0a17fef9-a73a-46e5-a85e-7685794e7303","ios":"levelo://app?vid=0a17fef9-a73a-46e5-a85e-7685794e7303"},"vehicle_type_id":"4","last_reported":1762539295,"current_range_meters":19600,"station_id":"ce4bh0h2rcd13ifvqd40","pricing_plan_id":"cebpf4jnsgd1na2vs0mg"},{"bike_id":"309a1e5e-51c8-4860-8bb7-12924ece393e","system_id":"levelo_inurba_marseille","lat":43.31004,"lon":5.37509,"is_reserved":false,"is_disabled":false,"rental_uris":{"android":"levelo://app?vid=309a1e5e-51c8-4860-8bb7-12924ece393e","ios":"levelo://app?vid=309a1e5e-51c8-4860-8bb7-12924ece393e"},"vehicle_type_id":"4","last_reported":1762539295,"current_range_meters":19600,"station_id":"","pricing_plan_id":"cebpf4jnsgd1na2vs0mg"},{"bike_id":"119ecc4c-440a-469b-9559-bc111b478e87","system_id":"levelo_inurba_marseille","lat":43.281023,"lon":5.378287,"is_reserved":false,"is_disabled":false,"rental_uris":{"android":"levelo://app?vid=119ecc4c-440a-469b-9559-bc111b478e87","ios":"levelo://app?vid=119ecc4c-440a-469b-9559-bc111b478e87"},"vehicle_type_id":"4","last_reported":1762539295,"current_range_meters":19600,"station_id":"ce4bha12rcd13ifvqee0","pricing_plan_id":"cebpf4jnsgd1na2vs0mg"},{"bike_id":"0c35755b-4762-4d32-8a5c-befcb970ccd7","system_id":"levelo_inurba_marseille","lat":43.302877,"lon":5.400591,"is_reserved":false,"is_disabled":false,"rental_uris":{"android":"levelo://app?vid=0c35755b-4762-4d32-8a5c-befcb970ccd7","ios":"levelo://app?vid=0c35755b-4762-4d32-8a5c-befcb970ccd7"},"vehicle_type_id":"4","last_reported":1762539295,"current_range_meters":19600,"station_id":"ce4bgvh2rcd13ifvqcs0","pricing_plan_id":"cebpf4jnsgd1na2vs0mg"},{"bike_id":"d9aaa60b-dc96-4483-aa59-980547e17945","system_id":"levelo_inurba_marseille","lat":43.32366,"lon":5.36749,"is_reserved":false,"is_disabled":false,"rental_uris":{"android":"levelo://app?vid=d9aaa60b-dc96-4483-aa59-980547e17945","ios":"levelo://app?vid=d9aaa60b-dc96-4483-aa59-980547e17945"},"vehicle_type_id":"4","last_reported":1762539295,"current_range_meters":20000,"station_id":"ce4bhsh2rcd13ifvqi2g","pricing_plan_id":"cebpf4jnsgd1na2vs0mg"},{"bike_id":"115148fd-ab10-4503-af58-70fc04d8d366","system_id":"levelo_inurba_marseille","lat":43.30444,"lon":5.38898,"is_reserved":false,"is_disabled":false,"rental_uris":{"android":"levelo://app?vid=115148fd-ab10-4503-af58-70fc04d8d366","ios":"levelo://app?vid=115148fd-ab10-4503-af58-70fc04d8d366"},"vehicle_type_id":"4","last_reported":1762539295,"current_range_meters":20000,"station_id":"ce4bgk12rcd13ifvqbi0","pricing_plan_id":"cebpf4jnsgd1na2vs0mg"},