{"last_updated":1683576414,"ttl":30,"version":"2.2","data":{"bikes":[{"bike_id":"3b00ca9d-ee4c-4bd0-b001-8533144bb2af","system_id":"levelo_inurba_marseille","lat":43.309076,"lon":5.368465,"is_reserved":false,"is_disabled":false,"rental_uris":{"android":"levelo://app?vid=3b00ca9d-ee4c-4bd0-b001-8533144bb2af","ios":"levelo://app?vid=3b00ca9d-ee4c-4bd0-b001-8533144bb2af"},"vehicle_type_id":"4","last_reported":1683576415,"current_range_meters":20400,"station_id":"ce4bgn92rcd13ifvqbvg","pricing_plan_id":"free"},{"bike_id":"2dedb836-e1da-4e56-847a-bf65ebd1c3ec","system_id":"levelo_inurba_marseille","lat":43.30911,"lon":5.36845,"is_reserved":false,"is_disabled":false,"rental_uris":{"android":"levelo://app?vid=2dedb836-e1da-4e56-847a-bf65ebd1c3ec","ios":"levelo://app?vid=2dedb836-e1da-4e56-847a-bf65ebd1c3ec"},"vehicle_type_id":"4","last_reported":1683576415,"current_range_meters":25600,"station_id":"ce4bgn92rcd13ifvqbvg","pricing_plan_id":"free"},{"bike_id":"223acca6-55aa-45ac-9577-5d45e53daf8f","system_id":"levelo_inurba_marseille","lat":43.305368,"lon":5.367343,"is_reserved":false,"is_disabled":false,"rental_uris":{"android":"levelo://app?vid=223acca6-55aa-45ac-9577-5d45e53daf8f","ios":"levelo://app?vid=223acca6-55aa-45ac-9577-5d45e53daf8f"},"vehicle_type_id":"4","last_reported":1683576415,"current_range_meters":7200,"station_id":"ce4bgrp2rcd13ifvqc9g","pricing_plan_id":"free"},{"bike_id":"2bc47ba4-9df4-45a2-bab4-2d7b8e0ef444","system_id":"levelo_inurba_marseille","lat":43.305368,"lon":5.367343,"is_reserved":false,"is_disabled":false,"rental_uris":{"android":"levelo://app?vid=2bc47ba4-9df4-45a2-bab4-2d7b8e0ef444","ios":"levelo://app?vid=2bc47ba4-9df4-45a2-bab4-2d7b8e0ef444"},"vehicle_type_id":"4","last_reported":1683576415,"current_range_meters":12000,"station_id":"ce4bgrp2rcd13ifvqc9g","pricing_plan_id":"free"},{"bike_id":"d354bb48-b9b4-43b6-87af-98ba91d4184c","system_id":"levelo_inurba_marseille","lat":43.311131,"lon":5.377651,"is_reserved":false,"is_disabled":false,"rental_uris":{"android":"levelo://app?vid=d354bb48-b9b4-43b6-87af-98ba91d4184c","ios":"levelo://app?vid=d354bb48-b9b4-43b6-87af-98ba91d4184c"},"vehicle_type_id":"4","last_reported":1683576415,"current_range_meters":9200,"station_id":"ce4bgt92rcd13ifvqcg0","pricing_plan_id":"free"},{"bike_id":"6785280e-e0ff-43e7-9528-a7d107fa39fa","system_id":"levelo_inurba_marseille","lat":43.311131,"lon":5.377651,"is_reserved":false,"is_disabled":false,"rental_uris":{"android":"levelo://app?vid=6785280e-e0ff-43e7-9528-a7d107fa39fa","ios":"levelo://app?vid=6785280e-e0ff-43e7-9528-a7d107fa39fa"},"vehicle_type_id":"4","last_reported":1683576415,"current_range_meters":2800,"station_id":"ce4bgt92rcd13ifvqcg0","pricing_plan_id":"free"},{"bike_id":"3a49f45a-3aa2-466e-806d-bf0ef1d3ff8e","system_id":"levelo_inurba_marseille","lat":43.317075,"lon":5.377367,"is_reserved":false,"is_disabled":false,"rental_uris":{"android":"levelo://app?vid=3a49f45a-3aa2-466e-806d-bf0ef1d3ff8e","ios":"levelo://app?vid=3a49f45a-3aa2-466e-806d-bf0ef1d3ff8e"},"vehicle_type_id":"4","last_reported":1683576415,"current_range_meters":31200,"station_id":"ce4bgth2rcd13ifvqch0","pricing_plan_id":"free"},{"bike_id":"a06d57a0-4d36-4e4a-85f6-3b26881d68f1","system_id":"levelo_inurba_marseille","lat":43.317075,"lon":5.377367,"is_reserved":false,"is_disabled":false,"rental_uris":{"android":"levelo://app?vid=a06d57a0-4d36-4e4a-85f6-3b26881d68f1","ios":"levelo://app?vid=a06d57a0-4d36-4e4a-85f6-3b26881d68f1"},"vehicle_type_id":"4","last_reported":1683576415,"current_range_meters":28800,"station_id":"ce4bgth2rcd13ifvqch0","pricing_plan_id":"free"},{"bike_id":"d4effde8-85f0-48f9-bfa6-0f5984799c9e","system_id":"levelo_inurba_marseille","lat":43.303046,"lon":5.368981,"is_reserved":false,"is_disabled":false,"rental_uris":{"android":"levelo://app?vid=d4effde8-85f0-48f9-bfa6-0f5984799c9e","ios":"levelo://app?vid=d4effde8-85f0-48f9-bfa6-0f5984799c9e"},"vehicle_type_id":"4","last_reported":1683576415,"current_range_meters":2800,"station_id":"ce4bgqh2rcd13ifvqc5g","pricing_plan_id":"free"},{"bike_id":"652b3f6b-ca97-46c0-bd1c-e871e376d736","system_id":"levelo_inurba_marseille","lat":43.315289,"lon":5.380349,"is_reserved":false,"is_disabled":false,"rental_uris":{"android":"levelo://app?vid=652b3f6b-ca97-46c0-bd1c-e871e376d736","ios":"levelo://app?vid=652b3f6b-ca97-46c0-bd1c-e871e376d736"},"vehicle_type_id":"4","last_reported":1683576415,"current_range_meters":13200,"station_id":"ce4bhsp2rcd13ifvqi50","pricing_plan_id":"free"},{"bike_id":"b2b3a101-8fa9-49fe-86d2-1f52765a6aa5","system_id":"levelo_inurba_marseille","lat":43.315293,"lon":5.380349,"is_reserved":false,"is_disabled":false,"rental_uris":{"android":"levelo://app?vid=b2b3a101-8fa9-49fe-86d2-1f52765a6aa5","ios":"levelo://app?vid=b2b3a101-8fa9-49fe-86d2-1f52765a6aa5"},"vehicle_type_id":"4","last_reported":1683576415,"current_range_meters":28400,"station_id":"ce4bhsp2rcd13ifvqi50","pricing_plan_id":"free"},{"bike_id":"74dc49db-f918-43ed-a8d8-199327d2e08a","system_id":"levelo_inurba_marseille","lat":43.30235,"lon":5.3646,"is_reserved":false,"is_disabled":false,"rental_uris":{"android":"levelo://app?vid=74dc49db-f918-43ed-a8d8-199327d2e08a","ios":"levelo://app?vid=74dc49db-f918-43ed-a8d8-199327d2e08a"},"vehicle_type_id":"4","last_reported":1683576415,"current_range_meters":18800,"station_id":"","pricing_plan_id":"free"},{"bike_id":"51d994f4-73a6-41a2-916f-dbedc0536537","system_id":"levelo_inurba_marseille","lat":43.301939,"lon":5.366286,"is_reserved":false,"is_disabled":false,"rental_uris":{"android":"levelo://app?vid=51d994f4-73a6-41a2-916f-dbedc0536537","ios":"levelo://app?vid=51d994f4-73a6-41a2-916f-dbedc0536537"},"vehicle_type_id":"4","last_reported":1683576415,"current_range_meters":14800,"station_id":"ce4bgrh2rcd13ifvqc8g","pricing_plan_id":"free"},{"bike_id":"9408e94d-08a9-4053-9f24-c1f0f8146718","system_id":"levelo_inurba_marseille","lat":43.301939,"lon":5.366286,"is_reserved":false,"is_disabled":false,"rental_uris":{"android":"levelo://app?vid=9408e94d-08a9-4053-9f24-c1f0f8146718","ios":"levelo://app?vid=9408e94d-08a9-4053-9f24-c1f0f8146718"},"vehicle_type_id":"4","last_reported":1683576415,"current_range_meters":9200,"station_id":"ce4bgrh2rcd13ifvqc8g","pricing_plan_id":"free"},{"bike_id":"6d6c9ecd-0297-4ace-add2-52ce7ca72558","system_id":"levelo_inurba_marseille","lat":43.308012,"lon":5.381511,"is_reserved":false,"is_disabled":false,"rental_uris":{"android":"levelo://app?vid=6d6c9ecd-0297-4ace-add2-52ce7ca72558","ios":"levelo://app?vid=6d6c9ecd-0297-4ace-add2-52ce7ca72558"},"vehicle_type_id":"4","last_reported":1683576415,"current_range_meters":21600,"station_id":"ce4bgt12rcd13ifvqce0","pricing_plan_id":"free"},{"bike_id":"526b35a2-43fd-4bbc-8e31-217ab21a1e50","system_id":"levelo_inurba_marseille","lat":43.308012,"lon":5.381511,"is_reserved":false,"is_disabled":false,"rental_uris":{"android":"levelo://app?vid=526b35a2-43fd-4bbc-8e31-217ab21a1e50","ios":"levelo://app?vid=526b35a2-43fd-4bbc-8e31-217ab21a1e50"},"vehicle_type_id":"4","last_reported":1683576415,"current_range_meters":0,"station_id":"ce4bgt12rcd13ifvqce0","pricing_plan_id":"free"},{"bike_id":"791e296c-4c25-4bf7-91e2-16cd847738a6","system_id":"levelo_inurba_marseille","lat":43.308012,"lon":5.381511,"is_reserved":false,"is_disabled":false,"rental_uris":{"android":"levelo://app?vid=791e296c-4c25-4bf7-91e2-16cd847738a6","ios":"levelo://app?vid=791e296c-4c25-4bf7-91e2-16cd847738a6"},"vehicle_type_id":"4","last_reported":1683576415,"current_range_meters":30000,"station_id":"ce4bgt12rcd13ifvqce0","pricing_plan_id":"free"},{"bike_id":"9c0fa09f-bcfa-4968-9bcf-bff14918f2de","system_id":"levelo_inurba_marseille","lat":43.308012,"lon":5.381511,"is_reserved":false,"is_disabled":false,"rental_uris":{"android":"levelo://app?vid=9c0fa09f-bcfa-4968-9bcf-bff14918f2de","ios":"levelo://app?vid=9c0fa09f-bcfa-4968-9bcf-bff14918f2de"},"vehicle_type_id":"4","last_reported":1683576415,"current_range_meters":27600,"station_id":"ce4bgt12rcd13ifvqce0","pricing_plan_id":"free"},{"bike_id":"b3494841-d64b-4a0a-89c0-802b201bf4a7","system_id":"levelo_inurba_marseille","lat":43.308012,"lon":5.381511,"is_reserved":false,"is_disabled":false,"rental_uris":{"android":"levelo://app?vid=b3494841-d64b-4a0a-89c0-802b201bf4a7","ios":"levelo://app?vid=b3494841-d64b-4a0a-89c0-802b201bf4a7"},"vehicle_type_id":"4","last_reported":1683576415,"current_range_meters":16400,"station_id":"ce4bgt12rcd13ifvqce0","pricing_plan_id":"free"},{"bike_id":"aa602fec-5592-435a-a8a4-0415aed446d4","system_id":"levelo_inurba_marseille","lat":43.308012,"lon":5.381511,"is_reserved":false,"is_disabled":false,"rental_uris":{"android":"levelo://app?vid=aa602fec-5592-435a-a8a4-0415aed446d4","ios":"levelo://app?vid=aa602fec-5592-435a-a8a4-0415aed446d4"},"vehicle_type_id":"4","last_reported":1683576415,"current_range_meters":17600,"station_id":"ce4bgt12rcd13ifvqce0","pricing_plan_id":"free"},{"bike_id":"f6cdd40c-3f82-4c60-b9a3-fba41fee9e78","system_id":"levelo_inurba_marseille","lat":43.308012,"lon":5.381511,"is_reserved":false,"is_disabled":false,"rental_uris":{"android":"levelo://app?vid=f6cdd40c-3f82-4c60-b9a3-fba41fee9e78","ios":"levelo://app?vid=f6cdd40c-3f82-4c60-b9a3-fba41fee9e78"},"vehicle_type_id":"4","last_reported":1683576415,"current_range_meters":20000,"station_id":"ce4bgt12rcd13ifvqce0","pricing_plan_id":"free"},{"bike_id":"cc1f243f-d065-4398-acb1-c501e6632e28","system_id":"levelo_inurba_marseille","lat":43.30135,"lon":5.37413,"is_reserved":false,"is_disabled":false,"rental_uris":{"android":"levelo://app?vid=cc1f243f-d065-4398-acb1-c501e6632e28","ios":"levelo://app?vid=cc1f243f-d065-4398-acb1-c501e6632e28"},"vehicle_type_id":"4","last_reported":1683576415,"current_range_meters":6400,"station_id":"ce4bgs92rcd13ifvqcc0","pricing_plan_id":"free"},{"bike_id":"455d17ec-bcdd-4a0d-81dc-511b67fb4b69","system_id":"levelo_inurba_marseille","lat":43.301429,"lon":5.37413,"is_reserved":false,"is_disabled":false,"rental_uris":{"android":"levelo://app?vid=455d17ec-bcdd-4a0d-81dc-511b67fb4b69","ios":"levelo://app?vid=455d17ec-bcdd-4a0d-81dc-511b67fb4b69"},"vehicle_type_id":"4","last_reported":1683576415,"current_range_meters":26400,"station_id":"ce4bgs92rcd13ifvqcc0","pricing_plan_id":"free"},{"bike_id":"52b3eaa0-f7b8-42b1-83a9-bfeb55191857","system_id":"levelo_inurba_marseille","lat":43.313571,"lon":5.384829,"is_reserved":false,"is_disabled":false,"rental_uris":{"android":"levelo://app?vid=52b3eaa0-f7b8-42b1-83a9-bfeb55191857","ios":"levelo://app?vid=52b3eaa0-f7b8-42b1-83a9-bfeb55191857"},"vehicle_type_id":"4","last_reported":1683576415,"current_range_meters":24000,"station_id":"ce4bgt92rcd13ifvqcf0","pricing_plan_id":"free"},{"bike_id":"a46320dd-79d3-4988-a57a-1ac732fc0fd3","system_id":"levelo_inurba_marseille","lat":43.313571,"lon":5.384829,"is_reserved":false,"is_disabled":false,"rental_uris":{"android":"levelo://app?vid=a46320dd-79d3-4988-a57a-1ac732fc0fd3","ios":"levelo://app?vid=a46320dd-79d3-4988-a57a-1ac732fc0fd3"},"vehicle_type_id":"4","last_reported":1683576415,"current_range_meters":28800,"station_id":"ce4bgt92rcd13ifvqcf0","pricing_plan_id":"free"},{"bike_id":"1d0849d1-a7d1-4997-84e0-f9d02dcb2b96","system_id":"levelo_inurba_marseille","lat":43.313571,"lon":5.384829,"is_reserved":false,"is_disabled":false,"rental_uris":{"android":"levelo://app?vid=1d0849d1-a7d1-4997-84e0-f9d02dcb2b96","ios":"levelo://app?vid=1d0849d1-a7d1-4997-84e0-f9d02dcb2b96"},"vehicle_type_id":"4","last_reported":1683576415,"current_range_meters":30000,"station_id":"ce4bgt92rcd13ifvqcf0","pricing_plan_id":"free"},{"bike_id":"2375edf0-5c25-4d62-adfb-91f1d5c57df3","system_id":"levelo_inurba_marseille","lat":43.313571,"lon":5.384829,"is_reserved":false,"is_disabled":false,"rental_uris":{"android":"levelo://app?vid=2375edf0-5c25-4d62-adfb-91f1d5c57df3","ios":"levelo://app?vid=2375edf0-5c25-4d62-adfb-91f1d5c57df3"},"vehicle_type_id":"4","last_reported":1683576415,"current_range_meters":7200,"station_id":"ce4bgt92rcd13ifvqcf0","pricing_plan_id":"free"},{"bike_id":"d93195d4-b4be-40b0-8a9d-55360d9c5db9","system_id":"levelo_inurba_marseille","lat":43.313571,"lon":5.384829,"is_reserved":false,"is_disabled":false,"rental_uris":{"android":"levelo://app?vid=d93195d4-b4be-40b0-8a9d-55360d9c5db9","ios":"levelo://app?vid=d93195d4-b4be-40b0-8a9d-55360d9c5db9"},"vehicle_type_id":"4","last_reported":1683576415,"current_range_meters":18000,"station_id":"ce4bgt92rcd13ifvqcf0","pricing_plan_id":"free"},{"bike_id":"11355a26-ce04-4637-b186-e63c722271b4","system_id":"levelo_inurba_marseille","lat":43.31371,"lon":5.38508,"is_reserved":false,"is_disabled":false,"rental_uris":{"android":"levelo://app?vid=11355a26-ce04-4637-b186-e63c722271b4","ios":"levelo://app?vid=11355a26-ce04-4637-b186-e63c722271b4"},"vehicle_type_id":"4","last_reported":1683576415,"current_range_meters":26000,"station_id":"","pricing_plan_id":"free"},{"bike_id":"adad5ebb-cec7-4941-bb3e-4b5eae0e87b6","system_id":"levelo_inurba_marseille","lat":43.313571,"lon":5.384829,"is_reserved":false,"is_disabled":false,"rental_uris":{"android":"levelo://app?vid=adad5ebb-cec7-4941-bb3e-4b5eae0e87b6","ios":"levelo://app?vid=adad5ebb-cec7-4941-bb3e-4b5eae0e87b6"},"vehicle_type_id":"4","last_reported":1683576415,"current_range_meters":23600,"station_id":"ce4bgt92rcd13ifvqcf0","pricing_plan_id":"free"},{"bike_id":"2b2da678-aba3-43e2-b0de-4a30da79e48b","system_id":"levelo_inurba_marseille","lat":43.299243,"lon":5.374807,"is_reserved":false,"is_disabled":false,"rental_uris":{"android":"levelo://app?vid=2b2da678-aba3-43e2-b0de-4a30da79e48b","ios":"levelo://app?vid=2b2da678-aba3-43e2-b0de-4a30da79e48b"},"vehicle_type_id":"4","last_reported":1683576415,"current_range_meters":7200,"station_id":"ce4bgjh2rcd13ifvqbg0","pricing_plan_id":"free"},{"bike_id":"45d990d3-5132-49d3-a4ad-5d200f035b9b","system_id":"levelo_inurba_marseille","lat":43.299243,"lon":5.374807,"is_reserved":false,"is_disabled":false,"rental_uris":{"android":"levelo://app?vid=45d990d3-5132-49d3-a4ad-5d200f035b9b","ios":"levelo://app?vid=45d990d3-5132-49d3-a4ad-5d200f035b9b"},"vehicle_type_id":"4","last_reported":1683576415,"current_range_meters":14000,"station_id":"ce4bgjh2rcd13ifvqbg0","pricing_plan_id":"free"},{"bike_id":"040219de-17f5-4ee4-8be4-518f3cdfe2db","system_id":"levelo_inurba_marseille","lat":43.311722,"lon":5.387247,"is_reserved":false,"is_disabled":false,"rental_uris":{"android":"levelo://app?vid=040219de-17f5-4ee4-8be4-518f3cdfe2db","ios":"levelo://app?vid=040219de-17f5-4ee4-8be4-518f3cdfe2db"},"vehicle_type_id":"4","last_reported":1683576415,"current_range_meters":18800,"station_id":"ce4bgv12rcd13ifvqcp0","pricing_plan_id":"free"},{"bike_id":"5cd8a94b-7bec-4c3c-9c6b-5257da7553c1","system_id":"levelo_inurba_marseille","lat":43.311722,"lon":5.387247,"is_reserved":false,"is_disabled":false,"rental_uris":{"android":"levelo://app?vid=5cd8a94b-7bec-4c3c-9c6b-5257da7553c1","ios":"levelo://app?vid=5cd8a94b-7bec-4c3c-9c6b-5257da7553c1"},"vehicle_type_id":"4","last_reported":1683576415,"current_range_meters":9600,"station_id":"ce4bgv12rcd13ifvqcp0","pricing_plan_id":"free"},{"bike_id":"2e843d9b-5da1-43bb-a83f-752d42ce94aa","system_id":"levelo_inurba_marseille","lat":43.311722,"lon":5.387247,"is_reserved":false,"is_disabled":false,"rental_uris":{"android":"levelo://app?vid=2e843d9b-5da1-43bb-a83f-752d42ce94aa","ios":"levelo://app?vid=2e843d9b-5da1-43bb-a83f-752d42ce94aa"},"vehicle_type_id":"4","last_reported":1683576415,"current_range_meters":6800,"station_id":"ce4bgv12rcd13ifvqcp0","pricing_plan_id":"free"},{"bike_id":"66739d3c-95dc-46d6-a9fb-1c8daa4306e6","system_id":"levelo_inurba_marseille","lat":43.311722,"lon":5.387247,"is_reserved":false,"is_disabled":false,"rental_uris":{"android":"levelo://app?vid=66739d3c-95dc-46d6-a9fb-1c8daa4306e6","ios":"levelo://app?vid=66739d3c-95dc-46d6-a9fb-1c8daa4306e6"},"vehicle_type_id":"4","last_reported":1683576415,"current_range_meters":11600,"station_id":"ce4bgv12rcd13ifvqcp0","pricing_plan_id":"free"},{"bike_id":"713f4129-b285-457d-9645-da32280c751c","system_id":"levelo_inurba_marseille","lat":43.311722,"lon":5.387247,"is_reserved":false,"is_disabled":false,"rental_uris":{"android":"levelo://app?vid=713f4129-b285-457d-9645-da32280c751c","ios":"levelo://app?vid=713f4129-b285-457d-9645-da32280c751c"},"vehicle_type_id":"4","last_reported":1683576415,"current_range_meters":4400,"station_id":"ce4bgv12rcd13ifvqcp0","pricing_plan_id":"free"},{"bike_id":"2f706956-9825-4ea0-916d-aca01333e41c","system_id":"levelo_inurba_marseille","lat":43.311722,"lon":5.387247,"is_reserved":false,"is_disabled":false,"rental_uris":{"android":"levelo://app?vid=2f706956-9825-4ea0-916d-aca01333e41c","ios":"levelo://app?vid=2f706956-9825-4ea0-916d-aca01333e41c"},"vehicle_type_id":"4","last_reported":1683576415,"current_range_meters":14800,"station_id":"ce4bgv12rcd13ifvqcp0","pricing_plan_id":"free"},{"bike_id":"f3a62c25-6b8c-4844-a65b-01cc00b63119","system_id":"levelo_inurba_marseille","lat":43.297794,"lon":5.370888,"is_reserved":false,"is_disabled":false,"rental_uris":{"android":"levelo://app?vid=f3a62c25-6b8c-4844-a65b-01cc00b63119","ios":"levelo://app?vid=f3a62c25-6b8c-4844-a65b-01cc00b63119"},"vehicle_type_id":"4","last_reported":1683576415,"current_range_meters":17200,"station_id":"ce4bgop2rcd13ifvqc1g","pricing_plan_id":"free"},{"bike_id":"efe1a095-a8ce-468d-8478-6b88eb493170","system_id":"levelo_inurba_marseille","lat":43.297774,"lon":5.370875,"is_reserved":false,"is_disabled":false,"rental_uris":{"android":"levelo://app?vid=efe1a095-a8ce-468d-8478-6b88eb493170","ios":"levelo://app?vid=efe1a095-a8ce-468d-8478-6b88eb493170"},"vehicle_type_id":"4","last_reported":1683576415,"current_range_meters":20400,"station_id":"ce4bgop2rcd13ifvqc1g","pricing_plan_id":"free"},{"bike_id":"ac715d40-e1b3-42e5-bec9-0f230eece339","system_id":"levelo_inurba_marseille","lat":43.328371,"lon":5.366912,"is_reserved":false,"is_disabled":false,"rental_uris":{"android":"levelo://app?vid=ac715d40-e1b3-42e5-bec9-0f230eece339","ios":"levelo://app?vid=ac715d40-e1b3-42e5-bec9-0f230eece339"},"vehicle_type_id":"4","last_reported":1683576415,"current_range_meters":31200,"station_id":"ce4bhs92rcd13ifvqi0g","pricing_plan_id":"free"},{"bike_id":"ef1f74e1-c8ce-42cc-84d3-7910f0bea3f6","system_id":"levelo_inurba_marseille","lat":43.30302,"lon":5.38517,"is_reserved":false,"is_disabled":false,"rental_uris":{"android":"levelo://app?vid=ef1f74e1-c8ce-42cc-84d3-7910f0bea3f6","ios":"levelo://app?vid=ef1f74e1-c8ce-42cc-84d3-7910f0bea3f6"},"vehicle_type_id":"4","last_reported":1683576415,"current_range_meters":21200,"station_id":"","pricing_plan_id":"free"},{"bike_id":"f1e8dc51-3a05-42b5-bd64-8607b1a9d10f","system_id":"levelo_inurba_marseille","lat":43.29584,"lon":5.36749,"is_reserved":false,"is_disabled":false,"rental_uris":{"android":"levelo://app?vid=f1e8dc51-3a05-42b5-bd64-8607b1a9d10f","ios":"levelo://app?vid=f1e8dc51-3a05-42b5-bd64-8607b1a9d10f"},"vehicle_type_id":"4","last_reported":1683576415,"current_range_meters":7600,"station_id":"","pricing_plan_id":"free"},{"bike_id":"cbec0d89-98a3-4181-8196-4afe2ac817eb","system_id":"levelo_inurba_marseille","lat":43.309589,"lon":5.390258,"is_reserved":false,"is_disabled":false,"rental_uris":{"android":"levelo://app?vid=cbec0d89-98a3-4181-8196-4afe2ac817eb","ios":"levelo://app?vid=cbec0d89-98a3-4181-8196-4afe2ac817eb"},"vehicle_type_id":"4","last_reported":1683576415,"current_range_meters":26000,"station_id":"ce4bgup2rcd13ifvqco0","pricing_plan_id":"free"},{"bike_id":"0837c2ed-9eb0-421a-933d-b98981d2d8f9","system_id":"levelo_inurba_marseille","lat":43.299028,"lon":5.381509,"is_reserved":false,"is_disabled":false,"rental_uris":{"android":"levelo://app?vid=0837c2ed-9eb0-421a-933d-b98981d2d8f9","ios":"levelo://app?vid=0837c2ed-9eb0-421a-933d-b98981d2d8f9"},"vehicle_type_id":"4","last_reported":1683576415,"current_range_meters":11200,"station_id":"ce4bgj12rcd13ifvqbc0","pricing_plan_id":"free"},{"bike_id":"e37c9e54-8e0a-478b-b629-a1c65abd2301","system_id":"levelo_inurba_marseille","lat":43.299028,"lon":5.381509,"is_reserved":false,"is_disabled":false,"rental_uris":{"android":"levelo://app?vid=e37c9e54-8e0a-478b-b629-a1c65abd2301","ios":"levelo://app?vid=e37c9e54-8e0a-478b-b629-a1c65abd2301"},"vehicle_type_id":"4","last_reported":1683576415,"current_range_meters":1600,"station_id":"ce4bgj12rcd13ifvqbc0","pricing_plan_id":"free"},{"bike_id":"fd04d6f0-5690-439e-9da6-5e008c6c5fe3","system_id":"levelo_inurba_marseille","lat":43.296921,"lon":5.376579,"is_reserved":false,"is_disabled":false,"rental_uris":{"android":"levelo://app?vid=fd04d6f0-5690-439e-9da6-5e008c6c5fe3","ios":"levelo://app?vid=fd04d6f0-5690-439e-9da6-5e008c6c5fe3"},"vehicle_type_id":"4","last_reported":1683576415,"current_range_meters":5600,"station_id":"ce4bgkh2rcd13ifvqbl0","pricing_plan_id":"free"},{"bike_id":"89794fb9-3bc2-45e4-a79c-e427cdae1b2f","system_id":"levelo_inurba_marseille","lat":43.317557,"lon":5.390173,"is_reserved":false,"is_disabled":false,"rental_uris":{"android":"levelo://app?vid=89794fb9-3bc2-45e4-a79c-e427cdae1b2f","ios":"levelo://app?vid=89794fb9-3bc2-45e4-a79c-e427cdae1b2f"},"vehicle_type_id":"4","last_reported":1683576415,"current_range_meters":13600,"station_id":"ce4bhqp2rcd13ifvqhng","pricing_plan_id":"free"},{"bike_id":"4f6418cd-2719-486c-8971-8645a7fa1118","system_id":"levelo_inurba_marseille","lat":43.317557,"lon":5.390173,"is_reserved":false,"is_disabled":false,"rental_uris":{"android":"levelo://app?vid=4f6418cd-2719-486c-8971-8645a7fa1118","ios":"levelo://app?vid=4f6418cd-2719-486c-8971-8645a7fa1118"},"vehicle_type_id":"4","last_reported":1683576415,"current_range_meters":28400,"station_id":"ce4bhqp2rcd13ifvqhng","pricing_plan_id":"free"},{"bike_id":"a6833ac8-5b85-4bf3-b546-bc2dc743a297","system_id":"levelo_inurba_marseille","lat":43.3176,"lon":5.39015,"is_reserved":false,"is_disabled":false,"rental_uris":{"android":"levelo://app?vid=a6833ac8-5b85-4bf3-b546-bc2dc743a297","ios":"levelo://app?vid=a6833ac8-5b85-4bf3-b546-bc2dc743a297"},"vehicle_type_id":"4","last_reported":1683576415,"current_range_meters":14000,"station_id":"","pricing_plan_id":"free"},{"bike_id":"387c26fc-aef2-4a23-bae7-722931a93d3c","system_id":"levelo_inurba_marseille","lat":43.317557,"lon":5.390173,"is_reserved":false,"is_disabled":false,"rental_uris":{"android":"levelo://app?vid=387c26fc-aef2-4a23-bae7-722931a93d3c","ios":"levelo://app?vid=387c26fc-aef2-4a23-bae7-722931a93d3c"},"vehicle_type_id":"4","last_reported":1683576415,"current_range_meters":22000,"station_id":"ce4bhqp2rcd13ifvqhng","pricing_plan_id":"free"},{"bike_id":"d7abd8ad-2fcc-41a8-b1a7-e00ad973feb0","system_id":"levelo_inurba_marseille","lat":43.317557,"lon":5.390173,"is_reserved":false,"is_disabled":false,"rental_uris":{"android":"levelo://app?vid=d7abd8ad-2fcc-41a8-b1a7-e00ad973feb0","ios":"levelo://app?vid=d7abd8ad-2fcc-41a8-b1a7-e00ad973feb0"},"vehicle_type_id":"4","last_reported":1683576415,"current_range_meters":30000,"station_id":"ce4bhqp2rcd13ifvqhng","pricing_plan_id":"free"},{"bike_id":"40bcea4e-adf4-4001-b0a1-f6360e1f6d72","system_id":"levelo_inurba_marseille","lat":43.317557,"lon":5.390173,"is_reserved":false,"is_disabled":false,"rental_uris":{"android":"levelo://app?vid=40bcea4e-adf4-4001-b0a1-f6360e1f6d72","ios":"levelo://app?vid=40bcea4e-adf4-4001-b0a1-f6360e1f6d72"},"vehicle_type_id":"4","last_reported":1683576415,"current_range_meters":0,"station_id":"ce4bhqp2rcd13ifvqhng","pricing_plan_id":"free"},{"bike_id":"5eed2ef4-720e-4441-9317-53bb8a9f981e","system_id":"levelo_inurba_marseille","lat":43.29584,"lon":5.37528,"is_reserved":false,"is_disabled":false,"rental_uris":{"android":"levelo://app?vid=5eed2ef4-720e-4441-9317-53bb8a9f981e","ios":"levelo://app?vid=5eed2ef4-720e-4441-9317-53bb8a9f981e"},"vehicle_type_id":"4","last_reported":1683576415,"current_range_meters":4800,"station_id":"ce4bgh92rcd13ifvqb50","pricing_plan_id":"free"},{"bike_id":"4ba44efc-29ec-48c3-97f5-568663608123","system_id":"levelo_inurba_marseille","lat":43.297794,"lon":5.370888,"is_reserved":false,"is_disabled":false,"rental_uris":{"android":"levelo://app?vid=4ba44efc-29ec-48c3-97f5-568663608123","ios":"levelo://app?vid=4ba44efc-29ec-48c3-97f5-568663608123"},"vehicle_type_id":"4","last_reported":1683576415,"current_range_meters":19200,"station_id":"ce4bgop2rcd13ifvqc1g","pricing_plan_id":"free"},{"bike_id":"7a7de1c7-b700-4a01-9d90-04859f7934aa","system_id":"levelo_inurba_marseille","lat":43.30436,"lon":5.38887,"is_reserved":false,"is_disabled":false,"rental_uris":{"android":"levelo://app?vid=7a7de1c7-b700-4a01-9d90-04859f7934aa","ios":"levelo://app?vid=7a7de1c7-b700-4a01-9d90-04859f7934aa"},"vehicle_type_id":"4","last_reported":1683576415,"current_range_meters":19600,"station_id":"ce4bgk12rcd13ifvqbi0","pricing_plan_id":"free"},{"bike_id":"a1c2c21d-532a-48fc-b894-e1987af3c713","system_id":"levelo_inurba_marseille","lat":43.29573,"lon":5.37516,"is_reserved":false,"is_disabled":false,"rental_uris":{"android":"levelo://app?vid=a1c2c21d-532a-48fc-b894-e1987af3c713","ios":"levelo://app?vid=a1c2c21d-532a-48fc-b894-e1987af3c713"},"vehicle_type_id":"4","last_reported":1683576415,"current_range_meters":7200,"station_id":"ce4bgh92rcd13ifvqb50","pricing_plan_id":"free"},{"bike_id":"275c5ca2-09f7-41c2-90b3-d19b6eca07e3","system_id":"levelo_inurba_marseille","lat":43.304274,"lon":5.388873,"is_reserved":false,"is_disabled":false,"rental_uris":{"android":"levelo://app?vid=275c5ca2-09f7-41c2-90b3-d19b6eca07e3","ios":"levelo://app?vid=275c5ca2-09f7-41c2-90b3-d19b6eca07e3"},"vehicle_type_id":"4","last_reported":1683576415,"current_range_meters":17600,"station_id":"ce4bgk12rcd13ifvqbi0","pricing_plan_id":"free"},{"bike_id":"b4d6e40f-b3a4-4d3c-a625-f7a0ba80ba6c","system_id":"levelo_inurba_marseille","lat":43.304274,"lon":5.388873,"is_reserved":false,"is_disabled":false,"rental_uris":{"android":"levelo://app?vid=b4d6e40f-b3a4-4d3c-a625-f7a0ba80ba6c","ios":"levelo://app?vid=b4d6e40f-b3a4-4d3c-a625-f7a0ba80ba6c"},"vehicle_type_id":"4","last_reported":1683576415,"current_range_meters":31200,"station_id":"ce4bgk12rcd13ifvqbi0","pricing_plan_id":"free"},{"bike_id":"ffdf9eb3-7e56-4229-852a-b5a65d4af4e5","system_id":"levelo_inurba_marseille","lat":43.295748,"lon":5.37522,"is_reserved":false,"is_disabled":false,"rental_uris":{"android":"levelo://app?vid=ffdf9eb3-7e56-4229-852a-b5a65d4af4e5","ios":"levelo://app?vid=ffdf9eb3-7e56-4229-852a-b5a65d4af4e5"},"vehicle_type_id":"4","last_reported":1683576415,"current_range_meters":0,"station_id":"ce4bgh92rcd13ifvqb50","pricing_plan_id":"free"},{"bike_id":"6ce09b9f-5557-429b-99db-000e9fd0e853","system_id":"levelo_inurba_marseille","lat":43.304274,"lon":5.388873,"is_reserved":false,"is_disabled":false,"rental_uris":{"android":"levelo://app?vid=6ce09b9f-5557-429b-99db-000e9fd0e853","ios":"levelo://app?vid=6ce09b9f-5557-429b-99db-000e9fd0e853"},"vehicle_type_id":"4","last_reported":1683576415,"current_range_meters":2800,"station_id":"ce4bgk12rcd13ifvqbi0","pricing_plan_id":"free"},{"bike_id":"2e26ceb0-6606-4458-bfbc-fbe210124d92","system_id":"levelo_inurba_marseille","lat":43.29537,"lon":5.37498,"is_reserved":false,"is_disabled":false,"rental_uris":{"android":"levelo://app?vid=2e26ceb0-6606-4458-bfbc-fbe210124d92","ios":"levelo://app?vid=2e26ceb0-6606-4458-bfbc-fbe210124d92"},"vehicle_type_id":"4","last_reported":1683576415,"current_range_meters":27600,"station_id":"ce4bgkp2rcd13ifvqbmg","pricing_plan_id":"free"},{"bike_id":"b910a86a-2cb9-4a0e-9401-9e9209bdcc38","system_id":"levelo_inurba_marseille","lat":43.295279,"lon":5.375048,"is_reserved":false,"is_disabled":false,"rental_uris":{"android":"levelo://app?vid=b910a86a-2cb9-4a0e-9401-9e9209bdcc38","ios":"levelo://app?vid=b910a86a-2cb9-4a0e-9401-9e9209bdcc38"},"vehicle_type_id":"4","last_reported":1683576415,"current_range_meters":18400,"station_id":"ce4bgkp2rcd13ifvqbmg","pricing_plan_id":"free"},{"bike_id":"d4e834c1-e0cf-43b1-8aab-0cacd338c759","system_id":"levelo_inurba_marseille","lat":43.29966,"lon":5.38488,"is_reserved":false,"is_disabled":false,"rental_uris":{"android":"levelo://app?vid=d4e834c1-e0cf-43b1-8aab-0cacd338c759","ios":"levelo://app?vid=d4e834c1-e0cf-43b1-8aab-0cacd338c759"},"vehicle_type_id":"4","last_reported":1683576415,"current_range_meters":30800,"station_id":"ce4bgj92rcd13ifvqbd0","pricing_plan_id":"free"},{"bike_id":"c88dc0e8-8614-4c70-847d-f552192785e9","system_id":"levelo_inurba_marseille","lat":43.29961,"lon":5.38485,"is_reserved":false,"is_disabled":false,"rental_uris":{"android":"levelo://app?vid=c88dc0e8-8614-4c70-847d-f552192785e9","ios":"levelo://app?vid=c88dc0e8-8614-4c70-847d-f552192785e9"},"vehicle_type_id":"4","last_reported":1683576415,"current_range_meters":4400,"station_id":"ce4bgj92rcd13ifvqbd0","pricing_plan_id":"free"},{"bike_id":"6605a40d-8883-492f-a0f1-bc9ee2b8d4e2","system_id":"levelo_inurba_marseille","lat":43.295279,"lon":5.375048,"is_reserved":false,"is_disabled":false,"rental_uris":{"android":"levelo://app?vid=6605a40d-8883-492f-a0f1-bc9ee2b8d4e2","ios":"levelo://app?vid=6605a40d-8883-492f-a0f1-bc9ee2b8d4e2"},"vehicle_type_id":"4","last_reported":1683576415,"current_range_meters":12400,"station_id":"ce4bgkp2rcd13ifvqbmg","pricing_plan_id":"free"},{"bike_id":"b6d2584b-6561-4d93-b724-eb5530b9883a","system_id":"levelo_inurba_marseille","lat":43.299724,"lon":5.384848,"is_reserved":false,"is_disabled":false,"rental_uris":{"android":"levelo://app?vid=b6d2584b-6561-4d93-b724-eb5530b9883a","ios":"levelo://app?vid=b6d2584b-6561-4d93-b724-eb5530b9883a"},"vehicle_type_id":"4","last_reported":1683576415,"current_range_meters":28400,"station_id":"ce4bgj92rcd13ifvqbd0","pricing_plan_id":"free"},{"bike_id":"2edc1f43-3a73-407f-8b2e-bffa4592c3b1","system_id":"levelo_inurba_marseille","lat":43.29965,"lon":5.38496,"is_reserved":false,"is_disabled":false,"rental_uris":{"android":"levelo://app?vid=2edc1f43-3a73-407f-8b2e-bffa4592c3b1","ios":"levelo://app?vid=2edc1f43-3a73-407f-8b2e-bffa4592c3b1"},"vehicle_type_id":"4","last_reported":1683576415,"current_range_meters":23600,"station_id":"ce4bgj92rcd13ifvqbd0","pricing_plan_id":"free"},{"bike_id":"e2e0281b-2c42-4af1-bd58-6d3b849fff92","system_id":"levelo_inurba_marseille","lat":43.299724,"lon":5.384848,"is_reserved":false,"is_disabled":false,"rental_uris":{"android":"levelo://app?vid=e2e0281b-2c42-4af1-bd58-6d3b849fff92","ios":"levelo://app?vid=e2e0281b-2c42-4af1-bd58-6d3b849fff92"},"vehicle_type_id":"4","last_reported":1683576415,"current_range_meters":2000,"station_id":"ce4bgj92rcd13ifvqbd0","pricing_plan_id":"free"},{"bike_id":"bf1d0040-7728-480b-8503-2e31ef4316ef","system_id":"levelo_inurba_marseille","lat":43.299724,"lon":5.384848,"is_reserved":false,"is_disabled":false,"rental_uris":{"android":"levelo://app?vid=bf1d0040-7728-480b-8503-2e31ef4316ef","ios":"levelo://app?vid=bf1d0040-7728-480b-8503-2e31ef4316ef"},"vehicle_type_id":"4","last_reported":1683576415,"current_range_meters":30000,"station_id":"ce4bgj92rcd13ifvqbd0","pricing_plan_id":"free"},{"bike_id":"52f9a966-88e9-4e72-92c8-0db5bd19f2c4","system_id":"levelo_inurba_marseille","lat":43.31441,"lon":5.39336,"is_reserved":false,"is_disabled":false,"rental_uris":{"android":"levelo://app?vid=52f9a966-88e9-4e72-92c8-0db5bd19f2c4","ios":"levelo://app?vid=52f9a966-88e9-4e72-92c8-0db5bd19f2c4"},"vehicle_type_id":"4","last_reported":1683576415,"current_range_meters":3600,"station_id":"","pricing_plan_id":"free"},{"bike_id":"4fe48809-1642-464b-abe1-924242c73d7e","system_id":"levelo_inurba_marseille","lat":43.29601,"lon":5.381084,"is_reserved":false,"is_disabled":false,"rental_uris":{"android":"levelo://app?vid=4fe48809-1642-464b-abe1-924242c73d7e","ios":"levelo://app?vid=4fe48809-1642-464b-abe1-924242c73d7e"},"vehicle_type_id":"4","last_reported":1683576415,"current_range_meters":17200,"station_id":"ce4bgl12rcd13ifvqbo0","pricing_plan_id":"free"},{"bike_id":"0d11d454-3089-4dec-9823-6f92bae0831b","system_id":"levelo_inurba_marseille","lat":43.29602,"lon":5.381084,"is_reserved":false,"is_disabled":false,"rental_uris":{"android":"levelo://app?vid=0d11d454-3089-4dec-9823-6f92bae0831b","ios":"levelo://app?vid=0d11d454-3089-4dec-9823-6f92bae0831b"},"vehicle_type_id":"4","last_reported":1683576415,"current_range_meters":21200,"station_id":"ce4bgl12rcd13ifvqbo0","pricing_plan_id":"free"},{"bike_id":"774bd473-bc53-4915-8529-039b131e459b","system_id":"levelo_inurba_marseille","lat":43.29305,"lon":5.36945,"is_reserved":false,"is_disabled":false,"rental_uris":{"android":"levelo://app?vid=774bd473-bc53-4915-8529-039b131e459b","ios":"levelo://app?vid=774bd473-bc53-4915-8529-039b131e459b"},"vehicle_type_id":"4","last_reported":1683576415,"current_range_meters":20000,"station_id":"ce4bhi12rcd13ifvqfq0","pricing_plan_id":"free"},{"bike_id":"f9ac87aa-2fee-4162-9dcf-08fad1180c36","system_id":"levelo_inurba_marseille","lat":43.305994,"lon":5.393687,"is_reserved":false,"is_disabled":false,"rental_uris":{"android":"levelo://app?vid=f9ac87aa-2fee-4162-9dcf-08fad1180c36","ios":"levelo://app?vid=f9ac87aa-2fee-4162-9dcf-08fad1180c36"},"vehicle_type_id":"4","last_reported":1683576415,"current_range_meters":8800,"station_id":"ce4bh0p2rcd13ifvqd80","pricing_plan_id":"free"},{"bike_id":"d5a810b8-3bf1-4aa9-bdbb-1b4984d883b4","system_id":"levelo_inurba_marseille","lat":43.305994,"lon":5.393687,"is_reserved":false,"is_disabled":false,"rental_uris":{"android":"levelo://app?vid=d5a810b8-3bf1-4aa9-bdbb-1b4984d883b4","ios":"levelo://app?vid=d5a810b8-3bf1-4aa9-bdbb-1b4984d883b4"},"vehicle_type_id":"4","last_reported":1683576415,"current_range_meters":18400,"station_id":"ce4bh0p2rcd13ifvqd80","pricing_plan_id":"free"},{"bike_id":"f3aab3c3-888d-431c-a61b-43392f96cf9b","system_id":"levelo_inurba_marseille","lat":43.305994,"lon":5.393687,"is_reserved":false,"is_disabled":false,"rental_uris":{"android":"levelo://app?vid=f3aab3c3-888d-431c-a61b-43392f96cf9b","ios":"levelo://app?vid=f3aab3c3-888d-431c-a61b-43392f96cf9b"},"vehicle_type_id":"4","last_reported":1683576415,"current_range_meters":4400,"station_id":"ce4bh0p2rcd13ifvqd80","pricing_plan_id":"free"},{"bike_id":"fd2bfbe7-6627-4bf2-9965-d9ffcf771d9c","system_id":"levelo_inurba_marseille","lat":43.305994,"lon":5.393687,"is_reserved":false,"is_disabled":false,"rental_uris":{"android":"levelo://app?vid=fd2bfbe7-6627-4bf2-9965-d9ffcf771d9c","ios":"levelo://app?vid=fd2bfbe7-6627-4bf2-9965-d9ffcf771d9c"},"vehicle_type_id":"4","last_reported":1683576415,"current_range_meters":28800,"station_id":"ce4bh0p2rcd13ifvqd80","pricing_plan_id":"free"},{"bike_id":"c6a99708-8ce6-48a2-9fbb-402cca1d1d88","system_id":"levelo_inurba_marseille","lat":43.305994,"lon":5.393687,"is_reserved":false,"is_disabled":false,"rental_uris":{"android":"levelo://app?vid=c6a99708-8ce6-48a2-9fbb-402cca1d1d88","ios":"levelo://app?vid=c6a99708-8ce6-48a2-9fbb-402cca1d1d88"},"vehicle_type_id":"4","last_reported":1683576415,"current_range_meters":21600,"station_id":"ce4bh0p2rcd13ifvqd80","pricing_plan_id":"free"},{"bike_id":"886acc7c-5a98-42ea-bbef-d5c30ee5adaf","system_id":"levelo_inurba_marseille","lat":43.305994,"lon":5.393687,"is_reserved":false,"is_disabled":false,"rental_uris":{"android":"levelo://app?vid=886acc7c-5a98-42ea-bbef-d5c30ee5adaf","ios":"levelo://app?vid=886acc7c-5a98-42ea-bbef-d5c30ee5adaf"},"vehicle_type_id":"4","last_reported":1683576415,"current_range_meters":26000,"station_id":"ce4bh0p2rcd13ifvqd80","pricing_plan_id":"free"},{"bike_id":"70566324-38ff-4887-8de3-ffac0a02df74","system_id":"levelo_inurba_marseille","lat":43.305994,"lon":5.393687,"is_reserved":false,"is_disabled":false,"rental_uris":{"android":"levelo://app?vid=70566324-38ff-4887-8de3-ffac0a02df74","ios":"levelo://app?vid=70566324-38ff-4887-8de3-ffac0a02df74"},"vehicle_type_id":"4","last_reported":1683576415,"current_range_meters":18800,"station_id":"ce4bh0p2rcd13ifvqd80","pricing_plan_id":"free"},{"bike_id":"d36ee72c-85e7-40b0-a699-d6988aac786e","system_id":"levelo_inurba_marseille","lat":43.305994,"lon":5.393687,"is_reserved":false,"is_disabled":false,"rental_uris":{"android":"levelo://app?vid=d36ee72c-85e7-40b0-a699-d6988aac786e","ios":"levelo://app?vid=d36ee72c-85e7-40b0-a699-d6988aac786e"},"vehicle_type_id":"4","last_reported":1683576415,"current_range_meters":13600,"station_id":"ce4bh0p2rcd13ifvqd80","pricing_plan_id":"free"},{"bike_id":"e6f576e0-880c-434d-bef5-a52a0f50a37f","system_id":"levelo_inurba_marseille","lat":43.305994,"lon":5.393687,"is_reserved":false,"is_disabled":false,"rental_uris":{"android":"levelo://app?vid=e6f576e0-880c-434d-bef5-a52a0f50a37f","ios":"levelo://app?vid=e6f576e0-880c-434d-bef5-a52a0f50a37f"},"vehicle_type_id":"4","last_reported":1683576415,"current_range_meters":27200,"station_id":"ce4bh0p2rcd13ifvqd80","pricing_plan_id":"free"},{"bike_id":"cbf4f3a4-4040-48cc-b348-be59380a7590","system_id":"levelo_inurba_marseille","lat":43.2937,"lon":5.37842,"is_reserved":false,"is_disabled":false,"rental_uris":{"android":"levelo://app?vid=cbf4f3a4-4040-48cc-b348-be59380a7590","ios":"levelo://app?vid=cbf4f3a4-4040-48cc-b348-be59380a7590"},"vehicle_type_id":"4","last_reported":1683576415,"current_range_meters":6000,"station_id":"ce4bgjh2rcd13ifvqbf0","pricing_plan_id":"free"},{"bike_id":"40dcfdcb-d876-448d-9e11-2511a5179524","system_id":"levelo_inurba_marseille","lat":43.303002,"lon":5.392142,"is_reserved":false,"is_disabled":false,"rental_uris":{"android":"levelo://app?vid=40dcfdcb-d876-448d-9e11-2511a5179524","ios":"levelo://app?vid=40dcfdcb-d876-448d-9e11-2511a5179524"},"vehicle_type_id":"4","last_reported":1683576415,"current_range_meters":19200,"station_id":"ce4bgkh2rcd13ifvqbk0","pricing_plan_id":"free"},{"bike_id":"7e2fa433-546c-4af2-b816-01544a5a236f","system_id":"levelo_inurba_marseille","lat":43.29371,"lon":5.37852,"is_reserved":false,"is_disabled":false,"rental_uris":{"android":"levelo://app?vid=7e2fa433-546c-4af2-b816-01544a5a236f","ios":"levelo://app?vid=7e2fa433-546c-4af2-b816-01544a5a236f"},"vehicle_type_id":"4","last_reported":1683576415,"current_range_meters":30000,"station_id":"ce4bgjh2rcd13ifvqbf0","pricing_plan_id":"free"},{"bike_id":"7ae324c2-fc59-42c0-902e-6f61a748cef4","system_id":"levelo_inurba_marseille","lat":43.2936,"lon":5.37835,"is_reserved":false,"is_disabled":false,"rental_uris":{"android":"levelo://app?vid=7ae324c2-fc59-42c0-902e-6f61a748cef4","ios":"levelo://app?vid=7ae324c2-fc59-42c0-902e-6f61a748cef4"},"vehicle_type_id":"4","last_reported":1683576415,"current_range_meters":21200,"station_id":"ce4bgjh2rcd13ifvqbf0","pricing_plan_id":"free"},{"bike_id":"55000b42-afa3-4aa2-85a0-f79660f8880f","system_id":"levelo_inurba_marseille","lat":43.302992,"lon":5.392136,"is_reserved":false,"is_disabled":false,"rental_uris":{"android":"levelo://app?vid=55000b42-afa3-4aa2-85a0-f79660f8880f","ios":"levelo://app?vid=55000b42-afa3-4aa2-85a0-f79660f8880f"},"vehicle_type_id":"4","last_reported":1683576415,"current_range_meters":26400,"station_id":"ce4bgkh2rcd13ifvqbk0","pricing_plan_id":"free"},{"bike_id":"841cdec0-8f3e-46cc-afa8-b0dc6de4a52d","system_id":"levelo_inurba_marseille","lat":43.302992,"lon":5.392136,"is_reserved":false,"is_disabled":false,"rental_uris":{"android":"levelo://app?vid=841cdec0-8f3e-46cc-afa8-b0dc6de4a52d","ios":"levelo://app?vid=841cdec0-8f3e-46cc-afa8-b0dc6de4a52d"},"vehicle_type_id":"4","last_reported":1683576415,"current_range_meters":6400,"station_id":"ce4bgkh2rcd13ifvqbk0","pricing_plan_id":"free"},{"bike_id":"81f439ad-5e8f-4a93-8832-656f00d50850","system_id":"levelo_inurba_marseille","lat":43.292663,"lon":5.376394,"is_reserved":false,"is_disabled":false,"rental_uris":{"android":"levelo://app?vid=81f439ad-5e8f-4a93-8832-656f00d50850","ios":"levelo://app?vid=81f439ad-5e8f-4a93-8832-656f00d50850"},"vehicle_type_id":"4","last_reported":1683576415,"current_range_meters":25600,"station_id":"ce4bgi12rcd13ifvqb80","pricing_plan_id":"free"},{"bike_id":"c330ff97-cad1-45e7-a5d7-f08951714e10","system_id":"levelo_inurba_marseille","lat":43.292663,"lon":5.376394,"is_reserved":false,"is_disabled":false,"rental_uris":{"android":"levelo://app?vid=c330ff97-cad1-45e7-a5d7-f08951714e10","ios":"levelo://app?vid=c330ff97-cad1-45e7-a5d7-f08951714e10"},"vehicle_type_id":"4","last_reported":1683576415,"current_range_meters":18800,"station_id":"ce4bgi12rcd13ifvqb80","pricing_plan_id":"free"},{"bike_id":"2e65b4cf-8c3b-4527-a7ee-a6444d6ae598","system_id":"levelo_inurba_marseille","lat":43.298764,"lon":5.388973,"is_reserved":false,"is_disabled":false,"rental_uris":{"android":"levelo://app?vid=2e65b4cf-8c3b-4527-a7ee-a6444d6ae598","ios":"levelo://app?vid=2e65b4cf-8c3b-4527-a7ee-a6444d6ae598"},"vehicle_type_id":"4","last_reported":1683576415,"current_range_meters":9600,"station_id":"ce4bh392rcd13ifvqdl0","pricing_plan_id":"free"},{"bike_id":"77113bdf-4584-4a6e-ad3f-061a1e149084","system_id":"levelo_inurba_marseille","lat":43.292663,"lon":5.376389,"is_reserved":false,"is_disabled":false,"rental_uris":{"android":"levelo://app?vid=77113bdf-4584-4a6e-ad3f-061a1e149084","ios":"levelo://app?vid=77113bdf-4584-4a6e-ad3f-061a1e149084"},"vehicle_type_id":"4","last_reported":1683576415,"current_range_meters":14800,"station_id":"ce4bgi12rcd13ifvqb80","pricing_plan_id":"free"},{"bike_id":"b290d7e3-d5d3-4ffe-9937-fa9b17820d73","system_id":"levelo_inurba_marseille","lat":43.298764,"lon":5.388973,"is_reserved":false,"is_disabled":false,"rental_uris":{"android":"levelo://app?vid=b290d7e3-d5d3-4ffe-9937-fa9b17820d73","ios":"levelo://app?vid=b290d7e3-d5d3-4ffe-9937-fa9b17820d73"},"vehicle_type_id":"4","last_reported":1683576415,"current_range_meters":23200,"station_id":"ce4bh392rcd13ifvqdl0","pricing_plan_id":"free"},{"bike_id":"0dea751e-fdb2-453f-83ce-9226b5b144ec","system_id":"levelo_inurba_marseille","lat":43.309038,"lon":5.396546,"is_reserved":false,"is_disabled":false,"rental_uris":{"android":"levelo://app?vid=0dea751e-fdb2-453f-83ce-9226b5b144ec","ios":"levelo://app?vid=0dea751e-fdb2-453f-83ce-9226b5b144ec"},"vehicle_type_id":"4","last_reported":1683576415,"current_range_meters":17200,"station_id":"ce4bh012rcd13ifvqcv0","pricing_plan_id":"free"},{"bike_id":"b07ef6c4-86dc-4d0d-8e2a-abc7b2454968","system_id":"levelo_inurba_marseille","lat":43.30341,"lon":5.39393,"is_reserved":false,"is_disabled":false,"rental_uris":{"android":"levelo://app?vid=b07ef6c4-86dc-4d0d-8e2a-abc7b2454968","ios":"levelo://app?vid=b07ef6c4-86dc-4d0d-8e2a-abc7b2454968"},"vehicle_type_id":"4","last_reported":1683576415,"current_range_meters":3600,"station_id":"","pricing_plan_id":"free"},{"bike_id":"c5b017a7-150e-4b7d-9da2-a8bc5a4d0e42","system_id":"levelo_inurba_marseille","lat":43.31324,"lon":5.39686,"is_reserved":false,"is_disabled":false,"rental_uris":{"android":"levelo://app?vid=c5b017a7-150e-4b7d-9da2-a8bc5a4d0e42","ios":"levelo://app?vid=c5b017a7-150e-4b7d-9da2-a8bc5a4d0e42"},"vehicle_type_id":"4","last_reported":1683576415,"current_range_meters":10800,"station_id":"ce4bgvp2rcd13ifvqcu0","pricing_plan_id":"free"},{"bike_id":"61030399-0dc2-4b2d-aaa4-b7f1e569da6c","system_id":"levelo_inurba_marseille","lat":43.309038,"lon":5.396546,"is_reserved":false,"is_disabled":false,"rental_uris":{"android":"levelo://app?vid=61030399-0dc2-4b2d-aaa4-b7f1e569da6c","ios":"levelo://app?vid=61030399-0dc2-4b2d-aaa4-b7f1e569da6c"},"vehicle_type_id":"4","last_reported":1683576415,"current_range_meters":11600,"station_id":"ce4bh012rcd13ifvqcv0","pricing_plan_id":"free"},{"bike_id":"ec955817-b0f8-4adf-ba33-90bb1d981929","system_id":"levelo_inurba_marseille","lat":43.309038,"lon":5.396546,"is_reserved":false,"is_disabled":false,"rental_uris":{"android":"levelo://app?vid=ec955817-b0f8-4adf-ba33-90bb1d981929","ios":"levelo://app?vid=ec955817-b0f8-4adf-ba33-90bb1d981929"},"vehicle_type_id":"4","last_reported":1683576415,"current_range_meters":23200,"station_id":"ce4bh012rcd13ifvqcv0","pricing_plan_id":"free"},{"bike_id":"0b8fbaed-946d-4fbc-8c3d-644a2c1414f8","system_id":"levelo_inurba_marseille","lat":43.3133,"lon":5.3969,"is_reserved":false,"is_disabled":false,"rental_uris":{"android":"levelo://app?vid=0b8fbaed-946d-4fbc-8c3d-644a2c1414f8","ios":"levelo://app?vid=0b8fbaed-946d-4fbc-8c3d-644a2c1414f8"},"vehicle_type_id":"4","last_reported":1683576415,"current_range_meters":26000,"station_id":"ce4bgvp2rcd13ifvqcu0","pricing_plan_id":"free"},{"bike_id":"346a932b-fda3-41e6-b8f1-66a3b5b17113","system_id":"levelo_inurba_marseille","lat":43.30882,"lon":5.39645,"is_reserved":false,"is_disabled":false,"rental_uris":{"android":"levelo://app?vid=346a932b-fda3-41e6-b8f1-66a3b5b17113","ios":"levelo://app?vid=346a932b-fda3-41e6-b8f1-66a3b5b17113"},"vehicle_type_id":"4","last_reported":1683576415,"current_range_meters":12000,"station_id":"ce4bh012rcd13ifvqcv0","pricing_plan_id":"free"},{"bike_id":"02a50577-cce1-41c4-a92a-7cd10a1769a8","system_id":"levelo_inurba_marseille","lat":43.30883,"lon":5.39646,"is_reserved":false,"is_disabled":false,"rental_uris":{"android":"levelo://app?vid=02a50577-cce1-41c4-a92a-7cd10a1769a8","ios":"levelo://app?vid=02a50577-cce1-41c4-a92a-7cd10a1769a8"},"vehicle_type_id":"4","last_reported":1683576415,"current_range_meters":20000,"station_id":"ce4bh012rcd13ifvqcv0","pricing_plan_id":"free"},{"bike_id":"14583113-2aa3-492b-9304-c8e4f70f5278","system_id":"levelo_inurba_marseille","lat":43.309038,"lon":5.396546,"is_reserved":false,"is_disabled":false,"rental_uris":{"android":"levelo://app?vid=14583113-2aa3-492b-9304-c8e4f70f5278","ios":"levelo://app?vid=14583113-2aa3-492b-9304-c8e4f70f5278"},"vehicle_type_id":"4","last_reported":1683576415,"current_range_meters":21200,"station_id":"ce4bh012rcd13ifvqcv0","pricing_plan_id":"free"},{"bike_id":"775f099c-5490-4505-b84a-6ad6f6ea9deb","system_id":"levelo_inurba_marseille","lat":43.309038,"lon":5.396546,"is_reserved":false,"is_disabled":false,"rental_uris":{"android":"levelo://app?vid=775f099c-5490-4505-b84a-6ad6f6ea9deb","ios":"levelo://app?vid=775f099c-5490-4505-b84a-6ad6f6ea9deb"},"vehicle_type_id":"4","last_reported":1683576415,"current_range_meters":4000,"station_id":"ce4bh012rcd13ifvqcv0","pricing_plan_id":"free"},{"bike_id":"aba59d0f-2be5-4cc4-ba2e-3d88116c0ca9","system_id":"levelo_inurba_marseille","lat":43.309038,"lon":5.396546,"is_reserved":false,"is_disabled":false,"rental_uris":{"android":"levelo://app?vid=aba59d0f-2be5-4cc4-ba2e-3d88116c0ca9","ios":"levelo://app?vid=aba59d0f-2be5-4cc4-ba2e-3d88116c0ca9"},"vehicle_type_id":"4","last_reported":1683576415,"current_range_meters":3600,"station_id":"ce4bh012rcd13ifvqcv0","pricing_plan_id":"free"},{"bike_id":"28593291-c317-41e0-acb7-f3211c568bc3","system_id":"levelo_inurba_marseille","lat":43.3132,"lon":5.397,"is_reserved":false,"is_disabled":false,"rental_uris":{"android":"levelo://app?vid=28593291-c317-41e0-acb7-f3211c568bc3","ios":"levelo://app?vid=28593291-c317-41e0-acb7-f3211c568bc3"},"vehicle_type_id":"4","last_reported":1683576415,"current_range_meters":6000,"station_id":"ce4bgvp2rcd13ifvqcu0","pricing_plan_id":"free"},{"bike_id":"60420065-27bf-47f0-b34a-b71246ba134b","system_id":"levelo_inurba_marseille","lat":43.309038,"lon":5.396546,"is_reserved":false,"is_disabled":false,"rental_uris":{"android":"levelo://app?vid=60420065-27bf-47f0-b34a-b71246ba134b","ios":"levelo://app?vid=60420065-27bf-47f0-b34a-b71246ba134b"},"vehicle_type_id":"4","last_reported":1683576415,"current_range_meters":6400,"station_id":"ce4bh012rcd13ifvqcv0","pricing_plan_id":"free"},{"bike_id":"81880469-b0ac-4b5b-aa0a-68096b5cdfbe","system_id":"levelo_inurba_marseille","lat":43.309038,"lon":5.396546,"is_reserved":false,"is_disabled":false,"rental_uris":{"android":"levelo://app?vid=81880469-b0ac-4b5b-aa0a-68096b5cdfbe","ios":"levelo://app?vid=81880469-b0ac-4b5b-aa0a-68096b5cdfbe"},"vehicle_type_id":"4","last_reported":1683576415,"current_range_meters":25200,"station_id":"ce4bh012rcd13ifvqcv0","pricing_plan_id":"free"},{"bike_id":"cee8a353-2447-43be-b9c6-c40fbe51fa21","system_id":"levelo_inurba_marseille","lat":43.309038,"lon":5.396546,"is_reserved":false,"is_disabled":false,"rental_uris":{"android":"levelo://app?vid=cee8a353-2447-43be-b9c6-c40fbe51fa21","ios":"levelo://app?vid=cee8a353-2447-43be-b9c6-c40fbe51fa21"},"vehicle_type_id":"4","last_reported":1683576415,"current_range_meters":1600,"station_id":"ce4bh012rcd13ifvqcv0","pricing_plan_id":"free"},{"bike_id":"0d4eeb0b-7473-4a8a-ad90-873a70a85ca2","system_id":"levelo_inurba_marseille","lat":43.29529,"lon":5.385581,"is_reserved":false,"is_disabled":false,"rental_uris":{"android":"levelo://app?vid=0d4eeb0b-7473-4a8a-ad90-873a70a85ca2","ios":"levelo://app?vid=0d4eeb0b-7473-4a8a-ad90-873a70a85ca2"},"vehicle_type_id":"4","last_reported":1683576415,"current_range_meters":30800,"station_id":"ce4bgih2rcd13ifvqba0","pricing_plan_id":"free"},{"bike_id":"0281cc7e-0694-4887-b194-6f0f606b472c","system_id":"levelo_inurba_marseille","lat":43.309038,"lon":5.396546,"is_reserved":false,"is_disabled":false,"rental_uris":{"android":"levelo://app?vid=0281cc7e-0694-4887-b194-6f0f606b472c","ios":"levelo://app?vid=0281cc7e-0694-4887-b194-6f0f606b472c"},"vehicle_type_id":"4","last_reported":1683576415,"current_range_meters":18400,"station_id":"ce4bh012rcd13ifvqcv0","pricing_plan_id":"free"},{"bike_id":"f362a3d6-31ec-447e-b9f8-16de52b83670","system_id":"levelo_inurba_marseille","lat":43.29537,"lon":5.38538,"is_reserved":false,"is_disabled":false,"rental_uris":{"android":"levelo://app?vid=f362a3d6-31ec-447e-b9f8-16de52b83670","ios":"levelo://app?vid=f362a3d6-31ec-447e-b9f8-16de52b83670"},"vehicle_type_id":"4","last_reported":1683576415,"current_range_meters":0,"station_id":"ce4bgih2rcd13ifvqba0","pricing_plan_id":"free"},{"bike_id":"be621d1e-f07c-44ff-a969-0d42221b2f68","system_id":"levelo_inurba_marseille","lat":43.29529,"lon":5.385581,"is_reserved":false,"is_disabled":false,"rental_uris":{"android":"levelo://app?vid=be621d1e-f07c-44ff-a969-0d42221b2f68","ios":"levelo://app?vid=be621d1e-f07c-44ff-a969-0d42221b2f68"},"vehicle_type_id":"4","last_reported":1683576415,"current_range_meters":4800,"station_id":"ce4bgih2rcd13ifvqba0","pricing_plan_id":"free"},{"bike_id":"6b13d14a-cc69-4202-9bce-d7aeeb3ffdad","system_id":"levelo_inurba_marseille","lat":43.29529,"lon":5.385581,"is_reserved":false,"is_disabled":false,"rental_uris":{"android":"levelo://app?vid=6b13d14a-cc69-4202-9bce-d7aeeb3ffdad","ios":"levelo://app?vid=6b13d14a-cc69-4202-9bce-d7aeeb3ffdad"},"vehicle_type_id":"4","last_reported":1683576415,"current_range_meters":5200,"station_id":"ce4bgih2rcd13ifvqba0","pricing_plan_id":"free"},{"bike_id":"1c11f936-81da-430d-9bf7-057709be83c3","system_id":"levelo_inurba_marseille","lat":43.29529,"lon":5.385581,"is_reserved":false,"is_disabled":false,"rental_uris":{"android":"levelo://app?vid=1c11f936-81da-430d-9bf7-057709be83c3","ios":"levelo://app?vid=1c11f936-81da-430d-9bf7-057709be83c3"},"vehicle_type_id":"4","last_reported":1683576415,"current_range_meters":5200,"station_id":"ce4bgih2rcd13ifvqba0","pricing_plan_id":"free"},{"bike_id":"61392165-148b-48a1-abf4-b71e63349ec1","system_id":"levelo_inurba_marseille","lat":43.29529,"lon":5.385581,"is_reserved":false,"is_disabled":false,"rental_uris":{"android":"levelo://app?vid=61392165-148b-48a1-abf4-b71e63349ec1","ios":"levelo://app?vid=61392165-148b-48a1-abf4-b71e63349ec1"},"vehicle_type_id":"4","last_reported":1683576415,"current_range_meters":22400,"station_id":"ce4bgih2rcd13ifvqba0","pricing_plan_id":"free"},{"bike_id":"fcb4972e-ab0d-4373-9932-f468239f4c4c","system_id":"levelo_inurba_marseille","lat":43.29529,"lon":5.385581,"is_reserved":false,"is_disabled":false,"rental_uris":{"android":"levelo://app?vid=fcb4972e-ab0d-4373-9932-f468239f4c4c","ios":"levelo://app?vid=fcb4972e-ab0d-4373-9932-f468239f4c4c"},"vehicle_type_id":"4","last_reported":1683576415,"current_range_meters":10400,"station_id":"ce4bgih2rcd13ifvqba0","pricing_plan_id":"free"},{"bike_id":"95220793-70b9-43c3-8301-a9f59fef23b7","system_id":"levelo_inurba_marseille","lat":43.29077,"lon":5.37161,"is_reserved":false,"is_disabled":false,"rental_uris":{"android":"levelo://app?vid=95220793-70b9-43c3-8301-a9f59fef23b7","ios":"levelo://app?vid=95220793-70b9-43c3-8301-a9f59fef23b7"},"vehicle_type_id":"4","last_reported":1683576415,"current_range_meters":1200,"station_id":"ce4bh5p2rcd13ifvqe4g","pricing_plan_id":"free"},{"bike_id":"44397244-1fc0-4a26-b7d0-1bd89cd775fd","system_id":"levelo_inurba_marseille","lat":43.290779,"lon":5.371482,"is_reserved":false,"is_disabled":false,"rental_uris":{"android":"levelo://app?vid=44397244-1fc0-4a26-b7d0-1bd89cd775fd","ios":"levelo://app?vid=44397244-1fc0-4a26-b7d0-1bd89cd775fd"},"vehicle_type_id":"4","last_reported":1683576415,"current_range_meters":20000,"station_id":"ce4bh5p2rcd13ifvqe4g","pricing_plan_id":"free"},{"bike_id":"ece6a248-c3a3-4404-b234-5c5500924ab9","system_id":"levelo_inurba_marseille","lat":43.2907,"lon":5.37158,"is_reserved":false,"is_disabled":false,"rental_uris":{"android":"levelo://app?vid=ece6a248-c3a3-4404-b234-5c5500924ab9","ios":"levelo://app?vid=ece6a248-c3a3-4404-b234-5c5500924ab9"},"vehicle_type_id":"4","last_reported":1683576415,"current_range_meters":0,"station_id":"ce4bh5p2rcd13ifvqe4g","pricing_plan_id":"free"},{"bike_id":"2bca676a-dbd4-43a0-b970-cad1bc67e7b6","system_id":"levelo_inurba_marseille","lat":43.29065,"lon":5.37159,"is_reserved":false,"is_disabled":false,"rental_uris":{"android":"levelo://app?vid=2bca676a-dbd4-43a0-b970-cad1bc67e7b6","ios":"levelo://app?vid=2bca676a-dbd4-43a0-b970-cad1bc67e7b6"},"vehicle_type_id":"4","last_reported":1683576415,"current_range_meters":13200,"station_id":"ce4bh5p2rcd13ifvqe4g","pricing_plan_id":"free"},{"bike_id":"94d59943-bd36-4409-a7d2-2f1ea2e0e60c","system_id":"levelo_inurba_marseille","lat":43.302008,"lon":5.394694,"is_reserved":false,"is_disabled":false,"rental_uris":{"android":"levelo://app?vid=94d59943-bd36-4409-a7d2-2f1ea2e0e60c","ios":"levelo://app?vid=94d59943-bd36-4409-a7d2-2f1ea2e0e60c"},"vehicle_type_id":"4","last_reported":1683576415,"current_range_meters":8400,"station_id":"ce4bh0p2rcd13ifvqd70","pricing_plan_id":"free"},{"bike_id":"20fc719b-fa70-45a4-afcb-41b21501ea89","system_id":"levelo_inurba_marseille","lat":43.302008,"lon":5.394694,"is_reserved":false,"is_disabled":false,"rental_uris":{"android":"levelo://app?vid=20fc719b-fa70-45a4-afcb-41b21501ea89","ios":"levelo://app?vid=20fc719b-fa70-45a4-afcb-41b21501ea89"},"vehicle_type_id":"4","last_reported":1683576415,"current_range_meters":16400,"station_id":"ce4bh0p2rcd13ifvqd70","pricing_plan_id":"free"},{"bike_id":"c5c57354-61ec-4ff6-b361-754b6c1a7927","system_id":"levelo_inurba_marseille","lat":43.302008,"lon":5.394694,"is_reserved":false,"is_disabled":false,"rental_uris":{"android":"levelo://app?vid=c5c57354-61ec-4ff6-b361-754b6c1a7927","ios":"levelo://app?vid=c5c57354-61ec-4ff6-b361-754b6c1a7927"},"vehicle_type_id":"4","last_reported":1683576415,"current_range_meters":4800,"station_id":"ce4bh0p2rcd13ifvqd70","pricing_plan_id":"free"},{"bike_id":"3c5849d5-3206-4d80-a7ee-a38c7a5edea8","system_id":"levelo_inurba_marseille","lat":43.290624,"lon":5.359245,"is_reserved":false,"is_disabled":false,"rental_uris":{"android":"levelo://app?vid=3c5849d5-3206-4d80-a7ee-a38c7a5edea8","ios":"levelo://app?vid=3c5849d5-3206-4d80-a7ee-a38c7a5edea8"},"vehicle_type_id":"4","last_reported":1683576415,"current_range_meters":6800,"station_id":"ce4bha92rcd13ifvqeg0","pricing_plan_id":"free"},{"bike_id":"bd91dae6-69f3-404d-8009-011002c37cde","system_id":"levelo_inurba_marseille","lat":43.302008,"lon":5.394694,"is_reserved":false,"is_disabled":false,"rental_uris":{"android":"levelo://app?vid=bd91dae6-69f3-404d-8009-011002c37cde","ios":"levelo://app?vid=bd91dae6-69f3-404d-8009-011002c37cde"},"vehicle_type_id":"4","last_reported":1683576415,"current_range_meters":1600,"station_id":"ce4bh0p2rcd13ifvqd70","pricing_plan_id":"free"},{"bike_id":"0c70f3c5-cc69-45ce-b55b-421092ab205b","system_id":"levelo_inurba_marseille","lat":43.302008,"lon":5.394694,"is_reserved":false,"is_disabled":false,"rental_uris":{"android":"levelo://app?vid=0c70f3c5-cc69-45ce-b55b-421092ab205b","ios":"levelo://app?vid=0c70f3c5-cc69-45ce-b55b-421092ab205b"},"vehicle_type_id":"4","last_reported":1683576415,"current_range_meters":21200,"station_id":"ce4bh0p2rcd13ifvqd70","pricing_plan_id":"free"},{"bike_id":"9b10c7ff-55ab-4b48-9e91-394e37641280","system_id":"levelo_inurba_marseille","lat":43.290624,"lon":5.359245,"is_reserved":false,"is_disabled":false,"rental_uris":{"android":"levelo://app?vid=9b10c7ff-55ab-4b48-9e91-394e37641280","ios":"levelo://app?vid=9b10c7ff-55ab-4b48-9e91-394e37641280"},"vehicle_type_id":"4","last_reported":1683576415,"current_range_meters":0,"station_id":"ce4bha92rcd13ifvqeg0","pricing_plan_id":"free"},{"bike_id":"a2bc489d-8d8b-43b0-b6fc-9a4289e520b5","system_id":"levelo_inurba_marseille","lat":43.290327,"lon":5.375711,"is_reserved":false,"is_disabled":false,"rental_uris":{"android":"levelo://app?vid=a2bc489d-8d8b-43b0-b6fc-9a4289e520b5","ios":"levelo://app?vid=a2bc489d-8d8b-43b0-b6fc-9a4289e520b5"},"vehicle_type_id":"4","last_reported":1683576415,"current_range_meters":5200,"station_id":"ce4bh692rcd13ifvqe90","pricing_plan_id":"free"},{"bike_id":"f1058385-1b50-4d4a-b868-6224f3cdc027","system_id":"levelo_inurba_marseille","lat":43.294162,"lon":5.386292,"is_reserved":false,"is_disabled":false,"rental_uris":{"android":"levelo://app?vid=f1058385-1b50-4d4a-b868-6224f3cdc027","ios":"levelo://app?vid=f1058385-1b50-4d4a-b868-6224f3cdc027"},"vehicle_type_id":"4","last_reported":1683576415,"current_range_meters":0,"station_id":"ce4bh2h2rcd13ifvqdh0","pricing_plan_id":"free"},{"bike_id":"9d9f71fa-db3c-47c7-813c-e9ed4704abbc","system_id":"levelo_inurba_marseille","lat":43.294162,"lon":5.386292,"is_reserved":false,"is_disabled":false,"rental_uris":{"android":"levelo://app?vid=9d9f71fa-db3c-47c7-813c-e9ed4704abbc","ios":"levelo://app?vid=9d9f71fa-db3c-47c7-813c-e9ed4704abbc"},"vehicle_type_id":"4","last_reported":1683576415,"current_range_meters":0,"station_id":"ce4bh2h2rcd13ifvqdh0","pricing_plan_id":"free"},{"bike_id":"ed7ab296-10d3-4611-acef-2edd77cde15a","system_id":"levelo_inurba_marseille","lat":43.289184,"lon":5.366408,"is_reserved":false,"is_disabled":false,"rental_uris":{"android":"levelo://app?vid=ed7ab296-10d3-4611-acef-2edd77cde15a","ios":"levelo://app?vid=ed7ab296-10d3-4611-acef-2edd77cde15a"},"vehicle_type_id":"4","last_reported":1683576415,"current_range_meters":4000,"station_id":"ce4bhap2rcd13ifvqek0","pricing_plan_id":"free"},{"bike_id":"f961d289-5699-4879-b0c3-3a35075fcb28","system_id":"levelo_inurba_marseille","lat":43.289184,"lon":5.366408,"is_reserved":false,"is_disabled":false,"rental_uris":{"android":"levelo://app?vid=f961d289-5699-4879-b0c3-3a35075fcb28","ios":"levelo://app?vid=f961d289-5699-4879-b0c3-3a35075fcb28"},"vehicle_type_id":"4","last_reported":1683576415,"current_range_meters":16800,"station_id":"ce4bhap2rcd13ifvqek0","pricing_plan_id":"free"},{"bike_id":"271936b4-0b6f-4af7-859d-654293b65351","system_id":"levelo_inurba_marseille","lat":43.289468,"lon":5.363719,"is_reserved":false,"is_disabled":false,"rental_uris":{"android":"levelo://app?vid=271936b4-0b6f-4af7-859d-654293b65351","ios":"levelo://app?vid=271936b4-0b6f-4af7-859d-654293b65351"},"vehicle_type_id":"4","last_reported":1683576415,"current_range_meters":15200,"station_id":"ce4bhc92rcd13ifvqetg","pricing_plan_id":"free"},{"bike_id":"b28b3310-a4b4-4eb4-843a-137c4d3829f7","system_id":"levelo_inurba_marseille","lat":43.289468,"lon":5.363719,"is_reserved":false,"is_disabled":false,"rental_uris":{"android":"levelo://app?vid=b28b3310-a4b4-4eb4-843a-137c4d3829f7","ios":"levelo://app?vid=b28b3310-a4b4-4eb4-843a-137c4d3829f7"},"vehicle_type_id":"4","last_reported":1683576415,"current_range_meters":12400,"station_id":"ce4bhc92rcd13ifvqetg","pricing_plan_id":"free"},{"bike_id":"f52a17b0-6be2-4b34-a150-ef892fabc10b","system_id":"levelo_inurba_marseille","lat":43.292642,"lon":5.384254,"is_reserved":false,"is_disabled":false,"rental_uris":{"android":"levelo://app?vid=f52a17b0-6be2-4b34-a150-ef892fabc10b","ios":"levelo://app?vid=f52a17b0-6be2-4b34-a150-ef892fabc10b"},"vehicle_type_id":"4","last_reported":1683576415,"current_range_meters":29200,"station_id":"ce4bh692rcd13ifvqea0","pricing_plan_id":"free"},{"bike_id":"6f1e789e-4254-41fd-a637-e14e602bb977","system_id":"levelo_inurba_marseille","lat":43.292642,"lon":5.384254,"is_reserved":false,"is_disabled":false,"rental_uris":{"android":"levelo://app?vid=6f1e789e-4254-41fd-a637-e14e602bb977","ios":"levelo://app?vid=6f1e789e-4254-41fd-a637-e14e602bb977"},"vehicle_type_id":"4","last_reported":1683576415,"current_range_meters":25600,"station_id":"ce4bh692rcd13ifvqea0","pricing_plan_id":"free"},{"bike_id":"a97a4113-e078-4d1a-b774-a7a089c382ab","system_id":"levelo_inurba_marseille","lat":43.292642,"lon":5.384254,"is_reserved":false,"is_disabled":false,"rental_uris":{"android":"levelo://app?vid=a97a4113-e078-4d1a-b774-a7a089c382ab","ios":"levelo://app?vid=a97a4113-e078-4d1a-b774-a7a089c382ab"},"vehicle_type_id":"4","last_reported":1683576415,"current_range_meters":3600,"station_id":"ce4bh692rcd13ifvqea0","pricing_plan_id":"free"},{"bike_id":"7d00d2d0-16f2-4598-9922-8c03629d9814","system_id":"levelo_inurba_marseille","lat":43.304296,"lon":5.397513,"is_reserved":false,"is_disabled":false,"rental_uris":{"android":"levelo://app?vid=7d00d2d0-16f2-4598-9922-8c03629d9814","ios":"levelo://app?vid=7d00d2d0-16f2-4598-9922-8c03629d9814"},"vehicle_type_id":"4","last_reported":1683576415,"current_range_meters":22400,"station_id":"ce4bh092rcd13ifvqd20","pricing_plan_id":"free"},{"bike_id":"16ac82af-37c4-477d-8b4d-34f45a279a35","system_id":"levelo_inurba_marseille","lat":43.292644,"lon":5.384257,"is_reserved":false,"is_disabled":false,"rental_uris":{"android":"levelo://app?vid=16ac82af-37c4-477d-8b4d-34f45a279a35","ios":"levelo://app?vid=16ac82af-37c4-477d-8b4d-34f45a279a35"},"vehicle_type_id":"4","last_reported":1683576415,"current_range_meters":6000,"station_id":"ce4bh692rcd13ifvqea0","pricing_plan_id":"free"},{"bike_id":"89f333b9-efaa-46bd-b28a-3cdb2c584912","system_id":"levelo_inurba_marseille","lat":43.292642,"lon":5.384254,"is_reserved":false,"is_disabled":false,"rental_uris":{"android":"levelo://app?vid=89f333b9-efaa-46bd-b28a-3cdb2c584912","ios":"levelo://app?vid=89f333b9-efaa-46bd-b28a-3cdb2c584912"},"vehicle_type_id":"4","last_reported":1683576415,"current_range_meters":31600,"station_id":"ce4bh692rcd13ifvqea0","pricing_plan_id":"free"},{"bike_id":"fc3240f4-33af-4541-84e3-58913df61f76","system_id":"levelo_inurba_marseille","lat":43.292642,"lon":5.384254,"is_reserved":false,"is_disabled":false,"rental_uris":{"android":"levelo://app?vid=fc3240f4-33af-4541-84e3-58913df61f76","ios":"levelo://app?vid=fc3240f4-33af-4541-84e3-58913df61f76"},"vehicle_type_id":"4","last_reported":1683576415,"current_range_meters":23600,"station_id":"ce4bh692rcd13ifvqea0","pricing_plan_id":"free"},{"bike_id":"afd898d9-f9e0-42f0-b6f3-c48442bcdc55","system_id":"levelo_inurba_marseille","lat":43.304296,"lon":5.397513,"is_reserved":false,"is_disabled":false,"rental_uris":{"android":"levelo://app?vid=afd898d9-f9e0-42f0-b6f3-c48442bcdc55","ios":"levelo://app?vid=afd898d9-f9e0-42f0-b6f3-c48442bcdc55"},"vehicle_type_id":"4","last_reported":1683576415,"current_range_meters":21200,"station_id":"ce4bh092rcd13ifvqd20","pricing_plan_id":"free"},{"bike_id":"c75cff24-1cbf-49a0-b577-0aae5b9a55ee","system_id":"levelo_inurba_marseille","lat":43.292642,"lon":5.384254,"is_reserved":false,"is_disabled":false,"rental_uris":{"android":"levelo://app?vid=c75cff24-1cbf-49a0-b577-0aae5b9a55ee","ios":"levelo://app?vid=c75cff24-1cbf-49a0-b577-0aae5b9a55ee"},"vehicle_type_id":"4","last_reported":1683576415,"current_range_meters":6000,"station_id":"ce4bh692rcd13ifvqea0","pricing_plan_id":"free"},{"bike_id":"b1ac215b-9761-4552-90a3-a468d890f5d9","system_id":"levelo_inurba_marseille","lat":43.292642,"lon":5.384254,"is_reserved":false,"is_disabled":false,"rental_uris":{"android":"levelo://app?vid=b1ac215b-9761-4552-90a3-a468d890f5d9","ios":"levelo://app?vid=b1ac215b-9761-4552-90a3-a468d890f5d9"},"vehicle_type_id":"4","last_reported":1683576415,"current_range_meters":31200,"station_id":"ce4bh692rcd13ifvqea0","pricing_plan_id":"free"},{"bike_id":"fe88f7ad-38f7-4bf3-847f-60c8419eabcc","system_id":"levelo_inurba_marseille","lat":43.292644,"lon":5.384257,"is_reserved":false,"is_disabled":false,"rental_uris":{"android":"levelo://app?vid=fe88f7ad-38f7-4bf3-847f-60c8419eabcc","ios":"levelo://app?vid=fe88f7ad-38f7-4bf3-847f-60c8419eabcc"},"vehicle_type_id":"4","last_reported":1683576415,"current_range_meters":800,"station_id":"ce4bh692rcd13ifvqea0","pricing_plan_id":"free"},{"bike_id":"c80426be-83d3-4e57-a092-befe7b8a7a79","system_id":"levelo_inurba_marseille","lat":43.33043,"lon":5.38916,"is_reserved":false,"is_disabled":false,"rental_uris":{"android":"levelo://app?vid=c80426be-83d3-4e57-a092-befe7b8a7a79","ios":"levelo://app?vid=c80426be-83d3-4e57-a092-befe7b8a7a79"},"vehicle_type_id":"4","last_reported":1683576415,"current_range_meters":24400,"station_id":"ce4bhr92rcd13ifvqhrg","pricing_plan_id":"free"},{"bike_id":"fba4825a-c3ad-4e1b-8a8f-3b5dd322bb5f","system_id":"levelo_inurba_marseille","lat":43.33044,"lon":5.38916,"is_reserved":false,"is_disabled":false,"rental_uris":{"android":"levelo://app?vid=fba4825a-c3ad-4e1b-8a8f-3b5dd322bb5f","ios":"levelo://app?vid=fba4825a-c3ad-4e1b-8a8f-3b5dd322bb5f"},"vehicle_type_id":"4","last_reported":1683576415,"current_range_meters":31200,"station_id":"ce4bhr92rcd13ifvqhrg","pricing_plan_id":"free"},{"bike_id":"2c4d1fc8-5966-49f2-8d08-251e531c7e7f","system_id":"levelo_inurba_marseille","lat":43.33045,"lon":5.38917,"is_reserved":false,"is_disabled":false,"rental_uris":{"android":"levelo://app?vid=2c4d1fc8-5966-49f2-8d08-251e531c7e7f","ios":"levelo://app?vid=2c4d1fc8-5966-49f2-8d08-251e531c7e7f"},"vehicle_type_id":"4","last_reported":1683576415,"current_range_meters":24000,"station_id":"ce4bhr92rcd13ifvqhrg","pricing_plan_id":"free"},{"bike_id":"900543c1-ba77-4615-8f9b-f04944156c0b","system_id":"levelo_inurba_marseille","lat":43.3305,"lon":5.3892,"is_reserved":false,"is_disabled":false,"rental_uris":{"android":"levelo://app?vid=900543c1-ba77-4615-8f9b-f04944156c0b","ios":"levelo://app?vid=900543c1-ba77-4615-8f9b-f04944156c0b"},"vehicle_type_id":"4","last_reported":1683576415,"current_range_meters":23200,"station_id":"ce4bhr92rcd13ifvqhrg","pricing_plan_id":"free"},{"bike_id":"13338346-54fb-4fdb-9e80-43cbf4fb324e","system_id":"levelo_inurba_marseille","lat":43.290995,"lon":5.381361,"is_reserved":false,"is_disabled":false,"rental_uris":{"android":"levelo://app?vid=13338346-54fb-4fdb-9e80-43cbf4fb324e","ios":"levelo://app?vid=13338346-54fb-4fdb-9e80-43cbf4fb324e"},"vehicle_type_id":"4","last_reported":1683576415,"current_range_meters":4800,"station_id":"ce4bh512rcd13ifvqe2g","pricing_plan_id":"free"},{"bike_id":"0f789c79-226b-4c8f-ab80-8dbe22335ac0","system_id":"levelo_inurba_marseille","lat":43.290995,"lon":5.381361,"is_reserved":false,"is_disabled":false,"rental_uris":{"android":"levelo://app?vid=0f789c79-226b-4c8f-ab80-8dbe22335ac0","ios":"levelo://app?vid=0f789c79-226b-4c8f-ab80-8dbe22335ac0"},"vehicle_type_id":"4","last_reported":1683576415,"current_range_meters":0,"station_id":"ce4bh512rcd13ifvqe2g","pricing_plan_id":"free"},{"bike_id":"cf8adce2-769f-44c8-9a8e-1de7b0e335db","system_id":"levelo_inurba_marseille","lat":43.295169,"lon":5.390426,"is_reserved":false,"is_disabled":false,"rental_uris":{"android":"levelo://app?vid=cf8adce2-769f-44c8-9a8e-1de7b0e335db","ios":"levelo://app?vid=cf8adce2-769f-44c8-9a8e-1de7b0e335db"},"vehicle_type_id":"4","last_reported":1683576415,"current_range_meters":400,"station_id":"ce4bh3p2rcd13ifvqdp0","pricing_plan_id":"free"},{"bike_id":"49e672b3-e9c0-4363-b2be-f7fe4ba7dbf4","system_id":"levelo_inurba_marseille","lat":43.28856,"lon":5.358371,"is_reserved":false,"is_disabled":false,"rental_uris":{"android":"levelo://app?vid=49e672b3-e9c0-4363-b2be-f7fe4ba7dbf4","ios":"levelo://app?vid=49e672b3-e9c0-4363-b2be-f7fe4ba7dbf4"},"vehicle_type_id":"4","last_reported":1683576415,"current_range_meters":4400,"station_id":"ce4bhb12rcd13ifvqem0","pricing_plan_id":"free"},{"bike_id":"546b6c89-cdb2-496c-9bc2-1e0b1b81e914","system_id":"levelo_inurba_marseille","lat":43.28856,"lon":5.358371,"is_reserved":false,"is_disabled":false,"rental_uris":{"android":"levelo://app?vid=546b6c89-cdb2-496c-9bc2-1e0b1b81e914","ios":"levelo://app?vid=546b6c89-cdb2-496c-9bc2-1e0b1b81e914"},"vehicle_type_id":"4","last_reported":1683576415,"current_range_meters":27200,"station_id":"ce4bhb12rcd13ifvqem0","pricing_plan_id":"free"},{"bike_id":"78725f08-8d42-4f1a-9002-0d0b35dc7efd","system_id":"levelo_inurba_marseille","lat":43.3375,"lon":5.37443,"is_reserved":false,"is_disabled":false,"rental_uris":{"android":"levelo://app?vid=78725f08-8d42-4f1a-9002-0d0b35dc7efd","ios":"levelo://app?vid=78725f08-8d42-4f1a-9002-0d0b35dc7efd"},"vehicle_type_id":"4","last_reported":1683576415,"current_range_meters":13600,"station_id":"","pricing_plan_id":"free"},{"bike_id":"21c9b035-341f-46f8-97e1-97219e737fb8","system_id":"levelo_inurba_marseille","lat":43.30642,"lon":5.401031,"is_reserved":false,"is_disabled":false,"rental_uris":{"android":"levelo://app?vid=21c9b035-341f-46f8-97e1-97219e737fb8","ios":"levelo://app?vid=21c9b035-341f-46f8-97e1-97219e737fb8"},"vehicle_type_id":"4","last_reported":1683576415,"current_range_meters":31200,"station_id":"ce4bh112rcd13ifvqda0","pricing_plan_id":"free"},{"bike_id":"a3a2010e-d05c-43ad-945e-3c65c516f639","system_id":"levelo_inurba_marseille","lat":43.30642,"lon":5.401031,"is_reserved":false,"is_disabled":false,"rental_uris":{"android":"levelo://app?vid=a3a2010e-d05c-43ad-945e-3c65c516f639","ios":"levelo://app?vid=a3a2010e-d05c-43ad-945e-3c65c516f639"},"vehicle_type_id":"4","last_reported":1683576415,"current_range_meters":21600,"station_id":"ce4bh112rcd13ifvqda0","pricing_plan_id":"free"},{"bike_id":"7c7fe969-ca3b-4e6a-9b0a-6e22bc5df003","system_id":"levelo_inurba_marseille","lat":43.33763,"lon":5.37429,"is_reserved":false,"is_disabled":false,"rental_uris":{"android":"levelo://app?vid=7c7fe969-ca3b-4e6a-9b0a-6e22bc5df003","ios":"levelo://app?vid=7c7fe969-ca3b-4e6a-9b0a-6e22bc5df003"},"vehicle_type_id":"4","last_reported":1683576415,"current_range_meters":31200,"station_id":"ce4rr2p2rcd13i802rgg","pricing_plan_id":"free"},{"bike_id":"3be8f928-1ebf-42b1-87d7-220a02387f80","system_id":"levelo_inurba_marseille","lat":43.30642,"lon":5.401031,"is_reserved":false,"is_disabled":false,"rental_uris":{"android":"levelo://app?vid=3be8f928-1ebf-42b1-87d7-220a02387f80","ios":"levelo://app?vid=3be8f928-1ebf-42b1-87d7-220a02387f80"},"vehicle_type_id":"4","last_reported":1683576415,"current_range_meters":26000,"station_id":"ce4bh112rcd13ifvqda0","pricing_plan_id":"free"},{"bike_id":"8c8cdd88-6d58-417f-8b88-b63b2f66ede5","system_id":"levelo_inurba_marseille","lat":43.30642,"lon":5.401031,"is_reserved":false,"is_disabled":false,"rental_uris":{"android":"levelo://app?vid=8c8cdd88-6d58-417f-8b88-b63b2f66ede5","ios":"levelo://app?vid=8c8cdd88-6d58-417f-8b88-b63b2f66ede5"},"vehicle_type_id":"4","last_reported":1683576415,"current_range_meters":31200,"station_id":"ce4bh112rcd13ifvqda0","pricing_plan_id":"free"},{"bike_id":"ae36dd54-0593-473b-88e7-8f2e475a657b","system_id":"levelo_inurba_marseille","lat":43.30642,"lon":5.401031,"is_reserved":false,"is_disabled":false,"rental_uris":{"android":"levelo://app?vid=ae36dd54-0593-473b-88e7-8f2e475a657b","ios":"levelo://app?vid=ae36dd54-0593-473b-88e7-8f2e475a657b"},"vehicle_type_id":"4","last_reported":1683576415,"current_range_meters":24800,"station_id":"ce4bh112rcd13ifvqda0","pricing_plan_id":"free"},{"bike_id":"64a3089f-7b46-475e-9433-f46718e95cde","system_id":"levelo_inurba_marseille","lat":43.30642,"lon":5.401031,"is_reserved":false,"is_disabled":false,"rental_uris":{"android":"levelo://app?vid=64a3089f-7b46-475e-9433-f46718e95cde","ios":"levelo://app?vid=64a3089f-7b46-475e-9433-f46718e95cde"},"vehicle_type_id":"4","last_reported":1683576415,"current_range_meters":24400,"station_id":"ce4bh112rcd13ifvqda0","pricing_plan_id":"free"},{"bike_id":"32e06434-ea61-4ba1-a5b7-f12db2a51ea2","system_id":"levelo_inurba_marseille","lat":43.30642,"lon":5.401031,"is_reserved":false,"is_disabled":false,"rental_uris":{"android":"levelo://app?vid=32e06434-ea61-4ba1-a5b7-f12db2a51ea2","ios":"levelo://app?vid=32e06434-ea61-4ba1-a5b7-f12db2a51ea2"},"vehicle_type_id":"4","last_reported":1683576415,"current_range_meters":6000,"station_id":"ce4bh112rcd13ifvqda0","pricing_plan_id":"free"},{"bike_id":"485b389d-2ebe-4617-aae0-fe0813a6e924","system_id":"levelo_inurba_marseille","lat":43.301117,"lon":5.398795,"is_reserved":false,"is_disabled":false,"rental_uris":{"android":"levelo://app?vid=485b389d-2ebe-4617-aae0-fe0813a6e924","ios":"levelo://app?vid=485b389d-2ebe-4617-aae0-fe0813a6e924"},"vehicle_type_id":"4","last_reported":1683576415,"current_range_meters":18000,"station_id":"ce4bh0h2rcd13ifvqd40","pricing_plan_id":"free"},{"bike_id":"944e9ff4-6590-4102-b5ee-f064ed5bd877","system_id":"levelo_inurba_marseille","lat":43.301117,"lon":5.398795,"is_reserved":false,"is_disabled":false,"rental_uris":{"android":"levelo://app?vid=944e9ff4-6590-4102-b5ee-f064ed5bd877","ios":"levelo://app?vid=944e9ff4-6590-4102-b5ee-f064ed5bd877"},"vehicle_type_id":"4","last_reported":1683576415,"current_range_meters":10800,"station_id":"ce4bh0h2rcd13ifvqd40","pricing_plan_id":"free"},{"bike_id":"31c519be-4b56-485c-aed8-f701ba1fb58d","system_id":"levelo_inurba_marseille","lat":43.301117,"lon":5.398795,"is_reserved":false,"is_disabled":false,"rental_uris":{"android":"levelo://app?vid=31c519be-4b56-485c-aed8-f701ba1fb58d","ios":"levelo://app?vid=31c519be-4b56-485c-aed8-f701ba1fb58d"},"vehicle_type_id":"4","last_reported":1683576415,"current_range_meters":30400,"station_id":"ce4bh0h2rcd13ifvqd40","pricing_plan_id":"free"},{"bike_id":"d27ef292-8052-4dfb-b785-db62eb192aff","system_id":"levelo_inurba_marseille","lat":43.298681,"lon":5.397225,"is_reserved":false,"is_disabled":false,"rental_uris":{"android":"levelo://app?vid=d27ef292-8052-4dfb-b785-db62eb192aff","ios":"levelo://app?vid=d27ef292-8052-4dfb-b785-db62eb192aff"},"vehicle_type_id":"4","last_reported":1683576415,"current_range_meters":31200,"station_id":"ce4bh0h2rcd13ifvqd50","pricing_plan_id":"free"},{"bike_id":"e4f446dc-8894-4469-9f4e-d7a80324155c","system_id":"levelo_inurba_marseille","lat":43.298681,"lon":5.397225,"is_reserved":false,"is_disabled":false,"rental_uris":{"android":"levelo://app?vid=e4f446dc-8894-4469-9f4e-d7a80324155c","ios":"levelo://app?vid=e4f446dc-8894-4469-9f4e-d7a80324155c"},"vehicle_type_id":"4","last_reported":1683576415,"current_range_meters":24400,"station_id":"ce4bh0h2rcd13ifvqd50","pricing_plan_id":"free"},{"bike_id":"7785c1d5-8523-425c-b430-0c54dfde9fe5","system_id":"levelo_inurba_marseille","lat":43.28669,"lon":5.36353,"is_reserved":false,"is_disabled":false,"rental_uris":{"android":"levelo://app?vid=7785c1d5-8523-425c-b430-0c54dfde9fe5","ios":"levelo://app?vid=7785c1d5-8523-425c-b430-0c54dfde9fe5"},"vehicle_type_id":"4","last_reported":1683576415,"current_range_meters":16800,"station_id":"ce4bhah2rcd13ifvqej0","pricing_plan_id":"free"},{"bike_id":"79ddbf80-5110-455f-97c3-316bde9bade2","system_id":"levelo_inurba_marseille","lat":43.298681,"lon":5.397225,"is_reserved":false,"is_disabled":false,"rental_uris":{"android":"levelo://app?vid=79ddbf80-5110-455f-97c3-316bde9bade2","ios":"levelo://app?vid=79ddbf80-5110-455f-97c3-316bde9bade2"},"vehicle_type_id":"4","last_reported":1683576415,"current_range_meters":2400,"station_id":"ce4bh0h2rcd13ifvqd50","pricing_plan_id":"free"},{"bike_id":"a102ff74-b0eb-4c62-95fc-cb598f4ac12b","system_id":"levelo_inurba_marseille","lat":43.29864,"lon":5.39726,"is_reserved":false,"is_disabled":false,"rental_uris":{"android":"levelo://app?vid=a102ff74-b0eb-4c62-95fc-cb598f4ac12b","ios":"levelo://app?vid=a102ff74-b0eb-4c62-95fc-cb598f4ac12b"},"vehicle_type_id":"4","last_reported":1683576415,"current_range_meters":18800,"station_id":"ce4bh0h2rcd13ifvqd50","pricing_plan_id":"free"},{"bike_id":"e01e0504-8f28-4b24-b937-c5b09fc7c79a","system_id":"levelo_inurba_marseille","lat":43.298681,"lon":5.397225,"is_reserved":false,"is_disabled":false,"rental_uris":{"android":"levelo://app?vid=e01e0504-8f28-4b24-b937-c5b09fc7c79a","ios":"levelo://app?vid=e01e0504-8f28-4b24-b937-c5b09fc7c79a"},"vehicle_type_id":"4","last_reported":1683576415,"current_range_meters":28400,"station_id":"ce4bh0h2rcd13ifvqd50","pricing_plan_id":"free"},{"bike_id":"2c73bd9d-7d90-476b-8923-736bc1cd0bbe","system_id":"levelo_inurba_marseille","lat":43.298681,"lon":5.397225,"is_reserved":false,"is_disabled":false,"rental_uris":{"android":"levelo://app?vid=2c73bd9d-7d90-476b-8923-736bc1cd0bbe","ios":"levelo://app?vid=2c73bd9d-7d90-476b-8923-736bc1cd0bbe"},"vehicle_type_id":"4","last_reported":1683576415,"current_range_meters":31200,"station_id":"ce4bh0h2rcd13ifvqd50","pricing_plan_id":"free"},{"bike_id":"3388efd5-c354-4ca3-a0a2-68f81ed9b113","system_id":"levelo_inurba_marseille","lat":43.29871,"lon":5.39736,"is_reserved":false,"is_disabled":false,"rental_uris":{"android":"levelo://app?vid=3388efd5-c354-4ca3-a0a2-68f81ed9b113","ios":"levelo://app?vid=3388efd5-c354-4ca3-a0a2-68f81ed9b113"},"vehicle_type_id":"4","last_reported":1683576415,"current_range_meters":4800,"station_id":"ce4bh0h2rcd13ifvqd50","pricing_plan_id":"free"},{"bike_id":"30814d6c-7863-415d-8827-a2d2ed2f8e59","system_id":"levelo_inurba_marseille","lat":43.298681,"lon":5.397225,"is_reserved":false,"is_disabled":false,"rental_uris":{"android":"levelo://app?vid=30814d6c-7863-415d-8827-a2d2ed2f8e59","ios":"levelo://app?vid=30814d6c-7863-415d-8827-a2d2ed2f8e59"},"vehicle_type_id":"4","last_reported":1683576415,"current_range_meters":8000,"station_id":"ce4bh0h2rcd13ifvqd50","pricing_plan_id":"free"},{"bike_id":"50969179-a8d8-46b1-a663-4983af0d0f78","system_id":"levelo_inurba_marseille","lat":43.28663,"lon":5.36358,"is_reserved":false,"is_disabled":false,"rental_uris":{"android":"levelo://app?vid=50969179-a8d8-46b1-a663-4983af0d0f78","ios":"levelo://app?vid=50969179-a8d8-46b1-a663-4983af0d0f78"},"vehicle_type_id":"4","last_reported":1683576415,"current_range_meters":2800,"station_id":"ce4bhah2rcd13ifvqej0","pricing_plan_id":"free"},{"bike_id":"8013d346-041a-4aaa-8ef2-b9b549422355","system_id":"levelo_inurba_marseille","lat":43.28662,"lon":5.36353,"is_reserved":false,"is_disabled":false,"rental_uris":{"android":"levelo://app?vid=8013d346-041a-4aaa-8ef2-b9b549422355","ios":"levelo://app?vid=8013d346-041a-4aaa-8ef2-b9b549422355"},"vehicle_type_id":"4","last_reported":1683576415,"current_range_meters":6800,"station_id":"ce4bhah2rcd13ifvqej0","pricing_plan_id":"free"},{"bike_id":"3551c753-64e4-4260-bcef-c2d33f358455","system_id":"levelo_inurba_marseille","lat":43.28662,"lon":5.36352,"is_reserved":false,"is_disabled":false,"rental_uris":{"android":"levelo://app?vid=3551c753-64e4-4260-bcef-c2d33f358455","ios":"levelo://app?vid=3551c753-64e4-4260-bcef-c2d33f358455"},"vehicle_type_id":"4","last_reported":1683576415,"current_range_meters":2400,"station_id":"ce4bhah2rcd13ifvqej0","pricing_plan_id":"free"},{"bike_id":"21fd4991-eba0-4b16-8304-09f779322b2e","system_id":"levelo_inurba_marseille","lat":43.298681,"lon":5.397225,"is_reserved":false,"is_disabled":false,"rental_uris":{"android":"levelo://app?vid=21fd4991-eba0-4b16-8304-09f779322b2e","ios":"levelo://app?vid=21fd4991-eba0-4b16-8304-09f779322b2e"},"vehicle_type_id":"4","last_reported":1683576415,"current_range_meters":31200,"station_id":"ce4bh0h2rcd13ifvqd50","pricing_plan_id":"free"},{"bike_id":"7c8d3e6a-40a9-4b33-9b0a-c33e20773504","system_id":"levelo_inurba_marseille","lat":43.298681,"lon":5.397225,"is_reserved":false,"is_disabled":false,"rental_uris":{"android":"levelo://app?vid=7c8d3e6a-40a9-4b33-9b0a-c33e20773504","ios":"levelo://app?vid=7c8d3e6a-40a9-4b33-9b0a-c33e20773504"},"vehicle_type_id":"4","last_reported":1683576415,"current_range_meters":11200,"station_id":"ce4bh0h2rcd13ifvqd50","pricing_plan_id":"free"},{"bike_id":"18b9f0e8-56f6-43ab-b350-f127d24dcc51","system_id":"levelo_inurba_marseille","lat":43.28659,"lon":5.36358,"is_reserved":false,"is_disabled":false,"rental_uris":{"android":"levelo://app?vid=18b9f0e8-56f6-43ab-b350-f127d24dcc51","ios":"levelo://app?vid=18b9f0e8-56f6-43ab-b350-f127d24dcc51"},"vehicle_type_id":"4","last_reported":1683576415,"current_range_meters":19600,"station_id":"ce4bhah2rcd13ifvqej0","pricing_plan_id":"free"},{"bike_id":"508940e0-414c-4364-ae34-0b9b2ef6d468","system_id":"levelo_inurba_marseille","lat":43.28658,"lon":5.36356,"is_reserved":false,"is_disabled":false,"rental_uris":{"android":"levelo://app?vid=508940e0-414c-4364-ae34-0b9b2ef6d468","ios":"levelo://app?vid=508940e0-414c-4364-ae34-0b9b2ef6d468"},"vehicle_type_id":"4","last_reported":1683576415,"current_range_meters":7200,"station_id":"ce4bhah2rcd13ifvqej0","pricing_plan_id":"free"},{"bike_id":"eb39d6cb-3712-4119-ba82-b67fffa23608","system_id":"levelo_inurba_marseille","lat":43.298681,"lon":5.397225,"is_reserved":false,"is_disabled":false,"rental_uris":{"android":"levelo://app?vid=eb39d6cb-3712-4119-ba82-b67fffa23608","ios":"levelo://app?vid=eb39d6cb-3712-4119-ba82-b67fffa23608"},"vehicle_type_id":"4","last_reported":1683576415,"current_range_meters":31200,"station_id":"ce4bh0h2rcd13ifvqd50","pricing_plan_id":"free"},{"bike_id":"d3f8cdd7-9e68-4d58-ade4-38ec3bf62f9b","system_id":"levelo_inurba_marseille","lat":43.295194,"lon":5.39397,"is_reserved":false,"is_disabled":false,"rental_uris":{"android":"levelo://app?vid=d3f8cdd7-9e68-4d58-ade4-38ec3bf62f9b","ios":"levelo://app?vid=d3f8cdd7-9e68-4d58-ade4-38ec3bf62f9b"},"vehicle_type_id":"4","last_reported":1683576415,"current_range_meters":16800,"station_id":"ce4bh292rcd13ifvqdf0","pricing_plan_id":"free"},{"bike_id":"59cbfdce-c49f-49a3-8c62-802b9171bf27","system_id":"levelo_inurba_marseille","lat":43.295194,"lon":5.39397,"is_reserved":false,"is_disabled":false,"rental_uris":{"android":"levelo://app?vid=59cbfdce-c49f-49a3-8c62-802b9171bf27","ios":"levelo://app?vid=59cbfdce-c49f-49a3-8c62-802b9171bf27"},"vehicle_type_id":"4","last_reported":1683576415,"current_range_meters":24800,"station_id":"ce4bh292rcd13ifvqdf0","pricing_plan_id":"free"},{"bike_id":"2115e1b0-540d-4a1f-b4ea-9468faccc987","system_id":"levelo_inurba_marseille","lat":43.295194,"lon":5.39397,"is_reserved":false,"is_disabled":false,"rental_uris":{"android":"levelo://app?vid=2115e1b0-540d-4a1f-b4ea-9468faccc987","ios":"levelo://app?vid=2115e1b0-540d-4a1f-b4ea-9468faccc987"},"vehicle_type_id":"4","last_reported":1683576415,"current_range_meters":21200,"station_id":"ce4bh292rcd13ifvqdf0","pricing_plan_id":"free"},{"bike_id":"558c4f98-7d4c-41ec-a8b4-b0248c915cf1","system_id":"levelo_inurba_marseille","lat":43.295194,"lon":5.39397,"is_reserved":false,"is_disabled":false,"rental_uris":{"android":"levelo://app?vid=558c4f98-7d4c-41ec-a8b4-b0248c915cf1","ios":"levelo://app?vid=558c4f98-7d4c-41ec-a8b4-b0248c915cf1"},"vehicle_type_id":"4","last_reported":1683576415,"current_range_meters":20000,"station_id":"ce4bh292rcd13ifvqdf0","pricing_plan_id":"free"},{"bike_id":"f4a0ef64-c3e2-4d11-a4e9-ac3dd175476f","system_id":"levelo_inurba_marseille","lat":43.295194,"lon":5.39397,"is_reserved":false,"is_disabled":false,"rental_uris":{"android":"levelo://app?vid=f4a0ef64-c3e2-4d11-a4e9-ac3dd175476f","ios":"levelo://app?vid=f4a0ef64-c3e2-4d11-a4e9-ac3dd175476f"},"vehicle_type_id":"4","last_reported":1683576415,"current_range_meters":0,"station_id":"ce4bh292rcd13ifvqdf0","pricing_plan_id":"free"},{"bike_id":"2904519e-8490-4b42-bb9e-a9527e4749e5","system_id":"levelo_inurba_marseille","lat":43.302759,"lon":5.400793,"is_reserved":false,"is_disabled":false,"rental_uris":{"android":"levelo://app?vid=2904519e-8490-4b42-bb9e-a9527e4749e5","ios":"levelo://app?vid=2904519e-8490-4b42-bb9e-a9527e4749e5"},"vehicle_type_id":"4","last_reported":1683576415,"current_range_meters":5200,"station_id":"ce4bgvh2rcd13ifvqcs0","pricing_plan_id":"free"},{"bike_id":"48b31770-0f33-4ebc-b2f6-cc7f81129ef6","system_id":"levelo_inurba_marseille","lat":43.302759,"lon":5.400793,"is_reserved":false,"is_disabled":false,"rental_uris":{"android":"levelo://app?vid=48b31770-0f33-4ebc-b2f6-cc7f81129ef6","ios":"levelo://app?vid=48b31770-0f33-4ebc-b2f6-cc7f81129ef6"},"vehicle_type_id":"4","last_reported":1683576415,"current_range_meters":14000,"station_id":"ce4bgvh2rcd13ifvqcs0","pricing_plan_id":"free"},{"bike_id":"ed7964b4-ed34-4387-a768-cef7ff35b940","system_id":"levelo_inurba_marseille","lat":43.302759,"lon":5.400793,"is_reserved":false,"is_disabled":false,"rental_uris":{"android":"levelo://app?vid=ed7964b4-ed34-4387-a768-cef7ff35b940","ios":"levelo://app?vid=ed7964b4-ed34-4387-a768-cef7ff35b940"},"vehicle_type_id":"4","last_reported":1683576415,"current_range_meters":31600,"station_id":"ce4bgvh2rcd13ifvqcs0","pricing_plan_id":"free"},{"bike_id":"555acc9c-671d-4530-889c-c1ac07ee0d4b","system_id":"levelo_inurba_marseille","lat":43.302759,"lon":5.400793,"is_reserved":false,"is_disabled":false,"rental_uris":{"android":"levelo://app?vid=555acc9c-671d-4530-889c-c1ac07ee0d4b","ios":"levelo://app?vid=555acc9c-671d-4530-889c-c1ac07ee0d4b"},"vehicle_type_id":"4","last_reported":1683576415,"current_range_meters":26800,"station_id":"ce4bgvh2rcd13ifvqcs0","pricing_plan_id":"free"},{"bike_id":"a6fb9f1a-8419-4408-a0fd-d5505b26301d","system_id":"levelo_inurba_marseille","lat":43.302759,"lon":5.400793,"is_reserved":false,"is_disabled":false,"rental_uris":{"android":"levelo://app?vid=a6fb9f1a-8419-4408-a0fd-d5505b26301d","ios":"levelo://app?vid=a6fb9f1a-8419-4408-a0fd-d5505b26301d"},"vehicle_type_id":"4","last_reported":1683576415,"current_range_meters":27600,"station_id":"ce4bgvh2rcd13ifvqcs0","pricing_plan_id":"free"},{"bike_id":"f3496272-94a4-4819-8c95-53a12b7fc99a","system_id":"levelo_inurba_marseille","lat":43.302759,"lon":5.400793,"is_reserved":false,"is_disabled":false,"rental_uris":{"android":"levelo://app?vid=f3496272-94a4-4819-8c95-53a12b7fc99a","ios":"levelo://app?vid=f3496272-94a4-4819-8c95-53a12b7fc99a"},"vehicle_type_id":"4","last_reported":1683576415,"current_range_meters":30400,"station_id":"ce4bgvh2rcd13ifvqcs0","pricing_plan_id":"free"},{"bike_id":"e5e99419-1f8b-4571-97ce-815fd146b297","system_id":"levelo_inurba_marseille","lat":43.302759,"lon":5.400793,"is_reserved":false,"is_disabled":false,"rental_uris":{"android":"levelo://app?vid=e5e99419-1f8b-4571-97ce-815fd146b297","ios":"levelo://app?vid=e5e99419-1f8b-4571-97ce-815fd146b297"},"vehicle_type_id":"4","last_reported":1683576415,"current_range_meters":23200,"station_id":"ce4bgvh2rcd13ifvqcs0","pricing_plan_id":"free"},{"bike_id":"1feb834c-3606-4813-96d9-8340df02b799","system_id":"levelo_inurba_marseille","lat":43.290336,"lon":5.386425,"is_reserved":false,"is_disabled":false,"rental_uris":{"android":"levelo://app?vid=1feb834c-3606-4813-96d9-8340df02b799","ios":"levelo://app?vid=1feb834c-3606-4813-96d9-8340df02b799"},"vehicle_type_id":"4","last_reported":1683576415,"current_range_meters":31200,"station_id":"ce4bh4p2rcd13ifvqe0g","pricing_plan_id":"free"},{"bike_id":"feb6570d-cc0a-4dfd-9786-2b9a7bbfbc4e","system_id":"levelo_inurba_marseille","lat":43.302759,"lon":5.400793,"is_reserved":false,"is_disabled":false,"rental_uris":{"android":"levelo://app?vid=feb6570d-cc0a-4dfd-9786-2b9a7bbfbc4e","ios":"levelo://app?vid=feb6570d-cc0a-4dfd-9786-2b9a7bbfbc4e"},"vehicle_type_id":"4","last_reported":1683576415,"current_range_meters":31600,"station_id":"ce4bgvh2rcd13ifvqcs0","pricing_plan_id":"free"},{"bike_id":"d7cdfbf4-8f23-4038-b4e8-70e6250bbcce","system_id":"levelo_inurba_marseille","lat":43.290336,"lon":5.386425,"is_reserved":false,"is_disabled":false,"rental_uris":{"android":"levelo://app?vid=d7cdfbf4-8f23-4038-b4e8-70e6250bbcce","ios":"levelo://app?vid=d7cdfbf4-8f23-4038-b4e8-70e6250bbcce"},"vehicle_type_id":"4","last_reported":1683576415,"current_range_meters":28400,"station_id":"ce4bh4p2rcd13ifvqe0g","pricing_plan_id":"free"},{"bike_id":"c1ad753c-eb1d-4f2a-884a-304e46f50cf3","system_id":"levelo_inurba_marseille","lat":43.302759,"lon":5.400793,"is_reserved":false,"is_disabled":false,"rental_uris":{"android":"levelo://app?vid=c1ad753c-eb1d-4f2a-884a-304e46f50cf3","ios":"levelo://app?vid=c1ad753c-eb1d-4f2a-884a-304e46f50cf3"},"vehicle_type_id":"4","last_reported":1683576415,"current_range_meters":31200,"station_id":"ce4bgvh2rcd13ifvqcs0","pricing_plan_id":"free"},{"bike_id":"d2d2ed47-1fca-4fc8-855f-3d52ef145f03","system_id":"levelo_inurba_marseille","lat":43.302759,"lon":5.400793,"is_reserved":false,"is_disabled":false,"rental_uris":{"android":"levelo://app?vid=d2d2ed47-1fca-4fc8-855f-3d52ef145f03","ios":"levelo://app?vid=d2d2ed47-1fca-4fc8-855f-3d52ef145f03"},"vehicle_type_id":"4","last_reported":1683576415,"current_range_meters":31600,"station_id":"ce4bgvh2rcd13ifvqcs0","pricing_plan_id":"free"},{"bike_id":"e849ae94-4ebb-4e38-bfe5-acbdcdedb947","system_id":"levelo_inurba_marseille","lat":43.30259,"lon":5.40082,"is_reserved":false,"is_disabled":false,"rental_uris":{"android":"levelo://app?vid=e849ae94-4ebb-4e38-bfe5-acbdcdedb947","ios":"levelo://app?vid=e849ae94-4ebb-4e38-bfe5-acbdcdedb947"},"vehicle_type_id":"4","last_reported":1683576415,"current_range_meters":14400,"station_id":"ce4bgvh2rcd13ifvqcs0","pricing_plan_id":"free"},{"bike_id":"65aba0f9-d5ec-4b88-a1ba-243d3b8c1181","system_id":"levelo_inurba_marseille","lat":43.302759,"lon":5.400793,"is_reserved":false,"is_disabled":false,"rental_uris":{"android":"levelo://app?vid=65aba0f9-d5ec-4b88-a1ba-243d3b8c1181","ios":"levelo://app?vid=65aba0f9-d5ec-4b88-a1ba-243d3b8c1181"},"vehicle_type_id":"4","last_reported":1683576415,"current_range_meters":17200,"station_id":"ce4bgvh2rcd13ifvqcs0","pricing_plan_id":"free"},{"bike_id":"c56749c3-d272-4843-90a2-f48972a1c742","system_id":"levelo_inurba_marseille","lat":43.28609,"lon":5.37063,"is_reserved":false,"is_disabled":false,"rental_uris":{"android":"levelo://app?vid=c56749c3-d272-4843-90a2-f48972a1c742","ios":"levelo://app?vid=c56749c3-d272-4843-90a2-f48972a1c742"},"vehicle_type_id":"4","last_reported":1683576415,"current_range_meters":21600,"station_id":"ce4bht12rcd13ifvqi60","pricing_plan_id":"free"},{"bike_id":"e55a092f-4e1f-449c-ad98-790abb323956","system_id":"levelo_inurba_marseille","lat":43.287184,"lon":5.37937,"is_reserved":false,"is_disabled":false,"rental_uris":{"android":"levelo://app?vid=e55a092f-4e1f-449c-ad98-790abb323956","ios":"levelo://app?vid=e55a092f-4e1f-449c-ad98-790abb323956"},"vehicle_type_id":"4","last_reported":1683576415,"current_range_meters":14000,"station_id":"ce4bh9p2rcd13ifvqec0","pricing_plan_id":"free"},{"bike_id":"0beb45e5-dce9-4591-8a0e-4ca49ba09b57","system_id":"levelo_inurba_marseille","lat":43.287185,"lon":5.379373,"is_reserved":false,"is_disabled":false,"rental_uris":{"android":"levelo://app?vid=0beb45e5-dce9-4591-8a0e-4ca49ba09b57","ios":"levelo://app?vid=0beb45e5-dce9-4591-8a0e-4ca49ba09b57"},"vehicle_type_id":"4","last_reported":1683576415,"current_range_meters":7200,"station_id":"ce4bh9p2rcd13ifvqec0","pricing_plan_id":"free"},{"bike_id":"30941413-3e40-4afc-a222-57f81cd89a18","system_id":"levelo_inurba_marseille","lat":43.287185,"lon":5.379373,"is_reserved":false,"is_disabled":false,"rental_uris":{"android":"levelo://app?vid=30941413-3e40-4afc-a222-57f81cd89a18","ios":"levelo://app?vid=30941413-3e40-4afc-a222-57f81cd89a18"},"vehicle_type_id":"4","last_reported":1683576415,"current_range_meters":30400,"station_id":"ce4bh9p2rcd13ifvqec0","pricing_plan_id":"free"},{"bike_id":"599c901c-9982-4abd-be7b-c02a4e7be087","system_id":"levelo_inurba_marseille","lat":43.316523,"lon":5.404367,"is_reserved":false,"is_disabled":false,"rental_uris":{"android":"levelo://app?vid=599c901c-9982-4abd-be7b-c02a4e7be087","ios":"levelo://app?vid=599c901c-9982-4abd-be7b-c02a4e7be087"},"vehicle_type_id":"4","last_reported":1683576415,"current_range_meters":30800,"station_id":"ce4bh012rcd13ifvqd00","pricing_plan_id":"free"},{"bike_id":"9d5c5e9e-1c08-470c-b1a5-a54f8e7aeb33","system_id":"levelo_inurba_marseille","lat":43.316523,"lon":5.404367,"is_reserved":false,"is_disabled":false,"rental_uris":{"android":"levelo://app?vid=9d5c5e9e-1c08-470c-b1a5-a54f8e7aeb33","ios":"levelo://app?vid=9d5c5e9e-1c08-470c-b1a5-a54f8e7aeb33"},"vehicle_type_id":"4","last_reported":1683576415,"current_range_meters":31200,"station_id":"ce4bh012rcd13ifvqd00","pricing_plan_id":"free"},{"bike_id":"1acadfab-027c-427e-a681-9553d796a5f9","system_id":"levelo_inurba_marseille","lat":43.316523,"lon":5.404367,"is_reserved":false,"is_disabled":false,"rental_uris":{"android":"levelo://app?vid=1acadfab-027c-427e-a681-9553d796a5f9","ios":"levelo://app?vid=1acadfab-027c-427e-a681-9553d796a5f9"},"vehicle_type_id":"4","last_reported":1683576415,"current_range_meters":29200,"station_id":"ce4bh012rcd13ifvqd00","pricing_plan_id":"free"},{"bike_id":"80ea80c4-5c21-4d2e-b0f7-fca89005775a","system_id":"levelo_inurba_marseille","lat":43.316523,"lon":5.404367,"is_reserved":false,"is_disabled":false,"rental_uris":{"android":"levelo://app?vid=80ea80c4-5c21-4d2e-b0f7-fca89005775a","ios":"levelo://app?vid=80ea80c4-5c21-4d2e-b0f7-fca89005775a"},"vehicle_type_id":"4","last_reported":1683576415,"current_range_meters":11600,"station_id":"ce4bh012rcd13ifvqd00","pricing_plan_id":"free"},{"bike_id":"de4ec532-1ebb-4500-a4ce-5fdbd1b1afc6","system_id":"levelo_inurba_marseille","lat":43.3165,"lon":5.40438,"is_reserved":false,"is_disabled":false,"rental_uris":{"android":"levelo://app?vid=de4ec532-1ebb-4500-a4ce-5fdbd1b1afc6","ios":"levelo://app?vid=de4ec532-1ebb-4500-a4ce-5fdbd1b1afc6"},"vehicle_type_id":"4","last_reported":1683576415,"current_range_meters":29200,"station_id":"ce4bh012rcd13ifvqd00","pricing_plan_id":"free"},{"bike_id":"7762b489-cb69-4fc0-8ff1-e36592259d8d","system_id":"levelo_inurba_marseille","lat":43.316523,"lon":5.404367,"is_reserved":false,"is_disabled":false,"rental_uris":{"android":"levelo://app?vid=7762b489-cb69-4fc0-8ff1-e36592259d8d","ios":"levelo://app?vid=7762b489-cb69-4fc0-8ff1-e36592259d8d"},"vehicle_type_id":"4","last_reported":1683576415,"current_range_meters":31200,"station_id":"ce4bh012rcd13ifvqd00","pricing_plan_id":"free"},{"bike_id":"7c022dc7-a3e5-4663-ab0b-c3c6b33b09e0","system_id":"levelo_inurba_marseille","lat":43.316523,"lon":5.404367,"is_reserved":false,"is_disabled":false,"rental_uris":{"android":"levelo://app?vid=7c022dc7-a3e5-4663-ab0b-c3c6b33b09e0","ios":"levelo://app?vid=7c022dc7-a3e5-4663-ab0b-c3c6b33b09e0"},"vehicle_type_id":"4","last_reported":1683576415,"current_range_meters":29600,"station_id":"ce4bh012rcd13ifvqd00","pricing_plan_id":"free"},{"bike_id":"f0301709-596d-4529-b87a-67e4360aed23","system_id":"levelo_inurba_marseille","lat":43.291994,"lon":5.392907,"is_reserved":false,"is_disabled":false,"rental_uris":{"android":"levelo://app?vid=f0301709-596d-4529-b87a-67e4360aed23","ios":"levelo://app?vid=f0301709-596d-4529-b87a-67e4360aed23"},"vehicle_type_id":"4","last_reported":1683576415,"current_range_meters":18800,"station_id":"ce4bh192rcd13ifvqdd0","pricing_plan_id":"free"},{"bike_id":"0e965bc6-ba23-4a22-a6d4-5248f824c673","system_id":"levelo_inurba_marseille","lat":43.291994,"lon":5.392907,"is_reserved":false,"is_disabled":false,"rental_uris":{"android":"levelo://app?vid=0e965bc6-ba23-4a22-a6d4-5248f824c673","ios":"levelo://app?vid=0e965bc6-ba23-4a22-a6d4-5248f824c673"},"vehicle_type_id":"4","last_reported":1683576415,"current_range_meters":4400,"station_id":"ce4bh192rcd13ifvqdd0","pricing_plan_id":"free"},{"bike_id":"07124ba0-c4e2-440c-9b63-a3fd345f2015","system_id":"levelo_inurba_marseille","lat":43.284534,"lon":5.358662,"is_reserved":false,"is_disabled":false,"rental_uris":{"android":"levelo://app?vid=07124ba0-c4e2-440c-9b63-a3fd345f2015","ios":"levelo://app?vid=07124ba0-c4e2-440c-9b63-a3fd345f2015"},"vehicle_type_id":"4","last_reported":1683576415,"current_range_meters":0,"station_id":"ce4bhah2rcd13ifvqei0","pricing_plan_id":"free"},{"bike_id":"d2d1e2e5-5983-4c76-aa66-09ce39fefd56","system_id":"levelo_inurba_marseille","lat":43.295713,"lon":5.399639,"is_reserved":false,"is_disabled":false,"rental_uris":{"android":"levelo://app?vid=d2d1e2e5-5983-4c76-aa66-09ce39fefd56","ios":"levelo://app?vid=d2d1e2e5-5983-4c76-aa66-09ce39fefd56"},"vehicle_type_id":"4","last_reported":1683576415,"current_range_meters":400,"station_id":"ce4bh312rcd13ifvqdj0","pricing_plan_id":"free"},{"bike_id":"e2765c79-a2de-4c49-b2f3-88d9a6d4e36e","system_id":"levelo_inurba_marseille","lat":43.295713,"lon":5.399639,"is_reserved":false,"is_disabled":false,"rental_uris":{"android":"levelo://app?vid=e2765c79-a2de-4c49-b2f3-88d9a6d4e36e","ios":"levelo://app?vid=e2765c79-a2de-4c49-b2f3-88d9a6d4e36e"},"vehicle_type_id":"4","last_reported":1683576415,"current_range_meters":22800,"station_id":"ce4bh312rcd13ifvqdj0","pricing_plan_id":"free"},{"bike_id":"ad52c902-6896-4f52-98c7-875ebf2131ed","system_id":"levelo_inurba_marseille","lat":43.295713,"lon":5.399639,"is_reserved":false,"is_disabled":false,"rental_uris":{"android":"levelo://app?vid=ad52c902-6896-4f52-98c7-875ebf2131ed","ios":"levelo://app?vid=ad52c902-6896-4f52-98c7-875ebf2131ed"},"vehicle_type_id":"4","last_reported":1683576415,"current_range_meters":12000,"station_id":"ce4bh312rcd13ifvqdj0","pricing_plan_id":"free"},{"bike_id":"7e99124f-97c2-4428-8d0e-9f13146255fd","system_id":"levelo_inurba_marseille","lat":43.29571,"lon":5.39975,"is_reserved":false,"is_disabled":false,"rental_uris":{"android":"levelo://app?vid=7e99124f-97c2-4428-8d0e-9f13146255fd","ios":"levelo://app?vid=7e99124f-97c2-4428-8d0e-9f13146255fd"},"vehicle_type_id":"4","last_reported":1683576415,"current_range_meters":18400,"station_id":"ce4bh312rcd13ifvqdj0","pricing_plan_id":"free"},{"bike_id":"ad725322-2572-4f03-a520-04332e8ac0f4","system_id":"levelo_inurba_marseille","lat":43.295713,"lon":5.399639,"is_reserved":false,"is_disabled":false,"rental_uris":{"android":"levelo://app?vid=ad725322-2572-4f03-a520-04332e8ac0f4","ios":"levelo://app?vid=ad725322-2572-4f03-a520-04332e8ac0f4"},"vehicle_type_id":"4","last_reported":1683576415,"current_range_meters":28400,"station_id":"ce4bh312rcd13ifvqdj0","pricing_plan_id":"free"},{"bike_id":"afa42148-4f32-4859-92c2-fa12164b8b1f","system_id":"levelo_inurba_marseille","lat":43.295713,"lon":5.399639,"is_reserved":false,"is_disabled":false,"rental_uris":{"android":"levelo://app?vid=afa42148-4f32-4859-92c2-fa12164b8b1f","ios":"levelo://app?vid=afa42148-4f32-4859-92c2-fa12164b8b1f"},"vehicle_type_id":"4","last_reported":1683576415,"current_range_meters":28400,"station_id":"ce4bh312rcd13ifvqdj0","pricing_plan_id":"free"},{"bike_id":"ab5af03f-1cf5-4b48-9812-0b881244eccb","system_id":"levelo_inurba_marseille","lat":43.295713,"lon":5.399639,"is_reserved":false,"is_disabled":false,"rental_uris":{"android":"levelo://app?vid=ab5af03f-1cf5-4b48-9812-0b881244eccb","ios":"levelo://app?vid=ab5af03f-1cf5-4b48-9812-0b881244eccb"},"vehicle_type_id":"4","last_reported":1683576415,"current_range_meters":28000,"station_id":"ce4bh312rcd13ifvqdj0","pricing_plan_id":"free"},{"bike_id":"e371a777-4664-47ab-a559-e4f872795eab","system_id":"levelo_inurba_marseille","lat":43.286595,"lon":5.386795,"is_reserved":false,"is_disabled":false,"rental_uris":{"android":"levelo://app?vid=e371a777-4664-47ab-a559-e4f872795eab","ios":"levelo://app?vid=e371a777-4664-47ab-a559-e4f872795eab"},"vehicle_type_id":"4","last_reported":1683576415,"current_range_meters":28800,"station_id":"ce4bh492rcd13ifvqdug","pricing_plan_id":"free"},{"bike_id":"f6faf8f6-cc9c-4c38-9b01-ac66cb3336c4","system_id":"levelo_inurba_marseille","lat":43.291994,"lon":5.392907,"is_reserved":false,"is_disabled":false,"rental_uris":{"android":"levelo://app?vid=f6faf8f6-cc9c-4c38-9b01-ac66cb3336c4","ios":"levelo://app?vid=f6faf8f6-cc9c-4c38-9b01-ac66cb3336c4"},"vehicle_type_id":"4","last_reported":1683576415,"current_range_meters":10800,"station_id":"ce4bh192rcd13ifvqdd0","pricing_plan_id":"free"},