{"last_updated":1756465680,"ttl":60,"version":"2.2","data":{"bikes":[{"bike_id":"3786bc3f-a1ef-4971-82b5-53ee21f255a9","system_id":"levelo_inurba_marseille","lat":43.337444,"lon":5.374475,"is_reserved":false,"is_disabled":true,"rental_uris":{"android":"levelo://app?vid=3786bc3f-a1ef-4971-82b5-53ee21f255a9","ios":"levelo://app?vid=3786bc3f-a1ef-4971-82b5-53ee21f255a9"},"vehicle_type_id":"4","last_reported":1756465681,"current_range_meters":0,"station_id":"","pricing_plan_id":"cebpf4jnsgd1na2vs0mg"},{"bike_id":"eaf33fba-ed97-48de-8903-7533cbd22295","system_id":"levelo_inurba_marseille","lat":43.337444,"lon":5.374475,"is_reserved":false,"is_disabled":true,"rental_uris":{"android":"levelo://app?vid=eaf33fba-ed97-48de-8903-7533cbd22295","ios":"levelo://app?vid=eaf33fba-ed97-48de-8903-7533cbd22295"},"vehicle_type_id":"4","last_reported":1756465681,"current_range_meters":0,"station_id":"","pricing_plan_id":"cebpf4jnsgd1na2vs0mg"},{"bike_id":"d165ff19-8e79-4669-a0ec-2766941625b3","system_id":"levelo_inurba_marseille","lat":43.337444,"lon":5.374475,"is_reserved":false,"is_disabled":true,"rental_uris":{"android":"levelo://app?vid=d165ff19-8e79-4669-a0ec-2766941625b3","ios":"levelo://app?vid=d165ff19-8e79-4669-a0ec-2766941625b3"},"vehicle_type_id":"4","last_reported":1756465681,"current_range_meters":0,"station_id":"","pricing_plan_id":"cebpf4jnsgd1na2vs0mg"},{"bike_id":"fee6e365-1410-47ff-aac6-460fe19870cf","system_id":"levelo_inurba_marseille","lat":43.33771,"lon":5.37424,"is_reserved":false,"is_disabled":true,"rental_uris":{"android":"levelo://app?vid=fee6e365-1410-47ff-aac6-460fe19870cf","ios":"levelo://app?vid=fee6e365-1410-47ff-aac6-460fe19870cf"},"vehicle_type_id":"4","last_reported":1756465681,"current_range_meters":0,"station_id":"","pricing_plan_id":"cebpf4jnsgd1na2vs0mg"},{"bike_id":"e7907bf2-9f85-4fec-b00b-f77b1a4a873c","system_id":"levelo_inurba_marseille","lat":43.33751,"lon":5.37456,"is_reserved":false,"is_disabled":true,"rental_uris":{"android":"levelo://app?vid=e7907bf2-9f85-4fec-b00b-f77b1a4a873c","ios":"levelo://app?vid=e7907bf2-9f85-4fec-b00b-f77b1a4a873c"},"vehicle_type_id":"4","last_reported":1756465681,"current_range_meters":0,"station_id":"","pricing_plan_id":"cebpf4jnsgd1na2vs0mg"},{"bike_id":"c060c1ec-0d33-42db-9a3d-6fb7fae5ea5e","system_id":"levelo_inurba_marseille","lat":43.33747,"lon":5.37463,"is_reserved":false,"is_disabled":true,"rental_uris":{"android":"levelo://app?vid=c060c1ec-0d33-42db-9a3d-6fb7fae5ea5e","ios":"levelo://app?vid=c060c1ec-0d33-42db-9a3d-6fb7fae5ea5e"},"vehicle_type_id":"1","last_reported":1756465681,"current_range_meters":0,"station_id":"","pricing_plan_id":"cebpf4jnsgd1na2vs0mg"},{"bike_id":"e6546109-cd3c-4cd0-ac12-e78c09da4ae6","system_id":"levelo_inurba_marseille","lat":43.33737,"lon":5.37465,"is_reserved":false,"is_disabled":true,"rental_uris":{"android":"levelo://app?vid=e6546109-cd3c-4cd0-ac12-e78c09da4ae6","ios":"levelo://app?vid=e6546109-cd3c-4cd0-ac12-e78c09da4ae6"},"vehicle_type_id":"4","last_reported":1756465681,"current_range_meters":0,"station_id":"","pricing_plan_id":"cebpf4jnsgd1na2vs0mg"},{"bike_id":"8facfda0-e588-46c6-8323-70578ba699b1","system_id":"levelo_inurba_marseille","lat":43.30501,"lon":5.37043,"is_reserved":false,"is_disabled":true,"rental_uris":{"android":"levelo://app?vid=8facfda0-e588-46c6-8323-70578ba699b1","ios":"levelo://app?vid=8facfda0-e588-46c6-8323-70578ba699b1"},"vehicle_type_id":"4","last_reported":1756465681,"current_range_meters":0,"station_id":"","pricing_plan_id":"cebpf4jnsgd1na2vs0mg"},{"bike_id":"b3fa04f4-753f-44ec-9319-e8b6b49d76a7","system_id":"levelo_inurba_marseille","lat":43.28837,"lon":5.38521,"is_reserved":false,"is_disabled":true,"rental_uris":{"android":"levelo://app?vid=b3fa04f4-753f-44ec-9319-e8b6b49d76a7","ios":"levelo://app?vid=b3fa04f4-753f-44ec-9319-e8b6b49d76a7"},"vehicle_type_id":"4","last_reported":1756465681,"current_range_meters":0,"station_id":"","pricing_plan_id":"cebpf4jnsgd1na2vs0mg"},{"bike_id":"0d006835-dfc4-460a-8c56-acc02ce01133","system_id":"levelo_inurba_marseille","lat":43.281085,"lon":5.398238,"is_reserved":false,"is_disabled":true,"rental_uris":{"android":"levelo://app?vid=0d006835-dfc4-460a-8c56-acc02ce01133","ios":"levelo://app?vid=0d006835-dfc4-460a-8c56-acc02ce01133"},"vehicle_type_id":"4","last_reported":1756465681,"current_range_meters":0,"station_id":"","pricing_plan_id":"cebpf4jnsgd1na2vs0mg"},{"bike_id":"5d315e57-bb67-481f-b455-26ecfe9889ad","system_id":"levelo_inurba_marseille","lat":43.28069,"lon":5.34773,"is_reserved":false,"is_disabled":true,"rental_uris":{"android":"levelo://app?vid=5d315e57-bb67-481f-b455-26ecfe9889ad","ios":"levelo://app?vid=5d315e57-bb67-481f-b455-26ecfe9889ad"},"vehicle_type_id":"4","last_reported":1756465681,"current_range_meters":0,"station_id":"","pricing_plan_id":"cebpf4jnsgd1na2vs0mg"},{"bike_id":"b937509b-3a5c-4ea0-838b-1bffb8d95da4","system_id":"levelo_inurba_marseille","lat":43.34666,"lon":5.34571,"is_reserved":false,"is_disabled":true,"rental_uris":{"android":"levelo://app?vid=b937509b-3a5c-4ea0-838b-1bffb8d95da4","ios":"levelo://app?vid=b937509b-3a5c-4ea0-838b-1bffb8d95da4"},"vehicle_type_id":"4","last_reported":1756465681,"current_range_meters":0,"station_id":"","pricing_plan_id":"cebpf4jnsgd1na2vs0mg"},{"bike_id":"ad342a57-16de-4802-917b-2c54902b8e93","system_id":"levelo_inurba_marseille","lat":43.33768,"lon":5.374498,"is_reserved":false,"is_disabled":true,"rental_uris":{"android":"levelo://app?vid=ad342a57-16de-4802-917b-2c54902b8e93","ios":"levelo://app?vid=ad342a57-16de-4802-917b-2c54902b8e93"},"vehicle_type_id":"4","last_reported":1756465681,"current_range_meters":0,"station_id":"","pricing_plan_id":"cebpf4jnsgd1na2vs0mg"},{"bike_id":"3091e42a-5528-4881-bef2-02a10038c1e8","system_id":"levelo_inurba_marseille","lat":43.30109,"lon":5.36789,"is_reserved":false,"is_disabled":true,"rental_uris":{"android":"levelo://app?vid=3091e42a-5528-4881-bef2-02a10038c1e8","ios":"levelo://app?vid=3091e42a-5528-4881-bef2-02a10038c1e8"},"vehicle_type_id":"4","last_reported":1756465681,"current_range_meters":0,"station_id":"","pricing_plan_id":"cebpf4jnsgd1na2vs0mg"},{"bike_id":"d2455067-1891-474b-a2c4-af07d10e4bfa","system_id":"levelo_inurba_marseille","lat":43.337804,"lon":5.374507,"is_reserved":false,"is_disabled":true,"rental_uris":{"android":"levelo://app?vid=d2455067-1891-474b-a2c4-af07d10e4bfa","ios":"levelo://app?vid=d2455067-1891-474b-a2c4-af07d10e4bfa"},"vehicle_type_id":"4","last_reported":1756465681,"current_range_meters":0,"station_id":"","pricing_plan_id":"cebpf4jnsgd1na2vs0mg"},{"bike_id":"16fc6144-dc8d-45c2-a753-48559cdc6072","system_id":"levelo_inurba_marseille","lat":43.29268,"lon":5.37623,"is_reserved":false,"is_disabled":true,"rental_uris":{"android":"levelo://app?vid=16fc6144-dc8d-45c2-a753-48559cdc6072","ios":"levelo://app?vid=16fc6144-dc8d-45c2-a753-48559cdc6072"},"vehicle_type_id":"4","last_reported":1756465681,"current_range_meters":0,"station_id":"ce4bgi12rcd13ifvqb80","pricing_plan_id":"cebpf4jnsgd1na2vs0mg"},{"bike_id":"ce4d1951-77de-4223-bddc-08947fafc799","system_id":"levelo_inurba_marseille","lat":43.29814,"lon":5.38106,"is_reserved":false,"is_disabled":true,"rental_uris":{"android":"levelo://app?vid=ce4d1951-77de-4223-bddc-08947fafc799","ios":"levelo://app?vid=ce4d1951-77de-4223-bddc-08947fafc799"},"vehicle_type_id":"4","last_reported":1756465681,"current_range_meters":0,"station_id":"ce4bgip2rcd13ifvqbb0","pricing_plan_id":"cebpf4jnsgd1na2vs0mg"},{"bike_id":"46833bfe-ce7d-4a16-9309-87cfc194d494","system_id":"levelo_inurba_marseille","lat":43.30888,"lon":5.39636,"is_reserved":false,"is_disabled":true,"rental_uris":{"android":"levelo://app?vid=46833bfe-ce7d-4a16-9309-87cfc194d494","ios":"levelo://app?vid=46833bfe-ce7d-4a16-9309-87cfc194d494"},"vehicle_type_id":"4","last_reported":1756465681,"current_range_meters":0,"station_id":"ce4bh012rcd13ifvqcv0","pricing_plan_id":"cebpf4jnsgd1na2vs0mg"},{"bike_id":"0deaa7e4-c77c-4f8a-9f85-a1aa7208b808","system_id":"levelo_inurba_marseille","lat":43.294085,"lon":5.385882,"is_reserved":false,"is_disabled":true,"rental_uris":{"android":"levelo://app?vid=0deaa7e4-c77c-4f8a-9f85-a1aa7208b808","ios":"levelo://app?vid=0deaa7e4-c77c-4f8a-9f85-a1aa7208b808"},"vehicle_type_id":"4","last_reported":1756465681,"current_range_meters":0,"station_id":"ce4bh192rcd13ifvqdd0","pricing_plan_id":"cebpf4jnsgd1na2vs0mg"},{"bike_id":"36989ab1-0a5c-4046-aaff-67763085f795","system_id":"levelo_inurba_marseille","lat":43.289982,"lon":5.356195,"is_reserved":false,"is_disabled":true,"rental_uris":{"android":"levelo://app?vid=36989ab1-0a5c-4046-aaff-67763085f795","ios":"levelo://app?vid=36989ab1-0a5c-4046-aaff-67763085f795"},"vehicle_type_id":"4","last_reported":1756465681,"current_range_meters":0,"station_id":"ce4bhb92rcd13ifvqen0","pricing_plan_id":"cebpf4jnsgd1na2vs0mg"},{"bike_id":"b6ea76d3-34be-4b56-b06c-be1b319687af","system_id":"levelo_inurba_marseille","lat":43.28414,"lon":5.34988,"is_reserved":false,"is_disabled":true,"rental_uris":{"android":"levelo://app?vid=b6ea76d3-34be-4b56-b06c-be1b319687af","ios":"levelo://app?vid=b6ea76d3-34be-4b56-b06c-be1b319687af"},"vehicle_type_id":"4","last_reported":1756465681,"current_range_meters":0,"station_id":"ce4bhbh2rcd13ifvqepg","pricing_plan_id":"cebpf4jnsgd1na2vs0mg"},{"bike_id":"878b7f7b-7271-4a1a-89e2-50ac0460f9a5","system_id":"levelo_inurba_marseille","lat":43.284088,"lon":5.349867,"is_reserved":false,"is_disabled":true,"rental_uris":{"android":"levelo://app?vid=878b7f7b-7271-4a1a-89e2-50ac0460f9a5","ios":"levelo://app?vid=878b7f7b-7271-4a1a-89e2-50ac0460f9a5"},"vehicle_type_id":"4","last_reported":1756465681,"current_range_meters":0,"station_id":"ce4bhbh2rcd13ifvqepg","pricing_plan_id":"cebpf4jnsgd1na2vs0mg"},{"bike_id":"d6fe646c-5582-49fb-94c4-525efdc0afd8","system_id":"levelo_inurba_marseille","lat":43.26569,"lon":5.38998,"is_reserved":false,"is_disabled":true,"rental_uris":{"android":"levelo://app?vid=d6fe646c-5582-49fb-94c4-525efdc0afd8","ios":"levelo://app?vid=d6fe646c-5582-49fb-94c4-525efdc0afd8"},"vehicle_type_id":"4","last_reported":1756465681,"current_range_meters":0,"station_id":"ce4bhe12rcd13ifvqf30","pricing_plan_id":"cebpf4jnsgd1na2vs0mg"},{"bike_id":"48e014ad-1ffd-40b1-9b13-8fb597369302","system_id":"levelo_inurba_marseille","lat":43.26563,"lon":5.37282,"is_reserved":false,"is_disabled":true,"rental_uris":{"android":"levelo://app?vid=48e014ad-1ffd-40b1-9b13-8fb597369302","ios":"levelo://app?vid=48e014ad-1ffd-40b1-9b13-8fb597369302"},"vehicle_type_id":"4","last_reported":1756465681,"current_range_meters":0,"station_id":"ce4bhg12rcd13ifvqf70","pricing_plan_id":"cebpf4jnsgd1na2vs0mg"},{"bike_id":"16310494-b1f7-4240-8a6a-0971b53a0892","system_id":"levelo_inurba_marseille","lat":43.32527,"lon":5.41483,"is_reserved":false,"is_disabled":true,"rental_uris":{"android":"levelo://app?vid=16310494-b1f7-4240-8a6a-0971b53a0892","ios":"levelo://app?vid=16310494-b1f7-4240-8a6a-0971b53a0892"},"vehicle_type_id":"4","last_reported":1756465681,"current_range_meters":0,"station_id":"ce4bhq12rcd13ifvqhhg","pricing_plan_id":"cebpf4jnsgd1na2vs0mg"},{"bike_id":"1b4152e4-08ce-47ca-a058-25cba902569b","system_id":"levelo_inurba_marseille","lat":43.323644,"lon":5.367711,"is_reserved":false,"is_disabled":true,"rental_uris":{"android":"levelo://app?vid=1b4152e4-08ce-47ca-a058-25cba902569b","ios":"levelo://app?vid=1b4152e4-08ce-47ca-a058-25cba902569b"},"vehicle_type_id":"4","last_reported":1756465681,"current_range_meters":0,"station_id":"ce4bhsh2rcd13ifvqi2g","pricing_plan_id":"cebpf4jnsgd1na2vs0mg"},{"bike_id":"3fcb9216-0851-4aa1-af88-5f39d9ac6a90","system_id":"levelo_inurba_marseille","lat":43.24162,"lon":5.36394,"is_reserved":false,"is_disabled":true,"rental_uris":{"android":"levelo://app?vid=3fcb9216-0851-4aa1-af88-5f39d9ac6a90","ios":"levelo://app?vid=3fcb9216-0851-4aa1-af88-5f39d9ac6a90"},"vehicle_type_id":"4","last_reported":1756465681,"current_range_meters":0,"station_id":"cpo36qri1sfpv3e86is0","pricing_plan_id":"cebpf4jnsgd1na2vs0mg"},{"bike_id":"5e1757b7-4e40-4455-871c-eb73cb122557","system_id":"levelo_inurba_marseille","lat":43.21748,"lon":5.34597,"is_reserved":false,"is_disabled":true,"rental_uris":{"android":"levelo://app?vid=5e1757b7-4e40-4455-871c-eb73cb122557","ios":"levelo://app?vid=5e1757b7-4e40-4455-871c-eb73cb122557"},"vehicle_type_id":"4","last_reported":1756465681,"current_range_meters":0,"station_id":"st_cvj6r9ubvosntc0bgbag","pricing_plan_id":"cebpf4jnsgd1na2vs0mg"},{"bike_id":"a365a855-24e7-4150-98ec-91e51585779b","system_id":"levelo_inurba_marseille","lat":43.21187,"lon":5.35072,"is_reserved":false,"is_disabled":true,"rental_uris":{"android":"levelo://app?vid=a365a855-24e7-4150-98ec-91e51585779b","ios":"levelo://app?vid=a365a855-24e7-4150-98ec-91e51585779b"},"vehicle_type_id":"4","last_reported":1756465681,"current_range_meters":0,"station_id":"st_cvj6sg6p6f1abm77japg","pricing_plan_id":"cebpf4jnsgd1na2vs0mg"},{"bike_id":"9ebbca0f-8b0f-49e0-bbc0-5934ebb0e846","system_id":"levelo_inurba_marseille","lat":43.21186,"lon":5.35078,"is_reserved":false,"is_disabled":true,"rental_uris":{"android":"levelo://app?vid=9ebbca0f-8b0f-49e0-bbc0-5934ebb0e846","ios":"levelo://app?vid=9ebbca0f-8b0f-49e0-bbc0-5934ebb0e846"},"vehicle_type_id":"4","last_reported":1756465681,"current_range_meters":0,"station_id":"st_cvj6sg6p6f1abm77japg","pricing_plan_id":"cebpf4jnsgd1na2vs0mg"},{"bike_id":"fe0d808d-068f-4492-8f88-1fb9ee65a46e","system_id":"levelo_inurba_marseille","lat":43.225637,"lon":5.416231,"is_reserved":false,"is_disabled":true,"rental_uris":{"android":"levelo://app?vid=fe0d808d-068f-4492-8f88-1fb9ee65a46e","ios":"levelo://app?vid=fe0d808d-068f-4492-8f88-1fb9ee65a46e"},"vehicle_type_id":"4","last_reported":1756465681,"current_range_meters":400,"station_id":"st_d2o4gvlbi1j2169b742g","pricing_plan_id":"cebpf4jnsgd1na2vs0mg"},{"bike_id":"0915576b-a645-4ad2-80f1-3f589465293c","system_id":"levelo_inurba_marseille","lat":43.30112,"lon":5.39882,"is_reserved":false,"is_disabled":true,"rental_uris":{"android":"levelo://app?vid=0915576b-a645-4ad2-80f1-3f589465293c","ios":"levelo://app?vid=0915576b-a645-4ad2-80f1-3f589465293c"},"vehicle_type_id":"4","last_reported":1756465681,"current_range_meters":2000,"station_id":"ce4bh0h2rcd13ifvqd40","pricing_plan_id":"cebpf4jnsgd1na2vs0mg"},{"bike_id":"a0694e39-95ef-4780-a7d3-06a17d4b8162","system_id":"levelo_inurba_marseille","lat":43.21191,"lon":5.35068,"is_reserved":false,"is_disabled":false,"rental_uris":{"android":"levelo://app?vid=a0694e39-95ef-4780-a7d3-06a17d4b8162","ios":"levelo://app?vid=a0694e39-95ef-4780-a7d3-06a17d4b8162"},"vehicle_type_id":"4","last_reported":1756465681,"current_range_meters":2800,"station_id":"","pricing_plan_id":"cebpf4jnsgd1na2vs0mg"},{"bike_id":"5bce688b-fc81-4596-8277-b66f54be87c1","system_id":"levelo_inurba_marseille","lat":43.337761,"lon":5.374522,"is_reserved":false,"is_disabled":false,"rental_uris":{"android":"levelo://app?vid=5bce688b-fc81-4596-8277-b66f54be87c1","ios":"levelo://app?vid=5bce688b-fc81-4596-8277-b66f54be87c1"},"vehicle_type_id":"4","last_reported":1756465681,"current_range_meters":3200,"station_id":"","pricing_plan_id":"cebpf4jnsgd1na2vs0mg"},{"bike_id":"09f919f4-70c4-4b5d-8e68-70c91203d9cf","system_id":"levelo_inurba_marseille","lat":43.29914,"lon":5.37495,"is_reserved":false,"is_disabled":false,"rental_uris":{"android":"levelo://app?vid=09f919f4-70c4-4b5d-8e68-70c91203d9cf","ios":"levelo://app?vid=09f919f4-70c4-4b5d-8e68-70c91203d9cf"},"vehicle_type_id":"4","last_reported":1756465681,"current_range_meters":3200,"station_id":"ce4bgjh2rcd13ifvqbg0","pricing_plan_id":"cebpf4jnsgd1na2vs0mg"},{"bike_id":"0b7c1a65-cdf0-411f-a3c5-a343cca32c9d","system_id":"levelo_inurba_marseille","lat":43.29007,"lon":5.38125,"is_reserved":false,"is_disabled":false,"rental_uris":{"android":"levelo://app?vid=0b7c1a65-cdf0-411f-a3c5-a343cca32c9d","ios":"levelo://app?vid=0b7c1a65-cdf0-411f-a3c5-a343cca32c9d"},"vehicle_type_id":"4","last_reported":1756465681,"current_range_meters":3200,"station_id":"ce4bh4p2rcd13ifvqe1g","pricing_plan_id":"cebpf4jnsgd1na2vs0mg"},{"bike_id":"a6ef8657-5b8a-423b-993f-c3df43dec0a0","system_id":"levelo_inurba_marseille","lat":43.337595,"lon":5.374806,"is_reserved":false,"is_disabled":false,"rental_uris":{"android":"levelo://app?vid=a6ef8657-5b8a-423b-993f-c3df43dec0a0","ios":"levelo://app?vid=a6ef8657-5b8a-423b-993f-c3df43dec0a0"},"vehicle_type_id":"4","last_reported":1756465681,"current_range_meters":4000,"station_id":"","pricing_plan_id":"cebpf4jnsgd1na2vs0mg"},{"bike_id":"56c3cd80-ee58-4188-9c44-275fdad38b3d","system_id":"levelo_inurba_marseille","lat":43.23183,"lon":5.39973,"is_reserved":false,"is_disabled":false,"rental_uris":{"android":"levelo://app?vid=56c3cd80-ee58-4188-9c44-275fdad38b3d","ios":"levelo://app?vid=56c3cd80-ee58-4188-9c44-275fdad38b3d"},"vehicle_type_id":"4","last_reported":1756465681,"current_range_meters":4000,"station_id":"ce4bhn12rcd13ifvqgqg","pricing_plan_id":"cebpf4jnsgd1na2vs0mg"},{"bike_id":"96e8c7fa-bc45-4dd0-b54b-5266f43cacf7","system_id":"levelo_inurba_marseille","lat":43.32333,"lon":5.40613,"is_reserved":false,"is_disabled":false,"rental_uris":{"android":"levelo://app?vid=96e8c7fa-bc45-4dd0-b54b-5266f43cacf7","ios":"levelo://app?vid=96e8c7fa-bc45-4dd0-b54b-5266f43cacf7"},"vehicle_type_id":"4","last_reported":1756465681,"current_range_meters":4000,"station_id":"ce4bhq92rcd13ifvqhjg","pricing_plan_id":"cebpf4jnsgd1na2vs0mg"},{"bike_id":"2fb23f0c-ef96-4850-b342-e28d01ccbeb2","system_id":"levelo_inurba_marseille","lat":43.31688,"lon":5.40469,"is_reserved":false,"is_disabled":false,"rental_uris":{"android":"levelo://app?vid=2fb23f0c-ef96-4850-b342-e28d01ccbeb2","ios":"levelo://app?vid=2fb23f0c-ef96-4850-b342-e28d01ccbeb2"},"vehicle_type_id":"4","last_reported":1756465681,"current_range_meters":4400,"station_id":"ce4bh012rcd13ifvqd00","pricing_plan_id":"cebpf4jnsgd1na2vs0mg"},{"bike_id":"d522ea14-d9dd-48cf-8bc9-01e2251a2247","system_id":"levelo_inurba_marseille","lat":43.29099,"lon":5.38151,"is_reserved":false,"is_disabled":false,"rental_uris":{"android":"levelo://app?vid=d522ea14-d9dd-48cf-8bc9-01e2251a2247","ios":"levelo://app?vid=d522ea14-d9dd-48cf-8bc9-01e2251a2247"},"vehicle_type_id":"4","last_reported":1756465681,"current_range_meters":4400,"station_id":"ce4bh512rcd13ifvqe2g","pricing_plan_id":"cebpf4jnsgd1na2vs0mg"},{"bike_id":"8f764db5-47fc-4e5f-b830-7161dda11c9b","system_id":"levelo_inurba_marseille","lat":43.32289,"lon":5.38275,"is_reserved":false,"is_disabled":false,"rental_uris":{"android":"levelo://app?vid=8f764db5-47fc-4e5f-b830-7161dda11c9b","ios":"levelo://app?vid=8f764db5-47fc-4e5f-b830-7161dda11c9b"},"vehicle_type_id":"4","last_reported":1756465681,"current_range_meters":4800,"station_id":"ce4bhr12rcd13ifvqhqg","pricing_plan_id":"cebpf4jnsgd1na2vs0mg"},{"bike_id":"589304c3-05df-4f44-9d04-6f61c98a7874","system_id":"levelo_inurba_marseille","lat":43.32349,"lon":5.36739,"is_reserved":false,"is_disabled":false,"rental_uris":{"android":"levelo://app?vid=589304c3-05df-4f44-9d04-6f61c98a7874","ios":"levelo://app?vid=589304c3-05df-4f44-9d04-6f61c98a7874"},"vehicle_type_id":"4","last_reported":1756465681,"current_range_meters":4800,"station_id":"ce4bhsh2rcd13ifvqi2g","pricing_plan_id":"cebpf4jnsgd1na2vs0mg"},{"bike_id":"9afc3971-a6c4-41e4-835f-3226e1a6497e","system_id":"levelo_inurba_marseille","lat":43.29374,"lon":5.37828,"is_reserved":false,"is_disabled":false,"rental_uris":{"android":"levelo://app?vid=9afc3971-a6c4-41e4-835f-3226e1a6497e","ios":"levelo://app?vid=9afc3971-a6c4-41e4-835f-3226e1a6497e"},"vehicle_type_id":"4","last_reported":1756465681,"current_range_meters":5600,"station_id":"ce4bgjh2rcd13ifvqbf0","pricing_plan_id":"cebpf4jnsgd1na2vs0mg"},{"bike_id":"322074d9-f6e5-408a-953e-b8176491c211","system_id":"levelo_inurba_marseille","lat":43.30962,"lon":5.39016,"is_reserved":false,"is_disabled":false,"rental_uris":{"android":"levelo://app?vid=322074d9-f6e5-408a-953e-b8176491c211","ios":"levelo://app?vid=322074d9-f6e5-408a-953e-b8176491c211"},"vehicle_type_id":"4","last_reported":1756465681,"current_range_meters":5600,"station_id":"ce4bgup2rcd13ifvqco0","pricing_plan_id":"cebpf4jnsgd1na2vs0mg"},{"bike_id":"b0d17997-84d1-4798-8ad0-e40f1df8069a","system_id":"levelo_inurba_marseille","lat":43.30891,"lon":5.37184,"is_reserved":false,"is_disabled":false,"rental_uris":{"android":"levelo://app?vid=b0d17997-84d1-4798-8ad0-e40f1df8069a","ios":"levelo://app?vid=b0d17997-84d1-4798-8ad0-e40f1df8069a"},"vehicle_type_id":"4","last_reported":1756465681,"current_range_meters":6000,"station_id":"ce4bguh2rcd13ifvqckg","pricing_plan_id":"cebpf4jnsgd1na2vs0mg"},{"bike_id":"c5d1b3cb-54e4-4102-bddb-d5b49d53d9c1","system_id":"levelo_inurba_marseille","lat":43.29251,"lon":5.40912,"is_reserved":false,"is_disabled":false,"rental_uris":{"android":"levelo://app?vid=c5d1b3cb-54e4-4102-bddb-d5b49d53d9c1","ios":"levelo://app?vid=c5d1b3cb-54e4-4102-bddb-d5b49d53d9c1"},"vehicle_type_id":"4","last_reported":1756465681,"current_range_meters":6000,"station_id":"ce4bh192rcd13ifvqdc0","pricing_plan_id":"cebpf4jnsgd1na2vs0mg"},{"bike_id":"2f20bd7b-d9f6-40e4-ba01-f8ba59c77136","system_id":"levelo_inurba_marseille","lat":43.28403,"lon":5.37521,"is_reserved":false,"is_disabled":false,"rental_uris":{"android":"levelo://app?vid=2f20bd7b-d9f6-40e4-ba01-f8ba59c77136","ios":"levelo://app?vid=2f20bd7b-d9f6-40e4-ba01-f8ba59c77136"},"vehicle_type_id":"4","last_reported":1756465681,"current_range_meters":6000,"station_id":"ce4bh412rcd13ifvqds0","pricing_plan_id":"cebpf4jnsgd1na2vs0mg"},{"bike_id":"6cbd3539-2441-46ac-9f83-a4fec5587a24","system_id":"levelo_inurba_marseille","lat":43.292675,"lon":5.368445,"is_reserved":false,"is_disabled":false,"rental_uris":{"android":"levelo://app?vid=6cbd3539-2441-46ac-9f83-a4fec5587a24","ios":"levelo://app?vid=6cbd3539-2441-46ac-9f83-a4fec5587a24"},"vehicle_type_id":"4","last_reported":1756465681,"current_range_meters":6000,"station_id":"ce4bhbp2rcd13ifvqesg","pricing_plan_id":"cebpf4jnsgd1na2vs0mg"},{"bike_id":"9ff7e224-1b2e-4f03-b9a4-ed341e79a732","system_id":"levelo_inurba_marseille","lat":43.27427,"lon":5.39407,"is_reserved":false,"is_disabled":false,"rental_uris":{"android":"levelo://app?vid=9ff7e224-1b2e-4f03-b9a4-ed341e79a732","ios":"levelo://app?vid=9ff7e224-1b2e-4f03-b9a4-ed341e79a732"},"vehicle_type_id":"4","last_reported":1756465681,"current_range_meters":6000,"station_id":"ce4bhdp2rcd13ifvqf20","pricing_plan_id":"cebpf4jnsgd1na2vs0mg"},{"bike_id":"d65d3903-d80e-419c-bb17-dfbb9c93ce9c","system_id":"levelo_inurba_marseille","lat":43.31082,"lon":5.4243,"is_reserved":false,"is_disabled":false,"rental_uris":{"android":"levelo://app?vid=d65d3903-d80e-419c-bb17-dfbb9c93ce9c","ios":"levelo://app?vid=d65d3903-d80e-419c-bb17-dfbb9c93ce9c"},"vehicle_type_id":"4","last_reported":1756465681,"current_range_meters":6000,"station_id":"ce4bhp92rcd13ifvqhag","pricing_plan_id":"cebpf4jnsgd1na2vs0mg"},{"bike_id":"5c723a17-945a-4ba0-a30f-566af902de46","system_id":"levelo_inurba_marseille","lat":43.3173,"lon":5.43803,"is_reserved":false,"is_disabled":false,"rental_uris":{"android":"levelo://app?vid=5c723a17-945a-4ba0-a30f-566af902de46","ios":"levelo://app?vid=5c723a17-945a-4ba0-a30f-566af902de46"},"vehicle_type_id":"4","last_reported":1756465681,"current_range_meters":6400,"station_id":"","pricing_plan_id":"cebpf4jnsgd1na2vs0mg"},{"bike_id":"b64e5b0f-a008-439d-9732-acf6ef6baa7f","system_id":"levelo_inurba_marseille","lat":43.26198,"lon":5.37451,"is_reserved":false,"is_disabled":false,"rental_uris":{"android":"levelo://app?vid=b64e5b0f-a008-439d-9732-acf6ef6baa7f","ios":"levelo://app?vid=b64e5b0f-a008-439d-9732-acf6ef6baa7f"},"vehicle_type_id":"4","last_reported":1756465681,"current_range_meters":6400,"station_id":"ce4bhgp2rcd13ifvqfc0","pricing_plan_id":"cebpf4jnsgd1na2vs0mg"},{"bike_id":"f8b866a2-f35d-4969-9743-48cea298f9cf","system_id":"levelo_inurba_marseille","lat":43.22564,"lon":5.416269,"is_reserved":false,"is_disabled":false,"rental_uris":{"android":"levelo://app?vid=f8b866a2-f35d-4969-9743-48cea298f9cf","ios":"levelo://app?vid=f8b866a2-f35d-4969-9743-48cea298f9cf"},"vehicle_type_id":"4","last_reported":1756465681,"current_range_meters":6400,"station_id":"ce4bhh92rcd13ifvqfh0","pricing_plan_id":"cebpf4jnsgd1na2vs0mg"},{"bike_id":"70721923-2e88-4684-a94e-23fda5f4f167","system_id":"levelo_inurba_marseille","lat":43.2582,"lon":5.39437,"is_reserved":false,"is_disabled":false,"rental_uris":{"android":"levelo://app?vid=70721923-2e88-4684-a94e-23fda5f4f167","ios":"levelo://app?vid=70721923-2e88-4684-a94e-23fda5f4f167"},"vehicle_type_id":"4","last_reported":1756465681,"current_range_meters":6400,"station_id":"ce4bhip2rcd13ifvqft0","pricing_plan_id":"cebpf4jnsgd1na2vs0mg"},{"bike_id":"9ff865e8-1a19-4c18-88c8-042a0bfcb67e","system_id":"levelo_inurba_marseille","lat":43.211907,"lon":5.350723,"is_reserved":false,"is_disabled":false,"rental_uris":{"android":"levelo://app?vid=9ff865e8-1a19-4c18-88c8-042a0bfcb67e","ios":"levelo://app?vid=9ff865e8-1a19-4c18-88c8-042a0bfcb67e"},"vehicle_type_id":"4","last_reported":1756465681,"current_range_meters":6400,"station_id":"st_cvj6sg6p6f1abm77japg","pricing_plan_id":"cebpf4jnsgd1na2vs0mg"},{"bike_id":"4ae4e626-39cd-41e8-a574-d5ae9f6259f1","system_id":"levelo_inurba_marseille","lat":43.30481,"lon":5.37896,"is_reserved":false,"is_disabled":false,"rental_uris":{"android":"levelo://app?vid=4ae4e626-39cd-41e8-a574-d5ae9f6259f1","ios":"levelo://app?vid=4ae4e626-39cd-41e8-a574-d5ae9f6259f1"},"vehicle_type_id":"4","last_reported":1756465681,"current_range_meters":7200,"station_id":"ce4bgup2rcd13ifvqcn0","pricing_plan_id":"cebpf4jnsgd1na2vs0mg"},{"bike_id":"84b0c379-13c2-482a-97ce-a8eb592a9a38","system_id":"levelo_inurba_marseille","lat":43.230459,"lon":5.354922,"is_reserved":false,"is_disabled":false,"rental_uris":{"android":"levelo://app?vid=84b0c379-13c2-482a-97ce-a8eb592a9a38","ios":"levelo://app?vid=84b0c379-13c2-482a-97ce-a8eb592a9a38"},"vehicle_type_id":"4","last_reported":1756465681,"current_range_meters":7200,"station_id":"cpo3342slgdg3j2ifvpg","pricing_plan_id":"cebpf4jnsgd1na2vs0mg"},{"bike_id":"dfdd2e36-fd81-49e0-ae8c-f652d4c91394","system_id":"levelo_inurba_marseille","lat":43.21189,"lon":5.35069,"is_reserved":false,"is_disabled":false,"rental_uris":{"android":"levelo://app?vid=dfdd2e36-fd81-49e0-ae8c-f652d4c91394","ios":"levelo://app?vid=dfdd2e36-fd81-49e0-ae8c-f652d4c91394"},"vehicle_type_id":"4","last_reported":1756465681,"current_range_meters":8000,"station_id":"","pricing_plan_id":"cebpf4jnsgd1na2vs0mg"},{"bike_id":"d810acf0-5bd2-4bf1-848d-31cd30d105e6","system_id":"levelo_inurba_marseille","lat":43.269831,"lon":5.392782,"is_reserved":false,"is_disabled":false,"rental_uris":{"android":"levelo://app?vid=d810acf0-5bd2-4bf1-848d-31cd30d105e6","ios":"levelo://app?vid=d810acf0-5bd2-4bf1-848d-31cd30d105e6"},"vehicle_type_id":"4","last_reported":1756465681,"current_range_meters":8000,"station_id":"","pricing_plan_id":"cebpf4jnsgd1na2vs0mg"},{"bike_id":"24ac1461-72d7-4f68-8635-d4d8a3aad81b","system_id":"levelo_inurba_marseille","lat":43.31223,"lon":5.36859,"is_reserved":false,"is_disabled":false,"rental_uris":{"android":"levelo://app?vid=24ac1461-72d7-4f68-8635-d4d8a3aad81b","ios":"levelo://app?vid=24ac1461-72d7-4f68-8635-d4d8a3aad81b"},"vehicle_type_id":"4","last_reported":1756465681,"current_range_meters":8000,"station_id":"ce4bgl92rcd13ifvqbq0","pricing_plan_id":"cebpf4jnsgd1na2vs0mg"},{"bike_id":"6a8620c5-2abd-4c58-bd04-70c536780853","system_id":"levelo_inurba_marseille","lat":43.23176,"lon":5.39999,"is_reserved":false,"is_disabled":false,"rental_uris":{"android":"levelo://app?vid=6a8620c5-2abd-4c58-bd04-70c536780853","ios":"levelo://app?vid=6a8620c5-2abd-4c58-bd04-70c536780853"},"vehicle_type_id":"4","last_reported":1756465681,"current_range_meters":8000,"station_id":"ce4bhn12rcd13ifvqgqg","pricing_plan_id":"cebpf4jnsgd1na2vs0mg"},{"bike_id":"737b06b6-06ee-4763-ae67-96b1331ca994","system_id":"levelo_inurba_marseille","lat":43.21188,"lon":5.35073,"is_reserved":false,"is_disabled":false,"rental_uris":{"android":"levelo://app?vid=737b06b6-06ee-4763-ae67-96b1331ca994","ios":"levelo://app?vid=737b06b6-06ee-4763-ae67-96b1331ca994"},"vehicle_type_id":"4","last_reported":1756465681,"current_range_meters":8000,"station_id":"st_cvj6sg6p6f1abm77japg","pricing_plan_id":"cebpf4jnsgd1na2vs0mg"},{"bike_id":"80127f74-4995-46ad-a4c4-961d47f7b5a3","system_id":"levelo_inurba_marseille","lat":43.22571,"lon":5.41593,"is_reserved":false,"is_disabled":false,"rental_uris":{"android":"levelo://app?vid=80127f74-4995-46ad-a4c4-961d47f7b5a3","ios":"levelo://app?vid=80127f74-4995-46ad-a4c4-961d47f7b5a3"},"vehicle_type_id":"4","last_reported":1756465681,"current_range_meters":8000,"station_id":"st_d2o4gvlbi1j2169b742g","pricing_plan_id":"cebpf4jnsgd1na2vs0mg"},{"bike_id":"ecea5961-1596-4e99-a87a-6cb6c6416fbf","system_id":"levelo_inurba_marseille","lat":43.304443,"lon":5.3767,"is_reserved":false,"is_disabled":false,"rental_uris":{"android":"levelo://app?vid=ecea5961-1596-4e99-a87a-6cb6c6416fbf","ios":"levelo://app?vid=ecea5961-1596-4e99-a87a-6cb6c6416fbf"},"vehicle_type_id":"4","last_reported":1756465681,"current_range_meters":8400,"station_id":"","pricing_plan_id":"cebpf4jnsgd1na2vs0mg"},{"bike_id":"ba688a5e-1a25-4dd5-a9c1-3b01b416f1dc","system_id":"levelo_inurba_marseille","lat":43.30882,"lon":5.39659,"is_reserved":false,"is_disabled":false,"rental_uris":{"android":"levelo://app?vid=ba688a5e-1a25-4dd5-a9c1-3b01b416f1dc","ios":"levelo://app?vid=ba688a5e-1a25-4dd5-a9c1-3b01b416f1dc"},"vehicle_type_id":"4","last_reported":1756465681,"current_range_meters":8400,"station_id":"ce4bh012rcd13ifvqcv0","pricing_plan_id":"cebpf4jnsgd1na2vs0mg"},{"bike_id":"7a072beb-dcb1-411e-a99e-7057dcc757e0","system_id":"levelo_inurba_marseille","lat":43.30881,"lon":5.39668,"is_reserved":false,"is_disabled":false,"rental_uris":{"android":"levelo://app?vid=7a072beb-dcb1-411e-a99e-7057dcc757e0","ios":"levelo://app?vid=7a072beb-dcb1-411e-a99e-7057dcc757e0"},"vehicle_type_id":"4","last_reported":1756465681,"current_range_meters":8400,"station_id":"ce4bh012rcd13ifvqcv0","pricing_plan_id":"cebpf4jnsgd1na2vs0mg"},{"bike_id":"16ecfaa6-2c59-4a90-a551-96faba35a6cf","system_id":"levelo_inurba_marseille","lat":43.29096,"lon":5.38142,"is_reserved":false,"is_disabled":false,"rental_uris":{"android":"levelo://app?vid=16ecfaa6-2c59-4a90-a551-96faba35a6cf","ios":"levelo://app?vid=16ecfaa6-2c59-4a90-a551-96faba35a6cf"},"vehicle_type_id":"4","last_reported":1756465681,"current_range_meters":8400,"station_id":"ce4bh512rcd13ifvqe2g","pricing_plan_id":"cebpf4jnsgd1na2vs0mg"},{"bike_id":"6e6f7ba1-cc2f-4fbe-964e-4e7536e40310","system_id":"levelo_inurba_marseille","lat":43.32518,"lon":5.36567,"is_reserved":false,"is_disabled":false,"rental_uris":{"android":"levelo://app?vid=6e6f7ba1-cc2f-4fbe-964e-4e7536e40310","ios":"levelo://app?vid=6e6f7ba1-cc2f-4fbe-964e-4e7536e40310"},"vehicle_type_id":"4","last_reported":1756465681,"current_range_meters":8400,"station_id":"ce4bhs12rcd13ifvqhvg","pricing_plan_id":"cebpf4jnsgd1na2vs0mg"},{"bike_id":"9ea6985f-a2ed-4b07-bfd4-396ae071b927","system_id":"levelo_inurba_marseille","lat":43.21187,"lon":5.35071,"is_reserved":false,"is_disabled":false,"rental_uris":{"android":"levelo://app?vid=9ea6985f-a2ed-4b07-bfd4-396ae071b927","ios":"levelo://app?vid=9ea6985f-a2ed-4b07-bfd4-396ae071b927"},"vehicle_type_id":"4","last_reported":1756465681,"current_range_meters":8400,"station_id":"st_cvj6sg6p6f1abm77japg","pricing_plan_id":"cebpf4jnsgd1na2vs0mg"},{"bike_id":"335f4cd0-5f74-47e2-9612-2dc7ce971d50","system_id":"levelo_inurba_marseille","lat":43.29572,"lon":5.36741,"is_reserved":false,"is_disabled":false,"rental_uris":{"android":"levelo://app?vid=335f4cd0-5f74-47e2-9612-2dc7ce971d50","ios":"levelo://app?vid=335f4cd0-5f74-47e2-9612-2dc7ce971d50"},"vehicle_type_id":"4","last_reported":1756465681,"current_range_meters":8800,"station_id":"ce4bgph2rcd13ifvqc2g","pricing_plan_id":"cebpf4jnsgd1na2vs0mg"},{"bike_id":"18cbec9a-75aa-423f-8424-b04b0f2cf5fb","system_id":"levelo_inurba_marseille","lat":43.288553,"lon":5.358363,"is_reserved":false,"is_disabled":false,"rental_uris":{"android":"levelo://app?vid=18cbec9a-75aa-423f-8424-b04b0f2cf5fb","ios":"levelo://app?vid=18cbec9a-75aa-423f-8424-b04b0f2cf5fb"},"vehicle_type_id":"4","last_reported":1756465681,"current_range_meters":8800,"station_id":"ce4bhb12rcd13ifvqem0","pricing_plan_id":"cebpf4jnsgd1na2vs0mg"},{"bike_id":"ee09a183-215a-4b57-9b49-d671872169a3","system_id":"levelo_inurba_marseille","lat":43.28416,"lon":5.34972,"is_reserved":false,"is_disabled":false,"rental_uris":{"android":"levelo://app?vid=ee09a183-215a-4b57-9b49-d671872169a3","ios":"levelo://app?vid=ee09a183-215a-4b57-9b49-d671872169a3"},"vehicle_type_id":"4","last_reported":1756465681,"current_range_meters":8800,"station_id":"ce4bhbh2rcd13ifvqepg","pricing_plan_id":"cebpf4jnsgd1na2vs0mg"},{"bike_id":"7436c034-80f0-4e00-a069-f5340de1889c","system_id":"levelo_inurba_marseille","lat":43.246606,"lon":5.381624,"is_reserved":false,"is_disabled":false,"rental_uris":{"android":"levelo://app?vid=7436c034-80f0-4e00-a069-f5340de1889c","ios":"levelo://app?vid=7436c034-80f0-4e00-a069-f5340de1889c"},"vehicle_type_id":"4","last_reported":1756465681,"current_range_meters":8800,"station_id":"ce4bhih2rcd13ifvqfr0","pricing_plan_id":"cebpf4jnsgd1na2vs0mg"},{"bike_id":"de14a6aa-1fec-4655-8163-5c153c19b2b2","system_id":"levelo_inurba_marseille","lat":43.22559,"lon":5.41599,"is_reserved":false,"is_disabled":false,"rental_uris":{"android":"levelo://app?vid=de14a6aa-1fec-4655-8163-5c153c19b2b2","ios":"levelo://app?vid=de14a6aa-1fec-4655-8163-5c153c19b2b2"},"vehicle_type_id":"4","last_reported":1756465681,"current_range_meters":8800,"station_id":"st_d2o4gvlbi1j2169b742g","pricing_plan_id":"cebpf4jnsgd1na2vs0mg"},{"bike_id":"70be4f49-b387-452f-9990-b684cf9fd21e","system_id":"levelo_inurba_marseille","lat":43.303204,"lon":5.403493,"is_reserved":false,"is_disabled":false,"rental_uris":{"android":"levelo://app?vid=70be4f49-b387-452f-9990-b684cf9fd21e","ios":"levelo://app?vid=70be4f49-b387-452f-9990-b684cf9fd21e"},"vehicle_type_id":"4","last_reported":1756465681,"current_range_meters":9600,"station_id":"","pricing_plan_id":"cebpf4jnsgd1na2vs0mg"},{"bike_id":"62473933-ab63-4eec-9f57-65abd2b02329","system_id":"levelo_inurba_marseille","lat":43.29006,"lon":5.35612,"is_reserved":false,"is_disabled":false,"rental_uris":{"android":"levelo://app?vid=62473933-ab63-4eec-9f57-65abd2b02329","ios":"levelo://app?vid=62473933-ab63-4eec-9f57-65abd2b02329"},"vehicle_type_id":"4","last_reported":1756465681,"current_range_meters":9600,"station_id":"ce4bhb92rcd13ifvqen0","pricing_plan_id":"cebpf4jnsgd1na2vs0mg"},{"bike_id":"b9a2bbbb-69ac-40be-bf46-27119ee9c404","system_id":"levelo_inurba_marseille","lat":43.25343,"lon":5.42173,"is_reserved":false,"is_disabled":false,"rental_uris":{"android":"levelo://app?vid=b9a2bbbb-69ac-40be-bf46-27119ee9c404","ios":"levelo://app?vid=b9a2bbbb-69ac-40be-bf46-27119ee9c404"},"vehicle_type_id":"4","last_reported":1756465681,"current_range_meters":9600,"station_id":"st_d2m65c5bi1j21697t3ng","pricing_plan_id":"cebpf4jnsgd1na2vs0mg"},{"bike_id":"fdec9266-b5dc-480a-8f44-72fea011ce43","system_id":"levelo_inurba_marseille","lat":43.303241,"lon":5.404232,"is_reserved":false,"is_disabled":false,"rental_uris":{"android":"levelo://app?vid=fdec9266-b5dc-480a-8f44-72fea011ce43","ios":"levelo://app?vid=fdec9266-b5dc-480a-8f44-72fea011ce43"},"vehicle_type_id":"4","last_reported":1756465681,"current_range_meters":10000,"station_id":"ce4bh012rcd13ifvqd10","pricing_plan_id":"cebpf4jnsgd1na2vs0mg"},{"bike_id":"731ff345-1377-45e9-acf9-0825f15b172a","system_id":"levelo_inurba_marseille","lat":43.229184,"lon":5.353878,"is_reserved":false,"is_disabled":false,"rental_uris":{"android":"levelo://app?vid=731ff345-1377-45e9-acf9-0825f15b172a","ios":"levelo://app?vid=731ff345-1377-45e9-acf9-0825f15b172a"},"vehicle_type_id":"4","last_reported":1756465681,"current_range_meters":10000,"station_id":"cpo3532slgdg3j2ikp40","pricing_plan_id":"cebpf4jnsgd1na2vs0mg"},{"bike_id":"f84d922c-0443-4fda-83e2-049df92826e2","system_id":"levelo_inurba_marseille","lat":43.21749,"lon":5.34605,"is_reserved":false,"is_disabled":false,"rental_uris":{"android":"levelo://app?vid=f84d922c-0443-4fda-83e2-049df92826e2","ios":"levelo://app?vid=f84d922c-0443-4fda-83e2-049df92826e2"},"vehicle_type_id":"4","last_reported":1756465681,"current_range_meters":10000,"station_id":"st_cvj6r9ubvosntc0bgbag","pricing_plan_id":"cebpf4jnsgd1na2vs0mg"},{"bike_id":"5bdfa0e5-c5fc-4cfd-bc08-50665156356d","system_id":"levelo_inurba_marseille","lat":43.295294,"lon":5.375061,"is_reserved":false,"is_disabled":false,"rental_uris":{"android":"levelo://app?vid=5bdfa0e5-c5fc-4cfd-bc08-50665156356d","ios":"levelo://app?vid=5bdfa0e5-c5fc-4cfd-bc08-50665156356d"},"vehicle_type_id":"4","last_reported":1756465681,"current_range_meters":10800,"station_id":"","pricing_plan_id":"cebpf4jnsgd1na2vs0mg"},{"bike_id":"9c1e405e-1904-4b0c-b34e-6813fc4e9c03","system_id":"levelo_inurba_marseille","lat":43.31339,"lon":5.36714,"is_reserved":false,"is_disabled":false,"rental_uris":{"android":"levelo://app?vid=9c1e405e-1904-4b0c-b34e-6813fc4e9c03","ios":"levelo://app?vid=9c1e405e-1904-4b0c-b34e-6813fc4e9c03"},"vehicle_type_id":"4","last_reported":1756465681,"current_range_meters":10800,"station_id":"ce4bgr92rcd13ifvqc6g","pricing_plan_id":"cebpf4jnsgd1na2vs0mg"},{"bike_id":"fcc503c6-d3a7-4cf2-8bb7-07eb8c5cebbc","system_id":"levelo_inurba_marseille","lat":43.26195,"lon":5.37449,"is_reserved":false,"is_disabled":false,"rental_uris":{"android":"levelo://app?vid=fcc503c6-d3a7-4cf2-8bb7-07eb8c5cebbc","ios":"levelo://app?vid=fcc503c6-d3a7-4cf2-8bb7-07eb8c5cebbc"},"vehicle_type_id":"4","last_reported":1756465681,"current_range_meters":10800,"station_id":"ce4bhgp2rcd13ifvqfc0","pricing_plan_id":"cebpf4jnsgd1na2vs0mg"},{"bike_id":"4cb681e0-d066-4a11-a683-9409a0063bce","system_id":"levelo_inurba_marseille","lat":43.23151,"lon":5.43721,"is_reserved":false,"is_disabled":false,"rental_uris":{"android":"levelo://app?vid=4cb681e0-d066-4a11-a683-9409a0063bce","ios":"levelo://app?vid=4cb681e0-d066-4a11-a683-9409a0063bce"},"vehicle_type_id":"4","last_reported":1756465681,"current_range_meters":10800,"station_id":"ce4bhmp2rcd13ifvqgog","pricing_plan_id":"cebpf4jnsgd1na2vs0mg"},{"bike_id":"d005b541-909d-4c5d-bde1-94285008f478","system_id":"levelo_inurba_marseille","lat":43.32372,"lon":5.36734,"is_reserved":false,"is_disabled":false,"rental_uris":{"android":"levelo://app?vid=d005b541-909d-4c5d-bde1-94285008f478","ios":"levelo://app?vid=d005b541-909d-4c5d-bde1-94285008f478"},"vehicle_type_id":"4","last_reported":1756465681,"current_range_meters":10800,"station_id":"ce4bhsh2rcd13ifvqi2g","pricing_plan_id":"cebpf4jnsgd1na2vs0mg"},{"bike_id":"8a3d08a4-6e22-43fc-a3af-efea32020201","system_id":"levelo_inurba_marseille","lat":43.323636,"lon":5.367626,"is_reserved":false,"is_disabled":false,"rental_uris":{"android":"levelo://app?vid=8a3d08a4-6e22-43fc-a3af-efea32020201","ios":"levelo://app?vid=8a3d08a4-6e22-43fc-a3af-efea32020201"},"vehicle_type_id":"4","last_reported":1756465681,"current_range_meters":10800,"station_id":"ce4bhsh2rcd13ifvqi2g","pricing_plan_id":"cebpf4jnsgd1na2vs0mg"},{"bike_id":"11e3b63a-7498-4037-a1da-178dcd0fbd98","system_id":"levelo_inurba_marseille","lat":43.337444,"lon":5.374475,"is_reserved":false,"is_disabled":false,"rental_uris":{"android":"levelo://app?vid=11e3b63a-7498-4037-a1da-178dcd0fbd98","ios":"levelo://app?vid=11e3b63a-7498-4037-a1da-178dcd0fbd98"},"vehicle_type_id":"4","last_reported":1756465681,"current_range_meters":11200,"station_id":"","pricing_plan_id":"cebpf4jnsgd1na2vs0mg"},{"bike_id":"be3ada0e-a9bc-4a04-ae0d-6d69c27cd4f9","system_id":"levelo_inurba_marseille","lat":43.295197,"lon":5.375122,"is_reserved":false,"is_disabled":false,"rental_uris":{"android":"levelo://app?vid=be3ada0e-a9bc-4a04-ae0d-6d69c27cd4f9","ios":"levelo://app?vid=be3ada0e-a9bc-4a04-ae0d-6d69c27cd4f9"},"vehicle_type_id":"4","last_reported":1756465681,"current_range_meters":11600,"station_id":"","pricing_plan_id":"cebpf4jnsgd1na2vs0mg"},{"bike_id":"cc906a88-1331-44a0-b1c5-ebccb651e4f2","system_id":"levelo_inurba_marseille","lat":43.23962,"lon":5.36639,"is_reserved":false,"is_disabled":false,"rental_uris":{"android":"levelo://app?vid=cc906a88-1331-44a0-b1c5-ebccb651e4f2","ios":"levelo://app?vid=cc906a88-1331-44a0-b1c5-ebccb651e4f2"},"vehicle_type_id":"4","last_reported":1756465681,"current_range_meters":11600,"station_id":"ce4bhi12rcd13ifvqfp0","pricing_plan_id":"cebpf4jnsgd1na2vs0mg"},{"bike_id":"2707a69c-7150-4792-81b8-ff2b975a15ff","system_id":"levelo_inurba_marseille","lat":43.2318,"lon":5.39987,"is_reserved":false,"is_disabled":false,"rental_uris":{"android":"levelo://app?vid=2707a69c-7150-4792-81b8-ff2b975a15ff","ios":"levelo://app?vid=2707a69c-7150-4792-81b8-ff2b975a15ff"},"vehicle_type_id":"4","last_reported":1756465681,"current_range_meters":11600,"station_id":"ce4bhn12rcd13ifvqgqg","pricing_plan_id":"cebpf4jnsgd1na2vs0mg"},{"bike_id":"78778518-8cc1-405e-b363-7f91ac292b57","system_id":"levelo_inurba_marseille","lat":43.28409,"lon":5.3498,"is_reserved":false,"is_disabled":false,"rental_uris":{"android":"levelo://app?vid=78778518-8cc1-405e-b363-7f91ac292b57","ios":"levelo://app?vid=78778518-8cc1-405e-b363-7f91ac292b57"},"vehicle_type_id":"4","last_reported":1756465681,"current_range_meters":12400,"station_id":"ce4bhbh2rcd13ifvqepg","pricing_plan_id":"cebpf4jnsgd1na2vs0mg"},{"bike_id":"f63696ec-af52-4b77-aaeb-31dedc3a50e0","system_id":"levelo_inurba_marseille","lat":43.28604,"lon":5.3511,"is_reserved":false,"is_disabled":false,"rental_uris":{"android":"levelo://app?vid=f63696ec-af52-4b77-aaeb-31dedc3a50e0","ios":"levelo://app?vid=f63696ec-af52-4b77-aaeb-31dedc3a50e0"},"vehicle_type_id":"4","last_reported":1756465681,"current_range_meters":12400,"station_id":"ce4bhch2rcd13ifvqeug","pricing_plan_id":"cebpf4jnsgd1na2vs0mg"},{"bike_id":"3c2cdfbe-f484-4d72-b881-d01dd3e4f1b7","system_id":"levelo_inurba_marseille","lat":43.260305,"lon":5.375508,"is_reserved":false,"is_disabled":false,"rental_uris":{"android":"levelo://app?vid=3c2cdfbe-f484-4d72-b881-d01dd3e4f1b7","ios":"levelo://app?vid=3c2cdfbe-f484-4d72-b881-d01dd3e4f1b7"},"vehicle_type_id":"4","last_reported":1756465681,"current_range_meters":12400,"station_id":"ce4bhgh2rcd13ifvqfa0","pricing_plan_id":"cebpf4jnsgd1na2vs0mg"},{"bike_id":"c8ed8afa-4750-4d5e-b29e-7da3cd8f4dc7","system_id":"levelo_inurba_marseille","lat":43.323641,"lon":5.367613,"is_reserved":false,"is_disabled":false,"rental_uris":{"android":"levelo://app?vid=c8ed8afa-4750-4d5e-b29e-7da3cd8f4dc7","ios":"levelo://app?vid=c8ed8afa-4750-4d5e-b29e-7da3cd8f4dc7"},"vehicle_type_id":"4","last_reported":1756465681,"current_range_meters":12400,"station_id":"ce4bhsh2rcd13ifvqi2g","pricing_plan_id":"cebpf4jnsgd1na2vs0mg"},{"bike_id":"97695183-ad2f-49ed-bfd3-8be272617e24","system_id":"levelo_inurba_marseille","lat":43.23188,"lon":5.35552,"is_reserved":false,"is_disabled":false,"rental_uris":{"android":"levelo://app?vid=97695183-ad2f-49ed-bfd3-8be272617e24","ios":"levelo://app?vid=97695183-ad2f-49ed-bfd3-8be272617e24"},"vehicle_type_id":"4","last_reported":1756465681,"current_range_meters":12400,"station_id":"ce4bhu92rcd13ifvqi70","pricing_plan_id":"cebpf4jnsgd1na2vs0mg"},{"bike_id":"4062423e-3381-49c0-9510-0e0e09b2d426","system_id":"levelo_inurba_marseille","lat":43.211884,"lon":5.350737,"is_reserved":false,"is_disabled":false,"rental_uris":{"android":"levelo://app?vid=4062423e-3381-49c0-9510-0e0e09b2d426","ios":"levelo://app?vid=4062423e-3381-49c0-9510-0e0e09b2d426"},"vehicle_type_id":"4","last_reported":1756465681,"current_range_meters":12400,"station_id":"st_cvj6sg6p6f1abm77japg","pricing_plan_id":"cebpf4jnsgd1na2vs0mg"},{"bike_id":"ca808d34-9391-4691-b4c5-e9180d9c16d9","system_id":"levelo_inurba_marseille","lat":43.25346,"lon":5.42172,"is_reserved":false,"is_disabled":false,"rental_uris":{"android":"levelo://app?vid=ca808d34-9391-4691-b4c5-e9180d9c16d9","ios":"levelo://app?vid=ca808d34-9391-4691-b4c5-e9180d9c16d9"},"vehicle_type_id":"4","last_reported":1756465681,"current_range_meters":12400,"station_id":"st_d2m65c5bi1j21697t3ng","pricing_plan_id":"cebpf4jnsgd1na2vs0mg"},{"bike_id":"42515969-df58-4bc3-81b4-d2c5b3092781","system_id":"levelo_inurba_marseille","lat":43.27724,"lon":5.420226,"is_reserved":false,"is_disabled":false,"rental_uris":{"android":"levelo://app?vid=42515969-df58-4bc3-81b4-d2c5b3092781","ios":"levelo://app?vid=42515969-df58-4bc3-81b4-d2c5b3092781"},"vehicle_type_id":"4","last_reported":1756465681,"current_range_meters":12800,"station_id":"","pricing_plan_id":"cebpf4jnsgd1na2vs0mg"},{"bike_id":"a5cf245b-c0a9-4845-bcd7-7b3def4f55dd","system_id":"levelo_inurba_marseille","lat":43.29188,"lon":5.35791,"is_reserved":false,"is_disabled":false,"rental_uris":{"android":"levelo://app?vid=a5cf245b-c0a9-4845-bcd7-7b3def4f55dd","ios":"levelo://app?vid=a5cf245b-c0a9-4845-bcd7-7b3def4f55dd"},"vehicle_type_id":"4","last_reported":1756465681,"current_range_meters":12800,"station_id":"ce4bhb12rcd13ifvqel0","pricing_plan_id":"cebpf4jnsgd1na2vs0mg"},{"bike_id":"334e1d7c-f2e6-4543-b473-959658949a73","system_id":"levelo_inurba_marseille","lat":43.23967,"lon":5.36634,"is_reserved":false,"is_disabled":false,"rental_uris":{"android":"levelo://app?vid=334e1d7c-f2e6-4543-b473-959658949a73","ios":"levelo://app?vid=334e1d7c-f2e6-4543-b473-959658949a73"},"vehicle_type_id":"4","last_reported":1756465681,"current_range_meters":12800,"station_id":"ce4bhi12rcd13ifvqfp0","pricing_plan_id":"cebpf4jnsgd1na2vs0mg"},{"bike_id":"a583a2d5-64ba-4a63-99f9-a273677678f2","system_id":"levelo_inurba_marseille","lat":43.28132,"lon":5.42678,"is_reserved":false,"is_disabled":false,"rental_uris":{"android":"levelo://app?vid=a583a2d5-64ba-4a63-99f9-a273677678f2","ios":"levelo://app?vid=a583a2d5-64ba-4a63-99f9-a273677678f2"},"vehicle_type_id":"4","last_reported":1756465681,"current_range_meters":12800,"station_id":"ce4bhnh2rcd13ifvqgug","pricing_plan_id":"cebpf4jnsgd1na2vs0mg"},{"bike_id":"e88813c3-e63a-4665-b0f4-72e6c6c89a00","system_id":"levelo_inurba_marseille","lat":43.21165,"lon":5.35083,"is_reserved":false,"is_disabled":false,"rental_uris":{"android":"levelo://app?vid=e88813c3-e63a-4665-b0f4-72e6c6c89a00","ios":"levelo://app?vid=e88813c3-e63a-4665-b0f4-72e6c6c89a00"},"vehicle_type_id":"4","last_reported":1756465681,"current_range_meters":12800,"station_id":"st_cvj6sg6p6f1abm77japg","pricing_plan_id":"cebpf4jnsgd1na2vs0mg"},{"bike_id":"c8f25f7d-72bd-408c-add5-afc42c92dc66","system_id":"levelo_inurba_marseille","lat":43.21194,"lon":5.35068,"is_reserved":false,"is_disabled":false,"rental_uris":{"android":"levelo://app?vid=c8f25f7d-72bd-408c-add5-afc42c92dc66","ios":"levelo://app?vid=c8f25f7d-72bd-408c-add5-afc42c92dc66"},"vehicle_type_id":"4","last_reported":1756465681,"current_range_meters":13600,"station_id":"","pricing_plan_id":"cebpf4jnsgd1na2vs0mg"},{"bike_id":"e461ed12-be1c-4090-904b-e04bc75cdc27","system_id":"levelo_inurba_marseille","lat":43.30453,"lon":5.37916,"is_reserved":false,"is_disabled":false,"rental_uris":{"android":"levelo://app?vid=e461ed12-be1c-4090-904b-e04bc75cdc27","ios":"levelo://app?vid=e461ed12-be1c-4090-904b-e04bc75cdc27"},"vehicle_type_id":"4","last_reported":1756465681,"current_range_meters":13600,"station_id":"ce4bgup2rcd13ifvqcn0","pricing_plan_id":"cebpf4jnsgd1na2vs0mg"},{"bike_id":"a3e4ee41-5175-47da-ad6e-4c5ae3eb42d9","system_id":"levelo_inurba_marseille","lat":43.211918,"lon":5.350792,"is_reserved":false,"is_disabled":false,"rental_uris":{"android":"levelo://app?vid=a3e4ee41-5175-47da-ad6e-4c5ae3eb42d9","ios":"levelo://app?vid=a3e4ee41-5175-47da-ad6e-4c5ae3eb42d9"},"vehicle_type_id":"4","last_reported":1756465681,"current_range_meters":13600,"station_id":"st_cvj6sg6p6f1abm77japg","pricing_plan_id":"cebpf4jnsgd1na2vs0mg"},{"bike_id":"d2037d0a-1a03-43ff-992a-62cb59c74480","system_id":"levelo_inurba_marseille","lat":43.24616,"lon":5.43161,"is_reserved":false,"is_disabled":false,"rental_uris":{"android":"levelo://app?vid=d2037d0a-1a03-43ff-992a-62cb59c74480","ios":"levelo://app?vid=d2037d0a-1a03-43ff-992a-62cb59c74480"},"vehicle_type_id":"4","last_reported":1756465681,"current_range_meters":13600,"station_id":"st_d2m6c4gdas8pm72e190g","pricing_plan_id":"cebpf4jnsgd1na2vs0mg"},{"bike_id":"3dd23926-ae78-488e-8f33-e0fe0712154d","system_id":"levelo_inurba_marseille","lat":43.312077,"lon":5.377968,"is_reserved":false,"is_disabled":false,"rental_uris":{"android":"levelo://app?vid=3dd23926-ae78-488e-8f33-e0fe0712154d","ios":"levelo://app?vid=3dd23926-ae78-488e-8f33-e0fe0712154d"},"vehicle_type_id":"4","last_reported":1756465681,"current_range_meters":14000,"station_id":"","pricing_plan_id":"cebpf4jnsgd1na2vs0mg"},{"bike_id":"c4228a45-ccf9-4857-988e-b11ecfaa58cf","system_id":"levelo_inurba_marseille","lat":43.28859,"lon":5.35849,"is_reserved":false,"is_disabled":false,"rental_uris":{"android":"levelo://app?vid=c4228a45-ccf9-4857-988e-b11ecfaa58cf","ios":"levelo://app?vid=c4228a45-ccf9-4857-988e-b11ecfaa58cf"},"vehicle_type_id":"4","last_reported":1756465681,"current_range_meters":14000,"station_id":"ce4bhb12rcd13ifvqem0","pricing_plan_id":"cebpf4jnsgd1na2vs0mg"},{"bike_id":"8bae7d86-d014-40d1-b0ec-f5e9f0e08d4e","system_id":"levelo_inurba_marseille","lat":43.26036,"lon":5.37553,"is_reserved":false,"is_disabled":false,"rental_uris":{"android":"levelo://app?vid=8bae7d86-d014-40d1-b0ec-f5e9f0e08d4e","ios":"levelo://app?vid=8bae7d86-d014-40d1-b0ec-f5e9f0e08d4e"},"vehicle_type_id":"4","last_reported":1756465681,"current_range_meters":14000,"station_id":"ce4bhgh2rcd13ifvqfa0","pricing_plan_id":"cebpf4jnsgd1na2vs0mg"},{"bike_id":"7ab6d03c-02d3-4733-a375-638025fc2fa6","system_id":"levelo_inurba_marseille","lat":43.211892,"lon":5.350767,"is_reserved":false,"is_disabled":false,"rental_uris":{"android":"levelo://app?vid=7ab6d03c-02d3-4733-a375-638025fc2fa6","ios":"levelo://app?vid=7ab6d03c-02d3-4733-a375-638025fc2fa6"},"vehicle_type_id":"4","last_reported":1756465681,"current_range_meters":14000,"station_id":"st_cvj6sg6p6f1abm77japg","pricing_plan_id":"cebpf4jnsgd1na2vs0mg"},{"bike_id":"20cdb3f8-aebe-48a9-ae79-aa2df35a742a","system_id":"levelo_inurba_marseille","lat":43.24631,"lon":5.43145,"is_reserved":false,"is_disabled":false,"rental_uris":{"android":"levelo://app?vid=20cdb3f8-aebe-48a9-ae79-aa2df35a742a","ios":"levelo://app?vid=20cdb3f8-aebe-48a9-ae79-aa2df35a742a"},"vehicle_type_id":"4","last_reported":1756465681,"current_range_meters":14000,"station_id":"st_d2m6c4gdas8pm72e190g","pricing_plan_id":"cebpf4jnsgd1na2vs0mg"},{"bike_id":"083dca62-c227-468f-ad9d-5d65b88e5579","system_id":"levelo_inurba_marseille","lat":43.26016,"lon":5.37539,"is_reserved":false,"is_disabled":false,"rental_uris":{"android":"levelo://app?vid=083dca62-c227-468f-ad9d-5d65b88e5579","ios":"levelo://app?vid=083dca62-c227-468f-ad9d-5d65b88e5579"},"vehicle_type_id":"4","last_reported":1756465681,"current_range_meters":14400,"station_id":"","pricing_plan_id":"cebpf4jnsgd1na2vs0mg"},{"bike_id":"8b75e23f-2aeb-4ae6-9217-f9bd8abd75af","system_id":"levelo_inurba_marseille","lat":43.290527,"lon":5.387494,"is_reserved":false,"is_disabled":false,"rental_uris":{"android":"levelo://app?vid=8b75e23f-2aeb-4ae6-9217-f9bd8abd75af","ios":"levelo://app?vid=8b75e23f-2aeb-4ae6-9217-f9bd8abd75af"},"vehicle_type_id":"4","last_reported":1756465681,"current_range_meters":14400,"station_id":"ce4bh4p2rcd13ifvqe0g","pricing_plan_id":"cebpf4jnsgd1na2vs0mg"},{"bike_id":"c4151c63-4628-4474-99f2-c45cdba62403","system_id":"levelo_inurba_marseille","lat":43.262839,"lon":5.39906,"is_reserved":false,"is_disabled":false,"rental_uris":{"android":"levelo://app?vid=c4151c63-4628-4474-99f2-c45cdba62403","ios":"levelo://app?vid=c4151c63-4628-4474-99f2-c45cdba62403"},"vehicle_type_id":"4","last_reported":1756465681,"current_range_meters":14800,"station_id":"","pricing_plan_id":"cebpf4jnsgd1na2vs0mg"},{"bike_id":"8871d4a6-c07c-438c-97bf-02a1f402debe","system_id":"levelo_inurba_marseille","lat":43.27557,"lon":5.38425,"is_reserved":false,"is_disabled":false,"rental_uris":{"android":"levelo://app?vid=8871d4a6-c07c-438c-97bf-02a1f402debe","ios":"levelo://app?vid=8871d4a6-c07c-438c-97bf-02a1f402debe"},"vehicle_type_id":"4","last_reported":1756465681,"current_range_meters":14800,"station_id":"ce4bhh92rcd13ifvqfi0","pricing_plan_id":"cebpf4jnsgd1na2vs0mg"},{"bike_id":"ad4c4a01-d30a-43d7-80ed-b34d62d5e9ef","system_id":"levelo_inurba_marseille","lat":43.2417,"lon":5.36394,"is_reserved":false,"is_disabled":false,"rental_uris":{"android":"levelo://app?vid=ad4c4a01-d30a-43d7-80ed-b34d62d5e9ef","ios":"levelo://app?vid=ad4c4a01-d30a-43d7-80ed-b34d62d5e9ef"},"vehicle_type_id":"4","last_reported":1756465681,"current_range_meters":14800,"station_id":"cpo36qri1sfpv3e86is0","pricing_plan_id":"cebpf4jnsgd1na2vs0mg"},{"bike_id":"0a52260b-d5c5-4928-a8ea-e2ec7c6c93ab","system_id":"levelo_inurba_marseille","lat":43.28427,"lon":5.34984,"is_reserved":false,"is_disabled":false,"rental_uris":{"android":"levelo://app?vid=0a52260b-d5c5-4928-a8ea-e2ec7c6c93ab","ios":"levelo://app?vid=0a52260b-d5c5-4928-a8ea-e2ec7c6c93ab"},"vehicle_type_id":"4","last_reported":1756465681,"current_range_meters":15200,"station_id":"ce4bhbh2rcd13ifvqepg","pricing_plan_id":"cebpf4jnsgd1na2vs0mg"},{"bike_id":"4c2b2b82-bc76-4256-a7a9-44d692b69bc0","system_id":"levelo_inurba_marseille","lat":43.25824,"lon":5.39435,"is_reserved":false,"is_disabled":false,"rental_uris":{"android":"levelo://app?vid=4c2b2b82-bc76-4256-a7a9-44d692b69bc0","ios":"levelo://app?vid=4c2b2b82-bc76-4256-a7a9-44d692b69bc0"},"vehicle_type_id":"4","last_reported":1756465681,"current_range_meters":15200,"station_id":"ce4bhip2rcd13ifvqft0","pricing_plan_id":"cebpf4jnsgd1na2vs0mg"},{"bike_id":"dee5fc92-9d8d-42ec-97e1-996d8f5266a8","system_id":"levelo_inurba_marseille","lat":43.229251,"lon":5.35384,"is_reserved":false,"is_disabled":false,"rental_uris":{"android":"levelo://app?vid=dee5fc92-9d8d-42ec-97e1-996d8f5266a8","ios":"levelo://app?vid=dee5fc92-9d8d-42ec-97e1-996d8f5266a8"},"vehicle_type_id":"4","last_reported":1756465681,"current_range_meters":15200,"station_id":"cpo3532slgdg3j2ikp40","pricing_plan_id":"cebpf4jnsgd1na2vs0mg"},{"bike_id":"7aa3cec2-793d-4964-97fc-a3626910e4af","system_id":"levelo_inurba_marseille","lat":43.29851,"lon":5.37007,"is_reserved":false,"is_disabled":false,"rental_uris":{"android":"levelo://app?vid=7aa3cec2-793d-4964-97fc-a3626910e4af","ios":"levelo://app?vid=7aa3cec2-793d-4964-97fc-a3626910e4af"},"vehicle_type_id":"4","last_reported":1756465681,"current_range_meters":16000,"station_id":"","pricing_plan_id":"cebpf4jnsgd1na2vs0mg"},{"bike_id":"7462d663-36c2-4cb8-9995-06037a114314","system_id":"levelo_inurba_marseille","lat":43.331464,"lon":5.381794,"is_reserved":false,"is_disabled":false,"rental_uris":{"android":"levelo://app?vid=7462d663-36c2-4cb8-9995-06037a114314","ios":"levelo://app?vid=7462d663-36c2-4cb8-9995-06037a114314"},"vehicle_type_id":"4","last_reported":1756465681,"current_range_meters":16000,"station_id":"","pricing_plan_id":"cebpf4jnsgd1na2vs0mg"},{"bike_id":"e66b3941-edc1-47d2-a508-6af05bed5109","system_id":"levelo_inurba_marseille","lat":43.22533,"lon":5.34831,"is_reserved":false,"is_disabled":false,"rental_uris":{"android":"levelo://app?vid=e66b3941-edc1-47d2-a508-6af05bed5109","ios":"levelo://app?vid=e66b3941-edc1-47d2-a508-6af05bed5109"},"vehicle_type_id":"4","last_reported":1756465681,"current_range_meters":16000,"station_id":"","pricing_plan_id":"cebpf4jnsgd1na2vs0mg"},{"bike_id":"ccb1f639-4593-4592-b4f7-caccbc903060","system_id":"levelo_inurba_marseille","lat":43.31166,"lon":5.38711,"is_reserved":false,"is_disabled":false,"rental_uris":{"android":"levelo://app?vid=ccb1f639-4593-4592-b4f7-caccbc903060","ios":"levelo://app?vid=ccb1f639-4593-4592-b4f7-caccbc903060"},"vehicle_type_id":"4","last_reported":1756465681,"current_range_meters":16000,"station_id":"ce4bgv12rcd13ifvqcp0","pricing_plan_id":"cebpf4jnsgd1na2vs0mg"},{"bike_id":"0eaf7dfe-1c45-4d67-8d87-18c2556f2b62","system_id":"levelo_inurba_marseille","lat":43.28261,"lon":5.35063,"is_reserved":false,"is_disabled":false,"rental_uris":{"android":"levelo://app?vid=0eaf7dfe-1c45-4d67-8d87-18c2556f2b62","ios":"levelo://app?vid=0eaf7dfe-1c45-4d67-8d87-18c2556f2b62"},"vehicle_type_id":"4","last_reported":1756465681,"current_range_meters":16000,"station_id":"ce4bhbp2rcd13ifvqerg","pricing_plan_id":"cebpf4jnsgd1na2vs0mg"},{"bike_id":"5b064a53-e079-4430-8825-152cf4e0210b","system_id":"levelo_inurba_marseille","lat":43.28612,"lon":5.351136,"is_reserved":false,"is_disabled":false,"rental_uris":{"android":"levelo://app?vid=5b064a53-e079-4430-8825-152cf4e0210b","ios":"levelo://app?vid=5b064a53-e079-4430-8825-152cf4e0210b"},"vehicle_type_id":"4","last_reported":1756465681,"current_range_meters":16000,"station_id":"ce4bhch2rcd13ifvqeug","pricing_plan_id":"cebpf4jnsgd1na2vs0mg"},{"bike_id":"e9ce2865-6cd3-4097-bc5b-de0ef11fadf5","system_id":"levelo_inurba_marseille","lat":43.26209,"lon":5.37443,"is_reserved":false,"is_disabled":false,"rental_uris":{"android":"levelo://app?vid=e9ce2865-6cd3-4097-bc5b-de0ef11fadf5","ios":"levelo://app?vid=e9ce2865-6cd3-4097-bc5b-de0ef11fadf5"},"vehicle_type_id":"4","last_reported":1756465681,"current_range_meters":16000,"station_id":"ce4bhgp2rcd13ifvqfc0","pricing_plan_id":"cebpf4jnsgd1na2vs0mg"},{"bike_id":"d8155007-1adb-41cc-9e5c-935151a9c068","system_id":"levelo_inurba_marseille","lat":43.25574,"lon":5.38241,"is_reserved":false,"is_disabled":false,"rental_uris":{"android":"levelo://app?vid=d8155007-1adb-41cc-9e5c-935151a9c068","ios":"levelo://app?vid=d8155007-1adb-41cc-9e5c-935151a9c068"},"vehicle_type_id":"4","last_reported":1756465681,"current_range_meters":16000,"station_id":"ce4bhih2rcd13ifvqfs0","pricing_plan_id":"cebpf4jnsgd1na2vs0mg"},{"bike_id":"445f4a5d-695f-4c1d-b170-62064433a299","system_id":"levelo_inurba_marseille","lat":43.21197,"lon":5.3506,"is_reserved":false,"is_disabled":false,"rental_uris":{"android":"levelo://app?vid=445f4a5d-695f-4c1d-b170-62064433a299","ios":"levelo://app?vid=445f4a5d-695f-4c1d-b170-62064433a299"},"vehicle_type_id":"4","last_reported":1756465681,"current_range_meters":16000,"station_id":"st_cvj6sg6p6f1abm77japg","pricing_plan_id":"cebpf4jnsgd1na2vs0mg"},{"bike_id":"420c553f-5c97-4aba-932a-7b39a7ffcd9c","system_id":"levelo_inurba_marseille","lat":43.21181,"lon":5.35073,"is_reserved":false,"is_disabled":false,"rental_uris":{"android":"levelo://app?vid=420c553f-5c97-4aba-932a-7b39a7ffcd9c","ios":"levelo://app?vid=420c553f-5c97-4aba-932a-7b39a7ffcd9c"},"vehicle_type_id":"4","last_reported":1756465681,"current_range_meters":16000,"station_id":"st_cvj6sg6p6f1abm77japg","pricing_plan_id":"cebpf4jnsgd1na2vs0mg"},{"bike_id":"94469496-96ae-450e-adaf-a7663bfd0e82","system_id":"levelo_inurba_marseille","lat":43.33758,"lon":5.37495,"is_reserved":false,"is_disabled":false,"rental_uris":{"android":"levelo://app?vid=94469496-96ae-450e-adaf-a7663bfd0e82","ios":"levelo://app?vid=94469496-96ae-450e-adaf-a7663bfd0e82"},"vehicle_type_id":"4","last_reported":1756465681,"current_range_meters":16400,"station_id":"","pricing_plan_id":"cebpf4jnsgd1na2vs0mg"},{"bike_id":"2ed08b61-6616-4f7b-b09d-00dd9b29cbc4","system_id":"levelo_inurba_marseille","lat":43.28154,"lon":5.42647,"is_reserved":false,"is_disabled":false,"rental_uris":{"android":"levelo://app?vid=2ed08b61-6616-4f7b-b09d-00dd9b29cbc4","ios":"levelo://app?vid=2ed08b61-6616-4f7b-b09d-00dd9b29cbc4"},"vehicle_type_id":"4","last_reported":1756465681,"current_range_meters":16400,"station_id":"ce4bhnh2rcd13ifvqgug","pricing_plan_id":"cebpf4jnsgd1na2vs0mg"},{"bike_id":"258158f0-e507-44cf-9ba0-0bacc9740d7a","system_id":"levelo_inurba_marseille","lat":43.25338,"lon":5.42165,"is_reserved":false,"is_disabled":false,"rental_uris":{"android":"levelo://app?vid=258158f0-e507-44cf-9ba0-0bacc9740d7a","ios":"levelo://app?vid=258158f0-e507-44cf-9ba0-0bacc9740d7a"},"vehicle_type_id":"4","last_reported":1756465681,"current_range_meters":16400,"station_id":"st_d2m65c5bi1j21697t3ng","pricing_plan_id":"cebpf4jnsgd1na2vs0mg"},{"bike_id":"319ad6b8-af52-4d12-880e-1720f26f2b83","system_id":"levelo_inurba_marseille","lat":43.30602,"lon":5.36666,"is_reserved":false,"is_disabled":false,"rental_uris":{"android":"levelo://app?vid=319ad6b8-af52-4d12-880e-1720f26f2b83","ios":"levelo://app?vid=319ad6b8-af52-4d12-880e-1720f26f2b83"},"vehicle_type_id":"4","last_reported":1756465681,"current_range_meters":16800,"station_id":"","pricing_plan_id":"cebpf4jnsgd1na2vs0mg"},{"bike_id":"be56a579-3870-4545-85bd-dad43950a1f0","system_id":"levelo_inurba_marseille","lat":43.28124,"lon":5.42689,"is_reserved":false,"is_disabled":false,"rental_uris":{"android":"levelo://app?vid=be56a579-3870-4545-85bd-dad43950a1f0","ios":"levelo://app?vid=be56a579-3870-4545-85bd-dad43950a1f0"},"vehicle_type_id":"4","last_reported":1756465681,"current_range_meters":16800,"station_id":"","pricing_plan_id":"cebpf4jnsgd1na2vs0mg"},{"bike_id":"1ff850c4-453f-4da4-b1ec-17b03b5381c0","system_id":"levelo_inurba_marseille","lat":43.29628,"lon":5.40596,"is_reserved":false,"is_disabled":false,"rental_uris":{"android":"levelo://app?vid=1ff850c4-453f-4da4-b1ec-17b03b5381c0","ios":"levelo://app?vid=1ff850c4-453f-4da4-b1ec-17b03b5381c0"},"vehicle_type_id":"4","last_reported":1756465681,"current_range_meters":16800,"station_id":"ce4bh0h2rcd13ifvqd60","pricing_plan_id":"cebpf4jnsgd1na2vs0mg"},{"bike_id":"831ac956-b953-4517-b8eb-a80895b2cffa","system_id":"levelo_inurba_marseille","lat":43.24654,"lon":5.38886,"is_reserved":false,"is_disabled":false,"rental_uris":{"android":"levelo://app?vid=831ac956-b953-4517-b8eb-a80895b2cffa","ios":"levelo://app?vid=831ac956-b953-4517-b8eb-a80895b2cffa"},"vehicle_type_id":"4","last_reported":1756465681,"current_range_meters":16800,"station_id":"ce4bhg12rcd13ifvqf60","pricing_plan_id":"cebpf4jnsgd1na2vs0mg"},{"bike_id":"233ce54d-453b-4be7-81f9-eb852f571988","system_id":"levelo_inurba_marseille","lat":43.25932,"lon":5.40912,"is_reserved":false,"is_disabled":false,"rental_uris":{"android":"levelo://app?vid=233ce54d-453b-4be7-81f9-eb852f571988","ios":"levelo://app?vid=233ce54d-453b-4be7-81f9-eb852f571988"},"vehicle_type_id":"4","last_reported":1756465681,"current_range_meters":16800,"station_id":"ce4bhm92rcd13ifvqglg","pricing_plan_id":"cebpf4jnsgd1na2vs0mg"},{"bike_id":"64346152-8516-402d-8b56-fd46659eb20d","system_id":"levelo_inurba_marseille","lat":43.24071,"lon":5.37755,"is_reserved":false,"is_disabled":false,"rental_uris":{"android":"levelo://app?vid=64346152-8516-402d-8b56-fd46659eb20d","ios":"levelo://app?vid=64346152-8516-402d-8b56-fd46659eb20d"},"vehicle_type_id":"4","last_reported":1756465681,"current_range_meters":16800,"station_id":"ce4bhnp2rcd13ifvqgvg","pricing_plan_id":"cebpf4jnsgd1na2vs0mg"},{"bike_id":"0e16483d-7c29-42d6-90d2-d9cb7ef31592","system_id":"levelo_inurba_marseille","lat":43.323525,"lon":5.367527,"is_reserved":false,"is_disabled":false,"rental_uris":{"android":"levelo://app?vid=0e16483d-7c29-42d6-90d2-d9cb7ef31592","ios":"levelo://app?vid=0e16483d-7c29-42d6-90d2-d9cb7ef31592"},"vehicle_type_id":"4","last_reported":1756465681,"current_range_meters":16800,"station_id":"ce4bhsh2rcd13ifvqi2g","pricing_plan_id":"cebpf4jnsgd1na2vs0mg"},{"bike_id":"2859ae8c-18b6-4d6c-aa83-eb9336e7b92f","system_id":"levelo_inurba_marseille","lat":43.246311,"lon":5.431497,"is_reserved":false,"is_disabled":false,"rental_uris":{"android":"levelo://app?vid=2859ae8c-18b6-4d6c-aa83-eb9336e7b92f","ios":"levelo://app?vid=2859ae8c-18b6-4d6c-aa83-eb9336e7b92f"},"vehicle_type_id":"4","last_reported":1756465681,"current_range_meters":16800,"station_id":"st_d2m6c4gdas8pm72e190g","pricing_plan_id":"cebpf4jnsgd1na2vs0mg"},{"bike_id":"1948c0eb-ae73-4cae-8f3d-88d409908253","system_id":"levelo_inurba_marseille","lat":43.254483,"lon":5.376697,"is_reserved":false,"is_disabled":false,"rental_uris":{"android":"levelo://app?vid=1948c0eb-ae73-4cae-8f3d-88d409908253","ios":"levelo://app?vid=1948c0eb-ae73-4cae-8f3d-88d409908253"},"vehicle_type_id":"4","last_reported":1756465681,"current_range_meters":17200,"station_id":"ce4bhh12rcd13ifvqff0","pricing_plan_id":"cebpf4jnsgd1na2vs0mg"},{"bike_id":"2615933f-2601-429f-b7e2-f4caf5921a92","system_id":"levelo_inurba_marseille","lat":43.24384,"lon":5.37066,"is_reserved":false,"is_disabled":false,"rental_uris":{"android":"levelo://app?vid=2615933f-2601-429f-b7e2-f4caf5921a92","ios":"levelo://app?vid=2615933f-2601-429f-b7e2-f4caf5921a92"},"vehicle_type_id":"4","last_reported":1756465681,"current_range_meters":17200,"station_id":"ce4bhhh2rcd13ifvqfk0","pricing_plan_id":"cebpf4jnsgd1na2vs0mg"},{"bike_id":"6578abe3-00df-4302-be05-939c09571fce","system_id":"levelo_inurba_marseille","lat":43.27046,"lon":5.40266,"is_reserved":false,"is_disabled":false,"rental_uris":{"android":"levelo://app?vid=6578abe3-00df-4302-be05-939c09571fce","ios":"levelo://app?vid=6578abe3-00df-4302-be05-939c09571fce"},"vehicle_type_id":"4","last_reported":1756465681,"current_range_meters":17200,"station_id":"ce4bhk92rcd13ifvqgc0","pricing_plan_id":"cebpf4jnsgd1na2vs0mg"},{"bike_id":"66fede0c-7dce-451e-9da2-40306588627d","system_id":"levelo_inurba_marseille","lat":43.25928,"lon":5.40884,"is_reserved":false,"is_disabled":false,"rental_uris":{"android":"levelo://app?vid=66fede0c-7dce-451e-9da2-40306588627d","ios":"levelo://app?vid=66fede0c-7dce-451e-9da2-40306588627d"},"vehicle_type_id":"4","last_reported":1756465681,"current_range_meters":17200,"station_id":"ce4bhm92rcd13ifvqglg","pricing_plan_id":"cebpf4jnsgd1na2vs0mg"},{"bike_id":"26046b3f-47ed-4c49-b7bb-75b22b7c918b","system_id":"levelo_inurba_marseille","lat":43.30458,"lon":5.37914,"is_reserved":false,"is_disabled":false,"rental_uris":{"android":"levelo://app?vid=26046b3f-47ed-4c49-b7bb-75b22b7c918b","ios":"levelo://app?vid=26046b3f-47ed-4c49-b7bb-75b22b7c918b"},"vehicle_type_id":"4","last_reported":1756465681,"current_range_meters":17600,"station_id":"ce4bgup2rcd13ifvqcn0","pricing_plan_id":"cebpf4jnsgd1na2vs0mg"},{"bike_id":"b7334faf-f3b8-448b-9568-b921a0e48879","system_id":"levelo_inurba_marseille","lat":43.28422,"lon":5.3499,"is_reserved":false,"is_disabled":false,"rental_uris":{"android":"levelo://app?vid=b7334faf-f3b8-448b-9568-b921a0e48879","ios":"levelo://app?vid=b7334faf-f3b8-448b-9568-b921a0e48879"},"vehicle_type_id":"4","last_reported":1756465681,"current_range_meters":17600,"station_id":"ce4bhbh2rcd13ifvqepg","pricing_plan_id":"cebpf4jnsgd1na2vs0mg"},{"bike_id":"8e29fca9-58ab-4740-9e10-c4edff2a15a4","system_id":"levelo_inurba_marseille","lat":43.28613,"lon":5.35105,"is_reserved":false,"is_disabled":false,"rental_uris":{"android":"levelo://app?vid=8e29fca9-58ab-4740-9e10-c4edff2a15a4","ios":"levelo://app?vid=8e29fca9-58ab-4740-9e10-c4edff2a15a4"},"vehicle_type_id":"4","last_reported":1756465681,"current_range_meters":17600,"station_id":"ce4bhch2rcd13ifvqeug","pricing_plan_id":"cebpf4jnsgd1na2vs0mg"},{"bike_id":"ec628058-d969-44c5-837e-24508f6409d5","system_id":"levelo_inurba_marseille","lat":43.23966,"lon":5.36623,"is_reserved":false,"is_disabled":false,"rental_uris":{"android":"levelo://app?vid=ec628058-d969-44c5-837e-24508f6409d5","ios":"levelo://app?vid=ec628058-d969-44c5-837e-24508f6409d5"},"vehicle_type_id":"4","last_reported":1756465681,"current_range_meters":17600,"station_id":"ce4bhi12rcd13ifvqfp0","pricing_plan_id":"cebpf4jnsgd1na2vs0mg"},{"bike_id":"e551fc0e-fb0b-45d2-be28-bbf224471ff3","system_id":"levelo_inurba_marseille","lat":43.23961,"lon":5.36632,"is_reserved":false,"is_disabled":false,"rental_uris":{"android":"levelo://app?vid=e551fc0e-fb0b-45d2-be28-bbf224471ff3","ios":"levelo://app?vid=e551fc0e-fb0b-45d2-be28-bbf224471ff3"},"vehicle_type_id":"4","last_reported":1756465681,"current_range_meters":17600,"station_id":"ce4bhi12rcd13ifvqfp0","pricing_plan_id":"cebpf4jnsgd1na2vs0mg"},{"bike_id":"9de8861d-8e0e-43fe-8e7c-232b5feabec9","system_id":"levelo_inurba_marseille","lat":43.26503,"lon":5.39537,"is_reserved":false,"is_disabled":false,"rental_uris":{"android":"levelo://app?vid=9de8861d-8e0e-43fe-8e7c-232b5feabec9","ios":"levelo://app?vid=9de8861d-8e0e-43fe-8e7c-232b5feabec9"},"vehicle_type_id":"4","last_reported":1756465681,"current_range_meters":17600,"station_id":"ce4bhi12rcd13ifvqfq0","pricing_plan_id":"cebpf4jnsgd1na2vs0mg"},{"bike_id":"30299ad2-46a4-4821-bfbf-3ae4376ad74a","system_id":"levelo_inurba_marseille","lat":43.32096,"lon":5.36791,"is_reserved":false,"is_disabled":false,"rental_uris":{"android":"levelo://app?vid=30299ad2-46a4-4821-bfbf-3ae4376ad74a","ios":"levelo://app?vid=30299ad2-46a4-4821-bfbf-3ae4376ad74a"},"vehicle_type_id":"4","last_reported":1756465681,"current_range_meters":17600,"station_id":"ce4bhrh2rcd13ifvqhug","pricing_plan_id":"cebpf4jnsgd1na2vs0mg"},{"bike_id":"59521d5b-78d8-4d56-91a3-95a35d06475c","system_id":"levelo_inurba_marseille","lat":43.22532,"lon":5.34841,"is_reserved":false,"is_disabled":false,"rental_uris":{"android":"levelo://app?vid=59521d5b-78d8-4d56-91a3-95a35d06475c","ios":"levelo://app?vid=59521d5b-78d8-4d56-91a3-95a35d06475c"},"vehicle_type_id":"4","last_reported":1756465681,"current_range_meters":17600,"station_id":"st_cvj5dfep6f1abm77gieg","pricing_plan_id":"cebpf4jnsgd1na2vs0mg"},{"bike_id":"85b87efe-9880-42cc-892f-cc850ced9bd0","system_id":"levelo_inurba_marseille","lat":43.21751,"lon":5.34601,"is_reserved":false,"is_disabled":false,"rental_uris":{"android":"levelo://app?vid=85b87efe-9880-42cc-892f-cc850ced9bd0","ios":"levelo://app?vid=85b87efe-9880-42cc-892f-cc850ced9bd0"},"vehicle_type_id":"4","last_reported":1756465681,"current_range_meters":17600,"station_id":"st_cvj6r9ubvosntc0bgbag","pricing_plan_id":"cebpf4jnsgd1na2vs0mg"},{"bike_id":"f9a9ac4d-319f-4a45-814f-397625905680","system_id":"levelo_inurba_marseille","lat":43.21746,"lon":5.34606,"is_reserved":false,"is_disabled":false,"rental_uris":{"android":"levelo://app?vid=f9a9ac4d-319f-4a45-814f-397625905680","ios":"levelo://app?vid=f9a9ac4d-319f-4a45-814f-397625905680"},"vehicle_type_id":"4","last_reported":1756465681,"current_range_meters":17600,"station_id":"st_cvj6r9ubvosntc0bgbag","pricing_plan_id":"cebpf4jnsgd1na2vs0mg"},{"bike_id":"b7f376ed-6ad6-4bab-a0bc-ce30b84d7a4e","system_id":"levelo_inurba_marseille","lat":43.21192,"lon":5.35071,"is_reserved":false,"is_disabled":false,"rental_uris":{"android":"levelo://app?vid=b7f376ed-6ad6-4bab-a0bc-ce30b84d7a4e","ios":"levelo://app?vid=b7f376ed-6ad6-4bab-a0bc-ce30b84d7a4e"},"vehicle_type_id":"4","last_reported":1756465681,"current_range_meters":17600,"station_id":"st_cvj6sg6p6f1abm77japg","pricing_plan_id":"cebpf4jnsgd1na2vs0mg"},{"bike_id":"c0881cb5-357f-468d-a3c1-b313679c3509","system_id":"levelo_inurba_marseille","lat":43.337671,"lon":5.374507,"is_reserved":false,"is_disabled":false,"rental_uris":{"android":"levelo://app?vid=c0881cb5-357f-468d-a3c1-b313679c3509","ios":"levelo://app?vid=c0881cb5-357f-468d-a3c1-b313679c3509"},"vehicle_type_id":"4","last_reported":1756465681,"current_range_meters":18000,"station_id":"","pricing_plan_id":"cebpf4jnsgd1na2vs0mg"},{"bike_id":"329cd2e3-3f50-464b-b205-37b738369eeb","system_id":"levelo_inurba_marseille","lat":43.32315,"lon":5.36665,"is_reserved":false,"is_disabled":false,"rental_uris":{"android":"levelo://app?vid=329cd2e3-3f50-464b-b205-37b738369eeb","ios":"levelo://app?vid=329cd2e3-3f50-464b-b205-37b738369eeb"},"vehicle_type_id":"4","last_reported":1756465681,"current_range_meters":18000,"station_id":"","pricing_plan_id":"cebpf4jnsgd1na2vs0mg"},{"bike_id":"eb6d4f03-a504-4b85-a2c9-45fed98d6c89","system_id":"levelo_inurba_marseille","lat":43.28424,"lon":5.34978,"is_reserved":false,"is_disabled":false,"rental_uris":{"android":"levelo://app?vid=eb6d4f03-a504-4b85-a2c9-45fed98d6c89","ios":"levelo://app?vid=eb6d4f03-a504-4b85-a2c9-45fed98d6c89"},"vehicle_type_id":"4","last_reported":1756465681,"current_range_meters":18000,"station_id":"ce4bhbh2rcd13ifvqepg","pricing_plan_id":"cebpf4jnsgd1na2vs0mg"},{"bike_id":"b2a8c9ec-9b29-4140-9603-2de3144d183c","system_id":"levelo_inurba_marseille","lat":43.25502,"lon":5.37652,"is_reserved":false,"is_disabled":false,"rental_uris":{"android":"levelo://app?vid=b2a8c9ec-9b29-4140-9603-2de3144d183c","ios":"levelo://app?vid=b2a8c9ec-9b29-4140-9603-2de3144d183c"},"vehicle_type_id":"4","last_reported":1756465681,"current_range_meters":18000,"station_id":"ce4bhh12rcd13ifvqff0","pricing_plan_id":"cebpf4jnsgd1na2vs0mg"},{"bike_id":"5753a5f3-6a76-408a-b9a8-359a725a4ee1","system_id":"levelo_inurba_marseille","lat":43.275445,"lon":5.384398,"is_reserved":false,"is_disabled":false,"rental_uris":{"android":"levelo://app?vid=5753a5f3-6a76-408a-b9a8-359a725a4ee1","ios":"levelo://app?vid=5753a5f3-6a76-408a-b9a8-359a725a4ee1"},"vehicle_type_id":"4","last_reported":1756465681,"current_range_meters":18000,"station_id":"ce4bhh92rcd13ifvqfi0","pricing_plan_id":"cebpf4jnsgd1na2vs0mg"},{"bike_id":"93cc04ec-00cd-4c5a-9919-841c31df513d","system_id":"levelo_inurba_marseille","lat":43.25825,"lon":5.39432,"is_reserved":false,"is_disabled":false,"rental_uris":{"android":"levelo://app?vid=93cc04ec-00cd-4c5a-9919-841c31df513d","ios":"levelo://app?vid=93cc04ec-00cd-4c5a-9919-841c31df513d"},"vehicle_type_id":"4","last_reported":1756465681,"current_range_meters":18000,"station_id":"ce4bhip2rcd13ifvqft0","pricing_plan_id":"cebpf4jnsgd1na2vs0mg"},{"bike_id":"3e64b6a3-f093-4b38-82bd-c40422d84ba3","system_id":"levelo_inurba_marseille","lat":43.24173,"lon":5.39717,"is_reserved":false,"is_disabled":false,"rental_uris":{"android":"levelo://app?vid=3e64b6a3-f093-4b38-82bd-c40422d84ba3","ios":"levelo://app?vid=3e64b6a3-f093-4b38-82bd-c40422d84ba3"},"vehicle_type_id":"4","last_reported":1756465681,"current_range_meters":18000,"station_id":"ce4bhn12rcd13ifvqgpg","pricing_plan_id":"cebpf4jnsgd1na2vs0mg"},{"bike_id":"fc9b7f13-7e12-4e22-a2e9-4d73e71fe40c","system_id":"levelo_inurba_marseille","lat":43.30148,"lon":5.37404,"is_reserved":false,"is_disabled":false,"rental_uris":{"android":"levelo://app?vid=fc9b7f13-7e12-4e22-a2e9-4d73e71fe40c","ios":"levelo://app?vid=fc9b7f13-7e12-4e22-a2e9-4d73e71fe40c"},"vehicle_type_id":"4","last_reported":1756465681,"current_range_meters":18800,"station_id":"","pricing_plan_id":"cebpf4jnsgd1na2vs0mg"},{"bike_id":"0763e2a8-a261-4cd2-ad25-c4377ff4a9b9","system_id":"levelo_inurba_marseille","lat":43.29301,"lon":5.37455,"is_reserved":false,"is_disabled":false,"rental_uris":{"android":"levelo://app?vid=0763e2a8-a261-4cd2-ad25-c4377ff4a9b9","ios":"levelo://app?vid=0763e2a8-a261-4cd2-ad25-c4377ff4a9b9"},"vehicle_type_id":"4","last_reported":1756465681,"current_range_meters":18800,"station_id":"ce4bgi12rcd13ifvqb70","pricing_plan_id":"cebpf4jnsgd1na2vs0mg"},{"bike_id":"7fd18447-4482-426b-9397-efc12281ad83","system_id":"levelo_inurba_marseille","lat":43.29966,"lon":5.38497,"is_reserved":false,"is_disabled":false,"rental_uris":{"android":"levelo://app?vid=7fd18447-4482-426b-9397-efc12281ad83","ios":"levelo://app?vid=7fd18447-4482-426b-9397-efc12281ad83"},"vehicle_type_id":"4","last_reported":1756465681,"current_range_meters":18800,"station_id":"ce4bgj92rcd13ifvqbd0","pricing_plan_id":"cebpf4jnsgd1na2vs0mg"},{"bike_id":"a2ed2697-0db6-42ea-97d1-b5e4b2a41454","system_id":"levelo_inurba_marseille","lat":43.31709,"lon":5.37754,"is_reserved":false,"is_disabled":false,"rental_uris":{"android":"levelo://app?vid=a2ed2697-0db6-42ea-97d1-b5e4b2a41454","ios":"levelo://app?vid=a2ed2697-0db6-42ea-97d1-b5e4b2a41454"},"vehicle_type_id":"4","last_reported":1756465681,"current_range_meters":18800,"station_id":"ce4bgth2rcd13ifvqch0","pricing_plan_id":"cebpf4jnsgd1na2vs0mg"},{"bike_id":"8bc88455-0dc8-4b57-9083-56d4faa61b1f","system_id":"levelo_inurba_marseille","lat":43.28939,"lon":5.36637,"is_reserved":false,"is_disabled":false,"rental_uris":{"android":"levelo://app?vid=8bc88455-0dc8-4b57-9083-56d4faa61b1f","ios":"levelo://app?vid=8bc88455-0dc8-4b57-9083-56d4faa61b1f"},"vehicle_type_id":"4","last_reported":1756465681,"current_range_meters":18800,"station_id":"ce4bhap2rcd13ifvqek0","pricing_plan_id":"cebpf4jnsgd1na2vs0mg"},{"bike_id":"60863403-b289-4c9c-b2d0-3d448abf417f","system_id":"levelo_inurba_marseille","lat":43.28254,"lon":5.35085,"is_reserved":false,"is_disabled":false,"rental_uris":{"android":"levelo://app?vid=60863403-b289-4c9c-b2d0-3d448abf417f","ios":"levelo://app?vid=60863403-b289-4c9c-b2d0-3d448abf417f"},"vehicle_type_id":"4","last_reported":1756465681,"current_range_meters":18800,"station_id":"ce4bhbp2rcd13ifvqerg","pricing_plan_id":"cebpf4jnsgd1na2vs0mg"},{"bike_id":"de56a6ed-197b-4141-bdca-e04b68b822ba","system_id":"levelo_inurba_marseille","lat":43.258308,"lon":5.394361,"is_reserved":false,"is_disabled":false,"rental_uris":{"android":"levelo://app?vid=de56a6ed-197b-4141-bdca-e04b68b822ba","ios":"levelo://app?vid=de56a6ed-197b-4141-bdca-e04b68b822ba"},"vehicle_type_id":"4","last_reported":1756465681,"current_range_meters":18800,"station_id":"ce4bhip2rcd13ifvqft0","pricing_plan_id":"cebpf4jnsgd1na2vs0mg"},{"bike_id":"dc16d551-d526-4f0c-9d46-d3b5d85c9cf2","system_id":"levelo_inurba_marseille","lat":43.23205,"lon":5.35555,"is_reserved":false,"is_disabled":false,"rental_uris":{"android":"levelo://app?vid=dc16d551-d526-4f0c-9d46-d3b5d85c9cf2","ios":"levelo://app?vid=dc16d551-d526-4f0c-9d46-d3b5d85c9cf2"},"vehicle_type_id":"4","last_reported":1756465681,"current_range_meters":18800,"station_id":"ce4bhu92rcd13ifvqi70","pricing_plan_id":"cebpf4jnsgd1na2vs0mg"},{"bike_id":"3568c133-6182-4c59-8486-eb2e6cab8363","system_id":"levelo_inurba_marseille","lat":43.21198,"lon":5.3507,"is_reserved":false,"is_disabled":false,"rental_uris":{"android":"levelo://app?vid=3568c133-6182-4c59-8486-eb2e6cab8363","ios":"levelo://app?vid=3568c133-6182-4c59-8486-eb2e6cab8363"},"vehicle_type_id":"4","last_reported":1756465681,"current_range_meters":18800,"station_id":"st_cvj6sg6p6f1abm77japg","pricing_plan_id":"cebpf4jnsgd1na2vs0mg"},{"bike_id":"c821426f-b74a-4110-b371-84f0ef279375","system_id":"levelo_inurba_marseille","lat":43.31319,"lon":5.38179,"is_reserved":false,"is_disabled":false,"rental_uris":{"android":"levelo://app?vid=c821426f-b74a-4110-b371-84f0ef279375","ios":"levelo://app?vid=c821426f-b74a-4110-b371-84f0ef279375"},"vehicle_type_id":"4","last_reported":1756465681,"current_range_meters":19200,"station_id":"","pricing_plan_id":"cebpf4jnsgd1na2vs0mg"},{"bike_id":"f9ae6c14-cd03-4c62-b600-9d6cc2d50a4c","system_id":"levelo_inurba_marseille","lat":43.28359,"lon":5.40788,"is_reserved":false,"is_disabled":false,"rental_uris":{"android":"levelo://app?vid=f9ae6c14-cd03-4c62-b600-9d6cc2d50a4c","ios":"levelo://app?vid=f9ae6c14-cd03-4c62-b600-9d6cc2d50a4c"},"vehicle_type_id":"4","last_reported":1756465681,"current_range_meters":19200,"station_id":"","pricing_plan_id":"cebpf4jnsgd1na2vs0mg"},{"bike_id":"4040db22-9c50-4856-839c-7bfd3bdea085","system_id":"levelo_inurba_marseille","lat":43.28418,"lon":5.3499,"is_reserved":false,"is_disabled":false,"rental_uris":{"android":"levelo://app?vid=4040db22-9c50-4856-839c-7bfd3bdea085","ios":"levelo://app?vid=4040db22-9c50-4856-839c-7bfd3bdea085"},"vehicle_type_id":"4","last_reported":1756465681,"current_range_meters":19200,"station_id":"ce4bhbh2rcd13ifvqepg","pricing_plan_id":"cebpf4jnsgd1na2vs0mg"},{"bike_id":"b9ebb1f7-b5f7-4fe9-8574-9b05344be7d5","system_id":"levelo_inurba_marseille","lat":43.28412,"lon":5.34995,"is_reserved":false,"is_disabled":false,"rental_uris":{"android":"levelo://app?vid=b9ebb1f7-b5f7-4fe9-8574-9b05344be7d5","ios":"levelo://app?vid=b9ebb1f7-b5f7-4fe9-8574-9b05344be7d5"},"vehicle_type_id":"4","last_reported":1756465681,"current_range_meters":19200,"station_id":"ce4bhbh2rcd13ifvqepg","pricing_plan_id":"cebpf4jnsgd1na2vs0mg"},{"bike_id":"ae5218ac-b720-4178-9dfe-a8b27a46e711","system_id":"levelo_inurba_marseille","lat":43.24656,"lon":5.3889,"is_reserved":false,"is_disabled":false,"rental_uris":{"android":"levelo://app?vid=ae5218ac-b720-4178-9dfe-a8b27a46e711","ios":"levelo://app?vid=ae5218ac-b720-4178-9dfe-a8b27a46e711"},"vehicle_type_id":"4","last_reported":1756465681,"current_range_meters":19200,"station_id":"ce4bhg12rcd13ifvqf60","pricing_plan_id":"cebpf4jnsgd1na2vs0mg"},{"bike_id":"c23b83c0-40a3-40d2-9d5a-ffeb9b013795","system_id":"levelo_inurba_marseille","lat":43.26189,"lon":5.37445,"is_reserved":false,"is_disabled":false,"rental_uris":{"android":"levelo://app?vid=c23b83c0-40a3-40d2-9d5a-ffeb9b013795","ios":"levelo://app?vid=c23b83c0-40a3-40d2-9d5a-ffeb9b013795"},"vehicle_type_id":"4","last_reported":1756465681,"current_range_meters":19200,"station_id":"ce4bhgp2rcd13ifvqfc0","pricing_plan_id":"cebpf4jnsgd1na2vs0mg"},{"bike_id":"a1fa2973-494f-4d65-8645-1762e342b63c","system_id":"levelo_inurba_marseille","lat":43.26198,"lon":5.3793,"is_reserved":false,"is_disabled":false,"rental_uris":{"android":"levelo://app?vid=a1fa2973-494f-4d65-8645-1762e342b63c","ios":"levelo://app?vid=a1fa2973-494f-4d65-8645-1762e342b63c"},"vehicle_type_id":"4","last_reported":1756465681,"current_range_meters":19200,"station_id":"ce4bhjp2rcd13ifvqg90","pricing_plan_id":"cebpf4jnsgd1na2vs0mg"},{"bike_id":"1abc099f-e9b2-4892-a789-192c456b7601","system_id":"levelo_inurba_marseille","lat":43.25911,"lon":5.40874,"is_reserved":false,"is_disabled":false,"rental_uris":{"android":"levelo://app?vid=1abc099f-e9b2-4892-a789-192c456b7601","ios":"levelo://app?vid=1abc099f-e9b2-4892-a789-192c456b7601"},"vehicle_type_id":"4","last_reported":1756465681,"current_range_meters":19200,"station_id":"ce4bhm92rcd13ifvqglg","pricing_plan_id":"cebpf4jnsgd1na2vs0mg"},{"bike_id":"05955278-86d9-47b6-8d3a-f6df9e3a30d4","system_id":"levelo_inurba_marseille","lat":43.32097,"lon":5.36775,"is_reserved":false,"is_disabled":false,"rental_uris":{"android":"levelo://app?vid=05955278-86d9-47b6-8d3a-f6df9e3a30d4","ios":"levelo://app?vid=05955278-86d9-47b6-8d3a-f6df9e3a30d4"},"vehicle_type_id":"4","last_reported":1756465681,"current_range_meters":19200,"station_id":"ce4bhrh2rcd13ifvqhug","pricing_plan_id":"cebpf4jnsgd1na2vs0mg"},{"bike_id":"90f389e7-28d7-429a-9e07-12c38804e3a5","system_id":"levelo_inurba_marseille","lat":43.24163,"lon":5.36398,"is_reserved":false,"is_disabled":false,"rental_uris":{"android":"levelo://app?vid=90f389e7-28d7-429a-9e07-12c38804e3a5","ios":"levelo://app?vid=90f389e7-28d7-429a-9e07-12c38804e3a5"},"vehicle_type_id":"4","last_reported":1756465681,"current_range_meters":19200,"station_id":"cpo36qri1sfpv3e86is0","pricing_plan_id":"cebpf4jnsgd1na2vs0mg"},{"bike_id":"8435bb2b-2ad9-43a4-abd1-2def052f85e8","system_id":"levelo_inurba_marseille","lat":43.21754,"lon":5.34613,"is_reserved":false,"is_disabled":false,"rental_uris":{"android":"levelo://app?vid=8435bb2b-2ad9-43a4-abd1-2def052f85e8","ios":"levelo://app?vid=8435bb2b-2ad9-43a4-abd1-2def052f85e8"},"vehicle_type_id":"4","last_reported":1756465681,"current_range_meters":19200,"station_id":"st_cvj6r9ubvosntc0bgbag","pricing_plan_id":"cebpf4jnsgd1na2vs0mg"},{"bike_id":"27929178-4d90-4b01-bb2a-e4db1c2cf3b2","system_id":"levelo_inurba_marseille","lat":43.21729,"lon":5.34633,"is_reserved":false,"is_disabled":false,"rental_uris":{"android":"levelo://app?vid=27929178-4d90-4b01-bb2a-e4db1c2cf3b2","ios":"levelo://app?vid=27929178-4d90-4b01-bb2a-e4db1c2cf3b2"},"vehicle_type_id":"4","last_reported":1756465681,"current_range_meters":19200,"station_id":"st_cvj6r9ubvosntc0bgbag","pricing_plan_id":"cebpf4jnsgd1na2vs0mg"},{"bike_id":"e9cb6436-0428-41b2-925a-cf5b31128397","system_id":"levelo_inurba_marseille","lat":43.32841,"lon":5.391445,"is_reserved":false,"is_disabled":false,"rental_uris":{"android":"levelo://app?vid=e9cb6436-0428-41b2-925a-cf5b31128397","ios":"levelo://app?vid=e9cb6436-0428-41b2-925a-cf5b31128397"},"vehicle_type_id":"4","last_reported":1756465681,"current_range_meters":19600,"station_id":"","pricing_plan_id":"cebpf4jnsgd1na2vs0mg"},{"bike_id":"cbeb5191-1a50-4bcf-84b3-54f1b20400d7","system_id":"levelo_inurba_marseille","lat":43.30069,"lon":5.36386,"is_reserved":false,"is_disabled":false,"rental_uris":{"android":"levelo://app?vid=cbeb5191-1a50-4bcf-84b3-54f1b20400d7","ios":"levelo://app?vid=cbeb5191-1a50-4bcf-84b3-54f1b20400d7"},"vehicle_type_id":"4","last_reported":1756465681,"current_range_meters":19600,"station_id":"","pricing_plan_id":"cebpf4jnsgd1na2vs0mg"},{"bike_id":"66ab05e3-5fb4-49ea-9d40-847222fed897","system_id":"levelo_inurba_marseille","lat":43.225284,"lon":5.348295,"is_reserved":false,"is_disabled":false,"rental_uris":{"android":"levelo://app?vid=66ab05e3-5fb4-49ea-9d40-847222fed897","ios":"levelo://app?vid=66ab05e3-5fb4-49ea-9d40-847222fed897"},"vehicle_type_id":"4","last_reported":1756465681,"current_range_meters":19600,"station_id":"","pricing_plan_id":"cebpf4jnsgd1na2vs0mg"},{"bike_id":"37e18486-81d7-4abd-9f5c-1da572297c85","system_id":"levelo_inurba_marseille","lat":43.23157,"lon":5.43717,"is_reserved":false,"is_disabled":false,"rental_uris":{"android":"levelo://app?vid=37e18486-81d7-4abd-9f5c-1da572297c85","ios":"levelo://app?vid=37e18486-81d7-4abd-9f5c-1da572297c85"},"vehicle_type_id":"4","last_reported":1756465681,"current_range_meters":19600,"station_id":"ce4bhmp2rcd13ifvqgog","pricing_plan_id":"cebpf4jnsgd1na2vs0mg"},{"bike_id":"f1fbb265-fe65-4215-a98a-21daf0a7df7c","system_id":"levelo_inurba_marseille","lat":43.24079,"lon":5.37755,"is_reserved":false,"is_disabled":false,"rental_uris":{"android":"levelo://app?vid=f1fbb265-fe65-4215-a98a-21daf0a7df7c","ios":"levelo://app?vid=f1fbb265-fe65-4215-a98a-21daf0a7df7c"},"vehicle_type_id":"4","last_reported":1756465681,"current_range_meters":19600,"station_id":"ce4bhnp2rcd13ifvqgvg","pricing_plan_id":"cebpf4jnsgd1na2vs0mg"},{"bike_id":"e46aaf8e-7181-4135-9d88-d22a5ee21b85","system_id":"levelo_inurba_marseille","lat":43.27992,"lon":5.41664,"is_reserved":false,"is_disabled":false,"rental_uris":{"android":"levelo://app?vid=e46aaf8e-7181-4135-9d88-d22a5ee21b85","ios":"levelo://app?vid=e46aaf8e-7181-4135-9d88-d22a5ee21b85"},"vehicle_type_id":"4","last_reported":1756465681,"current_range_meters":19600,"station_id":"ce4bho12rcd13ifvqh1g","pricing_plan_id":"cebpf4jnsgd1na2vs0mg"},{"bike_id":"52445a9d-969d-4194-8338-3903c8755925","system_id":"levelo_inurba_marseille","lat":43.28251,"lon":5.39016,"is_reserved":false,"is_disabled":false,"rental_uris":{"android":"levelo://app?vid=52445a9d-969d-4194-8338-3903c8755925","ios":"levelo://app?vid=52445a9d-969d-4194-8338-3903c8755925"},"vehicle_type_id":"4","last_reported":1756465681,"current_range_meters":20000,"station_id":"","pricing_plan_id":"cebpf4jnsgd1na2vs0mg"},{"bike_id":"e0b4c03b-1691-4b36-9ebc-35fa149798e4","system_id":"levelo_inurba_marseille","lat":43.337543,"lon":5.37449,"is_reserved":false,"is_disabled":false,"rental_uris":{"android":"levelo://app?vid=e0b4c03b-1691-4b36-9ebc-35fa149798e4","ios":"levelo://app?vid=e0b4c03b-1691-4b36-9ebc-35fa149798e4"},"vehicle_type_id":"4","last_reported":1756465681,"current_range_meters":20000,"station_id":"","pricing_plan_id":"cebpf4jnsgd1na2vs0mg"},{"bike_id":"741726e8-eaa6-4ba4-8781-1edc0c0dd9ac","system_id":"levelo_inurba_marseille","lat":43.30147,"lon":5.38038,"is_reserved":false,"is_disabled":false,"rental_uris":{"android":"levelo://app?vid=741726e8-eaa6-4ba4-8781-1edc0c0dd9ac","ios":"levelo://app?vid=741726e8-eaa6-4ba4-8781-1edc0c0dd9ac"},"vehicle_type_id":"4","last_reported":1756465681,"current_range_meters":20000,"station_id":"ce4bgjp2rcd13ifvqbh0","pricing_plan_id":"cebpf4jnsgd1na2vs0mg"},{"bike_id":"aa07f7a2-80ca-4bab-a15e-dd4637aa690b","system_id":"levelo_inurba_marseille","lat":43.30147,"lon":5.37405,"is_reserved":false,"is_disabled":false,"rental_uris":{"android":"levelo://app?vid=aa07f7a2-80ca-4bab-a15e-dd4637aa690b","ios":"levelo://app?vid=aa07f7a2-80ca-4bab-a15e-dd4637aa690b"},"vehicle_type_id":"4","last_reported":1756465681,"current_range_meters":20000,"station_id":"ce4bgs92rcd13ifvqcc0","pricing_plan_id":"cebpf4jnsgd1na2vs0mg"},{"bike_id":"61ce8c9e-e7ad-4e2e-ac20-53d641ba5122","system_id":"levelo_inurba_marseille","lat":43.28618,"lon":5.35108,"is_reserved":false,"is_disabled":false,"rental_uris":{"android":"levelo://app?vid=61ce8c9e-e7ad-4e2e-ac20-53d641ba5122","ios":"levelo://app?vid=61ce8c9e-e7ad-4e2e-ac20-53d641ba5122"},"vehicle_type_id":"4","last_reported":1756465681,"current_range_meters":20000,"station_id":"ce4bhch2rcd13ifvqeug","pricing_plan_id":"cebpf4jnsgd1na2vs0mg"},{"bike_id":"2f2e7186-808a-4d0b-9b06-34b0a1364cd3","system_id":"levelo_inurba_marseille","lat":43.25073,"lon":5.39527,"is_reserved":false,"is_disabled":false,"rental_uris":{"android":"levelo://app?vid=2f2e7186-808a-4d0b-9b06-34b0a1364cd3","ios":"levelo://app?vid=2f2e7186-808a-4d0b-9b06-34b0a1364cd3"},"vehicle_type_id":"4","last_reported":1756465681,"current_range_meters":20000,"station_id":"ce4bhm12rcd13ifvqgkg","pricing_plan_id":"cebpf4jnsgd1na2vs0mg"},{"bike_id":"4a60f2b9-e5c0-4ac3-9bb5-a27294d14e9b","system_id":"levelo_inurba_marseille","lat":43.24054,"lon":5.37723,"is_reserved":false,"is_disabled":false,"rental_uris":{"android":"levelo://app?vid=4a60f2b9-e5c0-4ac3-9bb5-a27294d14e9b","ios":"levelo://app?vid=4a60f2b9-e5c0-4ac3-9bb5-a27294d14e9b"},"vehicle_type_id":"4","last_reported":1756465681,"current_range_meters":20000,"station_id":"ce4bhnp2rcd13ifvqgvg","pricing_plan_id":"cebpf4jnsgd1na2vs0mg"},{"bike_id":"ef0a6458-4342-4a3f-ac97-320cd843764a","system_id":"levelo_inurba_marseille","lat":43.24947,"lon":5.4049,"is_reserved":false,"is_disabled":false,"rental_uris":{"android":"levelo://app?vid=ef0a6458-4342-4a3f-ac97-320cd843764a","ios":"levelo://app?vid=ef0a6458-4342-4a3f-ac97-320cd843764a"},"vehicle_type_id":"4","last_reported":1756465681,"current_range_meters":20000,"station_id":"st_d2ngiaodas8pm72gd1h0","pricing_plan_id":"cebpf4jnsgd1na2vs0mg"},{"bike_id":"029d0bb6-0710-49d0-b018-b956f92713b6","system_id":"levelo_inurba_marseille","lat":43.28109,"lon":5.42662,"is_reserved":false,"is_disabled":false,"rental_uris":{"android":"levelo://app?vid=029d0bb6-0710-49d0-b018-b956f92713b6","ios":"levelo://app?vid=029d0bb6-0710-49d0-b018-b956f92713b6"},"vehicle_type_id":"4","last_reported":1756465681,"current_range_meters":20400,"station_id":"","pricing_plan_id":"cebpf4jnsgd1na2vs0mg"},{"bike_id":"39f4effb-8f60-4f64-985a-e0f340550f89","system_id":"levelo_inurba_marseille","lat":43.28418,"lon":5.3498,"is_reserved":false,"is_disabled":false,"rental_uris":{"android":"levelo://app?vid=39f4effb-8f60-4f64-985a-e0f340550f89","ios":"levelo://app?vid=39f4effb-8f60-4f64-985a-e0f340550f89"},"vehicle_type_id":"4","last_reported":1756465681,"current_range_meters":20400,"station_id":"ce4bhbh2rcd13ifvqepg","pricing_plan_id":"cebpf4jnsgd1na2vs0mg"},{"bike_id":"9f19a926-3b3b-48d6-9b41-2aa58f711051","system_id":"levelo_inurba_marseille","lat":43.2828,"lon":5.35067,"is_reserved":false,"is_disabled":false,"rental_uris":{"android":"levelo://app?vid=9f19a926-3b3b-48d6-9b41-2aa58f711051","ios":"levelo://app?vid=9f19a926-3b3b-48d6-9b41-2aa58f711051"},"vehicle_type_id":"4","last_reported":1756465681,"current_range_meters":20400,"station_id":"ce4bhbp2rcd13ifvqerg","pricing_plan_id":"cebpf4jnsgd1na2vs0mg"},{"bike_id":"b9266b95-b70e-4560-94bc-83d77fdbb79b","system_id":"levelo_inurba_marseille","lat":43.26211,"lon":5.40444,"is_reserved":false,"is_disabled":false,"rental_uris":{"android":"levelo://app?vid=b9266b95-b70e-4560-94bc-83d77fdbb79b","ios":"levelo://app?vid=b9266b95-b70e-4560-94bc-83d77fdbb79b"},"vehicle_type_id":"4","last_reported":1756465681,"current_range_meters":20400,"station_id":"ce4bhmh2rcd13ifvqgmg","pricing_plan_id":"cebpf4jnsgd1na2vs0mg"},{"bike_id":"ee49d36c-d795-490f-bb46-9055ad09f19d","system_id":"levelo_inurba_marseille","lat":43.2315,"lon":5.43717,"is_reserved":false,"is_disabled":false,"rental_uris":{"android":"levelo://app?vid=ee49d36c-d795-490f-bb46-9055ad09f19d","ios":"levelo://app?vid=ee49d36c-d795-490f-bb46-9055ad09f19d"},"vehicle_type_id":"4","last_reported":1756465681,"current_range_meters":20400,"station_id":"ce4bhmp2rcd13ifvqgog","pricing_plan_id":"cebpf4jnsgd1na2vs0mg"},{"bike_id":"49f72641-d9d1-474b-9179-38fbcf44f56b","system_id":"levelo_inurba_marseille","lat":43.29698,"lon":5.37675,"is_reserved":false,"is_disabled":false,"rental_uris":{"android":"levelo://app?vid=49f72641-d9d1-474b-9179-38fbcf44f56b","ios":"levelo://app?vid=49f72641-d9d1-474b-9179-38fbcf44f56b"},"vehicle_type_id":"4","last_reported":1756465681,"current_range_meters":20800,"station_id":"ce4bgkh2rcd13ifvqbl0","pricing_plan_id":"cebpf4jnsgd1na2vs0mg"},{"bike_id":"92a42922-38ec-4877-8344-f51fbb6c49e7","system_id":"levelo_inurba_marseille","lat":43.30144,"lon":5.37416,"is_reserved":false,"is_disabled":false,"rental_uris":{"android":"levelo://app?vid=92a42922-38ec-4877-8344-f51fbb6c49e7","ios":"levelo://app?vid=92a42922-38ec-4877-8344-f51fbb6c49e7"},"vehicle_type_id":"4","last_reported":1756465681,"current_range_meters":20800,"station_id":"ce4bgs92rcd13ifvqcc0","pricing_plan_id":"cebpf4jnsgd1na2vs0mg"},{"bike_id":"990a7859-f6a7-48a1-8ad5-4d3198c024fc","system_id":"levelo_inurba_marseille","lat":43.27371,"lon":5.36262,"is_reserved":false,"is_disabled":false,"rental_uris":{"android":"levelo://app?vid=990a7859-f6a7-48a1-8ad5-4d3198c024fc","ios":"levelo://app?vid=990a7859-f6a7-48a1-8ad5-4d3198c024fc"},"vehicle_type_id":"4","last_reported":1756465681,"current_range_meters":21600,"station_id":"ce4bhbh2rcd13ifvqeo0","pricing_plan_id":"cebpf4jnsgd1na2vs0mg"},{"bike_id":"e37682fb-543a-4f6f-ac56-d312bb768607","system_id":"levelo_inurba_marseille","lat":43.278168,"lon":5.407094,"is_reserved":false,"is_disabled":false,"rental_uris":{"android":"levelo://app?vid=e37682fb-543a-4f6f-ac56-d312bb768607","ios":"levelo://app?vid=e37682fb-543a-4f6f-ac56-d312bb768607"},"vehicle_type_id":"4","last_reported":1756465681,"current_range_meters":21600,"station_id":"ce4bhnh2rcd13ifvqgtg","pricing_plan_id":"cebpf4jnsgd1na2vs0mg"},{"bike_id":"b63e190f-51f9-4632-a617-20e60d6c22c6","system_id":"levelo_inurba_marseille","lat":43.21754,"lon":5.34595,"is_reserved":false,"is_disabled":false,"rental_uris":{"android":"levelo://app?vid=b63e190f-51f9-4632-a617-20e60d6c22c6","ios":"levelo://app?vid=b63e190f-51f9-4632-a617-20e60d6c22c6"},"vehicle_type_id":"4","last_reported":1756465681,"current_range_meters":21600,"station_id":"st_cvj6r9ubvosntc0bgbag","pricing_plan_id":"cebpf4jnsgd1na2vs0mg"},{"bike_id":"908af0b7-7b6d-458f-80b8-bc279165ea39","system_id":"levelo_inurba_marseille","lat":43.27613,"lon":5.36125,"is_reserved":false,"is_disabled":false,"rental_uris":{"android":"levelo://app?vid=908af0b7-7b6d-458f-80b8-bc279165ea39","ios":"levelo://app?vid=908af0b7-7b6d-458f-80b8-bc279165ea39"},"vehicle_type_id":"4","last_reported":1756465681,"current_range_meters":22000,"station_id":"ce4bgj92rcd13ifvqbe0","pricing_plan_id":"cebpf4jnsgd1na2vs0mg"},{"bike_id":"811d38a2-b1a3-4165-87cb-544c28852b6b","system_id":"levelo_inurba_marseille","lat":43.29693,"lon":5.37281,"is_reserved":false,"is_disabled":false,"rental_uris":{"android":"levelo://app?vid=811d38a2-b1a3-4165-87cb-544c28852b6b","ios":"levelo://app?vid=811d38a2-b1a3-4165-87cb-544c28852b6b"},"vehicle_type_id":"4","last_reported":1756465681,"current_range_meters":22000,"station_id":"ce4bgk12rcd13ifvqbj0","pricing_plan_id":"cebpf4jnsgd1na2vs0mg"},{"bike_id":"bcd9eb59-39f1-4ef3-9e4e-afd7312b3f62","system_id":"levelo_inurba_marseille","lat":43.24647,"lon":5.38891,"is_reserved":false,"is_disabled":false,"rental_uris":{"android":"levelo://app?vid=bcd9eb59-39f1-4ef3-9e4e-afd7312b3f62","ios":"levelo://app?vid=bcd9eb59-39f1-4ef3-9e4e-afd7312b3f62"},"vehicle_type_id":"4","last_reported":1756465681,"current_range_meters":22000,"station_id":"ce4bhg12rcd13ifvqf60","pricing_plan_id":"cebpf4jnsgd1na2vs0mg"},{"bike_id":"e7d260ac-9c75-4400-9157-63392fd2131b","system_id":"levelo_inurba_marseille","lat":43.2549,"lon":5.37658,"is_reserved":false,"is_disabled":false,"rental_uris":{"android":"levelo://app?vid=e7d260ac-9c75-4400-9157-63392fd2131b","ios":"levelo://app?vid=e7d260ac-9c75-4400-9157-63392fd2131b"},"vehicle_type_id":"4","last_reported":1756465681,"current_range_meters":22000,"station_id":"ce4bhh12rcd13ifvqff0","pricing_plan_id":"cebpf4jnsgd1na2vs0mg"},{"bike_id":"668451d0-20ff-4eb8-8063-a89e7b98ba33","system_id":"levelo_inurba_marseille","lat":43.24386,"lon":5.37057,"is_reserved":false,"is_disabled":false,"rental_uris":{"android":"levelo://app?vid=668451d0-20ff-4eb8-8063-a89e7b98ba33","ios":"levelo://app?vid=668451d0-20ff-4eb8-8063-a89e7b98ba33"},"vehicle_type_id":"4","last_reported":1756465681,"current_range_meters":22000,"station_id":"ce4bhhh2rcd13ifvqfk0","pricing_plan_id":"cebpf4jnsgd1na2vs0mg"},{"bike_id":"9f2864b5-bb62-4da3-9891-57f02357485e","system_id":"levelo_inurba_marseille","lat":43.28002,"lon":5.40012,"is_reserved":false,"is_disabled":false,"rental_uris":{"android":"levelo://app?vid=9f2864b5-bb62-4da3-9891-57f02357485e","ios":"levelo://app?vid=9f2864b5-bb62-4da3-9891-57f02357485e"},"vehicle_type_id":"4","last_reported":1756465681,"current_range_meters":22000,"station_id":"ce4bho92rcd13ifvqh4g","pricing_plan_id":"cebpf4jnsgd1na2vs0mg"},{"bike_id":"6a563652-ba47-4277-8df1-f55c4c7a9895","system_id":"levelo_inurba_marseille","lat":43.24949,"lon":5.40482,"is_reserved":false,"is_disabled":false,"rental_uris":{"android":"levelo://app?vid=6a563652-ba47-4277-8df1-f55c4c7a9895","ios":"levelo://app?vid=6a563652-ba47-4277-8df1-f55c4c7a9895"},"vehicle_type_id":"4","last_reported":1756465681,"current_range_meters":22000,"station_id":"st_d2ngiaodas8pm72gd1h0","pricing_plan_id":"cebpf4jnsgd1na2vs0mg"},{"bike_id":"3d001eb0-bccb-4a95-9fb4-1768520483ff","system_id":"levelo_inurba_marseille","lat":43.22559,"lon":5.41615,"is_reserved":false,"is_disabled":false,"rental_uris":{"android":"levelo://app?vid=3d001eb0-bccb-4a95-9fb4-1768520483ff","ios":"levelo://app?vid=3d001eb0-bccb-4a95-9fb4-1768520483ff"},"vehicle_type_id":"4","last_reported":1756465681,"current_range_meters":22000,"station_id":"st_d2o4gvlbi1j2169b742g","pricing_plan_id":"cebpf4jnsgd1na2vs0mg"},{"bike_id":"e91f497a-c0ba-4a6b-907d-a5f1f03f205d","system_id":"levelo_inurba_marseille","lat":43.290872,"lon":5.365601,"is_reserved":false,"is_disabled":false,"rental_uris":{"android":"levelo://app?vid=e91f497a-c0ba-4a6b-907d-a5f1f03f205d","ios":"levelo://app?vid=e91f497a-c0ba-4a6b-907d-a5f1f03f205d"},"vehicle_type_id":"4","last_reported":1756465681,"current_range_meters":22400,"station_id":"","pricing_plan_id":"cebpf4jnsgd1na2vs0mg"},{"bike_id":"b4a53500-0376-4d6c-95c7-4135bddb09a4","system_id":"levelo_inurba_marseille","lat":43.25579,"lon":5.38232,"is_reserved":false,"is_disabled":false,"rental_uris":{"android":"levelo://app?vid=b4a53500-0376-4d6c-95c7-4135bddb09a4","ios":"levelo://app?vid=b4a53500-0376-4d6c-95c7-4135bddb09a4"},"vehicle_type_id":"4","last_reported":1756465681,"current_range_meters":22400,"station_id":"ce4bhih2rcd13ifvqfs0","pricing_plan_id":"cebpf4jnsgd1na2vs0mg"},{"bike_id":"110f1c02-fc96-407e-995f-720380f10bc7","system_id":"levelo_inurba_marseille","lat":43.314391,"lon":5.369609,"is_reserved":false,"is_disabled":false,"rental_uris":{"android":"levelo://app?vid=110f1c02-fc96-407e-995f-720380f10bc7","ios":"levelo://app?vid=110f1c02-fc96-407e-995f-720380f10bc7"},"vehicle_type_id":"4","last_reported":1756465681,"current_range_meters":22800,"station_id":"","pricing_plan_id":"cebpf4jnsgd1na2vs0mg"},{"bike_id":"ed9860a8-ee05-43eb-9b70-b44d5cc1fa35","system_id":"levelo_inurba_marseille","lat":43.30698,"lon":5.40032,"is_reserved":false,"is_disabled":false,"rental_uris":{"android":"levelo://app?vid=ed9860a8-ee05-43eb-9b70-b44d5cc1fa35","ios":"levelo://app?vid=ed9860a8-ee05-43eb-9b70-b44d5cc1fa35"},"vehicle_type_id":"4","last_reported":1756465681,"current_range_meters":22800,"station_id":"","pricing_plan_id":"cebpf4jnsgd1na2vs0mg"},{"bike_id":"677065a1-bd90-46cf-976c-983b28b2fce1","system_id":"levelo_inurba_marseille","lat":43.2979,"lon":5.38099,"is_reserved":false,"is_disabled":false,"rental_uris":{"android":"levelo://app?vid=677065a1-bd90-46cf-976c-983b28b2fce1","ios":"levelo://app?vid=677065a1-bd90-46cf-976c-983b28b2fce1"},