{"last_updated":1781636941,"ttl":60,"version":"2.2","data":{"bikes":[{"bike_id":"a15dd3fd-a54e-4add-a3c0-b20a9760fd44","system_id":"levelo_inurba_marseille","lat":43.337444,"lon":5.374475,"is_reserved":false,"is_disabled":false,"rental_uris":{"android":"levelo://app?vid=a15dd3fd-a54e-4add-a3c0-b20a9760fd44","ios":"levelo://app?vid=a15dd3fd-a54e-4add-a3c0-b20a9760fd44"},"vehicle_type_id":"4","last_reported":1781636942,"current_range_meters":0,"station_id":"","pricing_plan_id":"cebpf4jnsgd1na2vs0mg"},{"bike_id":"899df468-a074-46f1-bbcc-3ff11db4246a","system_id":"levelo_inurba_marseille","lat":43.24387,"lon":5.37059,"is_reserved":false,"is_disabled":false,"rental_uris":{"android":"levelo://app?vid=899df468-a074-46f1-bbcc-3ff11db4246a","ios":"levelo://app?vid=899df468-a074-46f1-bbcc-3ff11db4246a"},"vehicle_type_id":"4","last_reported":1781636942,"current_range_meters":2000,"station_id":"ce4bhhh2rcd13ifvqfk0","pricing_plan_id":"cebpf4jnsgd1na2vs0mg"},{"bike_id":"a08e62cd-d6b0-4762-aba3-652f57454ec6","system_id":"levelo_inurba_marseille","lat":43.293068,"lon":5.371866,"is_reserved":false,"is_disabled":false,"rental_uris":{"android":"levelo://app?vid=a08e62cd-d6b0-4762-aba3-652f57454ec6","ios":"levelo://app?vid=a08e62cd-d6b0-4762-aba3-652f57454ec6"},"vehicle_type_id":"4","last_reported":1781636942,"current_range_meters":2800,"station_id":"ce4bgh92rcd13ifvqb40","pricing_plan_id":"cebpf4jnsgd1na2vs0mg"},{"bike_id":"3e01816b-0443-40ab-a544-cd4d2a798b82","system_id":"levelo_inurba_marseille","lat":43.28413,"lon":5.37519,"is_reserved":false,"is_disabled":false,"rental_uris":{"android":"levelo://app?vid=3e01816b-0443-40ab-a544-cd4d2a798b82","ios":"levelo://app?vid=3e01816b-0443-40ab-a544-cd4d2a798b82"},"vehicle_type_id":"4","last_reported":1781636942,"current_range_meters":2800,"station_id":"ce4bh412rcd13ifvqds0","pricing_plan_id":"cebpf4jnsgd1na2vs0mg"},{"bike_id":"7443ce09-f05d-4b29-bf03-042c0332189c","system_id":"levelo_inurba_marseille","lat":43.2621,"lon":5.37441,"is_reserved":false,"is_disabled":false,"rental_uris":{"android":"levelo://app?vid=7443ce09-f05d-4b29-bf03-042c0332189c","ios":"levelo://app?vid=7443ce09-f05d-4b29-bf03-042c0332189c"},"vehicle_type_id":"4","last_reported":1781636942,"current_range_meters":2800,"station_id":"ce4bhgp2rcd13ifvqfc0","pricing_plan_id":"cebpf4jnsgd1na2vs0mg"},{"bike_id":"270cf2d2-4c8d-4fd6-98e0-7d5837c37284","system_id":"levelo_inurba_marseille","lat":43.21789,"lon":5.34575,"is_reserved":false,"is_disabled":true,"rental_uris":{"android":"levelo://app?vid=270cf2d2-4c8d-4fd6-98e0-7d5837c37284","ios":"levelo://app?vid=270cf2d2-4c8d-4fd6-98e0-7d5837c37284"},"vehicle_type_id":"4","last_reported":1781636942,"current_range_meters":2800,"station_id":"","pricing_plan_id":"cebpf4jnsgd1na2vs0mg"},{"bike_id":"35c5e8a1-581a-4995-b370-d5c1acb64964","system_id":"levelo_inurba_marseille","lat":43.30416,"lon":5.38856,"is_reserved":false,"is_disabled":false,"rental_uris":{"android":"levelo://app?vid=35c5e8a1-581a-4995-b370-d5c1acb64964","ios":"levelo://app?vid=35c5e8a1-581a-4995-b370-d5c1acb64964"},"vehicle_type_id":"4","last_reported":1781636942,"current_range_meters":2800,"station_id":"ce4bgk12rcd13ifvqbi0","pricing_plan_id":"cebpf4jnsgd1na2vs0mg"},{"bike_id":"1561ef3b-824b-4710-bc8d-76e516611443","system_id":"levelo_inurba_marseille","lat":43.30026,"lon":5.38818,"is_reserved":false,"is_disabled":false,"rental_uris":{"android":"levelo://app?vid=1561ef3b-824b-4710-bc8d-76e516611443","ios":"levelo://app?vid=1561ef3b-824b-4710-bc8d-76e516611443"},"vehicle_type_id":"4","last_reported":1781636942,"current_range_meters":2800,"station_id":"","pricing_plan_id":"cebpf4jnsgd1na2vs0mg"},{"bike_id":"42570adb-e783-4566-a45a-889e0373e1da","system_id":"levelo_inurba_marseille","lat":43.27955,"lon":5.3869,"is_reserved":false,"is_disabled":true,"rental_uris":{"android":"levelo://app?vid=42570adb-e783-4566-a45a-889e0373e1da","ios":"levelo://app?vid=42570adb-e783-4566-a45a-889e0373e1da"},"vehicle_type_id":"4","last_reported":1781636942,"current_range_meters":2800,"station_id":"ce4bhg12rcd13ifvqf80","pricing_plan_id":"cebpf4jnsgd1na2vs0mg"},{"bike_id":"f6528a1b-d345-4d39-9c6e-5b207c11bf7d","system_id":"levelo_inurba_marseille","lat":43.28708,"lon":5.3742,"is_reserved":false,"is_disabled":false,"rental_uris":{"android":"levelo://app?vid=f6528a1b-d345-4d39-9c6e-5b207c11bf7d","ios":"levelo://app?vid=f6528a1b-d345-4d39-9c6e-5b207c11bf7d"},"vehicle_type_id":"4","last_reported":1781636942,"current_range_meters":2800,"station_id":"ce4bh3p2rcd13ifvqdq0","pricing_plan_id":"cebpf4jnsgd1na2vs0mg"},{"bike_id":"1d819716-bc57-4832-acbc-09c9e1188488","system_id":"levelo_inurba_marseille","lat":43.29616,"lon":5.37153,"is_reserved":false,"is_disabled":false,"rental_uris":{"android":"levelo://app?vid=1d819716-bc57-4832-acbc-09c9e1188488","ios":"levelo://app?vid=1d819716-bc57-4832-acbc-09c9e1188488"},"vehicle_type_id":"4","last_reported":1781636942,"current_range_meters":2800,"station_id":"ce4bgnh2rcd13ifvqc0g","pricing_plan_id":"cebpf4jnsgd1na2vs0mg"},{"bike_id":"cd845403-ce24-405a-aa17-72c12007fb35","system_id":"levelo_inurba_marseille","lat":43.29141,"lon":5.38489,"is_reserved":false,"is_disabled":false,"rental_uris":{"android":"levelo://app?vid=cd845403-ce24-405a-aa17-72c12007fb35","ios":"levelo://app?vid=cd845403-ce24-405a-aa17-72c12007fb35"},"vehicle_type_id":"4","last_reported":1781636942,"current_range_meters":2800,"station_id":"","pricing_plan_id":"cebpf4jnsgd1na2vs0mg"},{"bike_id":"9378267c-38b9-43e0-8ea6-b991c1cbff7c","system_id":"levelo_inurba_marseille","lat":43.32335,"lon":5.39267,"is_reserved":false,"is_disabled":false,"rental_uris":{"android":"levelo://app?vid=9378267c-38b9-43e0-8ea6-b991c1cbff7c","ios":"levelo://app?vid=9378267c-38b9-43e0-8ea6-b991c1cbff7c"},"vehicle_type_id":"4","last_reported":1781636942,"current_range_meters":2800,"station_id":"","pricing_plan_id":"cebpf4jnsgd1na2vs0mg"},{"bike_id":"ec10c3ea-ecc5-4798-b7bb-d62c532a9510","system_id":"levelo_inurba_marseille","lat":43.29483,"lon":5.3737,"is_reserved":false,"is_disabled":false,"rental_uris":{"android":"levelo://app?vid=ec10c3ea-ecc5-4798-b7bb-d62c532a9510","ios":"levelo://app?vid=ec10c3ea-ecc5-4798-b7bb-d62c532a9510"},"vehicle_type_id":"4","last_reported":1781636942,"current_range_meters":2800,"station_id":"","pricing_plan_id":"cebpf4jnsgd1na2vs0mg"},{"bike_id":"aab97d9a-f582-461c-8850-3fa5c1d701fd","system_id":"levelo_inurba_marseille","lat":43.28676,"lon":5.38676,"is_reserved":false,"is_disabled":false,"rental_uris":{"android":"levelo://app?vid=aab97d9a-f582-461c-8850-3fa5c1d701fd","ios":"levelo://app?vid=aab97d9a-f582-461c-8850-3fa5c1d701fd"},"vehicle_type_id":"4","last_reported":1781636942,"current_range_meters":2800,"station_id":"ce4bh492rcd13ifvqdug","pricing_plan_id":"cebpf4jnsgd1na2vs0mg"},{"bike_id":"09194a2e-2e16-428d-9cc4-80c276e32ec7","system_id":"levelo_inurba_marseille","lat":43.29301,"lon":5.37134,"is_reserved":false,"is_disabled":false,"rental_uris":{"android":"levelo://app?vid=09194a2e-2e16-428d-9cc4-80c276e32ec7","ios":"levelo://app?vid=09194a2e-2e16-428d-9cc4-80c276e32ec7"},"vehicle_type_id":"4","last_reported":1781636942,"current_range_meters":2800,"station_id":"ce4bgh92rcd13ifvqb40","pricing_plan_id":"cebpf4jnsgd1na2vs0mg"},{"bike_id":"42c5b86d-b218-4bfd-86e8-5e5d79beacd4","system_id":"levelo_inurba_marseille","lat":43.267726,"lon":5.394215,"is_reserved":false,"is_disabled":false,"rental_uris":{"android":"levelo://app?vid=42c5b86d-b218-4bfd-86e8-5e5d79beacd4","ios":"levelo://app?vid=42c5b86d-b218-4bfd-86e8-5e5d79beacd4"},"vehicle_type_id":"4","last_reported":1781636942,"current_range_meters":2800,"station_id":"ce4bhh12rcd13ifvqfg0","pricing_plan_id":"cebpf4jnsgd1na2vs0mg"},{"bike_id":"d7bc12b0-a8d4-4a6c-915a-a61893c38732","system_id":"levelo_inurba_marseille","lat":43.3029,"lon":5.36975,"is_reserved":false,"is_disabled":false,"rental_uris":{"android":"levelo://app?vid=d7bc12b0-a8d4-4a6c-915a-a61893c38732","ios":"levelo://app?vid=d7bc12b0-a8d4-4a6c-915a-a61893c38732"},"vehicle_type_id":"4","last_reported":1781636942,"current_range_meters":3200,"station_id":"","pricing_plan_id":"cebpf4jnsgd1na2vs0mg"},{"bike_id":"d1b88a5e-ce2a-406d-bc57-e78bc6e3536b","system_id":"levelo_inurba_marseille","lat":43.28446,"lon":5.37123,"is_reserved":false,"is_disabled":true,"rental_uris":{"android":"levelo://app?vid=d1b88a5e-ce2a-406d-bc57-e78bc6e3536b","ios":"levelo://app?vid=d1b88a5e-ce2a-406d-bc57-e78bc6e3536b"},"vehicle_type_id":"4","last_reported":1781636942,"current_range_meters":3200,"station_id":"","pricing_plan_id":"cebpf4jnsgd1na2vs0mg"},{"bike_id":"27b673d3-bbfe-41e3-8fe8-9e18e21739be","system_id":"levelo_inurba_marseille","lat":43.28476,"lon":5.48391,"is_reserved":false,"is_disabled":false,"rental_uris":{"android":"levelo://app?vid=27b673d3-bbfe-41e3-8fe8-9e18e21739be","ios":"levelo://app?vid=27b673d3-bbfe-41e3-8fe8-9e18e21739be"},"vehicle_type_id":"4","last_reported":1781636942,"current_range_meters":3200,"station_id":"st_d3svhcjqgbts73a3dn0g","pricing_plan_id":"cebpf4jnsgd1na2vs0mg"},{"bike_id":"a3501f4b-362a-4138-9a71-94f9db606069","system_id":"levelo_inurba_marseille","lat":43.25873,"lon":5.39885,"is_reserved":false,"is_disabled":true,"rental_uris":{"android":"levelo://app?vid=a3501f4b-362a-4138-9a71-94f9db606069","ios":"levelo://app?vid=a3501f4b-362a-4138-9a71-94f9db606069"},"vehicle_type_id":"4","last_reported":1781636942,"current_range_meters":3200,"station_id":"ce4bhl92rcd13ifvqghg","pricing_plan_id":"cebpf4jnsgd1na2vs0mg"},{"bike_id":"670948ee-33d1-4cce-aee7-9d0633bffb24","system_id":"levelo_inurba_marseille","lat":43.283705,"lon":5.386352,"is_reserved":false,"is_disabled":false,"rental_uris":{"android":"levelo://app?vid=670948ee-33d1-4cce-aee7-9d0633bffb24","ios":"levelo://app?vid=670948ee-33d1-4cce-aee7-9d0633bffb24"},"vehicle_type_id":"4","last_reported":1781636942,"current_range_meters":3200,"station_id":"ce4bh492rcd13ifvqdvg","pricing_plan_id":"cebpf4jnsgd1na2vs0mg"},{"bike_id":"6a5fdf94-a5c5-43b0-b033-bc57758de8f4","system_id":"levelo_inurba_marseille","lat":43.22534,"lon":5.34841,"is_reserved":false,"is_disabled":false,"rental_uris":{"android":"levelo://app?vid=6a5fdf94-a5c5-43b0-b033-bc57758de8f4","ios":"levelo://app?vid=6a5fdf94-a5c5-43b0-b033-bc57758de8f4"},"vehicle_type_id":"4","last_reported":1781636942,"current_range_meters":3200,"station_id":"st_cvj5dfep6f1abm77gieg","pricing_plan_id":"cebpf4jnsgd1na2vs0mg"},{"bike_id":"ffc6f0a1-f777-4416-9f31-e9b6574f709b","system_id":"levelo_inurba_marseille","lat":43.29527,"lon":5.3855,"is_reserved":false,"is_disabled":false,"rental_uris":{"android":"levelo://app?vid=ffc6f0a1-f777-4416-9f31-e9b6574f709b","ios":"levelo://app?vid=ffc6f0a1-f777-4416-9f31-e9b6574f709b"},"vehicle_type_id":"4","last_reported":1781636942,"current_range_meters":3200,"station_id":"ce4bgih2rcd13ifvqba0","pricing_plan_id":"cebpf4jnsgd1na2vs0mg"},{"bike_id":"c279a4bd-1c86-4a70-aced-a38a60caccf5","system_id":"levelo_inurba_marseille","lat":43.2967,"lon":5.36584,"is_reserved":false,"is_disabled":false,"rental_uris":{"android":"levelo://app?vid=c279a4bd-1c86-4a70-aced-a38a60caccf5","ios":"levelo://app?vid=c279a4bd-1c86-4a70-aced-a38a60caccf5"},"vehicle_type_id":"4","last_reported":1781636942,"current_range_meters":3200,"station_id":"ce4bgn12rcd13ifvqbt0","pricing_plan_id":"cebpf4jnsgd1na2vs0mg"},{"bike_id":"f19d3443-3187-40e5-b41e-b106640415ad","system_id":"levelo_inurba_marseille","lat":43.30423,"lon":5.39735,"is_reserved":false,"is_disabled":false,"rental_uris":{"android":"levelo://app?vid=f19d3443-3187-40e5-b41e-b106640415ad","ios":"levelo://app?vid=f19d3443-3187-40e5-b41e-b106640415ad"},"vehicle_type_id":"4","last_reported":1781636942,"current_range_meters":3200,"station_id":"ce4bh092rcd13ifvqd20","pricing_plan_id":"cebpf4jnsgd1na2vs0mg"},{"bike_id":"d5bbe4ff-9758-41b2-adeb-7cfca4731a8b","system_id":"levelo_inurba_marseille","lat":43.28586,"lon":5.37045,"is_reserved":false,"is_disabled":false,"rental_uris":{"android":"levelo://app?vid=d5bbe4ff-9758-41b2-adeb-7cfca4731a8b","ios":"levelo://app?vid=d5bbe4ff-9758-41b2-adeb-7cfca4731a8b"},"vehicle_type_id":"4","last_reported":1781636942,"current_range_meters":3200,"station_id":"ce4bht12rcd13ifvqi60","pricing_plan_id":"cebpf4jnsgd1na2vs0mg"},{"bike_id":"a7787ac6-ab38-44b7-83f3-27292609ce00","system_id":"levelo_inurba_marseille","lat":43.28406,"lon":5.37518,"is_reserved":false,"is_disabled":false,"rental_uris":{"android":"levelo://app?vid=a7787ac6-ab38-44b7-83f3-27292609ce00","ios":"levelo://app?vid=a7787ac6-ab38-44b7-83f3-27292609ce00"},"vehicle_type_id":"4","last_reported":1781636942,"current_range_meters":3200,"station_id":"ce4bh412rcd13ifvqds0","pricing_plan_id":"cebpf4jnsgd1na2vs0mg"},{"bike_id":"fc1b2270-4b7a-4e62-8367-da7db9acbdd9","system_id":"levelo_inurba_marseille","lat":43.28665,"lon":5.38664,"is_reserved":false,"is_disabled":false,"rental_uris":{"android":"levelo://app?vid=fc1b2270-4b7a-4e62-8367-da7db9acbdd9","ios":"levelo://app?vid=fc1b2270-4b7a-4e62-8367-da7db9acbdd9"},"vehicle_type_id":"4","last_reported":1781636942,"current_range_meters":3600,"station_id":"ce4bh492rcd13ifvqdug","pricing_plan_id":"cebpf4jnsgd1na2vs0mg"},{"bike_id":"bfd42ca6-d834-40a9-9b22-d02ddbfa0fe8","system_id":"levelo_inurba_marseille","lat":43.22673,"lon":5.34795,"is_reserved":false,"is_disabled":false,"rental_uris":{"android":"levelo://app?vid=bfd42ca6-d834-40a9-9b22-d02ddbfa0fe8","ios":"levelo://app?vid=bfd42ca6-d834-40a9-9b22-d02ddbfa0fe8"},"vehicle_type_id":"4","last_reported":1781636942,"current_range_meters":3600,"station_id":"","pricing_plan_id":"cebpf4jnsgd1na2vs0mg"},{"bike_id":"ff441c9e-0b28-427a-a0c9-a2bd7732294c","system_id":"levelo_inurba_marseille","lat":43.25095,"lon":5.39519,"is_reserved":false,"is_disabled":false,"rental_uris":{"android":"levelo://app?vid=ff441c9e-0b28-427a-a0c9-a2bd7732294c","ios":"levelo://app?vid=ff441c9e-0b28-427a-a0c9-a2bd7732294c"},"vehicle_type_id":"4","last_reported":1781636942,"current_range_meters":3600,"station_id":"ce4bhm12rcd13ifvqgkg","pricing_plan_id":"cebpf4jnsgd1na2vs0mg"},{"bike_id":"707bd867-29c3-4de2-bfeb-911363f40f1f","system_id":"levelo_inurba_marseille","lat":43.30125,"lon":5.39852,"is_reserved":false,"is_disabled":false,"rental_uris":{"android":"levelo://app?vid=707bd867-29c3-4de2-bfeb-911363f40f1f","ios":"levelo://app?vid=707bd867-29c3-4de2-bfeb-911363f40f1f"},"vehicle_type_id":"4","last_reported":1781636942,"current_range_meters":3600,"station_id":"ce4bh0h2rcd13ifvqd40","pricing_plan_id":"cebpf4jnsgd1na2vs0mg"},{"bike_id":"362e7fde-917b-4604-905d-043d354692a3","system_id":"levelo_inurba_marseille","lat":43.29955,"lon":5.38478,"is_reserved":false,"is_disabled":false,"rental_uris":{"android":"levelo://app?vid=362e7fde-917b-4604-905d-043d354692a3","ios":"levelo://app?vid=362e7fde-917b-4604-905d-043d354692a3"},"vehicle_type_id":"4","last_reported":1781636942,"current_range_meters":3600,"station_id":"ce4bgj92rcd13ifvqbd0","pricing_plan_id":"cebpf4jnsgd1na2vs0mg"},{"bike_id":"b49fd32b-13ca-42c5-a822-300138d3d7ff","system_id":"levelo_inurba_marseille","lat":43.30216,"lon":5.41756,"is_reserved":false,"is_disabled":false,"rental_uris":{"android":"levelo://app?vid=b49fd32b-13ca-42c5-a822-300138d3d7ff","ios":"levelo://app?vid=b49fd32b-13ca-42c5-a822-300138d3d7ff"},"vehicle_type_id":"4","last_reported":1781636942,"current_range_meters":3600,"station_id":"","pricing_plan_id":"cebpf4jnsgd1na2vs0mg"},{"bike_id":"26fea020-69b7-4ee6-9b6c-455104ed2952","system_id":"levelo_inurba_marseille","lat":43.29169,"lon":5.37152,"is_reserved":false,"is_disabled":false,"rental_uris":{"android":"levelo://app?vid=26fea020-69b7-4ee6-9b6c-455104ed2952","ios":"levelo://app?vid=26fea020-69b7-4ee6-9b6c-455104ed2952"},"vehicle_type_id":"4","last_reported":1781636942,"current_range_meters":3600,"station_id":"ce4bha92rcd13ifvqeh0","pricing_plan_id":"cebpf4jnsgd1na2vs0mg"},{"bike_id":"669747be-dbc9-4d82-8618-9c382ce46449","system_id":"levelo_inurba_marseille","lat":43.305575,"lon":5.36559,"is_reserved":false,"is_disabled":false,"rental_uris":{"android":"levelo://app?vid=669747be-dbc9-4d82-8618-9c382ce46449","ios":"levelo://app?vid=669747be-dbc9-4d82-8618-9c382ce46449"},"vehicle_type_id":"4","last_reported":1781636942,"current_range_meters":3600,"station_id":"ce4bgs12rcd13ifvqcag","pricing_plan_id":"cebpf4jnsgd1na2vs0mg"},{"bike_id":"3836f61b-f80e-47dd-a9d2-9d81e62e6fe5","system_id":"levelo_inurba_marseille","lat":43.28836,"lon":5.39346,"is_reserved":false,"is_disabled":false,"rental_uris":{"android":"levelo://app?vid=3836f61b-f80e-47dd-a9d2-9d81e62e6fe5","ios":"levelo://app?vid=3836f61b-f80e-47dd-a9d2-9d81e62e6fe5"},"vehicle_type_id":"4","last_reported":1781636942,"current_range_meters":3600,"station_id":"ce4bh2p2rcd13ifvqdi0","pricing_plan_id":"cebpf4jnsgd1na2vs0mg"},{"bike_id":"baa171ca-6fb4-4dab-bff6-4d6583887a6d","system_id":"levelo_inurba_marseille","lat":43.28934,"lon":5.36636,"is_reserved":false,"is_disabled":false,"rental_uris":{"android":"levelo://app?vid=baa171ca-6fb4-4dab-bff6-4d6583887a6d","ios":"levelo://app?vid=baa171ca-6fb4-4dab-bff6-4d6583887a6d"},"vehicle_type_id":"4","last_reported":1781636942,"current_range_meters":3600,"station_id":"ce4bhap2rcd13ifvqek0","pricing_plan_id":"cebpf4jnsgd1na2vs0mg"},{"bike_id":"172e2420-5254-4959-93d9-5c35f9258439","system_id":"levelo_inurba_marseille","lat":43.295897,"lon":5.385462,"is_reserved":false,"is_disabled":false,"rental_uris":{"android":"levelo://app?vid=172e2420-5254-4959-93d9-5c35f9258439","ios":"levelo://app?vid=172e2420-5254-4959-93d9-5c35f9258439"},"vehicle_type_id":"4","last_reported":1781636942,"current_range_meters":3600,"station_id":"","pricing_plan_id":"cebpf4jnsgd1na2vs0mg"},{"bike_id":"81e02603-71a7-410e-b280-f57ec9509ee1","system_id":"levelo_inurba_marseille","lat":43.2992,"lon":5.37419,"is_reserved":false,"is_disabled":false,"rental_uris":{"android":"levelo://app?vid=81e02603-71a7-410e-b280-f57ec9509ee1","ios":"levelo://app?vid=81e02603-71a7-410e-b280-f57ec9509ee1"},"vehicle_type_id":"4","last_reported":1781636942,"current_range_meters":3600,"station_id":"","pricing_plan_id":"cebpf4jnsgd1na2vs0mg"},{"bike_id":"2c7fd776-5934-45a3-88fb-d42517ff55d4","system_id":"levelo_inurba_marseille","lat":43.28135,"lon":5.38912,"is_reserved":false,"is_disabled":false,"rental_uris":{"android":"levelo://app?vid=2c7fd776-5934-45a3-88fb-d42517ff55d4","ios":"levelo://app?vid=2c7fd776-5934-45a3-88fb-d42517ff55d4"},"vehicle_type_id":"4","last_reported":1781636942,"current_range_meters":3600,"station_id":"","pricing_plan_id":"cebpf4jnsgd1na2vs0mg"},{"bike_id":"f0b9fffa-9136-4f5f-a36c-7e1b1902153b","system_id":"levelo_inurba_marseille","lat":43.21255,"lon":5.35147,"is_reserved":false,"is_disabled":false,"rental_uris":{"android":"levelo://app?vid=f0b9fffa-9136-4f5f-a36c-7e1b1902153b","ios":"levelo://app?vid=f0b9fffa-9136-4f5f-a36c-7e1b1902153b"},"vehicle_type_id":"4","last_reported":1781636942,"current_range_meters":3600,"station_id":"","pricing_plan_id":"cebpf4jnsgd1na2vs0mg"},{"bike_id":"fa601219-3f7e-4279-b728-bd7433dfe518","system_id":"levelo_inurba_marseille","lat":43.28497,"lon":5.48392,"is_reserved":false,"is_disabled":false,"rental_uris":{"android":"levelo://app?vid=fa601219-3f7e-4279-b728-bd7433dfe518","ios":"levelo://app?vid=fa601219-3f7e-4279-b728-bd7433dfe518"},"vehicle_type_id":"4","last_reported":1781636942,"current_range_meters":3600,"station_id":"st_d3svhcjqgbts73a3dn0g","pricing_plan_id":"cebpf4jnsgd1na2vs0mg"},{"bike_id":"9efb7a58-df05-42a0-8fca-9a3d8f1edf32","system_id":"levelo_inurba_marseille","lat":43.29296,"lon":5.37441,"is_reserved":false,"is_disabled":false,"rental_uris":{"android":"levelo://app?vid=9efb7a58-df05-42a0-8fca-9a3d8f1edf32","ios":"levelo://app?vid=9efb7a58-df05-42a0-8fca-9a3d8f1edf32"},"vehicle_type_id":"4","last_reported":1781636942,"current_range_meters":3600,"station_id":"ce4bgi12rcd13ifvqb70","pricing_plan_id":"cebpf4jnsgd1na2vs0mg"},{"bike_id":"39bc989f-c5c1-4c60-a5a4-76d24f17dd2e","system_id":"levelo_inurba_marseille","lat":43.29587,"lon":5.38099,"is_reserved":false,"is_disabled":false,"rental_uris":{"android":"levelo://app?vid=39bc989f-c5c1-4c60-a5a4-76d24f17dd2e","ios":"levelo://app?vid=39bc989f-c5c1-4c60-a5a4-76d24f17dd2e"},"vehicle_type_id":"4","last_reported":1781636942,"current_range_meters":3600,"station_id":"ce4bgl12rcd13ifvqbo0","pricing_plan_id":"cebpf4jnsgd1na2vs0mg"},{"bike_id":"dc450526-5ace-4680-b99a-2cf1a34c89f0","system_id":"levelo_inurba_marseille","lat":43.29027,"lon":5.38648,"is_reserved":false,"is_disabled":false,"rental_uris":{"android":"levelo://app?vid=dc450526-5ace-4680-b99a-2cf1a34c89f0","ios":"levelo://app?vid=dc450526-5ace-4680-b99a-2cf1a34c89f0"},"vehicle_type_id":"4","last_reported":1781636942,"current_range_meters":3600,"station_id":"ce4bh4p2rcd13ifvqe0g","pricing_plan_id":"cebpf4jnsgd1na2vs0mg"},{"bike_id":"e00d3ce1-2619-40ce-9c1a-ae323a01adab","system_id":"levelo_inurba_marseille","lat":43.286939,"lon":5.399841,"is_reserved":false,"is_disabled":false,"rental_uris":{"android":"levelo://app?vid=e00d3ce1-2619-40ce-9c1a-ae323a01adab","ios":"levelo://app?vid=e00d3ce1-2619-40ce-9c1a-ae323a01adab"},"vehicle_type_id":"4","last_reported":1781636942,"current_range_meters":3600,"station_id":"ce4bho92rcd13ifvqh3g","pricing_plan_id":"cebpf4jnsgd1na2vs0mg"},{"bike_id":"143f9797-1343-4db5-a00b-b083af308d16","system_id":"levelo_inurba_marseille","lat":43.2916,"lon":5.37165,"is_reserved":false,"is_disabled":false,"rental_uris":{"android":"levelo://app?vid=143f9797-1343-4db5-a00b-b083af308d16","ios":"levelo://app?vid=143f9797-1343-4db5-a00b-b083af308d16"},"vehicle_type_id":"4","last_reported":1781636942,"current_range_meters":3600,"station_id":"ce4bha92rcd13ifvqeh0","pricing_plan_id":"cebpf4jnsgd1na2vs0mg"},{"bike_id":"6c75ea55-36a8-4c7f-989b-d0fca4be45d9","system_id":"levelo_inurba_marseille","lat":43.28153,"lon":5.40089,"is_reserved":false,"is_disabled":false,"rental_uris":{"android":"levelo://app?vid=6c75ea55-36a8-4c7f-989b-d0fca4be45d9","ios":"levelo://app?vid=6c75ea55-36a8-4c7f-989b-d0fca4be45d9"},"vehicle_type_id":"4","last_reported":1781636942,"current_range_meters":3600,"station_id":"","pricing_plan_id":"cebpf4jnsgd1na2vs0mg"},{"bike_id":"68897e21-3264-4a09-8277-b8f383db81be","system_id":"levelo_inurba_marseille","lat":43.28116,"lon":5.37846,"is_reserved":false,"is_disabled":false,"rental_uris":{"android":"levelo://app?vid=68897e21-3264-4a09-8277-b8f383db81be","ios":"levelo://app?vid=68897e21-3264-4a09-8277-b8f383db81be"},"vehicle_type_id":"4","last_reported":1781636942,"current_range_meters":4000,"station_id":"ce4bha12rcd13ifvqee0","pricing_plan_id":"cebpf4jnsgd1na2vs0mg"},{"bike_id":"0fa8705e-3dc3-446b-9080-9a3bad79cef6","system_id":"levelo_inurba_marseille","lat":43.2902,"lon":5.38646,"is_reserved":false,"is_disabled":false,"rental_uris":{"android":"levelo://app?vid=0fa8705e-3dc3-446b-9080-9a3bad79cef6","ios":"levelo://app?vid=0fa8705e-3dc3-446b-9080-9a3bad79cef6"},"vehicle_type_id":"4","last_reported":1781636942,"current_range_meters":4000,"station_id":"ce4bh4p2rcd13ifvqe0g","pricing_plan_id":"cebpf4jnsgd1na2vs0mg"},{"bike_id":"11b399e9-0d52-4738-94a0-440ea29a542d","system_id":"levelo_inurba_marseille","lat":43.30031,"lon":5.37848,"is_reserved":false,"is_disabled":false,"rental_uris":{"android":"levelo://app?vid=11b399e9-0d52-4738-94a0-440ea29a542d","ios":"levelo://app?vid=11b399e9-0d52-4738-94a0-440ea29a542d"},"vehicle_type_id":"4","last_reported":1781636942,"current_range_meters":4000,"station_id":"","pricing_plan_id":"cebpf4jnsgd1na2vs0mg"},{"bike_id":"751f1276-f931-4ad5-9454-c621fcfcb02a","system_id":"levelo_inurba_marseille","lat":43.29306,"lon":5.37469,"is_reserved":false,"is_disabled":false,"rental_uris":{"android":"levelo://app?vid=751f1276-f931-4ad5-9454-c621fcfcb02a","ios":"levelo://app?vid=751f1276-f931-4ad5-9454-c621fcfcb02a"},"vehicle_type_id":"4","last_reported":1781636942,"current_range_meters":4000,"station_id":"ce4bgi12rcd13ifvqb70","pricing_plan_id":"cebpf4jnsgd1na2vs0mg"},{"bike_id":"67ff7e8b-853f-4c75-abe5-947bae418727","system_id":"levelo_inurba_marseille","lat":43.24549,"lon":5.41189,"is_reserved":false,"is_disabled":true,"rental_uris":{"android":"levelo://app?vid=67ff7e8b-853f-4c75-abe5-947bae418727","ios":"levelo://app?vid=67ff7e8b-853f-4c75-abe5-947bae418727"},"vehicle_type_id":"4","last_reported":1781636942,"current_range_meters":4000,"station_id":"","pricing_plan_id":"cebpf4jnsgd1na2vs0mg"},{"bike_id":"8d88c884-25dd-4c21-9b63-a70529b3f7f7","system_id":"levelo_inurba_marseille","lat":43.30702,"lon":5.37378,"is_reserved":false,"is_disabled":false,"rental_uris":{"android":"levelo://app?vid=8d88c884-25dd-4c21-9b63-a70529b3f7f7","ios":"levelo://app?vid=8d88c884-25dd-4c21-9b63-a70529b3f7f7"},"vehicle_type_id":"4","last_reported":1781636942,"current_range_meters":4000,"station_id":"","pricing_plan_id":"cebpf4jnsgd1na2vs0mg"},{"bike_id":"41654360-b6db-4986-8d07-ca8912d30fee","system_id":"levelo_inurba_marseille","lat":43.3046,"lon":5.38861,"is_reserved":false,"is_disabled":false,"rental_uris":{"android":"levelo://app?vid=41654360-b6db-4986-8d07-ca8912d30fee","ios":"levelo://app?vid=41654360-b6db-4986-8d07-ca8912d30fee"},"vehicle_type_id":"4","last_reported":1781636942,"current_range_meters":4000,"station_id":"ce4bgk12rcd13ifvqbi0","pricing_plan_id":"cebpf4jnsgd1na2vs0mg"},{"bike_id":"3754d7e4-3f7a-4427-969c-8193082cd9f6","system_id":"levelo_inurba_marseille","lat":43.28655,"lon":5.36348,"is_reserved":false,"is_disabled":false,"rental_uris":{"android":"levelo://app?vid=3754d7e4-3f7a-4427-969c-8193082cd9f6","ios":"levelo://app?vid=3754d7e4-3f7a-4427-969c-8193082cd9f6"},"vehicle_type_id":"4","last_reported":1781636942,"current_range_meters":4000,"station_id":"ce4bhah2rcd13ifvqej0","pricing_plan_id":"cebpf4jnsgd1na2vs0mg"},{"bike_id":"cfe1147b-0860-445b-b8fc-fa8838d5b4ed","system_id":"levelo_inurba_marseille","lat":43.2919,"lon":5.39306,"is_reserved":false,"is_disabled":true,"rental_uris":{"android":"levelo://app?vid=cfe1147b-0860-445b-b8fc-fa8838d5b4ed","ios":"levelo://app?vid=cfe1147b-0860-445b-b8fc-fa8838d5b4ed"},"vehicle_type_id":"4","last_reported":1781636942,"current_range_meters":4000,"station_id":"ce4bh192rcd13ifvqdd0","pricing_plan_id":"cebpf4jnsgd1na2vs0mg"},{"bike_id":"f71acf28-3040-40f4-9e27-7a01f0aaa266","system_id":"levelo_inurba_marseille","lat":43.29262,"lon":5.40887,"is_reserved":false,"is_disabled":true,"rental_uris":{"android":"levelo://app?vid=f71acf28-3040-40f4-9e27-7a01f0aaa266","ios":"levelo://app?vid=f71acf28-3040-40f4-9e27-7a01f0aaa266"},"vehicle_type_id":"4","last_reported":1781636942,"current_range_meters":4000,"station_id":"ce4bh192rcd13ifvqdc0","pricing_plan_id":"cebpf4jnsgd1na2vs0mg"},{"bike_id":"9102ba30-1ca1-4371-ae96-0c27e7681629","system_id":"levelo_inurba_marseille","lat":43.29691,"lon":5.38832,"is_reserved":false,"is_disabled":false,"rental_uris":{"android":"levelo://app?vid=9102ba30-1ca1-4371-ae96-0c27e7681629","ios":"levelo://app?vid=9102ba30-1ca1-4371-ae96-0c27e7681629"},"vehicle_type_id":"4","last_reported":1781636942,"current_range_meters":4000,"station_id":"","pricing_plan_id":"cebpf4jnsgd1na2vs0mg"},{"bike_id":"ea462f75-dab7-46f2-9297-ed7d36539ec6","system_id":"levelo_inurba_marseille","lat":43.2847,"lon":5.38416,"is_reserved":false,"is_disabled":false,"rental_uris":{"android":"levelo://app?vid=ea462f75-dab7-46f2-9297-ed7d36539ec6","ios":"levelo://app?vid=ea462f75-dab7-46f2-9297-ed7d36539ec6"},"vehicle_type_id":"4","last_reported":1781636942,"current_range_meters":4000,"station_id":"ce4bh512rcd13ifvqe3g","pricing_plan_id":"cebpf4jnsgd1na2vs0mg"},{"bike_id":"6637099a-7831-476a-a77c-ad16c713edec","system_id":"levelo_inurba_marseille","lat":43.23182,"lon":5.40484,"is_reserved":false,"is_disabled":false,"rental_uris":{"android":"levelo://app?vid=6637099a-7831-476a-a77c-ad16c713edec","ios":"levelo://app?vid=6637099a-7831-476a-a77c-ad16c713edec"},"vehicle_type_id":"4","last_reported":1781636942,"current_range_meters":4000,"station_id":"","pricing_plan_id":"cebpf4jnsgd1na2vs0mg"},{"bike_id":"fa4cf54c-d0a5-4188-9f4b-fe81f81a3ab7","system_id":"levelo_inurba_marseille","lat":43.3123,"lon":5.36854,"is_reserved":false,"is_disabled":true,"rental_uris":{"android":"levelo://app?vid=fa4cf54c-d0a5-4188-9f4b-fe81f81a3ab7","ios":"levelo://app?vid=fa4cf54c-d0a5-4188-9f4b-fe81f81a3ab7"},"vehicle_type_id":"4","last_reported":1781636942,"current_range_meters":4000,"station_id":"ce4bgl92rcd13ifvqbq0","pricing_plan_id":"cebpf4jnsgd1na2vs0mg"},{"bike_id":"c007bcf1-2766-4c61-8a04-a4e8106ca3a6","system_id":"levelo_inurba_marseille","lat":43.291905,"lon":5.371644,"is_reserved":false,"is_disabled":false,"rental_uris":{"android":"levelo://app?vid=c007bcf1-2766-4c61-8a04-a4e8106ca3a6","ios":"levelo://app?vid=c007bcf1-2766-4c61-8a04-a4e8106ca3a6"},"vehicle_type_id":"4","last_reported":1781636942,"current_range_meters":4000,"station_id":"ce4bha92rcd13ifvqeh0","pricing_plan_id":"cebpf4jnsgd1na2vs0mg"},{"bike_id":"4367c2f4-d544-4011-8326-25555523b69d","system_id":"levelo_inurba_marseille","lat":43.22689,"lon":5.40307,"is_reserved":false,"is_disabled":false,"rental_uris":{"android":"levelo://app?vid=4367c2f4-d544-4011-8326-25555523b69d","ios":"levelo://app?vid=4367c2f4-d544-4011-8326-25555523b69d"},"vehicle_type_id":"4","last_reported":1781636942,"current_range_meters":4000,"station_id":"","pricing_plan_id":"cebpf4jnsgd1na2vs0mg"},{"bike_id":"6fcece8f-5fbc-4abe-8003-a1a227633597","system_id":"levelo_inurba_marseille","lat":43.32752,"lon":5.40152,"is_reserved":false,"is_disabled":false,"rental_uris":{"android":"levelo://app?vid=6fcece8f-5fbc-4abe-8003-a1a227633597","ios":"levelo://app?vid=6fcece8f-5fbc-4abe-8003-a1a227633597"},"vehicle_type_id":"4","last_reported":1781636942,"current_range_meters":4000,"station_id":"","pricing_plan_id":"cebpf4jnsgd1na2vs0mg"},{"bike_id":"872bfa69-6723-4605-86ff-348bed952aa0","system_id":"levelo_inurba_marseille","lat":43.29892,"lon":5.38914,"is_reserved":false,"is_disabled":false,"rental_uris":{"android":"levelo://app?vid=872bfa69-6723-4605-86ff-348bed952aa0","ios":"levelo://app?vid=872bfa69-6723-4605-86ff-348bed952aa0"},"vehicle_type_id":"4","last_reported":1781636942,"current_range_meters":4000,"station_id":"ce4bh392rcd13ifvqdl0","pricing_plan_id":"cebpf4jnsgd1na2vs0mg"},{"bike_id":"9ef2b5f6-babe-43b5-8c19-8b9eebdcbf0c","system_id":"levelo_inurba_marseille","lat":43.29773,"lon":5.37098,"is_reserved":false,"is_disabled":false,"rental_uris":{"android":"levelo://app?vid=9ef2b5f6-babe-43b5-8c19-8b9eebdcbf0c","ios":"levelo://app?vid=9ef2b5f6-babe-43b5-8c19-8b9eebdcbf0c"},"vehicle_type_id":"4","last_reported":1781636942,"current_range_meters":4000,"station_id":"ce4bgop2rcd13ifvqc1g","pricing_plan_id":"cebpf4jnsgd1na2vs0mg"},{"bike_id":"4dd1129e-4c13-46e6-8388-b5dcda8ee021","system_id":"levelo_inurba_marseille","lat":43.28098,"lon":5.37848,"is_reserved":false,"is_disabled":false,"rental_uris":{"android":"levelo://app?vid=4dd1129e-4c13-46e6-8388-b5dcda8ee021","ios":"levelo://app?vid=4dd1129e-4c13-46e6-8388-b5dcda8ee021"},"vehicle_type_id":"4","last_reported":1781636942,"current_range_meters":4000,"station_id":"ce4bha12rcd13ifvqee0","pricing_plan_id":"cebpf4jnsgd1na2vs0mg"},{"bike_id":"8eeda215-7d1e-4c7c-8533-36d425698441","system_id":"levelo_inurba_marseille","lat":43.31894,"lon":5.36808,"is_reserved":false,"is_disabled":false,"rental_uris":{"android":"levelo://app?vid=8eeda215-7d1e-4c7c-8533-36d425698441","ios":"levelo://app?vid=8eeda215-7d1e-4c7c-8533-36d425698441"},"vehicle_type_id":"4","last_reported":1781636942,"current_range_meters":4000,"station_id":"st_d6o2h0d0559c73evc1b0","pricing_plan_id":"cebpf4jnsgd1na2vs0mg"},{"bike_id":"43557268-d058-408c-ab03-d4deb2c02d3f","system_id":"levelo_inurba_marseille","lat":43.24708,"lon":5.39497,"is_reserved":false,"is_disabled":false,"rental_uris":{"android":"levelo://app?vid=43557268-d058-408c-ab03-d4deb2c02d3f","ios":"levelo://app?vid=43557268-d058-408c-ab03-d4deb2c02d3f"},"vehicle_type_id":"4","last_reported":1781636942,"current_range_meters":4400,"station_id":"","pricing_plan_id":"cebpf4jnsgd1na2vs0mg"},{"bike_id":"e67f02dc-b719-4897-a3fa-a31caacbfa3c","system_id":"levelo_inurba_marseille","lat":43.29531,"lon":5.38548,"is_reserved":false,"is_disabled":false,"rental_uris":{"android":"levelo://app?vid=e67f02dc-b719-4897-a3fa-a31caacbfa3c","ios":"levelo://app?vid=e67f02dc-b719-4897-a3fa-a31caacbfa3c"},"vehicle_type_id":"4","last_reported":1781636942,"current_range_meters":4400,"station_id":"ce4bgih2rcd13ifvqba0","pricing_plan_id":"cebpf4jnsgd1na2vs0mg"},{"bike_id":"5b2e0e3c-4f87-4326-b62a-3b75f2ec7b11","system_id":"levelo_inurba_marseille","lat":43.30472,"lon":5.38912,"is_reserved":false,"is_disabled":true,"rental_uris":{"android":"levelo://app?vid=5b2e0e3c-4f87-4326-b62a-3b75f2ec7b11","ios":"levelo://app?vid=5b2e0e3c-4f87-4326-b62a-3b75f2ec7b11"},"vehicle_type_id":"4","last_reported":1781636942,"current_range_meters":4400,"station_id":"ce4bgk12rcd13ifvqbi0","pricing_plan_id":"cebpf4jnsgd1na2vs0mg"},{"bike_id":"f4c218da-baf5-4767-9ab5-f7541330df55","system_id":"levelo_inurba_marseille","lat":43.29014,"lon":5.35595,"is_reserved":false,"is_disabled":false,"rental_uris":{"android":"levelo://app?vid=f4c218da-baf5-4767-9ab5-f7541330df55","ios":"levelo://app?vid=f4c218da-baf5-4767-9ab5-f7541330df55"},"vehicle_type_id":"4","last_reported":1781636942,"current_range_meters":4400,"station_id":"ce4bhb92rcd13ifvqen0","pricing_plan_id":"cebpf4jnsgd1na2vs0mg"},{"bike_id":"2edc2141-1b25-4a89-b5fa-a10c85e3fcd5","system_id":"levelo_inurba_marseille","lat":43.35018,"lon":5.34942,"is_reserved":false,"is_disabled":false,"rental_uris":{"android":"levelo://app?vid=2edc2141-1b25-4a89-b5fa-a10c85e3fcd5","ios":"levelo://app?vid=2edc2141-1b25-4a89-b5fa-a10c85e3fcd5"},"vehicle_type_id":"4","last_reported":1781636942,"current_range_meters":4400,"station_id":"","pricing_plan_id":"cebpf4jnsgd1na2vs0mg"},{"bike_id":"a10f3b16-3fbc-4dee-8103-58f27ab34ae6","system_id":"levelo_inurba_marseille","lat":43.292691,"lon":5.376386,"is_reserved":false,"is_disabled":false,"rental_uris":{"android":"levelo://app?vid=a10f3b16-3fbc-4dee-8103-58f27ab34ae6","ios":"levelo://app?vid=a10f3b16-3fbc-4dee-8103-58f27ab34ae6"},"vehicle_type_id":"4","last_reported":1781636942,"current_range_meters":4400,"station_id":"ce4bgi12rcd13ifvqb80","pricing_plan_id":"cebpf4jnsgd1na2vs0mg"},{"bike_id":"cc47e814-ad06-4720-ad5e-9c07f4e21508","system_id":"levelo_inurba_marseille","lat":43.28609,"lon":5.3706,"is_reserved":false,"is_disabled":false,"rental_uris":{"android":"levelo://app?vid=cc47e814-ad06-4720-ad5e-9c07f4e21508","ios":"levelo://app?vid=cc47e814-ad06-4720-ad5e-9c07f4e21508"},"vehicle_type_id":"4","last_reported":1781636942,"current_range_meters":4400,"station_id":"ce4bht12rcd13ifvqi60","pricing_plan_id":"cebpf4jnsgd1na2vs0mg"},{"bike_id":"a8630f4d-78f3-43b1-842d-07d8160d4b6d","system_id":"levelo_inurba_marseille","lat":43.313571,"lon":5.366973,"is_reserved":false,"is_disabled":false,"rental_uris":{"android":"levelo://app?vid=a8630f4d-78f3-43b1-842d-07d8160d4b6d","ios":"levelo://app?vid=a8630f4d-78f3-43b1-842d-07d8160d4b6d"},"vehicle_type_id":"4","last_reported":1781636942,"current_range_meters":4400,"station_id":"ce4bgr92rcd13ifvqc6g","pricing_plan_id":"cebpf4jnsgd1na2vs0mg"},{"bike_id":"d0038ec0-1dec-440c-a401-73e1470d029f","system_id":"levelo_inurba_marseille","lat":43.31752,"lon":5.39011,"is_reserved":false,"is_disabled":false,"rental_uris":{"android":"levelo://app?vid=d0038ec0-1dec-440c-a401-73e1470d029f","ios":"levelo://app?vid=d0038ec0-1dec-440c-a401-73e1470d029f"},"vehicle_type_id":"4","last_reported":1781636942,"current_range_meters":4400,"station_id":"ce4bhqp2rcd13ifvqhng","pricing_plan_id":"cebpf4jnsgd1na2vs0mg"},{"bike_id":"fe8fde28-f44f-464e-a332-99bc92c5997d","system_id":"levelo_inurba_marseille","lat":43.28714,"lon":5.37959,"is_reserved":false,"is_disabled":false,"rental_uris":{"android":"levelo://app?vid=fe8fde28-f44f-464e-a332-99bc92c5997d","ios":"levelo://app?vid=fe8fde28-f44f-464e-a332-99bc92c5997d"},"vehicle_type_id":"4","last_reported":1781636942,"current_range_meters":4400,"station_id":"ce4bh9p2rcd13ifvqec0","pricing_plan_id":"cebpf4jnsgd1na2vs0mg"},{"bike_id":"f394fc5a-e427-408e-a5c7-d95dcf33f74b","system_id":"levelo_inurba_marseille","lat":43.29157,"lon":5.37158,"is_reserved":false,"is_disabled":false,"rental_uris":{"android":"levelo://app?vid=f394fc5a-e427-408e-a5c7-d95dcf33f74b","ios":"levelo://app?vid=f394fc5a-e427-408e-a5c7-d95dcf33f74b"},"vehicle_type_id":"4","last_reported":1781636942,"current_range_meters":4400,"station_id":"ce4bha92rcd13ifvqeh0","pricing_plan_id":"cebpf4jnsgd1na2vs0mg"},{"bike_id":"6b0780d5-7465-4dc7-8c37-5cba6c0f1962","system_id":"levelo_inurba_marseille","lat":43.29305,"lon":5.37438,"is_reserved":false,"is_disabled":false,"rental_uris":{"android":"levelo://app?vid=6b0780d5-7465-4dc7-8c37-5cba6c0f1962","ios":"levelo://app?vid=6b0780d5-7465-4dc7-8c37-5cba6c0f1962"},"vehicle_type_id":"4","last_reported":1781636942,"current_range_meters":4400,"station_id":"ce4bgi12rcd13ifvqb70","pricing_plan_id":"cebpf4jnsgd1na2vs0mg"},{"bike_id":"d12eb4ba-0974-481f-8143-6585113fdf32","system_id":"levelo_inurba_marseille","lat":43.28831,"lon":5.35809,"is_reserved":false,"is_disabled":false,"rental_uris":{"android":"levelo://app?vid=d12eb4ba-0974-481f-8143-6585113fdf32","ios":"levelo://app?vid=d12eb4ba-0974-481f-8143-6585113fdf32"},"vehicle_type_id":"4","last_reported":1781636942,"current_range_meters":4400,"station_id":"ce4bhb12rcd13ifvqem0","pricing_plan_id":"cebpf4jnsgd1na2vs0mg"},{"bike_id":"0c9969fd-d8de-4f2c-897e-14b36ef71753","system_id":"levelo_inurba_marseille","lat":43.28861,"lon":5.3582,"is_reserved":false,"is_disabled":false,"rental_uris":{"android":"levelo://app?vid=0c9969fd-d8de-4f2c-897e-14b36ef71753","ios":"levelo://app?vid=0c9969fd-d8de-4f2c-897e-14b36ef71753"},"vehicle_type_id":"4","last_reported":1781636942,"current_range_meters":4400,"station_id":"ce4bhb12rcd13ifvqem0","pricing_plan_id":"cebpf4jnsgd1na2vs0mg"},{"bike_id":"c2cd4ee9-7d40-4ecc-9b92-a4ed2bff4747","system_id":"levelo_inurba_marseille","lat":43.28463,"lon":5.48406,"is_reserved":false,"is_disabled":false,"rental_uris":{"android":"levelo://app?vid=c2cd4ee9-7d40-4ecc-9b92-a4ed2bff4747","ios":"levelo://app?vid=c2cd4ee9-7d40-4ecc-9b92-a4ed2bff4747"},"vehicle_type_id":"4","last_reported":1781636942,"current_range_meters":4400,"station_id":"st_d3svhcjqgbts73a3dn0g","pricing_plan_id":"cebpf4jnsgd1na2vs0mg"},{"bike_id":"b44b8ff2-55f6-4289-ab67-aeec62089297","system_id":"levelo_inurba_marseille","lat":43.225345,"lon":5.34831,"is_reserved":false,"is_disabled":false,"rental_uris":{"android":"levelo://app?vid=b44b8ff2-55f6-4289-ab67-aeec62089297","ios":"levelo://app?vid=b44b8ff2-55f6-4289-ab67-aeec62089297"},"vehicle_type_id":"4","last_reported":1781636942,"current_range_meters":4400,"station_id":"st_cvj5dfep6f1abm77gieg","pricing_plan_id":"cebpf4jnsgd1na2vs0mg"},{"bike_id":"469a85fc-523d-45f9-8bbc-8819125cdadd","system_id":"levelo_inurba_marseille","lat":43.26042,"lon":5.37499,"is_reserved":false,"is_disabled":false,"rental_uris":{"android":"levelo://app?vid=469a85fc-523d-45f9-8bbc-8819125cdadd","ios":"levelo://app?vid=469a85fc-523d-45f9-8bbc-8819125cdadd"},"vehicle_type_id":"4","last_reported":1781636942,"current_range_meters":4800,"station_id":"ce4bhgh2rcd13ifvqfa0","pricing_plan_id":"cebpf4jnsgd1na2vs0mg"},{"bike_id":"6a3653d0-f8d6-4d8d-a498-1e51ce302a6b","system_id":"levelo_inurba_marseille","lat":43.3032,"lon":5.40434,"is_reserved":false,"is_disabled":false,"rental_uris":{"android":"levelo://app?vid=6a3653d0-f8d6-4d8d-a498-1e51ce302a6b","ios":"levelo://app?vid=6a3653d0-f8d6-4d8d-a498-1e51ce302a6b"},"vehicle_type_id":"4","last_reported":1781636942,"current_range_meters":4800,"station_id":"ce4bh012rcd13ifvqd10","pricing_plan_id":"cebpf4jnsgd1na2vs0mg"},{"bike_id":"f5662c74-763e-4ace-a90f-34be52be210e","system_id":"levelo_inurba_marseille","lat":43.28272,"lon":5.35065,"is_reserved":false,"is_disabled":true,"rental_uris":{"android":"levelo://app?vid=f5662c74-763e-4ace-a90f-34be52be210e","ios":"levelo://app?vid=f5662c74-763e-4ace-a90f-34be52be210e"},"vehicle_type_id":"4","last_reported":1781636942,"current_range_meters":4800,"station_id":"ce4bhbp2rcd13ifvqerg","pricing_plan_id":"cebpf4jnsgd1na2vs0mg"},{"bike_id":"6b8456b6-fc5b-4e8b-9e50-459169977057","system_id":"levelo_inurba_marseille","lat":43.29963,"lon":5.37161,"is_reserved":false,"is_disabled":false,"rental_uris":{"android":"levelo://app?vid=6b8456b6-fc5b-4e8b-9e50-459169977057","ios":"levelo://app?vid=6b8456b6-fc5b-4e8b-9e50-459169977057"},"vehicle_type_id":"4","last_reported":1781636942,"current_range_meters":4800,"station_id":"ce4bgr92rcd13ifvqc7g","pricing_plan_id":"cebpf4jnsgd1na2vs0mg"},{"bike_id":"70cf2e80-b98a-426c-8ec6-e3a43ed18eb8","system_id":"levelo_inurba_marseille","lat":43.32346,"lon":5.36721,"is_reserved":false,"is_disabled":false,"rental_uris":{"android":"levelo://app?vid=70cf2e80-b98a-426c-8ec6-e3a43ed18eb8","ios":"levelo://app?vid=70cf2e80-b98a-426c-8ec6-e3a43ed18eb8"},"vehicle_type_id":"4","last_reported":1781636942,"current_range_meters":4800,"station_id":"ce4bhsh2rcd13ifvqi2g","pricing_plan_id":"cebpf4jnsgd1na2vs0mg"},{"bike_id":"b2bbc8cd-f9d1-47bf-8aa7-b003af8fde32","system_id":"levelo_inurba_marseille","lat":43.2925,"lon":5.38362,"is_reserved":false,"is_disabled":false,"rental_uris":{"android":"levelo://app?vid=b2bbc8cd-f9d1-47bf-8aa7-b003af8fde32","ios":"levelo://app?vid=b2bbc8cd-f9d1-47bf-8aa7-b003af8fde32"},"vehicle_type_id":"4","last_reported":1781636942,"current_range_meters":4800,"station_id":"","pricing_plan_id":"cebpf4jnsgd1na2vs0mg"},{"bike_id":"0f9aee9c-d368-46ce-a204-b7c5f53e47a5","system_id":"levelo_inurba_marseille","lat":43.32103,"lon":5.36764,"is_reserved":false,"is_disabled":false,"rental_uris":{"android":"levelo://app?vid=0f9aee9c-d368-46ce-a204-b7c5f53e47a5","ios":"levelo://app?vid=0f9aee9c-d368-46ce-a204-b7c5f53e47a5"},"vehicle_type_id":"4","last_reported":1781636942,"current_range_meters":4800,"station_id":"ce4bhrh2rcd13ifvqhug","pricing_plan_id":"cebpf4jnsgd1na2vs0mg"},{"bike_id":"6bf5483e-d4f6-4140-8993-995218df5ea6","system_id":"levelo_inurba_marseille","lat":43.25856,"lon":5.39903,"is_reserved":false,"is_disabled":false,"rental_uris":{"android":"levelo://app?vid=6bf5483e-d4f6-4140-8993-995218df5ea6","ios":"levelo://app?vid=6bf5483e-d4f6-4140-8993-995218df5ea6"},"vehicle_type_id":"4","last_reported":1781636942,"current_range_meters":4800,"station_id":"ce4bhl92rcd13ifvqghg","pricing_plan_id":"cebpf4jnsgd1na2vs0mg"},{"bike_id":"ea86b37e-6f6f-4141-9ab8-88a38f203720","system_id":"levelo_inurba_marseille","lat":43.29301,"lon":5.37171,"is_reserved":false,"is_disabled":false,"rental_uris":{"android":"levelo://app?vid=ea86b37e-6f6f-4141-9ab8-88a38f203720","ios":"levelo://app?vid=ea86b37e-6f6f-4141-9ab8-88a38f203720"},"vehicle_type_id":"4","last_reported":1781636942,"current_range_meters":4800,"station_id":"ce4bgh92rcd13ifvqb40","pricing_plan_id":"cebpf4jnsgd1na2vs0mg"},{"bike_id":"f2a91a59-089a-400e-83e5-a3e4df4442fa","system_id":"levelo_inurba_marseille","lat":43.292726,"lon":5.384278,"is_reserved":false,"is_disabled":false,"rental_uris":{"android":"levelo://app?vid=f2a91a59-089a-400e-83e5-a3e4df4442fa","ios":"levelo://app?vid=f2a91a59-089a-400e-83e5-a3e4df4442fa"},"vehicle_type_id":"4","last_reported":1781636942,"current_range_meters":4800,"station_id":"ce4bh692rcd13ifvqea0","pricing_plan_id":"cebpf4jnsgd1na2vs0mg"},{"bike_id":"5c861eb6-c932-46f9-8473-d1da810b33eb","system_id":"levelo_inurba_marseille","lat":43.31537,"lon":5.38007,"is_reserved":false,"is_disabled":false,"rental_uris":{"android":"levelo://app?vid=5c861eb6-c932-46f9-8473-d1da810b33eb","ios":"levelo://app?vid=5c861eb6-c932-46f9-8473-d1da810b33eb"},"vehicle_type_id":"4","last_reported":1781636942,"current_range_meters":4800,"station_id":"ce4bhsp2rcd13ifvqi50","pricing_plan_id":"cebpf4jnsgd1na2vs0mg"},{"bike_id":"9f6bb2e6-dcdf-4017-a6ae-7d1c64e6e192","system_id":"levelo_inurba_marseille","lat":43.30449,"lon":5.37901,"is_reserved":false,"is_disabled":true,"rental_uris":{"android":"levelo://app?vid=9f6bb2e6-dcdf-4017-a6ae-7d1c64e6e192","ios":"levelo://app?vid=9f6bb2e6-dcdf-4017-a6ae-7d1c64e6e192"},"vehicle_type_id":"4","last_reported":1781636942,"current_range_meters":4800,"station_id":"ce4bgup2rcd13ifvqcn0","pricing_plan_id":"cebpf4jnsgd1na2vs0mg"},{"bike_id":"115e417e-a404-4ee0-a3d1-03fd76f2918e","system_id":"levelo_inurba_marseille","lat":43.28422,"lon":5.37511,"is_reserved":false,"is_disabled":false,"rental_uris":{"android":"levelo://app?vid=115e417e-a404-4ee0-a3d1-03fd76f2918e","ios":"levelo://app?vid=115e417e-a404-4ee0-a3d1-03fd76f2918e"},"vehicle_type_id":"4","last_reported":1781636942,"current_range_meters":4800,"station_id":"ce4bh412rcd13ifvqds0","pricing_plan_id":"cebpf4jnsgd1na2vs0mg"},{"bike_id":"29a1caeb-4a05-44df-818e-7c5f110c14b4","system_id":"levelo_inurba_marseille","lat":43.3172,"lon":5.40471,"is_reserved":false,"is_disabled":false,"rental_uris":{"android":"levelo://app?vid=29a1caeb-4a05-44df-818e-7c5f110c14b4","ios":"levelo://app?vid=29a1caeb-4a05-44df-818e-7c5f110c14b4"},"vehicle_type_id":"4","last_reported":1781636942,"current_range_meters":4800,"station_id":"ce4bh012rcd13ifvqd00","pricing_plan_id":"cebpf4jnsgd1na2vs0mg"},{"bike_id":"f8997cbc-16ba-4db8-8bc5-bb26cc5b4a05","system_id":"levelo_inurba_marseille","lat":43.29263,"lon":5.38446,"is_reserved":false,"is_disabled":false,"rental_uris":{"android":"levelo://app?vid=f8997cbc-16ba-4db8-8bc5-bb26cc5b4a05","ios":"levelo://app?vid=f8997cbc-16ba-4db8-8bc5-bb26cc5b4a05"},"vehicle_type_id":"4","last_reported":1781636942,"current_range_meters":5600,"station_id":"ce4bh692rcd13ifvqea0","pricing_plan_id":"cebpf4jnsgd1na2vs0mg"},{"bike_id":"9d681a4a-1eb7-4b5b-b9f2-2b1eefd455cc","system_id":"levelo_inurba_marseille","lat":43.26942,"lon":5.38634,"is_reserved":false,"is_disabled":true,"rental_uris":{"android":"levelo://app?vid=9d681a4a-1eb7-4b5b-b9f2-2b1eefd455cc","ios":"levelo://app?vid=9d681a4a-1eb7-4b5b-b9f2-2b1eefd455cc"},"vehicle_type_id":"4","last_reported":1781636942,"current_range_meters":5600,"station_id":"ce4bhh92rcd13ifvqfh0","pricing_plan_id":"cebpf4jnsgd1na2vs0mg"},{"bike_id":"722b93a9-4b8d-41b6-95f8-df801c919a1d","system_id":"levelo_inurba_marseille","lat":43.26502,"lon":5.3697,"is_reserved":false,"is_disabled":false,"rental_uris":{"android":"levelo://app?vid=722b93a9-4b8d-41b6-95f8-df801c919a1d","ios":"levelo://app?vid=722b93a9-4b8d-41b6-95f8-df801c919a1d"},"vehicle_type_id":"4","last_reported":1781636942,"current_range_meters":5600,"station_id":"","pricing_plan_id":"cebpf4jnsgd1na2vs0mg"},{"bike_id":"f443e024-361d-4ce8-9a19-0cb3869f75f7","system_id":"levelo_inurba_marseille","lat":43.32508,"lon":5.38286,"is_reserved":false,"is_disabled":false,"rental_uris":{"android":"levelo://app?vid=f443e024-361d-4ce8-9a19-0cb3869f75f7","ios":"levelo://app?vid=f443e024-361d-4ce8-9a19-0cb3869f75f7"},"vehicle_type_id":"4","last_reported":1781636942,"current_range_meters":5600,"station_id":"st_d4asgbiv49dc73anf9m0","pricing_plan_id":"cebpf4jnsgd1na2vs0mg"},{"bike_id":"99c733dd-649e-46a9-b68b-497ae3b72825","system_id":"levelo_inurba_marseille","lat":43.26258,"lon":5.37474,"is_reserved":false,"is_disabled":false,"rental_uris":{"android":"levelo://app?vid=99c733dd-649e-46a9-b68b-497ae3b72825","ios":"levelo://app?vid=99c733dd-649e-46a9-b68b-497ae3b72825"},"vehicle_type_id":"4","last_reported":1781636942,"current_range_meters":5600,"station_id":"","pricing_plan_id":"cebpf4jnsgd1na2vs0mg"},{"bike_id":"b7a08dbc-39f9-4757-b756-d770414c1d16","system_id":"levelo_inurba_marseille","lat":43.29261,"lon":5.36854,"is_reserved":false,"is_disabled":false,"rental_uris":{"android":"levelo://app?vid=b7a08dbc-39f9-4757-b756-d770414c1d16","ios":"levelo://app?vid=b7a08dbc-39f9-4757-b756-d770414c1d16"},"vehicle_type_id":"4","last_reported":1781636942,"current_range_meters":5600,"station_id":"ce4bhbp2rcd13ifvqesg","pricing_plan_id":"cebpf4jnsgd1na2vs0mg"},{"bike_id":"a3b69552-e911-4f3d-8caf-6e709f8b898e","system_id":"levelo_inurba_marseille","lat":43.31328,"lon":5.39698,"is_reserved":false,"is_disabled":false,"rental_uris":{"android":"levelo://app?vid=a3b69552-e911-4f3d-8caf-6e709f8b898e","ios":"levelo://app?vid=a3b69552-e911-4f3d-8caf-6e709f8b898e"},"vehicle_type_id":"4","last_reported":1781636942,"current_range_meters":5600,"station_id":"ce4bgvp2rcd13ifvqcu0","pricing_plan_id":"cebpf4jnsgd1na2vs0mg"},{"bike_id":"993b3a3f-784b-4788-9902-e45897455a71","system_id":"levelo_inurba_marseille","lat":43.29519,"lon":5.37492,"is_reserved":false,"is_disabled":false,"rental_uris":{"android":"levelo://app?vid=993b3a3f-784b-4788-9902-e45897455a71","ios":"levelo://app?vid=993b3a3f-784b-4788-9902-e45897455a71"},"vehicle_type_id":"4","last_reported":1781636942,"current_range_meters":5600,"station_id":"ce4bgkp2rcd13ifvqbmg","pricing_plan_id":"cebpf4jnsgd1na2vs0mg"},{"bike_id":"b69f6881-fb77-4ac7-95f9-cb8b7b3351ce","system_id":"levelo_inurba_marseille","lat":43.33545,"lon":5.37435,"is_reserved":false,"is_disabled":false,"rental_uris":{"android":"levelo://app?vid=b69f6881-fb77-4ac7-95f9-cb8b7b3351ce","ios":"levelo://app?vid=b69f6881-fb77-4ac7-95f9-cb8b7b3351ce"},"vehicle_type_id":"4","last_reported":1781636942,"current_range_meters":5600,"station_id":"st_d46tts09ee8s73dlu43g","pricing_plan_id":"cebpf4jnsgd1na2vs0mg"},{"bike_id":"eba5bb55-d5e4-4833-bb81-0cf61442c817","system_id":"levelo_inurba_marseille","lat":43.22564,"lon":5.41622,"is_reserved":false,"is_disabled":true,"rental_uris":{"android":"levelo://app?vid=eba5bb55-d5e4-4833-bb81-0cf61442c817","ios":"levelo://app?vid=eba5bb55-d5e4-4833-bb81-0cf61442c817"},"vehicle_type_id":"4","last_reported":1781636942,"current_range_meters":5600,"station_id":"st_d2o4gvlbi1j2169b742g","pricing_plan_id":"cebpf4jnsgd1na2vs0mg"},{"bike_id":"75dd6d21-1299-4d71-8fbb-c48f4aa3f9cc","system_id":"levelo_inurba_marseille","lat":43.2707,"lon":5.42277,"is_reserved":false,"is_disabled":false,"rental_uris":{"android":"levelo://app?vid=75dd6d21-1299-4d71-8fbb-c48f4aa3f9cc","ios":"levelo://app?vid=75dd6d21-1299-4d71-8fbb-c48f4aa3f9cc"},"vehicle_type_id":"4","last_reported":1781636942,"current_range_meters":5600,"station_id":"ce4bhk92rcd13ifvqgb0","pricing_plan_id":"cebpf4jnsgd1na2vs0mg"},{"bike_id":"e0a87c9e-e855-41b5-b911-d203f243ff97","system_id":"levelo_inurba_marseille","lat":43.29527,"lon":5.39055,"is_reserved":false,"is_disabled":false,"rental_uris":{"android":"levelo://app?vid=e0a87c9e-e855-41b5-b911-d203f243ff97","ios":"levelo://app?vid=e0a87c9e-e855-41b5-b911-d203f243ff97"},"vehicle_type_id":"4","last_reported":1781636942,"current_range_meters":5600,"station_id":"ce4bh3p2rcd13ifvqdp0","pricing_plan_id":"cebpf4jnsgd1na2vs0mg"},{"bike_id":"85f44406-89df-44a4-87da-40c10b878454","system_id":"levelo_inurba_marseille","lat":43.292933,"lon":5.374682,"is_reserved":false,"is_disabled":false,"rental_uris":{"android":"levelo://app?vid=85f44406-89df-44a4-87da-40c10b878454","ios":"levelo://app?vid=85f44406-89df-44a4-87da-40c10b878454"},"vehicle_type_id":"4","last_reported":1781636942,"current_range_meters":5600,"station_id":"ce4bgi12rcd13ifvqb70","pricing_plan_id":"cebpf4jnsgd1na2vs0mg"},{"bike_id":"855916cf-871a-4a43-a81b-8680b4667940","system_id":"levelo_inurba_marseille","lat":43.25824,"lon":5.39433,"is_reserved":false,"is_disabled":false,"rental_uris":{"android":"levelo://app?vid=855916cf-871a-4a43-a81b-8680b4667940","ios":"levelo://app?vid=855916cf-871a-4a43-a81b-8680b4667940"},"vehicle_type_id":"4","last_reported":1781636942,"current_range_meters":5600,"station_id":"ce4bhip2rcd13ifvqft0","pricing_plan_id":"cebpf4jnsgd1na2vs0mg"},{"bike_id":"5d129347-af29-49ea-afd9-83b4c48fb447","system_id":"levelo_inurba_marseille","lat":43.28476,"lon":5.48386,"is_reserved":false,"is_disabled":false,"rental_uris":{"android":"levelo://app?vid=5d129347-af29-49ea-afd9-83b4c48fb447","ios":"levelo://app?vid=5d129347-af29-49ea-afd9-83b4c48fb447"},"vehicle_type_id":"4","last_reported":1781636942,"current_range_meters":5600,"station_id":"st_d3svhcjqgbts73a3dn0g","pricing_plan_id":"cebpf4jnsgd1na2vs0mg"},{"bike_id":"fbdf9300-a9d0-4ae5-ba34-bbb5c8c31ae9","system_id":"levelo_inurba_marseille","lat":43.2929,"lon":5.3746,"is_reserved":false,"is_disabled":false,"rental_uris":{"android":"levelo://app?vid=fbdf9300-a9d0-4ae5-ba34-bbb5c8c31ae9","ios":"levelo://app?vid=fbdf9300-a9d0-4ae5-ba34-bbb5c8c31ae9"},"vehicle_type_id":"4","last_reported":1781636942,"current_range_meters":5600,"station_id":"ce4bgi12rcd13ifvqb70","pricing_plan_id":"cebpf4jnsgd1na2vs0mg"},{"bike_id":"8109a4a1-1a37-4965-b832-4e9986b75afd","system_id":"levelo_inurba_marseille","lat":43.29873,"lon":5.3889,"is_reserved":false,"is_disabled":true,"rental_uris":{"android":"levelo://app?vid=8109a4a1-1a37-4965-b832-4e9986b75afd","ios":"levelo://app?vid=8109a4a1-1a37-4965-b832-4e9986b75afd"},"vehicle_type_id":"4","last_reported":1781636942,"current_range_meters":5600,"station_id":"ce4bh392rcd13ifvqdl0","pricing_plan_id":"cebpf4jnsgd1na2vs0mg"},{"bike_id":"53a82365-9da5-4e63-979e-daf4c3e8079c","system_id":"levelo_inurba_marseille","lat":43.26188,"lon":5.37443,"is_reserved":false,"is_disabled":false,"rental_uris":{"android":"levelo://app?vid=53a82365-9da5-4e63-979e-daf4c3e8079c","ios":"levelo://app?vid=53a82365-9da5-4e63-979e-daf4c3e8079c"},"vehicle_type_id":"4","last_reported":1781636942,"current_range_meters":5600,"station_id":"ce4bhgp2rcd13ifvqfc0","pricing_plan_id":"cebpf4jnsgd1na2vs0mg"},{"bike_id":"6fff7e75-7c4f-49d7-a503-5baf7ba6c982","system_id":"levelo_inurba_marseille","lat":43.28611,"lon":5.37068,"is_reserved":false,"is_disabled":false,"rental_uris":{"android":"levelo://app?vid=6fff7e75-7c4f-49d7-a503-5baf7ba6c982","ios":"levelo://app?vid=6fff7e75-7c4f-49d7-a503-5baf7ba6c982"},"vehicle_type_id":"4","last_reported":1781636942,"current_range_meters":5600,"station_id":"ce4bht12rcd13ifvqi60","pricing_plan_id":"cebpf4jnsgd1na2vs0mg"},{"bike_id":"2abf4820-2c55-4e11-98d1-0ec39bf7fad5","system_id":"levelo_inurba_marseille","lat":43.28735,"lon":5.46693,"is_reserved":false,"is_disabled":false,"rental_uris":{"android":"levelo://app?vid=2abf4820-2c55-4e11-98d1-0ec39bf7fad5","ios":"levelo://app?vid=2abf4820-2c55-4e11-98d1-0ec39bf7fad5"},"vehicle_type_id":"4","last_reported":1781636942,"current_range_meters":5600,"station_id":"st_d6tc3vkotcvc738tfjhg","pricing_plan_id":"cebpf4jnsgd1na2vs0mg"},{"bike_id":"42309cf8-47ff-41d0-9f11-2f5e3bf0c8be","system_id":"levelo_inurba_marseille","lat":43.24636,"lon":5.4312,"is_reserved":false,"is_disabled":true,"rental_uris":{"android":"levelo://app?vid=42309cf8-47ff-41d0-9f11-2f5e3bf0c8be","ios":"levelo://app?vid=42309cf8-47ff-41d0-9f11-2f5e3bf0c8be"},"vehicle_type_id":"4","last_reported":1781636942,"current_range_meters":5600,"station_id":"st_d2m6c4gdas8pm72e190g","pricing_plan_id":"cebpf4jnsgd1na2vs0mg"},{"bike_id":"f3acb980-1f74-4359-9993-8bc2df67ad52","system_id":"levelo_inurba_marseille","lat":43.27938,"lon":5.41047,"is_reserved":false,"is_disabled":false,"rental_uris":{"android":"levelo://app?vid=f3acb980-1f74-4359-9993-8bc2df67ad52","ios":"levelo://app?vid=f3acb980-1f74-4359-9993-8bc2df67ad52"},"vehicle_type_id":"4","last_reported":1781636942,"current_range_meters":5600,"station_id":"ce4bhnp2rcd13ifvqh0g","pricing_plan_id":"cebpf4jnsgd1na2vs0mg"},{"bike_id":"428a0cd6-8d1a-4858-8791-a478ffd56919","system_id":"levelo_inurba_marseille","lat":43.28407,"lon":5.37508,"is_reserved":false,"is_disabled":false,"rental_uris":{"android":"levelo://app?vid=428a0cd6-8d1a-4858-8791-a478ffd56919","ios":"levelo://app?vid=428a0cd6-8d1a-4858-8791-a478ffd56919"},"vehicle_type_id":"4","last_reported":1781636942,"current_range_meters":5600,"station_id":"ce4bh412rcd13ifvqds0","pricing_plan_id":"cebpf4jnsgd1na2vs0mg"},{"bike_id":"06cdc0b3-5f41-4a88-ad46-c7a983bd5982","system_id":"levelo_inurba_marseille","lat":43.29268,"lon":5.38439,"is_reserved":false,"is_disabled":false,"rental_uris":{"android":"levelo://app?vid=06cdc0b3-5f41-4a88-ad46-c7a983bd5982","ios":"levelo://app?vid=06cdc0b3-5f41-4a88-ad46-c7a983bd5982"},"vehicle_type_id":"4","last_reported":1781636942,"current_range_meters":5600,"station_id":"","pricing_plan_id":"cebpf4jnsgd1na2vs0mg"},{"bike_id":"4c3d6e62-7138-439c-b987-5264193a41d9","system_id":"levelo_inurba_marseille","lat":43.28033,"lon":5.36942,"is_reserved":false,"is_disabled":false,"rental_uris":{"android":"levelo://app?vid=4c3d6e62-7138-439c-b987-5264193a41d9","ios":"levelo://app?vid=4c3d6e62-7138-439c-b987-5264193a41d9"},"vehicle_type_id":"4","last_reported":1781636942,"current_range_meters":5600,"station_id":"ce4bha12rcd13ifvqef0","pricing_plan_id":"cebpf4jnsgd1na2vs0mg"},{"bike_id":"85890b7b-2403-447a-ad52-97a75ebad38b","system_id":"levelo_inurba_marseille","lat":43.22533,"lon":5.3483,"is_reserved":false,"is_disabled":false,"rental_uris":{"android":"levelo://app?vid=85890b7b-2403-447a-ad52-97a75ebad38b","ios":"levelo://app?vid=85890b7b-2403-447a-ad52-97a75ebad38b"},"vehicle_type_id":"4","last_reported":1781636942,"current_range_meters":5600,"station_id":"st_cvj5dfep6f1abm77gieg","pricing_plan_id":"cebpf4jnsgd1na2vs0mg"},{"bike_id":"427a7360-b8a3-471d-ba03-95e25305d031","system_id":"levelo_inurba_marseille","lat":43.29293,"lon":5.3715,"is_reserved":false,"is_disabled":false,"rental_uris":{"android":"levelo://app?vid=427a7360-b8a3-471d-ba03-95e25305d031","ios":"levelo://app?vid=427a7360-b8a3-471d-ba03-95e25305d031"},"vehicle_type_id":"4","last_reported":1781636942,"current_range_meters":6000,"station_id":"ce4bgh92rcd13ifvqb40","pricing_plan_id":"cebpf4jnsgd1na2vs0mg"},{"bike_id":"37e7cb68-f27c-437d-bf93-594b4a90f334","system_id":"levelo_inurba_marseille","lat":43.29301,"lon":5.3719,"is_reserved":false,"is_disabled":false,"rental_uris":{"android":"levelo://app?vid=37e7cb68-f27c-437d-bf93-594b4a90f334","ios":"levelo://app?vid=37e7cb68-f27c-437d-bf93-594b4a90f334"},"vehicle_type_id":"4","last_reported":1781636942,"current_range_meters":6000,"station_id":"ce4bgh92rcd13ifvqb40","pricing_plan_id":"cebpf4jnsgd1na2vs0mg"},{"bike_id":"3fc9e65b-9747-4906-bb16-9f13d993d1fc","system_id":"levelo_inurba_marseille","lat":43.293,"lon":5.37197,"is_reserved":false,"is_disabled":false,"rental_uris":{"android":"levelo://app?vid=3fc9e65b-9747-4906-bb16-9f13d993d1fc","ios":"levelo://app?vid=3fc9e65b-9747-4906-bb16-9f13d993d1fc"},"vehicle_type_id":"4","last_reported":1781636942,"current_range_meters":6000,"station_id":"ce4bgh92rcd13ifvqb40","pricing_plan_id":"cebpf4jnsgd1na2vs0mg"},{"bike_id":"6116c5f1-dff1-49bb-99c3-21a3ad77c0f8","system_id":"levelo_inurba_marseille","lat":43.28482,"lon":5.48386,"is_reserved":false,"is_disabled":false,"rental_uris":{"android":"levelo://app?vid=6116c5f1-dff1-49bb-99c3-21a3ad77c0f8","ios":"levelo://app?vid=6116c5f1-dff1-49bb-99c3-21a3ad77c0f8"},"vehicle_type_id":"4","last_reported":1781636942,"current_range_meters":6000,"station_id":"st_d3svhcjqgbts73a3dn0g","pricing_plan_id":"cebpf4jnsgd1na2vs0mg"},{"bike_id":"945e53c5-21ab-4925-bfcd-e622dc1f0435","system_id":"levelo_inurba_marseille","lat":43.27722,"lon":5.39549,"is_reserved":false,"is_disabled":false,"rental_uris":{"android":"levelo://app?vid=945e53c5-21ab-4925-bfcd-e622dc1f0435","ios":"levelo://app?vid=945e53c5-21ab-4925-bfcd-e622dc1f0435"},"vehicle_type_id":"4","last_reported":1781636942,"current_range_meters":6000,"station_id":"","pricing_plan_id":"cebpf4jnsgd1na2vs0mg"},{"bike_id":"cbf9d02b-6124-4c44-8dce-7ce4be3e27c2","system_id":"levelo_inurba_marseille","lat":43.27803,"lon":5.40678,"is_reserved":false,"is_disabled":false,"rental_uris":{"android":"levelo://app?vid=cbf9d02b-6124-4c44-8dce-7ce4be3e27c2","ios":"levelo://app?vid=cbf9d02b-6124-4c44-8dce-7ce4be3e27c2"},"vehicle_type_id":"4","last_reported":1781636942,"current_range_meters":6000,"station_id":"ce4bhnh2rcd13ifvqgtg","pricing_plan_id":"cebpf4jnsgd1na2vs0mg"},{"bike_id":"6fa74f82-d57a-4fb1-8c05-39fe7b27aae4","system_id":"levelo_inurba_marseille","lat":43.2466,"lon":5.38169,"is_reserved":false,"is_disabled":false,"rental_uris":{"android":"levelo://app?vid=6fa74f82-d57a-4fb1-8c05-39fe7b27aae4","ios":"levelo://app?vid=6fa74f82-d57a-4fb1-8c05-39fe7b27aae4"},"vehicle_type_id":"4","last_reported":1781636942,"current_range_meters":6000,"station_id":"ce4bhih2rcd13ifvqfr0","pricing_plan_id":"cebpf4jnsgd1na2vs0mg"},{"bike_id":"4a19ee25-c472-4611-a863-fcf027e68f5e","system_id":"levelo_inurba_marseille","lat":43.21218,"lon":5.35061,"is_reserved":false,"is_disabled":false,"rental_uris":{"android":"levelo://app?vid=4a19ee25-c472-4611-a863-fcf027e68f5e","ios":"levelo://app?vid=4a19ee25-c472-4611-a863-fcf027e68f5e"},"vehicle_type_id":"4","last_reported":1781636942,"current_range_meters":6000,"station_id":"st_cvj6sg6p6f1abm77japg","pricing_plan_id":"cebpf4jnsgd1na2vs0mg"},{"bike_id":"5c873f8b-765b-4a52-b4cc-4439b4ee485f","system_id":"levelo_inurba_marseille","lat":43.31073,"lon":5.42435,"is_reserved":false,"is_disabled":true,"rental_uris":{"android":"levelo://app?vid=5c873f8b-765b-4a52-b4cc-4439b4ee485f","ios":"levelo://app?vid=5c873f8b-765b-4a52-b4cc-4439b4ee485f"},"vehicle_type_id":"4","last_reported":1781636942,"current_range_meters":6000,"station_id":"ce4bhp92rcd13ifvqhag","pricing_plan_id":"cebpf4jnsgd1na2vs0mg"},{"bike_id":"fe242c79-6d0c-412e-aaf3-a8cd4ae5287c","system_id":"levelo_inurba_marseille","lat":43.29295,"lon":5.37174,"is_reserved":false,"is_disabled":false,"rental_uris":{"android":"levelo://app?vid=fe242c79-6d0c-412e-aaf3-a8cd4ae5287c","ios":"levelo://app?vid=fe242c79-6d0c-412e-aaf3-a8cd4ae5287c"},"vehicle_type_id":"4","last_reported":1781636942,"current_range_meters":6000,"station_id":"ce4bgh92rcd13ifvqb40","pricing_plan_id":"cebpf4jnsgd1na2vs0mg"},{"bike_id":"a3352822-4c86-4881-8d88-76428287d0d4","system_id":"levelo_inurba_marseille","lat":43.29284,"lon":5.38439,"is_reserved":false,"is_disabled":false,"rental_uris":{"android":"levelo://app?vid=a3352822-4c86-4881-8d88-76428287d0d4","ios":"levelo://app?vid=a3352822-4c86-4881-8d88-76428287d0d4"},"vehicle_type_id":"4","last_reported":1781636942,"current_range_meters":6000,"station_id":"ce4bh692rcd13ifvqea0","pricing_plan_id":"cebpf4jnsgd1na2vs0mg"},{"bike_id":"3ed6d499-3cfd-4b31-8c2c-c38f03f92e0a","system_id":"levelo_inurba_marseille","lat":43.30797,"lon":5.37644,"is_reserved":false,"is_disabled":false,"rental_uris":{"android":"levelo://app?vid=3ed6d499-3cfd-4b31-8c2c-c38f03f92e0a","ios":"levelo://app?vid=3ed6d499-3cfd-4b31-8c2c-c38f03f92e0a"},"vehicle_type_id":"4","last_reported":1781636942,"current_range_meters":6000,"station_id":"ce4bgv92rcd13ifvqcq0","pricing_plan_id":"cebpf4jnsgd1na2vs0mg"},{"bike_id":"05715ef9-b242-414d-83f0-b0970f08d7bc","system_id":"levelo_inurba_marseille","lat":43.24808,"lon":5.37449,"is_reserved":false,"is_disabled":false,"rental_uris":{"android":"levelo://app?vid=05715ef9-b242-414d-83f0-b0970f08d7bc","ios":"levelo://app?vid=05715ef9-b242-414d-83f0-b0970f08d7bc"},"vehicle_type_id":"4","last_reported":1781636942,"current_range_meters":6000,"station_id":"ce4bhgh2rcd13ifvqfb0","pricing_plan_id":"cebpf4jnsgd1na2vs0mg"},{"bike_id":"ed94596e-42e1-48db-ac16-38cbdf4667eb","system_id":"levelo_inurba_marseille","lat":43.29262,"lon":5.38448,"is_reserved":false,"is_disabled":false,"rental_uris":{"android":"levelo://app?vid=ed94596e-42e1-48db-ac16-38cbdf4667eb","ios":"levelo://app?vid=ed94596e-42e1-48db-ac16-38cbdf4667eb"},"vehicle_type_id":"4","last_reported":1781636942,"current_range_meters":6000,"station_id":"ce4bh692rcd13ifvqea0","pricing_plan_id":"cebpf4jnsgd1na2vs0mg"},{"bike_id":"16dc879a-5086-41dd-a7be-ba1394a540f4","system_id":"levelo_inurba_marseille","lat":43.29778,"lon":5.37059,"is_reserved":false,"is_disabled":false,"rental_uris":{"android":"levelo://app?vid=16dc879a-5086-41dd-a7be-ba1394a540f4","ios":"levelo://app?vid=16dc879a-5086-41dd-a7be-ba1394a540f4"},"vehicle_type_id":"4","last_reported":1781636942,"current_range_meters":6000,"station_id":"ce4bgop2rcd13ifvqc1g","pricing_plan_id":"cebpf4jnsgd1na2vs0mg"},{"bike_id":"feee6c70-ccbe-4153-9b76-1726d01a627c","system_id":"levelo_inurba_marseille","lat":43.26221,"lon":5.37433,"is_reserved":false,"is_disabled":false,"rental_uris":{"android":"levelo://app?vid=feee6c70-ccbe-4153-9b76-1726d01a627c","ios":"levelo://app?vid=feee6c70-ccbe-4153-9b76-1726d01a627c"},"vehicle_type_id":"4","last_reported":1781636942,"current_range_meters":6000,"station_id":"ce4bhgp2rcd13ifvqfc0","pricing_plan_id":"cebpf4jnsgd1na2vs0mg"},{"bike_id":"40f078df-f639-4896-908b-7a3f8797ff0d","system_id":"levelo_inurba_marseille","lat":43.29299,"lon":5.37181,"is_reserved":false,"is_disabled":false,"rental_uris":{"android":"levelo://app?vid=40f078df-f639-4896-908b-7a3f8797ff0d","ios":"levelo://app?vid=40f078df-f639-4896-908b-7a3f8797ff0d"},"vehicle_type_id":"4","last_reported":1781636942,"current_range_meters":6000,"station_id":"ce4bgh92rcd13ifvqb40","pricing_plan_id":"cebpf4jnsgd1na2vs0mg"},{"bike_id":"6f209e9b-62e6-4149-9f9b-fdb72f25ba1a","system_id":"levelo_inurba_marseille","lat":43.25504,"lon":5.37655,"is_reserved":false,"is_disabled":false,"rental_uris":{"android":"levelo://app?vid=6f209e9b-62e6-4149-9f9b-fdb72f25ba1a","ios":"levelo://app?vid=6f209e9b-62e6-4149-9f9b-fdb72f25ba1a"},"vehicle_type_id":"4","last_reported":1781636942,"current_range_meters":6000,"station_id":"ce4bhh12rcd13ifvqff0","pricing_plan_id":"cebpf4jnsgd1na2vs0mg"},{"bike_id":"8739460a-53fd-4505-92c2-301db8700d8e","system_id":"levelo_inurba_marseille","lat":43.297867,"lon":5.371013,"is_reserved":false,"is_disabled":false,"rental_uris":{"android":"levelo://app?vid=8739460a-53fd-4505-92c2-301db8700d8e","ios":"levelo://app?vid=8739460a-53fd-4505-92c2-301db8700d8e"},"vehicle_type_id":"4","last_reported":1781636942,"current_range_meters":6000,"station_id":"ce4bgop2rcd13ifvqc1g","pricing_plan_id":"cebpf4jnsgd1na2vs0mg"},{"bike_id":"8bb54122-5427-4e20-b299-f3f03fbba2bf","system_id":"levelo_inurba_marseille","lat":43.2707,"lon":5.4228,"is_reserved":false,"is_disabled":false,"rental_uris":{"android":"levelo://app?vid=8bb54122-5427-4e20-b299-f3f03fbba2bf","ios":"levelo://app?vid=8bb54122-5427-4e20-b299-f3f03fbba2bf"},"vehicle_type_id":"4","last_reported":1781636942,"current_range_meters":6000,"station_id":"ce4bhk92rcd13ifvqgb0","pricing_plan_id":"cebpf4jnsgd1na2vs0mg"},{"bike_id":"c339bdc6-522c-461c-bf40-92f4f11b1a04","system_id":"levelo_inurba_marseille","lat":43.29301,"lon":5.37174,"is_reserved":false,"is_disabled":false,"rental_uris":{"android":"levelo://app?vid=c339bdc6-522c-461c-bf40-92f4f11b1a04","ios":"levelo://app?vid=c339bdc6-522c-461c-bf40-92f4f11b1a04"},"vehicle_type_id":"4","last_reported":1781636942,"current_range_meters":6000,"station_id":"ce4bgh92rcd13ifvqb40","pricing_plan_id":"cebpf4jnsgd1na2vs0mg"},{"bike_id":"9a16e849-67b9-4ce6-8bbc-3f76319a0666","system_id":"levelo_inurba_marseille","lat":43.26806,"lon":5.394,"is_reserved":false,"is_disabled":true,"rental_uris":{"android":"levelo://app?vid=9a16e849-67b9-4ce6-8bbc-3f76319a0666","ios":"levelo://app?vid=9a16e849-67b9-4ce6-8bbc-3f76319a0666"},"vehicle_type_id":"4","last_reported":1781636942,"current_range_meters":6400,"station_id":"ce4bhh12rcd13ifvqfg0","pricing_plan_id":"cebpf4jnsgd1na2vs0mg"},{"bike_id":"2dec051a-143e-4f87-a8f4-99f39be29543","system_id":"levelo_inurba_marseille","lat":43.29531,"lon":5.38546,"is_reserved":false,"is_disabled":false,"rental_uris":{"android":"levelo://app?vid=2dec051a-143e-4f87-a8f4-99f39be29543","ios":"levelo://app?vid=2dec051a-143e-4f87-a8f4-99f39be29543"},"vehicle_type_id":"4","last_reported":1781636942,"current_range_meters":6400,"station_id":"ce4bgih2rcd13ifvqba0","pricing_plan_id":"cebpf4jnsgd1na2vs0mg"},{"bike_id":"3c92513c-ef77-4ccb-993e-bed360688e2e","system_id":"levelo_inurba_marseille","lat":43.2872,"lon":5.38655,"is_reserved":false,"is_disabled":false,"rental_uris":{"android":"levelo://app?vid=3c92513c-ef77-4ccb-993e-bed360688e2e","ios":"levelo://app?vid=3c92513c-ef77-4ccb-993e-bed360688e2e"},"vehicle_type_id":"4","last_reported":1781636942,"current_range_meters":6400,"station_id":"","pricing_plan_id":"cebpf4jnsgd1na2vs0mg"},{"bike_id":"98ac762a-026b-4aa9-bf69-b1d41ed76dc0","system_id":"levelo_inurba_marseille","lat":43.30869,"lon":5.37192,"is_reserved":false,"is_disabled":true,"rental_uris":{"android":"levelo://app?vid=98ac762a-026b-4aa9-bf69-b1d41ed76dc0","ios":"levelo://app?vid=98ac762a-026b-4aa9-bf69-b1d41ed76dc0"},"vehicle_type_id":"4","last_reported":1781636942,"current_range_meters":6400,"station_id":"ce4bguh2rcd13ifvqckg","pricing_plan_id":"cebpf4jnsgd1na2vs0mg"},{"bike_id":"dbf373a2-f106-4e14-8d03-65915c890981","system_id":"levelo_inurba_marseille","lat":43.29523,"lon":5.38528,"is_reserved":false,"is_disabled":false,"rental_uris":{"android":"levelo://app?vid=dbf373a2-f106-4e14-8d03-65915c890981","ios":"levelo://app?vid=dbf373a2-f106-4e14-8d03-65915c890981"},"vehicle_type_id":"4","last_reported":1781636942,"current_range_meters":6400,"station_id":"ce4bgih2rcd13ifvqba0","pricing_plan_id":"cebpf4jnsgd1na2vs0mg"},{"bike_id":"9a8ad781-d0bb-480a-9de9-779a6475e47c","system_id":"levelo_inurba_marseille","lat":43.3236,"lon":5.36718,"is_reserved":false,"is_disabled":false,"rental_uris":{"android":"levelo://app?vid=9a8ad781-d0bb-480a-9de9-779a6475e47c","ios":"levelo://app?vid=9a8ad781-d0bb-480a-9de9-779a6475e47c"},"vehicle_type_id":"4","last_reported":1781636942,"current_range_meters":6400,"station_id":"ce4bhsh2rcd13ifvqi2g","pricing_plan_id":"cebpf4jnsgd1na2vs0mg"},{"bike_id":"fddd4ce0-bc41-4e84-a2fd-17864bc196c4","system_id":"levelo_inurba_marseille","lat":43.29258,"lon":5.38442,"is_reserved":false,"is_disabled":false,"rental_uris":{"android":"levelo://app?vid=fddd4ce0-bc41-4e84-a2fd-17864bc196c4","ios":"levelo://app?vid=fddd4ce0-bc41-4e84-a2fd-17864bc196c4"},"vehicle_type_id":"4","last_reported":1781636942,"current_range_meters":6400,"station_id":"ce4bh692rcd13ifvqea0","pricing_plan_id":"cebpf4jnsgd1na2vs0mg"},{"bike_id":"d68ee0ff-9827-4578-9772-bca1293f0f89","system_id":"levelo_inurba_marseille","lat":43.28493,"lon":5.4837,"is_reserved":false,"is_disabled":false,"rental_uris":{"android":"levelo://app?vid=d68ee0ff-9827-4578-9772-bca1293f0f89","ios":"levelo://app?vid=d68ee0ff-9827-4578-9772-bca1293f0f89"},"vehicle_type_id":"4","last_reported":1781636942,"current_range_meters":6400,"station_id":"st_d3svhcjqgbts73a3dn0g","pricing_plan_id":"cebpf4jnsgd1na2vs0mg"},{"bike_id":"96a488e2-3301-4c74-b7c0-537d3a9e38b5","system_id":"levelo_inurba_marseille","lat":43.27813,"lon":5.40715,"is_reserved":false,"is_disabled":false,"rental_uris":{"android":"levelo://app?vid=96a488e2-3301-4c74-b7c0-537d3a9e38b5","ios":"levelo://app?vid=96a488e2-3301-4c74-b7c0-537d3a9e38b5"},"vehicle_type_id":"4","last_reported":1781636942,"current_range_meters":6400,"station_id":"ce4bhnh2rcd13ifvqgtg","pricing_plan_id":"cebpf4jnsgd1na2vs0mg"},{"bike_id":"68deeb76-a1bf-4540-a85a-31cde14a7f40","system_id":"levelo_inurba_marseille","lat":43.28613,"lon":5.37052,"is_reserved":false,"is_disabled":false,"rental_uris":{"android":"levelo://app?vid=68deeb76-a1bf-4540-a85a-31cde14a7f40","ios":"levelo://app?vid=68deeb76-a1bf-4540-a85a-31cde14a7f40"},"vehicle_type_id":"4","last_reported":1781636942,"current_range_meters":6400,"station_id":"ce4bht12rcd13ifvqi60","pricing_plan_id":"cebpf4jnsgd1na2vs0mg"},{"bike_id":"b4b692fe-7662-49d3-9a9e-9effadf56b0e","system_id":"levelo_inurba_marseille","lat":43.31321,"lon":5.3844,"is_reserved":false,"is_disabled":false,"rental_uris":{"android":"levelo://app?vid=b4b692fe-7662-49d3-9a9e-9effadf56b0e","ios":"levelo://app?vid=b4b692fe-7662-49d3-9a9e-9effadf56b0e"},"vehicle_type_id":"4","last_reported":1781636942,"current_range_meters":6400,"station_id":"","pricing_plan_id":"cebpf4jnsgd1na2vs0mg"},{"bike_id":"297c4ae4-d4ff-4472-a93e-59520e131799","system_id":"levelo_inurba_marseille","lat":43.29529,"lon":5.38542,"is_reserved":false,"is_disabled":false,"rental_uris":{"android":"levelo://app?vid=297c4ae4-d4ff-4472-a93e-59520e131799","ios":"levelo://app?vid=297c4ae4-d4ff-4472-a93e-59520e131799"},"vehicle_type_id":"4","last_reported":1781636942,"current_range_meters":6400,"station_id":"ce4bgih2rcd13ifvqba0","pricing_plan_id":"cebpf4jnsgd1na2vs0mg"},{"bike_id":"e28c8f3f-6de2-4694-981a-7585934006f3","system_id":"levelo_inurba_marseille","lat":43.28526,"lon":5.48369,"is_reserved":false,"is_disabled":false,"rental_uris":{"android":"levelo://app?vid=e28c8f3f-6de2-4694-981a-7585934006f3","ios":"levelo://app?vid=e28c8f3f-6de2-4694-981a-7585934006f3"},"vehicle_type_id":"4","last_reported":1781636942,"current_range_meters":6400,"station_id":"","pricing_plan_id":"cebpf4jnsgd1na2vs0mg"},{"bike_id":"4e8e3fd0-de15-45de-9d13-fc3bb689abe8","system_id":"levelo_inurba_marseille","lat":43.29549,"lon":5.42303,"is_reserved":false,"is_disabled":false,"rental_uris":{"android":"levelo://app?vid=4e8e3fd0-de15-45de-9d13-fc3bb689abe8","ios":"levelo://app?vid=4e8e3fd0-de15-45de-9d13-fc3bb689abe8"},"vehicle_type_id":"4","last_reported":1781636942,"current_range_meters":6400,"station_id":"ce4bhph2rcd13ifvqhdg","pricing_plan_id":"cebpf4jnsgd1na2vs0mg"},{"bike_id":"b8ce4aa5-e834-430d-bb23-e85e7d4bbab7","system_id":"levelo_inurba_marseille","lat":43.28708,"lon":5.46681,"is_reserved":false,"is_disabled":false,"rental_uris":{"android":"levelo://app?vid=b8ce4aa5-e834-430d-bb23-e85e7d4bbab7","ios":"levelo://app?vid=b8ce4aa5-e834-430d-bb23-e85e7d4bbab7"},"vehicle_type_id":"4","last_reported":1781636942,"current_range_meters":6400,"station_id":"st_d6tc3vkotcvc738tfjhg","pricing_plan_id":"cebpf4jnsgd1na2vs0mg"},{"bike_id":"57aa072b-4f7e-43f5-a89b-0cdd2fa99d15","system_id":"levelo_inurba_marseille","lat":43.27953,"lon":5.3908,"is_reserved":false,"is_disabled":false,"rental_uris":{"android":"levelo://app?vid=57aa072b-4f7e-43f5-a89b-0cdd2fa99d15","ios":"levelo://app?vid=57aa072b-4f7e-43f5-a89b-0cdd2fa99d15"},"vehicle_type_id":"4","last_reported":1781636942,"current_range_meters":6400,"station_id":"","pricing_plan_id":"cebpf4jnsgd1na2vs0mg"},{"bike_id":"fdae622c-1adf-4c80-83c6-e8cc8df9554a","system_id":"levelo_inurba_marseille","lat":43.24393,"lon":5.3707,"is_reserved":false,"is_disabled":false,"rental_uris":{"android":"levelo://app?vid=fdae622c-1adf-4c80-83c6-e8cc8df9554a","ios":"levelo://app?vid=fdae622c-1adf-4c80-83c6-e8cc8df9554a"},"vehicle_type_id":"4","last_reported":1781636942,"current_range_meters":6400,"station_id":"ce4bhhh2rcd13ifvqfk0","pricing_plan_id":"cebpf4jnsgd1na2vs0mg"},{"bike_id":"e6a32946-fc97-4f88-b744-a01e21eeb315","system_id":"levelo_inurba_marseille","lat":43.29296,"lon":5.3716,"is_reserved":false,"is_disabled":false,"rental_uris":{"android":"levelo://app?vid=e6a32946-fc97-4f88-b744-a01e21eeb315","ios":"levelo://app?vid=e6a32946-fc97-4f88-b744-a01e21eeb315"},"vehicle_type_id":"4","last_reported":1781636942,"current_range_meters":6400,"station_id":"ce4bgh92rcd13ifvqb40","pricing_plan_id":"cebpf4jnsgd1na2vs0mg"},{"bike_id":"5bbf0675-a206-4669-87e7-89e5ac9fbc6a","system_id":"levelo_inurba_marseille","lat":43.29938,"lon":5.36545,"is_reserved":false,"is_disabled":true,"rental_uris":{"android":"levelo://app?vid=5bbf0675-a206-4669-87e7-89e5ac9fbc6a","ios":"levelo://app?vid=5bbf0675-a206-4669-87e7-89e5ac9fbc6a"},"vehicle_type_id":"4","last_reported":1781636942,"current_range_meters":6400,"station_id":"ce4bgm92rcd13ifvqbr0","pricing_plan_id":"cebpf4jnsgd1na2vs0mg"},{"bike_id":"80c9b6e4-928c-4e8e-bbe8-e0d72c3e1aa9","system_id":"levelo_inurba_marseille","lat":43.26542,"lon":5.37286,"is_reserved":false,"is_disabled":false,"rental_uris":{"android":"levelo://app?vid=80c9b6e4-928c-4e8e-bbe8-e0d72c3e1aa9","ios":"levelo://app?vid=80c9b6e4-928c-4e8e-bbe8-e0d72c3e1aa9"},"vehicle_type_id":"4","last_reported":1781636942,"current_range_meters":6400,"station_id":"ce4bhg12rcd13ifvqf70","pricing_plan_id":"cebpf4jnsgd1na2vs0mg"},{"bike_id":"7f1a6b8c-3ab0-4d80-92d9-1166a0bd4a63","system_id":"levelo_inurba_marseille","lat":43.29298,"lon":5.3746,"is_reserved":false,"is_disabled":false,"rental_uris":{"android":"levelo://app?vid=7f1a6b8c-3ab0-4d80-92d9-1166a0bd4a63","ios":"levelo://app?vid=7f1a6b8c-3ab0-4d80-92d9-1166a0bd4a63"},"vehicle_type_id":"4","last_reported":1781636942,"current_range_meters":6400,"station_id":"ce4bgi12rcd13ifvqb70","pricing_plan_id":"cebpf4jnsgd1na2vs0mg"},{"bike_id":"e59fe79c-2c72-44d1-958c-28291c7d1327","system_id":"levelo_inurba_marseille","lat":43.29517,"lon":5.38507,"is_reserved":false,"is_disabled":false,"rental_uris":{"android":"levelo://app?vid=e59fe79c-2c72-44d1-958c-28291c7d1327","ios":"levelo://app?vid=e59fe79c-2c72-44d1-958c-28291c7d1327"},"vehicle_type_id":"4","last_reported":1781636942,"current_range_meters":6400,"station_id":"ce4bgih2rcd13ifvqba0","pricing_plan_id":"cebpf4jnsgd1na2vs0mg"},{"bike_id":"246f8f3c-66bf-491f-b4b2-48401ec74d4b","system_id":"levelo_inurba_marseille","lat":43.29928,"lon":5.37432,"is_reserved":false,"is_disabled":false,"rental_uris":{"android":"levelo://app?vid=246f8f3c-66bf-491f-b4b2-48401ec74d4b","ios":"levelo://app?vid=246f8f3c-66bf-491f-b4b2-48401ec74d4b"},"vehicle_type_id":"4","last_reported":1781636942,"current_range_meters":6400,"station_id":"ce4bgjh2rcd13ifvqbg0","pricing_plan_id":"cebpf4jnsgd1na2vs0mg"},{"bike_id":"c7f13de3-5a87-4158-aa12-d088953fb9d3","system_id":"levelo_inurba_marseille","lat":43.28672,"lon":5.38674,"is_reserved":false,"is_disabled":false,"rental_uris":{"android":"levelo://app?vid=c7f13de3-5a87-4158-aa12-d088953fb9d3","ios":"levelo://app?vid=c7f13de3-5a87-4158-aa12-d088953fb9d3"},"vehicle_type_id":"4","last_reported":1781636942,"current_range_meters":6800,"station_id":"ce4bh492rcd13ifvqdug","pricing_plan_id":"cebpf4jnsgd1na2vs0mg"},{"bike_id":"292b4d83-8027-43f2-8882-df104c31cba4","system_id":"levelo_inurba_marseille","lat":43.32075,"lon":5.36756,"is_reserved":false,"is_disabled":false,"rental_uris":{"android":"levelo://app?vid=292b4d83-8027-43f2-8882-df104c31cba4","ios":"levelo://app?vid=292b4d83-8027-43f2-8882-df104c31cba4"},"vehicle_type_id":"4","last_reported":1781636942,"current_range_meters":6800,"station_id":"ce4bhrh2rcd13ifvqhug","pricing_plan_id":"cebpf4jnsgd1na2vs0mg"},{"bike_id":"2382f2e8-91d6-49ee-93ef-7bf968868733","system_id":"levelo_inurba_marseille","lat":43.26574,"lon":5.39041,"is_reserved":false,"is_disabled":false,"rental_uris":{"android":"levelo://app?vid=2382f2e8-91d6-49ee-93ef-7bf968868733","ios":"levelo://app?vid=2382f2e8-91d6-49ee-93ef-7bf968868733"},"vehicle_type_id":"4","last_reported":1781636942,"current_range_meters":6800,"station_id":"ce4bhe12rcd13ifvqf30","pricing_plan_id":"cebpf4jnsgd1na2vs0mg"},{"bike_id":"d3da205d-8f2f-4b15-b086-5be6195e8b81","system_id":"levelo_inurba_marseille","lat":43.292972,"lon":5.371378,"is_reserved":false,"is_disabled":false,"rental_uris":{"android":"levelo://app?vid=d3da205d-8f2f-4b15-b086-5be6195e8b81","ios":"levelo://app?vid=d3da205d-8f2f-4b15-b086-5be6195e8b81"},"vehicle_type_id":"4","last_reported":1781636942,"current_range_meters":6800,"station_id":"ce4bhgp2rcd13ifvqfc0","pricing_plan_id":"cebpf4jnsgd1na2vs0mg"},{"bike_id":"66387572-1afe-4726-a112-370266d3862e","system_id":"levelo_inurba_marseille","lat":43.29114,"lon":5.38277,"is_reserved":false,"is_disabled":false,"rental_uris":{"android":"levelo://app?vid=66387572-1afe-4726-a112-370266d3862e","ios":"levelo://app?vid=66387572-1afe-4726-a112-370266d3862e"},"vehicle_type_id":"4","last_reported":1781636942,"current_range_meters":6800,"station_id":"","pricing_plan_id":"cebpf4jnsgd1na2vs0mg"},{"bike_id":"98766e8e-43a0-4d85-9259-b1575388ac48","system_id":"levelo_inurba_marseille","lat":43.26792,"lon":5.39407,"is_reserved":false,"is_disabled":false,"rental_uris":{"android":"levelo://app?vid=98766e8e-43a0-4d85-9259-b1575388ac48","ios":"levelo://app?vid=98766e8e-43a0-4d85-9259-b1575388ac48"},"vehicle_type_id":"4","last_reported":1781636942,"current_range_meters":6800,"station_id":"ce4bhh12rcd13ifvqfg0","pricing_plan_id":"cebpf4jnsgd1na2vs0mg"},{"bike_id":"0b4f1857-1d01-49ba-8710-c07d53ec611d","system_id":"levelo_inurba_marseille","lat":43.29787,"lon":5.37104,"is_reserved":false,"is_disabled":false,"rental_uris":{"android":"levelo://app?vid=0b4f1857-1d01-49ba-8710-c07d53ec611d","ios":"levelo://app?vid=0b4f1857-1d01-49ba-8710-c07d53ec611d"},"vehicle_type_id":"4","last_reported":1781636942,"current_range_meters":6800,"station_id":"ce4bgop2rcd13ifvqc1g","pricing_plan_id":"cebpf4jnsgd1na2vs0mg"},{"bike_id":"017d0b60-22dd-4a44-8a27-a53cb5de9e22","system_id":"levelo_inurba_marseille","lat":43.231966,"lon":5.355541,"is_reserved":false,"is_disabled":false,"rental_uris":{"android":"levelo://app?vid=017d0b60-22dd-4a44-8a27-a53cb5de9e22","ios":"levelo://app?vid=017d0b60-22dd-4a44-8a27-a53cb5de9e22"},"vehicle_type_id":"4","last_reported":1781636942,"current_range_meters":6800,"station_id":"ce4bhu92rcd13ifvqi70","pricing_plan_id":"cebpf4jnsgd1na2vs0mg"},{"bike_id":"0c81cfae-1a28-4cc9-86b0-4efa98983b9b","system_id":"levelo_inurba_marseille","lat":43.29023,"lon":5.38642,"is_reserved":false,"is_disabled":false,"rental_uris":{"android":"levelo://app?vid=0c81cfae-1a28-4cc9-86b0-4efa98983b9b","ios":"levelo://app?vid=0c81cfae-1a28-4cc9-86b0-4efa98983b9b"},"vehicle_type_id":"4","last_reported":1781636942,"current_range_meters":6800,"station_id":"ce4bh4p2rcd13ifvqe0g","pricing_plan_id":"cebpf4jnsgd1na2vs0mg"},{"bike_id":"5527bfdf-23ef-4565-8d3d-5af25e1dd82d","system_id":"levelo_inurba_marseille","lat":43.29531,"lon":5.39052,"is_reserved":false,"is_disabled":false,"rental_uris":{"android":"levelo://app?vid=5527bfdf-23ef-4565-8d3d-5af25e1dd82d","ios":"levelo://app?vid=5527bfdf-23ef-4565-8d3d-5af25e1dd82d"},"vehicle_type_id":"4","last_reported":1781636942,"current_range_meters":6800,"station_id":"ce4bh3p2rcd13ifvqdp0","pricing_plan_id":"cebpf4jnsgd1na2vs0mg"},{"bike_id":"521f8bff-d93e-46b7-a497-36af1d5949cb","system_id":"levelo_inurba_marseille","lat":43.29269,"lon":5.38434,"is_reserved":false,"is_disabled":false,"rental_uris":{"android":"levelo://app?vid=521f8bff-d93e-46b7-a497-36af1d5949cb","ios":"levelo://app?vid=521f8bff-d93e-46b7-a497-36af1d5949cb"},"vehicle_type_id":"4","last_reported":1781636942,"current_range_meters":6800,"station_id":"ce4bh692rcd13ifvqea0","pricing_plan_id":"cebpf4jnsgd1na2vs0mg"},{"bike_id":"8485d1cf-b26c-4b70-b017-2b5f10a92ffe","system_id":"levelo_inurba_marseille","lat":43.23962,"lon":5.36632,"is_reserved":false,"is_disabled":false,"rental_uris":{"android":"levelo://app?vid=8485d1cf-b26c-4b70-b017-2b5f10a92ffe","ios":"levelo://app?vid=8485d1cf-b26c-4b70-b017-2b5f10a92ffe"},"vehicle_type_id":"4","last_reported":1781636942,"current_range_meters":6800,"station_id":"ce4bhi12rcd13ifvqfp0","pricing_plan_id":"cebpf4jnsgd1na2vs0mg"},{"bike_id":"4b671f26-1c84-4f6e-bd82-67e684b74171","system_id":"levelo_inurba_marseille","lat":43.25473,"lon":5.37595,"is_reserved":false,"is_disabled":false,"rental_uris":{"android":"levelo://app?vid=4b671f26-1c84-4f6e-bd82-67e684b74171","ios":"levelo://app?vid=4b671f26-1c84-4f6e-bd82-67e684b74171"},"vehicle_type_id":"4","last_reported":1781636942,"current_range_meters":6800,"station_id":"ce4bhh12rcd13ifvqff0","pricing_plan_id":"cebpf4jnsgd1na2vs0mg"},{"bike_id":"a7a61d23-1898-46ca-8278-c2dee6913e00","system_id":"levelo_inurba_marseille","lat":43.29243,"lon":5.38447,"is_reserved":false,"is_disabled":false,"rental_uris":{"android":"levelo://app?vid=a7a61d23-1898-46ca-8278-c2dee6913e00","ios":"levelo://app?vid=a7a61d23-1898-46ca-8278-c2dee6913e00"},"vehicle_type_id":"4","last_reported":1781636942,"current_range_meters":6800,"station_id":"ce4bh692rcd13ifvqea0","pricing_plan_id":"cebpf4jnsgd1na2vs0mg"},{"bike_id":"7e7c8352-b0ea-43f8-a475-30823133f0dc","system_id":"levelo_inurba_marseille","lat":43.29547,"lon":5.38554,"is_reserved":false,"is_disabled":false,"rental_uris":{"android":"levelo://app?vid=7e7c8352-b0ea-43f8-a475-30823133f0dc","ios":"levelo://app?vid=7e7c8352-b0ea-43f8-a475-30823133f0dc"},"vehicle_type_id":"4","last_reported":1781636942,"current_range_meters":6800,"station_id":"ce4bgih2rcd13ifvqba0","pricing_plan_id":"cebpf4jnsgd1na2vs0mg"},{"bike_id":"af9862e0-50d4-4f19-9685-d2e303e78c1d","system_id":"levelo_inurba_marseille","lat":43.24465,"lon":5.43975,"is_reserved":false,"is_disabled":false,"rental_uris":{"android":"levelo://app?vid=af9862e0-50d4-4f19-9685-d2e303e78c1d","ios":"levelo://app?vid=af9862e0-50d4-4f19-9685-d2e303e78c1d"},"vehicle_type_id":"4","last_reported":1781636942,"current_range_meters":6800,"station_id":"","pricing_plan_id":"cebpf4jnsgd1na2vs0mg"},{"bike_id":"7e35cc2d-0c0c-49bb-bb65-c6ad65f80b99","system_id":"levelo_inurba_marseille","lat":43.29292,"lon":5.37464,"is_reserved":false,"is_disabled":false,"rental_uris":{"android":"levelo://app?vid=7e35cc2d-0c0c-49bb-bb65-c6ad65f80b99","ios":"levelo://app?vid=7e35cc2d-0c0c-49bb-bb65-c6ad65f80b99"},"vehicle_type_id":"4","last_reported":1781636942,"current_range_meters":6800,"station_id":"ce4bgi12rcd13ifvqb70","pricing_plan_id":"cebpf4jnsgd1na2vs0mg"},{"bike_id":"827c0b49-7a8d-4583-9d7a-708d84f7ae54","system_id":"levelo_inurba_marseille","lat":43.26957,"lon":5.38603,"is_reserved":false,"is_disabled":true,"rental_uris":{"android":"levelo://app?vid=827c0b49-7a8d-4583-9d7a-708d84f7ae54","ios":"levelo://app?vid=827c0b49-7a8d-4583-9d7a-708d84f7ae54"},"vehicle_type_id":"4","last_reported":1781636942,"current_range_meters":6800,"station_id":"ce4bhh92rcd13ifvqfh0","pricing_plan_id":"cebpf4jnsgd1na2vs0mg"},{"bike_id":"20c1fe14-9644-41dc-b47e-ce860bb6bec5","system_id":"levelo_inurba_marseille","lat":43.25588,"lon":5.38206,"is_reserved":false,"is_disabled":false,"rental_uris":{"android":"levelo://app?vid=20c1fe14-9644-41dc-b47e-ce860bb6bec5","ios":"levelo://app?vid=20c1fe14-9644-41dc-b47e-ce860bb6bec5"},"vehicle_type_id":"4","last_reported":1781636942,"current_range_meters":6800,"station_id":"ce4bhih2rcd13ifvqfs0","pricing_plan_id":"cebpf4jnsgd1na2vs0mg"},{"bike_id":"03200432-c984-4bc1-a968-e6eeff293f2a","system_id":"levelo_inurba_marseille","lat":43.29619,"lon":5.37164,"is_reserved":false,"is_disabled":false,"rental_uris":{"android":"levelo://app?vid=03200432-c984-4bc1-a968-e6eeff293f2a","ios":"levelo://app?vid=03200432-c984-4bc1-a968-e6eeff293f2a"},"vehicle_type_id":"4","last_reported":1781636942,"current_range_meters":6800,"station_id":"ce4bgnh2rcd13ifvqc0g","pricing_plan_id":"cebpf4jnsgd1na2vs0mg"},{"bike_id":"d38dc0ec-baff-43b0-a2a9-9794d0efb784","system_id":"levelo_inurba_marseille","lat":43.29523,"lon":5.3904,"is_reserved":false,"is_disabled":false,"rental_uris":{"android":"levelo://app?vid=d38dc0ec-baff-43b0-a2a9-9794d0efb784","ios":"levelo://app?vid=d38dc0ec-baff-43b0-a2a9-9794d0efb784"},"vehicle_type_id":"4","last_reported":1781636942,"current_range_meters":6800,"station_id":"ce4bh3p2rcd13ifvqdp0","pricing_plan_id":"cebpf4jnsgd1na2vs0mg"},{"bike_id":"dab157a9-d08c-45f0-9825-14ef77fe79a5","system_id":"levelo_inurba_marseille","lat":43.29258,"lon":5.40906,"is_reserved":false,"is_disabled":false,"rental_uris":{"android":"levelo://app?vid=dab157a9-d08c-45f0-9825-14ef77fe79a5","ios":"levelo://app?vid=dab157a9-d08c-45f0-9825-14ef77fe79a5"},"vehicle_type_id":"4","last_reported":1781636942,"current_range_meters":6800,"station_id":"ce4bh192rcd13ifvqdc0","pricing_plan_id":"cebpf4jnsgd1na2vs0mg"},{"bike_id":"ff9cbe7c-07e5-4e11-a046-accd9771ff04","system_id":"levelo_inurba_marseille","lat":43.29805,"lon":5.40407,"is_reserved":false,"is_disabled":false,"rental_uris":{"android":"levelo://app?vid=ff9cbe7c-07e5-4e11-a046-accd9771ff04","ios":"levelo://app?vid=ff9cbe7c-07e5-4e11-a046-accd9771ff04"},"vehicle_type_id":"4","last_reported":1781636942,"current_range_meters":6800,"station_id":"ce4bh112rcd13ifvqd90","pricing_plan_id":"cebpf4jnsgd1na2vs0mg"},{"bike_id":"49887413-7567-4e89-b123-9c8b58e26e94","system_id":"levelo_inurba_marseille","lat":43.2254,"lon":5.34831,"is_reserved":false,"is_disabled":false,"rental_uris":{"android":"levelo://app?vid=49887413-7567-4e89-b123-9c8b58e26e94","ios":"levelo://app?vid=49887413-7567-4e89-b123-9c8b58e26e94"},"vehicle_type_id":"4","last_reported":1781636942,"current_range_meters":6800,"station_id":"st_cvj5dfep6f1abm77gieg","pricing_plan_id":"cebpf4jnsgd1na2vs0mg"},{"bike_id":"b220c077-18c2-424b-88c3-f3990c538b2b","system_id":"levelo_inurba_marseille","lat":43.32317,"lon":5.38685,"is_reserved":false,"is_disabled":false,"rental_uris":{"android":"levelo://app?vid=b220c077-18c2-424b-88c3-f3990c538b2b","ios":"levelo://app?vid=b220c077-18c2-424b-88c3-f3990c538b2b"},"vehicle_type_id":"4","last_reported":1781636942,"current_range_meters":6800,"station_id":"","pricing_plan_id":"cebpf4jnsgd1na2vs0mg"},{"bike_id":"550d974c-b99f-41bd-b2c8-0bc7d49968f9","system_id":"levelo_inurba_marseille","lat":43.21184,"lon":5.35072,"is_reserved":false,"is_disabled":false,"rental_uris":{"android":"levelo://app?vid=550d974c-b99f-41bd-b2c8-0bc7d49968f9","ios":"levelo://app?vid=550d974c-b99f-41bd-b2c8-0bc7d49968f9"},"vehicle_type_id":"4","last_reported":1781636942,"current_range_meters":7200,"station_id":"st_cvj6sg6p6f1abm77japg","pricing_plan_id":"cebpf4jnsgd1na2vs0mg"},{"bike_id":"69ae5e42-2361-4160-86d7-bdf7a01700ee","system_id":"levelo_inurba_marseille","lat":43.27055,"lon":5.38295,"is_reserved":false,"is_disabled":false,"rental_uris":{"android":"levelo://app?vid=69ae5e42-2361-4160-86d7-bdf7a01700ee","ios":"levelo://app?vid=69ae5e42-2361-4160-86d7-bdf7a01700ee"},"vehicle_type_id":"4","last_reported":1781636942,"current_range_meters":7200,"station_id":"st_d3n2fo6cfp8s73cte1j0","pricing_plan_id":"cebpf4jnsgd1na2vs0mg"},{"bike_id":"84dfc79c-c0f3-467e-8430-0df8d7ab65fb","system_id":"levelo_inurba_marseille","lat":43.29248,"lon":5.38452,"is_reserved":false,"is_disabled":false,"rental_uris":{"android":"levelo://app?vid=84dfc79c-c0f3-467e-8430-0df8d7ab65fb","ios":"levelo://app?vid=84dfc79c-c0f3-467e-8430-0df8d7ab65fb"},"vehicle_type_id":"4","last_reported":1781636942,"current_range_meters":7200,"station_id":"ce4bh692rcd13ifvqea0","pricing_plan_id":"cebpf4jnsgd1na2vs0mg"},{"bike_id":"0fec111a-e1a4-45fa-a59f-a51056977d6e","system_id":"levelo_inurba_marseille","lat":43.28724,"lon":5.36091,"is_reserved":false,"is_disabled":false,"rental_uris":{"android":"levelo://app?vid=0fec111a-e1a4-45fa-a59f-a51056977d6e","ios":"levelo://app?vid=0fec111a-e1a4-45fa-a59f-a51056977d6e"},"vehicle_type_id":"4","last_reported":1781636942,"current_range_meters":7200,"station_id":"cki0cbj6b192h4jlfktg","pricing_plan_id":"cebpf4jnsgd1na2vs0mg"},{"bike_id":"6ebd801c-2261-4e77-9845-38417778256c","system_id":"levelo_inurba_marseille","lat":43.29302,"lon":5.40128,"is_reserved":false,"is_disabled":true,"rental_uris":{"android":"levelo://app?vid=6ebd801c-2261-4e77-9845-38417778256c","ios":"levelo://app?vid=6ebd801c-2261-4e77-9845-38417778256c"},"vehicle_type_id":"4","last_reported":1781636942,"current_range_meters":7200,"station_id":"ce4bh312rcd13ifvqdk0","pricing_plan_id":"cebpf4jnsgd1na2vs0mg"},{"bike_id":"802fde2c-c20f-44b9-b8c7-86d536a64160","system_id":"levelo_inurba_marseille","lat":43.26618,"lon":5.37413,"is_reserved":false,"is_disabled":false,"rental_uris":{"android":"levelo://app?vid=802fde2c-c20f-44b9-b8c7-86d536a64160","ios":"levelo://app?vid=802fde2c-c20f-44b9-b8c7-86d536a64160"},"vehicle_type_id":"4","last_reported":1781636942,"current_range_meters":7200,"station_id":"","pricing_plan_id":"cebpf4jnsgd1na2vs0mg"},{"bike_id":"702b88a9-b9b6-486c-93f7-6a4f9c8aaa7c","system_id":"levelo_inurba_marseille","lat":43.267856,"lon":5.394131,"is_reserved":false,"is_disabled":false,"rental_uris":{"android":"levelo://app?vid=702b88a9-b9b6-486c-93f7-6a4f9c8aaa7c","ios":"levelo://app?vid=702b88a9-b9b6-486c-93f7-6a4f9c8aaa7c"},"vehicle_type_id":"4","last_reported":1781636942,"current_range_meters":7200,"station_id":"ce4bhh12rcd13ifvqfg0","pricing_plan_id":"cebpf4jnsgd1na2vs0mg"},{"bike_id":"2e236a66-8d42-43d8-8312-c541ef08b5f3","system_id":"levelo_inurba_marseille","lat":43.293,"lon":5.3743,"is_reserved":false,"is_disabled":false,"rental_uris":{"android":"levelo://app?vid=2e236a66-8d42-43d8-8312-c541ef08b5f3","ios":"levelo://app?vid=2e236a66-8d42-43d8-8312-c541ef08b5f3"},"vehicle_type_id":"4","last_reported":1781636942,"current_range_meters":7200,"station_id":"ce4bgi12rcd13ifvqb70","pricing_plan_id":"cebpf4jnsgd1na2vs0mg"},{"bike_id":"59966b65-efda-49ab-ba05-8c3ec36f0dab","system_id":"levelo_inurba_marseille","lat":43.30226,"lon":5.38148,"is_reserved":false,"is_disabled":false,"rental_uris":{"android":"levelo://app?vid=59966b65-efda-49ab-ba05-8c3ec36f0dab","ios":"levelo://app?vid=59966b65-efda-49ab-ba05-8c3ec36f0dab"},"vehicle_type_id":"4","last_reported":1781636942,"current_range_meters":7200,"station_id":"","pricing_plan_id":"cebpf4jnsgd1na2vs0mg"},{"bike_id":"af95dff3-e0be-4f26-9360-bc5fa5ee838c","system_id":"levelo_inurba_marseille","lat":43.32115,"lon":5.36773,"is_reserved":false,"is_disabled":false,"rental_uris":{"android":"levelo://app?vid=af95dff3-e0be-4f26-9360-bc5fa5ee838c","ios":"levelo://app?vid=af95dff3-e0be-4f26-9360-bc5fa5ee838c"},"vehicle_type_id":"4","last_reported":1781636942,"current_range_meters":7200,"station_id":"ce4bhrh2rcd13ifvqhug","pricing_plan_id":"cebpf4jnsgd1na2vs0mg"},{"bike_id":"76ecdf96-44a8-42b8-9201-cbe7671d3ddc","system_id":"levelo_inurba_marseille","lat":43.28494,"lon":5.48387,"is_reserved":false,"is_disabled":false,"rental_uris":{"android":"levelo://app?vid=76ecdf96-44a8-42b8-9201-cbe7671d3ddc","ios":"levelo://app?vid=76ecdf96-44a8-42b8-9201-cbe7671d3ddc"},"vehicle_type_id":"4","last_reported":1781636942,"current_range_meters":7200,"station_id":"st_d3svhcjqgbts73a3dn0g","pricing_plan_id":"cebpf4jnsgd1na2vs0mg"},{"bike_id":"211b37e5-0f20-4753-8a96-f5694d8cbc40","system_id":"levelo_inurba_marseille","lat":43.29526,"lon":5.39399,"is_reserved":false,"is_disabled":false,"rental_uris":{"android":"levelo://app?vid=211b37e5-0f20-4753-8a96-f5694d8cbc40","ios":"levelo://app?vid=211b37e5-0f20-4753-8a96-f5694d8cbc40"},"vehicle_type_id":"4","last_reported":1781636942,"current_range_meters":7200,"station_id":"ce4bh292rcd13ifvqdf0","pricing_plan_id":"cebpf4jnsgd1na2vs0mg"},{"bike_id":"4ef05435-d8b5-45ff-9660-a31f4103c6e1","system_id":"levelo_inurba_marseille","lat":43.25397,"lon":5.37584,"is_reserved":false,"is_disabled":false,"rental_uris":{"android":"levelo://app?vid=4ef05435-d8b5-45ff-9660-a31f4103c6e1","ios":"levelo://app?vid=4ef05435-d8b5-45ff-9660-a31f4103c6e1"},"vehicle_type_id":"4","last_reported":1781636942,"current_range_meters":7200,"station_id":"","pricing_plan_id":"cebpf4jnsgd1na2vs0mg"},{"bike_id":"913f6312-9c4e-4412-83cb-2ca8263d307d","system_id":"levelo_inurba_marseille","lat":43.29146,"lon":5.37158,"is_reserved":false,"is_disabled":false,"rental_uris":{"android":"levelo://app?vid=913f6312-9c4e-4412-83cb-2ca8263d307d","ios":"levelo://app?vid=913f6312-9c4e-4412-83cb-2ca8263d307d"},"vehicle_type_id":"4","last_reported":1781636942,"current_range_meters":7200,"station_id":"ce4bha92rcd13ifvqeh0","pricing_plan_id":"cebpf4jnsgd1na2vs0mg"},{"bike_id":"8f23af7c-562c-4c4d-b7d1-f2416b74ad94","system_id":"levelo_inurba_marseille","lat":43.23222,"lon":5.40012,"is_reserved":false,"is_disabled":false,"rental_uris":{"android":"levelo://app?vid=8f23af7c-562c-4c4d-b7d1-f2416b74ad94","ios":"levelo://app?vid=8f23af7c-562c-4c4d-b7d1-f2416b74ad94"},"vehicle_type_id":"4","last_reported":1781636942,"current_range_meters":7200,"station_id":"ce4bhn12rcd13ifvqgqg","pricing_plan_id":"cebpf4jnsgd1na2vs0mg"},{"bike_id":"2f42fca5-6496-4296-beb9-328e85901f00","system_id":"levelo_inurba_marseille","lat":43.29709,"lon":5.366,"is_reserved":false,"is_disabled":false,"rental_uris":{"android":"levelo://app?vid=2f42fca5-6496-4296-beb9-328e85901f00","ios":"levelo://app?vid=2f42fca5-6496-4296-beb9-328e85901f00"},"vehicle_type_id":"4","last_reported":1781636942,"current_range_meters":7200,"station_id":"ce4bgn12rcd13ifvqbt0","pricing_plan_id":"cebpf4jnsgd1na2vs0mg"},{"bike_id":"da849ccb-b8f5-4419-9225-06e276ec0c0b","system_id":"levelo_inurba_marseille","lat":43.28872,"lon":5.39293,"is_reserved":false,"is_disabled":true,"rental_uris":{"android":"levelo://app?vid=da849ccb-b8f5-4419-9225-06e276ec0c0b","ios":"levelo://app?vid=da849ccb-b8f5-4419-9225-06e276ec0c0b"},"vehicle_type_id":"4","last_reported":1781636942,"current_range_meters":7200,"station_id":"ce4bh2p2rcd13ifvqdi0","pricing_plan_id":"cebpf4jnsgd1na2vs0mg"},{"bike_id":"90ee681d-9c83-4aa8-9c36-3cea45f66417","system_id":"levelo_inurba_marseille","lat":43.293,"lon":5.37194,"is_reserved":false,"is_disabled":false,"rental_uris":{"android":"levelo://app?vid=90ee681d-9c83-4aa8-9c36-3cea45f66417","ios":"levelo://app?vid=90ee681d-9c83-4aa8-9c36-3cea45f66417"},"vehicle_type_id":"4","last_reported":1781636942,"current_range_meters":7200,"station_id":"ce4bgh92rcd13ifvqb40","pricing_plan_id":"cebpf4jnsgd1na2vs0mg"},{"bike_id":"bf081de2-99b4-4fc8-aefb-c5c78e79016d","system_id":"levelo_inurba_marseille","lat":43.26568,"lon":5.3729,"is_reserved":false,"is_disabled":false,"rental_uris":{"android":"levelo://app?vid=bf081de2-99b4-4fc8-aefb-c5c78e79016d","ios":"levelo://app?vid=bf081de2-99b4-4fc8-aefb-c5c78e79016d"},"vehicle_type_id":"4","last_reported":1781636942,"current_range_meters":7200,"station_id":"ce4bhg12rcd13ifvqf70","pricing_plan_id":"cebpf4jnsgd1na2vs0mg"},{"bike_id":"7f1d1185-4b18-4ab6-beda-b70faa7fa3a5","system_id":"levelo_inurba_marseille","lat":43.29529,"lon":5.39405,"is_reserved":false,"is_disabled":false,"rental_uris":{"android":"levelo://app?vid=7f1d1185-4b18-4ab6-beda-b70faa7fa3a5","ios":"levelo://app?vid=7f1d1185-4b18-4ab6-beda-b70faa7fa3a5"},"vehicle_type_id":"4","last_reported":1781636942,"current_range_meters":7200,"station_id":"ce4bh292rcd13ifvqdf0","pricing_plan_id":"cebpf4jnsgd1na2vs0mg"},{"bike_id":"fe4809be-8b7b-4e75-9e6b-c9888af3d35e","system_id":"levelo_inurba_marseille","lat":43.289339,"lon":5.384004,"is_reserved":false,"is_disabled":false,"rental_uris":{"android":"levelo://app?vid=fe4809be-8b7b-4e75-9e6b-c9888af3d35e","ios":"levelo://app?vid=fe4809be-8b7b-4e75-9e6b-c9888af3d35e"},"vehicle_type_id":"4","last_reported":1781636942,"current_range_meters":7200,"station_id":"ce4bh612rcd13ifvqe6g","pricing_plan_id":"cebpf4jnsgd1na2vs0mg"},{"bike_id":"fe5474a2-2380-48d7-aaa4-2116df9a6a3f","system_id":"levelo_inurba_marseille","lat":43.24674,"lon":5.38141,"is_reserved":false,"is_disabled":false,"rental_uris":{"android":"levelo://app?vid=fe5474a2-2380-48d7-aaa4-2116df9a6a3f","ios":"levelo://app?vid=fe5474a2-2380-48d7-aaa4-2116df9a6a3f"},"vehicle_type_id":"4","last_reported":1781636942,"current_range_meters":7200,"station_id":"ce4bhih2rcd13ifvqfr0","pricing_plan_id":"cebpf4jnsgd1na2vs0mg"},{"bike_id":"91a68936-8506-454f-a23f-afe666119f41","system_id":"levelo_inurba_marseille","lat":43.28403,"lon":5.37502,"is_reserved":false,"is_disabled":false,"rental_uris":{"android":"levelo://app?vid=91a68936-8506-454f-a23f-afe666119f41","ios":"levelo://app?vid=91a68936-8506-454f-a23f-afe666119f41"},"vehicle_type_id":"4","last_reported":1781636942,"current_range_meters":7200,"station_id":"ce4bh412rcd13ifvqds0","pricing_plan_id":"cebpf4jnsgd1na2vs0mg"},{"bike_id":"0c98555c-c613-4e81-a903-600ba9ea3dc8","system_id":"levelo_inurba_marseille","lat":43.25078,"lon":5.39525,"is_reserved":false,"is_disabled":false,"rental_uris":{"android":"levelo://app?vid=0c98555c-c613-4e81-a903-600ba9ea3dc8","ios":"levelo://app?vid=0c98555c-c613-4e81-a903-600ba9ea3dc8"},"vehicle_type_id":"4","last_reported":1781636942,"current_range_meters":7200,"station_id":"ce4bhm12rcd13ifvqgkg","pricing_plan_id":"cebpf4jnsgd1na2vs0mg"},{"bike_id":"b8d962bd-a1f3-4e54-b465-868edf17144f","system_id":"levelo_inurba_marseille","lat":43.3153,"lon":5.37887,"is_reserved":false,"is_disabled":false,"rental_uris":{"android":"levelo://app?vid=b8d962bd-a1f3-4e54-b465-868edf17144f","ios":"levelo://app?vid=b8d962bd-a1f3-4e54-b465-868edf17144f"},"vehicle_type_id":"4","last_reported":1781636942,"current_range_meters":7200,"station_id":"","pricing_plan_id":"cebpf4jnsgd1na2vs0mg"},{"bike_id":"e227ca01-67d9-418b-a2c1-f216edd247de","system_id":"levelo_inurba_marseille","lat":43.29288,"lon":5.37447,"is_reserved":false,"is_disabled":false,"rental_uris":{"android":"levelo://app?vid=e227ca01-67d9-418b-a2c1-f216edd247de","ios":"levelo://app?vid=e227ca01-67d9-418b-a2c1-f216edd247de"},