{"last_updated":1707937544,"ttl":30,"version":"2.2","data":{"bikes":[{"bike_id":"797723a2-c5f6-4515-82c8-14dfde5a5f19","system_id":"levelo_inurba_marseille","lat":43.31341,"lon":5.367098,"is_reserved":false,"is_disabled":false,"rental_uris":{"android":"levelo://app?vid=797723a2-c5f6-4515-82c8-14dfde5a5f19","ios":"levelo://app?vid=797723a2-c5f6-4515-82c8-14dfde5a5f19"},"vehicle_type_id":"4","last_reported":1707937544,"current_range_meters":11200,"station_id":"ce4bgr92rcd13ifvqc6g","pricing_plan_id":"cebpf4jnsgd1na2vs0mg"},{"bike_id":"14c68aa8-5e6b-40c4-9579-cd909407f0d4","system_id":"levelo_inurba_marseille","lat":43.312239,"lon":5.368562,"is_reserved":false,"is_disabled":false,"rental_uris":{"android":"levelo://app?vid=14c68aa8-5e6b-40c4-9579-cd909407f0d4","ios":"levelo://app?vid=14c68aa8-5e6b-40c4-9579-cd909407f0d4"},"vehicle_type_id":"4","last_reported":1707937544,"current_range_meters":0,"station_id":"ce4bgl92rcd13ifvqbq0","pricing_plan_id":"cebpf4jnsgd1na2vs0mg"},{"bike_id":"04d2c094-327b-40bc-bba2-15f4b79d1f0a","system_id":"levelo_inurba_marseille","lat":43.309076,"lon":5.368465,"is_reserved":false,"is_disabled":false,"rental_uris":{"android":"levelo://app?vid=04d2c094-327b-40bc-bba2-15f4b79d1f0a","ios":"levelo://app?vid=04d2c094-327b-40bc-bba2-15f4b79d1f0a"},"vehicle_type_id":"4","last_reported":1707937544,"current_range_meters":14400,"station_id":"ce4bgn92rcd13ifvqbvg","pricing_plan_id":"cebpf4jnsgd1na2vs0mg"},{"bike_id":"ed352ace-f826-4534-8557-525abc3081ef","system_id":"levelo_inurba_marseille","lat":43.31484,"lon":5.37307,"is_reserved":false,"is_disabled":false,"rental_uris":{"android":"levelo://app?vid=ed352ace-f826-4534-8557-525abc3081ef","ios":"levelo://app?vid=ed352ace-f826-4534-8557-525abc3081ef"},"vehicle_type_id":"4","last_reported":1707937544,"current_range_meters":17200,"station_id":"ce4bgt12rcd13ifvqcd0","pricing_plan_id":"cebpf4jnsgd1na2vs0mg"},{"bike_id":"c3ccd1ee-82f6-4881-8a25-54efed3a4122","system_id":"levelo_inurba_marseille","lat":43.314811,"lon":5.373103,"is_reserved":false,"is_disabled":false,"rental_uris":{"android":"levelo://app?vid=c3ccd1ee-82f6-4881-8a25-54efed3a4122","ios":"levelo://app?vid=c3ccd1ee-82f6-4881-8a25-54efed3a4122"},"vehicle_type_id":"4","last_reported":1707937544,"current_range_meters":23600,"station_id":"ce4bgt12rcd13ifvqcd0","pricing_plan_id":"cebpf4jnsgd1na2vs0mg"},{"bike_id":"77b9e7ba-5620-4957-b520-9a9181212840","system_id":"levelo_inurba_marseille","lat":43.314811,"lon":5.373104,"is_reserved":false,"is_disabled":false,"rental_uris":{"android":"levelo://app?vid=77b9e7ba-5620-4957-b520-9a9181212840","ios":"levelo://app?vid=77b9e7ba-5620-4957-b520-9a9181212840"},"vehicle_type_id":"4","last_reported":1707937544,"current_range_meters":7600,"station_id":"ce4bgt12rcd13ifvqcd0","pricing_plan_id":"cebpf4jnsgd1na2vs0mg"},{"bike_id":"89070f39-9197-46cc-a2ee-3ba4e843a17f","system_id":"levelo_inurba_marseille","lat":43.309039,"lon":5.371797,"is_reserved":false,"is_disabled":false,"rental_uris":{"android":"levelo://app?vid=89070f39-9197-46cc-a2ee-3ba4e843a17f","ios":"levelo://app?vid=89070f39-9197-46cc-a2ee-3ba4e843a17f"},"vehicle_type_id":"4","last_reported":1707937544,"current_range_meters":22800,"station_id":"ce4bguh2rcd13ifvqckg","pricing_plan_id":"cebpf4jnsgd1na2vs0mg"},{"bike_id":"e4756414-4e43-4d3a-b2d4-dc850bf1cd82","system_id":"levelo_inurba_marseille","lat":43.309039,"lon":5.371797,"is_reserved":false,"is_disabled":false,"rental_uris":{"android":"levelo://app?vid=e4756414-4e43-4d3a-b2d4-dc850bf1cd82","ios":"levelo://app?vid=e4756414-4e43-4d3a-b2d4-dc850bf1cd82"},"vehicle_type_id":"4","last_reported":1707937544,"current_range_meters":0,"station_id":"ce4bguh2rcd13ifvqckg","pricing_plan_id":"cebpf4jnsgd1na2vs0mg"},{"bike_id":"cc5d3ce3-715a-482f-a2d7-735f887833c4","system_id":"levelo_inurba_marseille","lat":43.309039,"lon":5.371797,"is_reserved":false,"is_disabled":false,"rental_uris":{"android":"levelo://app?vid=cc5d3ce3-715a-482f-a2d7-735f887833c4","ios":"levelo://app?vid=cc5d3ce3-715a-482f-a2d7-735f887833c4"},"vehicle_type_id":"4","last_reported":1707937544,"current_range_meters":24400,"station_id":"ce4bguh2rcd13ifvqckg","pricing_plan_id":"cebpf4jnsgd1na2vs0mg"},{"bike_id":"a260498a-a444-4da3-9ae0-187943a25c37","system_id":"levelo_inurba_marseille","lat":43.31074,"lon":5.37488,"is_reserved":false,"is_disabled":false,"rental_uris":{"android":"levelo://app?vid=a260498a-a444-4da3-9ae0-187943a25c37","ios":"levelo://app?vid=a260498a-a444-4da3-9ae0-187943a25c37"},"vehicle_type_id":"4","last_reported":1707937544,"current_range_meters":3200,"station_id":"","pricing_plan_id":"cebpf4jnsgd1na2vs0mg"},{"bike_id":"af092561-9a71-41ca-b4d5-65cbddaef79b","system_id":"levelo_inurba_marseille","lat":43.305368,"lon":5.367343,"is_reserved":false,"is_disabled":false,"rental_uris":{"android":"levelo://app?vid=af092561-9a71-41ca-b4d5-65cbddaef79b","ios":"levelo://app?vid=af092561-9a71-41ca-b4d5-65cbddaef79b"},"vehicle_type_id":"4","last_reported":1707937544,"current_range_meters":4800,"station_id":"ce4bgrp2rcd13ifvqc9g","pricing_plan_id":"cebpf4jnsgd1na2vs0mg"},{"bike_id":"c57eae06-e4db-4e20-bc07-6efe87c8588d","system_id":"levelo_inurba_marseille","lat":43.30539,"lon":5.36543,"is_reserved":false,"is_disabled":false,"rental_uris":{"android":"levelo://app?vid=c57eae06-e4db-4e20-bc07-6efe87c8588d","ios":"levelo://app?vid=c57eae06-e4db-4e20-bc07-6efe87c8588d"},"vehicle_type_id":"4","last_reported":1707937544,"current_range_meters":0,"station_id":"ce4bgs12rcd13ifvqcag","pricing_plan_id":"cebpf4jnsgd1na2vs0mg"},{"bike_id":"767a4d53-e82b-40f1-80fc-e07900a1188e","system_id":"levelo_inurba_marseille","lat":43.305368,"lon":5.367343,"is_reserved":false,"is_disabled":false,"rental_uris":{"android":"levelo://app?vid=767a4d53-e82b-40f1-80fc-e07900a1188e","ios":"levelo://app?vid=767a4d53-e82b-40f1-80fc-e07900a1188e"},"vehicle_type_id":"4","last_reported":1707937544,"current_range_meters":20000,"station_id":"ce4bgrp2rcd13ifvqc9g","pricing_plan_id":"cebpf4jnsgd1na2vs0mg"},{"bike_id":"dc96746e-6ff2-4577-bd3d-3d69cc7eab55","system_id":"levelo_inurba_marseille","lat":43.305989,"lon":5.37225,"is_reserved":false,"is_disabled":false,"rental_uris":{"android":"levelo://app?vid=dc96746e-6ff2-4577-bd3d-3d69cc7eab55","ios":"levelo://app?vid=dc96746e-6ff2-4577-bd3d-3d69cc7eab55"},"vehicle_type_id":"4","last_reported":1707937544,"current_range_meters":9600,"station_id":"ce4bgqh2rcd13ifvqc4g","pricing_plan_id":"cebpf4jnsgd1na2vs0mg"},{"bike_id":"2282053c-61ef-4669-8153-0c6b4ccb121d","system_id":"levelo_inurba_marseille","lat":43.305989,"lon":5.37225,"is_reserved":false,"is_disabled":false,"rental_uris":{"android":"levelo://app?vid=2282053c-61ef-4669-8153-0c6b4ccb121d","ios":"levelo://app?vid=2282053c-61ef-4669-8153-0c6b4ccb121d"},"vehicle_type_id":"4","last_reported":1707937544,"current_range_meters":24800,"station_id":"ce4bgqh2rcd13ifvqc4g","pricing_plan_id":"cebpf4jnsgd1na2vs0mg"},{"bike_id":"c10ad5cd-853e-4e2a-8810-769567852f12","system_id":"levelo_inurba_marseille","lat":43.311125,"lon":5.377624,"is_reserved":false,"is_disabled":false,"rental_uris":{"android":"levelo://app?vid=c10ad5cd-853e-4e2a-8810-769567852f12","ios":"levelo://app?vid=c10ad5cd-853e-4e2a-8810-769567852f12"},"vehicle_type_id":"4","last_reported":1707937544,"current_range_meters":10400,"station_id":"ce4bgt92rcd13ifvqcg0","pricing_plan_id":"cebpf4jnsgd1na2vs0mg"},{"bike_id":"5b36b02d-e8bb-417b-b89c-7c3af74cab5d","system_id":"levelo_inurba_marseille","lat":43.311125,"lon":5.377624,"is_reserved":false,"is_disabled":false,"rental_uris":{"android":"levelo://app?vid=5b36b02d-e8bb-417b-b89c-7c3af74cab5d","ios":"levelo://app?vid=5b36b02d-e8bb-417b-b89c-7c3af74cab5d"},"vehicle_type_id":"4","last_reported":1707937544,"current_range_meters":15600,"station_id":"ce4bgt92rcd13ifvqcg0","pricing_plan_id":"cebpf4jnsgd1na2vs0mg"},{"bike_id":"149d55d6-45e3-4bd4-a486-3f1b8973681f","system_id":"levelo_inurba_marseille","lat":43.311125,"lon":5.377624,"is_reserved":false,"is_disabled":false,"rental_uris":{"android":"levelo://app?vid=149d55d6-45e3-4bd4-a486-3f1b8973681f","ios":"levelo://app?vid=149d55d6-45e3-4bd4-a486-3f1b8973681f"},"vehicle_type_id":"4","last_reported":1707937544,"current_range_meters":8400,"station_id":"ce4bgt92rcd13ifvqcg0","pricing_plan_id":"cebpf4jnsgd1na2vs0mg"},{"bike_id":"cce12e05-67cd-4a0e-922a-d0ad8f02514a","system_id":"levelo_inurba_marseille","lat":43.311125,"lon":5.377624,"is_reserved":false,"is_disabled":false,"rental_uris":{"android":"levelo://app?vid=cce12e05-67cd-4a0e-922a-d0ad8f02514a","ios":"levelo://app?vid=cce12e05-67cd-4a0e-922a-d0ad8f02514a"},"vehicle_type_id":"4","last_reported":1707937544,"current_range_meters":16000,"station_id":"ce4bgt92rcd13ifvqcg0","pricing_plan_id":"cebpf4jnsgd1na2vs0mg"},{"bike_id":"eebc31bd-12f8-4bae-8289-0d8268f2a96a","system_id":"levelo_inurba_marseille","lat":43.311125,"lon":5.377624,"is_reserved":false,"is_disabled":false,"rental_uris":{"android":"levelo://app?vid=eebc31bd-12f8-4bae-8289-0d8268f2a96a","ios":"levelo://app?vid=eebc31bd-12f8-4bae-8289-0d8268f2a96a"},"vehicle_type_id":"4","last_reported":1707937544,"current_range_meters":12000,"station_id":"ce4bgt92rcd13ifvqcg0","pricing_plan_id":"cebpf4jnsgd1na2vs0mg"},{"bike_id":"69dbc0cb-ff9d-4a34-a2c8-5abc5ae306a4","system_id":"levelo_inurba_marseille","lat":43.31112,"lon":5.37782,"is_reserved":false,"is_disabled":false,"rental_uris":{"android":"levelo://app?vid=69dbc0cb-ff9d-4a34-a2c8-5abc5ae306a4","ios":"levelo://app?vid=69dbc0cb-ff9d-4a34-a2c8-5abc5ae306a4"},"vehicle_type_id":"4","last_reported":1707937544,"current_range_meters":4000,"station_id":"ce4bgt92rcd13ifvqcg0","pricing_plan_id":"cebpf4jnsgd1na2vs0mg"},{"bike_id":"3333e69e-98b4-4c77-849e-be1ebc26dcce","system_id":"levelo_inurba_marseille","lat":43.311125,"lon":5.377624,"is_reserved":false,"is_disabled":false,"rental_uris":{"android":"levelo://app?vid=3333e69e-98b4-4c77-849e-be1ebc26dcce","ios":"levelo://app?vid=3333e69e-98b4-4c77-849e-be1ebc26dcce"},"vehicle_type_id":"4","last_reported":1707937544,"current_range_meters":12800,"station_id":"ce4bgt92rcd13ifvqcg0","pricing_plan_id":"cebpf4jnsgd1na2vs0mg"},{"bike_id":"61b5a39b-87ee-41e3-9775-88607268c5bb","system_id":"levelo_inurba_marseille","lat":43.311125,"lon":5.377624,"is_reserved":false,"is_disabled":false,"rental_uris":{"android":"levelo://app?vid=61b5a39b-87ee-41e3-9775-88607268c5bb","ios":"levelo://app?vid=61b5a39b-87ee-41e3-9775-88607268c5bb"},"vehicle_type_id":"4","last_reported":1707937544,"current_range_meters":0,"station_id":"ce4bgt92rcd13ifvqcg0","pricing_plan_id":"cebpf4jnsgd1na2vs0mg"},{"bike_id":"61adade9-1a1c-420c-aff8-2948c5d94f8c","system_id":"levelo_inurba_marseille","lat":43.307945,"lon":5.376487,"is_reserved":false,"is_disabled":false,"rental_uris":{"android":"levelo://app?vid=61adade9-1a1c-420c-aff8-2948c5d94f8c","ios":"levelo://app?vid=61adade9-1a1c-420c-aff8-2948c5d94f8c"},"vehicle_type_id":"4","last_reported":1707937544,"current_range_meters":2400,"station_id":"ce4bgv92rcd13ifvqcq0","pricing_plan_id":"cebpf4jnsgd1na2vs0mg"},{"bike_id":"4579e9b4-33da-4006-b465-db349977a8b7","system_id":"levelo_inurba_marseille","lat":43.307945,"lon":5.376487,"is_reserved":false,"is_disabled":false,"rental_uris":{"android":"levelo://app?vid=4579e9b4-33da-4006-b465-db349977a8b7","ios":"levelo://app?vid=4579e9b4-33da-4006-b465-db349977a8b7"},"vehicle_type_id":"4","last_reported":1707937544,"current_range_meters":6400,"station_id":"ce4bgv92rcd13ifvqcq0","pricing_plan_id":"cebpf4jnsgd1na2vs0mg"},{"bike_id":"2bdc46ba-5713-4b7d-87ae-5e577895302d","system_id":"levelo_inurba_marseille","lat":43.307945,"lon":5.376487,"is_reserved":false,"is_disabled":false,"rental_uris":{"android":"levelo://app?vid=2bdc46ba-5713-4b7d-87ae-5e577895302d","ios":"levelo://app?vid=2bdc46ba-5713-4b7d-87ae-5e577895302d"},"vehicle_type_id":"4","last_reported":1707937544,"current_range_meters":28400,"station_id":"ce4bgv92rcd13ifvqcq0","pricing_plan_id":"cebpf4jnsgd1na2vs0mg"},{"bike_id":"c5094e7e-d0e3-44aa-8304-153e454dc81c","system_id":"levelo_inurba_marseille","lat":43.307945,"lon":5.376487,"is_reserved":false,"is_disabled":false,"rental_uris":{"android":"levelo://app?vid=c5094e7e-d0e3-44aa-8304-153e454dc81c","ios":"levelo://app?vid=c5094e7e-d0e3-44aa-8304-153e454dc81c"},"vehicle_type_id":"4","last_reported":1707937544,"current_range_meters":29200,"station_id":"ce4bgv92rcd13ifvqcq0","pricing_plan_id":"cebpf4jnsgd1na2vs0mg"},{"bike_id":"e0ab11de-fc9c-4d4b-971a-3b2ba2a23340","system_id":"levelo_inurba_marseille","lat":43.317075,"lon":5.377367,"is_reserved":false,"is_disabled":false,"rental_uris":{"android":"levelo://app?vid=e0ab11de-fc9c-4d4b-971a-3b2ba2a23340","ios":"levelo://app?vid=e0ab11de-fc9c-4d4b-971a-3b2ba2a23340"},"vehicle_type_id":"4","last_reported":1707937544,"current_range_meters":18400,"station_id":"ce4bgth2rcd13ifvqch0","pricing_plan_id":"cebpf4jnsgd1na2vs0mg"},{"bike_id":"5ebd6bb0-1e47-459c-aab8-837488c8746a","system_id":"levelo_inurba_marseille","lat":43.317075,"lon":5.377367,"is_reserved":false,"is_disabled":false,"rental_uris":{"android":"levelo://app?vid=5ebd6bb0-1e47-459c-aab8-837488c8746a","ios":"levelo://app?vid=5ebd6bb0-1e47-459c-aab8-837488c8746a"},"vehicle_type_id":"4","last_reported":1707937544,"current_range_meters":6400,"station_id":"ce4bgth2rcd13ifvqch0","pricing_plan_id":"cebpf4jnsgd1na2vs0mg"},{"bike_id":"e8396d9b-01ad-42aa-ae6a-25e7361077f6","system_id":"levelo_inurba_marseille","lat":43.317075,"lon":5.377367,"is_reserved":false,"is_disabled":false,"rental_uris":{"android":"levelo://app?vid=e8396d9b-01ad-42aa-ae6a-25e7361077f6","ios":"levelo://app?vid=e8396d9b-01ad-42aa-ae6a-25e7361077f6"},"vehicle_type_id":"4","last_reported":1707937544,"current_range_meters":31600,"station_id":"ce4bgth2rcd13ifvqch0","pricing_plan_id":"cebpf4jnsgd1na2vs0mg"},{"bike_id":"ff4662aa-862c-4676-b1d9-a7baae8636c5","system_id":"levelo_inurba_marseille","lat":43.317075,"lon":5.377367,"is_reserved":false,"is_disabled":false,"rental_uris":{"android":"levelo://app?vid=ff4662aa-862c-4676-b1d9-a7baae8636c5","ios":"levelo://app?vid=ff4662aa-862c-4676-b1d9-a7baae8636c5"},"vehicle_type_id":"4","last_reported":1707937544,"current_range_meters":20000,"station_id":"ce4bgth2rcd13ifvqch0","pricing_plan_id":"cebpf4jnsgd1na2vs0mg"},{"bike_id":"c4e8f8a8-7b17-47f4-9155-81481109dceb","system_id":"levelo_inurba_marseille","lat":43.315293,"lon":5.380349,"is_reserved":false,"is_disabled":false,"rental_uris":{"android":"levelo://app?vid=c4e8f8a8-7b17-47f4-9155-81481109dceb","ios":"levelo://app?vid=c4e8f8a8-7b17-47f4-9155-81481109dceb"},"vehicle_type_id":"4","last_reported":1707937544,"current_range_meters":8400,"station_id":"ce4bhsp2rcd13ifvqi50","pricing_plan_id":"cebpf4jnsgd1na2vs0mg"},{"bike_id":"b08ae835-478b-4e23-8483-b0f9be2a3f49","system_id":"levelo_inurba_marseille","lat":43.315293,"lon":5.380349,"is_reserved":false,"is_disabled":false,"rental_uris":{"android":"levelo://app?vid=b08ae835-478b-4e23-8483-b0f9be2a3f49","ios":"levelo://app?vid=b08ae835-478b-4e23-8483-b0f9be2a3f49"},"vehicle_type_id":"4","last_reported":1707937544,"current_range_meters":4800,"station_id":"ce4bhsp2rcd13ifvqi50","pricing_plan_id":"cebpf4jnsgd1na2vs0mg"},{"bike_id":"0b1858c5-7a55-4b27-9c34-5b20959be22b","system_id":"levelo_inurba_marseille","lat":43.308012,"lon":5.381511,"is_reserved":false,"is_disabled":false,"rental_uris":{"android":"levelo://app?vid=0b1858c5-7a55-4b27-9c34-5b20959be22b","ios":"levelo://app?vid=0b1858c5-7a55-4b27-9c34-5b20959be22b"},"vehicle_type_id":"4","last_reported":1707937544,"current_range_meters":15200,"station_id":"ce4bgt12rcd13ifvqce0","pricing_plan_id":"cebpf4jnsgd1na2vs0mg"},{"bike_id":"940e282e-d41c-44d2-a1d3-0e1d11987766","system_id":"levelo_inurba_marseille","lat":43.308012,"lon":5.381511,"is_reserved":false,"is_disabled":false,"rental_uris":{"android":"levelo://app?vid=940e282e-d41c-44d2-a1d3-0e1d11987766","ios":"levelo://app?vid=940e282e-d41c-44d2-a1d3-0e1d11987766"},"vehicle_type_id":"4","last_reported":1707937544,"current_range_meters":0,"station_id":"ce4bgt12rcd13ifvqce0","pricing_plan_id":"cebpf4jnsgd1na2vs0mg"},{"bike_id":"bf82fa70-4e5d-42d8-8a58-a3c34236a2e1","system_id":"levelo_inurba_marseille","lat":43.308012,"lon":5.381511,"is_reserved":false,"is_disabled":false,"rental_uris":{"android":"levelo://app?vid=bf82fa70-4e5d-42d8-8a58-a3c34236a2e1","ios":"levelo://app?vid=bf82fa70-4e5d-42d8-8a58-a3c34236a2e1"},"vehicle_type_id":"4","last_reported":1707937544,"current_range_meters":2000,"station_id":"ce4bgt12rcd13ifvqce0","pricing_plan_id":"cebpf4jnsgd1na2vs0mg"},{"bike_id":"9c682d15-45f5-4c85-88ac-39f48e340272","system_id":"levelo_inurba_marseille","lat":43.308012,"lon":5.381511,"is_reserved":false,"is_disabled":false,"rental_uris":{"android":"levelo://app?vid=9c682d15-45f5-4c85-88ac-39f48e340272","ios":"levelo://app?vid=9c682d15-45f5-4c85-88ac-39f48e340272"},"vehicle_type_id":"4","last_reported":1707937544,"current_range_meters":23600,"station_id":"ce4bgt12rcd13ifvqce0","pricing_plan_id":"cebpf4jnsgd1na2vs0mg"},{"bike_id":"eaf76b94-1cb5-4923-acc9-3ff87ec1a8c2","system_id":"levelo_inurba_marseille","lat":43.324771,"lon":5.36557,"is_reserved":false,"is_disabled":false,"rental_uris":{"android":"levelo://app?vid=eaf76b94-1cb5-4923-acc9-3ff87ec1a8c2","ios":"levelo://app?vid=eaf76b94-1cb5-4923-acc9-3ff87ec1a8c2"},"vehicle_type_id":"4","last_reported":1707937544,"current_range_meters":9600,"station_id":"ce4bhs12rcd13ifvqhvg","pricing_plan_id":"cebpf4jnsgd1na2vs0mg"},{"bike_id":"1e108d17-6a7c-4829-9182-d67ce39c0879","system_id":"levelo_inurba_marseille","lat":43.324771,"lon":5.36557,"is_reserved":false,"is_disabled":false,"rental_uris":{"android":"levelo://app?vid=1e108d17-6a7c-4829-9182-d67ce39c0879","ios":"levelo://app?vid=1e108d17-6a7c-4829-9182-d67ce39c0879"},"vehicle_type_id":"4","last_reported":1707937544,"current_range_meters":20400,"station_id":"ce4bhs12rcd13ifvqhvg","pricing_plan_id":"cebpf4jnsgd1na2vs0mg"},{"bike_id":"259f72ab-368c-43b4-a219-f5bcc30d297d","system_id":"levelo_inurba_marseille","lat":43.310804,"lon":5.38359,"is_reserved":false,"is_disabled":false,"rental_uris":{"android":"levelo://app?vid=259f72ab-368c-43b4-a219-f5bcc30d297d","ios":"levelo://app?vid=259f72ab-368c-43b4-a219-f5bcc30d297d"},"vehicle_type_id":"4","last_reported":1707937544,"current_range_meters":10400,"station_id":"ce4bgv92rcd13ifvqcr0","pricing_plan_id":"cebpf4jnsgd1na2vs0mg"},{"bike_id":"71b4efb8-7aeb-49c5-9a62-83440eb853a7","system_id":"levelo_inurba_marseille","lat":43.310804,"lon":5.38359,"is_reserved":false,"is_disabled":false,"rental_uris":{"android":"levelo://app?vid=71b4efb8-7aeb-49c5-9a62-83440eb853a7","ios":"levelo://app?vid=71b4efb8-7aeb-49c5-9a62-83440eb853a7"},"vehicle_type_id":"4","last_reported":1707937544,"current_range_meters":0,"station_id":"ce4bgv92rcd13ifvqcr0","pricing_plan_id":"cebpf4jnsgd1na2vs0mg"},{"bike_id":"b91a38e7-759b-436f-bdf9-46b06d86f931","system_id":"levelo_inurba_marseille","lat":43.310804,"lon":5.38359,"is_reserved":false,"is_disabled":false,"rental_uris":{"android":"levelo://app?vid=b91a38e7-759b-436f-bdf9-46b06d86f931","ios":"levelo://app?vid=b91a38e7-759b-436f-bdf9-46b06d86f931"},"vehicle_type_id":"4","last_reported":1707937544,"current_range_meters":15200,"station_id":"ce4bgv92rcd13ifvqcr0","pricing_plan_id":"cebpf4jnsgd1na2vs0mg"},{"bike_id":"5fe1d487-0671-4794-ab96-d4fad8e0c5b2","system_id":"levelo_inurba_marseille","lat":43.30282,"lon":5.37703,"is_reserved":false,"is_disabled":false,"rental_uris":{"android":"levelo://app?vid=5fe1d487-0671-4794-ab96-d4fad8e0c5b2","ios":"levelo://app?vid=5fe1d487-0671-4794-ab96-d4fad8e0c5b2"},"vehicle_type_id":"4","last_reported":1707937544,"current_range_meters":0,"station_id":"ce4bguh2rcd13ifvqcj0","pricing_plan_id":"cebpf4jnsgd1na2vs0mg"},{"bike_id":"003670cd-8418-4b70-9feb-40a490ec6db9","system_id":"levelo_inurba_marseille","lat":43.310804,"lon":5.38359,"is_reserved":false,"is_disabled":false,"rental_uris":{"android":"levelo://app?vid=003670cd-8418-4b70-9feb-40a490ec6db9","ios":"levelo://app?vid=003670cd-8418-4b70-9feb-40a490ec6db9"},"vehicle_type_id":"4","last_reported":1707937544,"current_range_meters":13200,"station_id":"ce4bgv92rcd13ifvqcr0","pricing_plan_id":"cebpf4jnsgd1na2vs0mg"},{"bike_id":"03bd98fa-4eb3-4ef7-95d1-f7c83ba6e140","system_id":"levelo_inurba_marseille","lat":43.310804,"lon":5.38359,"is_reserved":false,"is_disabled":false,"rental_uris":{"android":"levelo://app?vid=03bd98fa-4eb3-4ef7-95d1-f7c83ba6e140","ios":"levelo://app?vid=03bd98fa-4eb3-4ef7-95d1-f7c83ba6e140"},"vehicle_type_id":"4","last_reported":1707937544,"current_range_meters":16400,"station_id":"ce4bgv92rcd13ifvqcr0","pricing_plan_id":"cebpf4jnsgd1na2vs0mg"},{"bike_id":"4f9328d1-96d2-4c4d-b400-a2bcd35e43b4","system_id":"levelo_inurba_marseille","lat":43.319935,"lon":5.381699,"is_reserved":false,"is_disabled":false,"rental_uris":{"android":"levelo://app?vid=4f9328d1-96d2-4c4d-b400-a2bcd35e43b4","ios":"levelo://app?vid=4f9328d1-96d2-4c4d-b400-a2bcd35e43b4"},"vehicle_type_id":"4","last_reported":1707937544,"current_range_meters":29600,"station_id":"ce4bhr12rcd13ifvqhpg","pricing_plan_id":"cebpf4jnsgd1na2vs0mg"},{"bike_id":"12152ff0-26d0-44c8-98bd-fdfbcd54aab2","system_id":"levelo_inurba_marseille","lat":43.319935,"lon":5.381699,"is_reserved":false,"is_disabled":false,"rental_uris":{"android":"levelo://app?vid=12152ff0-26d0-44c8-98bd-fdfbcd54aab2","ios":"levelo://app?vid=12152ff0-26d0-44c8-98bd-fdfbcd54aab2"},"vehicle_type_id":"4","last_reported":1707937544,"current_range_meters":14800,"station_id":"ce4bhr12rcd13ifvqhpg","pricing_plan_id":"cebpf4jnsgd1na2vs0mg"},{"bike_id":"9d586241-c832-456e-b8c2-42caa11d3c95","system_id":"levelo_inurba_marseille","lat":43.319935,"lon":5.381699,"is_reserved":false,"is_disabled":false,"rental_uris":{"android":"levelo://app?vid=9d586241-c832-456e-b8c2-42caa11d3c95","ios":"levelo://app?vid=9d586241-c832-456e-b8c2-42caa11d3c95"},"vehicle_type_id":"4","last_reported":1707937544,"current_range_meters":15200,"station_id":"ce4bhr12rcd13ifvqhpg","pricing_plan_id":"cebpf4jnsgd1na2vs0mg"},{"bike_id":"0b187a32-2108-4909-82cc-98fbe9d6065a","system_id":"levelo_inurba_marseille","lat":43.313571,"lon":5.384829,"is_reserved":false,"is_disabled":false,"rental_uris":{"android":"levelo://app?vid=0b187a32-2108-4909-82cc-98fbe9d6065a","ios":"levelo://app?vid=0b187a32-2108-4909-82cc-98fbe9d6065a"},"vehicle_type_id":"4","last_reported":1707937544,"current_range_meters":12800,"station_id":"ce4bgt92rcd13ifvqcf0","pricing_plan_id":"cebpf4jnsgd1na2vs0mg"},{"bike_id":"ee17078b-1947-492d-9bee-7c6e57a41cde","system_id":"levelo_inurba_marseille","lat":43.313571,"lon":5.384829,"is_reserved":false,"is_disabled":false,"rental_uris":{"android":"levelo://app?vid=ee17078b-1947-492d-9bee-7c6e57a41cde","ios":"levelo://app?vid=ee17078b-1947-492d-9bee-7c6e57a41cde"},"vehicle_type_id":"4","last_reported":1707937544,"current_range_meters":16000,"station_id":"ce4bgt92rcd13ifvqcf0","pricing_plan_id":"cebpf4jnsgd1na2vs0mg"},{"bike_id":"11940cd1-89ec-4cc1-ab4e-e499aa31bd55","system_id":"levelo_inurba_marseille","lat":43.313571,"lon":5.384829,"is_reserved":false,"is_disabled":false,"rental_uris":{"android":"levelo://app?vid=11940cd1-89ec-4cc1-ab4e-e499aa31bd55","ios":"levelo://app?vid=11940cd1-89ec-4cc1-ab4e-e499aa31bd55"},"vehicle_type_id":"4","last_reported":1707937544,"current_range_meters":14400,"station_id":"ce4bgt92rcd13ifvqcf0","pricing_plan_id":"cebpf4jnsgd1na2vs0mg"},{"bike_id":"76205365-eefd-4efd-a811-75c8e3559448","system_id":"levelo_inurba_marseille","lat":43.299724,"lon":5.371829,"is_reserved":false,"is_disabled":false,"rental_uris":{"android":"levelo://app?vid=76205365-eefd-4efd-a811-75c8e3559448","ios":"levelo://app?vid=76205365-eefd-4efd-a811-75c8e3559448"},"vehicle_type_id":"4","last_reported":1707937544,"current_range_meters":10400,"station_id":"ce4bgr92rcd13ifvqc7g","pricing_plan_id":"cebpf4jnsgd1na2vs0mg"},{"bike_id":"eb64e057-1218-47f0-9712-d6e659b23bd4","system_id":"levelo_inurba_marseille","lat":43.305364,"lon":5.384119,"is_reserved":false,"is_disabled":false,"rental_uris":{"android":"levelo://app?vid=eb64e057-1218-47f0-9712-d6e659b23bd4","ios":"levelo://app?vid=eb64e057-1218-47f0-9712-d6e659b23bd4"},"vehicle_type_id":"4","last_reported":1707937544,"current_range_meters":21600,"station_id":"ce4bgg92rcd13ifvqb30","pricing_plan_id":"cebpf4jnsgd1na2vs0mg"},{"bike_id":"46a49d3d-2e7b-4a57-8d26-c54dfa5b9ea6","system_id":"levelo_inurba_marseille","lat":43.311722,"lon":5.387247,"is_reserved":false,"is_disabled":false,"rental_uris":{"android":"levelo://app?vid=46a49d3d-2e7b-4a57-8d26-c54dfa5b9ea6","ios":"levelo://app?vid=46a49d3d-2e7b-4a57-8d26-c54dfa5b9ea6"},"vehicle_type_id":"4","last_reported":1707937544,"current_range_meters":18000,"station_id":"ce4bgv12rcd13ifvqcp0","pricing_plan_id":"cebpf4jnsgd1na2vs0mg"},{"bike_id":"1e2ed12b-5f17-4e8e-a940-18ecdcd86a6a","system_id":"levelo_inurba_marseille","lat":43.311722,"lon":5.387247,"is_reserved":false,"is_disabled":false,"rental_uris":{"android":"levelo://app?vid=1e2ed12b-5f17-4e8e-a940-18ecdcd86a6a","ios":"levelo://app?vid=1e2ed12b-5f17-4e8e-a940-18ecdcd86a6a"},"vehicle_type_id":"4","last_reported":1707937544,"current_range_meters":3600,"station_id":"ce4bgv12rcd13ifvqcp0","pricing_plan_id":"cebpf4jnsgd1na2vs0mg"},{"bike_id":"5d2d1e93-eba3-45f9-8f23-b3e503b02db1","system_id":"levelo_inurba_marseille","lat":43.297794,"lon":5.370888,"is_reserved":false,"is_disabled":false,"rental_uris":{"android":"levelo://app?vid=5d2d1e93-eba3-45f9-8f23-b3e503b02db1","ios":"levelo://app?vid=5d2d1e93-eba3-45f9-8f23-b3e503b02db1"},"vehicle_type_id":"4","last_reported":1707937544,"current_range_meters":2000,"station_id":"ce4bgop2rcd13ifvqc1g","pricing_plan_id":"cebpf4jnsgd1na2vs0mg"},{"bike_id":"b778981e-8a68-4559-b639-07418c117ef6","system_id":"levelo_inurba_marseille","lat":43.322872,"lon":5.382756,"is_reserved":false,"is_disabled":false,"rental_uris":{"android":"levelo://app?vid=b778981e-8a68-4559-b639-07418c117ef6","ios":"levelo://app?vid=b778981e-8a68-4559-b639-07418c117ef6"},"vehicle_type_id":"4","last_reported":1707937544,"current_range_meters":21200,"station_id":"ce4bhr12rcd13ifvqhqg","pricing_plan_id":"cebpf4jnsgd1na2vs0mg"},{"bike_id":"118fcb4e-73cd-43af-8bf2-be4e0690f9d8","system_id":"levelo_inurba_marseille","lat":43.322872,"lon":5.382756,"is_reserved":false,"is_disabled":false,"rental_uris":{"android":"levelo://app?vid=118fcb4e-73cd-43af-8bf2-be4e0690f9d8","ios":"levelo://app?vid=118fcb4e-73cd-43af-8bf2-be4e0690f9d8"},"vehicle_type_id":"4","last_reported":1707937544,"current_range_meters":9600,"station_id":"ce4bhr12rcd13ifvqhqg","pricing_plan_id":"cebpf4jnsgd1na2vs0mg"},{"bike_id":"aed9e4ad-9c1a-4a51-8095-58a12f0b44f4","system_id":"levelo_inurba_marseille","lat":43.322872,"lon":5.382756,"is_reserved":false,"is_disabled":false,"rental_uris":{"android":"levelo://app?vid=aed9e4ad-9c1a-4a51-8095-58a12f0b44f4","ios":"levelo://app?vid=aed9e4ad-9c1a-4a51-8095-58a12f0b44f4"},"vehicle_type_id":"4","last_reported":1707937544,"current_range_meters":30800,"station_id":"ce4bhr12rcd13ifvqhqg","pricing_plan_id":"cebpf4jnsgd1na2vs0mg"},{"bike_id":"244b7149-7bde-4987-b654-88632569d8fb","system_id":"levelo_inurba_marseille","lat":43.322872,"lon":5.382756,"is_reserved":false,"is_disabled":false,"rental_uris":{"android":"levelo://app?vid=244b7149-7bde-4987-b654-88632569d8fb","ios":"levelo://app?vid=244b7149-7bde-4987-b654-88632569d8fb"},"vehicle_type_id":"4","last_reported":1707937544,"current_range_meters":26800,"station_id":"ce4bhr12rcd13ifvqhqg","pricing_plan_id":"cebpf4jnsgd1na2vs0mg"},{"bike_id":"ec21c626-faeb-41e5-9192-4d2bef3ee4d3","system_id":"levelo_inurba_marseille","lat":43.32823,"lon":5.36686,"is_reserved":false,"is_disabled":false,"rental_uris":{"android":"levelo://app?vid=ec21c626-faeb-41e5-9192-4d2bef3ee4d3","ios":"levelo://app?vid=ec21c626-faeb-41e5-9192-4d2bef3ee4d3"},"vehicle_type_id":"4","last_reported":1707937544,"current_range_meters":9200,"station_id":"ce4bhs92rcd13ifvqi0g","pricing_plan_id":"cebpf4jnsgd1na2vs0mg"},{"bike_id":"eec18b1c-bcf1-4268-8859-b234d772b467","system_id":"levelo_inurba_marseille","lat":43.32823,"lon":5.36684,"is_reserved":false,"is_disabled":false,"rental_uris":{"android":"levelo://app?vid=eec18b1c-bcf1-4268-8859-b234d772b467","ios":"levelo://app?vid=eec18b1c-bcf1-4268-8859-b234d772b467"},"vehicle_type_id":"4","last_reported":1707937544,"current_range_meters":11600,"station_id":"ce4bhs92rcd13ifvqi0g","pricing_plan_id":"cebpf4jnsgd1na2vs0mg"},{"bike_id":"c9b88aad-86c2-4a51-9436-08e8586a0048","system_id":"levelo_inurba_marseille","lat":43.328237,"lon":5.366798,"is_reserved":false,"is_disabled":false,"rental_uris":{"android":"levelo://app?vid=c9b88aad-86c2-4a51-9436-08e8586a0048","ios":"levelo://app?vid=c9b88aad-86c2-4a51-9436-08e8586a0048"},"vehicle_type_id":"4","last_reported":1707937544,"current_range_meters":19200,"station_id":"ce4bhs92rcd13ifvqi0g","pricing_plan_id":"cebpf4jnsgd1na2vs0mg"},{"bike_id":"57f57f96-aa15-40ae-a761-f5242a8c30b7","system_id":"levelo_inurba_marseille","lat":43.32824,"lon":5.36684,"is_reserved":false,"is_disabled":false,"rental_uris":{"android":"levelo://app?vid=57f57f96-aa15-40ae-a761-f5242a8c30b7","ios":"levelo://app?vid=57f57f96-aa15-40ae-a761-f5242a8c30b7"},"vehicle_type_id":"4","last_reported":1707937544,"current_range_meters":15200,"station_id":"ce4bhs92rcd13ifvqi0g","pricing_plan_id":"cebpf4jnsgd1na2vs0mg"},{"bike_id":"24cbb04a-c763-4b6c-91c7-7ce4ce9a6969","system_id":"levelo_inurba_marseille","lat":43.32826,"lon":5.36693,"is_reserved":false,"is_disabled":false,"rental_uris":{"android":"levelo://app?vid=24cbb04a-c763-4b6c-91c7-7ce4ce9a6969","ios":"levelo://app?vid=24cbb04a-c763-4b6c-91c7-7ce4ce9a6969"},"vehicle_type_id":"4","last_reported":1707937544,"current_range_meters":16400,"station_id":"ce4bhs92rcd13ifvqi0g","pricing_plan_id":"cebpf4jnsgd1na2vs0mg"},{"bike_id":"d059372d-713e-4306-a0dc-ef5b2b5ad059","system_id":"levelo_inurba_marseille","lat":43.328268,"lon":5.36678,"is_reserved":false,"is_disabled":false,"rental_uris":{"android":"levelo://app?vid=d059372d-713e-4306-a0dc-ef5b2b5ad059","ios":"levelo://app?vid=d059372d-713e-4306-a0dc-ef5b2b5ad059"},"vehicle_type_id":"4","last_reported":1707937544,"current_range_meters":3600,"station_id":"ce4bhs92rcd13ifvqi0g","pricing_plan_id":"cebpf4jnsgd1na2vs0mg"},{"bike_id":"b354d40e-f748-45df-b8a4-085ee0f39b31","system_id":"levelo_inurba_marseille","lat":43.32827,"lon":5.36679,"is_reserved":false,"is_disabled":false,"rental_uris":{"android":"levelo://app?vid=b354d40e-f748-45df-b8a4-085ee0f39b31","ios":"levelo://app?vid=b354d40e-f748-45df-b8a4-085ee0f39b31"},"vehicle_type_id":"4","last_reported":1707937544,"current_range_meters":24000,"station_id":"ce4bhs92rcd13ifvqi0g","pricing_plan_id":"cebpf4jnsgd1na2vs0mg"},{"bike_id":"00c486e2-5b6f-4240-9c00-f34f4cd392e2","system_id":"levelo_inurba_marseille","lat":43.328277,"lon":5.366778,"is_reserved":false,"is_disabled":false,"rental_uris":{"android":"levelo://app?vid=00c486e2-5b6f-4240-9c00-f34f4cd392e2","ios":"levelo://app?vid=00c486e2-5b6f-4240-9c00-f34f4cd392e2"},"vehicle_type_id":"4","last_reported":1707937544,"current_range_meters":17600,"station_id":"ce4bhs92rcd13ifvqi0g","pricing_plan_id":"cebpf4jnsgd1na2vs0mg"},{"bike_id":"ba7e2d45-23a5-46a7-b5c1-beb1b5de7e04","system_id":"levelo_inurba_marseille","lat":43.32828,"lon":5.36693,"is_reserved":false,"is_disabled":false,"rental_uris":{"android":"levelo://app?vid=ba7e2d45-23a5-46a7-b5c1-beb1b5de7e04","ios":"levelo://app?vid=ba7e2d45-23a5-46a7-b5c1-beb1b5de7e04"},"vehicle_type_id":"4","last_reported":1707937544,"current_range_meters":18400,"station_id":"ce4bhs92rcd13ifvqi0g","pricing_plan_id":"cebpf4jnsgd1na2vs0mg"},{"bike_id":"7c47e388-9433-4092-857a-2e1a28e7faaa","system_id":"levelo_inurba_marseille","lat":43.32828,"lon":5.366781,"is_reserved":false,"is_disabled":false,"rental_uris":{"android":"levelo://app?vid=7c47e388-9433-4092-857a-2e1a28e7faaa","ios":"levelo://app?vid=7c47e388-9433-4092-857a-2e1a28e7faaa"},"vehicle_type_id":"4","last_reported":1707937544,"current_range_meters":27200,"station_id":"ce4bhs92rcd13ifvqi0g","pricing_plan_id":"cebpf4jnsgd1na2vs0mg"},{"bike_id":"c579bad3-e2d0-4712-a783-f41c065e4e3f","system_id":"levelo_inurba_marseille","lat":43.32829,"lon":5.3668,"is_reserved":false,"is_disabled":false,"rental_uris":{"android":"levelo://app?vid=c579bad3-e2d0-4712-a783-f41c065e4e3f","ios":"levelo://app?vid=c579bad3-e2d0-4712-a783-f41c065e4e3f"},"vehicle_type_id":"4","last_reported":1707937544,"current_range_meters":10000,"station_id":"ce4bhs92rcd13ifvqi0g","pricing_plan_id":"cebpf4jnsgd1na2vs0mg"},{"bike_id":"8b36ce43-3bc7-4f8a-bb1e-1f87c12ac26a","system_id":"levelo_inurba_marseille","lat":43.32829,"lon":5.36667,"is_reserved":false,"is_disabled":false,"rental_uris":{"android":"levelo://app?vid=8b36ce43-3bc7-4f8a-bb1e-1f87c12ac26a","ios":"levelo://app?vid=8b36ce43-3bc7-4f8a-bb1e-1f87c12ac26a"},"vehicle_type_id":"4","last_reported":1707937544,"current_range_meters":9200,"station_id":"ce4bhs92rcd13ifvqi0g","pricing_plan_id":"cebpf4jnsgd1na2vs0mg"},{"bike_id":"f41ceea4-9289-4d6b-990c-9f2656a72f3b","system_id":"levelo_inurba_marseille","lat":43.3283,"lon":5.36675,"is_reserved":false,"is_disabled":false,"rental_uris":{"android":"levelo://app?vid=f41ceea4-9289-4d6b-990c-9f2656a72f3b","ios":"levelo://app?vid=f41ceea4-9289-4d6b-990c-9f2656a72f3b"},"vehicle_type_id":"4","last_reported":1707937544,"current_range_meters":2800,"station_id":"ce4bhs92rcd13ifvqi0g","pricing_plan_id":"cebpf4jnsgd1na2vs0mg"},{"bike_id":"e53477e0-6f81-44d0-bf92-8c0c4ae8ef5b","system_id":"levelo_inurba_marseille","lat":43.328304,"lon":5.366849,"is_reserved":false,"is_disabled":false,"rental_uris":{"android":"levelo://app?vid=e53477e0-6f81-44d0-bf92-8c0c4ae8ef5b","ios":"levelo://app?vid=e53477e0-6f81-44d0-bf92-8c0c4ae8ef5b"},"vehicle_type_id":"4","last_reported":1707937544,"current_range_meters":18800,"station_id":"ce4bhs92rcd13ifvqi0g","pricing_plan_id":"cebpf4jnsgd1na2vs0mg"},{"bike_id":"6df14f4e-5762-4688-823c-207c1d70636e","system_id":"levelo_inurba_marseille","lat":43.32832,"lon":5.36675,"is_reserved":false,"is_disabled":false,"rental_uris":{"android":"levelo://app?vid=6df14f4e-5762-4688-823c-207c1d70636e","ios":"levelo://app?vid=6df14f4e-5762-4688-823c-207c1d70636e"},"vehicle_type_id":"4","last_reported":1707937544,"current_range_meters":5200,"station_id":"ce4bhs92rcd13ifvqi0g","pricing_plan_id":"cebpf4jnsgd1na2vs0mg"},{"bike_id":"20747a73-3ec2-4ec7-9c3a-f0ad85525260","system_id":"levelo_inurba_marseille","lat":43.32833,"lon":5.36672,"is_reserved":false,"is_disabled":false,"rental_uris":{"android":"levelo://app?vid=20747a73-3ec2-4ec7-9c3a-f0ad85525260","ios":"levelo://app?vid=20747a73-3ec2-4ec7-9c3a-f0ad85525260"},"vehicle_type_id":"4","last_reported":1707937544,"current_range_meters":4000,"station_id":"ce4bhs92rcd13ifvqi0g","pricing_plan_id":"cebpf4jnsgd1na2vs0mg"},{"bike_id":"21e34cb8-ab84-4bcf-af44-ce5eaa23f4a9","system_id":"levelo_inurba_marseille","lat":43.32834,"lon":5.36677,"is_reserved":false,"is_disabled":false,"rental_uris":{"android":"levelo://app?vid=21e34cb8-ab84-4bcf-af44-ce5eaa23f4a9","ios":"levelo://app?vid=21e34cb8-ab84-4bcf-af44-ce5eaa23f4a9"},"vehicle_type_id":"4","last_reported":1707937544,"current_range_meters":12400,"station_id":"ce4bhs92rcd13ifvqi0g","pricing_plan_id":"cebpf4jnsgd1na2vs0mg"},{"bike_id":"8d4d4aba-3495-4235-ada7-809a0bcb5c57","system_id":"levelo_inurba_marseille","lat":43.32835,"lon":5.366802,"is_reserved":false,"is_disabled":false,"rental_uris":{"android":"levelo://app?vid=8d4d4aba-3495-4235-ada7-809a0bcb5c57","ios":"levelo://app?vid=8d4d4aba-3495-4235-ada7-809a0bcb5c57"},"vehicle_type_id":"4","last_reported":1707937544,"current_range_meters":22800,"station_id":"ce4bhs92rcd13ifvqi0g","pricing_plan_id":"cebpf4jnsgd1na2vs0mg"},{"bike_id":"2c0240b9-332f-43a4-b9ad-92a79e9225d2","system_id":"levelo_inurba_marseille","lat":43.32837,"lon":5.36678,"is_reserved":false,"is_disabled":false,"rental_uris":{"android":"levelo://app?vid=2c0240b9-332f-43a4-b9ad-92a79e9225d2","ios":"levelo://app?vid=2c0240b9-332f-43a4-b9ad-92a79e9225d2"},"vehicle_type_id":"4","last_reported":1707937544,"current_range_meters":12400,"station_id":"ce4bhs92rcd13ifvqi0g","pricing_plan_id":"cebpf4jnsgd1na2vs0mg"},{"bike_id":"455586fa-93db-4262-9aa9-3ec4bb30a061","system_id":"levelo_inurba_marseille","lat":43.297163,"lon":5.365866,"is_reserved":false,"is_disabled":false,"rental_uris":{"android":"levelo://app?vid=455586fa-93db-4262-9aa9-3ec4bb30a061","ios":"levelo://app?vid=455586fa-93db-4262-9aa9-3ec4bb30a061"},"vehicle_type_id":"4","last_reported":1707937544,"current_range_meters":9200,"station_id":"ce4bgn12rcd13ifvqbt0","pricing_plan_id":"cebpf4jnsgd1na2vs0mg"},{"bike_id":"55c40696-eac4-4ef2-ab85-010ac245187e","system_id":"levelo_inurba_marseille","lat":43.297163,"lon":5.365866,"is_reserved":false,"is_disabled":false,"rental_uris":{"android":"levelo://app?vid=55c40696-eac4-4ef2-ab85-010ac245187e","ios":"levelo://app?vid=55c40696-eac4-4ef2-ab85-010ac245187e"},"vehicle_type_id":"4","last_reported":1707937544,"current_range_meters":5600,"station_id":"ce4bgn12rcd13ifvqbt0","pricing_plan_id":"cebpf4jnsgd1na2vs0mg"},{"bike_id":"b338c1d7-627e-4015-898a-dcde5ba40d9d","system_id":"levelo_inurba_marseille","lat":43.32839,"lon":5.36688,"is_reserved":false,"is_disabled":false,"rental_uris":{"android":"levelo://app?vid=b338c1d7-627e-4015-898a-dcde5ba40d9d","ios":"levelo://app?vid=b338c1d7-627e-4015-898a-dcde5ba40d9d"},"vehicle_type_id":"4","last_reported":1707937544,"current_range_meters":800,"station_id":"ce4bhs92rcd13ifvqi0g","pricing_plan_id":"cebpf4jnsgd1na2vs0mg"},{"bike_id":"8dabdcb3-fa40-4f17-b247-51e168cb9ce3","system_id":"levelo_inurba_marseille","lat":43.297163,"lon":5.365866,"is_reserved":false,"is_disabled":false,"rental_uris":{"android":"levelo://app?vid=8dabdcb3-fa40-4f17-b247-51e168cb9ce3","ios":"levelo://app?vid=8dabdcb3-fa40-4f17-b247-51e168cb9ce3"},"vehicle_type_id":"4","last_reported":1707937544,"current_range_meters":24000,"station_id":"ce4bgn12rcd13ifvqbt0","pricing_plan_id":"cebpf4jnsgd1na2vs0mg"},{"bike_id":"f039458f-387c-4add-9df4-5e24e597c3fa","system_id":"levelo_inurba_marseille","lat":43.297163,"lon":5.365866,"is_reserved":false,"is_disabled":false,"rental_uris":{"android":"levelo://app?vid=f039458f-387c-4add-9df4-5e24e597c3fa","ios":"levelo://app?vid=f039458f-387c-4add-9df4-5e24e597c3fa"},"vehicle_type_id":"4","last_reported":1707937544,"current_range_meters":13200,"station_id":"ce4bgn12rcd13ifvqbt0","pricing_plan_id":"cebpf4jnsgd1na2vs0mg"},{"bike_id":"1cec58b7-4710-4921-b20c-2b97f234f1b8","system_id":"levelo_inurba_marseille","lat":43.304274,"lon":5.388873,"is_reserved":false,"is_disabled":false,"rental_uris":{"android":"levelo://app?vid=1cec58b7-4710-4921-b20c-2b97f234f1b8","ios":"levelo://app?vid=1cec58b7-4710-4921-b20c-2b97f234f1b8"},"vehicle_type_id":"4","last_reported":1707937544,"current_range_meters":18800,"station_id":"ce4bgk12rcd13ifvqbi0","pricing_plan_id":"cebpf4jnsgd1na2vs0mg"},{"bike_id":"b1c83044-6d20-4b37-959b-f7399efddb84","system_id":"levelo_inurba_marseille","lat":43.296131,"lon":5.370791,"is_reserved":false,"is_disabled":false,"rental_uris":{"android":"levelo://app?vid=b1c83044-6d20-4b37-959b-f7399efddb84","ios":"levelo://app?vid=b1c83044-6d20-4b37-959b-f7399efddb84"},"vehicle_type_id":"4","last_reported":1707937544,"current_range_meters":13600,"station_id":"ce4bgnh2rcd13ifvqc0g","pricing_plan_id":"cebpf4jnsgd1na2vs0mg"},{"bike_id":"747a963a-4536-46a7-bf33-1d0697033dd5","system_id":"levelo_inurba_marseille","lat":43.296131,"lon":5.370773,"is_reserved":false,"is_disabled":false,"rental_uris":{"android":"levelo://app?vid=747a963a-4536-46a7-bf33-1d0697033dd5","ios":"levelo://app?vid=747a963a-4536-46a7-bf33-1d0697033dd5"},"vehicle_type_id":"4","last_reported":1707937544,"current_range_meters":7200,"station_id":"ce4bgnh2rcd13ifvqc0g","pricing_plan_id":"cebpf4jnsgd1na2vs0mg"},{"bike_id":"f24ce7dc-5d15-4af2-9eee-8e2c30195c06","system_id":"levelo_inurba_marseille","lat":43.29913,"lon":5.38143,"is_reserved":false,"is_disabled":false,"rental_uris":{"android":"levelo://app?vid=f24ce7dc-5d15-4af2-9eee-8e2c30195c06","ios":"levelo://app?vid=f24ce7dc-5d15-4af2-9eee-8e2c30195c06"},"vehicle_type_id":"4","last_reported":1707937544,"current_range_meters":0,"station_id":"ce4bgj12rcd13ifvqbc0","pricing_plan_id":"cebpf4jnsgd1na2vs0mg"},{"bike_id":"2f6b9f1e-fdce-42dc-9697-e2a70fed020f","system_id":"levelo_inurba_marseille","lat":43.309589,"lon":5.390258,"is_reserved":false,"is_disabled":false,"rental_uris":{"android":"levelo://app?vid=2f6b9f1e-fdce-42dc-9697-e2a70fed020f","ios":"levelo://app?vid=2f6b9f1e-fdce-42dc-9697-e2a70fed020f"},"vehicle_type_id":"4","last_reported":1707937544,"current_range_meters":5200,"station_id":"ce4bgup2rcd13ifvqco0","pricing_plan_id":"cebpf4jnsgd1na2vs0mg"},{"bike_id":"9dab659e-739b-4278-b30a-1ca4700dce6d","system_id":"levelo_inurba_marseille","lat":43.309589,"lon":5.390258,"is_reserved":false,"is_disabled":false,"rental_uris":{"android":"levelo://app?vid=9dab659e-739b-4278-b30a-1ca4700dce6d","ios":"levelo://app?vid=9dab659e-739b-4278-b30a-1ca4700dce6d"},"vehicle_type_id":"4","last_reported":1707937544,"current_range_meters":6400,"station_id":"ce4bgup2rcd13ifvqco0","pricing_plan_id":"cebpf4jnsgd1na2vs0mg"},{"bike_id":"664f2218-9fc6-45bc-99f5-eda8144f7786","system_id":"levelo_inurba_marseille","lat":43.309589,"lon":5.390258,"is_reserved":false,"is_disabled":false,"rental_uris":{"android":"levelo://app?vid=664f2218-9fc6-45bc-99f5-eda8144f7786","ios":"levelo://app?vid=664f2218-9fc6-45bc-99f5-eda8144f7786"},"vehicle_type_id":"4","last_reported":1707937544,"current_range_meters":12800,"station_id":"ce4bgup2rcd13ifvqco0","pricing_plan_id":"cebpf4jnsgd1na2vs0mg"},{"bike_id":"43233241-859b-48de-8612-b6c1b825776d","system_id":"levelo_inurba_marseille","lat":43.317178,"lon":5.39009,"is_reserved":false,"is_disabled":false,"rental_uris":{"android":"levelo://app?vid=43233241-859b-48de-8612-b6c1b825776d","ios":"levelo://app?vid=43233241-859b-48de-8612-b6c1b825776d"},"vehicle_type_id":"4","last_reported":1707937544,"current_range_meters":10800,"station_id":"ce4bhqp2rcd13ifvqhng","pricing_plan_id":"cebpf4jnsgd1na2vs0mg"},{"bike_id":"bb6e54d1-0e60-4916-a05f-65ed728637f5","system_id":"levelo_inurba_marseille","lat":43.317557,"lon":5.390173,"is_reserved":false,"is_disabled":false,"rental_uris":{"android":"levelo://app?vid=bb6e54d1-0e60-4916-a05f-65ed728637f5","ios":"levelo://app?vid=bb6e54d1-0e60-4916-a05f-65ed728637f5"},"vehicle_type_id":"4","last_reported":1707937544,"current_range_meters":28800,"station_id":"ce4bhqp2rcd13ifvqhng","pricing_plan_id":"cebpf4jnsgd1na2vs0mg"},{"bike_id":"4d1fc426-76ca-4e7f-b775-e8d4d4862683","system_id":"levelo_inurba_marseille","lat":43.317557,"lon":5.390173,"is_reserved":false,"is_disabled":false,"rental_uris":{"android":"levelo://app?vid=4d1fc426-76ca-4e7f-b775-e8d4d4862683","ios":"levelo://app?vid=4d1fc426-76ca-4e7f-b775-e8d4d4862683"},"vehicle_type_id":"4","last_reported":1707937544,"current_range_meters":20800,"station_id":"ce4bhqp2rcd13ifvqhng","pricing_plan_id":"cebpf4jnsgd1na2vs0mg"},{"bike_id":"46fddee0-8afd-4938-8611-aae2e5c099d9","system_id":"levelo_inurba_marseille","lat":43.31754,"lon":5.39017,"is_reserved":false,"is_disabled":false,"rental_uris":{"android":"levelo://app?vid=46fddee0-8afd-4938-8611-aae2e5c099d9","ios":"levelo://app?vid=46fddee0-8afd-4938-8611-aae2e5c099d9"},"vehicle_type_id":"4","last_reported":1707937544,"current_range_meters":25200,"station_id":"ce4bhqp2rcd13ifvqhng","pricing_plan_id":"cebpf4jnsgd1na2vs0mg"},{"bike_id":"61113e6d-e1f4-49e1-94b1-ccb6fc9bcaf5","system_id":"levelo_inurba_marseille","lat":43.317557,"lon":5.390173,"is_reserved":false,"is_disabled":false,"rental_uris":{"android":"levelo://app?vid=61113e6d-e1f4-49e1-94b1-ccb6fc9bcaf5","ios":"levelo://app?vid=61113e6d-e1f4-49e1-94b1-ccb6fc9bcaf5"},"vehicle_type_id":"4","last_reported":1707937544,"current_range_meters":17600,"station_id":"ce4bhqp2rcd13ifvqhng","pricing_plan_id":"cebpf4jnsgd1na2vs0mg"},{"bike_id":"0d568f49-9e25-417a-91e9-babe78949eca","system_id":"levelo_inurba_marseille","lat":43.317557,"lon":5.390173,"is_reserved":false,"is_disabled":false,"rental_uris":{"android":"levelo://app?vid=0d568f49-9e25-417a-91e9-babe78949eca","ios":"levelo://app?vid=0d568f49-9e25-417a-91e9-babe78949eca"},"vehicle_type_id":"4","last_reported":1707937544,"current_range_meters":31200,"station_id":"ce4bhqp2rcd13ifvqhng","pricing_plan_id":"cebpf4jnsgd1na2vs0mg"},{"bike_id":"13db1a0a-84c8-4ba0-87f6-9800285e27fa","system_id":"levelo_inurba_marseille","lat":43.31752,"lon":5.390228,"is_reserved":false,"is_disabled":false,"rental_uris":{"android":"levelo://app?vid=13db1a0a-84c8-4ba0-87f6-9800285e27fa","ios":"levelo://app?vid=13db1a0a-84c8-4ba0-87f6-9800285e27fa"},"vehicle_type_id":"4","last_reported":1707937544,"current_range_meters":31200,"station_id":"ce4bhqp2rcd13ifvqhng","pricing_plan_id":"cebpf4jnsgd1na2vs0mg"},{"bike_id":"b3dcb9ba-bf07-48c1-aada-2fbdb761a352","system_id":"levelo_inurba_marseille","lat":43.317557,"lon":5.390173,"is_reserved":false,"is_disabled":false,"rental_uris":{"android":"levelo://app?vid=b3dcb9ba-bf07-48c1-aada-2fbdb761a352","ios":"levelo://app?vid=b3dcb9ba-bf07-48c1-aada-2fbdb761a352"},"vehicle_type_id":"4","last_reported":1707937544,"current_range_meters":31200,"station_id":"ce4bhqp2rcd13ifvqhng","pricing_plan_id":"cebpf4jnsgd1na2vs0mg"},{"bike_id":"a66fec16-5c26-4073-bc2a-b4cafe2573db","system_id":"levelo_inurba_marseille","lat":43.2975,"lon":5.37929,"is_reserved":false,"is_disabled":false,"rental_uris":{"android":"levelo://app?vid=a66fec16-5c26-4073-bc2a-b4cafe2573db","ios":"levelo://app?vid=a66fec16-5c26-4073-bc2a-b4cafe2573db"},"vehicle_type_id":"4","last_reported":1707937544,"current_range_meters":0,"station_id":"","pricing_plan_id":"cebpf4jnsgd1na2vs0mg"},{"bike_id":"71c7855f-514c-45f4-98f4-41a02e624a0f","system_id":"levelo_inurba_marseille","lat":43.304278,"lon":5.388868,"is_reserved":false,"is_disabled":false,"rental_uris":{"android":"levelo://app?vid=71c7855f-514c-45f4-98f4-41a02e624a0f","ios":"levelo://app?vid=71c7855f-514c-45f4-98f4-41a02e624a0f"},"vehicle_type_id":"4","last_reported":1707937544,"current_range_meters":9200,"station_id":"ce4bgk12rcd13ifvqbi0","pricing_plan_id":"cebpf4jnsgd1na2vs0mg"},{"bike_id":"96306af5-bbc4-42c5-911d-6d689cf82bbe","system_id":"levelo_inurba_marseille","lat":43.295748,"lon":5.37522,"is_reserved":false,"is_disabled":false,"rental_uris":{"android":"levelo://app?vid=96306af5-bbc4-42c5-911d-6d689cf82bbe","ios":"levelo://app?vid=96306af5-bbc4-42c5-911d-6d689cf82bbe"},"vehicle_type_id":"4","last_reported":1707937544,"current_range_meters":9600,"station_id":"ce4bgh92rcd13ifvqb50","pricing_plan_id":"cebpf4jnsgd1na2vs0mg"},{"bike_id":"eee22717-c331-4e9d-b06b-0baa64d94ad6","system_id":"levelo_inurba_marseille","lat":43.298037,"lon":5.381066,"is_reserved":false,"is_disabled":false,"rental_uris":{"android":"levelo://app?vid=eee22717-c331-4e9d-b06b-0baa64d94ad6","ios":"levelo://app?vid=eee22717-c331-4e9d-b06b-0baa64d94ad6"},"vehicle_type_id":"4","last_reported":1707937544,"current_range_meters":26000,"station_id":"ce4bgip2rcd13ifvqbb0","pricing_plan_id":"cebpf4jnsgd1na2vs0mg"},{"bike_id":"1fc9fa68-87c3-45fb-b044-67b3fcd39144","system_id":"levelo_inurba_marseille","lat":43.295789,"lon":5.375126,"is_reserved":false,"is_disabled":false,"rental_uris":{"android":"levelo://app?vid=1fc9fa68-87c3-45fb-b044-67b3fcd39144","ios":"levelo://app?vid=1fc9fa68-87c3-45fb-b044-67b3fcd39144"},"vehicle_type_id":"4","last_reported":1707937544,"current_range_meters":0,"station_id":"ce4bgh92rcd13ifvqb50","pricing_plan_id":"cebpf4jnsgd1na2vs0mg"},{"bike_id":"c13bfdb7-953c-43a9-9dd3-7b3c3ada2329","system_id":"levelo_inurba_marseille","lat":43.295748,"lon":5.37522,"is_reserved":false,"is_disabled":false,"rental_uris":{"android":"levelo://app?vid=c13bfdb7-953c-43a9-9dd3-7b3c3ada2329","ios":"levelo://app?vid=c13bfdb7-953c-43a9-9dd3-7b3c3ada2329"},"vehicle_type_id":"4","last_reported":1707937544,"current_range_meters":0,"station_id":"ce4bgh92rcd13ifvqb50","pricing_plan_id":"cebpf4jnsgd1na2vs0mg"},{"bike_id":"48358aeb-2914-4693-83e8-6441248d9a02","system_id":"levelo_inurba_marseille","lat":43.298037,"lon":5.381066,"is_reserved":false,"is_disabled":false,"rental_uris":{"android":"levelo://app?vid=48358aeb-2914-4693-83e8-6441248d9a02","ios":"levelo://app?vid=48358aeb-2914-4693-83e8-6441248d9a02"},"vehicle_type_id":"4","last_reported":1707937544,"current_range_meters":400,"station_id":"ce4bgip2rcd13ifvqbb0","pricing_plan_id":"cebpf4jnsgd1na2vs0mg"},{"bike_id":"8dfcf779-6a76-4d8a-943f-d70c76e58984","system_id":"levelo_inurba_marseille","lat":43.29573,"lon":5.375173,"is_reserved":false,"is_disabled":false,"rental_uris":{"android":"levelo://app?vid=8dfcf779-6a76-4d8a-943f-d70c76e58984","ios":"levelo://app?vid=8dfcf779-6a76-4d8a-943f-d70c76e58984"},"vehicle_type_id":"4","last_reported":1707937544,"current_range_meters":0,"station_id":"ce4bgh92rcd13ifvqb50","pricing_plan_id":"cebpf4jnsgd1na2vs0mg"},{"bike_id":"b044fcc2-e1ef-4f05-a384-230db419de7e","system_id":"levelo_inurba_marseille","lat":43.304274,"lon":5.388873,"is_reserved":false,"is_disabled":false,"rental_uris":{"android":"levelo://app?vid=b044fcc2-e1ef-4f05-a384-230db419de7e","ios":"levelo://app?vid=b044fcc2-e1ef-4f05-a384-230db419de7e"},"vehicle_type_id":"4","last_reported":1707937544,"current_range_meters":14000,"station_id":"ce4bgk12rcd13ifvqbi0","pricing_plan_id":"cebpf4jnsgd1na2vs0mg"},{"bike_id":"0fd52d1e-7fa2-4a58-b8dc-97ad5c0480e7","system_id":"levelo_inurba_marseille","lat":43.3043,"lon":5.38894,"is_reserved":false,"is_disabled":false,"rental_uris":{"android":"levelo://app?vid=0fd52d1e-7fa2-4a58-b8dc-97ad5c0480e7","ios":"levelo://app?vid=0fd52d1e-7fa2-4a58-b8dc-97ad5c0480e7"},"vehicle_type_id":"4","last_reported":1707937544,"current_range_meters":4000,"station_id":"ce4bgk12rcd13ifvqbi0","pricing_plan_id":"cebpf4jnsgd1na2vs0mg"},{"bike_id":"8c4b5db3-96ec-4e17-910a-604ad3fa0ad5","system_id":"levelo_inurba_marseille","lat":43.30422,"lon":5.388963,"is_reserved":false,"is_disabled":false,"rental_uris":{"android":"levelo://app?vid=8c4b5db3-96ec-4e17-910a-604ad3fa0ad5","ios":"levelo://app?vid=8c4b5db3-96ec-4e17-910a-604ad3fa0ad5"},"vehicle_type_id":"4","last_reported":1707937544,"current_range_meters":0,"station_id":"ce4bgk12rcd13ifvqbi0","pricing_plan_id":"cebpf4jnsgd1na2vs0mg"},{"bike_id":"30801241-d265-41d9-943b-399e5891bca8","system_id":"levelo_inurba_marseille","lat":43.304274,"lon":5.388873,"is_reserved":false,"is_disabled":false,"rental_uris":{"android":"levelo://app?vid=30801241-d265-41d9-943b-399e5891bca8","ios":"levelo://app?vid=30801241-d265-41d9-943b-399e5891bca8"},"vehicle_type_id":"4","last_reported":1707937544,"current_range_meters":16400,"station_id":"ce4bgk12rcd13ifvqbi0","pricing_plan_id":"cebpf4jnsgd1na2vs0mg"},{"bike_id":"d3ea5d49-2c9c-40de-9ade-918d0bf913b1","system_id":"levelo_inurba_marseille","lat":43.2997,"lon":5.38495,"is_reserved":false,"is_disabled":false,"rental_uris":{"android":"levelo://app?vid=d3ea5d49-2c9c-40de-9ade-918d0bf913b1","ios":"levelo://app?vid=d3ea5d49-2c9c-40de-9ade-918d0bf913b1"},"vehicle_type_id":"4","last_reported":1707937544,"current_range_meters":0,"station_id":"ce4bgj92rcd13ifvqbd0","pricing_plan_id":"cebpf4jnsgd1na2vs0mg"},{"bike_id":"3d73ac89-4889-4de8-a2b8-6da94c8a0f4a","system_id":"levelo_inurba_marseille","lat":43.299724,"lon":5.384848,"is_reserved":false,"is_disabled":false,"rental_uris":{"android":"levelo://app?vid=3d73ac89-4889-4de8-a2b8-6da94c8a0f4a","ios":"levelo://app?vid=3d73ac89-4889-4de8-a2b8-6da94c8a0f4a"},"vehicle_type_id":"4","last_reported":1707937544,"current_range_meters":25600,"station_id":"ce4bgj92rcd13ifvqbd0","pricing_plan_id":"cebpf4jnsgd1na2vs0mg"},{"bike_id":"cc36d624-ed66-4db6-bb3b-42695f88d813","system_id":"levelo_inurba_marseille","lat":43.32367,"lon":5.38882,"is_reserved":false,"is_disabled":false,"rental_uris":{"android":"levelo://app?vid=cc36d624-ed66-4db6-bb3b-42695f88d813","ios":"levelo://app?vid=cc36d624-ed66-4db6-bb3b-42695f88d813"},"vehicle_type_id":"4","last_reported":1707937544,"current_range_meters":9200,"station_id":"ce4bhqp2rcd13ifvqhog","pricing_plan_id":"cebpf4jnsgd1na2vs0mg"},{"bike_id":"9a785585-c85b-4fa3-85aa-80d29ca57d9f","system_id":"levelo_inurba_marseille","lat":43.32367,"lon":5.388836,"is_reserved":false,"is_disabled":false,"rental_uris":{"android":"levelo://app?vid=9a785585-c85b-4fa3-85aa-80d29ca57d9f","ios":"levelo://app?vid=9a785585-c85b-4fa3-85aa-80d29ca57d9f"},"vehicle_type_id":"4","last_reported":1707937544,"current_range_meters":13600,"station_id":"ce4bhqp2rcd13ifvqhog","pricing_plan_id":"cebpf4jnsgd1na2vs0mg"},{"bike_id":"60b4e72a-683d-4d3a-b372-9758c47abe0f","system_id":"levelo_inurba_marseille","lat":43.32367,"lon":5.388836,"is_reserved":false,"is_disabled":false,"rental_uris":{"android":"levelo://app?vid=60b4e72a-683d-4d3a-b372-9758c47abe0f","ios":"levelo://app?vid=60b4e72a-683d-4d3a-b372-9758c47abe0f"},"vehicle_type_id":"4","last_reported":1707937544,"current_range_meters":800,"station_id":"ce4bhqp2rcd13ifvqhog","pricing_plan_id":"cebpf4jnsgd1na2vs0mg"},{"bike_id":"410bf392-d4a4-44a9-8b1d-d839486dc03c","system_id":"levelo_inurba_marseille","lat":43.32361,"lon":5.38889,"is_reserved":false,"is_disabled":false,"rental_uris":{"android":"levelo://app?vid=410bf392-d4a4-44a9-8b1d-d839486dc03c","ios":"levelo://app?vid=410bf392-d4a4-44a9-8b1d-d839486dc03c"},"vehicle_type_id":"4","last_reported":1707937544,"current_range_meters":6400,"station_id":"ce4bhqp2rcd13ifvqhog","pricing_plan_id":"cebpf4jnsgd1na2vs0mg"},{"bike_id":"7b8ae2a5-fea4-420f-9e1d-5f67a20c6887","system_id":"levelo_inurba_marseille","lat":43.32367,"lon":5.388836,"is_reserved":false,"is_disabled":false,"rental_uris":{"android":"levelo://app?vid=7b8ae2a5-fea4-420f-9e1d-5f67a20c6887","ios":"levelo://app?vid=7b8ae2a5-fea4-420f-9e1d-5f67a20c6887"},"vehicle_type_id":"4","last_reported":1707937544,"current_range_meters":24400,"station_id":"ce4bhqp2rcd13ifvqhog","pricing_plan_id":"cebpf4jnsgd1na2vs0mg"},{"bike_id":"24aefc00-aad1-4b8c-bf24-dea0a292f589","system_id":"levelo_inurba_marseille","lat":43.323694,"lon":5.388891,"is_reserved":false,"is_disabled":false,"rental_uris":{"android":"levelo://app?vid=24aefc00-aad1-4b8c-bf24-dea0a292f589","ios":"levelo://app?vid=24aefc00-aad1-4b8c-bf24-dea0a292f589"},"vehicle_type_id":"4","last_reported":1707937544,"current_range_meters":16800,"station_id":"ce4bhqp2rcd13ifvqhog","pricing_plan_id":"cebpf4jnsgd1na2vs0mg"},{"bike_id":"80f0aa13-50e0-436b-ab2b-5e40937dca79","system_id":"levelo_inurba_marseille","lat":43.29602,"lon":5.381084,"is_reserved":false,"is_disabled":false,"rental_uris":{"android":"levelo://app?vid=80f0aa13-50e0-436b-ab2b-5e40937dca79","ios":"levelo://app?vid=80f0aa13-50e0-436b-ab2b-5e40937dca79"},"vehicle_type_id":"4","last_reported":1707937544,"current_range_meters":12000,"station_id":"ce4bgl12rcd13ifvqbo0","pricing_plan_id":"cebpf4jnsgd1na2vs0mg"},{"bike_id":"cf337e31-eb48-44fc-b897-6caafccdeb08","system_id":"levelo_inurba_marseille","lat":43.29602,"lon":5.381084,"is_reserved":false,"is_disabled":false,"rental_uris":{"android":"levelo://app?vid=cf337e31-eb48-44fc-b897-6caafccdeb08","ios":"levelo://app?vid=cf337e31-eb48-44fc-b897-6caafccdeb08"},"vehicle_type_id":"4","last_reported":1707937544,"current_range_meters":2000,"station_id":"ce4bgl12rcd13ifvqbo0","pricing_plan_id":"cebpf4jnsgd1na2vs0mg"},{"bike_id":"20e5f2ad-9f2c-493e-ac06-9865b2c8d0fa","system_id":"levelo_inurba_marseille","lat":43.299113,"lon":5.386501,"is_reserved":false,"is_disabled":false,"rental_uris":{"android":"levelo://app?vid=20e5f2ad-9f2c-493e-ac06-9865b2c8d0fa","ios":"levelo://app?vid=20e5f2ad-9f2c-493e-ac06-9865b2c8d0fa"},"vehicle_type_id":"4","last_reported":1707937544,"current_range_meters":18000,"station_id":"","pricing_plan_id":"cebpf4jnsgd1na2vs0mg"},{"bike_id":"26620d14-2adf-43de-bd89-4ae7da8379e4","system_id":"levelo_inurba_marseille","lat":43.29304,"lon":5.37178,"is_reserved":false,"is_disabled":false,"rental_uris":{"android":"levelo://app?vid=26620d14-2adf-43de-bd89-4ae7da8379e4","ios":"levelo://app?vid=26620d14-2adf-43de-bd89-4ae7da8379e4"},"vehicle_type_id":"4","last_reported":1707937544,"current_range_meters":0,"station_id":"ce4bgh92rcd13ifvqb40","pricing_plan_id":"cebpf4jnsgd1na2vs0mg"},{"bike_id":"5bea405b-0df3-4f27-8f94-228e89448a50","system_id":"levelo_inurba_marseille","lat":43.293259,"lon":5.371586,"is_reserved":false,"is_disabled":false,"rental_uris":{"android":"levelo://app?vid=5bea405b-0df3-4f27-8f94-228e89448a50","ios":"levelo://app?vid=5bea405b-0df3-4f27-8f94-228e89448a50"},"vehicle_type_id":"4","last_reported":1707937544,"current_range_meters":7200,"station_id":"ce4bgh92rcd13ifvqb40","pricing_plan_id":"cebpf4jnsgd1na2vs0mg"},{"bike_id":"849a0cdb-e232-4c58-84a6-01006ea705fc","system_id":"levelo_inurba_marseille","lat":43.29267,"lon":5.36844,"is_reserved":false,"is_disabled":false,"rental_uris":{"android":"levelo://app?vid=849a0cdb-e232-4c58-84a6-01006ea705fc","ios":"levelo://app?vid=849a0cdb-e232-4c58-84a6-01006ea705fc"},"vehicle_type_id":"4","last_reported":1707937544,"current_range_meters":29600,"station_id":"ce4bhbp2rcd13ifvqesg","pricing_plan_id":"cebpf4jnsgd1na2vs0mg"},{"bike_id":"86fada93-a935-4c86-a402-a0fe2c24c7b1","system_id":"levelo_inurba_marseille","lat":43.305994,"lon":5.393687,"is_reserved":false,"is_disabled":false,"rental_uris":{"android":"levelo://app?vid=86fada93-a935-4c86-a402-a0fe2c24c7b1","ios":"levelo://app?vid=86fada93-a935-4c86-a402-a0fe2c24c7b1"},"vehicle_type_id":"4","last_reported":1707937544,"current_range_meters":9600,"station_id":"ce4bh0p2rcd13ifvqd80","pricing_plan_id":"cebpf4jnsgd1na2vs0mg"},{"bike_id":"767e8013-eb94-4ee5-8ca1-11bdeff74fae","system_id":"levelo_inurba_marseille","lat":43.305994,"lon":5.393687,"is_reserved":false,"is_disabled":false,"rental_uris":{"android":"levelo://app?vid=767e8013-eb94-4ee5-8ca1-11bdeff74fae","ios":"levelo://app?vid=767e8013-eb94-4ee5-8ca1-11bdeff74fae"},"vehicle_type_id":"4","last_reported":1707937544,"current_range_meters":11600,"station_id":"ce4bh0p2rcd13ifvqd80","pricing_plan_id":"cebpf4jnsgd1na2vs0mg"},{"bike_id":"c24d2264-f4d3-4871-b6a5-81d38ec9037b","system_id":"levelo_inurba_marseille","lat":43.305994,"lon":5.393687,"is_reserved":false,"is_disabled":false,"rental_uris":{"android":"levelo://app?vid=c24d2264-f4d3-4871-b6a5-81d38ec9037b","ios":"levelo://app?vid=c24d2264-f4d3-4871-b6a5-81d38ec9037b"},"vehicle_type_id":"4","last_reported":1707937544,"current_range_meters":7600,"station_id":"ce4bh0p2rcd13ifvqd80","pricing_plan_id":"cebpf4jnsgd1na2vs0mg"},{"bike_id":"c3262780-9d3f-4c23-9798-f80ee41b7473","system_id":"levelo_inurba_marseille","lat":43.305994,"lon":5.393687,"is_reserved":false,"is_disabled":false,"rental_uris":{"android":"levelo://app?vid=c3262780-9d3f-4c23-9798-f80ee41b7473","ios":"levelo://app?vid=c3262780-9d3f-4c23-9798-f80ee41b7473"},"vehicle_type_id":"4","last_reported":1707937544,"current_range_meters":8800,"station_id":"ce4bh0p2rcd13ifvqd80","pricing_plan_id":"cebpf4jnsgd1na2vs0mg"},{"bike_id":"6b1b40eb-7df6-4e5f-b6b9-8345877823d9","system_id":"levelo_inurba_marseille","lat":43.305986,"lon":5.393646,"is_reserved":false,"is_disabled":false,"rental_uris":{"android":"levelo://app?vid=6b1b40eb-7df6-4e5f-b6b9-8345877823d9","ios":"levelo://app?vid=6b1b40eb-7df6-4e5f-b6b9-8345877823d9"},"vehicle_type_id":"4","last_reported":1707937544,"current_range_meters":400,"station_id":"","pricing_plan_id":"cebpf4jnsgd1na2vs0mg"},{"bike_id":"c7216f09-997c-49e1-bb79-96d8ca3c5baa","system_id":"levelo_inurba_marseille","lat":43.30315,"lon":5.39204,"is_reserved":false,"is_disabled":false,"rental_uris":{"android":"levelo://app?vid=c7216f09-997c-49e1-bb79-96d8ca3c5baa","ios":"levelo://app?vid=c7216f09-997c-49e1-bb79-96d8ca3c5baa"},"vehicle_type_id":"4","last_reported":1707937544,"current_range_meters":0,"station_id":"ce4bgkh2rcd13ifvqbk0","pricing_plan_id":"cebpf4jnsgd1na2vs0mg"},{"bike_id":"96a11e2a-8eca-4905-a0b0-5e7bc9fe06ca","system_id":"levelo_inurba_marseille","lat":43.305994,"lon":5.393687,"is_reserved":false,"is_disabled":false,"rental_uris":{"android":"levelo://app?vid=96a11e2a-8eca-4905-a0b0-5e7bc9fe06ca","ios":"levelo://app?vid=96a11e2a-8eca-4905-a0b0-5e7bc9fe06ca"},"vehicle_type_id":"4","last_reported":1707937544,"current_range_meters":10400,"station_id":"ce4bh0p2rcd13ifvqd80","pricing_plan_id":"cebpf4jnsgd1na2vs0mg"},{"bike_id":"9730d68a-dcf0-4882-90ea-49c59ecd89b7","system_id":"levelo_inurba_marseille","lat":43.302992,"lon":5.392136,"is_reserved":false,"is_disabled":false,"rental_uris":{"android":"levelo://app?vid=9730d68a-dcf0-4882-90ea-49c59ecd89b7","ios":"levelo://app?vid=9730d68a-dcf0-4882-90ea-49c59ecd89b7"},"vehicle_type_id":"4","last_reported":1707937544,"current_range_meters":6000,"station_id":"ce4bgkh2rcd13ifvqbk0","pricing_plan_id":"cebpf4jnsgd1na2vs0mg"},{"bike_id":"37e414bb-519e-4600-a497-b043c33e9573","system_id":"levelo_inurba_marseille","lat":43.30306,"lon":5.39215,"is_reserved":false,"is_disabled":false,"rental_uris":{"android":"levelo://app?vid=37e414bb-519e-4600-a497-b043c33e9573","ios":"levelo://app?vid=37e414bb-519e-4600-a497-b043c33e9573"},"vehicle_type_id":"4","last_reported":1707937544,"current_range_meters":4000,"station_id":"","pricing_plan_id":"cebpf4jnsgd1na2vs0mg"},{"bike_id":"b1a29939-915b-4cf3-9ebf-4383a2e6c2e0","system_id":"levelo_inurba_marseille","lat":43.2936,"lon":5.37835,"is_reserved":false,"is_disabled":false,"rental_uris":{"android":"levelo://app?vid=b1a29939-915b-4cf3-9ebf-4383a2e6c2e0","ios":"levelo://app?vid=b1a29939-915b-4cf3-9ebf-4383a2e6c2e0"},"vehicle_type_id":"4","last_reported":1707937544,"current_range_meters":0,"station_id":"ce4bgjh2rcd13ifvqbf0","pricing_plan_id":"cebpf4jnsgd1na2vs0mg"},{"bike_id":"fcc94380-c654-4564-bca2-4fd6c81589d4","system_id":"levelo_inurba_marseille","lat":43.302992,"lon":5.392136,"is_reserved":false,"is_disabled":false,"rental_uris":{"android":"levelo://app?vid=fcc94380-c654-4564-bca2-4fd6c81589d4","ios":"levelo://app?vid=fcc94380-c654-4564-bca2-4fd6c81589d4"},"vehicle_type_id":"4","last_reported":1707937544,"current_range_meters":3200,"station_id":"ce4bgkh2rcd13ifvqbk0","pricing_plan_id":"cebpf4jnsgd1na2vs0mg"},{"bike_id":"8f033120-2f7f-4840-b2b7-6e4206da0304","system_id":"levelo_inurba_marseille","lat":43.302992,"lon":5.392136,"is_reserved":false,"is_disabled":false,"rental_uris":{"android":"levelo://app?vid=8f033120-2f7f-4840-b2b7-6e4206da0304","ios":"levelo://app?vid=8f033120-2f7f-4840-b2b7-6e4206da0304"},"vehicle_type_id":"4","last_reported":1707937544,"current_range_meters":4800,"station_id":"ce4bgkh2rcd13ifvqbk0","pricing_plan_id":"cebpf4jnsgd1na2vs0mg"},{"bike_id":"6844c7b6-bc90-4a33-8f45-ab908aeb65fd","system_id":"levelo_inurba_marseille","lat":43.302992,"lon":5.392136,"is_reserved":false,"is_disabled":false,"rental_uris":{"android":"levelo://app?vid=6844c7b6-bc90-4a33-8f45-ab908aeb65fd","ios":"levelo://app?vid=6844c7b6-bc90-4a33-8f45-ab908aeb65fd"},"vehicle_type_id":"4","last_reported":1707937544,"current_range_meters":7200,"station_id":"ce4bgkh2rcd13ifvqbk0","pricing_plan_id":"cebpf4jnsgd1na2vs0mg"},{"bike_id":"be12bc43-7d3b-451a-a4d2-c5beff9f9aa8","system_id":"levelo_inurba_marseille","lat":43.302992,"lon":5.392136,"is_reserved":false,"is_disabled":false,"rental_uris":{"android":"levelo://app?vid=be12bc43-7d3b-451a-a4d2-c5beff9f9aa8","ios":"levelo://app?vid=be12bc43-7d3b-451a-a4d2-c5beff9f9aa8"},"vehicle_type_id":"4","last_reported":1707937544,"current_range_meters":15600,"station_id":"ce4bgkh2rcd13ifvqbk0","pricing_plan_id":"cebpf4jnsgd1na2vs0mg"},{"bike_id":"7a67ebcd-d7c3-4b45-942a-f25b14feca2a","system_id":"levelo_inurba_marseille","lat":43.302992,"lon":5.392136,"is_reserved":false,"is_disabled":false,"rental_uris":{"android":"levelo://app?vid=7a67ebcd-d7c3-4b45-942a-f25b14feca2a","ios":"levelo://app?vid=7a67ebcd-d7c3-4b45-942a-f25b14feca2a"},"vehicle_type_id":"4","last_reported":1707937544,"current_range_meters":18000,"station_id":"ce4bgkh2rcd13ifvqbk0","pricing_plan_id":"cebpf4jnsgd1na2vs0mg"},{"bike_id":"77c891b3-2f11-4c70-baa0-b008c10161a6","system_id":"levelo_inurba_marseille","lat":43.289184,"lon":5.366408,"is_reserved":false,"is_disabled":false,"rental_uris":{"android":"levelo://app?vid=77c891b3-2f11-4c70-baa0-b008c10161a6","ios":"levelo://app?vid=77c891b3-2f11-4c70-baa0-b008c10161a6"},"vehicle_type_id":"4","last_reported":1707937544,"current_range_meters":28000,"station_id":"ce4bhap2rcd13ifvqek0","pricing_plan_id":"cebpf4jnsgd1na2vs0mg"},{"bike_id":"e0d6539b-2a48-4794-862a-51b5231bf25f","system_id":"levelo_inurba_marseille","lat":43.29233,"lon":5.36047,"is_reserved":false,"is_disabled":false,"rental_uris":{"android":"levelo://app?vid=e0d6539b-2a48-4794-862a-51b5231bf25f","ios":"levelo://app?vid=e0d6539b-2a48-4794-862a-51b5231bf25f"},"vehicle_type_id":"4","last_reported":1707937544,"current_range_meters":15600,"station_id":"ce4bhbh2rcd13ifvqeqg","pricing_plan_id":"cebpf4jnsgd1na2vs0mg"},{"bike_id":"60c17cb1-0c44-41a7-9314-abf1b9431948","system_id":"levelo_inurba_marseille","lat":43.300852,"lon":5.390859,"is_reserved":false,"is_disabled":false,"rental_uris":{"android":"levelo://app?vid=60c17cb1-0c44-41a7-9314-abf1b9431948","ios":"levelo://app?vid=60c17cb1-0c44-41a7-9314-abf1b9431948"},"vehicle_type_id":"4","last_reported":1707937544,"current_range_meters":27600,"station_id":"ce4bh192rcd13ifvqdb0","pricing_plan_id":"cebpf4jnsgd1na2vs0mg"},{"bike_id":"a0764862-498b-4a14-af3f-581563b53c26","system_id":"levelo_inurba_marseille","lat":43.292193,"lon":5.360121,"is_reserved":false,"is_disabled":false,"rental_uris":{"android":"levelo://app?vid=a0764862-498b-4a14-af3f-581563b53c26","ios":"levelo://app?vid=a0764862-498b-4a14-af3f-581563b53c26"},"vehicle_type_id":"4","last_reported":1707937544,"current_range_meters":0,"station_id":"ce4bhbh2rcd13ifvqeqg","pricing_plan_id":"cebpf4jnsgd1na2vs0mg"},{"bike_id":"09d8704a-80c5-47c3-856b-e3bad926f578","system_id":"levelo_inurba_marseille","lat":43.291671,"lon":5.371575,"is_reserved":false,"is_disabled":false,"rental_uris":{"android":"levelo://app?vid=09d8704a-80c5-47c3-856b-e3bad926f578","ios":"levelo://app?vid=09d8704a-80c5-47c3-856b-e3bad926f578"},"vehicle_type_id":"4","last_reported":1707937544,"current_range_meters":0,"station_id":"ce4bha92rcd13ifvqeh0","pricing_plan_id":"cebpf4jnsgd1na2vs0mg"},{"bike_id":"603d8211-af2e-4d17-a96d-cb92b3bee21d","system_id":"levelo_inurba_marseille","lat":43.29191,"lon":5.35795,"is_reserved":false,"is_disabled":false,"rental_uris":{"android":"levelo://app?vid=603d8211-af2e-4d17-a96d-cb92b3bee21d","ios":"levelo://app?vid=603d8211-af2e-4d17-a96d-cb92b3bee21d"},"vehicle_type_id":"4","last_reported":1707937544,"current_range_meters":0,"station_id":"ce4bhb12rcd13ifvqel0","pricing_plan_id":"cebpf4jnsgd1na2vs0mg"},{"bike_id":"6680fa66-514b-4f2f-8fa3-69f3c9a608f2","system_id":"levelo_inurba_marseille","lat":43.313291,"lon":5.396838,"is_reserved":false,"is_disabled":false,"rental_uris":{"android":"levelo://app?vid=6680fa66-514b-4f2f-8fa3-69f3c9a608f2","ios":"levelo://app?vid=6680fa66-514b-4f2f-8fa3-69f3c9a608f2"},"vehicle_type_id":"4","last_reported":1707937544,"current_range_meters":13200,"station_id":"ce4bgvp2rcd13ifvqcu0","pricing_plan_id":"cebpf4jnsgd1na2vs0mg"},{"bike_id":"40c1a6f5-3321-47e5-b70e-7466e814095c","system_id":"levelo_inurba_marseille","lat":43.313291,"lon":5.396838,"is_reserved":false,"is_disabled":false,"rental_uris":{"android":"levelo://app?vid=40c1a6f5-3321-47e5-b70e-7466e814095c","ios":"levelo://app?vid=40c1a6f5-3321-47e5-b70e-7466e814095c"},"vehicle_type_id":"4","last_reported":1707937544,"current_range_meters":12800,"station_id":"ce4bgvp2rcd13ifvqcu0","pricing_plan_id":"cebpf4jnsgd1na2vs0mg"},{"bike_id":"145fbc22-336e-4f0e-bd50-f82634132dd8","system_id":"levelo_inurba_marseille","lat":43.309038,"lon":5.396546,"is_reserved":false,"is_disabled":false,"rental_uris":{"android":"levelo://app?vid=145fbc22-336e-4f0e-bd50-f82634132dd8","ios":"levelo://app?vid=145fbc22-336e-4f0e-bd50-f82634132dd8"},"vehicle_type_id":"4","last_reported":1707937544,"current_range_meters":16800,"station_id":"ce4bh012rcd13ifvqcv0","pricing_plan_id":"cebpf4jnsgd1na2vs0mg"},{"bike_id":"482d5379-516b-45af-a179-28f4bc89f307","system_id":"levelo_inurba_marseille","lat":43.313291,"lon":5.396838,"is_reserved":false,"is_disabled":false,"rental_uris":{"android":"levelo://app?vid=482d5379-516b-45af-a179-28f4bc89f307","ios":"levelo://app?vid=482d5379-516b-45af-a179-28f4bc89f307"},"vehicle_type_id":"4","last_reported":1707937544,"current_range_meters":17600,"station_id":"ce4bgvp2rcd13ifvqcu0","pricing_plan_id":"cebpf4jnsgd1na2vs0mg"},{"bike_id":"e8eab736-9d99-43ab-9fae-1563662e1946","system_id":"levelo_inurba_marseille","lat":43.309038,"lon":5.396546,"is_reserved":false,"is_disabled":false,"rental_uris":{"android":"levelo://app?vid=e8eab736-9d99-43ab-9fae-1563662e1946","ios":"levelo://app?vid=e8eab736-9d99-43ab-9fae-1563662e1946"},"vehicle_type_id":"4","last_reported":1707937544,"current_range_meters":21600,"station_id":"ce4bh012rcd13ifvqcv0","pricing_plan_id":"cebpf4jnsgd1na2vs0mg"},{"bike_id":"d88669cb-84bd-4991-913a-a06149710760","system_id":"levelo_inurba_marseille","lat":43.309047,"lon":5.396551,"is_reserved":false,"is_disabled":false,"rental_uris":{"android":"levelo://app?vid=d88669cb-84bd-4991-913a-a06149710760","ios":"levelo://app?vid=d88669cb-84bd-4991-913a-a06149710760"},"vehicle_type_id":"4","last_reported":1707937544,"current_range_meters":16400,"station_id":"ce4bh012rcd13ifvqcv0","pricing_plan_id":"cebpf4jnsgd1na2vs0mg"},{"bike_id":"ad0dd398-7c59-4771-af5c-30ce8fbee579","system_id":"levelo_inurba_marseille","lat":43.313291,"lon":5.396838,"is_reserved":false,"is_disabled":false,"rental_uris":{"android":"levelo://app?vid=ad0dd398-7c59-4771-af5c-30ce8fbee579","ios":"levelo://app?vid=ad0dd398-7c59-4771-af5c-30ce8fbee579"},"vehicle_type_id":"4","last_reported":1707937544,"current_range_meters":18400,"station_id":"ce4bgvp2rcd13ifvqcu0","pricing_plan_id":"cebpf4jnsgd1na2vs0mg"},{"bike_id":"41d7be42-4771-4c76-955d-aba7c0310b10","system_id":"levelo_inurba_marseille","lat":43.309038,"lon":5.396546,"is_reserved":false,"is_disabled":false,"rental_uris":{"android":"levelo://app?vid=41d7be42-4771-4c76-955d-aba7c0310b10","ios":"levelo://app?vid=41d7be42-4771-4c76-955d-aba7c0310b10"},"vehicle_type_id":"4","last_reported":1707937544,"current_range_meters":13600,"station_id":"ce4bh012rcd13ifvqcv0","pricing_plan_id":"cebpf4jnsgd1na2vs0mg"},{"bike_id":"72b6e4d5-734c-486e-bab9-ec82e2c1f3f0","system_id":"levelo_inurba_marseille","lat":43.29529,"lon":5.385581,"is_reserved":false,"is_disabled":false,"rental_uris":{"android":"levelo://app?vid=72b6e4d5-734c-486e-bab9-ec82e2c1f3f0","ios":"levelo://app?vid=72b6e4d5-734c-486e-bab9-ec82e2c1f3f0"},"vehicle_type_id":"4","last_reported":1707937544,"current_range_meters":22400,"station_id":"ce4bgih2rcd13ifvqba0","pricing_plan_id":"cebpf4jnsgd1na2vs0mg"},{"bike_id":"be59c305-98dc-4f7a-b130-cfee2599a922","system_id":"levelo_inurba_marseille","lat":43.29531,"lon":5.385367,"is_reserved":false,"is_disabled":false,"rental_uris":{"android":"levelo://app?vid=be59c305-98dc-4f7a-b130-cfee2599a922","ios":"levelo://app?vid=be59c305-98dc-4f7a-b130-cfee2599a922"},"vehicle_type_id":"4","last_reported":1707937544,"current_range_meters":18000,"station_id":"ce4bgih2rcd13ifvqba0","pricing_plan_id":"cebpf4jnsgd1na2vs0mg"},{"bike_id":"6ee940c8-af1e-401c-8508-ab370b7c52a9","system_id":"levelo_inurba_marseille","lat":43.29534,"lon":5.38543,"is_reserved":false,"is_disabled":false,"rental_uris":{"android":"levelo://app?vid=6ee940c8-af1e-401c-8508-ab370b7c52a9","ios":"levelo://app?vid=6ee940c8-af1e-401c-8508-ab370b7c52a9"},"vehicle_type_id":"4","last_reported":1707937544,"current_range_meters":18000,"station_id":"ce4bgih2rcd13ifvqba0","pricing_plan_id":"cebpf4jnsgd1na2vs0mg"},{"bike_id":"622ddbb4-17a9-4bb9-b906-39efe187d00b","system_id":"levelo_inurba_marseille","lat":43.29529,"lon":5.385581,"is_reserved":false,"is_disabled":false,"rental_uris":{"android":"levelo://app?vid=622ddbb4-17a9-4bb9-b906-39efe187d00b","ios":"levelo://app?vid=622ddbb4-17a9-4bb9-b906-39efe187d00b"},"vehicle_type_id":"4","last_reported":1707937544,"current_range_meters":18800,"station_id":"ce4bgih2rcd13ifvqba0","pricing_plan_id":"cebpf4jnsgd1na2vs0mg"},{"bike_id":"75ae1105-efad-4253-a56e-78ea2070fa7a","system_id":"levelo_inurba_marseille","lat":43.29535,"lon":5.38549,"is_reserved":false,"is_disabled":false,"rental_uris":{"android":"levelo://app?vid=75ae1105-efad-4253-a56e-78ea2070fa7a","ios":"levelo://app?vid=75ae1105-efad-4253-a56e-78ea2070fa7a"},"vehicle_type_id":"4","last_reported":1707937544,"current_range_meters":4000,"station_id":"ce4bgih2rcd13ifvqba0","pricing_plan_id":"cebpf4jnsgd1na2vs0mg"},{"bike_id":"14350ba7-0be0-45d9-848b-840a1397e340","system_id":"levelo_inurba_marseille","lat":43.29538,"lon":5.38556,"is_reserved":false,"is_disabled":false,"rental_uris":{"android":"levelo://app?vid=14350ba7-0be0-45d9-848b-840a1397e340","ios":"levelo://app?vid=14350ba7-0be0-45d9-848b-840a1397e340"},"vehicle_type_id":"4","last_reported":1707937544,"current_range_meters":7600,"station_id":"ce4bgih2rcd13ifvqba0","pricing_plan_id":"cebpf4jnsgd1na2vs0mg"},{"bike_id":"269f62ac-9d92-46c8-8ec0-f3b16480df69","system_id":"levelo_inurba_marseille","lat":43.29529,"lon":5.385581,"is_reserved":false,"is_disabled":false,"rental_uris":{"android":"levelo://app?vid=269f62ac-9d92-46c8-8ec0-f3b16480df69","ios":"levelo://app?vid=269f62ac-9d92-46c8-8ec0-f3b16480df69"},"vehicle_type_id":"4","last_reported":1707937544,"current_range_meters":6400,"station_id":"ce4bgih2rcd13ifvqba0","pricing_plan_id":"cebpf4jnsgd1na2vs0mg"},{"bike_id":"32d9923e-c79e-4d7e-ba93-77439340fbf2","system_id":"levelo_inurba_marseille","lat":43.295296,"lon":5.385456,"is_reserved":false,"is_disabled":false,"rental_uris":{"android":"levelo://app?vid=32d9923e-c79e-4d7e-ba93-77439340fbf2","ios":"levelo://app?vid=32d9923e-c79e-4d7e-ba93-77439340fbf2"},"vehicle_type_id":"4","last_reported":1707937544,"current_range_meters":2400,"station_id":"ce4bgih2rcd13ifvqba0","pricing_plan_id":"cebpf4jnsgd1na2vs0mg"},{"bike_id":"453fbd8a-2f2e-41c9-8fb2-80971539f833","system_id":"levelo_inurba_marseille","lat":43.29529,"lon":5.385581,"is_reserved":false,"is_disabled":false,"rental_uris":{"android":"levelo://app?vid=453fbd8a-2f2e-41c9-8fb2-80971539f833","ios":"levelo://app?vid=453fbd8a-2f2e-41c9-8fb2-80971539f833"},"vehicle_type_id":"4","last_reported":1707937544,"current_range_meters":4000,"station_id":"ce4bgih2rcd13ifvqba0","pricing_plan_id":"cebpf4jnsgd1na2vs0mg"},{"bike_id":"f08b98fd-dc8b-4bce-beae-ebc8bfee154e","system_id":"levelo_inurba_marseille","lat":43.290779,"lon":5.371482,"is_reserved":false,"is_disabled":false,"rental_uris":{"android":"levelo://app?vid=f08b98fd-dc8b-4bce-beae-ebc8bfee154e","ios":"levelo://app?vid=f08b98fd-dc8b-4bce-beae-ebc8bfee154e"},"vehicle_type_id":"4","last_reported":1707937544,"current_range_meters":7600,"station_id":"ce4bh5p2rcd13ifvqe4g","pricing_plan_id":"cebpf4jnsgd1na2vs0mg"},{"bike_id":"fd982e0d-6de9-43c0-b23c-9e6bc3394d7b","system_id":"levelo_inurba_marseille","lat":43.302008,"lon":5.394694,"is_reserved":false,"is_disabled":false,"rental_uris":{"android":"levelo://app?vid=fd982e0d-6de9-43c0-b23c-9e6bc3394d7b","ios":"levelo://app?vid=fd982e0d-6de9-43c0-b23c-9e6bc3394d7b"},"vehicle_type_id":"4","last_reported":1707937544,"current_range_meters":4800,"station_id":"ce4bh0p2rcd13ifvqd70","pricing_plan_id":"cebpf4jnsgd1na2vs0mg"},{"bike_id":"98a62a55-5042-4e03-be73-f7569847e6f0","system_id":"levelo_inurba_marseille","lat":43.302008,"lon":5.394694,"is_reserved":false,"is_disabled":false,"rental_uris":{"android":"levelo://app?vid=98a62a55-5042-4e03-be73-f7569847e6f0","ios":"levelo://app?vid=98a62a55-5042-4e03-be73-f7569847e6f0"},"vehicle_type_id":"4","last_reported":1707937544,"current_range_meters":1600,"station_id":"ce4bh0p2rcd13ifvqd70","pricing_plan_id":"cebpf4jnsgd1na2vs0mg"},{"bike_id":"1ab5f9ec-5d58-49c9-a0b2-acf3cdeb125b","system_id":"levelo_inurba_marseille","lat":43.294472,"lon":5.386072,"is_reserved":false,"is_disabled":false,"rental_uris":{"android":"levelo://app?vid=1ab5f9ec-5d58-49c9-a0b2-acf3cdeb125b","ios":"levelo://app?vid=1ab5f9ec-5d58-49c9-a0b2-acf3cdeb125b"},"vehicle_type_id":"4","last_reported":1707937544,"current_range_meters":6000,"station_id":"ce4bh2h2rcd13ifvqdh0","pricing_plan_id":"cebpf4jnsgd1na2vs0mg"},{"bike_id":"2454b331-47c4-45e8-85ab-611d47c4d43b","system_id":"levelo_inurba_marseille","lat":43.294153,"lon":5.386305,"is_reserved":false,"is_disabled":false,"rental_uris":{"android":"levelo://app?vid=2454b331-47c4-45e8-85ab-611d47c4d43b","ios":"levelo://app?vid=2454b331-47c4-45e8-85ab-611d47c4d43b"},"vehicle_type_id":"4","last_reported":1707937544,"current_range_meters":16800,"station_id":"ce4bh2h2rcd13ifvqdh0","pricing_plan_id":"cebpf4jnsgd1na2vs0mg"},{"bike_id":"58718ff2-9d09-4464-9116-02ff55fb3365","system_id":"levelo_inurba_marseille","lat":43.294153,"lon":5.386305,"is_reserved":false,"is_disabled":false,"rental_uris":{"android":"levelo://app?vid=58718ff2-9d09-4464-9116-02ff55fb3365","ios":"levelo://app?vid=58718ff2-9d09-4464-9116-02ff55fb3365"},"vehicle_type_id":"4","last_reported":1707937544,"current_range_meters":23600,"station_id":"ce4bh2h2rcd13ifvqdh0","pricing_plan_id":"cebpf4jnsgd1na2vs0mg"},{"bike_id":"0db5df06-2171-4e2f-beaf-6c0e9b442660","system_id":"levelo_inurba_marseille","lat":43.29424,"lon":5.3862,"is_reserved":false,"is_disabled":false,"rental_uris":{"android":"levelo://app?vid=0db5df06-2171-4e2f-beaf-6c0e9b442660","ios":"levelo://app?vid=0db5df06-2171-4e2f-beaf-6c0e9b442660"},"vehicle_type_id":"4","last_reported":1707937544,"current_range_meters":1600,"station_id":"ce4bh2h2rcd13ifvqdh0","pricing_plan_id":"cebpf4jnsgd1na2vs0mg"},{"bike_id":"26782a59-3d70-44a6-aa3b-33095ac8744d","system_id":"levelo_inurba_marseille","lat":43.294153,"lon":5.386305,"is_reserved":false,"is_disabled":false,"rental_uris":{"android":"levelo://app?vid=26782a59-3d70-44a6-aa3b-33095ac8744d","ios":"levelo://app?vid=26782a59-3d70-44a6-aa3b-33095ac8744d"},"vehicle_type_id":"4","last_reported":1707937544,"current_range_meters":15200,"station_id":"ce4bh2h2rcd13ifvqdh0","pricing_plan_id":"cebpf4jnsgd1na2vs0mg"},{"bike_id":"ef10e2bd-ede8-4106-972c-d260e3ac7696","system_id":"levelo_inurba_marseille","lat":43.289184,"lon":5.366408,"is_reserved":false,"is_disabled":false,"rental_uris":{"android":"levelo://app?vid=ef10e2bd-ede8-4106-972c-d260e3ac7696","ios":"levelo://app?vid=ef10e2bd-ede8-4106-972c-d260e3ac7696"},"vehicle_type_id":"4","last_reported":1707937544,"current_range_meters":17200,"station_id":"ce4bhap2rcd13ifvqek0","pricing_plan_id":"cebpf4jnsgd1na2vs0mg"},{"bike_id":"ccfe65a9-1bf5-414f-9ad9-fdbe6237d292","system_id":"levelo_inurba_marseille","lat":43.29419,"lon":5.3862,"is_reserved":false,"is_disabled":false,"rental_uris":{"android":"levelo://app?vid=ccfe65a9-1bf5-414f-9ad9-fdbe6237d292","ios":"levelo://app?vid=ccfe65a9-1bf5-414f-9ad9-fdbe6237d292"},"vehicle_type_id":"4","last_reported":1707937544,"current_range_meters":3600,"station_id":"ce4bh2h2rcd13ifvqdh0","pricing_plan_id":"cebpf4jnsgd1na2vs0mg"},{"bike_id":"69937058-8b67-4961-a590-543672134ec3","system_id":"levelo_inurba_marseille","lat":43.29419,"lon":5.38621,"is_reserved":false,"is_disabled":false,"rental_uris":{"android":"levelo://app?vid=69937058-8b67-4961-a590-543672134ec3","ios":"levelo://app?vid=69937058-8b67-4961-a590-543672134ec3"},"vehicle_type_id":"4","last_reported":1707937544,"current_range_meters":4800,"station_id":"ce4bh2h2rcd13ifvqdh0","pricing_plan_id":"cebpf4jnsgd1na2vs0mg"},{"bike_id":"d34d04f2-87f6-4b53-9ee5-bd505a341523","system_id":"levelo_inurba_marseille","lat":43.29419,"lon":5.38622,"is_reserved":false,"is_disabled":false,"rental_uris":{"android":"levelo://app?vid=d34d04f2-87f6-4b53-9ee5-bd505a341523","ios":"levelo://app?vid=d34d04f2-87f6-4b53-9ee5-bd505a341523"},"vehicle_type_id":"4","last_reported":1707937544,"current_range_meters":8800,"station_id":"ce4bh2h2rcd13ifvqdh0","pricing_plan_id":"cebpf4jnsgd1na2vs0mg"},{"bike_id":"30241abd-fe59-4467-a300-4e3db40fc46c","system_id":"levelo_inurba_marseille","lat":43.29422,"lon":5.38628,"is_reserved":false,"is_disabled":false,"rental_uris":{"android":"levelo://app?vid=30241abd-fe59-4467-a300-4e3db40fc46c","ios":"levelo://app?vid=30241abd-fe59-4467-a300-4e3db40fc46c"},"vehicle_type_id":"4","last_reported":1707937544,"current_range_meters":0,"station_id":"ce4bh2h2rcd13ifvqdh0","pricing_plan_id":"cebpf4jnsgd1na2vs0mg"},{"bike_id":"7caedcb6-bb2a-4708-b8c6-522e474705f5","system_id":"levelo_inurba_marseille","lat":43.294153,"lon":5.386305,"is_reserved":false,"is_disabled":false,"rental_uris":{"android":"levelo://app?vid=7caedcb6-bb2a-4708-b8c6-522e474705f5","ios":"levelo://app?vid=7caedcb6-bb2a-4708-b8c6-522e474705f5"},"vehicle_type_id":"4","last_reported":1707937544,"current_range_meters":2400,"station_id":"ce4bh2h2rcd13ifvqdh0","pricing_plan_id":"cebpf4jnsgd1na2vs0mg"},{"bike_id":"ea4ff723-e4ed-4fb1-9c9d-90c5dd7055ba","system_id":"levelo_inurba_marseille","lat":43.290319,"lon":5.375732,"is_reserved":false,"is_disabled":false,"rental_uris":{"android":"levelo://app?vid=ea4ff723-e4ed-4fb1-9c9d-90c5dd7055ba","ios":"levelo://app?vid=ea4ff723-e4ed-4fb1-9c9d-90c5dd7055ba"},"vehicle_type_id":"4","last_reported":1707937544,"current_range_meters":22400,"station_id":"ce4bh692rcd13ifvqe90","pricing_plan_id":"cebpf4jnsgd1na2vs0mg"},{"bike_id":"87c0cb56-74ae-4221-918e-c00c73fc88cd","system_id":"levelo_inurba_marseille","lat":43.29422,"lon":5.3863,"is_reserved":false,"is_disabled":false,"rental_uris":{"android":"levelo://app?vid=87c0cb56-74ae-4221-918e-c00c73fc88cd","ios":"levelo://app?vid=87c0cb56-74ae-4221-918e-c00c73fc88cd"},"vehicle_type_id":"4","last_reported":1707937544,"current_range_meters":8000,"station_id":"ce4bh2h2rcd13ifvqdh0","pricing_plan_id":"cebpf4jnsgd1na2vs0mg"},{"bike_id":"9d3f9f4e-c5a1-4890-8f46-48cf8e699ac6","system_id":"levelo_inurba_marseille","lat":43.29417,"lon":5.38621,"is_reserved":false,"is_disabled":false,"rental_uris":{"android":"levelo://app?vid=9d3f9f4e-c5a1-4890-8f46-48cf8e699ac6","ios":"levelo://app?vid=9d3f9f4e-c5a1-4890-8f46-48cf8e699ac6"},"vehicle_type_id":"4","last_reported":1707937544,"current_range_meters":15600,"station_id":"ce4bh2h2rcd13ifvqdh0","pricing_plan_id":"cebpf4jnsgd1na2vs0mg"},{"bike_id":"e53d7e56-4c9a-4808-8e6b-8f4a105ce071","system_id":"levelo_inurba_marseille","lat":43.29424,"lon":5.38634,"is_reserved":false,"is_disabled":false,"rental_uris":{"android":"levelo://app?vid=e53d7e56-4c9a-4808-8e6b-8f4a105ce071","ios":"levelo://app?vid=e53d7e56-4c9a-4808-8e6b-8f4a105ce071"},"vehicle_type_id":"4","last_reported":1707937544,"current_range_meters":22400,"station_id":"ce4bh2h2rcd13ifvqdh0","pricing_plan_id":"cebpf4jnsgd1na2vs0mg"},{"bike_id":"7e8dcf3a-6608-4555-9200-f8b0accb437a","system_id":"levelo_inurba_marseille","lat":43.29421,"lon":5.38629,"is_reserved":false,"is_disabled":false,"rental_uris":{"android":"levelo://app?vid=7e8dcf3a-6608-4555-9200-f8b0accb437a","ios":"levelo://app?vid=7e8dcf3a-6608-4555-9200-f8b0accb437a"},"vehicle_type_id":"4","last_reported":1707937544,"current_range_meters":17600,"station_id":"ce4bh2h2rcd13ifvqdh0","pricing_plan_id":"cebpf4jnsgd1na2vs0mg"},{"bike_id":"a9173e2a-78c0-40f3-bbf4-d203f4e518aa","system_id":"levelo_inurba_marseille","lat":43.294257,"lon":5.386386,"is_reserved":false,"is_disabled":false,"rental_uris":{"android":"levelo://app?vid=a9173e2a-78c0-40f3-bbf4-d203f4e518aa","ios":"levelo://app?vid=a9173e2a-78c0-40f3-bbf4-d203f4e518aa"},"vehicle_type_id":"4","last_reported":1707937544,"current_range_meters":2000,"station_id":"ce4bh2h2rcd13ifvqdh0","pricing_plan_id":"cebpf4jnsgd1na2vs0mg"},{"bike_id":"2942126c-8d2c-4be4-9656-4e0e2b6dc8ef","system_id":"levelo_inurba_marseille","lat":43.29416,"lon":5.38622,"is_reserved":false,"is_disabled":false,"rental_uris":{"android":"levelo://app?vid=2942126c-8d2c-4be4-9656-4e0e2b6dc8ef","ios":"levelo://app?vid=2942126c-8d2c-4be4-9656-4e0e2b6dc8ef"},"vehicle_type_id":"4","last_reported":1707937544,"current_range_meters":15600,"station_id":"ce4bh2h2rcd13ifvqdh0","pricing_plan_id":"cebpf4jnsgd1na2vs0mg"},{"bike_id":"9a404653-7a94-4708-a0db-721269989304","system_id":"levelo_inurba_marseille","lat":43.29416,"lon":5.38624,"is_reserved":false,"is_disabled":false,"rental_uris":{"android":"levelo://app?vid=9a404653-7a94-4708-a0db-721269989304","ios":"levelo://app?vid=9a404653-7a94-4708-a0db-721269989304"},"vehicle_type_id":"4","last_reported":1707937544,"current_range_meters":2400,"station_id":"ce4bh2h2rcd13ifvqdh0","pricing_plan_id":"cebpf4jnsgd1na2vs0mg"},{"bike_id":"4488c176-69b8-48cf-b12e-0fd5048df858","system_id":"levelo_inurba_marseille","lat":43.294162,"lon":5.386292,"is_reserved":false,"is_disabled":false,"rental_uris":{"android":"levelo://app?vid=4488c176-69b8-48cf-b12e-0fd5048df858","ios":"levelo://app?vid=4488c176-69b8-48cf-b12e-0fd5048df858"},"vehicle_type_id":"4","last_reported":1707937544,"current_range_meters":4800,"station_id":"ce4bh2h2rcd13ifvqdh0","pricing_plan_id":"cebpf4jnsgd1na2vs0mg"},{"bike_id":"f028c85f-e77d-4c93-acec-550540c8bd8c","system_id":"levelo_inurba_marseille","lat":43.294153,"lon":5.386305,"is_reserved":false,"is_disabled":false,"rental_uris":{"android":"levelo://app?vid=f028c85f-e77d-4c93-acec-550540c8bd8c","ios":"levelo://app?vid=f028c85f-e77d-4c93-acec-550540c8bd8c"},"vehicle_type_id":"4","last_reported":1707937544,"current_range_meters":1200,"station_id":"ce4bh2h2rcd13ifvqdh0","pricing_plan_id":"cebpf4jnsgd1na2vs0mg"},{"bike_id":"12d52c86-24f1-4255-af7f-9a2fdeb3ef73","system_id":"levelo_inurba_marseille","lat":43.290319,"lon":5.375732,"is_reserved":false,"is_disabled":false,"rental_uris":{"android":"levelo://app?vid=12d52c86-24f1-4255-af7f-9a2fdeb3ef73","ios":"levelo://app?vid=12d52c86-24f1-4255-af7f-9a2fdeb3ef73"},"vehicle_type_id":"4","last_reported":1707937544,"current_range_meters":16800,"station_id":"ce4bh692rcd13ifvqe90","pricing_plan_id":"cebpf4jnsgd1na2vs0mg"},{"bike_id":"460d3b23-4231-452b-a1f1-08eaa1a9121f","system_id":"levelo_inurba_marseille","lat":43.29411,"lon":5.38621,"is_reserved":false,"is_disabled":false,"rental_uris":{"android":"levelo://app?vid=460d3b23-4231-452b-a1f1-08eaa1a9121f","ios":"levelo://app?vid=460d3b23-4231-452b-a1f1-08eaa1a9121f"},"vehicle_type_id":"4","last_reported":1707937544,"current_range_meters":0,"station_id":"ce4bh2h2rcd13ifvqdh0","pricing_plan_id":"cebpf4jnsgd1na2vs0mg"},{"bike_id":"a8269514-aa23-40c8-8e7d-f28d4b9e60f1","system_id":"levelo_inurba_marseille","lat":43.29417,"lon":5.38633,"is_reserved":false,"is_disabled":false,"rental_uris":{"android":"levelo://app?vid=a8269514-aa23-40c8-8e7d-f28d4b9e60f1","ios":"levelo://app?vid=a8269514-aa23-40c8-8e7d-f28d4b9e60f1"},"vehicle_type_id":"4","last_reported":1707937544,"current_range_meters":0,"station_id":"ce4bh2h2rcd13ifvqdh0","pricing_plan_id":"cebpf4jnsgd1na2vs0mg"},{"bike_id":"b7227af8-13b1-415c-9e7a-cded2524eb64","system_id":"levelo_inurba_marseille","lat":43.289184,"lon":5.366408,"is_reserved":false,"is_disabled":false,"rental_uris":{"android":"levelo://app?vid=b7227af8-13b1-415c-9e7a-cded2524eb64","ios":"levelo://app?vid=b7227af8-13b1-415c-9e7a-cded2524eb64"},"vehicle_type_id":"4","last_reported":1707937544,"current_range_meters":21200,"station_id":"ce4bhap2rcd13ifvqek0","pricing_plan_id":"cebpf4jnsgd1na2vs0mg"},{"bike_id":"a9f70f03-1fde-4a15-bb0a-06dacb3d61ff","system_id":"levelo_inurba_marseille","lat":43.29412,"lon":5.3863,"is_reserved":false,"is_disabled":false,"rental_uris":{"android":"levelo://app?vid=a9f70f03-1fde-4a15-bb0a-06dacb3d61ff","ios":"levelo://app?vid=a9f70f03-1fde-4a15-bb0a-06dacb3d61ff"},"vehicle_type_id":"4","last_reported":1707937544,"current_range_meters":6000,"station_id":"ce4bh2h2rcd13ifvqdh0","pricing_plan_id":"cebpf4jnsgd1na2vs0mg"},{"bike_id":"f4415eee-f6f9-4af4-bca1-7494d5b2b1ce","system_id":"levelo_inurba_marseille","lat":43.29413,"lon":5.38632,"is_reserved":false,"is_disabled":false,"rental_uris":{"android":"levelo://app?vid=f4415eee-f6f9-4af4-bca1-7494d5b2b1ce","ios":"levelo://app?vid=f4415eee-f6f9-4af4-bca1-7494d5b2b1ce"},"vehicle_type_id":"4","last_reported":1707937544,"current_range_meters":29200,"station_id":"ce4bh2h2rcd13ifvqdh0","pricing_plan_id":"cebpf4jnsgd1na2vs0mg"},{"bike_id":"01bcc8c8-a516-4958-9b53-b5b8d71b29e9","system_id":"levelo_inurba_marseille","lat":43.28937,"lon":5.36637,"is_reserved":false,"is_disabled":false,"rental_uris":{"android":"levelo://app?vid=01bcc8c8-a516-4958-9b53-b5b8d71b29e9","ios":"levelo://app?vid=01bcc8c8-a516-4958-9b53-b5b8d71b29e9"},"vehicle_type_id":"4","last_reported":1707937544,"current_range_meters":3600,"station_id":"ce4bhap2rcd13ifvqek0","pricing_plan_id":"cebpf4jnsgd1na2vs0mg"},{"bike_id":"4dfb38b3-eaa7-4ed8-949b-a2c6469a88a1","system_id":"levelo_inurba_marseille","lat":43.289468,"lon":5.363719,"is_reserved":false,"is_disabled":false,"rental_uris":{"android":"levelo://app?vid=4dfb38b3-eaa7-4ed8-949b-a2c6469a88a1","ios":"levelo://app?vid=4dfb38b3-eaa7-4ed8-949b-a2c6469a88a1"},"vehicle_type_id":"4","last_reported":1707937544,"current_range_meters":15600,"station_id":"ce4bhc92rcd13ifvqetg","pricing_plan_id":"cebpf4jnsgd1na2vs0mg"},{"bike_id":"cfed2448-9a53-48e1-ab94-2bb6f5504a4e","system_id":"levelo_inurba_marseille","lat":43.28936,"lon":5.36639,"is_reserved":false,"is_disabled":false,"rental_uris":{"android":"levelo://app?vid=cfed2448-9a53-48e1-ab94-2bb6f5504a4e","ios":"levelo://app?vid=cfed2448-9a53-48e1-ab94-2bb6f5504a4e"},"vehicle_type_id":"4","last_reported":1707937544,"current_range_meters":4400,"station_id":"ce4bhap2rcd13ifvqek0","pricing_plan_id":"cebpf4jnsgd1na2vs0mg"},{"bike_id":"1e5ee6e9-f63c-4308-853e-9038834aa78f","system_id":"levelo_inurba_marseille","lat":43.28936,"lon":5.36638,"is_reserved":false,"is_disabled":false,"rental_uris":{"android":"levelo://app?vid=1e5ee6e9-f63c-4308-853e-9038834aa78f","ios":"levelo://app?vid=1e5ee6e9-f63c-4308-853e-9038834aa78f"},"vehicle_type_id":"4","last_reported":1707937544,"current_range_meters":14400,"station_id":"ce4bhap2rcd13ifvqek0","pricing_plan_id":"cebpf4jnsgd1na2vs0mg"},{"bike_id":"8ecde80b-2d19-452d-985a-9023686646cf","system_id":"levelo_inurba_marseille","lat":43.294127,"lon":5.386403,"is_reserved":false,"is_disabled":false,"rental_uris":{"android":"levelo://app?vid=8ecde80b-2d19-452d-985a-9023686646cf","ios":"levelo://app?vid=8ecde80b-2d19-452d-985a-9023686646cf"},"vehicle_type_id":"4","last_reported":1707937544,"current_range_meters":2400,"station_id":"ce4bh2h2rcd13ifvqdh0","pricing_plan_id":"cebpf4jnsgd1na2vs0mg"},{"bike_id":"55fc4e34-0003-4415-9706-191446fe4f0f","system_id":"levelo_inurba_marseille","lat":43.289184,"lon":5.366408,"is_reserved":false,"is_disabled":false,"rental_uris":{"android":"levelo://app?vid=55fc4e34-0003-4415-9706-191446fe4f0f","ios":"levelo://app?vid=55fc4e34-0003-4415-9706-191446fe4f0f"},"vehicle_type_id":"4","last_reported":1707937544,"current_range_meters":4000,"station_id":"ce4bhap2rcd13ifvqek0","pricing_plan_id":"cebpf4jnsgd1na2vs0mg"},{"bike_id":"ce660d0d-a8ca-45c8-9eb9-7eafede934ec","system_id":"levelo_inurba_marseille","lat":43.28934,"lon":5.36643,"is_reserved":false,"is_disabled":false,"rental_uris":{"android":"levelo://app?vid=ce660d0d-a8ca-45c8-9eb9-7eafede934ec","ios":"levelo://app?vid=ce660d0d-a8ca-45c8-9eb9-7eafede934ec"},"vehicle_type_id":"4","last_reported":1707937544,"current_range_meters":5200,"station_id":"ce4bhap2rcd13ifvqek0","pricing_plan_id":"cebpf4jnsgd1na2vs0mg"},{"bike_id":"a01cc2b3-f8ae-4df3-a001-c8f62b71b7eb","system_id":"levelo_inurba_marseille","lat":43.28931,"lon":5.36642,"is_reserved":false,"is_disabled":false,"rental_uris":{"android":"levelo://app?vid=a01cc2b3-f8ae-4df3-a001-c8f62b71b7eb","ios":"levelo://app?vid=a01cc2b3-f8ae-4df3-a001-c8f62b71b7eb"},"vehicle_type_id":"4","last_reported":1707937544,"current_range_meters":20400,"station_id":"ce4bhap2rcd13ifvqek0","pricing_plan_id":"cebpf4jnsgd1na2vs0mg"},{"bike_id":"a7aaeff8-f1d1-4270-bc9f-b5341b562733","system_id":"levelo_inurba_marseille","lat":43.28926,"lon":5.36642,"is_reserved":false,"is_disabled":false,"rental_uris":{"android":"levelo://app?vid=a7aaeff8-f1d1-4270-bc9f-b5341b562733","ios":"levelo://app?vid=a7aaeff8-f1d1-4270-bc9f-b5341b562733"},"vehicle_type_id":"4","last_reported":1707937544,"current_range_meters":19200,"station_id":"ce4bhap2rcd13ifvqek0","pricing_plan_id":"cebpf4jnsgd1na2vs0mg"},{"bike_id":"bc3ecd03-c5f7-4be4-a1ac-d440ecfe5a77","system_id":"levelo_inurba_marseille","lat":43.292718,"lon":5.384134,"is_reserved":false,"is_disabled":false,"rental_uris":{"android":"levelo://app?vid=bc3ecd03-c5f7-4be4-a1ac-d440ecfe5a77","ios":"levelo://app?vid=bc3ecd03-c5f7-4be4-a1ac-d440ecfe5a77"},"vehicle_type_id":"4","last_reported":1707937544,"current_range_meters":10000,"station_id":"ce4bh692rcd13ifvqea0","pricing_plan_id":"cebpf4jnsgd1na2vs0mg"},{"bike_id":"27b3871e-ce90-4c19-a42f-ea610a562b9d","system_id":"levelo_inurba_marseille","lat":43.298175,"lon":5.39248,"is_reserved":false,"is_disabled":false,"rental_uris":{"android":"levelo://app?vid=27b3871e-ce90-4c19-a42f-ea610a562b9d","ios":"levelo://app?vid=27b3871e-ce90-4c19-a42f-ea610a562b9d"},"vehicle_type_id":"4","last_reported":1707937544,"current_range_meters":3200,"station_id":"chh1huq6cuj3fo74tm60","pricing_plan_id":"cebpf4jnsgd1na2vs0mg"},{"bike_id":"9db52fa8-5f94-40de-a7c8-4cf5a1e2a759","system_id":"levelo_inurba_marseille","lat":43.292642,"lon":5.384254,"is_reserved":false,"is_disabled":false,"rental_uris":{"android":"levelo://app?vid=9db52fa8-5f94-40de-a7c8-4cf5a1e2a759","ios":"levelo://app?vid=9db52fa8-5f94-40de-a7c8-4cf5a1e2a759"},"vehicle_type_id":"4","last_reported":1707937544,"current_range_meters":21600,"station_id":"ce4bh692rcd13ifvqea0","pricing_plan_id":"cebpf4jnsgd1na2vs0mg"},{"bike_id":"9aa2e0ad-4c14-457b-91ef-1be44568d927","system_id":"levelo_inurba_marseille","lat":43.29267,"lon":5.38434,"is_reserved":false,"is_disabled":false,"rental_uris":{"android":"levelo://app?vid=9aa2e0ad-4c14-457b-91ef-1be44568d927","ios":"levelo://app?vid=9aa2e0ad-4c14-457b-91ef-1be44568d927"},"vehicle_type_id":"4","last_reported":1707937544,"current_range_meters":9200,"station_id":"ce4bh692rcd13ifvqea0","pricing_plan_id":"cebpf4jnsgd1na2vs0mg"},{"bike_id":"61455a65-5ead-43dd-89cb-b7010ed9b383","system_id":"levelo_inurba_marseille","lat":43.29265,"lon":5.38435,"is_reserved":false,"is_disabled":false,"rental_uris":{"android":"levelo://app?vid=61455a65-5ead-43dd-89cb-b7010ed9b383","ios":"levelo://app?vid=61455a65-5ead-43dd-89cb-b7010ed9b383"},"vehicle_type_id":"4","last_reported":1707937544,"current_range_meters":14400,"station_id":"ce4bh692rcd13ifvqea0","pricing_plan_id":"cebpf4jnsgd1na2vs0mg"},{"bike_id":"8d0ea725-1fc5-447c-8668-a2ce56325666","system_id":"levelo_inurba_marseille","lat":43.29265,"lon":5.38438,"is_reserved":false,"is_disabled":false,"rental_uris":{"android":"levelo://app?vid=8d0ea725-1fc5-447c-8668-a2ce56325666","ios":"levelo://app?vid=8d0ea725-1fc5-447c-8668-a2ce56325666"},"vehicle_type_id":"4","last_reported":1707937544,"current_range_meters":2400,"station_id":"ce4bh692rcd13ifvqea0","pricing_plan_id":"cebpf4jnsgd1na2vs0mg"},{"bike_id":"30aa6696-2b61-4279-a711-a4ec0e0e55ec","system_id":"levelo_inurba_marseille","lat":43.29265,"lon":5.38438,"is_reserved":false,"is_disabled":false,"rental_uris":{"android":"levelo://app?vid=30aa6696-2b61-4279-a711-a4ec0e0e55ec","ios":"levelo://app?vid=30aa6696-2b61-4279-a711-a4ec0e0e55ec"},"vehicle_type_id":"4","last_reported":1707937544,"current_range_meters":17200,"station_id":"ce4bh692rcd13ifvqea0","pricing_plan_id":"cebpf4jnsgd1na2vs0mg"},{"bike_id":"372fa346-4c91-411a-be24-6ecd8972fd77","system_id":"levelo_inurba_marseille","lat":43.29264,"lon":5.38438,"is_reserved":false,"is_disabled":false,"rental_uris":{"android":"levelo://app?vid=372fa346-4c91-411a-be24-6ecd8972fd77","ios":"levelo://app?vid=372fa346-4c91-411a-be24-6ecd8972fd77"},"vehicle_type_id":"4","last_reported":1707937544,"current_range_meters":14400,"station_id":"ce4bh692rcd13ifvqea0","pricing_plan_id":"cebpf4jnsgd1na2vs0mg"},{"bike_id":"4f11a7e5-7e8d-467f-92c6-583a80d52f3d","system_id":"levelo_inurba_marseille","lat":43.29265,"lon":5.38441,"is_reserved":false,"is_disabled":false,"rental_uris":{"android":"levelo://app?vid=4f11a7e5-7e8d-467f-92c6-583a80d52f3d","ios":"levelo://app?vid=4f11a7e5-7e8d-467f-92c6-583a80d52f3d"},"vehicle_type_id":"4","last_reported":1707937544,"current_range_meters":26400,"station_id":"ce4bh692rcd13ifvqea0","pricing_plan_id":"cebpf4jnsgd1na2vs0mg"},{"bike_id":"0a44d68d-1364-4c35-a692-bbb0930f9be9","system_id":"levelo_inurba_marseille","lat":43.29262,"lon":5.38439,"is_reserved":false,"is_disabled":false,"rental_uris":{"android":"levelo://app?vid=0a44d68d-1364-4c35-a692-bbb0930f9be9","ios":"levelo://app?vid=0a44d68d-1364-4c35-a692-bbb0930f9be9"},"vehicle_type_id":"4","last_reported":1707937544,"current_range_meters":0,"station_id":"ce4bh692rcd13ifvqea0","pricing_plan_id":"cebpf4jnsgd1na2vs0mg"},{"bike_id":"30070839-374b-4e8e-af8a-ee41fcc04571","system_id":"levelo_inurba_marseille","lat":43.292642,"lon":5.384254,"is_reserved":false,"is_disabled":false,"rental_uris":{"android":"levelo://app?vid=30070839-374b-4e8e-af8a-ee41fcc04571","ios":"levelo://app?vid=30070839-374b-4e8e-af8a-ee41fcc04571"},"vehicle_type_id":"4","last_reported":1707937544,"current_range_meters":17600,"station_id":"ce4bh692rcd13ifvqea0","pricing_plan_id":"cebpf4jnsgd1na2vs0mg"},{"bike_id":"65ab5c68-c2b3-4c53-8109-4439bb38acb6","system_id":"levelo_inurba_marseille","lat":43.29263,"lon":5.38454,"is_reserved":false,"is_disabled":false,"rental_uris":{"android":"levelo://app?vid=65ab5c68-c2b3-4c53-8109-4439bb38acb6","ios":"levelo://app?vid=65ab5c68-c2b3-4c53-8109-4439bb38acb6"},"vehicle_type_id":"4","last_reported":1707937544,"current_range_meters":12400,"station_id":"ce4bh692rcd13ifvqea0","pricing_plan_id":"cebpf4jnsgd1na2vs0mg"},{"bike_id":"97eb5204-dc51-4a5f-a28f-9ee234820e2a","system_id":"levelo_inurba_marseille","lat":43.292642,"lon":5.384254,"is_reserved":false,"is_disabled":false,"rental_uris":{"android":"levelo://app?vid=97eb5204-dc51-4a5f-a28f-9ee234820e2a","ios":"levelo://app?vid=97eb5204-dc51-4a5f-a28f-9ee234820e2a"},"vehicle_type_id":"4","last_reported":1707937544,"current_range_meters":11600,"station_id":"ce4bh692rcd13ifvqea0","pricing_plan_id":"cebpf4jnsgd1na2vs0mg"},{"bike_id":"8e7519d8-cb4f-4849-b0b3-43a208dc5439","system_id":"levelo_inurba_marseille","lat":43.2926,"lon":5.38454,"is_reserved":false,"is_disabled":false,"rental_uris":{"android":"levelo://app?vid=8e7519d8-cb4f-4849-b0b3-43a208dc5439","ios":"levelo://app?vid=8e7519d8-cb4f-4849-b0b3-43a208dc5439"},"vehicle_type_id":"4","last_reported":1707937544,"current_range_meters":0,"station_id":"ce4bh692rcd13ifvqea0","pricing_plan_id":"cebpf4jnsgd1na2vs0mg"},{"bike_id":"4e772bce-abef-4627-be84-8cce60d05018","system_id":"levelo_inurba_marseille","lat":43.29259,"lon":5.38454,"is_reserved":false,"is_disabled":false,"rental_uris":{"android":"levelo://app?vid=4e772bce-abef-4627-be84-8cce60d05018","ios":"levelo://app?vid=4e772bce-abef-4627-be84-8cce60d05018"},"vehicle_type_id":"4","last_reported":1707937544,"current_range_meters":13200,"station_id":"ce4bh692rcd13ifvqea0","pricing_plan_id":"cebpf4jnsgd1na2vs0mg"},{"bike_id":"f5e488f4-a28b-4d9f-a743-bd2eda51ac5c","system_id":"levelo_inurba_marseille","lat":43.292581,"lon":5.384544,"is_reserved":false,"is_disabled":false,"rental_uris":{"android":"levelo://app?vid=f5e488f4-a28b-4d9f-a743-bd2eda51ac5c","ios":"levelo://app?vid=f5e488f4-a28b-4d9f-a743-bd2eda51ac5c"},"vehicle_type_id":"4","last_reported":1707937544,"current_range_meters":26400,"station_id":"ce4bh692rcd13ifvqea0","pricing_plan_id":"cebpf4jnsgd1na2vs0mg"},{"bike_id":"93db0ce8-e06c-4593-86d5-818782473920","system_id":"levelo_inurba_marseille","lat":43.292697,"lon":5.384799,"is_reserved":false,"is_disabled":false,"rental_uris":{"android":"levelo://app?vid=93db0ce8-e06c-4593-86d5-818782473920","ios":"levelo://app?vid=93db0ce8-e06c-4593-86d5-818782473920"},