{"last_updated":1752246671,"ttl":60,"version":"2.2","data":{"bikes":[{"bike_id":"718e7a3f-713c-4457-986e-9a95a46e4b95","system_id":"levelo_inurba_marseille","lat":43.28002,"lon":5.41655,"is_reserved":false,"is_disabled":false,"rental_uris":{"android":"levelo://app?vid=718e7a3f-713c-4457-986e-9a95a46e4b95","ios":"levelo://app?vid=718e7a3f-713c-4457-986e-9a95a46e4b95"},"vehicle_type_id":"4","last_reported":1752246671,"current_range_meters":2800,"station_id":"ce4bho12rcd13ifvqh1g","pricing_plan_id":"cebpf4jnsgd1na2vs0mg"},{"bike_id":"3110fb5e-54b5-406c-b5b1-6611e3487baa","system_id":"levelo_inurba_marseille","lat":43.30789,"lon":5.37647,"is_reserved":false,"is_disabled":false,"rental_uris":{"android":"levelo://app?vid=3110fb5e-54b5-406c-b5b1-6611e3487baa","ios":"levelo://app?vid=3110fb5e-54b5-406c-b5b1-6611e3487baa"},"vehicle_type_id":"4","last_reported":1752246671,"current_range_meters":2800,"station_id":"ce4bgv92rcd13ifvqcq0","pricing_plan_id":"cebpf4jnsgd1na2vs0mg"},{"bike_id":"b8d6bf6b-ecbb-4c40-8ce7-0169ef070b49","system_id":"levelo_inurba_marseille","lat":43.29578,"lon":5.37404,"is_reserved":false,"is_disabled":false,"rental_uris":{"android":"levelo://app?vid=b8d6bf6b-ecbb-4c40-8ce7-0169ef070b49","ios":"levelo://app?vid=b8d6bf6b-ecbb-4c40-8ce7-0169ef070b49"},"vehicle_type_id":"4","last_reported":1752246671,"current_range_meters":3600,"station_id":"","pricing_plan_id":"cebpf4jnsgd1na2vs0mg"},{"bike_id":"d99b22d4-d35b-46b2-b63f-df2cd79013a1","system_id":"levelo_inurba_marseille","lat":43.27916,"lon":5.39575,"is_reserved":false,"is_disabled":false,"rental_uris":{"android":"levelo://app?vid=d99b22d4-d35b-46b2-b63f-df2cd79013a1","ios":"levelo://app?vid=d99b22d4-d35b-46b2-b63f-df2cd79013a1"},"vehicle_type_id":"4","last_reported":1752246671,"current_range_meters":3600,"station_id":"ce4bhf92rcd13ifvqf40","pricing_plan_id":"cebpf4jnsgd1na2vs0mg"},{"bike_id":"c9ec8264-b1f7-41db-a127-5dfa02fc980f","system_id":"levelo_inurba_marseille","lat":43.31565,"lon":5.40175,"is_reserved":false,"is_disabled":false,"rental_uris":{"android":"levelo://app?vid=c9ec8264-b1f7-41db-a127-5dfa02fc980f","ios":"levelo://app?vid=c9ec8264-b1f7-41db-a127-5dfa02fc980f"},"vehicle_type_id":"4","last_reported":1752246671,"current_range_meters":4000,"station_id":"","pricing_plan_id":"cebpf4jnsgd1na2vs0mg"},{"bike_id":"a4e71c09-d013-4906-bd5c-aaf1012438e0","system_id":"levelo_inurba_marseille","lat":43.30919,"lon":5.40156,"is_reserved":false,"is_disabled":true,"rental_uris":{"android":"levelo://app?vid=a4e71c09-d013-4906-bd5c-aaf1012438e0","ios":"levelo://app?vid=a4e71c09-d013-4906-bd5c-aaf1012438e0"},"vehicle_type_id":"4","last_reported":1752246671,"current_range_meters":4000,"station_id":"ce4bgvp2rcd13ifvqct0","pricing_plan_id":"cebpf4jnsgd1na2vs0mg"},{"bike_id":"4f0f1182-5708-43d4-af74-67f55e7b89cc","system_id":"levelo_inurba_marseille","lat":43.26957,"lon":5.38622,"is_reserved":false,"is_disabled":false,"rental_uris":{"android":"levelo://app?vid=4f0f1182-5708-43d4-af74-67f55e7b89cc","ios":"levelo://app?vid=4f0f1182-5708-43d4-af74-67f55e7b89cc"},"vehicle_type_id":"4","last_reported":1752246671,"current_range_meters":4800,"station_id":"ce4bhh92rcd13ifvqfh0","pricing_plan_id":"cebpf4jnsgd1na2vs0mg"},{"bike_id":"df712ea8-fa0e-4dc0-9487-73c43f88a2a0","system_id":"levelo_inurba_marseille","lat":43.30784,"lon":5.37654,"is_reserved":false,"is_disabled":false,"rental_uris":{"android":"levelo://app?vid=df712ea8-fa0e-4dc0-9487-73c43f88a2a0","ios":"levelo://app?vid=df712ea8-fa0e-4dc0-9487-73c43f88a2a0"},"vehicle_type_id":"4","last_reported":1752246671,"current_range_meters":4800,"station_id":"ce4bgv92rcd13ifvqcq0","pricing_plan_id":"cebpf4jnsgd1na2vs0mg"},{"bike_id":"3108e78c-759c-4d11-b361-5abb833e983c","system_id":"levelo_inurba_marseille","lat":43.28861,"lon":5.39395,"is_reserved":false,"is_disabled":false,"rental_uris":{"android":"levelo://app?vid=3108e78c-759c-4d11-b361-5abb833e983c","ios":"levelo://app?vid=3108e78c-759c-4d11-b361-5abb833e983c"},"vehicle_type_id":"4","last_reported":1752246671,"current_range_meters":5600,"station_id":"","pricing_plan_id":"cebpf4jnsgd1na2vs0mg"},{"bike_id":"159fe00e-1605-4a3a-a906-ef8dcd52b1db","system_id":"levelo_inurba_marseille","lat":43.30842,"lon":5.37317,"is_reserved":false,"is_disabled":false,"rental_uris":{"android":"levelo://app?vid=159fe00e-1605-4a3a-a906-ef8dcd52b1db","ios":"levelo://app?vid=159fe00e-1605-4a3a-a906-ef8dcd52b1db"},"vehicle_type_id":"4","last_reported":1752246671,"current_range_meters":5600,"station_id":"","pricing_plan_id":"cebpf4jnsgd1na2vs0mg"},{"bike_id":"2d870599-b19e-482c-96f2-8a30df706f92","system_id":"levelo_inurba_marseille","lat":43.29514,"lon":5.37519,"is_reserved":false,"is_disabled":false,"rental_uris":{"android":"levelo://app?vid=2d870599-b19e-482c-96f2-8a30df706f92","ios":"levelo://app?vid=2d870599-b19e-482c-96f2-8a30df706f92"},"vehicle_type_id":"4","last_reported":1752246671,"current_range_meters":5600,"station_id":"ce4bgkp2rcd13ifvqbmg","pricing_plan_id":"cebpf4jnsgd1na2vs0mg"},{"bike_id":"a7638d86-ae46-4944-b5c6-f1ab5cfa3e94","system_id":"levelo_inurba_marseille","lat":43.337444,"lon":5.374475,"is_reserved":false,"is_disabled":false,"rental_uris":{"android":"levelo://app?vid=a7638d86-ae46-4944-b5c6-f1ab5cfa3e94","ios":"levelo://app?vid=a7638d86-ae46-4944-b5c6-f1ab5cfa3e94"},"vehicle_type_id":"4","last_reported":1752246671,"current_range_meters":5600,"station_id":"","pricing_plan_id":"cebpf4jnsgd1na2vs0mg"},{"bike_id":"b0a48d51-dcdf-41cb-8d89-30996f080fb6","system_id":"levelo_inurba_marseille","lat":43.29849,"lon":5.36275,"is_reserved":false,"is_disabled":false,"rental_uris":{"android":"levelo://app?vid=b0a48d51-dcdf-41cb-8d89-30996f080fb6","ios":"levelo://app?vid=b0a48d51-dcdf-41cb-8d89-30996f080fb6"},"vehicle_type_id":"4","last_reported":1752246671,"current_range_meters":6000,"station_id":"ce4bgpp2rcd13ifvqc3g","pricing_plan_id":"cebpf4jnsgd1na2vs0mg"},{"bike_id":"6fed7d65-62a0-4f7a-a493-dba0818d32a7","system_id":"levelo_inurba_marseille","lat":43.28155,"lon":5.42631,"is_reserved":false,"is_disabled":false,"rental_uris":{"android":"levelo://app?vid=6fed7d65-62a0-4f7a-a493-dba0818d32a7","ios":"levelo://app?vid=6fed7d65-62a0-4f7a-a493-dba0818d32a7"},"vehicle_type_id":"4","last_reported":1752246671,"current_range_meters":6000,"station_id":"ce4bhnh2rcd13ifvqgug","pricing_plan_id":"cebpf4jnsgd1na2vs0mg"},{"bike_id":"848811ac-4e72-4677-955a-930dd2f94a82","system_id":"levelo_inurba_marseille","lat":43.261923,"lon":5.374523,"is_reserved":false,"is_disabled":false,"rental_uris":{"android":"levelo://app?vid=848811ac-4e72-4677-955a-930dd2f94a82","ios":"levelo://app?vid=848811ac-4e72-4677-955a-930dd2f94a82"},"vehicle_type_id":"4","last_reported":1752246671,"current_range_meters":6000,"station_id":"ce4bhgp2rcd13ifvqfc0","pricing_plan_id":"cebpf4jnsgd1na2vs0mg"},{"bike_id":"344f5c21-5c7d-461d-8dc4-1c1b10443425","system_id":"levelo_inurba_marseille","lat":43.27063,"lon":5.4229,"is_reserved":false,"is_disabled":false,"rental_uris":{"android":"levelo://app?vid=344f5c21-5c7d-461d-8dc4-1c1b10443425","ios":"levelo://app?vid=344f5c21-5c7d-461d-8dc4-1c1b10443425"},"vehicle_type_id":"4","last_reported":1752246671,"current_range_meters":6000,"station_id":"ce4bhk92rcd13ifvqgb0","pricing_plan_id":"cebpf4jnsgd1na2vs0mg"},{"bike_id":"828b1b55-a2c9-4ec8-a0ad-1392604be409","system_id":"levelo_inurba_marseille","lat":43.30155,"lon":5.38087,"is_reserved":false,"is_disabled":false,"rental_uris":{"android":"levelo://app?vid=828b1b55-a2c9-4ec8-a0ad-1392604be409","ios":"levelo://app?vid=828b1b55-a2c9-4ec8-a0ad-1392604be409"},"vehicle_type_id":"4","last_reported":1752246671,"current_range_meters":6000,"station_id":"ce4bgjp2rcd13ifvqbh0","pricing_plan_id":"cebpf4jnsgd1na2vs0mg"},{"bike_id":"87c60153-5c11-4dda-936c-4d9c58fc27c9","system_id":"levelo_inurba_marseille","lat":43.30095,"lon":5.39073,"is_reserved":false,"is_disabled":false,"rental_uris":{"android":"levelo://app?vid=87c60153-5c11-4dda-936c-4d9c58fc27c9","ios":"levelo://app?vid=87c60153-5c11-4dda-936c-4d9c58fc27c9"},"vehicle_type_id":"4","last_reported":1752246671,"current_range_meters":5600,"station_id":"ce4bh192rcd13ifvqdb0","pricing_plan_id":"cebpf4jnsgd1na2vs0mg"},{"bike_id":"ede5cfa1-9e0c-49ca-91b4-aab113c2ed2e","system_id":"levelo_inurba_marseille","lat":43.307964,"lon":5.381639,"is_reserved":false,"is_disabled":false,"rental_uris":{"android":"levelo://app?vid=ede5cfa1-9e0c-49ca-91b4-aab113c2ed2e","ios":"levelo://app?vid=ede5cfa1-9e0c-49ca-91b4-aab113c2ed2e"},"vehicle_type_id":"4","last_reported":1752246671,"current_range_meters":6000,"station_id":"ce4bgt12rcd13ifvqce0","pricing_plan_id":"cebpf4jnsgd1na2vs0mg"},{"bike_id":"78d6e7c8-8477-436d-96d8-0d0ab485a2b5","system_id":"levelo_inurba_marseille","lat":43.217581,"lon":5.346004,"is_reserved":false,"is_disabled":false,"rental_uris":{"android":"levelo://app?vid=78d6e7c8-8477-436d-96d8-0d0ab485a2b5","ios":"levelo://app?vid=78d6e7c8-8477-436d-96d8-0d0ab485a2b5"},"vehicle_type_id":"4","last_reported":1752246671,"current_range_meters":6400,"station_id":"st_cvj6r9ubvosntc0bgbag","pricing_plan_id":"cebpf4jnsgd1na2vs0mg"},{"bike_id":"6f5a78da-9765-4cb0-a287-0cee5232c853","system_id":"levelo_inurba_marseille","lat":43.27568,"lon":5.38442,"is_reserved":false,"is_disabled":false,"rental_uris":{"android":"levelo://app?vid=6f5a78da-9765-4cb0-a287-0cee5232c853","ios":"levelo://app?vid=6f5a78da-9765-4cb0-a287-0cee5232c853"},"vehicle_type_id":"4","last_reported":1752246671,"current_range_meters":6400,"station_id":"ce4bhh92rcd13ifvqfi0","pricing_plan_id":"cebpf4jnsgd1na2vs0mg"},{"bike_id":"21ae54b9-7375-4101-b8a7-bff9d6e1fa32","system_id":"levelo_inurba_marseille","lat":43.29987,"lon":5.37586,"is_reserved":false,"is_disabled":false,"rental_uris":{"android":"levelo://app?vid=21ae54b9-7375-4101-b8a7-bff9d6e1fa32","ios":"levelo://app?vid=21ae54b9-7375-4101-b8a7-bff9d6e1fa32"},"vehicle_type_id":"4","last_reported":1752246671,"current_range_meters":6800,"station_id":"","pricing_plan_id":"cebpf4jnsgd1na2vs0mg"},{"bike_id":"b757ffbb-2b71-4330-9f60-5f8a9d46d16e","system_id":"levelo_inurba_marseille","lat":43.2965,"lon":5.37111,"is_reserved":false,"is_disabled":false,"rental_uris":{"android":"levelo://app?vid=b757ffbb-2b71-4330-9f60-5f8a9d46d16e","ios":"levelo://app?vid=b757ffbb-2b71-4330-9f60-5f8a9d46d16e"},"vehicle_type_id":"4","last_reported":1752246671,"current_range_meters":6800,"station_id":"","pricing_plan_id":"cebpf4jnsgd1na2vs0mg"},{"bike_id":"e10fab9d-e35d-4af9-8b77-4fe4af71dcae","system_id":"levelo_inurba_marseille","lat":43.30646,"lon":5.40063,"is_reserved":false,"is_disabled":false,"rental_uris":{"android":"levelo://app?vid=e10fab9d-e35d-4af9-8b77-4fe4af71dcae","ios":"levelo://app?vid=e10fab9d-e35d-4af9-8b77-4fe4af71dcae"},"vehicle_type_id":"4","last_reported":1752246671,"current_range_meters":6800,"station_id":"ce4bh112rcd13ifvqda0","pricing_plan_id":"cebpf4jnsgd1na2vs0mg"},{"bike_id":"e3047429-141e-4f88-80d8-3720d23bf8f1","system_id":"levelo_inurba_marseille","lat":43.24811,"lon":5.37457,"is_reserved":false,"is_disabled":false,"rental_uris":{"android":"levelo://app?vid=e3047429-141e-4f88-80d8-3720d23bf8f1","ios":"levelo://app?vid=e3047429-141e-4f88-80d8-3720d23bf8f1"},"vehicle_type_id":"4","last_reported":1752246671,"current_range_meters":6800,"station_id":"ce4bhgh2rcd13ifvqfb0","pricing_plan_id":"cebpf4jnsgd1na2vs0mg"},{"bike_id":"4efc2025-c2d7-4205-a81b-af8ae7bba118","system_id":"levelo_inurba_marseille","lat":43.25818,"lon":5.39449,"is_reserved":false,"is_disabled":false,"rental_uris":{"android":"levelo://app?vid=4efc2025-c2d7-4205-a81b-af8ae7bba118","ios":"levelo://app?vid=4efc2025-c2d7-4205-a81b-af8ae7bba118"},"vehicle_type_id":"4","last_reported":1752246671,"current_range_meters":7200,"station_id":"ce4bhip2rcd13ifvqft0","pricing_plan_id":"cebpf4jnsgd1na2vs0mg"},{"bike_id":"d78af7de-1cb0-4d2f-a2db-cb44ee25d9af","system_id":"levelo_inurba_marseille","lat":43.304177,"lon":5.412883,"is_reserved":false,"is_disabled":false,"rental_uris":{"android":"levelo://app?vid=d78af7de-1cb0-4d2f-a2db-cb44ee25d9af","ios":"levelo://app?vid=d78af7de-1cb0-4d2f-a2db-cb44ee25d9af"},"vehicle_type_id":"4","last_reported":1752246671,"current_range_meters":7200,"station_id":"ce4bhop2rcd13ifvqh8g","pricing_plan_id":"cebpf4jnsgd1na2vs0mg"},{"bike_id":"833f97ec-e704-4051-ab3b-2e9eb58f71d0","system_id":"levelo_inurba_marseille","lat":43.30221,"lon":5.37559,"is_reserved":false,"is_disabled":false,"rental_uris":{"android":"levelo://app?vid=833f97ec-e704-4051-ab3b-2e9eb58f71d0","ios":"levelo://app?vid=833f97ec-e704-4051-ab3b-2e9eb58f71d0"},"vehicle_type_id":"4","last_reported":1752246671,"current_range_meters":8000,"station_id":"","pricing_plan_id":"cebpf4jnsgd1na2vs0mg"},{"bike_id":"c4ad4df3-c370-4bf0-a049-00b9e7e82411","system_id":"levelo_inurba_marseille","lat":43.28446,"lon":5.39199,"is_reserved":false,"is_disabled":false,"rental_uris":{"android":"levelo://app?vid=c4ad4df3-c370-4bf0-a049-00b9e7e82411","ios":"levelo://app?vid=c4ad4df3-c370-4bf0-a049-00b9e7e82411"},"vehicle_type_id":"4","last_reported":1752246671,"current_range_meters":8000,"station_id":"ce4bhoh2rcd13ifvqh5g","pricing_plan_id":"cebpf4jnsgd1na2vs0mg"},{"bike_id":"80778b69-e378-4576-a615-711c510ff883","system_id":"levelo_inurba_marseille","lat":43.30605,"lon":5.3719,"is_reserved":false,"is_disabled":false,"rental_uris":{"android":"levelo://app?vid=80778b69-e378-4576-a615-711c510ff883","ios":"levelo://app?vid=80778b69-e378-4576-a615-711c510ff883"},"vehicle_type_id":"4","last_reported":1752246671,"current_range_meters":8400,"station_id":"ce4bgqh2rcd13ifvqc4g","pricing_plan_id":"cebpf4jnsgd1na2vs0mg"},{"bike_id":"6e52eaf9-5010-4ef9-b22f-1a820bcc0358","system_id":"levelo_inurba_marseille","lat":43.23969,"lon":5.36635,"is_reserved":false,"is_disabled":false,"rental_uris":{"android":"levelo://app?vid=6e52eaf9-5010-4ef9-b22f-1a820bcc0358","ios":"levelo://app?vid=6e52eaf9-5010-4ef9-b22f-1a820bcc0358"},"vehicle_type_id":"4","last_reported":1752246671,"current_range_meters":8400,"station_id":"ce4bhi12rcd13ifvqfp0","pricing_plan_id":"cebpf4jnsgd1na2vs0mg"},{"bike_id":"2b3cc1b8-c64a-4b79-8502-cb00f4b68328","system_id":"levelo_inurba_marseille","lat":43.239637,"lon":5.366292,"is_reserved":false,"is_disabled":false,"rental_uris":{"android":"levelo://app?vid=2b3cc1b8-c64a-4b79-8502-cb00f4b68328","ios":"levelo://app?vid=2b3cc1b8-c64a-4b79-8502-cb00f4b68328"},"vehicle_type_id":"4","last_reported":1752246671,"current_range_meters":8400,"station_id":"ce4bhi12rcd13ifvqfp0","pricing_plan_id":"cebpf4jnsgd1na2vs0mg"},{"bike_id":"8862a8e9-7a7a-41f7-a46f-e90cd245f381","system_id":"levelo_inurba_marseille","lat":43.30434,"lon":5.39745,"is_reserved":false,"is_disabled":false,"rental_uris":{"android":"levelo://app?vid=8862a8e9-7a7a-41f7-a46f-e90cd245f381","ios":"levelo://app?vid=8862a8e9-7a7a-41f7-a46f-e90cd245f381"},"vehicle_type_id":"4","last_reported":1752246671,"current_range_meters":8000,"station_id":"ce4bh092rcd13ifvqd20","pricing_plan_id":"cebpf4jnsgd1na2vs0mg"},{"bike_id":"e204274b-73ad-4c6f-862d-8af730ce2e2b","system_id":"levelo_inurba_marseille","lat":43.29563,"lon":5.42284,"is_reserved":false,"is_disabled":false,"rental_uris":{"android":"levelo://app?vid=e204274b-73ad-4c6f-862d-8af730ce2e2b","ios":"levelo://app?vid=e204274b-73ad-4c6f-862d-8af730ce2e2b"},"vehicle_type_id":"4","last_reported":1752246671,"current_range_meters":8400,"station_id":"ce4bhph2rcd13ifvqhdg","pricing_plan_id":"cebpf4jnsgd1na2vs0mg"},{"bike_id":"2642207e-68af-4517-9964-feaa50b01141","system_id":"levelo_inurba_marseille","lat":43.30467,"lon":5.379,"is_reserved":false,"is_disabled":false,"rental_uris":{"android":"levelo://app?vid=2642207e-68af-4517-9964-feaa50b01141","ios":"levelo://app?vid=2642207e-68af-4517-9964-feaa50b01141"},"vehicle_type_id":"4","last_reported":1752246671,"current_range_meters":8400,"station_id":"ce4bgup2rcd13ifvqcn0","pricing_plan_id":"cebpf4jnsgd1na2vs0mg"},{"bike_id":"d4017e16-82ef-4908-9055-4c6a7edcaad1","system_id":"levelo_inurba_marseille","lat":43.30594,"lon":5.39352,"is_reserved":false,"is_disabled":false,"rental_uris":{"android":"levelo://app?vid=d4017e16-82ef-4908-9055-4c6a7edcaad1","ios":"levelo://app?vid=d4017e16-82ef-4908-9055-4c6a7edcaad1"},"vehicle_type_id":"4","last_reported":1752246671,"current_range_meters":8800,"station_id":"ce4bh0p2rcd13ifvqd80","pricing_plan_id":"cebpf4jnsgd1na2vs0mg"},{"bike_id":"f1872e4d-c216-45ab-a1c9-2657f0ed30ec","system_id":"levelo_inurba_marseille","lat":43.239716,"lon":5.366307,"is_reserved":false,"is_disabled":false,"rental_uris":{"android":"levelo://app?vid=f1872e4d-c216-45ab-a1c9-2657f0ed30ec","ios":"levelo://app?vid=f1872e4d-c216-45ab-a1c9-2657f0ed30ec"},"vehicle_type_id":"4","last_reported":1752246671,"current_range_meters":9200,"station_id":"ce4bhi12rcd13ifvqfp0","pricing_plan_id":"cebpf4jnsgd1na2vs0mg"},{"bike_id":"8921c688-e7c2-44c7-a175-d138236d593c","system_id":"levelo_inurba_marseille","lat":43.286122,"lon":5.370638,"is_reserved":false,"is_disabled":false,"rental_uris":{"android":"levelo://app?vid=8921c688-e7c2-44c7-a175-d138236d593c","ios":"levelo://app?vid=8921c688-e7c2-44c7-a175-d138236d593c"},"vehicle_type_id":"4","last_reported":1752246671,"current_range_meters":9200,"station_id":"ce4bht12rcd13ifvqi60","pricing_plan_id":"cebpf4jnsgd1na2vs0mg"},{"bike_id":"d344c6c6-f7af-4338-b5f0-402e1862388f","system_id":"levelo_inurba_marseille","lat":43.27382,"lon":5.36251,"is_reserved":false,"is_disabled":false,"rental_uris":{"android":"levelo://app?vid=d344c6c6-f7af-4338-b5f0-402e1862388f","ios":"levelo://app?vid=d344c6c6-f7af-4338-b5f0-402e1862388f"},"vehicle_type_id":"4","last_reported":1752246671,"current_range_meters":8800,"station_id":"ce4bhbh2rcd13ifvqeo0","pricing_plan_id":"cebpf4jnsgd1na2vs0mg"},{"bike_id":"f3b13c5f-b424-4617-8d0d-5e74855ad50b","system_id":"levelo_inurba_marseille","lat":43.2718,"lon":5.40994,"is_reserved":false,"is_disabled":false,"rental_uris":{"android":"levelo://app?vid=f3b13c5f-b424-4617-8d0d-5e74855ad50b","ios":"levelo://app?vid=f3b13c5f-b424-4617-8d0d-5e74855ad50b"},"vehicle_type_id":"4","last_reported":1752246671,"current_range_meters":8800,"station_id":"ce4bhl12rcd13ifvqgf0","pricing_plan_id":"cebpf4jnsgd1na2vs0mg"},{"bike_id":"ea7f713a-f8eb-4f16-8168-36d2161084e8","system_id":"levelo_inurba_marseille","lat":43.27858,"lon":5.39473,"is_reserved":false,"is_disabled":false,"rental_uris":{"android":"levelo://app?vid=ea7f713a-f8eb-4f16-8168-36d2161084e8","ios":"levelo://app?vid=ea7f713a-f8eb-4f16-8168-36d2161084e8"},"vehicle_type_id":"4","last_reported":1752246671,"current_range_meters":9200,"station_id":"","pricing_plan_id":"cebpf4jnsgd1na2vs0mg"},{"bike_id":"7c2d071d-3793-47df-b931-9d1ad060c48c","system_id":"levelo_inurba_marseille","lat":43.29566,"lon":5.42287,"is_reserved":false,"is_disabled":false,"rental_uris":{"android":"levelo://app?vid=7c2d071d-3793-47df-b931-9d1ad060c48c","ios":"levelo://app?vid=7c2d071d-3793-47df-b931-9d1ad060c48c"},"vehicle_type_id":"4","last_reported":1752246671,"current_range_meters":9600,"station_id":"ce4bhph2rcd13ifvqhdg","pricing_plan_id":"cebpf4jnsgd1na2vs0mg"},{"bike_id":"9b71203b-d9db-4c40-8c66-21b55018789c","system_id":"levelo_inurba_marseille","lat":43.28412,"lon":5.34997,"is_reserved":false,"is_disabled":false,"rental_uris":{"android":"levelo://app?vid=9b71203b-d9db-4c40-8c66-21b55018789c","ios":"levelo://app?vid=9b71203b-d9db-4c40-8c66-21b55018789c"},"vehicle_type_id":"4","last_reported":1752246671,"current_range_meters":9600,"station_id":"ce4bhbh2rcd13ifvqepg","pricing_plan_id":"cebpf4jnsgd1na2vs0mg"},{"bike_id":"2b458ad8-fbfd-4858-8ed4-3dd21a82ea35","system_id":"levelo_inurba_marseille","lat":43.26203,"lon":5.40417,"is_reserved":false,"is_disabled":false,"rental_uris":{"android":"levelo://app?vid=2b458ad8-fbfd-4858-8ed4-3dd21a82ea35","ios":"levelo://app?vid=2b458ad8-fbfd-4858-8ed4-3dd21a82ea35"},"vehicle_type_id":"4","last_reported":1752246671,"current_range_meters":10000,"station_id":"ce4bhmh2rcd13ifvqgmg","pricing_plan_id":"cebpf4jnsgd1na2vs0mg"},{"bike_id":"c09072bc-83f5-495b-b0f0-a2fbca9da647","system_id":"levelo_inurba_marseille","lat":43.32112,"lon":5.36768,"is_reserved":false,"is_disabled":false,"rental_uris":{"android":"levelo://app?vid=c09072bc-83f5-495b-b0f0-a2fbca9da647","ios":"levelo://app?vid=c09072bc-83f5-495b-b0f0-a2fbca9da647"},"vehicle_type_id":"4","last_reported":1752246671,"current_range_meters":11200,"station_id":"ce4bhrh2rcd13ifvqhug","pricing_plan_id":"cebpf4jnsgd1na2vs0mg"},{"bike_id":"4e209b0c-855f-4b51-8120-2faef8673853","system_id":"levelo_inurba_marseille","lat":43.30643,"lon":5.3689,"is_reserved":false,"is_disabled":false,"rental_uris":{"android":"levelo://app?vid=4e209b0c-855f-4b51-8120-2faef8673853","ios":"levelo://app?vid=4e209b0c-855f-4b51-8120-2faef8673853"},"vehicle_type_id":"4","last_reported":1752246671,"current_range_meters":10000,"station_id":"","pricing_plan_id":"cebpf4jnsgd1na2vs0mg"},{"bike_id":"73fe94e8-74f9-41f0-85e9-7d8c52adf2fc","system_id":"levelo_inurba_marseille","lat":43.21256,"lon":5.35309,"is_reserved":false,"is_disabled":false,"rental_uris":{"android":"levelo://app?vid=73fe94e8-74f9-41f0-85e9-7d8c52adf2fc","ios":"levelo://app?vid=73fe94e8-74f9-41f0-85e9-7d8c52adf2fc"},"vehicle_type_id":"4","last_reported":1752246671,"current_range_meters":10800,"station_id":"","pricing_plan_id":"cebpf4jnsgd1na2vs0mg"},{"bike_id":"25acbafb-0ed0-44d5-9c8a-6282e67967f2","system_id":"levelo_inurba_marseille","lat":43.28429,"lon":5.34997,"is_reserved":false,"is_disabled":false,"rental_uris":{"android":"levelo://app?vid=25acbafb-0ed0-44d5-9c8a-6282e67967f2","ios":"levelo://app?vid=25acbafb-0ed0-44d5-9c8a-6282e67967f2"},"vehicle_type_id":"4","last_reported":1752246671,"current_range_meters":10800,"station_id":"ce4bhbh2rcd13ifvqepg","pricing_plan_id":"cebpf4jnsgd1na2vs0mg"},{"bike_id":"4c063f51-fe83-4bd2-9926-16e712b02fc2","system_id":"levelo_inurba_marseille","lat":43.26512,"lon":5.39529,"is_reserved":false,"is_disabled":false,"rental_uris":{"android":"levelo://app?vid=4c063f51-fe83-4bd2-9926-16e712b02fc2","ios":"levelo://app?vid=4c063f51-fe83-4bd2-9926-16e712b02fc2"},"vehicle_type_id":"4","last_reported":1752246671,"current_range_meters":10800,"station_id":"ce4bhi12rcd13ifvqfq0","pricing_plan_id":"cebpf4jnsgd1na2vs0mg"},{"bike_id":"b37fdf54-f263-4718-a979-f2cbdfe46ba1","system_id":"levelo_inurba_marseille","lat":43.29011,"lon":5.38135,"is_reserved":false,"is_disabled":false,"rental_uris":{"android":"levelo://app?vid=b37fdf54-f263-4718-a979-f2cbdfe46ba1","ios":"levelo://app?vid=b37fdf54-f263-4718-a979-f2cbdfe46ba1"},"vehicle_type_id":"4","last_reported":1752246671,"current_range_meters":10000,"station_id":"ce4bh4p2rcd13ifvqe1g","pricing_plan_id":"cebpf4jnsgd1na2vs0mg"},{"bike_id":"355ad36b-dc23-4d91-aa13-e4d060997810","system_id":"levelo_inurba_marseille","lat":43.25365,"lon":5.37591,"is_reserved":false,"is_disabled":false,"rental_uris":{"android":"levelo://app?vid=355ad36b-dc23-4d91-aa13-e4d060997810","ios":"levelo://app?vid=355ad36b-dc23-4d91-aa13-e4d060997810"},"vehicle_type_id":"4","last_reported":1752246671,"current_range_meters":11600,"station_id":"","pricing_plan_id":"cebpf4jnsgd1na2vs0mg"},{"bike_id":"5a7b57ef-a00d-4d19-853c-d49c119db95f","system_id":"levelo_inurba_marseille","lat":43.24566,"lon":5.3734,"is_reserved":false,"is_disabled":false,"rental_uris":{"android":"levelo://app?vid=5a7b57ef-a00d-4d19-853c-d49c119db95f","ios":"levelo://app?vid=5a7b57ef-a00d-4d19-853c-d49c119db95f"},"vehicle_type_id":"4","last_reported":1752246671,"current_range_meters":11200,"station_id":"","pricing_plan_id":"cebpf4jnsgd1na2vs0mg"},{"bike_id":"5f0f2258-0b1a-47bb-bf2b-b22c15a2fc54","system_id":"levelo_inurba_marseille","lat":43.30144,"lon":5.39873,"is_reserved":false,"is_disabled":false,"rental_uris":{"android":"levelo://app?vid=5f0f2258-0b1a-47bb-bf2b-b22c15a2fc54","ios":"levelo://app?vid=5f0f2258-0b1a-47bb-bf2b-b22c15a2fc54"},"vehicle_type_id":"4","last_reported":1752246671,"current_range_meters":11200,"station_id":"ce4bh0h2rcd13ifvqd40","pricing_plan_id":"cebpf4jnsgd1na2vs0mg"},{"bike_id":"8330a68f-2f6e-4337-9657-35d7d87c04ca","system_id":"levelo_inurba_marseille","lat":43.25451,"lon":5.37946,"is_reserved":false,"is_disabled":false,"rental_uris":{"android":"levelo://app?vid=8330a68f-2f6e-4337-9657-35d7d87c04ca","ios":"levelo://app?vid=8330a68f-2f6e-4337-9657-35d7d87c04ca"},"vehicle_type_id":"4","last_reported":1752246671,"current_range_meters":11600,"station_id":"","pricing_plan_id":"cebpf4jnsgd1na2vs0mg"},{"bike_id":"cd476012-a55e-4789-b12d-1993e1bc4d04","system_id":"levelo_inurba_marseille","lat":43.28272,"lon":5.35056,"is_reserved":false,"is_disabled":false,"rental_uris":{"android":"levelo://app?vid=cd476012-a55e-4789-b12d-1993e1bc4d04","ios":"levelo://app?vid=cd476012-a55e-4789-b12d-1993e1bc4d04"},"vehicle_type_id":"4","last_reported":1752246671,"current_range_meters":12000,"station_id":"ce4bhbp2rcd13ifvqerg","pricing_plan_id":"cebpf4jnsgd1na2vs0mg"},{"bike_id":"63ea0c38-9d02-49a3-bb4d-321ce9984868","system_id":"levelo_inurba_marseille","lat":43.30356,"lon":5.41876,"is_reserved":false,"is_disabled":false,"rental_uris":{"android":"levelo://app?vid=63ea0c38-9d02-49a3-bb4d-321ce9984868","ios":"levelo://app?vid=63ea0c38-9d02-49a3-bb4d-321ce9984868"},"vehicle_type_id":"4","last_reported":1752246671,"current_range_meters":12000,"station_id":"ce4bhop2rcd13ifvqh7g","pricing_plan_id":"cebpf4jnsgd1na2vs0mg"},{"bike_id":"f78449e2-7d44-4571-9947-41ae79d4b3c6","system_id":"levelo_inurba_marseille","lat":43.28647,"lon":5.3508,"is_reserved":false,"is_disabled":false,"rental_uris":{"android":"levelo://app?vid=f78449e2-7d44-4571-9947-41ae79d4b3c6","ios":"levelo://app?vid=f78449e2-7d44-4571-9947-41ae79d4b3c6"},"vehicle_type_id":"4","last_reported":1752246671,"current_range_meters":12000,"station_id":"ce4bhch2rcd13ifvqeug","pricing_plan_id":"cebpf4jnsgd1na2vs0mg"},{"bike_id":"8f89e4f3-495a-4317-bd6d-37a19186d65b","system_id":"levelo_inurba_marseille","lat":43.33736,"lon":5.39192,"is_reserved":false,"is_disabled":false,"rental_uris":{"android":"levelo://app?vid=8f89e4f3-495a-4317-bd6d-37a19186d65b","ios":"levelo://app?vid=8f89e4f3-495a-4317-bd6d-37a19186d65b"},"vehicle_type_id":"4","last_reported":1752246671,"current_range_meters":12000,"station_id":"ce4bhr92rcd13ifvqhsg","pricing_plan_id":"cebpf4jnsgd1na2vs0mg"},{"bike_id":"a2f087e4-2174-4792-b543-bc2fc14fed30","system_id":"levelo_inurba_marseille","lat":43.28417,"lon":5.35001,"is_reserved":false,"is_disabled":false,"rental_uris":{"android":"levelo://app?vid=a2f087e4-2174-4792-b543-bc2fc14fed30","ios":"levelo://app?vid=a2f087e4-2174-4792-b543-bc2fc14fed30"},"vehicle_type_id":"4","last_reported":1752246671,"current_range_meters":12000,"station_id":"ce4bhbh2rcd13ifvqepg","pricing_plan_id":"cebpf4jnsgd1na2vs0mg"},{"bike_id":"af6e0d99-55ac-43e6-8b1d-bd99b325d2af","system_id":"levelo_inurba_marseille","lat":43.2481,"lon":5.37458,"is_reserved":false,"is_disabled":false,"rental_uris":{"android":"levelo://app?vid=af6e0d99-55ac-43e6-8b1d-bd99b325d2af","ios":"levelo://app?vid=af6e0d99-55ac-43e6-8b1d-bd99b325d2af"},"vehicle_type_id":"4","last_reported":1752246671,"current_range_meters":12000,"station_id":"ce4bhgh2rcd13ifvqfb0","pricing_plan_id":"cebpf4jnsgd1na2vs0mg"},{"bike_id":"52cadec5-3774-483c-a86b-aaa54bf44e04","system_id":"levelo_inurba_marseille","lat":43.28458,"lon":5.35901,"is_reserved":false,"is_disabled":false,"rental_uris":{"android":"levelo://app?vid=52cadec5-3774-483c-a86b-aaa54bf44e04","ios":"levelo://app?vid=52cadec5-3774-483c-a86b-aaa54bf44e04"},"vehicle_type_id":"4","last_reported":1752246671,"current_range_meters":12400,"station_id":"ce4bhah2rcd13ifvqei0","pricing_plan_id":"cebpf4jnsgd1na2vs0mg"},{"bike_id":"e92498f0-475a-4705-8aae-0ed01587884f","system_id":"levelo_inurba_marseille","lat":43.28611,"lon":5.37062,"is_reserved":false,"is_disabled":false,"rental_uris":{"android":"levelo://app?vid=e92498f0-475a-4705-8aae-0ed01587884f","ios":"levelo://app?vid=e92498f0-475a-4705-8aae-0ed01587884f"},"vehicle_type_id":"4","last_reported":1752246671,"current_range_meters":12400,"station_id":"ce4bht12rcd13ifvqi60","pricing_plan_id":"cebpf4jnsgd1na2vs0mg"},{"bike_id":"c3c5b26c-e834-4db6-994b-52abb31f20f1","system_id":"levelo_inurba_marseille","lat":43.24089,"lon":5.37774,"is_reserved":false,"is_disabled":false,"rental_uris":{"android":"levelo://app?vid=c3c5b26c-e834-4db6-994b-52abb31f20f1","ios":"levelo://app?vid=c3c5b26c-e834-4db6-994b-52abb31f20f1"},"vehicle_type_id":"4","last_reported":1752246671,"current_range_meters":12400,"station_id":"ce4bhnp2rcd13ifvqgvg","pricing_plan_id":"cebpf4jnsgd1na2vs0mg"},{"bike_id":"d849a247-c2c0-4619-bac8-f5a6994e0014","system_id":"levelo_inurba_marseille","lat":43.32027,"lon":5.41614,"is_reserved":false,"is_disabled":true,"rental_uris":{"android":"levelo://app?vid=d849a247-c2c0-4619-bac8-f5a6994e0014","ios":"levelo://app?vid=d849a247-c2c0-4619-bac8-f5a6994e0014"},"vehicle_type_id":"4","last_reported":1752246671,"current_range_meters":12800,"station_id":"ce4bhq92rcd13ifvqhkg","pricing_plan_id":"cebpf4jnsgd1na2vs0mg"},{"bike_id":"6d0778da-95dc-4a8d-b545-2d33f89a7f77","system_id":"levelo_inurba_marseille","lat":43.29026,"lon":5.35595,"is_reserved":false,"is_disabled":false,"rental_uris":{"android":"levelo://app?vid=6d0778da-95dc-4a8d-b545-2d33f89a7f77","ios":"levelo://app?vid=6d0778da-95dc-4a8d-b545-2d33f89a7f77"},"vehicle_type_id":"4","last_reported":1752246671,"current_range_meters":12000,"station_id":"ce4bhb92rcd13ifvqen0","pricing_plan_id":"cebpf4jnsgd1na2vs0mg"},{"bike_id":"21cc4a87-2424-44a2-8db3-1f99d6545494","system_id":"levelo_inurba_marseille","lat":43.21783,"lon":5.34657,"is_reserved":false,"is_disabled":false,"rental_uris":{"android":"levelo://app?vid=21cc4a87-2424-44a2-8db3-1f99d6545494","ios":"levelo://app?vid=21cc4a87-2424-44a2-8db3-1f99d6545494"},"vehicle_type_id":"4","last_reported":1752246671,"current_range_meters":12400,"station_id":"st_cvj6r9ubvosntc0bgbag","pricing_plan_id":"cebpf4jnsgd1na2vs0mg"},{"bike_id":"12fb3d13-29cb-4a04-b7a1-29db5a7fc4e0","system_id":"levelo_inurba_marseille","lat":43.27055,"lon":5.40267,"is_reserved":false,"is_disabled":false,"rental_uris":{"android":"levelo://app?vid=12fb3d13-29cb-4a04-b7a1-29db5a7fc4e0","ios":"levelo://app?vid=12fb3d13-29cb-4a04-b7a1-29db5a7fc4e0"},"vehicle_type_id":"4","last_reported":1752246671,"current_range_meters":12800,"station_id":"ce4bhk92rcd13ifvqgc0","pricing_plan_id":"cebpf4jnsgd1na2vs0mg"},{"bike_id":"6cfc468d-aa94-4096-bdab-f9fb6b3eace0","system_id":"levelo_inurba_marseille","lat":43.28417,"lon":5.34981,"is_reserved":false,"is_disabled":false,"rental_uris":{"android":"levelo://app?vid=6cfc468d-aa94-4096-bdab-f9fb6b3eace0","ios":"levelo://app?vid=6cfc468d-aa94-4096-bdab-f9fb6b3eace0"},"vehicle_type_id":"4","last_reported":1752246671,"current_range_meters":12800,"station_id":"ce4bhbh2rcd13ifvqepg","pricing_plan_id":"cebpf4jnsgd1na2vs0mg"},{"bike_id":"2c702aa4-2ac5-4550-b697-5b3cdcd314b3","system_id":"levelo_inurba_marseille","lat":43.32059,"lon":5.41511,"is_reserved":false,"is_disabled":false,"rental_uris":{"android":"levelo://app?vid=2c702aa4-2ac5-4550-b697-5b3cdcd314b3","ios":"levelo://app?vid=2c702aa4-2ac5-4550-b697-5b3cdcd314b3"},"vehicle_type_id":"4","last_reported":1752246671,"current_range_meters":12800,"station_id":"ce4bhq92rcd13ifvqhkg","pricing_plan_id":"cebpf4jnsgd1na2vs0mg"},{"bike_id":"823ef37f-20a8-4c39-8134-3e6a506b1235","system_id":"levelo_inurba_marseille","lat":43.231924,"lon":5.355538,"is_reserved":false,"is_disabled":false,"rental_uris":{"android":"levelo://app?vid=823ef37f-20a8-4c39-8134-3e6a506b1235","ios":"levelo://app?vid=823ef37f-20a8-4c39-8134-3e6a506b1235"},"vehicle_type_id":"4","last_reported":1752246671,"current_range_meters":12800,"station_id":"ce4bhu92rcd13ifvqi70","pricing_plan_id":"cebpf4jnsgd1na2vs0mg"},{"bike_id":"7ba2ba0c-38e9-47e7-b93f-11e0e30c9c7a","system_id":"levelo_inurba_marseille","lat":43.30154,"lon":5.38088,"is_reserved":false,"is_disabled":false,"rental_uris":{"android":"levelo://app?vid=7ba2ba0c-38e9-47e7-b93f-11e0e30c9c7a","ios":"levelo://app?vid=7ba2ba0c-38e9-47e7-b93f-11e0e30c9c7a"},"vehicle_type_id":"4","last_reported":1752246671,"current_range_meters":12800,"station_id":"ce4bgjp2rcd13ifvqbh0","pricing_plan_id":"cebpf4jnsgd1na2vs0mg"},{"bike_id":"67b8fb27-8860-4b5a-9be8-5de3c03c0631","system_id":"levelo_inurba_marseille","lat":43.26593,"lon":5.37312,"is_reserved":false,"is_disabled":false,"rental_uris":{"android":"levelo://app?vid=67b8fb27-8860-4b5a-9be8-5de3c03c0631","ios":"levelo://app?vid=67b8fb27-8860-4b5a-9be8-5de3c03c0631"},"vehicle_type_id":"4","last_reported":1752246671,"current_range_meters":12800,"station_id":"ce4bhg12rcd13ifvqf70","pricing_plan_id":"cebpf4jnsgd1na2vs0mg"},{"bike_id":"c74b27ee-3cfc-4e11-b4c4-f418cd2e9569","system_id":"levelo_inurba_marseille","lat":43.24171,"lon":5.364052,"is_reserved":false,"is_disabled":false,"rental_uris":{"android":"levelo://app?vid=c74b27ee-3cfc-4e11-b4c4-f418cd2e9569","ios":"levelo://app?vid=c74b27ee-3cfc-4e11-b4c4-f418cd2e9569"},"vehicle_type_id":"4","last_reported":1752246671,"current_range_meters":12800,"station_id":"cpo36qri1sfpv3e86is0","pricing_plan_id":"cebpf4jnsgd1na2vs0mg"},{"bike_id":"4464c91a-b8cf-48b1-82b6-b9f3398a5c02","system_id":"levelo_inurba_marseille","lat":43.28414,"lon":5.34992,"is_reserved":false,"is_disabled":false,"rental_uris":{"android":"levelo://app?vid=4464c91a-b8cf-48b1-82b6-b9f3398a5c02","ios":"levelo://app?vid=4464c91a-b8cf-48b1-82b6-b9f3398a5c02"},"vehicle_type_id":"4","last_reported":1752246671,"current_range_meters":12800,"station_id":"ce4bhbh2rcd13ifvqepg","pricing_plan_id":"cebpf4jnsgd1na2vs0mg"},{"bike_id":"534ed68d-5ceb-43a8-968b-be30f01dfa74","system_id":"levelo_inurba_marseille","lat":43.28226,"lon":5.39065,"is_reserved":false,"is_disabled":true,"rental_uris":{"android":"levelo://app?vid=534ed68d-5ceb-43a8-968b-be30f01dfa74","ios":"levelo://app?vid=534ed68d-5ceb-43a8-968b-be30f01dfa74"},"vehicle_type_id":"4","last_reported":1752246671,"current_range_meters":13600,"station_id":"","pricing_plan_id":"cebpf4jnsgd1na2vs0mg"},{"bike_id":"7ff5764b-0d7e-4ea5-9d90-aef6901697b0","system_id":"levelo_inurba_marseille","lat":43.302345,"lon":5.38685,"is_reserved":false,"is_disabled":false,"rental_uris":{"android":"levelo://app?vid=7ff5764b-0d7e-4ea5-9d90-aef6901697b0","ios":"levelo://app?vid=7ff5764b-0d7e-4ea5-9d90-aef6901697b0"},"vehicle_type_id":"4","last_reported":1752246671,"current_range_meters":14000,"station_id":"ce4bh192rcd13ifvqdb0","pricing_plan_id":"cebpf4jnsgd1na2vs0mg"},{"bike_id":"6f32a6b7-f42d-4b5e-bc98-5813063dac3a","system_id":"levelo_inurba_marseille","lat":43.29808,"lon":5.40391,"is_reserved":false,"is_disabled":false,"rental_uris":{"android":"levelo://app?vid=6f32a6b7-f42d-4b5e-bc98-5813063dac3a","ios":"levelo://app?vid=6f32a6b7-f42d-4b5e-bc98-5813063dac3a"},"vehicle_type_id":"4","last_reported":1752246671,"current_range_meters":13600,"station_id":"ce4bh112rcd13ifvqd90","pricing_plan_id":"cebpf4jnsgd1na2vs0mg"},{"bike_id":"d263de9c-115f-417f-977b-8d0ef8cd06ed","system_id":"levelo_inurba_marseille","lat":43.30539,"lon":5.36702,"is_reserved":false,"is_disabled":false,"rental_uris":{"android":"levelo://app?vid=d263de9c-115f-417f-977b-8d0ef8cd06ed","ios":"levelo://app?vid=d263de9c-115f-417f-977b-8d0ef8cd06ed"},"vehicle_type_id":"4","last_reported":1752246671,"current_range_meters":14000,"station_id":"ce4bh312rcd13ifvqdj0","pricing_plan_id":"cebpf4jnsgd1na2vs0mg"},{"bike_id":"4d4b9e28-a4f6-4d45-ac6b-64a63a768bd8","system_id":"levelo_inurba_marseille","lat":43.31507,"lon":5.37399,"is_reserved":false,"is_disabled":false,"rental_uris":{"android":"levelo://app?vid=4d4b9e28-a4f6-4d45-ac6b-64a63a768bd8","ios":"levelo://app?vid=4d4b9e28-a4f6-4d45-ac6b-64a63a768bd8"},"vehicle_type_id":"4","last_reported":1752246671,"current_range_meters":14000,"station_id":"","pricing_plan_id":"cebpf4jnsgd1na2vs0mg"},{"bike_id":"7f68c964-a2e2-461b-9ffa-d8d501268cfe","system_id":"levelo_inurba_marseille","lat":43.24392,"lon":5.37058,"is_reserved":false,"is_disabled":false,"rental_uris":{"android":"levelo://app?vid=7f68c964-a2e2-461b-9ffa-d8d501268cfe","ios":"levelo://app?vid=7f68c964-a2e2-461b-9ffa-d8d501268cfe"},"vehicle_type_id":"4","last_reported":1752246671,"current_range_meters":13600,"station_id":"ce4bhhh2rcd13ifvqfk0","pricing_plan_id":"cebpf4jnsgd1na2vs0mg"},{"bike_id":"df6c17f2-7c00-48fc-835e-7f7cb9d3c2ca","system_id":"levelo_inurba_marseille","lat":43.281641,"lon":5.426364,"is_reserved":false,"is_disabled":false,"rental_uris":{"android":"levelo://app?vid=df6c17f2-7c00-48fc-835e-7f7cb9d3c2ca","ios":"levelo://app?vid=df6c17f2-7c00-48fc-835e-7f7cb9d3c2ca"},"vehicle_type_id":"4","last_reported":1752246671,"current_range_meters":14000,"station_id":"ce4bhnh2rcd13ifvqgug","pricing_plan_id":"cebpf4jnsgd1na2vs0mg"},{"bike_id":"3730aaef-312e-485b-9947-81d8ffdf4f9f","system_id":"levelo_inurba_marseille","lat":43.30474,"lon":5.37912,"is_reserved":false,"is_disabled":false,"rental_uris":{"android":"levelo://app?vid=3730aaef-312e-485b-9947-81d8ffdf4f9f","ios":"levelo://app?vid=3730aaef-312e-485b-9947-81d8ffdf4f9f"},"vehicle_type_id":"4","last_reported":1752246671,"current_range_meters":14000,"station_id":"ce4bgup2rcd13ifvqcn0","pricing_plan_id":"cebpf4jnsgd1na2vs0mg"},{"bike_id":"595e9351-a7ce-45de-8995-771f7d9fe86e","system_id":"levelo_inurba_marseille","lat":43.309243,"lon":5.378088,"is_reserved":false,"is_disabled":false,"rental_uris":{"android":"levelo://app?vid=595e9351-a7ce-45de-8995-771f7d9fe86e","ios":"levelo://app?vid=595e9351-a7ce-45de-8995-771f7d9fe86e"},"vehicle_type_id":"4","last_reported":1752246671,"current_range_meters":14000,"station_id":"","pricing_plan_id":"cebpf4jnsgd1na2vs0mg"},{"bike_id":"6e44525d-ed45-445a-a877-081b94eb5813","system_id":"levelo_inurba_marseille","lat":43.30375,"lon":5.41889,"is_reserved":false,"is_disabled":true,"rental_uris":{"android":"levelo://app?vid=6e44525d-ed45-445a-a877-081b94eb5813","ios":"levelo://app?vid=6e44525d-ed45-445a-a877-081b94eb5813"},"vehicle_type_id":"4","last_reported":1752246671,"current_range_meters":14000,"station_id":"ce4bhop2rcd13ifvqh7g","pricing_plan_id":"cebpf4jnsgd1na2vs0mg"},{"bike_id":"7392143f-a48d-4d17-918a-2d49b0cf2786","system_id":"levelo_inurba_marseille","lat":43.31695,"lon":5.40478,"is_reserved":false,"is_disabled":true,"rental_uris":{"android":"levelo://app?vid=7392143f-a48d-4d17-918a-2d49b0cf2786","ios":"levelo://app?vid=7392143f-a48d-4d17-918a-2d49b0cf2786"},"vehicle_type_id":"4","last_reported":1752246671,"current_range_meters":14000,"station_id":"ce4bh012rcd13ifvqd00","pricing_plan_id":"cebpf4jnsgd1na2vs0mg"},{"bike_id":"cb0d3411-d9bf-440d-aae6-b745cf570095","system_id":"levelo_inurba_marseille","lat":43.29709,"lon":5.37693,"is_reserved":false,"is_disabled":false,"rental_uris":{"android":"levelo://app?vid=cb0d3411-d9bf-440d-aae6-b745cf570095","ios":"levelo://app?vid=cb0d3411-d9bf-440d-aae6-b745cf570095"},"vehicle_type_id":"4","last_reported":1752246671,"current_range_meters":13600,"station_id":"","pricing_plan_id":"cebpf4jnsgd1na2vs0mg"},{"bike_id":"5423e7d5-07f9-4264-9d42-219884898d7f","system_id":"levelo_inurba_marseille","lat":43.24142,"lon":5.36415,"is_reserved":false,"is_disabled":false,"rental_uris":{"android":"levelo://app?vid=5423e7d5-07f9-4264-9d42-219884898d7f","ios":"levelo://app?vid=5423e7d5-07f9-4264-9d42-219884898d7f"},"vehicle_type_id":"4","last_reported":1752246671,"current_range_meters":14400,"station_id":"cpo36qri1sfpv3e86is0","pricing_plan_id":"cebpf4jnsgd1na2vs0mg"},{"bike_id":"e3a75ee9-c614-467b-8cc2-f813bcef2ab1","system_id":"levelo_inurba_marseille","lat":43.33743,"lon":5.3919,"is_reserved":false,"is_disabled":false,"rental_uris":{"android":"levelo://app?vid=e3a75ee9-c614-467b-8cc2-f813bcef2ab1","ios":"levelo://app?vid=e3a75ee9-c614-467b-8cc2-f813bcef2ab1"},"vehicle_type_id":"4","last_reported":1752246671,"current_range_meters":14400,"station_id":"ce4bhr92rcd13ifvqhsg","pricing_plan_id":"cebpf4jnsgd1na2vs0mg"},{"bike_id":"dc745791-e4b0-4e9a-bf26-a83de36e49d9","system_id":"levelo_inurba_marseille","lat":43.286236,"lon":5.350967,"is_reserved":false,"is_disabled":false,"rental_uris":{"android":"levelo://app?vid=dc745791-e4b0-4e9a-bf26-a83de36e49d9","ios":"levelo://app?vid=dc745791-e4b0-4e9a-bf26-a83de36e49d9"},"vehicle_type_id":"4","last_reported":1752246671,"current_range_meters":14400,"station_id":"ce4bhch2rcd13ifvqeug","pricing_plan_id":"cebpf4jnsgd1na2vs0mg"},{"bike_id":"922c4c10-87b3-4572-9f1c-4d5049849922","system_id":"levelo_inurba_marseille","lat":43.30147,"lon":5.38095,"is_reserved":false,"is_disabled":false,"rental_uris":{"android":"levelo://app?vid=922c4c10-87b3-4572-9f1c-4d5049849922","ios":"levelo://app?vid=922c4c10-87b3-4572-9f1c-4d5049849922"},"vehicle_type_id":"4","last_reported":1752246671,"current_range_meters":14400,"station_id":"ce4bgjp2rcd13ifvqbh0","pricing_plan_id":"cebpf4jnsgd1na2vs0mg"},{"bike_id":"fd9f5c27-5d58-42e5-badc-a12a0344229e","system_id":"levelo_inurba_marseille","lat":43.289116,"lon":5.360601,"is_reserved":false,"is_disabled":false,"rental_uris":{"android":"levelo://app?vid=fd9f5c27-5d58-42e5-badc-a12a0344229e","ios":"levelo://app?vid=fd9f5c27-5d58-42e5-badc-a12a0344229e"},"vehicle_type_id":"4","last_reported":1752246671,"current_range_meters":14800,"station_id":"","pricing_plan_id":"cebpf4jnsgd1na2vs0mg"},{"bike_id":"530fdaa0-3dcf-48bd-ae6d-18f67ca1c283","system_id":"levelo_inurba_marseille","lat":43.297111,"lon":5.366155,"is_reserved":false,"is_disabled":false,"rental_uris":{"android":"levelo://app?vid=530fdaa0-3dcf-48bd-ae6d-18f67ca1c283","ios":"levelo://app?vid=530fdaa0-3dcf-48bd-ae6d-18f67ca1c283"},"vehicle_type_id":"4","last_reported":1752246671,"current_range_meters":14800,"station_id":"","pricing_plan_id":"cebpf4jnsgd1na2vs0mg"},{"bike_id":"a627ac47-5535-4191-b894-3a30baed457f","system_id":"levelo_inurba_marseille","lat":43.26574,"lon":5.39008,"is_reserved":false,"is_disabled":false,"rental_uris":{"android":"levelo://app?vid=a627ac47-5535-4191-b894-3a30baed457f","ios":"levelo://app?vid=a627ac47-5535-4191-b894-3a30baed457f"},"vehicle_type_id":"4","last_reported":1752246671,"current_range_meters":14800,"station_id":"ce4bhe12rcd13ifvqf30","pricing_plan_id":"cebpf4jnsgd1na2vs0mg"},{"bike_id":"f4ebd1b3-708e-4727-afed-095e5c08156c","system_id":"levelo_inurba_marseille","lat":43.30545,"lon":5.36716,"is_reserved":false,"is_disabled":false,"rental_uris":{"android":"levelo://app?vid=f4ebd1b3-708e-4727-afed-095e5c08156c","ios":"levelo://app?vid=f4ebd1b3-708e-4727-afed-095e5c08156c"},"vehicle_type_id":"4","last_reported":1752246671,"current_range_meters":14800,"station_id":"ce4bgrp2rcd13ifvqc9g","pricing_plan_id":"cebpf4jnsgd1na2vs0mg"},{"bike_id":"f993caa3-ade3-4fe5-9ef4-5c02d19b5b3b","system_id":"levelo_inurba_marseille","lat":43.28434,"lon":5.3499,"is_reserved":false,"is_disabled":false,"rental_uris":{"android":"levelo://app?vid=f993caa3-ade3-4fe5-9ef4-5c02d19b5b3b","ios":"levelo://app?vid=f993caa3-ade3-4fe5-9ef4-5c02d19b5b3b"},"vehicle_type_id":"4","last_reported":1752246671,"current_range_meters":14800,"station_id":"ce4bhbh2rcd13ifvqepg","pricing_plan_id":"cebpf4jnsgd1na2vs0mg"},{"bike_id":"c1d4fa30-fa11-4c1d-8b18-ad6d5767504c","system_id":"levelo_inurba_marseille","lat":43.28423,"lon":5.3499,"is_reserved":false,"is_disabled":false,"rental_uris":{"android":"levelo://app?vid=c1d4fa30-fa11-4c1d-8b18-ad6d5767504c","ios":"levelo://app?vid=c1d4fa30-fa11-4c1d-8b18-ad6d5767504c"},"vehicle_type_id":"4","last_reported":1752246671,"current_range_meters":14800,"station_id":"ce4bhbh2rcd13ifvqepg","pricing_plan_id":"cebpf4jnsgd1na2vs0mg"},{"bike_id":"4584773d-9ae6-4871-b39b-4706bcc05b2b","system_id":"levelo_inurba_marseille","lat":43.28457,"lon":5.35892,"is_reserved":false,"is_disabled":false,"rental_uris":{"android":"levelo://app?vid=4584773d-9ae6-4871-b39b-4706bcc05b2b","ios":"levelo://app?vid=4584773d-9ae6-4871-b39b-4706bcc05b2b"},"vehicle_type_id":"4","last_reported":1752246671,"current_range_meters":14800,"station_id":"ce4bhah2rcd13ifvqei0","pricing_plan_id":"cebpf4jnsgd1na2vs0mg"},{"bike_id":"dcc5af8d-152f-4f47-9491-dd69e3f36aa1","system_id":"levelo_inurba_marseille","lat":43.25533,"lon":5.37656,"is_reserved":false,"is_disabled":false,"rental_uris":{"android":"levelo://app?vid=dcc5af8d-152f-4f47-9491-dd69e3f36aa1","ios":"levelo://app?vid=dcc5af8d-152f-4f47-9491-dd69e3f36aa1"},"vehicle_type_id":"4","last_reported":1752246671,"current_range_meters":15200,"station_id":"ce4bhh12rcd13ifvqff0","pricing_plan_id":"cebpf4jnsgd1na2vs0mg"},{"bike_id":"647a1903-1834-4730-b34e-6397917620f0","system_id":"levelo_inurba_marseille","lat":43.31676,"lon":5.37024,"is_reserved":false,"is_disabled":false,"rental_uris":{"android":"levelo://app?vid=647a1903-1834-4730-b34e-6397917620f0","ios":"levelo://app?vid=647a1903-1834-4730-b34e-6397917620f0"},"vehicle_type_id":"4","last_reported":1752246671,"current_range_meters":15200,"station_id":"","pricing_plan_id":"cebpf4jnsgd1na2vs0mg"},{"bike_id":"0409b8ca-dea8-4a95-aa65-eceeb59dfce5","system_id":"levelo_inurba_marseille","lat":43.29269,"lon":5.38433,"is_reserved":false,"is_disabled":false,"rental_uris":{"android":"levelo://app?vid=0409b8ca-dea8-4a95-aa65-eceeb59dfce5","ios":"levelo://app?vid=0409b8ca-dea8-4a95-aa65-eceeb59dfce5"},"vehicle_type_id":"4","last_reported":1752246671,"current_range_meters":16000,"station_id":"ce4bh692rcd13ifvqea0","pricing_plan_id":"cebpf4jnsgd1na2vs0mg"},{"bike_id":"544ec108-796d-413d-8a7c-7e4ffa805fe3","system_id":"levelo_inurba_marseille","lat":43.27331,"lon":5.39312,"is_reserved":false,"is_disabled":false,"rental_uris":{"android":"levelo://app?vid=544ec108-796d-413d-8a7c-7e4ffa805fe3","ios":"levelo://app?vid=544ec108-796d-413d-8a7c-7e4ffa805fe3"},"vehicle_type_id":"4","last_reported":1752246671,"current_range_meters":15200,"station_id":"","pricing_plan_id":"cebpf4jnsgd1na2vs0mg"},{"bike_id":"2f8a5f2d-3e40-49a3-af7d-3f339ed1b4f8","system_id":"levelo_inurba_marseille","lat":43.31704,"lon":5.37794,"is_reserved":false,"is_disabled":false,"rental_uris":{"android":"levelo://app?vid=2f8a5f2d-3e40-49a3-af7d-3f339ed1b4f8","ios":"levelo://app?vid=2f8a5f2d-3e40-49a3-af7d-3f339ed1b4f8"},"vehicle_type_id":"4","last_reported":1752246671,"current_range_meters":15200,"station_id":"ce4bgth2rcd13ifvqch0","pricing_plan_id":"cebpf4jnsgd1na2vs0mg"},{"bike_id":"eda0ea69-6404-43e6-9ede-2655d170d444","system_id":"levelo_inurba_marseille","lat":43.289,"lon":5.358076,"is_reserved":false,"is_disabled":false,"rental_uris":{"android":"levelo://app?vid=eda0ea69-6404-43e6-9ede-2655d170d444","ios":"levelo://app?vid=eda0ea69-6404-43e6-9ede-2655d170d444"},"vehicle_type_id":"4","last_reported":1752246671,"current_range_meters":15200,"station_id":"ce4bhb12rcd13ifvqem0","pricing_plan_id":"cebpf4jnsgd1na2vs0mg"},{"bike_id":"e8e03632-b9d1-480f-a4da-da482a543464","system_id":"levelo_inurba_marseille","lat":43.29048,"lon":5.375665,"is_reserved":false,"is_disabled":true,"rental_uris":{"android":"levelo://app?vid=e8e03632-b9d1-480f-a4da-da482a543464","ios":"levelo://app?vid=e8e03632-b9d1-480f-a4da-da482a543464"},"vehicle_type_id":"4","last_reported":1752246671,"current_range_meters":16000,"station_id":"ce4bh692rcd13ifvqe90","pricing_plan_id":"cebpf4jnsgd1na2vs0mg"},{"bike_id":"8929c1bf-fd4d-44e4-aa66-b3eb6538c998","system_id":"levelo_inurba_marseille","lat":43.2858,"lon":5.4298,"is_reserved":false,"is_disabled":false,"rental_uris":{"android":"levelo://app?vid=8929c1bf-fd4d-44e4-aa66-b3eb6538c998","ios":"levelo://app?vid=8929c1bf-fd4d-44e4-aa66-b3eb6538c998"},"vehicle_type_id":"4","last_reported":1752246671,"current_range_meters":16000,"station_id":"","pricing_plan_id":"cebpf4jnsgd1na2vs0mg"},{"bike_id":"9306c262-7e82-439a-a873-e7882f340dcd","system_id":"levelo_inurba_marseille","lat":43.23189,"lon":5.39979,"is_reserved":false,"is_disabled":false,"rental_uris":{"android":"levelo://app?vid=9306c262-7e82-439a-a873-e7882f340dcd","ios":"levelo://app?vid=9306c262-7e82-439a-a873-e7882f340dcd"},"vehicle_type_id":"4","last_reported":1752246671,"current_range_meters":15200,"station_id":"ce4bhn12rcd13ifvqgqg","pricing_plan_id":"cebpf4jnsgd1na2vs0mg"},{"bike_id":"3e4edfee-1e8f-445b-a244-1a6051affcc2","system_id":"levelo_inurba_marseille","lat":43.28264,"lon":5.35081,"is_reserved":false,"is_disabled":false,"rental_uris":{"android":"levelo://app?vid=3e4edfee-1e8f-445b-a244-1a6051affcc2","ios":"levelo://app?vid=3e4edfee-1e8f-445b-a244-1a6051affcc2"},"vehicle_type_id":"4","last_reported":1752246671,"current_range_meters":16000,"station_id":"ce4bhbp2rcd13ifvqerg","pricing_plan_id":"cebpf4jnsgd1na2vs0mg"},{"bike_id":"9b0fae6a-ff64-463f-a04c-d8fd5338d93f","system_id":"levelo_inurba_marseille","lat":43.27058,"lon":5.40251,"is_reserved":false,"is_disabled":false,"rental_uris":{"android":"levelo://app?vid=9b0fae6a-ff64-463f-a04c-d8fd5338d93f","ios":"levelo://app?vid=9b0fae6a-ff64-463f-a04c-d8fd5338d93f"},"vehicle_type_id":"4","last_reported":1752246671,"current_range_meters":16000,"station_id":"ce4bhk92rcd13ifvqgc0","pricing_plan_id":"cebpf4jnsgd1na2vs0mg"},{"bike_id":"ae1eb4f4-9820-4a58-84cd-ac8ab6ae674d","system_id":"levelo_inurba_marseille","lat":43.24088,"lon":5.37729,"is_reserved":false,"is_disabled":false,"rental_uris":{"android":"levelo://app?vid=ae1eb4f4-9820-4a58-84cd-ac8ab6ae674d","ios":"levelo://app?vid=ae1eb4f4-9820-4a58-84cd-ac8ab6ae674d"},"vehicle_type_id":"4","last_reported":1752246671,"current_range_meters":16000,"station_id":"ce4bhnp2rcd13ifvqgvg","pricing_plan_id":"cebpf4jnsgd1na2vs0mg"},{"bike_id":"a9001741-1745-49c0-afeb-e7f128011c9f","system_id":"levelo_inurba_marseille","lat":43.28415,"lon":5.34988,"is_reserved":false,"is_disabled":false,"rental_uris":{"android":"levelo://app?vid=a9001741-1745-49c0-afeb-e7f128011c9f","ios":"levelo://app?vid=a9001741-1745-49c0-afeb-e7f128011c9f"},"vehicle_type_id":"4","last_reported":1752246671,"current_range_meters":16000,"station_id":"ce4bhbh2rcd13ifvqepg","pricing_plan_id":"cebpf4jnsgd1na2vs0mg"},{"bike_id":"b4be31d5-7363-4485-9d1a-6b475b7cb40d","system_id":"levelo_inurba_marseille","lat":43.28622,"lon":5.35101,"is_reserved":false,"is_disabled":false,"rental_uris":{"android":"levelo://app?vid=b4be31d5-7363-4485-9d1a-6b475b7cb40d","ios":"levelo://app?vid=b4be31d5-7363-4485-9d1a-6b475b7cb40d"},"vehicle_type_id":"4","last_reported":1752246671,"current_range_meters":16000,"station_id":"ce4bhch2rcd13ifvqeug","pricing_plan_id":"cebpf4jnsgd1na2vs0mg"},{"bike_id":"85758837-e8e8-429b-9b62-411361adebf1","system_id":"levelo_inurba_marseille","lat":43.31743,"lon":5.39041,"is_reserved":false,"is_disabled":true,"rental_uris":{"android":"levelo://app?vid=85758837-e8e8-429b-9b62-411361adebf1","ios":"levelo://app?vid=85758837-e8e8-429b-9b62-411361adebf1"},"vehicle_type_id":"4","last_reported":1752246671,"current_range_meters":16000,"station_id":"ce4bhqp2rcd13ifvqhng","pricing_plan_id":"cebpf4jnsgd1na2vs0mg"},{"bike_id":"94325f81-ac19-4f25-9684-72f77381586b","system_id":"levelo_inurba_marseille","lat":43.28733,"lon":5.36078,"is_reserved":false,"is_disabled":false,"rental_uris":{"android":"levelo://app?vid=94325f81-ac19-4f25-9684-72f77381586b","ios":"levelo://app?vid=94325f81-ac19-4f25-9684-72f77381586b"},"vehicle_type_id":"4","last_reported":1752246671,"current_range_meters":15200,"station_id":"cki0cbj6b192h4jlfktg","pricing_plan_id":"cebpf4jnsgd1na2vs0mg"},{"bike_id":"dafa5a87-b26d-4379-9a6b-1f02133b78a6","system_id":"levelo_inurba_marseille","lat":43.21193,"lon":5.35088,"is_reserved":false,"is_disabled":false,"rental_uris":{"android":"levelo://app?vid=dafa5a87-b26d-4379-9a6b-1f02133b78a6","ios":"levelo://app?vid=dafa5a87-b26d-4379-9a6b-1f02133b78a6"},"vehicle_type_id":"4","last_reported":1752246671,"current_range_meters":16000,"station_id":"st_cvj6sg6p6f1abm77japg","pricing_plan_id":"cebpf4jnsgd1na2vs0mg"},{"bike_id":"7b5cd6ce-df57-4328-854d-cb2d1407ab18","system_id":"levelo_inurba_marseille","lat":43.330277,"lon":5.390373,"is_reserved":false,"is_disabled":false,"rental_uris":{"android":"levelo://app?vid=7b5cd6ce-df57-4328-854d-cb2d1407ab18","ios":"levelo://app?vid=7b5cd6ce-df57-4328-854d-cb2d1407ab18"},"vehicle_type_id":"4","last_reported":1752246671,"current_range_meters":16000,"station_id":"ce4bhr92rcd13ifvqhrg","pricing_plan_id":"cebpf4jnsgd1na2vs0mg"},{"bike_id":"9b97e59a-2e89-475e-941e-e5d08142cd3b","system_id":"levelo_inurba_marseille","lat":43.24167,"lon":5.36398,"is_reserved":false,"is_disabled":false,"rental_uris":{"android":"levelo://app?vid=9b97e59a-2e89-475e-941e-e5d08142cd3b","ios":"levelo://app?vid=9b97e59a-2e89-475e-941e-e5d08142cd3b"},"vehicle_type_id":"4","last_reported":1752246671,"current_range_meters":16000,"station_id":"cpo36qri1sfpv3e86is0","pricing_plan_id":"cebpf4jnsgd1na2vs0mg"},{"bike_id":"e9fd0cf8-573b-4177-88a6-f1faf33e8aca","system_id":"levelo_inurba_marseille","lat":43.28966,"lon":5.35579,"is_reserved":false,"is_disabled":true,"rental_uris":{"android":"levelo://app?vid=e9fd0cf8-573b-4177-88a6-f1faf33e8aca","ios":"levelo://app?vid=e9fd0cf8-573b-4177-88a6-f1faf33e8aca"},"vehicle_type_id":"4","last_reported":1752246671,"current_range_meters":16400,"station_id":"ce4bhb92rcd13ifvqen0","pricing_plan_id":"cebpf4jnsgd1na2vs0mg"},{"bike_id":"43b90c82-97e0-4fa7-8b67-2448f07d529e","system_id":"levelo_inurba_marseille","lat":43.21197,"lon":5.35069,"is_reserved":false,"is_disabled":false,"rental_uris":{"android":"levelo://app?vid=43b90c82-97e0-4fa7-8b67-2448f07d529e","ios":"levelo://app?vid=43b90c82-97e0-4fa7-8b67-2448f07d529e"},"vehicle_type_id":"4","last_reported":1752246671,"current_range_meters":16400,"station_id":"","pricing_plan_id":"cebpf4jnsgd1na2vs0mg"},{"bike_id":"45bf7bb2-07d1-4864-86fe-8e74a893ff6b","system_id":"levelo_inurba_marseille","lat":43.28418,"lon":5.34998,"is_reserved":false,"is_disabled":false,"rental_uris":{"android":"levelo://app?vid=45bf7bb2-07d1-4864-86fe-8e74a893ff6b","ios":"levelo://app?vid=45bf7bb2-07d1-4864-86fe-8e74a893ff6b"},"vehicle_type_id":"4","last_reported":1752246671,"current_range_meters":16400,"station_id":"ce4bhbh2rcd13ifvqepg","pricing_plan_id":"cebpf4jnsgd1na2vs0mg"},{"bike_id":"d05e987d-6766-4c70-b7d6-4c4ecf5a7258","system_id":"levelo_inurba_marseille","lat":43.28424,"lon":5.34992,"is_reserved":false,"is_disabled":false,"rental_uris":{"android":"levelo://app?vid=d05e987d-6766-4c70-b7d6-4c4ecf5a7258","ios":"levelo://app?vid=d05e987d-6766-4c70-b7d6-4c4ecf5a7258"},"vehicle_type_id":"4","last_reported":1752246671,"current_range_meters":16400,"station_id":"ce4bhbh2rcd13ifvqepg","pricing_plan_id":"cebpf4jnsgd1na2vs0mg"},{"bike_id":"146b093d-1e29-46c2-8a08-8271431c54b2","system_id":"levelo_inurba_marseille","lat":43.2439,"lon":5.3706,"is_reserved":false,"is_disabled":false,"rental_uris":{"android":"levelo://app?vid=146b093d-1e29-46c2-8a08-8271431c54b2","ios":"levelo://app?vid=146b093d-1e29-46c2-8a08-8271431c54b2"},"vehicle_type_id":"4","last_reported":1752246671,"current_range_meters":16400,"station_id":"ce4bhhh2rcd13ifvqfk0","pricing_plan_id":"cebpf4jnsgd1na2vs0mg"},{"bike_id":"37b84a38-055a-4a6e-a56a-8ff3d0c1b2ec","system_id":"levelo_inurba_marseille","lat":43.21193,"lon":5.35075,"is_reserved":false,"is_disabled":false,"rental_uris":{"android":"levelo://app?vid=37b84a38-055a-4a6e-a56a-8ff3d0c1b2ec","ios":"levelo://app?vid=37b84a38-055a-4a6e-a56a-8ff3d0c1b2ec"},"vehicle_type_id":"4","last_reported":1752246671,"current_range_meters":16400,"station_id":"st_cvj6sg6p6f1abm77japg","pricing_plan_id":"cebpf4jnsgd1na2vs0mg"},{"bike_id":"609d5099-9f7c-41ee-a7cb-7024254a72d9","system_id":"levelo_inurba_marseille","lat":43.27376,"lon":5.36268,"is_reserved":false,"is_disabled":false,"rental_uris":{"android":"levelo://app?vid=609d5099-9f7c-41ee-a7cb-7024254a72d9","ios":"levelo://app?vid=609d5099-9f7c-41ee-a7cb-7024254a72d9"},"vehicle_type_id":"4","last_reported":1752246671,"current_range_meters":16400,"station_id":"ce4bhbh2rcd13ifvqeo0","pricing_plan_id":"cebpf4jnsgd1na2vs0mg"},{"bike_id":"1bf36ecd-a9d1-40cf-8c8b-89fa3acf5601","system_id":"levelo_inurba_marseille","lat":43.27373,"lon":5.36242,"is_reserved":false,"is_disabled":false,"rental_uris":{"android":"levelo://app?vid=1bf36ecd-a9d1-40cf-8c8b-89fa3acf5601","ios":"levelo://app?vid=1bf36ecd-a9d1-40cf-8c8b-89fa3acf5601"},"vehicle_type_id":"4","last_reported":1752246671,"current_range_meters":16400,"station_id":"ce4bhbh2rcd13ifvqeo0","pricing_plan_id":"cebpf4jnsgd1na2vs0mg"},{"bike_id":"0de00d79-2cba-4966-93fd-542c98181f93","system_id":"levelo_inurba_marseille","lat":43.28617,"lon":5.35103,"is_reserved":false,"is_disabled":false,"rental_uris":{"android":"levelo://app?vid=0de00d79-2cba-4966-93fd-542c98181f93","ios":"levelo://app?vid=0de00d79-2cba-4966-93fd-542c98181f93"},"vehicle_type_id":"4","last_reported":1752246671,"current_range_meters":16800,"station_id":"ce4bhch2rcd13ifvqeug","pricing_plan_id":"cebpf4jnsgd1na2vs0mg"},{"bike_id":"95bbd60e-a31c-4e53-bb76-a88ef131db3b","system_id":"levelo_inurba_marseille","lat":43.28486,"lon":5.35877,"is_reserved":false,"is_disabled":false,"rental_uris":{"android":"levelo://app?vid=95bbd60e-a31c-4e53-bb76-a88ef131db3b","ios":"levelo://app?vid=95bbd60e-a31c-4e53-bb76-a88ef131db3b"},"vehicle_type_id":"4","last_reported":1752246671,"current_range_meters":16800,"station_id":"ce4bhah2rcd13ifvqei0","pricing_plan_id":"cebpf4jnsgd1na2vs0mg"},{"bike_id":"8fccf46e-4269-459a-bd9a-cdd93f6b32bc","system_id":"levelo_inurba_marseille","lat":43.30359,"lon":5.41884,"is_reserved":false,"is_disabled":true,"rental_uris":{"android":"levelo://app?vid=8fccf46e-4269-459a-bd9a-cdd93f6b32bc","ios":"levelo://app?vid=8fccf46e-4269-459a-bd9a-cdd93f6b32bc"},"vehicle_type_id":"4","last_reported":1752246671,"current_range_meters":16800,"station_id":"ce4bhop2rcd13ifvqh7g","pricing_plan_id":"cebpf4jnsgd1na2vs0mg"},{"bike_id":"1c0ce9ed-eea5-40fa-9578-cf988cb46ea2","system_id":"levelo_inurba_marseille","lat":43.24183,"lon":5.39731,"is_reserved":false,"is_disabled":false,"rental_uris":{"android":"levelo://app?vid=1c0ce9ed-eea5-40fa-9578-cf988cb46ea2","ios":"levelo://app?vid=1c0ce9ed-eea5-40fa-9578-cf988cb46ea2"},"vehicle_type_id":"4","last_reported":1752246671,"current_range_meters":16800,"station_id":"ce4bhn12rcd13ifvqgpg","pricing_plan_id":"cebpf4jnsgd1na2vs0mg"},{"bike_id":"0053b38a-ed43-4024-8bc6-5462796be2be","system_id":"levelo_inurba_marseille","lat":43.28719,"lon":5.37942,"is_reserved":false,"is_disabled":false,"rental_uris":{"android":"levelo://app?vid=0053b38a-ed43-4024-8bc6-5462796be2be","ios":"levelo://app?vid=0053b38a-ed43-4024-8bc6-5462796be2be"},"vehicle_type_id":"4","last_reported":1752246671,"current_range_meters":16800,"station_id":"ce4bh9p2rcd13ifvqec0","pricing_plan_id":"cebpf4jnsgd1na2vs0mg"},{"bike_id":"df241dcd-0608-4c17-a214-b233951852fe","system_id":"levelo_inurba_marseille","lat":43.28618,"lon":5.35102,"is_reserved":false,"is_disabled":false,"rental_uris":{"android":"levelo://app?vid=df241dcd-0608-4c17-a214-b233951852fe","ios":"levelo://app?vid=df241dcd-0608-4c17-a214-b233951852fe"},"vehicle_type_id":"4","last_reported":1752246671,"current_range_meters":16800,"station_id":"ce4bhch2rcd13ifvqeug","pricing_plan_id":"cebpf4jnsgd1na2vs0mg"},{"bike_id":"dbba3321-20c7-4989-a7b5-ea9ab2c4b3e8","system_id":"levelo_inurba_marseille","lat":43.261935,"lon":5.374477,"is_reserved":false,"is_disabled":false,"rental_uris":{"android":"levelo://app?vid=dbba3321-20c7-4989-a7b5-ea9ab2c4b3e8","ios":"levelo://app?vid=dbba3321-20c7-4989-a7b5-ea9ab2c4b3e8"},"vehicle_type_id":"4","last_reported":1752246671,"current_range_meters":16800,"station_id":"ce4bhgp2rcd13ifvqfc0","pricing_plan_id":"cebpf4jnsgd1na2vs0mg"},{"bike_id":"9ab850d4-5910-4105-b280-6dc37242fed3","system_id":"levelo_inurba_marseille","lat":43.23972,"lon":5.36633,"is_reserved":false,"is_disabled":false,"rental_uris":{"android":"levelo://app?vid=9ab850d4-5910-4105-b280-6dc37242fed3","ios":"levelo://app?vid=9ab850d4-5910-4105-b280-6dc37242fed3"},"vehicle_type_id":"4","last_reported":1752246671,"current_range_meters":17200,"station_id":"ce4bhi12rcd13ifvqfp0","pricing_plan_id":"cebpf4jnsgd1na2vs0mg"},{"bike_id":"3e80bd6f-44c8-4b0f-a2da-77ee6c540715","system_id":"levelo_inurba_marseille","lat":43.29871,"lon":5.43612,"is_reserved":false,"is_disabled":false,"rental_uris":{"android":"levelo://app?vid=3e80bd6f-44c8-4b0f-a2da-77ee6c540715","ios":"levelo://app?vid=3e80bd6f-44c8-4b0f-a2da-77ee6c540715"},"vehicle_type_id":"4","last_reported":1752246671,"current_range_meters":17200,"station_id":"ce4bhpp2rcd13ifvqhfg","pricing_plan_id":"cebpf4jnsgd1na2vs0mg"},{"bike_id":"4ff4766f-13dc-49b2-bced-7f909eef25ac","system_id":"levelo_inurba_marseille","lat":43.27384,"lon":5.3625,"is_reserved":false,"is_disabled":false,"rental_uris":{"android":"levelo://app?vid=4ff4766f-13dc-49b2-bced-7f909eef25ac","ios":"levelo://app?vid=4ff4766f-13dc-49b2-bced-7f909eef25ac"},"vehicle_type_id":"4","last_reported":1752246671,"current_range_meters":17200,"station_id":"ce4bhbh2rcd13ifvqeo0","pricing_plan_id":"cebpf4jnsgd1na2vs0mg"},{"bike_id":"1e7e06ae-b4ae-403a-b4dc-823ca05ff420","system_id":"levelo_inurba_marseille","lat":43.28945,"lon":5.39631,"is_reserved":false,"is_disabled":false,"rental_uris":{"android":"levelo://app?vid=1e7e06ae-b4ae-403a-b4dc-823ca05ff420","ios":"levelo://app?vid=1e7e06ae-b4ae-403a-b4dc-823ca05ff420"},"vehicle_type_id":"4","last_reported":1752246671,"current_range_meters":16800,"station_id":"ce4bh3h2rcd13ifvqdn0","pricing_plan_id":"cebpf4jnsgd1na2vs0mg"},{"bike_id":"eb6a2290-40e2-4780-bdeb-a149c699215d","system_id":"levelo_inurba_marseille","lat":43.27956,"lon":5.4106,"is_reserved":false,"is_disabled":false,"rental_uris":{"android":"levelo://app?vid=eb6a2290-40e2-4780-bdeb-a149c699215d","ios":"levelo://app?vid=eb6a2290-40e2-4780-bdeb-a149c699215d"},"vehicle_type_id":"4","last_reported":1752246671,"current_range_meters":17200,"station_id":"ce4bhnp2rcd13ifvqh0g","pricing_plan_id":"cebpf4jnsgd1na2vs0mg"},{"bike_id":"e86ba8c9-208d-482c-a826-4c100938472a","system_id":"levelo_inurba_marseille","lat":43.21212,"lon":5.35058,"is_reserved":false,"is_disabled":false,"rental_uris":{"android":"levelo://app?vid=e86ba8c9-208d-482c-a826-4c100938472a","ios":"levelo://app?vid=e86ba8c9-208d-482c-a826-4c100938472a"},"vehicle_type_id":"4","last_reported":1752246671,"current_range_meters":17200,"station_id":"st_cvj6sg6p6f1abm77japg","pricing_plan_id":"cebpf4jnsgd1na2vs0mg"},{"bike_id":"8a04fd21-64fa-4c30-ac91-c054cd0ee197","system_id":"levelo_inurba_marseille","lat":43.30204,"lon":5.38068,"is_reserved":false,"is_disabled":false,"rental_uris":{"android":"levelo://app?vid=8a04fd21-64fa-4c30-ac91-c054cd0ee197","ios":"levelo://app?vid=8a04fd21-64fa-4c30-ac91-c054cd0ee197"},"vehicle_type_id":"4","last_reported":1752246671,"current_range_meters":17600,"station_id":"","pricing_plan_id":"cebpf4jnsgd1na2vs0mg"},{"bike_id":"7f5321a6-8d38-4864-9dd8-c341e35059cd","system_id":"levelo_inurba_marseille","lat":43.2886,"lon":5.35855,"is_reserved":false,"is_disabled":false,"rental_uris":{"android":"levelo://app?vid=7f5321a6-8d38-4864-9dd8-c341e35059cd","ios":"levelo://app?vid=7f5321a6-8d38-4864-9dd8-c341e35059cd"},"vehicle_type_id":"4","last_reported":1752246671,"current_range_meters":17600,"station_id":"ce4bhb12rcd13ifvqem0","pricing_plan_id":"cebpf4jnsgd1na2vs0mg"},{"bike_id":"902cbc5b-3f0d-4bf0-9879-3dcdb78445aa","system_id":"levelo_inurba_marseille","lat":43.2468,"lon":5.38146,"is_reserved":false,"is_disabled":false,"rental_uris":{"android":"levelo://app?vid=902cbc5b-3f0d-4bf0-9879-3dcdb78445aa","ios":"levelo://app?vid=902cbc5b-3f0d-4bf0-9879-3dcdb78445aa"},"vehicle_type_id":"4","last_reported":1752246671,"current_range_meters":17600,"station_id":"ce4bhih2rcd13ifvqfr0","pricing_plan_id":"cebpf4jnsgd1na2vs0mg"},{"bike_id":"7ef83612-dc79-46b5-a153-cc2ee1f878f3","system_id":"levelo_inurba_marseille","lat":43.28447,"lon":5.39202,"is_reserved":false,"is_disabled":false,"rental_uris":{"android":"levelo://app?vid=7ef83612-dc79-46b5-a153-cc2ee1f878f3","ios":"levelo://app?vid=7ef83612-dc79-46b5-a153-cc2ee1f878f3"},"vehicle_type_id":"4","last_reported":1752246671,"current_range_meters":17600,"station_id":"ce4bhoh2rcd13ifvqh5g","pricing_plan_id":"cebpf4jnsgd1na2vs0mg"},{"bike_id":"e1e64cb6-1e7d-4416-9459-e96f2c921712","system_id":"levelo_inurba_marseille","lat":43.31275,"lon":5.40159,"is_reserved":false,"is_disabled":false,"rental_uris":{"android":"levelo://app?vid=e1e64cb6-1e7d-4416-9459-e96f2c921712","ios":"levelo://app?vid=e1e64cb6-1e7d-4416-9459-e96f2c921712"},"vehicle_type_id":"4","last_reported":1752246671,"current_range_meters":17600,"station_id":"ce4bh092rcd13ifvqd30","pricing_plan_id":"cebpf4jnsgd1na2vs0mg"},{"bike_id":"452e8211-4f44-45d0-814a-3e9e25b8c44e","system_id":"levelo_inurba_marseille","lat":43.21184,"lon":5.35085,"is_reserved":false,"is_disabled":false,"rental_uris":{"android":"levelo://app?vid=452e8211-4f44-45d0-814a-3e9e25b8c44e","ios":"levelo://app?vid=452e8211-4f44-45d0-814a-3e9e25b8c44e"},"vehicle_type_id":"4","last_reported":1752246671,"current_range_meters":17600,"station_id":"st_cvj6sg6p6f1abm77japg","pricing_plan_id":"cebpf4jnsgd1na2vs0mg"},{"bike_id":"2aa723b1-9ea1-4ac2-80c7-216a9d74c0a8","system_id":"levelo_inurba_marseille","lat":43.21767,"lon":5.34604,"is_reserved":false,"is_disabled":false,"rental_uris":{"android":"levelo://app?vid=2aa723b1-9ea1-4ac2-80c7-216a9d74c0a8","ios":"levelo://app?vid=2aa723b1-9ea1-4ac2-80c7-216a9d74c0a8"},"vehicle_type_id":"4","last_reported":1752246671,"current_range_meters":17600,"station_id":"st_cvj6r9ubvosntc0bgbag","pricing_plan_id":"cebpf4jnsgd1na2vs0mg"},{"bike_id":"a81ede20-43a9-47cd-942d-8fb15c54f5f7","system_id":"levelo_inurba_marseille","lat":43.300686,"lon":5.45164,"is_reserved":false,"is_disabled":false,"rental_uris":{"android":"levelo://app?vid=a81ede20-43a9-47cd-942d-8fb15c54f5f7","ios":"levelo://app?vid=a81ede20-43a9-47cd-942d-8fb15c54f5f7"},"vehicle_type_id":"4","last_reported":1752246671,"current_range_meters":18000,"station_id":"","pricing_plan_id":"cebpf4jnsgd1na2vs0mg"},{"bike_id":"83f5258f-0b3a-475c-8ad3-5a12a70c8b54","system_id":"levelo_inurba_marseille","lat":43.284187,"lon":5.349917,"is_reserved":false,"is_disabled":false,"rental_uris":{"android":"levelo://app?vid=83f5258f-0b3a-475c-8ad3-5a12a70c8b54","ios":"levelo://app?vid=83f5258f-0b3a-475c-8ad3-5a12a70c8b54"},"vehicle_type_id":"4","last_reported":1752246671,"current_range_meters":18000,"station_id":"ce4bhbh2rcd13ifvqepg","pricing_plan_id":"cebpf4jnsgd1na2vs0mg"},{"bike_id":"d59a48b0-85ae-4231-b8a6-83e35ac85650","system_id":"levelo_inurba_marseille","lat":43.301571,"lon":5.380785,"is_reserved":false,"is_disabled":false,"rental_uris":{"android":"levelo://app?vid=d59a48b0-85ae-4231-b8a6-83e35ac85650","ios":"levelo://app?vid=d59a48b0-85ae-4231-b8a6-83e35ac85650"},"vehicle_type_id":"4","last_reported":1752246671,"current_range_meters":18000,"station_id":"ce4bgjp2rcd13ifvqbh0","pricing_plan_id":"cebpf4jnsgd1na2vs0mg"},{"bike_id":"a581eef9-f0fb-4e5d-8be0-84b96bfd2d41","system_id":"levelo_inurba_marseille","lat":43.29364,"lon":5.37873,"is_reserved":false,"is_disabled":true,"rental_uris":{"android":"levelo://app?vid=a581eef9-f0fb-4e5d-8be0-84b96bfd2d41","ios":"levelo://app?vid=a581eef9-f0fb-4e5d-8be0-84b96bfd2d41"},"vehicle_type_id":"4","last_reported":1752246671,"current_range_meters":18000,"station_id":"ce4bgjh2rcd13ifvqbf0","pricing_plan_id":"cebpf4jnsgd1na2vs0mg"},{"bike_id":"61198919-e72c-4fce-bc96-126627987dc0","system_id":"levelo_inurba_marseille","lat":43.295844,"lon":5.378865,"is_reserved":false,"is_disabled":false,"rental_uris":{"android":"levelo://app?vid=61198919-e72c-4fce-bc96-126627987dc0","ios":"levelo://app?vid=61198919-e72c-4fce-bc96-126627987dc0"},"vehicle_type_id":"4","last_reported":1752246671,"current_range_meters":18000,"station_id":"","pricing_plan_id":"cebpf4jnsgd1na2vs0mg"},{"bike_id":"d7e529c0-1796-4383-9cc5-31190a01060f","system_id":"levelo_inurba_marseille","lat":43.27615,"lon":5.36115,"is_reserved":false,"is_disabled":false,"rental_uris":{"android":"levelo://app?vid=d7e529c0-1796-4383-9cc5-31190a01060f","ios":"levelo://app?vid=d7e529c0-1796-4383-9cc5-31190a01060f"},"vehicle_type_id":"4","last_reported":1752246671,"current_range_meters":18000,"station_id":"ce4bgj92rcd13ifvqbe0","pricing_plan_id":"cebpf4jnsgd1na2vs0mg"},{"bike_id":"78774918-de79-4818-9772-85eae3280dec","system_id":"levelo_inurba_marseille","lat":43.26069,"lon":5.394,"is_reserved":false,"is_disabled":false,"rental_uris":{"android":"levelo://app?vid=78774918-de79-4818-9772-85eae3280dec","ios":"levelo://app?vid=78774918-de79-4818-9772-85eae3280dec"},"vehicle_type_id":"4","last_reported":1752246671,"current_range_meters":17600,"station_id":"ce4bhh92rcd13ifvqfj0","pricing_plan_id":"cebpf4jnsgd1na2vs0mg"},{"bike_id":"f272420d-ba4a-4b11-a790-579b5df77b6a","system_id":"levelo_inurba_marseille","lat":43.28632,"lon":5.35095,"is_reserved":false,"is_disabled":false,"rental_uris":{"android":"levelo://app?vid=f272420d-ba4a-4b11-a790-579b5df77b6a","ios":"levelo://app?vid=f272420d-ba4a-4b11-a790-579b5df77b6a"},"vehicle_type_id":"4","last_reported":1752246671,"current_range_meters":18000,"station_id":"ce4bhch2rcd13ifvqeug","pricing_plan_id":"cebpf4jnsgd1na2vs0mg"},{"bike_id":"e72cfbf3-f00e-4474-a978-8976cecd3110","system_id":"levelo_inurba_marseille","lat":43.301522,"lon":5.380951,"is_reserved":false,"is_disabled":false,"rental_uris":{"android":"levelo://app?vid=e72cfbf3-f00e-4474-a978-8976cecd3110","ios":"levelo://app?vid=e72cfbf3-f00e-4474-a978-8976cecd3110"},"vehicle_type_id":"4","last_reported":1752246671,"current_range_meters":18000,"station_id":"ce4bgjp2rcd13ifvqbh0","pricing_plan_id":"cebpf4jnsgd1na2vs0mg"},{"bike_id":"9a0cb1a3-2bfe-4644-ba31-8f50fab06156","system_id":"levelo_inurba_marseille","lat":43.27369,"lon":5.3625,"is_reserved":false,"is_disabled":false,"rental_uris":{"android":"levelo://app?vid=9a0cb1a3-2bfe-4644-ba31-8f50fab06156","ios":"levelo://app?vid=9a0cb1a3-2bfe-4644-ba31-8f50fab06156"},"vehicle_type_id":"4","last_reported":1752246671,"current_range_meters":18000,"station_id":"ce4bhbh2rcd13ifvqeo0","pricing_plan_id":"cebpf4jnsgd1na2vs0mg"},{"bike_id":"b84a63fc-148b-4fcb-a671-16c06f7e5605","system_id":"levelo_inurba_marseille","lat":43.268,"lon":5.39427,"is_reserved":false,"is_disabled":false,"rental_uris":{"android":"levelo://app?vid=b84a63fc-148b-4fcb-a671-16c06f7e5605","ios":"levelo://app?vid=b84a63fc-148b-4fcb-a671-16c06f7e5605"},"vehicle_type_id":"4","last_reported":1752246671,"current_range_meters":18800,"station_id":"ce4bhh12rcd13ifvqfg0","pricing_plan_id":"cebpf4jnsgd1na2vs0mg"},{"bike_id":"709c9beb-13f1-45e2-bbd1-0f71d60cf8b2","system_id":"levelo_inurba_marseille","lat":43.30919,"lon":5.40153,"is_reserved":false,"is_disabled":true,"rental_uris":{"android":"levelo://app?vid=709c9beb-13f1-45e2-bbd1-0f71d60cf8b2","ios":"levelo://app?vid=709c9beb-13f1-45e2-bbd1-0f71d60cf8b2"},"vehicle_type_id":"4","last_reported":1752246671,"current_range_meters":18800,"station_id":"ce4bgvp2rcd13ifvqct0","pricing_plan_id":"cebpf4jnsgd1na2vs0mg"},{"bike_id":"53c5a49d-501d-436c-8e3c-00bdcdd51ff2","system_id":"levelo_inurba_marseille","lat":43.28279,"lon":5.35074,"is_reserved":false,"is_disabled":false,"rental_uris":{"android":"levelo://app?vid=53c5a49d-501d-436c-8e3c-00bdcdd51ff2","ios":"levelo://app?vid=53c5a49d-501d-436c-8e3c-00bdcdd51ff2"},"vehicle_type_id":"4","last_reported":1752246671,"current_range_meters":18800,"station_id":"ce4bhbp2rcd13ifvqerg","pricing_plan_id":"cebpf4jnsgd1na2vs0mg"},{"bike_id":"ad023729-3d33-44a6-99ca-a047715b7f88","system_id":"levelo_inurba_marseille","lat":43.211866,"lon":5.35093,"is_reserved":false,"is_disabled":false,"rental_uris":{"android":"levelo://app?vid=ad023729-3d33-44a6-99ca-a047715b7f88","ios":"levelo://app?vid=ad023729-3d33-44a6-99ca-a047715b7f88"},"vehicle_type_id":"4","last_reported":1752246671,"current_range_meters":19200,"station_id":"st_cvj6sg6p6f1abm77japg","pricing_plan_id":"cebpf4jnsgd1na2vs0mg"},{"bike_id":"d986ab92-05dd-4f8a-9fa1-a9294bba3783","system_id":"levelo_inurba_marseille","lat":43.2862,"lon":5.35098,"is_reserved":false,"is_disabled":false,"rental_uris":{"android":"levelo://app?vid=d986ab92-05dd-4f8a-9fa1-a9294bba3783","ios":"levelo://app?vid=d986ab92-05dd-4f8a-9fa1-a9294bba3783"},"vehicle_type_id":"4","last_reported":1752246671,"current_range_meters":18800,"station_id":"ce4bhch2rcd13ifvqeug","pricing_plan_id":"cebpf4jnsgd1na2vs0mg"},{"bike_id":"d912eff3-87db-4caa-93e1-57ec05077a56","system_id":"levelo_inurba_marseille","lat":43.28738,"lon":5.36097,"is_reserved":false,"is_disabled":false,"rental_uris":{"android":"levelo://app?vid=d912eff3-87db-4caa-93e1-57ec05077a56","ios":"levelo://app?vid=d912eff3-87db-4caa-93e1-57ec05077a56"},"vehicle_type_id":"4","last_reported":1752246671,"current_range_meters":19200,"station_id":"cki0cbj6b192h4jlfktg","pricing_plan_id":"cebpf4jnsgd1na2vs0mg"},{"bike_id":"db2690f4-eb5c-4bb7-a073-68e2f29c4ad8","system_id":"levelo_inurba_marseille","lat":43.24805,"lon":5.37437,"is_reserved":false,"is_disabled":false,"rental_uris":{"android":"levelo://app?vid=db2690f4-eb5c-4bb7-a073-68e2f29c4ad8","ios":"levelo://app?vid=db2690f4-eb5c-4bb7-a073-68e2f29c4ad8"},"vehicle_type_id":"4","last_reported":1752246671,"current_range_meters":19200,"station_id":"ce4bhgh2rcd13ifvqfb0","pricing_plan_id":"cebpf4jnsgd1na2vs0mg"},{"bike_id":"5cad9237-6eb9-4db4-a14f-8883971659fc","system_id":"levelo_inurba_marseille","lat":43.26219,"lon":5.37436,"is_reserved":false,"is_disabled":false,"rental_uris":{"android":"levelo://app?vid=5cad9237-6eb9-4db4-a14f-8883971659fc","ios":"levelo://app?vid=5cad9237-6eb9-4db4-a14f-8883971659fc"},"vehicle_type_id":"4","last_reported":1752246671,"current_range_meters":19200,"station_id":"ce4bhgp2rcd13ifvqfc0","pricing_plan_id":"cebpf4jnsgd1na2vs0mg"},{"bike_id":"a1bdb3f1-adaf-4e86-8831-fb9aa97a5999","system_id":"levelo_inurba_marseille","lat":43.301544,"lon":5.380936,"is_reserved":false,"is_disabled":false,"rental_uris":{"android":"levelo://app?vid=a1bdb3f1-adaf-4e86-8831-fb9aa97a5999","ios":"levelo://app?vid=a1bdb3f1-adaf-4e86-8831-fb9aa97a5999"},"vehicle_type_id":"4","last_reported":1752246671,"current_range_meters":19200,"station_id":"ce4bgjp2rcd13ifvqbh0","pricing_plan_id":"cebpf4jnsgd1na2vs0mg"},{"bike_id":"622e8029-19fd-41c4-bfc0-7d297e50e368","system_id":"levelo_inurba_marseille","lat":43.27389,"lon":5.36264,"is_reserved":false,"is_disabled":false,"rental_uris":{"android":"levelo://app?vid=622e8029-19fd-41c4-bfc0-7d297e50e368","ios":"levelo://app?vid=622e8029-19fd-41c4-bfc0-7d297e50e368"},"vehicle_type_id":"4","last_reported":1752246671,"current_range_meters":19200,"station_id":"ce4bhbh2rcd13ifvqeo0","pricing_plan_id":"cebpf4jnsgd1na2vs0mg"},{"bike_id":"39ba8fdf-b26d-4c36-b164-6685c3f9f6bf","system_id":"levelo_inurba_marseille","lat":43.29036,"lon":5.39969,"is_reserved":false,"is_disabled":false,"rental_uris":{"android":"levelo://app?vid=39ba8fdf-b26d-4c36-b164-6685c3f9f6bf","ios":"levelo://app?vid=39ba8fdf-b26d-4c36-b164-6685c3f9f6bf"},"vehicle_type_id":"4","last_reported":1752246671,"current_range_meters":19200,"station_id":"ce4bh392rcd13ifvqdm0","pricing_plan_id":"cebpf4jnsgd1na2vs0mg"},{"bike_id":"c39f9b3e-85ca-4491-a126-0b3259b2441d","system_id":"levelo_inurba_marseille","lat":43.2958,"lon":5.39969,"is_reserved":false,"is_disabled":false,"rental_uris":{"android":"levelo://app?vid=c39f9b3e-85ca-4491-a126-0b3259b2441d","ios":"levelo://app?vid=c39f9b3e-85ca-4491-a126-0b3259b2441d"},"vehicle_type_id":"4","last_reported":1752246671,"current_range_meters":19200,"station_id":"ce4bh312rcd13ifvqdj0","pricing_plan_id":"cebpf4jnsgd1na2vs0mg"},{"bike_id":"40330dcb-29a5-4ad3-8d22-d51ce4593d26","system_id":"levelo_inurba_marseille","lat":43.27383,"lon":5.3626,"is_reserved":false,"is_disabled":false,"rental_uris":{"android":"levelo://app?vid=40330dcb-29a5-4ad3-8d22-d51ce4593d26","ios":"levelo://app?vid=40330dcb-29a5-4ad3-8d22-d51ce4593d26"},"vehicle_type_id":"4","last_reported":1752246671,"current_range_meters":19600,"station_id":"ce4bhbh2rcd13ifvqeo0","pricing_plan_id":"cebpf4jnsgd1na2vs0mg"},{"bike_id":"d54aee84-24b4-44f2-87d8-6fd5042dd8d8","system_id":"levelo_inurba_marseille","lat":43.27373,"lon":5.36252,"is_reserved":false,"is_disabled":false,"rental_uris":{"android":"levelo://app?vid=d54aee84-24b4-44f2-87d8-6fd5042dd8d8","ios":"levelo://app?vid=d54aee84-24b4-44f2-87d8-6fd5042dd8d8"},"vehicle_type_id":"4","last_reported":1752246671,"current_range_meters":19600,"station_id":"ce4bhbh2rcd13ifvqeo0","pricing_plan_id":"cebpf4jnsgd1na2vs0mg"},{"bike_id":"74411543-9296-4c58-99e4-59d766e86788","system_id":"levelo_inurba_marseille","lat":43.297148,"lon":5.376872,"is_reserved":false,"is_disabled":false,"rental_uris":{"android":"levelo://app?vid=74411543-9296-4c58-99e4-59d766e86788","ios":"levelo://app?vid=74411543-9296-4c58-99e4-59d766e86788"},"vehicle_type_id":"4","last_reported":1752246671,"current_range_meters":19600,"station_id":"ce4bgkh2rcd13ifvqbl0","pricing_plan_id":"cebpf4jnsgd1na2vs0mg"},{"bike_id":"35994293-e78e-4fec-8904-8089e432c942","system_id":"levelo_inurba_marseille","lat":43.27315,"lon":5.39081,"is_reserved":false,"is_disabled":false,"rental_uris":{"android":"levelo://app?vid=35994293-e78e-4fec-8904-8089e432c942","ios":"levelo://app?vid=35994293-e78e-4fec-8904-8089e432c942"},"vehicle_type_id":"4","last_reported":1752246671,"current_range_meters":19600,"station_id":"ce4bhgp2rcd13ifvqfe0","pricing_plan_id":"cebpf4jnsgd1na2vs0mg"},{"bike_id":"b61ebea1-adee-45b3-b357-d987af367b70","system_id":"levelo_inurba_marseille","lat":43.28288,"lon":5.35096,"is_reserved":false,"is_disabled":false,"rental_uris":{"android":"levelo://app?vid=b61ebea1-adee-45b3-b357-d987af367b70","ios":"levelo://app?vid=b61ebea1-adee-45b3-b357-d987af367b70"},"vehicle_type_id":"4","last_reported":1752246671,"current_range_meters":19600,"station_id":"ce4bhbp2rcd13ifvqerg","pricing_plan_id":"cebpf4jnsgd1na2vs0mg"},{"bike_id":"3e7ec850-b571-461c-9c3e-7c16ccce9d27","system_id":"levelo_inurba_marseille","lat":43.273788,"lon":5.362562,"is_reserved":false,"is_disabled":false,"rental_uris":{"android":"levelo://app?vid=3e7ec850-b571-461c-9c3e-7c16ccce9d27","ios":"levelo://app?vid=3e7ec850-b571-461c-9c3e-7c16ccce9d27"},"vehicle_type_id":"4","last_reported":1752246671,"current_range_meters":19600,"station_id":"ce4bhbh2rcd13ifvqeo0","pricing_plan_id":"cebpf4jnsgd1na2vs0mg"},{"bike_id":"cf854122-fbc1-482c-9a54-b5ea4b55e5e3","system_id":"levelo_inurba_marseille","lat":43.28627,"lon":5.35098,"is_reserved":false,"is_disabled":false,"rental_uris":{"android":"levelo://app?vid=cf854122-fbc1-482c-9a54-b5ea4b55e5e3","ios":"levelo://app?vid=cf854122-fbc1-482c-9a54-b5ea4b55e5e3"},"vehicle_type_id":"4","last_reported":1752246671,"current_range_meters":19600,"station_id":"ce4bhch2rcd13ifvqeug","pricing_plan_id":"cebpf4jnsgd1na2vs0mg"},{"bike_id":"daa2498f-e34e-472a-b551-6e469eaa294e","system_id":"levelo_inurba_marseille","lat":43.29911,"lon":5.37478,"is_reserved":false,"is_disabled":false,"rental_uris":{"android":"levelo://app?vid=daa2498f-e34e-472a-b551-6e469eaa294e","ios":"levelo://app?vid=daa2498f-e34e-472a-b551-6e469eaa294e"},"vehicle_type_id":"4","last_reported":1752246671,"current_range_meters":19200,"station_id":"ce4bgjh2rcd13ifvqbg0","pricing_plan_id":"cebpf4jnsgd1na2vs0mg"},{"bike_id":"ec3d456b-4c25-41bc-88d8-30c508a5e425","system_id":"levelo_inurba_marseille","lat":43.30474,"lon":5.37904,"is_reserved":false,"is_disabled":false,"rental_uris":{"android":"levelo://app?vid=ec3d456b-4c25-41bc-88d8-30c508a5e425","ios":"levelo://app?vid=ec3d456b-4c25-41bc-88d8-30c508a5e425"},"vehicle_type_id":"4","last_reported":1752246671,"current_range_meters":20000,"station_id":"ce4bgup2rcd13ifvqcn0","pricing_plan_id":"cebpf4jnsgd1na2vs0mg"},{"bike_id":"61311c34-8ad3-46f2-97a6-24b285751e2f","system_id":"levelo_inurba_marseille","lat":43.32364,"lon":5.40637,"is_reserved":false,"is_disabled":false,"rental_uris":{"android":"levelo://app?vid=61311c34-8ad3-46f2-97a6-24b285751e2f","ios":"levelo://app?vid=61311c34-8ad3-46f2-97a6-24b285751e2f"},"vehicle_type_id":"4","last_reported":1752246671,"current_range_meters":20000,"station_id":"ce4bhq92rcd13ifvqhjg","pricing_plan_id":"cebpf4jnsgd1na2vs0mg"},{"bike_id":"00bc0b3b-e317-4a17-a011-a3a9a29d816a","system_id":"levelo_inurba_marseille","lat":43.21221,"lon":5.35062,"is_reserved":false,"is_disabled":false,"rental_uris":{"android":"levelo://app?vid=00bc0b3b-e317-4a17-a011-a3a9a29d816a","ios":"levelo://app?vid=00bc0b3b-e317-4a17-a011-a3a9a29d816a"},"vehicle_type_id":"4","last_reported":1752246671,"current_range_meters":20000,"station_id":"st_cvj6sg6p6f1abm77japg","pricing_plan_id":"cebpf4jnsgd1na2vs0mg"},{"bike_id":"7989b6c1-053d-4ee4-a416-bc8c51db47bb","system_id":"levelo_inurba_marseille","lat":43.28717,"lon":5.37933,"is_reserved":false,"is_disabled":false,"rental_uris":{"android":"levelo://app?vid=7989b6c1-053d-4ee4-a416-bc8c51db47bb","ios":"levelo://app?vid=7989b6c1-053d-4ee4-a416-bc8c51db47bb"},"vehicle_type_id":"4","last_reported":1752246671,"current_range_meters":18000,"station_id":"ce4bh9p2rcd13ifvqec0","pricing_plan_id":"cebpf4jnsgd1na2vs0mg"},{"bike_id":"ba2c3a9c-d0e2-421a-aade-5237ad9151ca","system_id":"levelo_inurba_marseille","lat":43.28267,"lon":5.35069,"is_reserved":false,"is_disabled":false,"rental_uris":{"android":"levelo://app?vid=ba2c3a9c-d0e2-421a-aade-5237ad9151ca","ios":"levelo://app?vid=ba2c3a9c-d0e2-421a-aade-5237ad9151ca"},"vehicle_type_id":"4","last_reported":1752246671,"current_range_meters":20000,"station_id":"ce4bhbp2rcd13ifvqerg","pricing_plan_id":"cebpf4jnsgd1na2vs0mg"},{"bike_id":"6c0dcd04-aec4-41d2-98af-4af769ce2194","system_id":"levelo_inurba_marseille","lat":43.30188,"lon":5.36625,"is_reserved":false,"is_disabled":false,"rental_uris":{"android":"levelo://app?vid=6c0dcd04-aec4-41d2-98af-4af769ce2194","ios":"levelo://app?vid=6c0dcd04-aec4-41d2-98af-4af769ce2194"},"vehicle_type_id":"4","last_reported":1752246671,"current_range_meters":20000,"station_id":"ce4bgrh2rcd13ifvqc8g","pricing_plan_id":"cebpf4jnsgd1na2vs0mg"},{"bike_id":"a4c8851f-8a9e-4418-bee0-bddf045feb40","system_id":"levelo_inurba_marseille","lat":43.29004,"lon":5.3562,"is_reserved":false,"is_disabled":false,"rental_uris":{"android":"levelo://app?vid=a4c8851f-8a9e-4418-bee0-bddf045feb40","ios":"levelo://app?vid=a4c8851f-8a9e-4418-bee0-bddf045feb40"},"vehicle_type_id":"4","last_reported":1752246671,"current_range_meters":20000,"station_id":"ce4bhb92rcd13ifvqen0","pricing_plan_id":"cebpf4jnsgd1na2vs0mg"},{"bike_id":"c6f7dabd-b092-4554-a710-07eb4af96a4c","system_id":"levelo_inurba_marseille","lat":43.21181,"lon":5.35067,"is_reserved":false,"is_disabled":false,"rental_uris":{"android":"levelo://app?vid=c6f7dabd-b092-4554-a710-07eb4af96a4c","ios":"levelo://app?vid=c6f7dabd-b092-4554-a710-07eb4af96a4c"},"vehicle_type_id":"4","last_reported":1752246671,"current_range_meters":20000,"station_id":"st_cvj6sg6p6f1abm77japg","pricing_plan_id":"cebpf4jnsgd1na2vs0mg"},{"bike_id":"919e600e-ebda-4ca0-9126-38ed65a36143","system_id":"levelo_inurba_marseille","lat":43.21204,"lon":5.35061,"is_reserved":false,"is_disabled":false,"rental_uris":{"android":"levelo://app?vid=919e600e-ebda-4ca0-9126-38ed65a36143","ios":"levelo://app?vid=919e600e-ebda-4ca0-9126-38ed65a36143"},"vehicle_type_id":"4","last_reported":1752246671,"current_range_meters":20000,"station_id":"st_cvj6sg6p6f1abm77japg","pricing_plan_id":"cebpf4jnsgd1na2vs0mg"},{"bike_id":"0a107d9a-c6c6-4da1-8f26-de83ac730ac9","system_id":"levelo_inurba_marseille","lat":43.29978,"lon":5.37171,"is_reserved":false,"is_disabled":false,"rental_uris":{"android":"levelo://app?vid=0a107d9a-c6c6-4da1-8f26-de83ac730ac9","ios":"levelo://app?vid=0a107d9a-c6c6-4da1-8f26-de83ac730ac9"},"vehicle_type_id":"4","last_reported":1752246671,"current_range_meters":20000,"station_id":"ce4bgr92rcd13ifvqc7g","pricing_plan_id":"cebpf4jnsgd1na2vs0mg"},{"bike_id":"2093d507-9815-48d8-8feb-cb32ba87d199","system_id":"levelo_inurba_marseille","lat":43.32149,"lon":5.36814,"is_reserved":false,"is_disabled":false,"rental_uris":{"android":"levelo://app?vid=2093d507-9815-48d8-8feb-cb32ba87d199","ios":"levelo://app?vid=2093d507-9815-48d8-8feb-cb32ba87d199"},"vehicle_type_id":"4","last_reported":1752246671,"current_range_meters":20000,"station_id":"ce4bhrh2rcd13ifvqhug","pricing_plan_id":"cebpf4jnsgd1na2vs0mg"},{"bike_id":"ed019ecd-f4ca-470f-953e-821f34892065","system_id":"levelo_inurba_marseille","lat":43.30555,"lon":5.36702,"is_reserved":false,"is_disabled":true,"rental_uris":{"android":"levelo://app?vid=ed019ecd-f4ca-470f-953e-821f34892065","ios":"levelo://app?vid=ed019ecd-f4ca-470f-953e-821f34892065"},"vehicle_type_id":"4","last_reported":1752246671,"current_range_meters":20400,"station_id":"","pricing_plan_id":"cebpf4jnsgd1na2vs0mg"},{"bike_id":"51890362-46b0-4ee7-9f02-afbf036d064e","system_id":"levelo_inurba_marseille","lat":43.21195,"lon":5.35078,"is_reserved":false,"is_disabled":false,"rental_uris":{"android":"levelo://app?vid=51890362-46b0-4ee7-9f02-afbf036d064e","ios":"levelo://app?vid=51890362-46b0-4ee7-9f02-afbf036d064e"},"vehicle_type_id":"4","last_reported":1752246671,"current_range_meters":20400,"station_id":"st_cvj6sg6p6f1abm77japg","pricing_plan_id":"cebpf4jnsgd1na2vs0mg"},{"bike_id":"1550d62c-ac23-4182-a92a-927896c39981","system_id":"levelo_inurba_marseille","lat":43.33039,"lon":5.380724,"is_reserved":false,"is_disabled":false,"rental_uris":{"android":"levelo://app?vid=1550d62c-ac23-4182-a92a-927896c39981","ios":"levelo://app?vid=1550d62c-ac23-4182-a92a-927896c39981"},"vehicle_type_id":"4","last_reported":1752246671,"current_range_meters":20400,"station_id":"","pricing_plan_id":"cebpf4jnsgd1na2vs0mg"},{"bike_id":"a0137104-c9f4-434a-a5e3-80725cd5a2b4","system_id":"levelo_inurba_marseille","lat":43.21196,"lon":5.35084,"is_reserved":false,"is_disabled":false,"rental_uris":{"android":"levelo://app?vid=a0137104-c9f4-434a-a5e3-80725cd5a2b4","ios":"levelo://app?vid=a0137104-c9f4-434a-a5e3-80725cd5a2b4"},"vehicle_type_id":"4","last_reported":1752246671,"current_range_meters":20400,"station_id":"st_cvj6sg6p6f1abm77japg","pricing_plan_id":"cebpf4jnsgd1na2vs0mg"},{"bike_id":"d055cbb8-03e0-4c44-be37-18f48c4d7ebf","system_id":"levelo_inurba_marseille","lat":43.286188,"lon":5.351041,"is_reserved":false,"is_disabled":false,"rental_uris":{"android":"levelo://app?vid=d055cbb8-03e0-4c44-be37-18f48c4d7ebf","ios":"levelo://app?vid=d055cbb8-03e0-4c44-be37-18f48c4d7ebf"},"vehicle_type_id":"4","last_reported":1752246671,"current_range_meters":20800,"station_id":"ce4bh692rcd13ifvqea0","pricing_plan_id":"cebpf4jnsgd1na2vs0mg"},{"bike_id":"b323cbc6-f556-486e-87e6-b2329bc924dd","system_id":"levelo_inurba_marseille","lat":43.301607,"lon":5.380757,"is_reserved":false,"is_disabled":false,"rental_uris":{"android":"levelo://app?vid=b323cbc6-f556-486e-87e6-b2329bc924dd","ios":"levelo://app?vid=b323cbc6-f556-486e-87e6-b2329bc924dd"},"vehicle_type_id":"4","last_reported":1752246671,"current_range_meters":20800,"station_id":"ce4bgjp2rcd13ifvqbh0","pricing_plan_id":"cebpf4jnsgd1na2vs0mg"},{"bike_id":"00bb04d2-087b-4ba0-958b-5c83f2321f0a","system_id":"levelo_inurba_marseille","lat":43.29558,"lon":5.42301,"is_reserved":false,"is_disabled":false,"rental_uris":{"android":"levelo://app?vid=00bb04d2-087b-4ba0-958b-5c83f2321f0a","ios":"levelo://app?vid=00bb04d2-087b-4ba0-958b-5c83f2321f0a"},"vehicle_type_id":"4","last_reported":1752246671,"current_range_meters":20800,"station_id":"ce4bhph2rcd13ifvqhdg","pricing_plan_id":"cebpf4jnsgd1na2vs0mg"},{"bike_id":"0b5568ad-5cb1-43dd-96ea-ac921d768809","system_id":"levelo_inurba_marseille","lat":43.304718,"lon":5.379058,"is_reserved":false,"is_disabled":false,"rental_uris":{"android":"levelo://app?vid=0b5568ad-5cb1-43dd-96ea-ac921d768809","ios":"levelo://app?vid=0b5568ad-5cb1-43dd-96ea-ac921d768809"},"vehicle_type_id":"4","last_reported":1752246671,"current_range_meters":20800,"station_id":"ce4bgup2rcd13ifvqcn0","pricing_plan_id":"cebpf4jnsgd1na2vs0mg"},{"bike_id":"8b37f03f-f226-4bbc-8648-b109da7ba145","system_id":"levelo_inurba_marseille","lat":43.30536,"lon":5.366999,"is_reserved":false,"is_disabled":false,"rental_uris":{"android":"levelo://app?vid=8b37f03f-f226-4bbc-8648-b109da7ba145","ios":"levelo://app?vid=8b37f03f-f226-4bbc-8648-b109da7ba145"},"vehicle_type_id":"4","last_reported":1752246671,"current_range_meters":20800,"station_id":"","pricing_plan_id":"cebpf4jnsgd1na2vs0mg"},{"bike_id":"e671c250-f031-41b2-ae72-5a5e601858c0","system_id":"levelo_inurba_marseille","lat":43.27379,"lon":5.36254,"is_reserved":false,"is_disabled":false,"rental_uris":{"android":"levelo://app?vid=e671c250-f031-41b2-ae72-5a5e601858c0","ios":"levelo://app?vid=e671c250-f031-41b2-ae72-5a5e601858c0"},"vehicle_type_id":"4","last_reported":1752246671,"current_range_meters":20800,"station_id":"ce4bhbh2rcd13ifvqeo0","pricing_plan_id":"cebpf4jnsgd1na2vs0mg"},{"bike_id":"cb435b23-77ff-461e-8fdc-02bc965bcb7b","system_id":"levelo_inurba_marseille","lat":43.28421,"lon":5.34974,"is_reserved":false,"is_disabled":false,"rental_uris":{"android":"levelo://app?vid=cb435b23-77ff-461e-8fdc-02bc965bcb7b","ios":"levelo://app?vid=cb435b23-77ff-461e-8fdc-02bc965bcb7b"},"vehicle_type_id":"4","last_reported":1752246671,"current_range_meters":20800,"station_id":"ce4bhbh2rcd13ifvqepg","pricing_plan_id":"cebpf4jnsgd1na2vs0mg"},{"bike_id":"d799b321-3a7d-4201-b46e-ffe2ad124f19","system_id":"levelo_inurba_marseille","lat":43.328811,"lon":5.383908,"is_reserved":false,"is_disabled":false,"rental_uris":{"android":"levelo://app?vid=d799b321-3a7d-4201-b46e-ffe2ad124f19","ios":"levelo://app?vid=d799b321-3a7d-4201-b46e-ffe2ad124f19"},"vehicle_type_id":"4","last_reported":1752246671,"current_range_meters":20800,"station_id":"","pricing_plan_id":"cebpf4jnsgd1na2vs0mg"},{"bike_id":"03eea793-0480-4a49-ab5e-35410fec1ade","system_id":"levelo_inurba_marseille","lat":43.24808,"lon":5.37453,"is_reserved":false,"is_disabled":false,"rental_uris":{"android":"levelo://app?vid=03eea793-0480-4a49-ab5e-35410fec1ade","ios":"levelo://app?vid=03eea793-0480-4a49-ab5e-35410fec1ade"},"vehicle_type_id":"4","last_reported":1752246671,"current_range_meters":20800,"station_id":"ce4bhgh2rcd13ifvqfb0","pricing_plan_id":"cebpf4jnsgd1na2vs0mg"},{"bike_id":"bca7ab81-2b1a-454b-9ff9-16c3b83c7506","system_id":"levelo_inurba_marseille","lat":43.2836,"lon":5.35023,"is_reserved":false,"is_disabled":false,"rental_uris":{"android":"levelo://app?vid=bca7ab81-2b1a-454b-9ff9-16c3b83c7506","ios":"levelo://app?vid=bca7ab81-2b1a-454b-9ff9-16c3b83c7506"},"vehicle_type_id":"4","last_reported":1752246671,"current_range_meters":22000,"station_id":"","pricing_plan_id":"cebpf4jnsgd1na2vs0mg"},{"bike_id":"ae610569-65cb-430b-ba0f-6b53713d0a29","system_id":"levelo_inurba_marseille","lat":43.29195,"lon":5.35797,"is_reserved":false,"is_disabled":false,"rental_uris":{"android":"levelo://app?vid=ae610569-65cb-430b-ba0f-6b53713d0a29","ios":"levelo://app?vid=ae610569-65cb-430b-ba0f-6b53713d0a29"},"vehicle_type_id":"4","last_reported":1752246671,"current_range_meters":21600,"station_id":"ce4bhb12rcd13ifvqel0","pricing_plan_id":"cebpf4jnsgd1na2vs0mg"},{"bike_id":"028c8301-8e99-4f6b-983c-d8b1eaa0aa1d","system_id":"levelo_inurba_marseille","lat":43.30008,"lon":5.38602,"is_reserved":false,"is_disabled":false,"rental_uris":{"android":"levelo://app?vid=028c8301-8e99-4f6b-983c-d8b1eaa0aa1d","ios":"levelo://app?vid=028c8301-8e99-4f6b-983c-d8b1eaa0aa1d"},"vehicle_type_id":"4","last_reported":1752246671,"current_range_meters":21600,"station_id":"","pricing_plan_id":"cebpf4jnsgd1na2vs0mg"},{"bike_id":"4df653b4-9396-4726-944d-2e1e40a2baae","system_id":"levelo_inurba_marseille","lat":43.27813,"lon":5.407,"is_reserved":false,"is_disabled":false,"rental_uris":{"android":"levelo://app?vid=4df653b4-9396-4726-944d-2e1e40a2baae","ios":"levelo://app?vid=4df653b4-9396-4726-944d-2e1e40a2baae"},"vehicle_type_id":"4","last_reported":1752246671,"current_range_meters":20800,"station_id":"ce4bhnh2rcd13ifvqgtg","pricing_plan_id":"cebpf4jnsgd1na2vs0mg"},{"bike_id":"ee5338dd-18a1-4b48-a5b0-f8c72f7b1319","system_id":"levelo_inurba_marseille","lat":43.317988,"lon":5.368392,"is_reserved":false,"is_disabled":false,"rental_uris":{"android":"levelo://app?vid=ee5338dd-18a1-4b48-a5b0-f8c72f7b1319","ios":"levelo://app?vid=ee5338dd-18a1-4b48-a5b0-f8c72f7b1319"},"vehicle_type_id":"4","last_reported":1752246671,"current_range_meters":21600,"station_id":"","pricing_plan_id":"cebpf4jnsgd1na2vs0mg"},{"bike_id":"f4006181-4164-401b-9a24-65daa1367e22","system_id":"levelo_inurba_marseille","lat":43.29194,"lon":5.35904,"is_reserved":false,"is_disabled":false,"rental_uris":{"android":"levelo://app?vid=f4006181-4164-401b-9a24-65daa1367e22","ios":"levelo://app?vid=f4006181-4164-401b-9a24-65daa1367e22"},"vehicle_type_id":"4","last_reported":1752246671,"current_range_meters":21600,"station_id":"","pricing_plan_id":"cebpf4jnsgd1na2vs0mg"},{"bike_id":"9d0d85e3-ee19-452d-93c5-fbfc98a09acf","system_id":"levelo_inurba_marseille","lat":43.29506,"lon":5.43849,"is_reserved":false,"is_disabled":false,"rental_uris":{"android":"levelo://app?vid=9d0d85e3-ee19-452d-93c5-fbfc98a09acf","ios":"levelo://app?vid=9d0d85e3-ee19-452d-93c5-fbfc98a09acf"},"vehicle_type_id":"4","last_reported":1752246671,"current_range_meters":21600,"station_id":"","pricing_plan_id":"cebpf4jnsgd1na2vs0mg"},{"bike_id":"a4d66d7e-cdb4-4449-86b7-fe1d7a8e2383","system_id":"levelo_inurba_marseille","lat":43.28477,"lon":5.3841,"is_reserved":false,"is_disabled":false,"rental_uris":{"android":"levelo://app?vid=a4d66d7e-cdb4-4449-86b7-fe1d7a8e2383","ios":"levelo://app?vid=a4d66d7e-cdb4-4449-86b7-fe1d7a8e2383"},"vehicle_type_id":"4","last_reported":1752246671,"current_range_meters":20800,"station_id":"ce4bh512rcd13ifvqe3g","pricing_plan_id":"cebpf4jnsgd1na2vs0mg"},{"bike_id":"3b01ca06-dddd-4fb8-9a58-9c5783c1e24c","system_id":"levelo_inurba_marseille","lat":43.26279,"lon":5.37499,"is_reserved":false,"is_disabled":false,"rental_uris":{"android":"levelo://app?vid=3b01ca06-dddd-4fb8-9a58-9c5783c1e24c","ios":"levelo://app?vid=3b01ca06-dddd-4fb8-9a58-9c5783c1e24c"},"vehicle_type_id":"4","last_reported":1752246671,"current_range_meters":22000,"station_id":"","pricing_plan_id":"cebpf4jnsgd1na2vs0mg"},{"bike_id":"72b39aad-c91e-4545-8fe5-aa395b7d62ba","system_id":"levelo_inurba_marseille","lat":43.31932,"lon":5.37619,"is_reserved":false,"is_disabled":false,"rental_uris":{"android":"levelo://app?vid=72b39aad-c91e-4545-8fe5-aa395b7d62ba","ios":"levelo://app?vid=72b39aad-c91e-4545-8fe5-aa395b7d62ba"},"vehicle_type_id":"4","last_reported":1752246671,"current_range_meters":22000,"station_id":"","pricing_plan_id":"cebpf4jnsgd1na2vs0mg"},{"bike_id":"77a05936-7306-4978-9fa6-1f5f0693d64e","system_id":"levelo_inurba_marseille","lat":43.27969,"lon":5.38728,"is_reserved":false,"is_disabled":false,"rental_uris":{"android":"levelo://app?vid=77a05936-7306-4978-9fa6-1f5f0693d64e","ios":"levelo://app?vid=77a05936-7306-4978-9fa6-1f5f0693d64e"},"vehicle_type_id":"4","last_reported":1752246671,"current_range_meters":22000,"station_id":"ce4bhg12rcd13ifvqf80","pricing_plan_id":"cebpf4jnsgd1na2vs0mg"},{"bike_id":"64b5aef6-e300-41a9-a308-e78c5106a024","system_id":"levelo_inurba_marseille","lat":43.314453,"lon":5.380012,"is_reserved":false,"is_disabled":false,"rental_uris":{"android":"levelo://app?vid=64b5aef6-e300-41a9-a308-e78c5106a024","ios":"levelo://app?vid=64b5aef6-e300-41a9-a308-e78c5106a024"},"vehicle_type_id":"4","last_reported":1752246671,"current_range_meters":22000,"station_id":"ce4bhsp2rcd13ifvqi50","pricing_plan_id":"cebpf4jnsgd1na2vs0mg"},{"bike_id":"fca7f33a-4f3d-44ac-bf6b-be967adaabdb","system_id":"levelo_inurba_marseille","lat":43.24106,"lon":5.37802,"is_reserved":false,"is_disabled":false,"rental_uris":{"android":"levelo://app?vid=fca7f33a-4f3d-44ac-bf6b-be967adaabdb","ios":"levelo://app?vid=fca7f33a-4f3d-44ac-bf6b-be967adaabdb"},"vehicle_type_id":"4","last_reported":1752246671,"current_range_meters":22000,"station_id":"","pricing_plan_id":"cebpf4jnsgd1na2vs0mg"},{"bike_id":"1cef150b-b548-4c02-ad02-bbeb0cc85422","system_id":"levelo_inurba_marseille","lat":43.24806,"lon":5.37454,"is_reserved":false,"is_disabled":false,"rental_uris":{"android":"levelo://app?vid=1cef150b-b548-4c02-ad02-bbeb0cc85422","ios":"levelo://app?vid=1cef150b-b548-4c02-ad02-bbeb0cc85422"},"vehicle_type_id":"4","last_reported":1752246671,"current_range_meters":22000,"station_id":"ce4bhgh2rcd13ifvqfb0","pricing_plan_id":"cebpf4jnsgd1na2vs0mg"},{"bike_id":"c5a39dec-666e-4b0f-bdf8-74f98f49d293","system_id":"levelo_inurba_marseille","lat":43.28644,"lon":5.35089,"is_reserved":false,"is_disabled":false,"rental_uris":{"android":"levelo://app?vid=c5a39dec-666e-4b0f-bdf8-74f98f49d293","ios":"levelo://app?vid=c5a39dec-666e-4b0f-bdf8-74f98f49d293"},"vehicle_type_id":"4","last_reported":1752246671,"current_range_meters":22000,"station_id":"ce4bhch2rcd13ifvqeug","pricing_plan_id":"cebpf4jnsgd1na2vs0mg"},{"bike_id":"37756193-4651-4746-ad81-6b3fb3765f98","system_id":"levelo_inurba_marseille","lat":43.30782,"lon":5.37641,"is_reserved":false,"is_disabled":false,"rental_uris":{"android":"levelo://app?vid=37756193-4651-4746-ad81-6b3fb3765f98","ios":"levelo://app?vid=37756193-4651-4746-ad81-6b3fb3765f98"},"vehicle_type_id":"4","last_reported":1752246671,"current_range_meters":22000,"station_id":"ce4bgv92rcd13ifvqcq0","pricing_plan_id":"cebpf4jnsgd1na2vs0mg"},{"bike_id":"bce21d09-f5ae-46e7-8ac0-0352d31c518b","system_id":"levelo_inurba_marseille","lat":43.28414,"lon":5.34983,"is_reserved":false,"is_disabled":false,"rental_uris":{"android":"levelo://app?vid=bce21d09-f5ae-46e7-8ac0-0352d31c518b","ios":"levelo://app?vid=bce21d09-f5ae-46e7-8ac0-0352d31c518b"},"vehicle_type_id":"4","last_reported":1752246671,"current_range_meters":22000,"station_id":"ce4bhbh2rcd13ifvqepg","pricing_plan_id":"cebpf4jnsgd1na2vs0mg"},{"bike_id":"b53a428f-9e90-4c7c-b648-a6899397945f","system_id":"levelo_inurba_marseille","lat":43.21208,"lon":5.35069,"is_reserved":false,"is_disabled":false,"rental_uris":{"android":"levelo://app?vid=b53a428f-9e90-4c7c-b648-a6899397945f","ios":"levelo://app?vid=b53a428f-9e90-4c7c-b648-a6899397945f"},"vehicle_type_id":"4","last_reported":1752246671,"current_range_meters":22000,"station_id":"st_cvj6sg6p6f1abm77japg","pricing_plan_id":"cebpf4jnsgd1na2vs0mg"},{"bike_id":"7fe29767-e513-4776-8a25-a941dad1ab77","system_id":"levelo_inurba_marseille","lat":43.24161,"lon":5.36413,"is_reserved":false,"is_disabled":false,"rental_uris":{"android":"levelo://app?vid=7fe29767-e513-4776-8a25-a941dad1ab77","ios":"levelo://app?vid=7fe29767-e513-4776-8a25-a941dad1ab77"},"vehicle_type_id":"4","last_reported":1752246671,"current_range_meters":22400,"station_id":"cpo36qri1sfpv3e86is0","pricing_plan_id":"cebpf4jnsgd1na2vs0mg"},{"bike_id":"38c2307b-bea1-4da8-960f-4813b14a040e","system_id":"levelo_inurba_marseille","lat":43.30416,"lon":5.41287,"is_reserved":false,"is_disabled":false,"rental_uris":{"android":"levelo://app?vid=38c2307b-bea1-4da8-960f-4813b14a040e","ios":"levelo://app?vid=38c2307b-bea1-4da8-960f-4813b14a040e"},"vehicle_type_id":"4","last_reported":1752246671,"current_range_meters":22000,"station_id":"ce4bhop2rcd13ifvqh8g","pricing_plan_id":"cebpf4jnsgd1na2vs0mg"},{"bike_id":"42311b77-f977-40dd-af62-fe0f0635eda7","system_id":"levelo_inurba_marseille","lat":43.28169,"lon":5.42639,"is_reserved":false,"is_disabled":false,"rental_uris":{"android":"levelo://app?vid=42311b77-f977-40dd-af62-fe0f0635eda7","ios":"levelo://app?vid=42311b77-f977-40dd-af62-fe0f0635eda7"},"vehicle_type_id":"4","last_reported":1752246671,"current_range_meters":22400,"station_id":"ce4bhnh2rcd13ifvqgug","pricing_plan_id":"cebpf4jnsgd1na2vs0mg"},{"bike_id":"ccf24e2d-ff7c-4cd2-8aeb-565c0d778591","system_id":"levelo_inurba_marseille","lat":43.241677,"lon":5.363965,"is_reserved":false,"is_disabled":false,"rental_uris":{"android":"levelo://app?vid=ccf24e2d-ff7c-4cd2-8aeb-565c0d778591","ios":"levelo://app?vid=ccf24e2d-ff7c-4cd2-8aeb-565c0d778591"},"vehicle_type_id":"4","last_reported":1752246671,"current_range_meters":22400,"station_id":"cpo36qri1sfpv3e86is0","pricing_plan_id":"cebpf4jnsgd1na2vs0mg"},