{"last_updated":1703783162,"ttl":30,"version":"2.2","data":{"bikes":[{"bike_id":"3fccaaab-9471-4842-a769-1e4294e097fe","system_id":"levelo_inurba_marseille","lat":43.312239,"lon":5.368562,"is_reserved":false,"is_disabled":false,"rental_uris":{"android":"levelo://app?vid=3fccaaab-9471-4842-a769-1e4294e097fe","ios":"levelo://app?vid=3fccaaab-9471-4842-a769-1e4294e097fe"},"vehicle_type_id":"4","last_reported":1703783162,"current_range_meters":10400,"station_id":"ce4bgl92rcd13ifvqbq0","pricing_plan_id":"free"},{"bike_id":"244483fa-90cf-4f53-8a78-9d20715bf1a9","system_id":"levelo_inurba_marseille","lat":43.309039,"lon":5.371797,"is_reserved":false,"is_disabled":false,"rental_uris":{"android":"levelo://app?vid=244483fa-90cf-4f53-8a78-9d20715bf1a9","ios":"levelo://app?vid=244483fa-90cf-4f53-8a78-9d20715bf1a9"},"vehicle_type_id":"4","last_reported":1703783162,"current_range_meters":28400,"station_id":"ce4bguh2rcd13ifvqckg","pricing_plan_id":"free"},{"bike_id":"2362a343-7d9b-4789-ac0c-86d65ad92c01","system_id":"levelo_inurba_marseille","lat":43.30898,"lon":5.3718,"is_reserved":false,"is_disabled":false,"rental_uris":{"android":"levelo://app?vid=2362a343-7d9b-4789-ac0c-86d65ad92c01","ios":"levelo://app?vid=2362a343-7d9b-4789-ac0c-86d65ad92c01"},"vehicle_type_id":"4","last_reported":1703783162,"current_range_meters":18400,"station_id":"ce4bguh2rcd13ifvqckg","pricing_plan_id":"free"},{"bike_id":"0501c5b4-cd76-48a6-90ee-ca6a51833e68","system_id":"levelo_inurba_marseille","lat":43.30676,"lon":5.36598,"is_reserved":false,"is_disabled":false,"rental_uris":{"android":"levelo://app?vid=0501c5b4-cd76-48a6-90ee-ca6a51833e68","ios":"levelo://app?vid=0501c5b4-cd76-48a6-90ee-ca6a51833e68"},"vehicle_type_id":"4","last_reported":1703783162,"current_range_meters":10400,"station_id":"","pricing_plan_id":"free"},{"bike_id":"e53a9163-4e5b-47fe-9556-01a0a159d6b4","system_id":"levelo_inurba_marseille","lat":43.318964,"lon":5.36877,"is_reserved":false,"is_disabled":false,"rental_uris":{"android":"levelo://app?vid=e53a9163-4e5b-47fe-9556-01a0a159d6b4","ios":"levelo://app?vid=e53a9163-4e5b-47fe-9556-01a0a159d6b4"},"vehicle_type_id":"4","last_reported":1703783162,"current_range_meters":3600,"station_id":"","pricing_plan_id":"free"},{"bike_id":"2bf1159c-4b34-4bc3-a8b5-156be571c011","system_id":"levelo_inurba_marseille","lat":43.308255,"lon":5.374038,"is_reserved":false,"is_disabled":false,"rental_uris":{"android":"levelo://app?vid=2bf1159c-4b34-4bc3-a8b5-156be571c011","ios":"levelo://app?vid=2bf1159c-4b34-4bc3-a8b5-156be571c011"},"vehicle_type_id":"4","last_reported":1703783162,"current_range_meters":27600,"station_id":"","pricing_plan_id":"free"},{"bike_id":"0e9aa791-93ae-4b3d-ada7-4166ecddcabf","system_id":"levelo_inurba_marseille","lat":43.30615,"lon":5.37214,"is_reserved":false,"is_disabled":false,"rental_uris":{"android":"levelo://app?vid=0e9aa791-93ae-4b3d-ada7-4166ecddcabf","ios":"levelo://app?vid=0e9aa791-93ae-4b3d-ada7-4166ecddcabf"},"vehicle_type_id":"4","last_reported":1703783162,"current_range_meters":12000,"station_id":"ce4bgqh2rcd13ifvqc4g","pricing_plan_id":"free"},{"bike_id":"196f44e1-e2f1-41c4-b2ea-b3d4cce9b434","system_id":"levelo_inurba_marseille","lat":43.305989,"lon":5.37225,"is_reserved":false,"is_disabled":false,"rental_uris":{"android":"levelo://app?vid=196f44e1-e2f1-41c4-b2ea-b3d4cce9b434","ios":"levelo://app?vid=196f44e1-e2f1-41c4-b2ea-b3d4cce9b434"},"vehicle_type_id":"4","last_reported":1703783162,"current_range_meters":26000,"station_id":"ce4bgqh2rcd13ifvqc4g","pricing_plan_id":"free"},{"bike_id":"66b9e368-0244-4281-812a-7e70138434ca","system_id":"levelo_inurba_marseille","lat":43.305989,"lon":5.37225,"is_reserved":false,"is_disabled":false,"rental_uris":{"android":"levelo://app?vid=66b9e368-0244-4281-812a-7e70138434ca","ios":"levelo://app?vid=66b9e368-0244-4281-812a-7e70138434ca"},"vehicle_type_id":"4","last_reported":1703783162,"current_range_meters":20400,"station_id":"ce4bgqh2rcd13ifvqc4g","pricing_plan_id":"free"},{"bike_id":"6b2732e9-3b9d-40c9-905c-20f63940ba78","system_id":"levelo_inurba_marseille","lat":43.311125,"lon":5.377624,"is_reserved":false,"is_disabled":false,"rental_uris":{"android":"levelo://app?vid=6b2732e9-3b9d-40c9-905c-20f63940ba78","ios":"levelo://app?vid=6b2732e9-3b9d-40c9-905c-20f63940ba78"},"vehicle_type_id":"4","last_reported":1703783162,"current_range_meters":20800,"station_id":"ce4bgt92rcd13ifvqcg0","pricing_plan_id":"free"},{"bike_id":"169e0d7d-4534-4363-b840-1c9af06f9e58","system_id":"levelo_inurba_marseille","lat":43.311125,"lon":5.377624,"is_reserved":false,"is_disabled":false,"rental_uris":{"android":"levelo://app?vid=169e0d7d-4534-4363-b840-1c9af06f9e58","ios":"levelo://app?vid=169e0d7d-4534-4363-b840-1c9af06f9e58"},"vehicle_type_id":"4","last_reported":1703783162,"current_range_meters":14000,"station_id":"ce4bgt92rcd13ifvqcg0","pricing_plan_id":"free"},{"bike_id":"0779b298-b88a-4c4e-8ba7-9330f6af6f0d","system_id":"levelo_inurba_marseille","lat":43.307945,"lon":5.376487,"is_reserved":false,"is_disabled":false,"rental_uris":{"android":"levelo://app?vid=0779b298-b88a-4c4e-8ba7-9330f6af6f0d","ios":"levelo://app?vid=0779b298-b88a-4c4e-8ba7-9330f6af6f0d"},"vehicle_type_id":"4","last_reported":1703783162,"current_range_meters":26400,"station_id":"ce4bgv92rcd13ifvqcq0","pricing_plan_id":"free"},{"bike_id":"aa4796d7-3a4e-4cb7-8205-a4f17e9eeb58","system_id":"levelo_inurba_marseille","lat":43.317075,"lon":5.377367,"is_reserved":false,"is_disabled":false,"rental_uris":{"android":"levelo://app?vid=aa4796d7-3a4e-4cb7-8205-a4f17e9eeb58","ios":"levelo://app?vid=aa4796d7-3a4e-4cb7-8205-a4f17e9eeb58"},"vehicle_type_id":"4","last_reported":1703783162,"current_range_meters":28000,"station_id":"ce4bgth2rcd13ifvqch0","pricing_plan_id":"free"},{"bike_id":"79c8d0ac-657b-4390-9f5f-d94397b3cd94","system_id":"levelo_inurba_marseille","lat":43.30304,"lon":5.368987,"is_reserved":false,"is_disabled":false,"rental_uris":{"android":"levelo://app?vid=79c8d0ac-657b-4390-9f5f-d94397b3cd94","ios":"levelo://app?vid=79c8d0ac-657b-4390-9f5f-d94397b3cd94"},"vehicle_type_id":"4","last_reported":1703783162,"current_range_meters":18000,"station_id":"ce4bgqh2rcd13ifvqc5g","pricing_plan_id":"free"},{"bike_id":"8d295fcf-ca65-4d4a-824d-325e4809375d","system_id":"levelo_inurba_marseille","lat":43.30304,"lon":5.368987,"is_reserved":false,"is_disabled":false,"rental_uris":{"android":"levelo://app?vid=8d295fcf-ca65-4d4a-824d-325e4809375d","ios":"levelo://app?vid=8d295fcf-ca65-4d4a-824d-325e4809375d"},"vehicle_type_id":"4","last_reported":1703783162,"current_range_meters":16400,"station_id":"ce4bgqh2rcd13ifvqc5g","pricing_plan_id":"free"},{"bike_id":"65a7d136-99e5-4eda-8dd9-8c128dc8f4fe","system_id":"levelo_inurba_marseille","lat":43.324771,"lon":5.36557,"is_reserved":false,"is_disabled":false,"rental_uris":{"android":"levelo://app?vid=65a7d136-99e5-4eda-8dd9-8c128dc8f4fe","ios":"levelo://app?vid=65a7d136-99e5-4eda-8dd9-8c128dc8f4fe"},"vehicle_type_id":"4","last_reported":1703783162,"current_range_meters":23200,"station_id":"ce4bhs12rcd13ifvqhvg","pricing_plan_id":"free"},{"bike_id":"65a5bc48-fdb7-4909-98ac-a83f0d971e40","system_id":"levelo_inurba_marseille","lat":43.324771,"lon":5.36557,"is_reserved":false,"is_disabled":false,"rental_uris":{"android":"levelo://app?vid=65a5bc48-fdb7-4909-98ac-a83f0d971e40","ios":"levelo://app?vid=65a5bc48-fdb7-4909-98ac-a83f0d971e40"},"vehicle_type_id":"4","last_reported":1703783162,"current_range_meters":14800,"station_id":"ce4bhs12rcd13ifvqhvg","pricing_plan_id":"free"},{"bike_id":"5810a51d-900e-4f21-b011-504985336ccb","system_id":"levelo_inurba_marseille","lat":43.324771,"lon":5.36557,"is_reserved":false,"is_disabled":false,"rental_uris":{"android":"levelo://app?vid=5810a51d-900e-4f21-b011-504985336ccb","ios":"levelo://app?vid=5810a51d-900e-4f21-b011-504985336ccb"},"vehicle_type_id":"4","last_reported":1703783162,"current_range_meters":17200,"station_id":"ce4bhs12rcd13ifvqhvg","pricing_plan_id":"free"},{"bike_id":"eb75f652-373e-4726-9e33-c05a085e4a2d","system_id":"levelo_inurba_marseille","lat":43.301453,"lon":5.37416,"is_reserved":false,"is_disabled":false,"rental_uris":{"android":"levelo://app?vid=eb75f652-373e-4726-9e33-c05a085e4a2d","ios":"levelo://app?vid=eb75f652-373e-4726-9e33-c05a085e4a2d"},"vehicle_type_id":"4","last_reported":1703783162,"current_range_meters":5200,"station_id":"","pricing_plan_id":"free"},{"bike_id":"9f56e768-708e-4f3b-9665-77b378da46d8","system_id":"levelo_inurba_marseille","lat":43.319935,"lon":5.381699,"is_reserved":false,"is_disabled":false,"rental_uris":{"android":"levelo://app?vid=9f56e768-708e-4f3b-9665-77b378da46d8","ios":"levelo://app?vid=9f56e768-708e-4f3b-9665-77b378da46d8"},"vehicle_type_id":"4","last_reported":1703783162,"current_range_meters":16800,"station_id":"ce4bhr12rcd13ifvqhpg","pricing_plan_id":"free"},{"bike_id":"489efb97-6469-4c5c-b718-7660c1202bfd","system_id":"levelo_inurba_marseille","lat":43.319935,"lon":5.381699,"is_reserved":false,"is_disabled":false,"rental_uris":{"android":"levelo://app?vid=489efb97-6469-4c5c-b718-7660c1202bfd","ios":"levelo://app?vid=489efb97-6469-4c5c-b718-7660c1202bfd"},"vehicle_type_id":"4","last_reported":1703783162,"current_range_meters":11600,"station_id":"ce4bhr12rcd13ifvqhpg","pricing_plan_id":"free"},{"bike_id":"5e56827d-c152-4ecd-a38a-84eba3dbf8c2","system_id":"levelo_inurba_marseille","lat":43.319935,"lon":5.381699,"is_reserved":false,"is_disabled":false,"rental_uris":{"android":"levelo://app?vid=5e56827d-c152-4ecd-a38a-84eba3dbf8c2","ios":"levelo://app?vid=5e56827d-c152-4ecd-a38a-84eba3dbf8c2"},"vehicle_type_id":"4","last_reported":1703783162,"current_range_meters":25600,"station_id":"ce4bhr12rcd13ifvqhpg","pricing_plan_id":"free"},{"bike_id":"990a5cce-64ae-4b14-b861-dfa123114d7c","system_id":"levelo_inurba_marseille","lat":43.319935,"lon":5.381699,"is_reserved":false,"is_disabled":false,"rental_uris":{"android":"levelo://app?vid=990a5cce-64ae-4b14-b861-dfa123114d7c","ios":"levelo://app?vid=990a5cce-64ae-4b14-b861-dfa123114d7c"},"vehicle_type_id":"4","last_reported":1703783162,"current_range_meters":400,"station_id":"ce4bhr12rcd13ifvqhpg","pricing_plan_id":"free"},{"bike_id":"888a4ad6-7e75-40f0-add7-09f38a533c02","system_id":"levelo_inurba_marseille","lat":43.319935,"lon":5.381699,"is_reserved":false,"is_disabled":false,"rental_uris":{"android":"levelo://app?vid=888a4ad6-7e75-40f0-add7-09f38a533c02","ios":"levelo://app?vid=888a4ad6-7e75-40f0-add7-09f38a533c02"},"vehicle_type_id":"4","last_reported":1703783162,"current_range_meters":25200,"station_id":"ce4bhr12rcd13ifvqhpg","pricing_plan_id":"free"},{"bike_id":"d798eee3-c9cd-4e09-a137-162e27e1625e","system_id":"levelo_inurba_marseille","lat":43.319935,"lon":5.381699,"is_reserved":false,"is_disabled":false,"rental_uris":{"android":"levelo://app?vid=d798eee3-c9cd-4e09-a137-162e27e1625e","ios":"levelo://app?vid=d798eee3-c9cd-4e09-a137-162e27e1625e"},"vehicle_type_id":"4","last_reported":1703783162,"current_range_meters":25600,"station_id":"ce4bhr12rcd13ifvqhpg","pricing_plan_id":"free"},{"bike_id":"2b1c39f2-1f97-43aa-bb86-c830b8fa0204","system_id":"levelo_inurba_marseille","lat":43.313571,"lon":5.384829,"is_reserved":false,"is_disabled":false,"rental_uris":{"android":"levelo://app?vid=2b1c39f2-1f97-43aa-bb86-c830b8fa0204","ios":"levelo://app?vid=2b1c39f2-1f97-43aa-bb86-c830b8fa0204"},"vehicle_type_id":"4","last_reported":1703783162,"current_range_meters":23600,"station_id":"ce4bgt92rcd13ifvqcf0","pricing_plan_id":"free"},{"bike_id":"f744bf5d-2f47-4c42-aa17-0f96fde9dd1c","system_id":"levelo_inurba_marseille","lat":43.313571,"lon":5.384829,"is_reserved":false,"is_disabled":false,"rental_uris":{"android":"levelo://app?vid=f744bf5d-2f47-4c42-aa17-0f96fde9dd1c","ios":"levelo://app?vid=f744bf5d-2f47-4c42-aa17-0f96fde9dd1c"},"vehicle_type_id":"4","last_reported":1703783162,"current_range_meters":4800,"station_id":"ce4bgt92rcd13ifvqcf0","pricing_plan_id":"free"},{"bike_id":"2bafabbe-ecb7-41e3-853f-f9a51c683dd3","system_id":"levelo_inurba_marseille","lat":43.32612,"lon":5.36113,"is_reserved":false,"is_disabled":false,"rental_uris":{"android":"levelo://app?vid=2bafabbe-ecb7-41e3-853f-f9a51c683dd3","ios":"levelo://app?vid=2bafabbe-ecb7-41e3-853f-f9a51c683dd3"},"vehicle_type_id":"4","last_reported":1703783162,"current_range_meters":18000,"station_id":"","pricing_plan_id":"free"},{"bike_id":"46dc423c-2f39-4aae-b79d-f3fe276cdb21","system_id":"levelo_inurba_marseille","lat":43.298433,"lon":5.362774,"is_reserved":false,"is_disabled":false,"rental_uris":{"android":"levelo://app?vid=46dc423c-2f39-4aae-b79d-f3fe276cdb21","ios":"levelo://app?vid=46dc423c-2f39-4aae-b79d-f3fe276cdb21"},"vehicle_type_id":"4","last_reported":1703783162,"current_range_meters":28000,"station_id":"ce4bgpp2rcd13ifvqc3g","pricing_plan_id":"free"},{"bike_id":"c39fe576-53fd-4bb6-b3e5-b176bc89908c","system_id":"levelo_inurba_marseille","lat":43.311722,"lon":5.387247,"is_reserved":false,"is_disabled":false,"rental_uris":{"android":"levelo://app?vid=c39fe576-53fd-4bb6-b3e5-b176bc89908c","ios":"levelo://app?vid=c39fe576-53fd-4bb6-b3e5-b176bc89908c"},"vehicle_type_id":"4","last_reported":1703783162,"current_range_meters":25600,"station_id":"ce4bgv12rcd13ifvqcp0","pricing_plan_id":"free"},{"bike_id":"d58c0707-1282-49db-a90c-f77a2e7e3b2e","system_id":"levelo_inurba_marseille","lat":43.311722,"lon":5.387247,"is_reserved":false,"is_disabled":false,"rental_uris":{"android":"levelo://app?vid=d58c0707-1282-49db-a90c-f77a2e7e3b2e","ios":"levelo://app?vid=d58c0707-1282-49db-a90c-f77a2e7e3b2e"},"vehicle_type_id":"4","last_reported":1703783162,"current_range_meters":29200,"station_id":"ce4bgv12rcd13ifvqcp0","pricing_plan_id":"free"},{"bike_id":"3270f28d-7b09-46cb-ba43-f40752fc3385","system_id":"levelo_inurba_marseille","lat":43.322872,"lon":5.382756,"is_reserved":false,"is_disabled":false,"rental_uris":{"android":"levelo://app?vid=3270f28d-7b09-46cb-ba43-f40752fc3385","ios":"levelo://app?vid=3270f28d-7b09-46cb-ba43-f40752fc3385"},"vehicle_type_id":"4","last_reported":1703783162,"current_range_meters":31200,"station_id":"ce4bhr12rcd13ifvqhqg","pricing_plan_id":"free"},{"bike_id":"5c89eee7-6e83-42b4-bd81-efdcf68f6666","system_id":"levelo_inurba_marseille","lat":43.32824,"lon":5.36683,"is_reserved":false,"is_disabled":false,"rental_uris":{"android":"levelo://app?vid=5c89eee7-6e83-42b4-bd81-efdcf68f6666","ios":"levelo://app?vid=5c89eee7-6e83-42b4-bd81-efdcf68f6666"},"vehicle_type_id":"4","last_reported":1703783162,"current_range_meters":27200,"station_id":"ce4bhs92rcd13ifvqi0g","pricing_plan_id":"free"},{"bike_id":"639980c6-9f73-401a-b944-961e7482aee9","system_id":"levelo_inurba_marseille","lat":43.32826,"lon":5.36682,"is_reserved":false,"is_disabled":false,"rental_uris":{"android":"levelo://app?vid=639980c6-9f73-401a-b944-961e7482aee9","ios":"levelo://app?vid=639980c6-9f73-401a-b944-961e7482aee9"},"vehicle_type_id":"4","last_reported":1703783162,"current_range_meters":6000,"station_id":"ce4bhs92rcd13ifvqi0g","pricing_plan_id":"free"},{"bike_id":"1ea82e61-37ea-4b15-a6ef-01d29683b9fd","system_id":"levelo_inurba_marseille","lat":43.32827,"lon":5.36674,"is_reserved":false,"is_disabled":false,"rental_uris":{"android":"levelo://app?vid=1ea82e61-37ea-4b15-a6ef-01d29683b9fd","ios":"levelo://app?vid=1ea82e61-37ea-4b15-a6ef-01d29683b9fd"},"vehicle_type_id":"4","last_reported":1703783162,"current_range_meters":20400,"station_id":"ce4bhs92rcd13ifvqi0g","pricing_plan_id":"free"},{"bike_id":"b30b3d1b-ef61-4776-bd7b-61c34fd8cc81","system_id":"levelo_inurba_marseille","lat":43.328276,"lon":5.366812,"is_reserved":false,"is_disabled":false,"rental_uris":{"android":"levelo://app?vid=b30b3d1b-ef61-4776-bd7b-61c34fd8cc81","ios":"levelo://app?vid=b30b3d1b-ef61-4776-bd7b-61c34fd8cc81"},"vehicle_type_id":"4","last_reported":1703783162,"current_range_meters":18000,"station_id":"ce4bhs92rcd13ifvqi0g","pricing_plan_id":"free"},{"bike_id":"a677cd10-a09b-4b2e-bffd-45b05d2c9229","system_id":"levelo_inurba_marseille","lat":43.32828,"lon":5.36679,"is_reserved":false,"is_disabled":false,"rental_uris":{"android":"levelo://app?vid=a677cd10-a09b-4b2e-bffd-45b05d2c9229","ios":"levelo://app?vid=a677cd10-a09b-4b2e-bffd-45b05d2c9229"},"vehicle_type_id":"4","last_reported":1703783162,"current_range_meters":24800,"station_id":"ce4bhs92rcd13ifvqi0g","pricing_plan_id":"free"},{"bike_id":"51714c4a-3132-4951-88ec-80e85fa125e8","system_id":"levelo_inurba_marseille","lat":43.328287,"lon":5.366892,"is_reserved":false,"is_disabled":false,"rental_uris":{"android":"levelo://app?vid=51714c4a-3132-4951-88ec-80e85fa125e8","ios":"levelo://app?vid=51714c4a-3132-4951-88ec-80e85fa125e8"},"vehicle_type_id":"4","last_reported":1703783162,"current_range_meters":18400,"station_id":"ce4bhs92rcd13ifvqi0g","pricing_plan_id":"free"},{"bike_id":"de708f00-7118-4d7c-9021-d7dcbd798473","system_id":"levelo_inurba_marseille","lat":43.328371,"lon":5.366909,"is_reserved":false,"is_disabled":false,"rental_uris":{"android":"levelo://app?vid=de708f00-7118-4d7c-9021-d7dcbd798473","ios":"levelo://app?vid=de708f00-7118-4d7c-9021-d7dcbd798473"},"vehicle_type_id":"4","last_reported":1703783162,"current_range_meters":14800,"station_id":"ce4bhs92rcd13ifvqi0g","pricing_plan_id":"free"},{"bike_id":"904f83aa-e9ab-401d-84c1-9edfed82b884","system_id":"levelo_inurba_marseille","lat":43.328371,"lon":5.366912,"is_reserved":false,"is_disabled":false,"rental_uris":{"android":"levelo://app?vid=904f83aa-e9ab-401d-84c1-9edfed82b884","ios":"levelo://app?vid=904f83aa-e9ab-401d-84c1-9edfed82b884"},"vehicle_type_id":"4","last_reported":1703783162,"current_range_meters":9200,"station_id":"ce4bhs92rcd13ifvqi0g","pricing_plan_id":"free"},{"bike_id":"ea7074d7-b7c9-4941-82c2-dff391bae9cb","system_id":"levelo_inurba_marseille","lat":43.32831,"lon":5.36675,"is_reserved":false,"is_disabled":false,"rental_uris":{"android":"levelo://app?vid=ea7074d7-b7c9-4941-82c2-dff391bae9cb","ios":"levelo://app?vid=ea7074d7-b7c9-4941-82c2-dff391bae9cb"},"vehicle_type_id":"4","last_reported":1703783162,"current_range_meters":14400,"station_id":"ce4bhs92rcd13ifvqi0g","pricing_plan_id":"free"},{"bike_id":"ddee1e46-a8ad-4997-9dc5-136753741280","system_id":"levelo_inurba_marseille","lat":43.328317,"lon":5.366739,"is_reserved":false,"is_disabled":false,"rental_uris":{"android":"levelo://app?vid=ddee1e46-a8ad-4997-9dc5-136753741280","ios":"levelo://app?vid=ddee1e46-a8ad-4997-9dc5-136753741280"},"vehicle_type_id":"4","last_reported":1703783162,"current_range_meters":25600,"station_id":"ce4bhs92rcd13ifvqi0g","pricing_plan_id":"free"},{"bike_id":"b33e79d7-85bd-413c-801b-bcd1df69d847","system_id":"levelo_inurba_marseille","lat":43.328318,"lon":5.36678,"is_reserved":false,"is_disabled":false,"rental_uris":{"android":"levelo://app?vid=b33e79d7-85bd-413c-801b-bcd1df69d847","ios":"levelo://app?vid=b33e79d7-85bd-413c-801b-bcd1df69d847"},"vehicle_type_id":"4","last_reported":1703783162,"current_range_meters":15600,"station_id":"ce4bhs92rcd13ifvqi0g","pricing_plan_id":"free"},{"bike_id":"6f67326a-1664-406f-9978-902e013e2357","system_id":"levelo_inurba_marseille","lat":43.32832,"lon":5.36679,"is_reserved":false,"is_disabled":false,"rental_uris":{"android":"levelo://app?vid=6f67326a-1664-406f-9978-902e013e2357","ios":"levelo://app?vid=6f67326a-1664-406f-9978-902e013e2357"},"vehicle_type_id":"4","last_reported":1703783162,"current_range_meters":22800,"station_id":"ce4bhs92rcd13ifvqi0g","pricing_plan_id":"free"},{"bike_id":"a448ca86-2b35-41e1-89c4-32a99bab0563","system_id":"levelo_inurba_marseille","lat":43.328371,"lon":5.366912,"is_reserved":false,"is_disabled":false,"rental_uris":{"android":"levelo://app?vid=a448ca86-2b35-41e1-89c4-32a99bab0563","ios":"levelo://app?vid=a448ca86-2b35-41e1-89c4-32a99bab0563"},"vehicle_type_id":"4","last_reported":1703783162,"current_range_meters":23200,"station_id":"ce4bhs92rcd13ifvqi0g","pricing_plan_id":"free"},{"bike_id":"a7dc6d68-c1ff-4c40-8bb3-b3ac04a22134","system_id":"levelo_inurba_marseille","lat":43.297163,"lon":5.365866,"is_reserved":false,"is_disabled":false,"rental_uris":{"android":"levelo://app?vid=a7dc6d68-c1ff-4c40-8bb3-b3ac04a22134","ios":"levelo://app?vid=a7dc6d68-c1ff-4c40-8bb3-b3ac04a22134"},"vehicle_type_id":"4","last_reported":1703783162,"current_range_meters":22800,"station_id":"ce4bgn12rcd13ifvqbt0","pricing_plan_id":"free"},{"bike_id":"370cccf7-c9ba-46c2-819b-c8e8cacc4c21","system_id":"levelo_inurba_marseille","lat":43.3277,"lon":5.37458,"is_reserved":false,"is_disabled":false,"rental_uris":{"android":"levelo://app?vid=370cccf7-c9ba-46c2-819b-c8e8cacc4c21","ios":"levelo://app?vid=370cccf7-c9ba-46c2-819b-c8e8cacc4c21"},"vehicle_type_id":"4","last_reported":1703783162,"current_range_meters":17600,"station_id":"","pricing_plan_id":"free"},{"bike_id":"921b424d-ad0d-4c7a-9d74-66e3a49bfa19","system_id":"levelo_inurba_marseille","lat":43.32934,"lon":5.36612,"is_reserved":false,"is_disabled":false,"rental_uris":{"android":"levelo://app?vid=921b424d-ad0d-4c7a-9d74-66e3a49bfa19","ios":"levelo://app?vid=921b424d-ad0d-4c7a-9d74-66e3a49bfa19"},"vehicle_type_id":"4","last_reported":1703783162,"current_range_meters":12800,"station_id":"","pricing_plan_id":"free"},{"bike_id":"ce90d88f-6707-454e-bf92-05a9f2024cbf","system_id":"levelo_inurba_marseille","lat":43.296129,"lon":5.370777,"is_reserved":false,"is_disabled":false,"rental_uris":{"android":"levelo://app?vid=ce90d88f-6707-454e-bf92-05a9f2024cbf","ios":"levelo://app?vid=ce90d88f-6707-454e-bf92-05a9f2024cbf"},"vehicle_type_id":"4","last_reported":1703783162,"current_range_meters":21600,"station_id":"ce4bgnh2rcd13ifvqc0g","pricing_plan_id":"free"},{"bike_id":"a6f0594c-f653-479c-8b66-1ca32ff3848a","system_id":"levelo_inurba_marseille","lat":43.309589,"lon":5.390258,"is_reserved":false,"is_disabled":false,"rental_uris":{"android":"levelo://app?vid=a6f0594c-f653-479c-8b66-1ca32ff3848a","ios":"levelo://app?vid=a6f0594c-f653-479c-8b66-1ca32ff3848a"},"vehicle_type_id":"4","last_reported":1703783162,"current_range_meters":9200,"station_id":"ce4bgup2rcd13ifvqco0","pricing_plan_id":"free"},{"bike_id":"c610085b-70a4-4416-b223-5df513def042","system_id":"levelo_inurba_marseille","lat":43.299028,"lon":5.381509,"is_reserved":false,"is_disabled":false,"rental_uris":{"android":"levelo://app?vid=c610085b-70a4-4416-b223-5df513def042","ios":"levelo://app?vid=c610085b-70a4-4416-b223-5df513def042"},"vehicle_type_id":"4","last_reported":1703783162,"current_range_meters":21200,"station_id":"ce4bgj12rcd13ifvqbc0","pricing_plan_id":"free"},{"bike_id":"aa03daeb-fa6a-4404-9d90-5b1bb2ebebd3","system_id":"levelo_inurba_marseille","lat":43.317557,"lon":5.390173,"is_reserved":false,"is_disabled":false,"rental_uris":{"android":"levelo://app?vid=aa03daeb-fa6a-4404-9d90-5b1bb2ebebd3","ios":"levelo://app?vid=aa03daeb-fa6a-4404-9d90-5b1bb2ebebd3"},"vehicle_type_id":"4","last_reported":1703783162,"current_range_meters":12800,"station_id":"ce4bhqp2rcd13ifvqhng","pricing_plan_id":"free"},{"bike_id":"25127400-6dd4-4d43-9149-ca2a1be78e67","system_id":"levelo_inurba_marseille","lat":43.295748,"lon":5.37522,"is_reserved":false,"is_disabled":false,"rental_uris":{"android":"levelo://app?vid=25127400-6dd4-4d43-9149-ca2a1be78e67","ios":"levelo://app?vid=25127400-6dd4-4d43-9149-ca2a1be78e67"},"vehicle_type_id":"4","last_reported":1703783162,"current_range_meters":18800,"station_id":"ce4bgh92rcd13ifvqb50","pricing_plan_id":"free"},{"bike_id":"ee65d979-c7cb-45a7-a65c-10440e9e6e96","system_id":"levelo_inurba_marseille","lat":43.295748,"lon":5.37522,"is_reserved":false,"is_disabled":false,"rental_uris":{"android":"levelo://app?vid=ee65d979-c7cb-45a7-a65c-10440e9e6e96","ios":"levelo://app?vid=ee65d979-c7cb-45a7-a65c-10440e9e6e96"},"vehicle_type_id":"4","last_reported":1703783162,"current_range_meters":16000,"station_id":"ce4bgh92rcd13ifvqb50","pricing_plan_id":"free"},{"bike_id":"b9b92f66-3ff0-461e-8273-be60eb66c7c9","system_id":"levelo_inurba_marseille","lat":43.298037,"lon":5.381066,"is_reserved":false,"is_disabled":false,"rental_uris":{"android":"levelo://app?vid=b9b92f66-3ff0-461e-8273-be60eb66c7c9","ios":"levelo://app?vid=b9b92f66-3ff0-461e-8273-be60eb66c7c9"},"vehicle_type_id":"4","last_reported":1703783162,"current_range_meters":12000,"station_id":"ce4bgip2rcd13ifvqbb0","pricing_plan_id":"free"},{"bike_id":"7119845d-00aa-4d9f-be8c-fc97d41f1380","system_id":"levelo_inurba_marseille","lat":43.297594,"lon":5.381134,"is_reserved":false,"is_disabled":false,"rental_uris":{"android":"levelo://app?vid=7119845d-00aa-4d9f-be8c-fc97d41f1380","ios":"levelo://app?vid=7119845d-00aa-4d9f-be8c-fc97d41f1380"},"vehicle_type_id":"4","last_reported":1703783162,"current_range_meters":22800,"station_id":"ce4bgip2rcd13ifvqbb0","pricing_plan_id":"free"},{"bike_id":"69218c1d-7315-4898-aa78-149912364cb5","system_id":"levelo_inurba_marseille","lat":43.299724,"lon":5.384848,"is_reserved":false,"is_disabled":false,"rental_uris":{"android":"levelo://app?vid=69218c1d-7315-4898-aa78-149912364cb5","ios":"levelo://app?vid=69218c1d-7315-4898-aa78-149912364cb5"},"vehicle_type_id":"4","last_reported":1703783162,"current_range_meters":14800,"station_id":"ce4bgj92rcd13ifvqbd0","pricing_plan_id":"free"},{"bike_id":"f87ba74e-a945-485b-a58a-e9829c9217cb","system_id":"levelo_inurba_marseille","lat":43.29607,"lon":5.38103,"is_reserved":false,"is_disabled":false,"rental_uris":{"android":"levelo://app?vid=f87ba74e-a945-485b-a58a-e9829c9217cb","ios":"levelo://app?vid=f87ba74e-a945-485b-a58a-e9829c9217cb"},"vehicle_type_id":"4","last_reported":1703783162,"current_range_meters":6400,"station_id":"ce4bgl12rcd13ifvqbo0","pricing_plan_id":"free"},{"bike_id":"1198037a-266b-4336-bd1f-3048ceacddff","system_id":"levelo_inurba_marseille","lat":43.29601,"lon":5.381084,"is_reserved":false,"is_disabled":false,"rental_uris":{"android":"levelo://app?vid=1198037a-266b-4336-bd1f-3048ceacddff","ios":"levelo://app?vid=1198037a-266b-4336-bd1f-3048ceacddff"},"vehicle_type_id":"4","last_reported":1703783162,"current_range_meters":23600,"station_id":"ce4bgl12rcd13ifvqbo0","pricing_plan_id":"free"},{"bike_id":"d13bc51b-bb1a-4163-a92a-3295629459f2","system_id":"levelo_inurba_marseille","lat":43.29602,"lon":5.381084,"is_reserved":false,"is_disabled":false,"rental_uris":{"android":"levelo://app?vid=d13bc51b-bb1a-4163-a92a-3295629459f2","ios":"levelo://app?vid=d13bc51b-bb1a-4163-a92a-3295629459f2"},"vehicle_type_id":"4","last_reported":1703783162,"current_range_meters":22400,"station_id":"ce4bgl12rcd13ifvqbo0","pricing_plan_id":"free"},{"bike_id":"dedec7e1-561b-4b8c-9a03-fc7ef75cc1b8","system_id":"levelo_inurba_marseille","lat":43.300852,"lon":5.390859,"is_reserved":false,"is_disabled":false,"rental_uris":{"android":"levelo://app?vid=dedec7e1-561b-4b8c-9a03-fc7ef75cc1b8","ios":"levelo://app?vid=dedec7e1-561b-4b8c-9a03-fc7ef75cc1b8"},"vehicle_type_id":"4","last_reported":1703783162,"current_range_meters":28400,"station_id":"ce4bh192rcd13ifvqdb0","pricing_plan_id":"free"},{"bike_id":"6e5fead2-f0b4-48a3-8696-4da2914cab84","system_id":"levelo_inurba_marseille","lat":43.30085,"lon":5.390856,"is_reserved":false,"is_disabled":false,"rental_uris":{"android":"levelo://app?vid=6e5fead2-f0b4-48a3-8696-4da2914cab84","ios":"levelo://app?vid=6e5fead2-f0b4-48a3-8696-4da2914cab84"},"vehicle_type_id":"4","last_reported":1703783162,"current_range_meters":17600,"station_id":"ce4bh192rcd13ifvqdb0","pricing_plan_id":"free"},{"bike_id":"8165367e-e83d-4eb0-bb32-ca064051273e","system_id":"levelo_inurba_marseille","lat":43.291671,"lon":5.371575,"is_reserved":false,"is_disabled":false,"rental_uris":{"android":"levelo://app?vid=8165367e-e83d-4eb0-bb32-ca064051273e","ios":"levelo://app?vid=8165367e-e83d-4eb0-bb32-ca064051273e"},"vehicle_type_id":"4","last_reported":1703783162,"current_range_meters":14000,"station_id":"ce4bha92rcd13ifvqeh0","pricing_plan_id":"free"},{"bike_id":"b2873774-7dd7-470a-ae93-07a4d51c90db","system_id":"levelo_inurba_marseille","lat":43.29871,"lon":5.389,"is_reserved":false,"is_disabled":false,"rental_uris":{"android":"levelo://app?vid=b2873774-7dd7-470a-ae93-07a4d51c90db","ios":"levelo://app?vid=b2873774-7dd7-470a-ae93-07a4d51c90db"},"vehicle_type_id":"4","last_reported":1703783162,"current_range_meters":24000,"station_id":"","pricing_plan_id":"free"},{"bike_id":"c6712266-f422-4a48-baf1-2c0ea88edfb8","system_id":"levelo_inurba_marseille","lat":43.313291,"lon":5.396838,"is_reserved":false,"is_disabled":false,"rental_uris":{"android":"levelo://app?vid=c6712266-f422-4a48-baf1-2c0ea88edfb8","ios":"levelo://app?vid=c6712266-f422-4a48-baf1-2c0ea88edfb8"},"vehicle_type_id":"4","last_reported":1703783162,"current_range_meters":9200,"station_id":"ce4bgvp2rcd13ifvqcu0","pricing_plan_id":"free"},{"bike_id":"b3fd0650-80b2-4765-8eb2-996b467ca631","system_id":"levelo_inurba_marseille","lat":43.313291,"lon":5.396838,"is_reserved":false,"is_disabled":false,"rental_uris":{"android":"levelo://app?vid=b3fd0650-80b2-4765-8eb2-996b467ca631","ios":"levelo://app?vid=b3fd0650-80b2-4765-8eb2-996b467ca631"},"vehicle_type_id":"4","last_reported":1703783162,"current_range_meters":21200,"station_id":"ce4bgvp2rcd13ifvqcu0","pricing_plan_id":"free"},{"bike_id":"6cbef09d-a1d8-4a26-8cb8-79a5d0a4f485","system_id":"levelo_inurba_marseille","lat":43.313291,"lon":5.396838,"is_reserved":false,"is_disabled":false,"rental_uris":{"android":"levelo://app?vid=6cbef09d-a1d8-4a26-8cb8-79a5d0a4f485","ios":"levelo://app?vid=6cbef09d-a1d8-4a26-8cb8-79a5d0a4f485"},"vehicle_type_id":"4","last_reported":1703783162,"current_range_meters":10000,"station_id":"ce4bgvp2rcd13ifvqcu0","pricing_plan_id":"free"},{"bike_id":"cbfe2e34-e400-4e91-b3e8-a15df02c08bb","system_id":"levelo_inurba_marseille","lat":43.313291,"lon":5.396838,"is_reserved":false,"is_disabled":false,"rental_uris":{"android":"levelo://app?vid=cbfe2e34-e400-4e91-b3e8-a15df02c08bb","ios":"levelo://app?vid=cbfe2e34-e400-4e91-b3e8-a15df02c08bb"},"vehicle_type_id":"4","last_reported":1703783162,"current_range_meters":17200,"station_id":"ce4bgvp2rcd13ifvqcu0","pricing_plan_id":"free"},{"bike_id":"09667c18-27ed-4a48-a38e-43e2de26196f","system_id":"levelo_inurba_marseille","lat":43.309038,"lon":5.396546,"is_reserved":false,"is_disabled":false,"rental_uris":{"android":"levelo://app?vid=09667c18-27ed-4a48-a38e-43e2de26196f","ios":"levelo://app?vid=09667c18-27ed-4a48-a38e-43e2de26196f"},"vehicle_type_id":"4","last_reported":1703783162,"current_range_meters":17600,"station_id":"ce4bh012rcd13ifvqcv0","pricing_plan_id":"free"},{"bike_id":"b8f99e3d-5e83-4005-8697-c8771bf0eee8","system_id":"levelo_inurba_marseille","lat":43.313291,"lon":5.396838,"is_reserved":false,"is_disabled":false,"rental_uris":{"android":"levelo://app?vid=b8f99e3d-5e83-4005-8697-c8771bf0eee8","ios":"levelo://app?vid=b8f99e3d-5e83-4005-8697-c8771bf0eee8"},"vehicle_type_id":"4","last_reported":1703783162,"current_range_meters":13200,"station_id":"ce4bgvp2rcd13ifvqcu0","pricing_plan_id":"free"},{"bike_id":"327342c8-6177-4c26-bbbe-ff79dd842fd6","system_id":"levelo_inurba_marseille","lat":43.29531,"lon":5.38543,"is_reserved":false,"is_disabled":false,"rental_uris":{"android":"levelo://app?vid=327342c8-6177-4c26-bbbe-ff79dd842fd6","ios":"levelo://app?vid=327342c8-6177-4c26-bbbe-ff79dd842fd6"},"vehicle_type_id":"4","last_reported":1703783162,"current_range_meters":23200,"station_id":"","pricing_plan_id":"free"},{"bike_id":"67982e55-80fd-4bb7-bc39-3e2f68ec7ec3","system_id":"levelo_inurba_marseille","lat":43.29529,"lon":5.385581,"is_reserved":false,"is_disabled":false,"rental_uris":{"android":"levelo://app?vid=67982e55-80fd-4bb7-bc39-3e2f68ec7ec3","ios":"levelo://app?vid=67982e55-80fd-4bb7-bc39-3e2f68ec7ec3"},"vehicle_type_id":"4","last_reported":1703783162,"current_range_meters":24800,"station_id":"ce4bgih2rcd13ifvqba0","pricing_plan_id":"free"},{"bike_id":"c823f097-0b92-4353-81d0-b8611eb29a1c","system_id":"levelo_inurba_marseille","lat":43.290779,"lon":5.371482,"is_reserved":false,"is_disabled":false,"rental_uris":{"android":"levelo://app?vid=c823f097-0b92-4353-81d0-b8611eb29a1c","ios":"levelo://app?vid=c823f097-0b92-4353-81d0-b8611eb29a1c"},"vehicle_type_id":"4","last_reported":1703783162,"current_range_meters":28800,"station_id":"ce4bh5p2rcd13ifvqe4g","pricing_plan_id":"free"},{"bike_id":"c176710b-fe55-41a4-b096-d9aebb9d69ea","system_id":"levelo_inurba_marseille","lat":43.294162,"lon":5.386292,"is_reserved":false,"is_disabled":false,"rental_uris":{"android":"levelo://app?vid=c176710b-fe55-41a4-b096-d9aebb9d69ea","ios":"levelo://app?vid=c176710b-fe55-41a4-b096-d9aebb9d69ea"},"vehicle_type_id":"4","last_reported":1703783162,"current_range_meters":12400,"station_id":"ce4bh2h2rcd13ifvqdh0","pricing_plan_id":"free"},{"bike_id":"70f136bc-6a8d-4a15-b6d0-9a845dc27546","system_id":"levelo_inurba_marseille","lat":43.289184,"lon":5.366408,"is_reserved":false,"is_disabled":false,"rental_uris":{"android":"levelo://app?vid=70f136bc-6a8d-4a15-b6d0-9a845dc27546","ios":"levelo://app?vid=70f136bc-6a8d-4a15-b6d0-9a845dc27546"},"vehicle_type_id":"4","last_reported":1703783162,"current_range_meters":19600,"station_id":"ce4bhap2rcd13ifvqek0","pricing_plan_id":"free"},{"bike_id":"e3ec72a5-3eab-4d50-aab0-e4d1835e29a4","system_id":"levelo_inurba_marseille","lat":43.292644,"lon":5.384257,"is_reserved":false,"is_disabled":false,"rental_uris":{"android":"levelo://app?vid=e3ec72a5-3eab-4d50-aab0-e4d1835e29a4","ios":"levelo://app?vid=e3ec72a5-3eab-4d50-aab0-e4d1835e29a4"},"vehicle_type_id":"4","last_reported":1703783162,"current_range_meters":27200,"station_id":"ce4bh692rcd13ifvqea0","pricing_plan_id":"free"},{"bike_id":"4cfb0d89-aeb3-40b6-9ba6-505a5bc37bca","system_id":"levelo_inurba_marseille","lat":43.292642,"lon":5.384254,"is_reserved":false,"is_disabled":false,"rental_uris":{"android":"levelo://app?vid=4cfb0d89-aeb3-40b6-9ba6-505a5bc37bca","ios":"levelo://app?vid=4cfb0d89-aeb3-40b6-9ba6-505a5bc37bca"},"vehicle_type_id":"4","last_reported":1703783162,"current_range_meters":17600,"station_id":"ce4bh692rcd13ifvqea0","pricing_plan_id":"free"},{"bike_id":"019e4d34-efd8-4b99-8cc0-143516e5e659","system_id":"levelo_inurba_marseille","lat":43.29787,"lon":5.3933,"is_reserved":false,"is_disabled":false,"rental_uris":{"android":"levelo://app?vid=019e4d34-efd8-4b99-8cc0-143516e5e659","ios":"levelo://app?vid=019e4d34-efd8-4b99-8cc0-143516e5e659"},"vehicle_type_id":"4","last_reported":1703783162,"current_range_meters":26000,"station_id":"chh1huq6cuj3fo74tm60","pricing_plan_id":"free"},{"bike_id":"75889e06-ce29-4468-a52e-8bb48ec53bcf","system_id":"levelo_inurba_marseille","lat":43.28988,"lon":5.37818,"is_reserved":false,"is_disabled":false,"rental_uris":{"android":"levelo://app?vid=75889e06-ce29-4468-a52e-8bb48ec53bcf","ios":"levelo://app?vid=75889e06-ce29-4468-a52e-8bb48ec53bcf"},"vehicle_type_id":"4","last_reported":1703783162,"current_range_meters":30800,"station_id":"ce4bh9p2rcd13ifvqed0","pricing_plan_id":"free"},{"bike_id":"d4c2e64c-571a-4ce9-ad03-ad54b6d57193","system_id":"levelo_inurba_marseille","lat":43.289743,"lon":5.378304,"is_reserved":false,"is_disabled":false,"rental_uris":{"android":"levelo://app?vid=d4c2e64c-571a-4ce9-ad03-ad54b6d57193","ios":"levelo://app?vid=d4c2e64c-571a-4ce9-ad03-ad54b6d57193"},"vehicle_type_id":"4","last_reported":1703783162,"current_range_meters":21600,"station_id":"ce4bh9p2rcd13ifvqed0","pricing_plan_id":"free"},{"bike_id":"495faf64-a935-4c6e-b77f-2b296d14493a","system_id":"levelo_inurba_marseille","lat":43.331017,"lon":5.389194,"is_reserved":false,"is_disabled":false,"rental_uris":{"android":"levelo://app?vid=495faf64-a935-4c6e-b77f-2b296d14493a","ios":"levelo://app?vid=495faf64-a935-4c6e-b77f-2b296d14493a"},"vehicle_type_id":"4","last_reported":1703783162,"current_range_meters":11200,"station_id":"","pricing_plan_id":"free"},{"bike_id":"ac1c020c-48bf-4e77-b430-2df982f3019b","system_id":"levelo_inurba_marseille","lat":43.2955,"lon":5.39072,"is_reserved":false,"is_disabled":false,"rental_uris":{"android":"levelo://app?vid=ac1c020c-48bf-4e77-b430-2df982f3019b","ios":"levelo://app?vid=ac1c020c-48bf-4e77-b430-2df982f3019b"},"vehicle_type_id":"4","last_reported":1703783162,"current_range_meters":12400,"station_id":"","pricing_plan_id":"free"},{"bike_id":"a21ed9ea-d972-4d76-a894-e150789f2a0c","system_id":"levelo_inurba_marseille","lat":43.295169,"lon":5.390426,"is_reserved":false,"is_disabled":false,"rental_uris":{"android":"levelo://app?vid=a21ed9ea-d972-4d76-a894-e150789f2a0c","ios":"levelo://app?vid=a21ed9ea-d972-4d76-a894-e150789f2a0c"},"vehicle_type_id":"4","last_reported":1703783162,"current_range_meters":30800,"station_id":"ce4bh3p2rcd13ifvqdp0","pricing_plan_id":"free"},{"bike_id":"0173613e-874b-4e4d-912a-6801bb4ab8de","system_id":"levelo_inurba_marseille","lat":43.295169,"lon":5.390426,"is_reserved":false,"is_disabled":false,"rental_uris":{"android":"levelo://app?vid=0173613e-874b-4e4d-912a-6801bb4ab8de","ios":"levelo://app?vid=0173613e-874b-4e4d-912a-6801bb4ab8de"},"vehicle_type_id":"4","last_reported":1703783162,"current_range_meters":5600,"station_id":"ce4bh3p2rcd13ifvqdp0","pricing_plan_id":"free"},{"bike_id":"a80418ca-1e8f-4b47-b2d9-5c9ec0f4b5cb","system_id":"levelo_inurba_marseille","lat":43.295169,"lon":5.390426,"is_reserved":false,"is_disabled":false,"rental_uris":{"android":"levelo://app?vid=a80418ca-1e8f-4b47-b2d9-5c9ec0f4b5cb","ios":"levelo://app?vid=a80418ca-1e8f-4b47-b2d9-5c9ec0f4b5cb"},"vehicle_type_id":"4","last_reported":1703783162,"current_range_meters":23600,"station_id":"ce4bh3p2rcd13ifvqdp0","pricing_plan_id":"free"},{"bike_id":"e7e5b367-b928-4b3e-b05f-87b6b3716e8c","system_id":"levelo_inurba_marseille","lat":43.330608,"lon":5.390278,"is_reserved":false,"is_disabled":false,"rental_uris":{"android":"levelo://app?vid=e7e5b367-b928-4b3e-b05f-87b6b3716e8c","ios":"levelo://app?vid=e7e5b367-b928-4b3e-b05f-87b6b3716e8c"},"vehicle_type_id":"4","last_reported":1703783162,"current_range_meters":28000,"station_id":"","pricing_plan_id":"free"},{"bike_id":"2bb16bff-891e-4861-b20e-f4073029b2f7","system_id":"levelo_inurba_marseille","lat":43.337414,"lon":5.374509,"is_reserved":false,"is_disabled":false,"rental_uris":{"android":"levelo://app?vid=2bb16bff-891e-4861-b20e-f4073029b2f7","ios":"levelo://app?vid=2bb16bff-891e-4861-b20e-f4073029b2f7"},"vehicle_type_id":"4","last_reported":1703783162,"current_range_meters":27600,"station_id":"","pricing_plan_id":"free"},{"bike_id":"3714f51a-efb2-4988-a9b9-167c8d23b4d6","system_id":"levelo_inurba_marseille","lat":43.337444,"lon":5.374475,"is_reserved":false,"is_disabled":false,"rental_uris":{"android":"levelo://app?vid=3714f51a-efb2-4988-a9b9-167c8d23b4d6","ios":"levelo://app?vid=3714f51a-efb2-4988-a9b9-167c8d23b4d6"},"vehicle_type_id":"4","last_reported":1703783162,"current_range_meters":28000,"station_id":"","pricing_plan_id":"free"},{"bike_id":"adf90235-57b3-4813-8b68-7f944dad32ab","system_id":"levelo_inurba_marseille","lat":43.309371,"lon":5.401449,"is_reserved":false,"is_disabled":false,"rental_uris":{"android":"levelo://app?vid=adf90235-57b3-4813-8b68-7f944dad32ab","ios":"levelo://app?vid=adf90235-57b3-4813-8b68-7f944dad32ab"},"vehicle_type_id":"4","last_reported":1703783162,"current_range_meters":0,"station_id":"ce4bgvp2rcd13ifvqct0","pricing_plan_id":"free"},{"bike_id":"6eb442ad-0b63-4ae4-9d63-3882104d3e25","system_id":"levelo_inurba_marseille","lat":43.33749,"lon":5.37434,"is_reserved":false,"is_disabled":false,"rental_uris":{"android":"levelo://app?vid=6eb442ad-0b63-4ae4-9d63-3882104d3e25","ios":"levelo://app?vid=6eb442ad-0b63-4ae4-9d63-3882104d3e25"},"vehicle_type_id":"4","last_reported":1703783162,"current_range_meters":23200,"station_id":"","pricing_plan_id":"free"},{"bike_id":"7abcbf24-3a33-42f7-83ff-33b36936a38c","system_id":"levelo_inurba_marseille","lat":43.31275,"lon":5.40174,"is_reserved":false,"is_disabled":false,"rental_uris":{"android":"levelo://app?vid=7abcbf24-3a33-42f7-83ff-33b36936a38c","ios":"levelo://app?vid=7abcbf24-3a33-42f7-83ff-33b36936a38c"},"vehicle_type_id":"4","last_reported":1703783162,"current_range_meters":0,"station_id":"ce4bh092rcd13ifvqd30","pricing_plan_id":"free"},{"bike_id":"676ba986-b596-409f-9ac6-ba0b7a93ae72","system_id":"levelo_inurba_marseille","lat":43.312609,"lon":5.401662,"is_reserved":false,"is_disabled":false,"rental_uris":{"android":"levelo://app?vid=676ba986-b596-409f-9ac6-ba0b7a93ae72","ios":"levelo://app?vid=676ba986-b596-409f-9ac6-ba0b7a93ae72"},"vehicle_type_id":"4","last_reported":1703783162,"current_range_meters":15200,"station_id":"ce4bh092rcd13ifvqd30","pricing_plan_id":"free"},{"bike_id":"45e9d267-5c57-452e-993a-c6c7fa826b87","system_id":"levelo_inurba_marseille","lat":43.33752,"lon":5.37439,"is_reserved":false,"is_disabled":false,"rental_uris":{"android":"levelo://app?vid=45e9d267-5c57-452e-993a-c6c7fa826b87","ios":"levelo://app?vid=45e9d267-5c57-452e-993a-c6c7fa826b87"},"vehicle_type_id":"4","last_reported":1703783162,"current_range_meters":22800,"station_id":"","pricing_plan_id":"free"},{"bike_id":"38a8720a-3482-45e9-8b05-47a0bef75ca6","system_id":"levelo_inurba_marseille","lat":43.337579,"lon":5.374327,"is_reserved":false,"is_disabled":false,"rental_uris":{"android":"levelo://app?vid=38a8720a-3482-45e9-8b05-47a0bef75ca6","ios":"levelo://app?vid=38a8720a-3482-45e9-8b05-47a0bef75ca6"},"vehicle_type_id":"4","last_reported":1703783162,"current_range_meters":14800,"station_id":"","pricing_plan_id":"free"},{"bike_id":"2d74b838-137f-41c5-9fa7-2a42034f0510","system_id":"levelo_inurba_marseille","lat":43.33757,"lon":5.37447,"is_reserved":false,"is_disabled":false,"rental_uris":{"android":"levelo://app?vid=2d74b838-137f-41c5-9fa7-2a42034f0510","ios":"levelo://app?vid=2d74b838-137f-41c5-9fa7-2a42034f0510"},"vehicle_type_id":"4","last_reported":1703783162,"current_range_meters":30800,"station_id":"","pricing_plan_id":"free"},{"bike_id":"6ec49299-7889-4a72-9bf2-723a44012124","system_id":"levelo_inurba_marseille","lat":43.30642,"lon":5.401031,"is_reserved":false,"is_disabled":false,"rental_uris":{"android":"levelo://app?vid=6ec49299-7889-4a72-9bf2-723a44012124","ios":"levelo://app?vid=6ec49299-7889-4a72-9bf2-723a44012124"},"vehicle_type_id":"4","last_reported":1703783162,"current_range_meters":30000,"station_id":"ce4bh112rcd13ifvqda0","pricing_plan_id":"free"},{"bike_id":"107d1d6e-bc6b-4a1f-8a8a-71ac52fd488f","system_id":"levelo_inurba_marseille","lat":43.33766,"lon":5.37462,"is_reserved":false,"is_disabled":false,"rental_uris":{"android":"levelo://app?vid=107d1d6e-bc6b-4a1f-8a8a-71ac52fd488f","ios":"levelo://app?vid=107d1d6e-bc6b-4a1f-8a8a-71ac52fd488f"},"vehicle_type_id":"4","last_reported":1703783162,"current_range_meters":24800,"station_id":"","pricing_plan_id":"free"},{"bike_id":"981f9dbf-5820-453e-beb6-8bbddd90c1d2","system_id":"levelo_inurba_marseille","lat":43.337715,"lon":5.374464,"is_reserved":false,"is_disabled":false,"rental_uris":{"android":"levelo://app?vid=981f9dbf-5820-453e-beb6-8bbddd90c1d2","ios":"levelo://app?vid=981f9dbf-5820-453e-beb6-8bbddd90c1d2"},"vehicle_type_id":"4","last_reported":1703783162,"current_range_meters":24400,"station_id":"","pricing_plan_id":"free"},{"bike_id":"61051fc2-e2da-48e8-beaf-98fc35fb5e4d","system_id":"levelo_inurba_marseille","lat":43.295196,"lon":5.39397,"is_reserved":false,"is_disabled":false,"rental_uris":{"android":"levelo://app?vid=61051fc2-e2da-48e8-beaf-98fc35fb5e4d","ios":"levelo://app?vid=61051fc2-e2da-48e8-beaf-98fc35fb5e4d"},"vehicle_type_id":"4","last_reported":1703783162,"current_range_meters":17200,"station_id":"ce4bh292rcd13ifvqdf0","pricing_plan_id":"free"},{"bike_id":"452352fd-84db-4aad-b283-9243cd235002","system_id":"levelo_inurba_marseille","lat":43.286591,"lon":5.363346,"is_reserved":false,"is_disabled":false,"rental_uris":{"android":"levelo://app?vid=452352fd-84db-4aad-b283-9243cd235002","ios":"levelo://app?vid=452352fd-84db-4aad-b283-9243cd235002"},"vehicle_type_id":"4","last_reported":1703783162,"current_range_meters":22400,"station_id":"ce4bhah2rcd13ifvqej0","pricing_plan_id":"free"},{"bike_id":"50ca63c3-5592-4796-b77b-5ccb35738ce8","system_id":"levelo_inurba_marseille","lat":43.295196,"lon":5.39397,"is_reserved":false,"is_disabled":false,"rental_uris":{"android":"levelo://app?vid=50ca63c3-5592-4796-b77b-5ccb35738ce8","ios":"levelo://app?vid=50ca63c3-5592-4796-b77b-5ccb35738ce8"},"vehicle_type_id":"4","last_reported":1703783162,"current_range_meters":14400,"station_id":"ce4bh292rcd13ifvqdf0","pricing_plan_id":"free"},{"bike_id":"e5992557-a42b-43db-b8f5-7276c68ddc8b","system_id":"levelo_inurba_marseille","lat":43.28778,"lon":5.37889,"is_reserved":false,"is_disabled":false,"rental_uris":{"android":"levelo://app?vid=e5992557-a42b-43db-b8f5-7276c68ddc8b","ios":"levelo://app?vid=e5992557-a42b-43db-b8f5-7276c68ddc8b"},"vehicle_type_id":"4","last_reported":1703783162,"current_range_meters":20400,"station_id":"","pricing_plan_id":"free"},{"bike_id":"85b6c483-e292-4d34-991b-ea19b846024d","system_id":"levelo_inurba_marseille","lat":43.289307,"lon":5.38406,"is_reserved":false,"is_disabled":false,"rental_uris":{"android":"levelo://app?vid=85b6c483-e292-4d34-991b-ea19b846024d","ios":"levelo://app?vid=85b6c483-e292-4d34-991b-ea19b846024d"},"vehicle_type_id":"4","last_reported":1703783162,"current_range_meters":7200,"station_id":"ce4bh612rcd13ifvqe6g","pricing_plan_id":"free"},{"bike_id":"4a08d08b-0874-45d5-a6e7-39b4ffefc6ac","system_id":"levelo_inurba_marseille","lat":43.295194,"lon":5.39397,"is_reserved":false,"is_disabled":false,"rental_uris":{"android":"levelo://app?vid=4a08d08b-0874-45d5-a6e7-39b4ffefc6ac","ios":"levelo://app?vid=4a08d08b-0874-45d5-a6e7-39b4ffefc6ac"},"vehicle_type_id":"4","last_reported":1703783162,"current_range_meters":2400,"station_id":"ce4bh292rcd13ifvqdf0","pricing_plan_id":"free"},{"bike_id":"e45f7475-3792-42dd-ae96-828e0ce6fed3","system_id":"levelo_inurba_marseille","lat":43.289307,"lon":5.38406,"is_reserved":false,"is_disabled":false,"rental_uris":{"android":"levelo://app?vid=e45f7475-3792-42dd-ae96-828e0ce6fed3","ios":"levelo://app?vid=e45f7475-3792-42dd-ae96-828e0ce6fed3"},"vehicle_type_id":"4","last_reported":1703783162,"current_range_meters":29600,"station_id":"ce4bh612rcd13ifvqe6g","pricing_plan_id":"free"},{"bike_id":"6be0eedf-f807-47ec-bba7-e7a20922db88","system_id":"levelo_inurba_marseille","lat":43.302759,"lon":5.400793,"is_reserved":false,"is_disabled":false,"rental_uris":{"android":"levelo://app?vid=6be0eedf-f807-47ec-bba7-e7a20922db88","ios":"levelo://app?vid=6be0eedf-f807-47ec-bba7-e7a20922db88"},"vehicle_type_id":"4","last_reported":1703783162,"current_range_meters":4000,"station_id":"ce4bgvh2rcd13ifvqcs0","pricing_plan_id":"free"},{"bike_id":"fba8fe85-7923-45d6-b9a4-7d1cd109f447","system_id":"levelo_inurba_marseille","lat":43.302759,"lon":5.400793,"is_reserved":false,"is_disabled":false,"rental_uris":{"android":"levelo://app?vid=fba8fe85-7923-45d6-b9a4-7d1cd109f447","ios":"levelo://app?vid=fba8fe85-7923-45d6-b9a4-7d1cd109f447"},"vehicle_type_id":"4","last_reported":1703783162,"current_range_meters":8000,"station_id":"ce4bgvh2rcd13ifvqcs0","pricing_plan_id":"free"},{"bike_id":"32b8f321-7495-4672-926a-e78d3cb79f60","system_id":"levelo_inurba_marseille","lat":43.287184,"lon":5.37937,"is_reserved":false,"is_disabled":false,"rental_uris":{"android":"levelo://app?vid=32b8f321-7495-4672-926a-e78d3cb79f60","ios":"levelo://app?vid=32b8f321-7495-4672-926a-e78d3cb79f60"},"vehicle_type_id":"4","last_reported":1703783162,"current_range_meters":16000,"station_id":"ce4bh9p2rcd13ifvqec0","pricing_plan_id":"free"},{"bike_id":"aac00441-5e5c-4474-92e6-e699a3867bae","system_id":"levelo_inurba_marseille","lat":43.285754,"lon":5.360249,"is_reserved":false,"is_disabled":false,"rental_uris":{"android":"levelo://app?vid=aac00441-5e5c-4474-92e6-e699a3867bae","ios":"levelo://app?vid=aac00441-5e5c-4474-92e6-e699a3867bae"},"vehicle_type_id":"4","last_reported":1703783162,"current_range_meters":30000,"station_id":"","pricing_plan_id":"free"},{"bike_id":"6a786801-faab-4c85-b71b-0c575a6b6211","system_id":"levelo_inurba_marseille","lat":43.316828,"lon":5.404723,"is_reserved":false,"is_disabled":false,"rental_uris":{"android":"levelo://app?vid=6a786801-faab-4c85-b71b-0c575a6b6211","ios":"levelo://app?vid=6a786801-faab-4c85-b71b-0c575a6b6211"},"vehicle_type_id":"4","last_reported":1703783162,"current_range_meters":6800,"station_id":"ce4bh012rcd13ifvqd00","pricing_plan_id":"free"},{"bike_id":"d11c9166-0499-49b4-b475-e996778cc806","system_id":"levelo_inurba_marseille","lat":43.284538,"lon":5.358657,"is_reserved":false,"is_disabled":false,"rental_uris":{"android":"levelo://app?vid=d11c9166-0499-49b4-b475-e996778cc806","ios":"levelo://app?vid=d11c9166-0499-49b4-b475-e996778cc806"},"vehicle_type_id":"4","last_reported":1703783162,"current_range_meters":18800,"station_id":"ce4bhah2rcd13ifvqei0","pricing_plan_id":"free"},{"bike_id":"0ecf91d0-b909-4a18-9736-bccd0f081ec7","system_id":"levelo_inurba_marseille","lat":43.294314,"lon":5.397498,"is_reserved":false,"is_disabled":false,"rental_uris":{"android":"levelo://app?vid=0ecf91d0-b909-4a18-9736-bccd0f081ec7","ios":"levelo://app?vid=0ecf91d0-b909-4a18-9736-bccd0f081ec7"},"vehicle_type_id":"4","last_reported":1703783162,"current_range_meters":25200,"station_id":"ce4bh3h2rcd13ifvqdo0","pricing_plan_id":"free"},{"bike_id":"eb0839c4-3270-42e2-bfb8-e0514473fdff","system_id":"levelo_inurba_marseille","lat":43.294301,"lon":5.397567,"is_reserved":false,"is_disabled":false,"rental_uris":{"android":"levelo://app?vid=eb0839c4-3270-42e2-bfb8-e0514473fdff","ios":"levelo://app?vid=eb0839c4-3270-42e2-bfb8-e0514473fdff"},"vehicle_type_id":"4","last_reported":1703783162,"current_range_meters":24000,"station_id":"","pricing_plan_id":"free"},{"bike_id":"5f7d2461-aea2-4049-84d4-1faa0f3c6ab6","system_id":"levelo_inurba_marseille","lat":43.285856,"lon":5.350771,"is_reserved":false,"is_disabled":false,"rental_uris":{"android":"levelo://app?vid=5f7d2461-aea2-4049-84d4-1faa0f3c6ab6","ios":"levelo://app?vid=5f7d2461-aea2-4049-84d4-1faa0f3c6ab6"},"vehicle_type_id":"4","last_reported":1703783162,"current_range_meters":23600,"station_id":"ce4bhch2rcd13ifvqeug","pricing_plan_id":"free"},{"bike_id":"fc32fa22-c090-4205-8cf2-47916c2dc389","system_id":"levelo_inurba_marseille","lat":43.285856,"lon":5.350771,"is_reserved":false,"is_disabled":false,"rental_uris":{"android":"levelo://app?vid=fc32fa22-c090-4205-8cf2-47916c2dc389","ios":"levelo://app?vid=fc32fa22-c090-4205-8cf2-47916c2dc389"},"vehicle_type_id":"4","last_reported":1703783162,"current_range_meters":20800,"station_id":"ce4bhch2rcd13ifvqeug","pricing_plan_id":"free"},{"bike_id":"7510080d-af49-4281-80b0-457720854c57","system_id":"levelo_inurba_marseille","lat":43.28741,"lon":5.38986,"is_reserved":false,"is_disabled":false,"rental_uris":{"android":"levelo://app?vid=7510080d-af49-4281-80b0-457720854c57","ios":"levelo://app?vid=7510080d-af49-4281-80b0-457720854c57"},"vehicle_type_id":"4","last_reported":1703783162,"current_range_meters":0,"station_id":"","pricing_plan_id":"free"},{"bike_id":"c511bcac-d82d-4718-857b-2ec986b952f8","system_id":"levelo_inurba_marseille","lat":43.337168,"lon":5.391825,"is_reserved":false,"is_disabled":false,"rental_uris":{"android":"levelo://app?vid=c511bcac-d82d-4718-857b-2ec986b952f8","ios":"levelo://app?vid=c511bcac-d82d-4718-857b-2ec986b952f8"},"vehicle_type_id":"4","last_reported":1703783162,"current_range_meters":8800,"station_id":"ce4bhr92rcd13ifvqhsg","pricing_plan_id":"free"},{"bike_id":"88a90eb6-df1d-4c20-8e42-f03f5a6f3a0d","system_id":"levelo_inurba_marseille","lat":43.337261,"lon":5.391819,"is_reserved":false,"is_disabled":false,"rental_uris":{"android":"levelo://app?vid=88a90eb6-df1d-4c20-8e42-f03f5a6f3a0d","ios":"levelo://app?vid=88a90eb6-df1d-4c20-8e42-f03f5a6f3a0d"},"vehicle_type_id":"4","last_reported":1703783162,"current_range_meters":11200,"station_id":"ce4bhr92rcd13ifvqhsg","pricing_plan_id":"free"},{"bike_id":"d60802d6-4f47-444a-b234-883690eec05b","system_id":"levelo_inurba_marseille","lat":43.33355,"lon":5.3976,"is_reserved":false,"is_disabled":false,"rental_uris":{"android":"levelo://app?vid=d60802d6-4f47-444a-b234-883690eec05b","ios":"levelo://app?vid=d60802d6-4f47-444a-b234-883690eec05b"},"vehicle_type_id":"4","last_reported":1703783162,"current_range_meters":29200,"station_id":"","pricing_plan_id":"free"},{"bike_id":"a31f92b7-8ebf-4351-ba1e-84c31edd71d9","system_id":"levelo_inurba_marseille","lat":43.29795,"lon":5.404086,"is_reserved":false,"is_disabled":false,"rental_uris":{"android":"levelo://app?vid=a31f92b7-8ebf-4351-ba1e-84c31edd71d9","ios":"levelo://app?vid=a31f92b7-8ebf-4351-ba1e-84c31edd71d9"},"vehicle_type_id":"4","last_reported":1703783162,"current_range_meters":17600,"station_id":"ce4bh112rcd13ifvqd90","pricing_plan_id":"free"},{"bike_id":"0f776931-57d5-4a77-a6ff-eaf2a2788856","system_id":"levelo_inurba_marseille","lat":43.29795,"lon":5.404086,"is_reserved":false,"is_disabled":false,"rental_uris":{"android":"levelo://app?vid=0f776931-57d5-4a77-a6ff-eaf2a2788856","ios":"levelo://app?vid=0f776931-57d5-4a77-a6ff-eaf2a2788856"},"vehicle_type_id":"4","last_reported":1703783162,"current_range_meters":11600,"station_id":"ce4bh112rcd13ifvqd90","pricing_plan_id":"free"},{"bike_id":"e01ba3ab-0fc8-4255-a4c5-2fe23c143144","system_id":"levelo_inurba_marseille","lat":43.297946,"lon":5.404063,"is_reserved":false,"is_disabled":false,"rental_uris":{"android":"levelo://app?vid=e01ba3ab-0fc8-4255-a4c5-2fe23c143144","ios":"levelo://app?vid=e01ba3ab-0fc8-4255-a4c5-2fe23c143144"},"vehicle_type_id":"4","last_reported":1703783162,"current_range_meters":25600,"station_id":"ce4bh112rcd13ifvqd90","pricing_plan_id":"free"},{"bike_id":"e485450b-2736-4f4c-b94b-0da5a69b88aa","system_id":"levelo_inurba_marseille","lat":43.33385,"lon":5.39822,"is_reserved":false,"is_disabled":false,"rental_uris":{"android":"levelo://app?vid=e485450b-2736-4f4c-b94b-0da5a69b88aa","ios":"levelo://app?vid=e485450b-2736-4f4c-b94b-0da5a69b88aa"},"vehicle_type_id":"4","last_reported":1703783162,"current_range_meters":14000,"station_id":"","pricing_plan_id":"free"},{"bike_id":"fd806734-020d-49ee-bc45-e6b7119917ff","system_id":"levelo_inurba_marseille","lat":43.28425,"lon":5.34981,"is_reserved":false,"is_disabled":false,"rental_uris":{"android":"levelo://app?vid=fd806734-020d-49ee-bc45-e6b7119917ff","ios":"levelo://app?vid=fd806734-020d-49ee-bc45-e6b7119917ff"},"vehicle_type_id":"4","last_reported":1703783162,"current_range_meters":28000,"station_id":"ce4bhbh2rcd13ifvqepg","pricing_plan_id":"free"},{"bike_id":"dca0fa18-7996-474e-bb6b-4a1cc91c2b11","system_id":"levelo_inurba_marseille","lat":43.284219,"lon":5.3497,"is_reserved":false,"is_disabled":false,"rental_uris":{"android":"levelo://app?vid=dca0fa18-7996-474e-bb6b-4a1cc91c2b11","ios":"levelo://app?vid=dca0fa18-7996-474e-bb6b-4a1cc91c2b11"},"vehicle_type_id":"4","last_reported":1703783162,"current_range_meters":4000,"station_id":"ce4bhbh2rcd13ifvqepg","pricing_plan_id":"free"},{"bike_id":"a11888e3-3dfb-40e0-a543-068d88a28992","system_id":"levelo_inurba_marseille","lat":43.28284,"lon":5.35074,"is_reserved":false,"is_disabled":false,"rental_uris":{"android":"levelo://app?vid=a11888e3-3dfb-40e0-a543-068d88a28992","ios":"levelo://app?vid=a11888e3-3dfb-40e0-a543-068d88a28992"},"vehicle_type_id":"4","last_reported":1703783162,"current_range_meters":19200,"station_id":"ce4bhbp2rcd13ifvqerg","pricing_plan_id":"free"},{"bike_id":"7342d74f-fd87-42dc-b630-d4434c0aa8da","system_id":"levelo_inurba_marseille","lat":43.282744,"lon":5.350533,"is_reserved":false,"is_disabled":false,"rental_uris":{"android":"levelo://app?vid=7342d74f-fd87-42dc-b630-d4434c0aa8da","ios":"levelo://app?vid=7342d74f-fd87-42dc-b630-d4434c0aa8da"},"vehicle_type_id":"4","last_reported":1703783162,"current_range_meters":28800,"station_id":"ce4bhbp2rcd13ifvqerg","pricing_plan_id":"free"},{"bike_id":"3a55048b-b221-4797-b2c4-03777f171bb4","system_id":"levelo_inurba_marseille","lat":43.282744,"lon":5.350533,"is_reserved":false,"is_disabled":false,"rental_uris":{"android":"levelo://app?vid=3a55048b-b221-4797-b2c4-03777f171bb4","ios":"levelo://app?vid=3a55048b-b221-4797-b2c4-03777f171bb4"},"vehicle_type_id":"4","last_reported":1703783162,"current_range_meters":6000,"station_id":"ce4bhbp2rcd13ifvqerg","pricing_plan_id":"free"},{"bike_id":"9c086601-6aad-4c0e-ba12-386a0796874c","system_id":"levelo_inurba_marseille","lat":43.283502,"lon":5.386471,"is_reserved":false,"is_disabled":false,"rental_uris":{"android":"levelo://app?vid=9c086601-6aad-4c0e-ba12-386a0796874c","ios":"levelo://app?vid=9c086601-6aad-4c0e-ba12-386a0796874c"},"vehicle_type_id":"4","last_reported":1703783162,"current_range_meters":28400,"station_id":"ce4bh492rcd13ifvqdvg","pricing_plan_id":"free"},{"bike_id":"66f529fe-225b-4518-a7d1-c1fcea12d649","system_id":"levelo_inurba_marseille","lat":43.282744,"lon":5.350533,"is_reserved":false,"is_disabled":false,"rental_uris":{"android":"levelo://app?vid=66f529fe-225b-4518-a7d1-c1fcea12d649","ios":"levelo://app?vid=66f529fe-225b-4518-a7d1-c1fcea12d649"},"vehicle_type_id":"4","last_reported":1703783162,"current_range_meters":8000,"station_id":"ce4bhbp2rcd13ifvqerg","pricing_plan_id":"free"},{"bike_id":"7da277c9-6e33-4f64-ab45-8f334901ba9e","system_id":"levelo_inurba_marseille","lat":43.282744,"lon":5.350533,"is_reserved":false,"is_disabled":false,"rental_uris":{"android":"levelo://app?vid=7da277c9-6e33-4f64-ab45-8f334901ba9e","ios":"levelo://app?vid=7da277c9-6e33-4f64-ab45-8f334901ba9e"},"vehicle_type_id":"4","last_reported":1703783162,"current_range_meters":29600,"station_id":"ce4bhbp2rcd13ifvqerg","pricing_plan_id":"free"},{"bike_id":"27331236-89e0-4416-8563-7be53a26dd50","system_id":"levelo_inurba_marseille","lat":43.283502,"lon":5.386471,"is_reserved":false,"is_disabled":false,"rental_uris":{"android":"levelo://app?vid=27331236-89e0-4416-8563-7be53a26dd50","ios":"levelo://app?vid=27331236-89e0-4416-8563-7be53a26dd50"},"vehicle_type_id":"4","last_reported":1703783162,"current_range_meters":15200,"station_id":"ce4bh492rcd13ifvqdvg","pricing_plan_id":"free"},{"bike_id":"674e6c45-e3fa-46b2-95ea-6cbc59ce31db","system_id":"levelo_inurba_marseille","lat":43.283502,"lon":5.386471,"is_reserved":false,"is_disabled":false,"rental_uris":{"android":"levelo://app?vid=674e6c45-e3fa-46b2-95ea-6cbc59ce31db","ios":"levelo://app?vid=674e6c45-e3fa-46b2-95ea-6cbc59ce31db"},"vehicle_type_id":"4","last_reported":1703783162,"current_range_meters":13200,"station_id":"ce4bh492rcd13ifvqdvg","pricing_plan_id":"free"},{"bike_id":"7cd8f231-3f75-4f64-bfe2-67894fe5a09d","system_id":"levelo_inurba_marseille","lat":43.282744,"lon":5.350533,"is_reserved":false,"is_disabled":false,"rental_uris":{"android":"levelo://app?vid=7cd8f231-3f75-4f64-bfe2-67894fe5a09d","ios":"levelo://app?vid=7cd8f231-3f75-4f64-bfe2-67894fe5a09d"},"vehicle_type_id":"4","last_reported":1703783162,"current_range_meters":19200,"station_id":"ce4bhbp2rcd13ifvqerg","pricing_plan_id":"free"},{"bike_id":"cfb46733-39a5-4432-8c6f-5f67d7247f07","system_id":"levelo_inurba_marseille","lat":43.281044,"lon":5.378308,"is_reserved":false,"is_disabled":false,"rental_uris":{"android":"levelo://app?vid=cfb46733-39a5-4432-8c6f-5f67d7247f07","ios":"levelo://app?vid=cfb46733-39a5-4432-8c6f-5f67d7247f07"},"vehicle_type_id":"4","last_reported":1703783162,"current_range_meters":21200,"station_id":"ce4bha12rcd13ifvqee0","pricing_plan_id":"free"},{"bike_id":"c7d512d3-36d6-4da1-9b18-e1810f4342be","system_id":"levelo_inurba_marseille","lat":43.281044,"lon":5.378308,"is_reserved":false,"is_disabled":false,"rental_uris":{"android":"levelo://app?vid=c7d512d3-36d6-4da1-9b18-e1810f4342be","ios":"levelo://app?vid=c7d512d3-36d6-4da1-9b18-e1810f4342be"},"vehicle_type_id":"4","last_reported":1703783162,"current_range_meters":23600,"station_id":"ce4bha12rcd13ifvqee0","pricing_plan_id":"free"},{"bike_id":"ee21ad73-789c-4d74-89a5-3c8ebf07d520","system_id":"levelo_inurba_marseille","lat":43.281044,"lon":5.378308,"is_reserved":false,"is_disabled":false,"rental_uris":{"android":"levelo://app?vid=ee21ad73-789c-4d74-89a5-3c8ebf07d520","ios":"levelo://app?vid=ee21ad73-789c-4d74-89a5-3c8ebf07d520"},"vehicle_type_id":"4","last_reported":1703783162,"current_range_meters":28800,"station_id":"ce4bha12rcd13ifvqee0","pricing_plan_id":"free"},{"bike_id":"d2b5ac91-8f6a-401e-bf58-e283899f8762","system_id":"levelo_inurba_marseille","lat":43.281044,"lon":5.378308,"is_reserved":false,"is_disabled":false,"rental_uris":{"android":"levelo://app?vid=d2b5ac91-8f6a-401e-bf58-e283899f8762","ios":"levelo://app?vid=d2b5ac91-8f6a-401e-bf58-e283899f8762"},"vehicle_type_id":"4","last_reported":1703783162,"current_range_meters":24800,"station_id":"ce4bha12rcd13ifvqee0","pricing_plan_id":"free"},{"bike_id":"8484b12c-4e43-47d1-b711-81ba48a6ac99","system_id":"levelo_inurba_marseille","lat":43.296263,"lon":5.40601,"is_reserved":false,"is_disabled":false,"rental_uris":{"android":"levelo://app?vid=8484b12c-4e43-47d1-b711-81ba48a6ac99","ios":"levelo://app?vid=8484b12c-4e43-47d1-b711-81ba48a6ac99"},"vehicle_type_id":"4","last_reported":1703783162,"current_range_meters":19200,"station_id":"ce4bh0h2rcd13ifvqd60","pricing_plan_id":"free"},{"bike_id":"6b3b5b6e-e8c4-4a65-a561-d058d561493f","system_id":"levelo_inurba_marseille","lat":43.281044,"lon":5.378308,"is_reserved":false,"is_disabled":false,"rental_uris":{"android":"levelo://app?vid=6b3b5b6e-e8c4-4a65-a561-d058d561493f","ios":"levelo://app?vid=6b3b5b6e-e8c4-4a65-a561-d058d561493f"},"vehicle_type_id":"4","last_reported":1703783162,"current_range_meters":24000,"station_id":"ce4bha12rcd13ifvqee0","pricing_plan_id":"free"},{"bike_id":"777836ce-9a56-4dd7-a8c1-66514411e254","system_id":"levelo_inurba_marseille","lat":43.285742,"lon":5.395004,"is_reserved":false,"is_disabled":false,"rental_uris":{"android":"levelo://app?vid=777836ce-9a56-4dd7-a8c1-66514411e254","ios":"levelo://app?vid=777836ce-9a56-4dd7-a8c1-66514411e254"},"vehicle_type_id":"4","last_reported":1703783162,"current_range_meters":23600,"station_id":"ce4bh292rcd13ifvqdg0","pricing_plan_id":"free"},{"bike_id":"4ca2ba97-2d8b-4432-97ee-e39bda04cd5a","system_id":"levelo_inurba_marseille","lat":43.28573,"lon":5.394992,"is_reserved":false,"is_disabled":false,"rental_uris":{"android":"levelo://app?vid=4ca2ba97-2d8b-4432-97ee-e39bda04cd5a","ios":"levelo://app?vid=4ca2ba97-2d8b-4432-97ee-e39bda04cd5a"},"vehicle_type_id":"4","last_reported":1703783162,"current_range_meters":25200,"station_id":"ce4bh292rcd13ifvqdg0","pricing_plan_id":"free"},{"bike_id":"78b94c4e-d288-4098-8251-ef42bf4518b3","system_id":"levelo_inurba_marseille","lat":43.326605,"lon":5.409903,"is_reserved":false,"is_disabled":false,"rental_uris":{"android":"levelo://app?vid=78b94c4e-d288-4098-8251-ef42bf4518b3","ios":"levelo://app?vid=78b94c4e-d288-4098-8251-ef42bf4518b3"},"vehicle_type_id":"4","last_reported":1703783162,"current_range_meters":3600,"station_id":"ce4bhpp2rcd13ifvqhgg","pricing_plan_id":"free"},{"bike_id":"1c3044bb-08e0-4fea-b7be-9514d6994572","system_id":"levelo_inurba_marseille","lat":43.304188,"lon":5.412904,"is_reserved":false,"is_disabled":false,"rental_uris":{"android":"levelo://app?vid=1c3044bb-08e0-4fea-b7be-9514d6994572","ios":"levelo://app?vid=1c3044bb-08e0-4fea-b7be-9514d6994572"},"vehicle_type_id":"4","last_reported":1703783162,"current_range_meters":13600,"station_id":"ce4bhop2rcd13ifvqh8g","pricing_plan_id":"free"},{"bike_id":"6657e306-e522-48fc-aa18-f90c22002c6e","system_id":"levelo_inurba_marseille","lat":43.304188,"lon":5.412904,"is_reserved":false,"is_disabled":false,"rental_uris":{"android":"levelo://app?vid=6657e306-e522-48fc-aa18-f90c22002c6e","ios":"levelo://app?vid=6657e306-e522-48fc-aa18-f90c22002c6e"},"vehicle_type_id":"4","last_reported":1703783162,"current_range_meters":24800,"station_id":"ce4bhop2rcd13ifvqh8g","pricing_plan_id":"free"},{"bike_id":"694ad407-7238-4062-89a8-4125ccd97cc0","system_id":"levelo_inurba_marseille","lat":43.30411,"lon":5.41283,"is_reserved":false,"is_disabled":false,"rental_uris":{"android":"levelo://app?vid=694ad407-7238-4062-89a8-4125ccd97cc0","ios":"levelo://app?vid=694ad407-7238-4062-89a8-4125ccd97cc0"},"vehicle_type_id":"4","last_reported":1703783162,"current_range_meters":29600,"station_id":"ce4bhop2rcd13ifvqh8g","pricing_plan_id":"free"},{"bike_id":"73fa0cec-fa80-4b54-ae6c-f1dbc0956dda","system_id":"levelo_inurba_marseille","lat":43.304188,"lon":5.412904,"is_reserved":false,"is_disabled":false,"rental_uris":{"android":"levelo://app?vid=73fa0cec-fa80-4b54-ae6c-f1dbc0956dda","ios":"levelo://app?vid=73fa0cec-fa80-4b54-ae6c-f1dbc0956dda"},"vehicle_type_id":"4","last_reported":1703783162,"current_range_meters":2800,"station_id":"ce4bhop2rcd13ifvqh8g","pricing_plan_id":"free"},{"bike_id":"19035fd2-4552-46c6-b932-e107c071d9fb","system_id":"levelo_inurba_marseille","lat":43.304188,"lon":5.412904,"is_reserved":false,"is_disabled":false,"rental_uris":{"android":"levelo://app?vid=19035fd2-4552-46c6-b932-e107c071d9fb","ios":"levelo://app?vid=19035fd2-4552-46c6-b932-e107c071d9fb"},"vehicle_type_id":"4","last_reported":1703783162,"current_range_meters":31200,"station_id":"ce4bhop2rcd13ifvqh8g","pricing_plan_id":"free"},{"bike_id":"36717ee8-8302-458e-8d9b-f5c1f176c36c","system_id":"levelo_inurba_marseille","lat":43.27924,"lon":5.38005,"is_reserved":false,"is_disabled":false,"rental_uris":{"android":"levelo://app?vid=36717ee8-8302-458e-8d9b-f5c1f176c36c","ios":"levelo://app?vid=36717ee8-8302-458e-8d9b-f5c1f176c36c"},"vehicle_type_id":"4","last_reported":1703783162,"current_range_meters":10800,"station_id":"ce4bhf92rcd13ifvqf50","pricing_plan_id":"free"},{"bike_id":"36fd3e51-1028-4a33-aa70-671147256e5f","system_id":"levelo_inurba_marseille","lat":43.279087,"lon":5.380114,"is_reserved":false,"is_disabled":false,"rental_uris":{"android":"levelo://app?vid=36fd3e51-1028-4a33-aa70-671147256e5f","ios":"levelo://app?vid=36fd3e51-1028-4a33-aa70-671147256e5f"},"vehicle_type_id":"4","last_reported":1703783162,"current_range_meters":22800,"station_id":"ce4bhf92rcd13ifvqf50","pricing_plan_id":"free"},{"bike_id":"3167411b-6ca1-4b89-b67a-1a8cefa859eb","system_id":"levelo_inurba_marseille","lat":43.287154,"lon":5.399979,"is_reserved":false,"is_disabled":false,"rental_uris":{"android":"levelo://app?vid=3167411b-6ca1-4b89-b67a-1a8cefa859eb","ios":"levelo://app?vid=3167411b-6ca1-4b89-b67a-1a8cefa859eb"},"vehicle_type_id":"4","last_reported":1703783162,"current_range_meters":20400,"station_id":"ce4bho92rcd13ifvqh3g","pricing_plan_id":"free"},{"bike_id":"2dd30fdb-8fd7-45aa-9996-b7b3dea73e05","system_id":"levelo_inurba_marseille","lat":43.287154,"lon":5.399979,"is_reserved":false,"is_disabled":false,"rental_uris":{"android":"levelo://app?vid=2dd30fdb-8fd7-45aa-9996-b7b3dea73e05","ios":"levelo://app?vid=2dd30fdb-8fd7-45aa-9996-b7b3dea73e05"},"vehicle_type_id":"4","last_reported":1703783162,"current_range_meters":30000,"station_id":"ce4bho92rcd13ifvqh3g","pricing_plan_id":"free"},{"bike_id":"6e252401-6e17-4dcc-8393-37eb584ea9fe","system_id":"levelo_inurba_marseille","lat":43.320045,"lon":5.415046,"is_reserved":false,"is_disabled":false,"rental_uris":{"android":"levelo://app?vid=6e252401-6e17-4dcc-8393-37eb584ea9fe","ios":"levelo://app?vid=6e252401-6e17-4dcc-8393-37eb584ea9fe"},"vehicle_type_id":"4","last_reported":1703783162,"current_range_meters":27200,"station_id":"ce4bhq92rcd13ifvqhkg","pricing_plan_id":"free"},{"bike_id":"9df8bd2b-15b3-4221-899a-e948f01c1737","system_id":"levelo_inurba_marseille","lat":43.299579,"lon":5.413255,"is_reserved":false,"is_disabled":false,"rental_uris":{"android":"levelo://app?vid=9df8bd2b-15b3-4221-899a-e948f01c1737","ios":"levelo://app?vid=9df8bd2b-15b3-4221-899a-e948f01c1737"},"vehicle_type_id":"4","last_reported":1703783162,"current_range_meters":27600,"station_id":"ce4bhp12rcd13ifvqh9g","pricing_plan_id":"free"},{"bike_id":"06972f01-d5f5-4f6f-b884-f1aa6024cc79","system_id":"levelo_inurba_marseille","lat":43.279742,"lon":5.38744,"is_reserved":false,"is_disabled":false,"rental_uris":{"android":"levelo://app?vid=06972f01-d5f5-4f6f-b884-f1aa6024cc79","ios":"levelo://app?vid=06972f01-d5f5-4f6f-b884-f1aa6024cc79"},"vehicle_type_id":"4","last_reported":1703783162,"current_range_meters":18400,"station_id":"ce4bhg12rcd13ifvqf80","pricing_plan_id":"free"},{"bike_id":"158fc4b4-ede0-4961-9d8f-54d753f53f84","system_id":"levelo_inurba_marseille","lat":43.320045,"lon":5.415046,"is_reserved":false,"is_disabled":false,"rental_uris":{"android":"levelo://app?vid=158fc4b4-ede0-4961-9d8f-54d753f53f84","ios":"levelo://app?vid=158fc4b4-ede0-4961-9d8f-54d753f53f84"},"vehicle_type_id":"4","last_reported":1703783162,"current_range_meters":26000,"station_id":"ce4bhq92rcd13ifvqhkg","pricing_plan_id":"free"},{"bike_id":"1ce91f44-3478-4db1-99ca-bcc9a2fee75d","system_id":"levelo_inurba_marseille","lat":43.292569,"lon":5.409107,"is_reserved":false,"is_disabled":false,"rental_uris":{"android":"levelo://app?vid=1ce91f44-3478-4db1-99ca-bcc9a2fee75d","ios":"levelo://app?vid=1ce91f44-3478-4db1-99ca-bcc9a2fee75d"},"vehicle_type_id":"4","last_reported":1703783162,"current_range_meters":20800,"station_id":"ce4bh192rcd13ifvqdc0","pricing_plan_id":"free"},{"bike_id":"bf16c117-d788-449d-9785-2d9427c4588b","system_id":"levelo_inurba_marseille","lat":43.292571,"lon":5.409107,"is_reserved":false,"is_disabled":false,"rental_uris":{"android":"levelo://app?vid=bf16c117-d788-449d-9785-2d9427c4588b","ios":"levelo://app?vid=bf16c117-d788-449d-9785-2d9427c4588b"},"vehicle_type_id":"4","last_reported":1703783162,"current_range_meters":31200,"station_id":"ce4bh192rcd13ifvqdc0","pricing_plan_id":"free"},{"bike_id":"ddbc9d1d-6e08-4e4f-9878-ee317f2e3c88","system_id":"levelo_inurba_marseille","lat":43.292569,"lon":5.409107,"is_reserved":false,"is_disabled":false,"rental_uris":{"android":"levelo://app?vid=ddbc9d1d-6e08-4e4f-9878-ee317f2e3c88","ios":"levelo://app?vid=ddbc9d1d-6e08-4e4f-9878-ee317f2e3c88"},"vehicle_type_id":"4","last_reported":1703783162,"current_range_meters":30800,"station_id":"ce4bh192rcd13ifvqdc0","pricing_plan_id":"free"},{"bike_id":"9531cf7b-d04d-46cc-8306-2bab2dcd0c13","system_id":"levelo_inurba_marseille","lat":43.292569,"lon":5.409107,"is_reserved":false,"is_disabled":false,"rental_uris":{"android":"levelo://app?vid=9531cf7b-d04d-46cc-8306-2bab2dcd0c13","ios":"levelo://app?vid=9531cf7b-d04d-46cc-8306-2bab2dcd0c13"},"vehicle_type_id":"4","last_reported":1703783162,"current_range_meters":30000,"station_id":"ce4bh192rcd13ifvqdc0","pricing_plan_id":"free"},{"bike_id":"1d841ab4-c3ec-493f-b4ae-3bcb6d78c244","system_id":"levelo_inurba_marseille","lat":43.27618,"lon":5.361009,"is_reserved":false,"is_disabled":false,"rental_uris":{"android":"levelo://app?vid=1d841ab4-c3ec-493f-b4ae-3bcb6d78c244","ios":"levelo://app?vid=1d841ab4-c3ec-493f-b4ae-3bcb6d78c244"},"vehicle_type_id":"4","last_reported":1703783162,"current_range_meters":22000,"station_id":"ce4bgj92rcd13ifvqbe0","pricing_plan_id":"free"},{"bike_id":"1cfa2c67-3cf0-434b-b356-1136962b5a22","system_id":"levelo_inurba_marseille","lat":43.280784,"lon":5.396622,"is_reserved":false,"is_disabled":false,"rental_uris":{"android":"levelo://app?vid=1cfa2c67-3cf0-434b-b356-1136962b5a22","ios":"levelo://app?vid=1cfa2c67-3cf0-434b-b356-1136962b5a22"},"vehicle_type_id":"4","last_reported":1703783162,"current_range_meters":21200,"station_id":"ce4bho12rcd13ifvqh2g","pricing_plan_id":"free"},{"bike_id":"a03e7ea8-a658-4242-8426-13a68207d201","system_id":"levelo_inurba_marseille","lat":43.303837,"lon":5.418724,"is_reserved":false,"is_disabled":false,"rental_uris":{"android":"levelo://app?vid=a03e7ea8-a658-4242-8426-13a68207d201","ios":"levelo://app?vid=a03e7ea8-a658-4242-8426-13a68207d201"},"vehicle_type_id":"4","last_reported":1703783162,"current_range_meters":2400,"station_id":"ce4bhop2rcd13ifvqh7g","pricing_plan_id":"free"},{"bike_id":"e8981072-2e0c-4128-bb98-80b9e893a717","system_id":"levelo_inurba_marseille","lat":43.278401,"lon":5.392152,"is_reserved":false,"is_disabled":false,"rental_uris":{"android":"levelo://app?vid=e8981072-2e0c-4128-bb98-80b9e893a717","ios":"levelo://app?vid=e8981072-2e0c-4128-bb98-80b9e893a717"},"vehicle_type_id":"4","last_reported":1703783162,"current_range_meters":19200,"station_id":"ce4bhjp2rcd13ifvqga0","pricing_plan_id":"free"},{"bike_id":"4f1945ef-0b80-477f-be33-a48968776db0","system_id":"levelo_inurba_marseille","lat":43.273613,"lon":5.362705,"is_reserved":false,"is_disabled":false,"rental_uris":{"android":"levelo://app?vid=4f1945ef-0b80-477f-be33-a48968776db0","ios":"levelo://app?vid=4f1945ef-0b80-477f-be33-a48968776db0"},"vehicle_type_id":"4","last_reported":1703783162,"current_range_meters":29600,"station_id":"ce4bhbh2rcd13ifvqeo0","pricing_plan_id":"free"},{"bike_id":"c36b16d5-1c97-45b8-a241-ff0c2c6ac51b","system_id":"levelo_inurba_marseille","lat":43.275625,"lon":5.384392,"is_reserved":false,"is_disabled":false,"rental_uris":{"android":"levelo://app?vid=c36b16d5-1c97-45b8-a241-ff0c2c6ac51b","ios":"levelo://app?vid=c36b16d5-1c97-45b8-a241-ff0c2c6ac51b"},"vehicle_type_id":"4","last_reported":1703783162,"current_range_meters":7600,"station_id":"ce4bhh92rcd13ifvqfi0","pricing_plan_id":"free"},{"bike_id":"0626e3ce-4320-4fc6-956a-d14400548933","system_id":"levelo_inurba_marseille","lat":43.336148,"lon":5.410349,"is_reserved":false,"is_disabled":false,"rental_uris":{"android":"levelo://app?vid=0626e3ce-4320-4fc6-956a-d14400548933","ios":"levelo://app?vid=0626e3ce-4320-4fc6-956a-d14400548933"},"vehicle_type_id":"4","last_reported":1703783162,"current_range_meters":29600,"station_id":"ce4bhqh2rcd13ifvqhmg","pricing_plan_id":"free"},{"bike_id":"c5097c6d-28e9-4b1f-a0ba-02096980ff87","system_id":"levelo_inurba_marseille","lat":43.275625,"lon":5.384392,"is_reserved":false,"is_disabled":false,"rental_uris":{"android":"levelo://app?vid=c5097c6d-28e9-4b1f-a0ba-02096980ff87","ios":"levelo://app?vid=c5097c6d-28e9-4b1f-a0ba-02096980ff87"},"vehicle_type_id":"4","last_reported":1703783162,"current_range_meters":26400,"station_id":"ce4bhh92rcd13ifvqfi0","pricing_plan_id":"free"},{"bike_id":"41908f97-b8b7-456c-b090-98c8215fb50a","system_id":"levelo_inurba_marseille","lat":43.310785,"lon":5.424305,"is_reserved":false,"is_disabled":false,"rental_uris":{"android":"levelo://app?vid=41908f97-b8b7-456c-b090-98c8215fb50a","ios":"levelo://app?vid=41908f97-b8b7-456c-b090-98c8215fb50a"},"vehicle_type_id":"4","last_reported":1703783162,"current_range_meters":8400,"station_id":"ce4bhp92rcd13ifvqhag","pricing_plan_id":"free"},{"bike_id":"4eb2104a-9f1d-48d0-a4c9-912a09a4a7a1","system_id":"levelo_inurba_marseille","lat":43.274103,"lon":5.394016,"is_reserved":false,"is_disabled":false,"rental_uris":{"android":"levelo://app?vid=4eb2104a-9f1d-48d0-a4c9-912a09a4a7a1","ios":"levelo://app?vid=4eb2104a-9f1d-48d0-a4c9-912a09a4a7a1"},"vehicle_type_id":"4","last_reported":1703783162,"current_range_meters":17600,"station_id":"ce4bhdp2rcd13ifvqf20","pricing_plan_id":"free"},{"bike_id":"c7e47cc7-448f-4b53-a41e-61ee34c43961","system_id":"levelo_inurba_marseille","lat":43.273125,"lon":5.390731,"is_reserved":false,"is_disabled":false,"rental_uris":{"android":"levelo://app?vid=c7e47cc7-448f-4b53-a41e-61ee34c43961","ios":"levelo://app?vid=c7e47cc7-448f-4b53-a41e-61ee34c43961"},"vehicle_type_id":"4","last_reported":1703783162,"current_range_meters":23200,"station_id":"ce4bhgp2rcd13ifvqfe0","pricing_plan_id":"free"},{"bike_id":"6a85aad5-1ca3-44f9-8bcd-621d7d076b73","system_id":"levelo_inurba_marseille","lat":43.274099,"lon":5.394019,"is_reserved":false,"is_disabled":false,"rental_uris":{"android":"levelo://app?vid=6a85aad5-1ca3-44f9-8bcd-621d7d076b73","ios":"levelo://app?vid=6a85aad5-1ca3-44f9-8bcd-621d7d076b73"},"vehicle_type_id":"4","last_reported":1703783162,"current_range_meters":30400,"station_id":"ce4bhdp2rcd13ifvqf20","pricing_plan_id":"free"},{"bike_id":"8cbbed53-fff5-4f21-ab57-a64310209bd0","system_id":"levelo_inurba_marseille","lat":43.304096,"lon":5.425385,"is_reserved":false,"is_disabled":false,"rental_uris":{"android":"levelo://app?vid=8cbbed53-fff5-4f21-ab57-a64310209bd0","ios":"levelo://app?vid=8cbbed53-fff5-4f21-ab57-a64310209bd0"},"vehicle_type_id":"4","last_reported":1703783162,"current_range_meters":11600,"station_id":"ce4bhoh2rcd13ifvqh6g","pricing_plan_id":"free"},{"bike_id":"623e5527-a121-4ec1-8cc0-17b5fddea11b","system_id":"levelo_inurba_marseille","lat":43.295523,"lon":5.422926,"is_reserved":false,"is_disabled":false,"rental_uris":{"android":"levelo://app?vid=623e5527-a121-4ec1-8cc0-17b5fddea11b","ios":"levelo://app?vid=623e5527-a121-4ec1-8cc0-17b5fddea11b"},"vehicle_type_id":"4","last_reported":1703783162,"current_range_meters":26000,"station_id":"ce4bhph2rcd13ifvqhdg","pricing_plan_id":"free"},{"bike_id":"acec87c8-498e-46a9-a572-8de891a24d3a","system_id":"levelo_inurba_marseille","lat":43.295523,"lon":5.422926,"is_reserved":false,"is_disabled":false,"rental_uris":{"android":"levelo://app?vid=acec87c8-498e-46a9-a572-8de891a24d3a","ios":"levelo://app?vid=acec87c8-498e-46a9-a572-8de891a24d3a"},"vehicle_type_id":"4","last_reported":1703783162,"current_range_meters":24000,"station_id":"ce4bhph2rcd13ifvqhdg","pricing_plan_id":"free"},{"bike_id":"6a48db3f-9fc3-4404-b973-f4cc675c01c7","system_id":"levelo_inurba_marseille","lat":43.295523,"lon":5.422926,"is_reserved":false,"is_disabled":false,"rental_uris":{"android":"levelo://app?vid=6a48db3f-9fc3-4404-b973-f4cc675c01c7","ios":"levelo://app?vid=6a48db3f-9fc3-4404-b973-f4cc675c01c7"},"vehicle_type_id":"4","last_reported":1703783162,"current_range_meters":28400,"station_id":"ce4bhph2rcd13ifvqhdg","pricing_plan_id":"free"},{"bike_id":"6d735bdc-6834-49ef-ad58-2a1b73a15a49","system_id":"levelo_inurba_marseille","lat":43.295523,"lon":5.422926,"is_reserved":false,"is_disabled":false,"rental_uris":{"android":"levelo://app?vid=6d735bdc-6834-49ef-ad58-2a1b73a15a49","ios":"levelo://app?vid=6d735bdc-6834-49ef-ad58-2a1b73a15a49"},"vehicle_type_id":"4","last_reported":1703783162,"current_range_meters":31200,"station_id":"ce4bhph2rcd13ifvqhdg","pricing_plan_id":"free"},{"bike_id":"bc660e5c-f7cd-4460-935e-226ad1eba4eb","system_id":"levelo_inurba_marseille","lat":43.295523,"lon":5.422926,"is_reserved":false,"is_disabled":false,"rental_uris":{"android":"levelo://app?vid=bc660e5c-f7cd-4460-935e-226ad1eba4eb","ios":"levelo://app?vid=bc660e5c-f7cd-4460-935e-226ad1eba4eb"},"vehicle_type_id":"4","last_reported":1703783162,"current_range_meters":29600,"station_id":"ce4bhph2rcd13ifvqhdg","pricing_plan_id":"free"},{"bike_id":"e192df68-2c2b-482d-b6fd-3b8920434290","system_id":"levelo_inurba_marseille","lat":43.29547,"lon":5.42285,"is_reserved":false,"is_disabled":false,"rental_uris":{"android":"levelo://app?vid=e192df68-2c2b-482d-b6fd-3b8920434290","ios":"levelo://app?vid=e192df68-2c2b-482d-b6fd-3b8920434290"},"vehicle_type_id":"4","last_reported":1703783162,"current_range_meters":22400,"station_id":"ce4bhph2rcd13ifvqhdg","pricing_plan_id":"free"},{"bike_id":"dcb34f7e-4bb0-4f50-a0bd-5ae8e961c5f1","system_id":"levelo_inurba_marseille","lat":43.27212,"lon":5.3925,"is_reserved":false,"is_disabled":false,"rental_uris":{"android":"levelo://app?vid=dcb34f7e-4bb0-4f50-a0bd-5ae8e961c5f1","ios":"levelo://app?vid=dcb34f7e-4bb0-4f50-a0bd-5ae8e961c5f1"},"vehicle_type_id":"4","last_reported":1703783162,"current_range_meters":800,"station_id":"","pricing_plan_id":"free"},{"bike_id":"736f3148-532f-4fc9-9ea9-185b046a261b","system_id":"levelo_inurba_marseille","lat":43.278128,"lon":5.407195,"is_reserved":false,"is_disabled":false,"rental_uris":{"android":"levelo://app?vid=736f3148-532f-4fc9-9ea9-185b046a261b","ios":"levelo://app?vid=736f3148-532f-4fc9-9ea9-185b046a261b"},"vehicle_type_id":"4","last_reported":1703783162,"current_range_meters":18800,"station_id":"ce4bhnh2rcd13ifvqgtg","pricing_plan_id":"free"},{"bike_id":"9a4f98b0-7c0a-4ea7-a251-35c8c0ddab30","system_id":"levelo_inurba_marseille","lat":43.278128,"lon":5.407195,"is_reserved":false,"is_disabled":false,"rental_uris":{"android":"levelo://app?vid=9a4f98b0-7c0a-4ea7-a251-35c8c0ddab30","ios":"levelo://app?vid=9a4f98b0-7c0a-4ea7-a251-35c8c0ddab30"},"vehicle_type_id":"4","last_reported":1703783162,"current_range_meters":24000,"station_id":"ce4bhnh2rcd13ifvqgtg","pricing_plan_id":"free"},{"bike_id":"3478ecf5-8976-43fc-b6c5-b685d6a727aa","system_id":"levelo_inurba_marseille","lat":43.269467,"lon":5.386439,"is_reserved":false,"is_disabled":false,"rental_uris":{"android":"levelo://app?vid=3478ecf5-8976-43fc-b6c5-b685d6a727aa","ios":"levelo://app?vid=3478ecf5-8976-43fc-b6c5-b685d6a727aa"},"vehicle_type_id":"4","last_reported":1703783162,"current_range_meters":23600,"station_id":"ce4bhh92rcd13ifvqfh0","pricing_plan_id":"free"},{"bike_id":"6a7d38ed-13b4-47ba-8e05-89274c445f56","system_id":"levelo_inurba_marseille","lat":43.278128,"lon":5.407195,"is_reserved":false,"is_disabled":false,"rental_uris":{"android":"levelo://app?vid=6a7d38ed-13b4-47ba-8e05-89274c445f56","ios":"levelo://app?vid=6a7d38ed-13b4-47ba-8e05-89274c445f56"},"vehicle_type_id":"4","last_reported":1703783162,"current_range_meters":18000,"station_id":"ce4bhnh2rcd13ifvqgtg","pricing_plan_id":"free"},{"bike_id":"25027da1-9cc0-44ef-a2da-0f7e36fa0493","system_id":"levelo_inurba_marseille","lat":43.269467,"lon":5.386439,"is_reserved":false,"is_disabled":false,"rental_uris":{"android":"levelo://app?vid=25027da1-9cc0-44ef-a2da-0f7e36fa0493","ios":"levelo://app?vid=25027da1-9cc0-44ef-a2da-0f7e36fa0493"},"vehicle_type_id":"4","last_reported":1703783162,"current_range_meters":16800,"station_id":"ce4bhh92rcd13ifvqfh0","pricing_plan_id":"free"},{"bike_id":"d0c0220c-f119-45c5-9964-4ebfa425e174","system_id":"levelo_inurba_marseille","lat":43.269467,"lon":5.386439,"is_reserved":false,"is_disabled":false,"rental_uris":{"android":"levelo://app?vid=d0c0220c-f119-45c5-9964-4ebfa425e174","ios":"levelo://app?vid=d0c0220c-f119-45c5-9964-4ebfa425e174"},"vehicle_type_id":"4","last_reported":1703783162,"current_range_meters":27600,"station_id":"ce4bhh92rcd13ifvqfh0","pricing_plan_id":"free"},{"bike_id":"60e2e9e6-400b-47d2-890d-cf836341757e","system_id":"levelo_inurba_marseille","lat":43.269467,"lon":5.386439,"is_reserved":false,"is_disabled":false,"rental_uris":{"android":"levelo://app?vid=60e2e9e6-400b-47d2-890d-cf836341757e","ios":"levelo://app?vid=60e2e9e6-400b-47d2-890d-cf836341757e"},"vehicle_type_id":"4","last_reported":1703783162,"current_range_meters":13600,"station_id":"ce4bhh92rcd13ifvqfh0","pricing_plan_id":"free"},{"bike_id":"53c5d7d1-4169-4079-bcf9-2053449b6441","system_id":"levelo_inurba_marseille","lat":43.279465,"lon":5.410561,"is_reserved":false,"is_disabled":false,"rental_uris":{"android":"levelo://app?vid=53c5d7d1-4169-4079-bcf9-2053449b6441","ios":"levelo://app?vid=53c5d7d1-4169-4079-bcf9-2053449b6441"},"vehicle_type_id":"4","last_reported":1703783162,"current_range_meters":26400,"station_id":"ce4bhnp2rcd13ifvqh0g","pricing_plan_id":"free"},{"bike_id":"4946c754-0ba2-4a5e-81a7-2262aea99a81","system_id":"levelo_inurba_marseille","lat":43.279182,"lon":5.412238,"is_reserved":false,"is_disabled":false,"rental_uris":{"android":"levelo://app?vid=4946c754-0ba2-4a5e-81a7-2262aea99a81","ios":"levelo://app?vid=4946c754-0ba2-4a5e-81a7-2262aea99a81"},"vehicle_type_id":"4","last_reported":1703783162,"current_range_meters":13600,"station_id":"","pricing_plan_id":"free"},{"bike_id":"3b9e03da-2467-471d-8d08-a6f41b0772e6","system_id":"levelo_inurba_marseille","lat":43.265595,"lon":5.37291,"is_reserved":false,"is_disabled":false,"rental_uris":{"android":"levelo://app?vid=3b9e03da-2467-471d-8d08-a6f41b0772e6","ios":"levelo://app?vid=3b9e03da-2467-471d-8d08-a6f41b0772e6"},"vehicle_type_id":"4","last_reported":1703783162,"current_range_meters":30400,"station_id":"ce4bhg12rcd13ifvqf70","pricing_plan_id":"free"},{"bike_id":"64e44c37-02fa-410b-8031-3722018edfc4","system_id":"levelo_inurba_marseille","lat":43.26682,"lon":5.38282,"is_reserved":false,"is_disabled":false,"rental_uris":{"android":"levelo://app?vid=64e44c37-02fa-410b-8031-3722018edfc4","ios":"levelo://app?vid=64e44c37-02fa-410b-8031-3722018edfc4"},"vehicle_type_id":"4","last_reported":1703783162,"current_range_meters":23200,"station_id":"ce4bhg92rcd13ifvqf90","pricing_plan_id":"free"},{"bike_id":"b99eb268-8186-420c-81ac-a9cfe3af0e40","system_id":"levelo_inurba_marseille","lat":43.265714,"lon":5.372891,"is_reserved":false,"is_disabled":false,"rental_uris":{"android":"levelo://app?vid=b99eb268-8186-420c-81ac-a9cfe3af0e40","ios":"levelo://app?vid=b99eb268-8186-420c-81ac-a9cfe3af0e40"},"vehicle_type_id":"4","last_reported":1703783162,"current_range_meters":31200,"station_id":"ce4bhg12rcd13ifvqf70","pricing_plan_id":"free"},{"bike_id":"018c631a-ef8b-4991-b6ec-8caf23fbb333","system_id":"levelo_inurba_marseille","lat":43.2801,"lon":5.41665,"is_reserved":false,"is_disabled":false,"rental_uris":{"android":"levelo://app?vid=018c631a-ef8b-4991-b6ec-8caf23fbb333","ios":"levelo://app?vid=018c631a-ef8b-4991-b6ec-8caf23fbb333"},"vehicle_type_id":"4","last_reported":1703783162,"current_range_meters":14800,"station_id":"","pricing_plan_id":"free"},{"bike_id":"9aa37cd5-a2fd-4cdd-8ee3-862e8fd3da54","system_id":"levelo_inurba_marseille","lat":43.28002,"lon":5.41656,"is_reserved":false,"is_disabled":false,"rental_uris":{"android":"levelo://app?vid=9aa37cd5-a2fd-4cdd-8ee3-862e8fd3da54","ios":"levelo://app?vid=9aa37cd5-a2fd-4cdd-8ee3-862e8fd3da54"},"vehicle_type_id":"4","last_reported":1703783162,"current_range_meters":26000,"station_id":"","pricing_plan_id":"free"},{"bike_id":"96f6342a-8a2b-4dc6-b13a-2131ead01e18","system_id":"levelo_inurba_marseille","lat":43.27996,"lon":5.416624,"is_reserved":false,"is_disabled":false,"rental_uris":{"android":"levelo://app?vid=96f6342a-8a2b-4dc6-b13a-2131ead01e18","ios":"levelo://app?vid=96f6342a-8a2b-4dc6-b13a-2131ead01e18"},"vehicle_type_id":"4","last_reported":1703783162,"current_range_meters":31200,"station_id":"ce4bho12rcd13ifvqh1g","pricing_plan_id":"free"},{"bike_id":"d00305ea-f5fa-40d5-8ff2-4783231e3da7","system_id":"levelo_inurba_marseille","lat":43.27996,"lon":5.416624,"is_reserved":false,"is_disabled":false,"rental_uris":{"android":"levelo://app?vid=d00305ea-f5fa-40d5-8ff2-4783231e3da7","ios":"levelo://app?vid=d00305ea-f5fa-40d5-8ff2-4783231e3da7"},"vehicle_type_id":"4","last_reported":1703783162,"current_range_meters":27600,"station_id":"ce4bho12rcd13ifvqh1g","pricing_plan_id":"free"},{"bike_id":"0321d225-6854-49c9-8cc9-c3be2f579098","system_id":"levelo_inurba_marseille","lat":43.27996,"lon":5.416624,"is_reserved":false,"is_disabled":false,"rental_uris":{"android":"levelo://app?vid=0321d225-6854-49c9-8cc9-c3be2f579098","ios":"levelo://app?vid=0321d225-6854-49c9-8cc9-c3be2f579098"},"vehicle_type_id":"4","last_reported":1703783162,"current_range_meters":31600,"station_id":"ce4bho12rcd13ifvqh1g","pricing_plan_id":"free"},{"bike_id":"7e52f9fe-170c-460b-84a9-62969e911261","system_id":"levelo_inurba_marseille","lat":43.27991,"lon":5.41662,"is_reserved":false,"is_disabled":false,"rental_uris":{"android":"levelo://app?vid=7e52f9fe-170c-460b-84a9-62969e911261","ios":"levelo://app?vid=7e52f9fe-170c-460b-84a9-62969e911261"},"vehicle_type_id":"4","last_reported":1703783162,"current_range_meters":12000,"station_id":"ce4bho12rcd13ifvqh1g","pricing_plan_id":"free"},{"bike_id":"0c42e786-e8bd-4caa-9265-8e63ddc2fe7d","system_id":"levelo_inurba_marseille","lat":43.27996,"lon":5.416624,"is_reserved":false,"is_disabled":false,"rental_uris":{"android":"levelo://app?vid=0c42e786-e8bd-4caa-9265-8e63ddc2fe7d","ios":"levelo://app?vid=0c42e786-e8bd-4caa-9265-8e63ddc2fe7d"},"vehicle_type_id":"4","last_reported":1703783162,"current_range_meters":22400,"station_id":"ce4bho12rcd13ifvqh1g","pricing_plan_id":"free"},{"bike_id":"5ba2f9e4-fa9c-4656-abce-5f3004e68a0d","system_id":"levelo_inurba_marseille","lat":43.279967,"lon":5.416713,"is_reserved":false,"is_disabled":false,"rental_uris":{"android":"levelo://app?vid=5ba2f9e4-fa9c-4656-abce-5f3004e68a0d","ios":"levelo://app?vid=5ba2f9e4-fa9c-4656-abce-5f3004e68a0d"},"vehicle_type_id":"4","last_reported":1703783162,"current_range_meters":24800,"station_id":"","pricing_plan_id":"free"},{"bike_id":"b00bf69e-8be6-4868-92e2-74511fafb87e","system_id":"levelo_inurba_marseille","lat":43.27996,"lon":5.416624,"is_reserved":false,"is_disabled":false,"rental_uris":{"android":"levelo://app?vid=b00bf69e-8be6-4868-92e2-74511fafb87e","ios":"levelo://app?vid=b00bf69e-8be6-4868-92e2-74511fafb87e"},"vehicle_type_id":"4","last_reported":1703783162,"current_range_meters":4800,"station_id":"ce4bho12rcd13ifvqh1g","pricing_plan_id":"free"},{"bike_id":"708bbb25-9019-4490-82b1-656710206ae5","system_id":"levelo_inurba_marseille","lat":43.26785,"lon":5.39413,"is_reserved":false,"is_disabled":false,"rental_uris":{"android":"levelo://app?vid=708bbb25-9019-4490-82b1-656710206ae5","ios":"levelo://app?vid=708bbb25-9019-4490-82b1-656710206ae5"},"vehicle_type_id":"4","last_reported":1703783162,"current_range_meters":25200,"station_id":"ce4bhh12rcd13ifvqfg0","pricing_plan_id":"free"},{"bike_id":"29457898-ff7c-4cfd-847c-7a1086f014f9","system_id":"levelo_inurba_marseille","lat":43.267966,"lon":5.393976,"is_reserved":false,"is_disabled":false,"rental_uris":{"android":"levelo://app?vid=29457898-ff7c-4cfd-847c-7a1086f014f9","ios":"levelo://app?vid=29457898-ff7c-4cfd-847c-7a1086f014f9"},"vehicle_type_id":"4","last_reported":1703783162,"current_range_meters":20400,"station_id":"ce4bhh12rcd13ifvqfg0","pricing_plan_id":"free"},{"bike_id":"88f16620-5cc0-44a5-9f0b-4f40cad1b43b","system_id":"levelo_inurba_marseille","lat":43.263717,"lon":5.373933,"is_reserved":false,"is_disabled":false,"rental_uris":{"android":"levelo://app?vid=88f16620-5cc0-44a5-9f0b-4f40cad1b43b","ios":"levelo://app?vid=88f16620-5cc0-44a5-9f0b-4f40cad1b43b"},"vehicle_type_id":"4","last_reported":1703783162,"current_range_meters":29200,"station_id":"","pricing_plan_id":"free"},{"bike_id":"b059dd0d-1135-436b-aef2-754680413b30","system_id":"levelo_inurba_marseille","lat":43.258224,"lon":5.394369,"is_reserved":false,"is_disabled":false,"rental_uris":{"android":"levelo://app?vid=b059dd0d-1135-436b-aef2-754680413b30","ios":"levelo://app?vid=b059dd0d-1135-436b-aef2-754680413b30"},"vehicle_type_id":"4","last_reported":1703783162,"current_range_meters":2800,"station_id":"ce4bhip2rcd13ifvqft0","pricing_plan_id":"free"},{"bike_id":"b142e925-c295-43ac-bd4d-906b4f93788a","system_id":"levelo_inurba_marseille","lat":43.26368,"lon":5.374,"is_reserved":false,"is_disabled":false,"rental_uris":{"android":"levelo://app?vid=b142e925-c295-43ac-bd4d-906b4f93788a","ios":"levelo://app?vid=b142e925-c295-43ac-bd4d-906b4f93788a"},"vehicle_type_id":"4","last_reported":1703783162,"current_range_meters":30000,"station_id":"","pricing_plan_id":"free"},{"bike_id":"e43782e5-9b2d-4e13-9246-2452f501c0ed","system_id":"levelo_inurba_marseille","lat":43.26351,"lon":5.37409,"is_reserved":false,"is_disabled":false,"rental_uris":{"android":"levelo://app?vid=e43782e5-9b2d-4e13-9246-2452f501c0ed","ios":"levelo://app?vid=e43782e5-9b2d-4e13-9246-2452f501c0ed"},"vehicle_type_id":"4","last_reported":1703783162,"current_range_meters":27200,"station_id":"","pricing_plan_id":"free"},{"bike_id":"5020d136-4dcb-45cd-955b-b84ceda2d154","system_id":"levelo_inurba_marseille","lat":43.26949,"lon":5.40262,"is_reserved":false,"is_disabled":false,"rental_uris":{"android":"levelo://app?vid=5020d136-4dcb-45cd-955b-b84ceda2d154","ios":"levelo://app?vid=5020d136-4dcb-45cd-955b-b84ceda2d154"},"vehicle_type_id":"4","last_reported":1703783162,"current_range_meters":16400,"station_id":"cjm6bp8fraef2m0cb0m0","pricing_plan_id":"free"},{"bike_id":"1b2f91d3-7046-40b7-8787-c057bb5a9296","system_id":"levelo_inurba_marseille","lat":43.26949,"lon":5.40262,"is_reserved":false,"is_disabled":false,"rental_uris":{"android":"levelo://app?vid=1b2f91d3-7046-40b7-8787-c057bb5a9296","ios":"levelo://app?vid=1b2f91d3-7046-40b7-8787-c057bb5a9296"},"vehicle_type_id":"4","last_reported":1703783162,"current_range_meters":18400,"station_id":"cjm6bp8fraef2m0cb0m0","pricing_plan_id":"free"},{"bike_id":"ebc89169-1037-4b6e-b643-19ed781ac319","system_id":"levelo_inurba_marseille","lat":43.26949,"lon":5.40262,"is_reserved":false,"is_disabled":false,"rental_uris":{"android":"levelo://app?vid=ebc89169-1037-4b6e-b643-19ed781ac319","ios":"levelo://app?vid=ebc89169-1037-4b6e-b643-19ed781ac319"},"vehicle_type_id":"4","last_reported":1703783162,"current_range_meters":25200,"station_id":"cjm6bp8fraef2m0cb0m0","pricing_plan_id":"free"},{"bike_id":"dac5ea74-92f7-462e-b536-31f322bb01c0","system_id":"levelo_inurba_marseille","lat":43.331893,"lon":5.431791,"is_reserved":false,"is_disabled":false,"rental_uris":{"android":"levelo://app?vid=dac5ea74-92f7-462e-b536-31f322bb01c0","ios":"levelo://app?vid=dac5ea74-92f7-462e-b536-31f322bb01c0"},"vehicle_type_id":"4","last_reported":1703783162,"current_range_meters":22000,"station_id":"","pricing_plan_id":"free"},{"bike_id":"5054be92-c343-4e80-bc98-946be85493ed","system_id":"levelo_inurba_marseille","lat":43.261782,"lon":5.374515,"is_reserved":false,"is_disabled":false,"rental_uris":{"android":"levelo://app?vid=5054be92-c343-4e80-bc98-946be85493ed","ios":"levelo://app?vid=5054be92-c343-4e80-bc98-946be85493ed"},"vehicle_type_id":"4","last_reported":1703783162,"current_range_meters":18000,"station_id":"ce4bhgp2rcd13ifvqfc0","pricing_plan_id":"free"},{"bike_id":"2f583c21-5a19-478f-be23-95f5ad76a7b1","system_id":"levelo_inurba_marseille","lat":43.26191,"lon":5.3744,"is_reserved":false,"is_disabled":false,"rental_uris":{"android":"levelo://app?vid=2f583c21-5a19-478f-be23-95f5ad76a7b1","ios":"levelo://app?vid=2f583c21-5a19-478f-be23-95f5ad76a7b1"},"vehicle_type_id":"4","last_reported":1703783162,"current_range_meters":14400,"station_id":"ce4bhgp2rcd13ifvqfc0","pricing_plan_id":"free"},{"bike_id":"ecbb2877-eab4-4d14-84dc-32aafcd484a0","system_id":"levelo_inurba_marseille","lat":43.261782,"lon":5.374515,"is_reserved":false,"is_disabled":false,"rental_uris":{"android":"levelo://app?vid=ecbb2877-eab4-4d14-84dc-32aafcd484a0","ios":"levelo://app?vid=ecbb2877-eab4-4d14-84dc-32aafcd484a0"},"vehicle_type_id":"4","last_reported":1703783162,"current_range_meters":12000,"station_id":"ce4bhgp2rcd13ifvqfc0","pricing_plan_id":"free"},{"bike_id":"4c9aefba-c382-402e-8670-d318f58f0cd0","system_id":"levelo_inurba_marseille","lat":43.261782,"lon":5.374515,"is_reserved":false,"is_disabled":false,"rental_uris":{"android":"levelo://app?vid=4c9aefba-c382-402e-8670-d318f58f0cd0","ios":"levelo://app?vid=4c9aefba-c382-402e-8670-d318f58f0cd0"},"vehicle_type_id":"4","last_reported":1703783162,"current_range_meters":26000,"station_id":"ce4bhgp2rcd13ifvqfc0","pricing_plan_id":"free"},{"bike_id":"3cde6b9a-bf19-486d-9fa3-e4849cafea4d","system_id":"levelo_inurba_marseille","lat":43.26189,"lon":5.37444,"is_reserved":false,"is_disabled":false,"rental_uris":{"android":"levelo://app?vid=3cde6b9a-bf19-486d-9fa3-e4849cafea4d","ios":"levelo://app?vid=3cde6b9a-bf19-486d-9fa3-e4849cafea4d"},"vehicle_type_id":"4","last_reported":1703783162,"current_range_meters":10800,"station_id":"ce4bhgp2rcd13ifvqfc0","pricing_plan_id":"free"},{"bike_id":"b2400fca-6d1a-463d-81ad-f5623221d132","system_id":"levelo_inurba_marseille","lat":43.26188,"lon":5.37444,"is_reserved":false,"is_disabled":false,"rental_uris":{"android":"levelo://app?vid=b2400fca-6d1a-463d-81ad-f5623221d132","ios":"levelo://app?vid=b2400fca-6d1a-463d-81ad-f5623221d132"},"vehicle_type_id":"4","last_reported":1703783162,"current_range_meters":24000,"station_id":"ce4bhgp2rcd13ifvqfc0","pricing_plan_id":"free"},{"bike_id":"57db5078-b6a4-4946-ad6f-2e67b14378fc","system_id":"levelo_inurba_marseille","lat":43.261782,"lon":5.374515,"is_reserved":false,"is_disabled":false,"rental_uris":{"android":"levelo://app?vid=57db5078-b6a4-4946-ad6f-2e67b14378fc","ios":"levelo://app?vid=57db5078-b6a4-4946-ad6f-2e67b14378fc"},"vehicle_type_id":"4","last_reported":1703783162,"current_range_meters":31200,"station_id":"ce4bhgp2rcd13ifvqfc0","pricing_plan_id":"free"},{"bike_id":"b40b564e-ab5e-4ed2-82e4-384253b5874b","system_id":"levelo_inurba_marseille","lat":43.317104,"lon":5.436818,"is_reserved":false,"is_disabled":false,"rental_uris":{"android":"levelo://app?vid=b40b564e-ab5e-4ed2-82e4-384253b5874b","ios":"levelo://app?vid=b40b564e-ab5e-4ed2-82e4-384253b5874b"},"vehicle_type_id":"4","last_reported":1703783162,"current_range_meters":4800,"station_id":"ce4bhp92rcd13ifvqhcg","pricing_plan_id":"free"},{"bike_id":"664e729b-a1cf-4fc2-b157-9d5d2b001da8","system_id":"levelo_inurba_marseille","lat":43.31712,"lon":5.43713,"is_reserved":false,"is_disabled":false,"rental_uris":{"android":"levelo://app?vid=664e729b-a1cf-4fc2-b157-9d5d2b001da8","ios":"levelo://app?vid=664e729b-a1cf-4fc2-b157-9d5d2b001da8"},"vehicle_type_id":"4","last_reported":1703783162,"current_range_meters":21200,"station_id":"ce4bhp92rcd13ifvqhcg","pricing_plan_id":"free"},{"bike_id":"36c31505-f916-495a-b61b-0ab5278e507c","system_id":"levelo_inurba_marseille","lat":43.26202,"lon":5.379299,"is_reserved":false,"is_disabled":false,"rental_uris":{"android":"levelo://app?vid=36c31505-f916-495a-b61b-0ab5278e507c","ios":"levelo://app?vid=36c31505-f916-495a-b61b-0ab5278e507c"},"vehicle_type_id":"4","last_reported":1703783162,"current_range_meters":19200,"station_id":"ce4bhjp2rcd13ifvqg90","pricing_plan_id":"free"},{"bike_id":"0387d27c-29e5-4ca2-9961-ff2b457f2830","system_id":"levelo_inurba_marseille","lat":43.271368,"lon":5.40928,"is_reserved":false,"is_disabled":false,"rental_uris":{"android":"levelo://app?vid=0387d27c-29e5-4ca2-9961-ff2b457f2830","ios":"levelo://app?vid=0387d27c-29e5-4ca2-9961-ff2b457f2830"},"vehicle_type_id":"4","last_reported":1703783162,"current_range_meters":8000,"station_id":"ce4bhl12rcd13ifvqgf0","pricing_plan_id":"free"},{"bike_id":"3a25b828-e755-4a21-a8bd-fc73364fe5b7","system_id":"levelo_inurba_marseille","lat":43.2651,"lon":5.39469,"is_reserved":false,"is_disabled":false,"rental_uris":{"android":"levelo://app?vid=3a25b828-e755-4a21-a8bd-fc73364fe5b7","ios":"levelo://app?vid=3a25b828-e755-4a21-a8bd-fc73364fe5b7"},"vehicle_type_id":"4","last_reported":1703783162,"current_range_meters":8400,"station_id":"ce4bhi12rcd13ifvqfq0","pricing_plan_id":"free"},{"bike_id":"b80e3160-06ea-44c6-8c3d-699e93d0b9d0","system_id":"levelo_inurba_marseille","lat":43.298768,"lon":5.43643,"is_reserved":false,"is_disabled":false,"rental_uris":{"android":"levelo://app?vid=b80e3160-06ea-44c6-8c3d-699e93d0b9d0","ios":"levelo://app?vid=b80e3160-06ea-44c6-8c3d-699e93d0b9d0"},"vehicle_type_id":"4","last_reported":1703783162,"current_range_meters":6400,"station_id":"ce4bhpp2rcd13ifvqhfg","pricing_plan_id":"free"},{"bike_id":"5e7f9bc9-cc55-432e-98cb-72e2d27cf873","system_id":"levelo_inurba_marseille","lat":43.298768,"lon":5.43643,"is_reserved":false,"is_disabled":false,"rental_uris":{"android":"levelo://app?vid=5e7f9bc9-cc55-432e-98cb-72e2d27cf873","ios":"levelo://app?vid=5e7f9bc9-cc55-432e-98cb-72e2d27cf873"},"vehicle_type_id":"4","last_reported":1703783162,"current_range_meters":2800,"station_id":"ce4bhpp2rcd13ifvqhfg","pricing_plan_id":"free"},{"bike_id":"54d9622f-c013-4f1c-9476-30ef8b856de8","system_id":"levelo_inurba_marseille","lat":43.298768,"lon":5.43643,"is_reserved":false,"is_disabled":false,"rental_uris":{"android":"levelo://app?vid=54d9622f-c013-4f1c-9476-30ef8b856de8","ios":"levelo://app?vid=54d9622f-c013-4f1c-9476-30ef8b856de8"},"vehicle_type_id":"4","last_reported":1703783162,"current_range_meters":10000,"station_id":"ce4bhpp2rcd13ifvqhfg","pricing_plan_id":"free"},{"bike_id":"f4950428-ac59-4968-9116-c7d484154074","system_id":"levelo_inurba_marseille","lat":43.298768,"lon":5.43643,"is_reserved":false,"is_disabled":false,"rental_uris":{"android":"levelo://app?vid=f4950428-ac59-4968-9116-c7d484154074","ios":"levelo://app?vid=f4950428-ac59-4968-9116-c7d484154074"},"vehicle_type_id":"4","last_reported":1703783162,"current_range_meters":23200,"station_id":"ce4bhpp2rcd13ifvqhfg","pricing_plan_id":"free"},