{"last_updated":1733292881,"ttl":60,"version":"2.2","data":{"bikes":[{"bike_id":"4c717cbf-6a6c-44a9-a199-6a682890d7fc","system_id":"levelo_inurba_marseille","lat":43.28365,"lon":5.38645,"is_reserved":false,"is_disabled":false,"rental_uris":{"android":"levelo://app?vid=4c717cbf-6a6c-44a9-a199-6a682890d7fc","ios":"levelo://app?vid=4c717cbf-6a6c-44a9-a199-6a682890d7fc"},"vehicle_type_id":"4","last_reported":1733292881,"current_range_meters":26000,"station_id":"ce4bh492rcd13ifvqdvg","pricing_plan_id":"cebpf4jnsgd1na2vs0mg"},{"bike_id":"df479c2c-35ac-44ad-b9d6-81c89ed769ce","system_id":"levelo_inurba_marseille","lat":43.29699,"lon":5.37054,"is_reserved":false,"is_disabled":true,"rental_uris":{"android":"levelo://app?vid=df479c2c-35ac-44ad-b9d6-81c89ed769ce","ios":"levelo://app?vid=df479c2c-35ac-44ad-b9d6-81c89ed769ce"},"vehicle_type_id":"4","last_reported":1733292881,"current_range_meters":0,"station_id":"","pricing_plan_id":"cebpf4jnsgd1na2vs0mg"},{"bike_id":"8e029eaf-e104-4c5d-858d-6cd39de73d09","system_id":"levelo_inurba_marseille","lat":43.24167,"lon":5.36399,"is_reserved":false,"is_disabled":false,"rental_uris":{"android":"levelo://app?vid=8e029eaf-e104-4c5d-858d-6cd39de73d09","ios":"levelo://app?vid=8e029eaf-e104-4c5d-858d-6cd39de73d09"},"vehicle_type_id":"4","last_reported":1733292881,"current_range_meters":10000,"station_id":"cpo36qri1sfpv3e86is0","pricing_plan_id":"cebpf4jnsgd1na2vs0mg"},{"bike_id":"fd85f247-bc9f-4512-8957-89e7641ccdee","system_id":"levelo_inurba_marseille","lat":43.32476,"lon":5.36575,"is_reserved":false,"is_disabled":false,"rental_uris":{"android":"levelo://app?vid=fd85f247-bc9f-4512-8957-89e7641ccdee","ios":"levelo://app?vid=fd85f247-bc9f-4512-8957-89e7641ccdee"},"vehicle_type_id":"4","last_reported":1733292881,"current_range_meters":35600,"station_id":"ce4bhs12rcd13ifvqhvg","pricing_plan_id":"cebpf4jnsgd1na2vs0mg"},{"bike_id":"44abd147-6446-47ed-bb8c-8a3703ecdc0c","system_id":"levelo_inurba_marseille","lat":43.25826,"lon":5.3944,"is_reserved":false,"is_disabled":false,"rental_uris":{"android":"levelo://app?vid=44abd147-6446-47ed-bb8c-8a3703ecdc0c","ios":"levelo://app?vid=44abd147-6446-47ed-bb8c-8a3703ecdc0c"},"vehicle_type_id":"4","last_reported":1733292881,"current_range_meters":36400,"station_id":"ce4bhip2rcd13ifvqft0","pricing_plan_id":"cebpf4jnsgd1na2vs0mg"},{"bike_id":"759ec0f9-7c00-4343-91dd-be7b6e2cf7e0","system_id":"levelo_inurba_marseille","lat":43.27676,"lon":5.38938,"is_reserved":false,"is_disabled":true,"rental_uris":{"android":"levelo://app?vid=759ec0f9-7c00-4343-91dd-be7b6e2cf7e0","ios":"levelo://app?vid=759ec0f9-7c00-4343-91dd-be7b6e2cf7e0"},"vehicle_type_id":"4","last_reported":1733292881,"current_range_meters":30400,"station_id":"ce4bhi12rcd13ifvqfo0","pricing_plan_id":"cebpf4jnsgd1na2vs0mg"},{"bike_id":"51b51fa2-c31e-4579-91e7-095efd534359","system_id":"levelo_inurba_marseille","lat":43.23203,"lon":5.35548,"is_reserved":false,"is_disabled":false,"rental_uris":{"android":"levelo://app?vid=51b51fa2-c31e-4579-91e7-095efd534359","ios":"levelo://app?vid=51b51fa2-c31e-4579-91e7-095efd534359"},"vehicle_type_id":"4","last_reported":1733292881,"current_range_meters":38800,"station_id":"ce4bhu92rcd13ifvqi70","pricing_plan_id":"cebpf4jnsgd1na2vs0mg"},{"bike_id":"c34e62e4-6031-402e-8cf8-50fa962bdd62","system_id":"levelo_inurba_marseille","lat":43.3015,"lon":5.3807,"is_reserved":false,"is_disabled":false,"rental_uris":{"android":"levelo://app?vid=c34e62e4-6031-402e-8cf8-50fa962bdd62","ios":"levelo://app?vid=c34e62e4-6031-402e-8cf8-50fa962bdd62"},"vehicle_type_id":"4","last_reported":1733292881,"current_range_meters":38400,"station_id":"ce4bgjp2rcd13ifvqbh0","pricing_plan_id":"cebpf4jnsgd1na2vs0mg"},{"bike_id":"87a3d48e-d6de-411f-bfdf-d552fa945ea1","system_id":"levelo_inurba_marseille","lat":43.31759,"lon":5.39016,"is_reserved":false,"is_disabled":false,"rental_uris":{"android":"levelo://app?vid=87a3d48e-d6de-411f-bfdf-d552fa945ea1","ios":"levelo://app?vid=87a3d48e-d6de-411f-bfdf-d552fa945ea1"},"vehicle_type_id":"4","last_reported":1733292881,"current_range_meters":38800,"station_id":"ce4bhqp2rcd13ifvqhng","pricing_plan_id":"cebpf4jnsgd1na2vs0mg"},{"bike_id":"be407bbe-d1ce-48de-8db2-09114af9efd7","system_id":"levelo_inurba_marseille","lat":43.32364,"lon":5.36759,"is_reserved":false,"is_disabled":false,"rental_uris":{"android":"levelo://app?vid=be407bbe-d1ce-48de-8db2-09114af9efd7","ios":"levelo://app?vid=be407bbe-d1ce-48de-8db2-09114af9efd7"},"vehicle_type_id":"4","last_reported":1733292881,"current_range_meters":36400,"station_id":"ce4bhsh2rcd13ifvqi2g","pricing_plan_id":"cebpf4jnsgd1na2vs0mg"},{"bike_id":"cb16add6-7784-4ce1-9466-336edf1b5cce","system_id":"levelo_inurba_marseille","lat":43.28151,"lon":5.42639,"is_reserved":false,"is_disabled":false,"rental_uris":{"android":"levelo://app?vid=cb16add6-7784-4ce1-9466-336edf1b5cce","ios":"levelo://app?vid=cb16add6-7784-4ce1-9466-336edf1b5cce"},"vehicle_type_id":"4","last_reported":1733292881,"current_range_meters":13600,"station_id":"ce4bhnh2rcd13ifvqgug","pricing_plan_id":"cebpf4jnsgd1na2vs0mg"},{"bike_id":"e40b678c-7cbe-44b0-93b4-49adceef9719","system_id":"levelo_inurba_marseille","lat":43.27837,"lon":5.40713,"is_reserved":false,"is_disabled":false,"rental_uris":{"android":"levelo://app?vid=e40b678c-7cbe-44b0-93b4-49adceef9719","ios":"levelo://app?vid=e40b678c-7cbe-44b0-93b4-49adceef9719"},"vehicle_type_id":"4","last_reported":1733292881,"current_range_meters":38800,"station_id":"ce4bhnh2rcd13ifvqgtg","pricing_plan_id":"cebpf4jnsgd1na2vs0mg"},{"bike_id":"d5308596-2433-4682-9db9-94a5170b599e","system_id":"levelo_inurba_marseille","lat":43.30545,"lon":5.38437,"is_reserved":false,"is_disabled":false,"rental_uris":{"android":"levelo://app?vid=d5308596-2433-4682-9db9-94a5170b599e","ios":"levelo://app?vid=d5308596-2433-4682-9db9-94a5170b599e"},"vehicle_type_id":"4","last_reported":1733292881,"current_range_meters":25600,"station_id":"ce4bgg92rcd13ifvqb30","pricing_plan_id":"cebpf4jnsgd1na2vs0mg"},{"bike_id":"8bd642b2-0279-44c7-9ee2-fc3b57332c83","system_id":"levelo_inurba_marseille","lat":43.27455,"lon":5.40073,"is_reserved":false,"is_disabled":true,"rental_uris":{"android":"levelo://app?vid=8bd642b2-0279-44c7-9ee2-fc3b57332c83","ios":"levelo://app?vid=8bd642b2-0279-44c7-9ee2-fc3b57332c83"},"vehicle_type_id":"4","last_reported":1733292881,"current_range_meters":0,"station_id":"","pricing_plan_id":"cebpf4jnsgd1na2vs0mg"},{"bike_id":"6bf4110d-986c-4044-ae49-e1e8b2aadc14","system_id":"levelo_inurba_marseille","lat":43.28154,"lon":5.42645,"is_reserved":false,"is_disabled":false,"rental_uris":{"android":"levelo://app?vid=6bf4110d-986c-4044-ae49-e1e8b2aadc14","ios":"levelo://app?vid=6bf4110d-986c-4044-ae49-e1e8b2aadc14"},"vehicle_type_id":"4","last_reported":1733292881,"current_range_meters":38800,"station_id":"ce4bhnh2rcd13ifvqgug","pricing_plan_id":"cebpf4jnsgd1na2vs0mg"},{"bike_id":"04bd9e50-4a42-43d3-ac5c-86da233b9473","system_id":"levelo_inurba_marseille","lat":43.28495,"lon":5.38567,"is_reserved":false,"is_disabled":false,"rental_uris":{"android":"levelo://app?vid=04bd9e50-4a42-43d3-ac5c-86da233b9473","ios":"levelo://app?vid=04bd9e50-4a42-43d3-ac5c-86da233b9473"},"vehicle_type_id":"4","last_reported":1733292881,"current_range_meters":19600,"station_id":"ce4bh8p2rcd13ifvqeb0","pricing_plan_id":"cebpf4jnsgd1na2vs0mg"},{"bike_id":"148d128a-f3f2-4388-b55d-e526451b8962","system_id":"levelo_inurba_marseille","lat":43.27185,"lon":5.40993,"is_reserved":false,"is_disabled":false,"rental_uris":{"android":"levelo://app?vid=148d128a-f3f2-4388-b55d-e526451b8962","ios":"levelo://app?vid=148d128a-f3f2-4388-b55d-e526451b8962"},"vehicle_type_id":"4","last_reported":1733292881,"current_range_meters":26000,"station_id":"ce4bhl12rcd13ifvqgf0","pricing_plan_id":"cebpf4jnsgd1na2vs0mg"},{"bike_id":"647c9f5d-38ae-406a-af37-47e78bdb92c8","system_id":"levelo_inurba_marseille","lat":43.337444,"lon":5.374475,"is_reserved":false,"is_disabled":false,"rental_uris":{"android":"levelo://app?vid=647c9f5d-38ae-406a-af37-47e78bdb92c8","ios":"levelo://app?vid=647c9f5d-38ae-406a-af37-47e78bdb92c8"},"vehicle_type_id":"4","last_reported":1733292881,"current_range_meters":21600,"station_id":"","pricing_plan_id":"cebpf4jnsgd1na2vs0mg"},{"bike_id":"2a8bea7a-c003-4a5e-9cc2-8b79eb366d78","system_id":"levelo_inurba_marseille","lat":43.26189,"lon":5.37451,"is_reserved":false,"is_disabled":true,"rental_uris":{"android":"levelo://app?vid=2a8bea7a-c003-4a5e-9cc2-8b79eb366d78","ios":"levelo://app?vid=2a8bea7a-c003-4a5e-9cc2-8b79eb366d78"},"vehicle_type_id":"4","last_reported":1733292881,"current_range_meters":36000,"station_id":"ce4bhgp2rcd13ifvqfc0","pricing_plan_id":"cebpf4jnsgd1na2vs0mg"},{"bike_id":"3f701f69-19a9-4e38-8856-096af6db8330","system_id":"levelo_inurba_marseille","lat":43.2925,"lon":5.40908,"is_reserved":false,"is_disabled":false,"rental_uris":{"android":"levelo://app?vid=3f701f69-19a9-4e38-8856-096af6db8330","ios":"levelo://app?vid=3f701f69-19a9-4e38-8856-096af6db8330"},"vehicle_type_id":"4","last_reported":1733292881,"current_range_meters":38800,"station_id":"ce4bh192rcd13ifvqdc0","pricing_plan_id":"cebpf4jnsgd1na2vs0mg"},{"bike_id":"594cc245-413d-4ab3-93f9-c3a896ffb37f","system_id":"levelo_inurba_marseille","lat":43.27615,"lon":5.36118,"is_reserved":false,"is_disabled":false,"rental_uris":{"android":"levelo://app?vid=594cc245-413d-4ab3-93f9-c3a896ffb37f","ios":"levelo://app?vid=594cc245-413d-4ab3-93f9-c3a896ffb37f"},"vehicle_type_id":"4","last_reported":1733292881,"current_range_meters":30000,"station_id":"ce4bgj92rcd13ifvqbe0","pricing_plan_id":"cebpf4jnsgd1na2vs0mg"},{"bike_id":"c9ae347f-afd8-436c-933c-cf5e2e790d85","system_id":"levelo_inurba_marseille","lat":43.30202,"lon":5.39456,"is_reserved":false,"is_disabled":true,"rental_uris":{"android":"levelo://app?vid=c9ae347f-afd8-436c-933c-cf5e2e790d85","ios":"levelo://app?vid=c9ae347f-afd8-436c-933c-cf5e2e790d85"},"vehicle_type_id":"4","last_reported":1733292881,"current_range_meters":31200,"station_id":"ce4bh0p2rcd13ifvqd70","pricing_plan_id":"cebpf4jnsgd1na2vs0mg"},{"bike_id":"16c81e58-5de2-4b13-a3b2-87a46dd75cc9","system_id":"levelo_inurba_marseille","lat":43.31754,"lon":5.3902,"is_reserved":false,"is_disabled":false,"rental_uris":{"android":"levelo://app?vid=16c81e58-5de2-4b13-a3b2-87a46dd75cc9","ios":"levelo://app?vid=16c81e58-5de2-4b13-a3b2-87a46dd75cc9"},"vehicle_type_id":"4","last_reported":1733292881,"current_range_meters":38400,"station_id":"ce4bhqp2rcd13ifvqhng","pricing_plan_id":"cebpf4jnsgd1na2vs0mg"},{"bike_id":"a736ef2a-4bd1-4c01-8d25-02972fd4e31d","system_id":"levelo_inurba_marseille","lat":43.29961,"lon":5.41324,"is_reserved":false,"is_disabled":false,"rental_uris":{"android":"levelo://app?vid=a736ef2a-4bd1-4c01-8d25-02972fd4e31d","ios":"levelo://app?vid=a736ef2a-4bd1-4c01-8d25-02972fd4e31d"},"vehicle_type_id":"4","last_reported":1733292881,"current_range_meters":37600,"station_id":"ce4bhp12rcd13ifvqh9g","pricing_plan_id":"cebpf4jnsgd1na2vs0mg"},{"bike_id":"0bfb6b66-dd7c-42a7-a30e-0793187584af","system_id":"levelo_inurba_marseille","lat":43.31122,"lon":5.37762,"is_reserved":false,"is_disabled":false,"rental_uris":{"android":"levelo://app?vid=0bfb6b66-dd7c-42a7-a30e-0793187584af","ios":"levelo://app?vid=0bfb6b66-dd7c-42a7-a30e-0793187584af"},"vehicle_type_id":"4","last_reported":1733292881,"current_range_meters":37600,"station_id":"ce4bgt92rcd13ifvqcg0","pricing_plan_id":"cebpf4jnsgd1na2vs0mg"},{"bike_id":"28b52837-d828-49e4-b4be-cfbac010c328","system_id":"levelo_inurba_marseille","lat":43.33735,"lon":5.39187,"is_reserved":false,"is_disabled":false,"rental_uris":{"android":"levelo://app?vid=28b52837-d828-49e4-b4be-cfbac010c328","ios":"levelo://app?vid=28b52837-d828-49e4-b4be-cfbac010c328"},"vehicle_type_id":"4","last_reported":1733292881,"current_range_meters":37600,"station_id":"ce4bhr92rcd13ifvqhsg","pricing_plan_id":"cebpf4jnsgd1na2vs0mg"},{"bike_id":"b3f478ac-3b05-4edf-bdbf-76399090f8e9","system_id":"levelo_inurba_marseille","lat":43.29994,"lon":5.37639,"is_reserved":false,"is_disabled":true,"rental_uris":{"android":"levelo://app?vid=b3f478ac-3b05-4edf-bdbf-76399090f8e9","ios":"levelo://app?vid=b3f478ac-3b05-4edf-bdbf-76399090f8e9"},"vehicle_type_id":"4","last_reported":1733292881,"current_range_meters":0,"station_id":"","pricing_plan_id":"cebpf4jnsgd1na2vs0mg"},{"bike_id":"c3587c28-5435-41c6-a9b7-aa468e6b19aa","system_id":"levelo_inurba_marseille","lat":43.29746,"lon":5.37916,"is_reserved":false,"is_disabled":true,"rental_uris":{"android":"levelo://app?vid=c3587c28-5435-41c6-a9b7-aa468e6b19aa","ios":"levelo://app?vid=c3587c28-5435-41c6-a9b7-aa468e6b19aa"},"vehicle_type_id":"4","last_reported":1733292881,"current_range_meters":0,"station_id":"","pricing_plan_id":"cebpf4jnsgd1na2vs0mg"},{"bike_id":"75c4f34a-89f4-4145-a2e2-7dafbc1cdf90","system_id":"levelo_inurba_marseille","lat":43.29006,"lon":5.37253,"is_reserved":false,"is_disabled":true,"rental_uris":{"android":"levelo://app?vid=75c4f34a-89f4-4145-a2e2-7dafbc1cdf90","ios":"levelo://app?vid=75c4f34a-89f4-4145-a2e2-7dafbc1cdf90"},"vehicle_type_id":"4","last_reported":1733292881,"current_range_meters":0,"station_id":"","pricing_plan_id":"cebpf4jnsgd1na2vs0mg"},{"bike_id":"0691df20-0cb5-41e2-92d2-1a048a719b38","system_id":"levelo_inurba_marseille","lat":43.31883,"lon":5.40735,"is_reserved":false,"is_disabled":false,"rental_uris":{"android":"levelo://app?vid=0691df20-0cb5-41e2-92d2-1a048a719b38","ios":"levelo://app?vid=0691df20-0cb5-41e2-92d2-1a048a719b38"},"vehicle_type_id":"4","last_reported":1733292881,"current_range_meters":38800,"station_id":"ce4bhq12rcd13ifvqhig","pricing_plan_id":"cebpf4jnsgd1na2vs0mg"},{"bike_id":"e8d9fcd3-6c4c-4c2e-a87e-41c5e4dfa6d0","system_id":"levelo_inurba_marseille","lat":43.25438,"lon":5.38158,"is_reserved":false,"is_disabled":true,"rental_uris":{"android":"levelo://app?vid=e8d9fcd3-6c4c-4c2e-a87e-41c5e4dfa6d0","ios":"levelo://app?vid=e8d9fcd3-6c4c-4c2e-a87e-41c5e4dfa6d0"},"vehicle_type_id":"4","last_reported":1733292881,"current_range_meters":0,"station_id":"","pricing_plan_id":"cebpf4jnsgd1na2vs0mg"},{"bike_id":"e7c2b082-ef91-42b1-9ef0-9e4329cee9cb","system_id":"levelo_inurba_marseille","lat":43.2992,"lon":5.40347,"is_reserved":false,"is_disabled":true,"rental_uris":{"android":"levelo://app?vid=e7c2b082-ef91-42b1-9ef0-9e4329cee9cb","ios":"levelo://app?vid=e7c2b082-ef91-42b1-9ef0-9e4329cee9cb"},"vehicle_type_id":"4","last_reported":1733292881,"current_range_meters":0,"station_id":"","pricing_plan_id":"cebpf4jnsgd1na2vs0mg"},{"bike_id":"b0fd6e58-89f4-4e96-8d88-2bdfbaeed00e","system_id":"levelo_inurba_marseille","lat":43.32477,"lon":5.36572,"is_reserved":false,"is_disabled":false,"rental_uris":{"android":"levelo://app?vid=b0fd6e58-89f4-4e96-8d88-2bdfbaeed00e","ios":"levelo://app?vid=b0fd6e58-89f4-4e96-8d88-2bdfbaeed00e"},"vehicle_type_id":"4","last_reported":1733292881,"current_range_meters":28000,"station_id":"ce4bhs12rcd13ifvqhvg","pricing_plan_id":"cebpf4jnsgd1na2vs0mg"},{"bike_id":"ba2f11c3-a4e2-4666-8f95-d860b1c21946","system_id":"levelo_inurba_marseille","lat":43.23169,"lon":5.40003,"is_reserved":false,"is_disabled":false,"rental_uris":{"android":"levelo://app?vid=ba2f11c3-a4e2-4666-8f95-d860b1c21946","ios":"levelo://app?vid=ba2f11c3-a4e2-4666-8f95-d860b1c21946"},"vehicle_type_id":"4","last_reported":1733292881,"current_range_meters":31200,"station_id":"ce4bhn12rcd13ifvqgqg","pricing_plan_id":"cebpf4jnsgd1na2vs0mg"},{"bike_id":"e5af8f06-b11d-4a9c-a17e-c358f51ba456","system_id":"levelo_inurba_marseille","lat":43.24812,"lon":5.3746,"is_reserved":false,"is_disabled":false,"rental_uris":{"android":"levelo://app?vid=e5af8f06-b11d-4a9c-a17e-c358f51ba456","ios":"levelo://app?vid=e5af8f06-b11d-4a9c-a17e-c358f51ba456"},"vehicle_type_id":"4","last_reported":1733292881,"current_range_meters":38000,"station_id":"ce4bhgh2rcd13ifvqfb0","pricing_plan_id":"cebpf4jnsgd1na2vs0mg"},{"bike_id":"12d7e6b6-4f16-4c68-825a-763d5cbf2154","system_id":"levelo_inurba_marseille","lat":43.2407,"lon":5.37762,"is_reserved":false,"is_disabled":false,"rental_uris":{"android":"levelo://app?vid=12d7e6b6-4f16-4c68-825a-763d5cbf2154","ios":"levelo://app?vid=12d7e6b6-4f16-4c68-825a-763d5cbf2154"},"vehicle_type_id":"4","last_reported":1733292881,"current_range_meters":38800,"station_id":"ce4bhnp2rcd13ifvqgvg","pricing_plan_id":"cebpf4jnsgd1na2vs0mg"},{"bike_id":"58289f26-bf41-4210-abcc-65b10b737b0f","system_id":"levelo_inurba_marseille","lat":43.31883,"lon":5.40735,"is_reserved":false,"is_disabled":false,"rental_uris":{"android":"levelo://app?vid=58289f26-bf41-4210-abcc-65b10b737b0f","ios":"levelo://app?vid=58289f26-bf41-4210-abcc-65b10b737b0f"},"vehicle_type_id":"4","last_reported":1733292881,"current_range_meters":38800,"station_id":"ce4bhq12rcd13ifvqhig","pricing_plan_id":"cebpf4jnsgd1na2vs0mg"},{"bike_id":"6fda6399-1abd-4ae3-8925-126c93ee0147","system_id":"levelo_inurba_marseille","lat":43.310767,"lon":5.38348,"is_reserved":false,"is_disabled":false,"rental_uris":{"android":"levelo://app?vid=6fda6399-1abd-4ae3-8925-126c93ee0147","ios":"levelo://app?vid=6fda6399-1abd-4ae3-8925-126c93ee0147"},"vehicle_type_id":"4","last_reported":1733292881,"current_range_meters":28400,"station_id":"ce4bgv92rcd13ifvqcr0","pricing_plan_id":"cebpf4jnsgd1na2vs0mg"},{"bike_id":"0b8ca9f5-3686-408a-922a-b3bf7e8b4228","system_id":"levelo_inurba_marseille","lat":43.271761,"lon":5.409874,"is_reserved":false,"is_disabled":false,"rental_uris":{"android":"levelo://app?vid=0b8ca9f5-3686-408a-922a-b3bf7e8b4228","ios":"levelo://app?vid=0b8ca9f5-3686-408a-922a-b3bf7e8b4228"},"vehicle_type_id":"4","last_reported":1733292881,"current_range_meters":13600,"station_id":"ce4bhl12rcd13ifvqgf0","pricing_plan_id":"cebpf4jnsgd1na2vs0mg"},{"bike_id":"e12bdda5-dc2c-4545-bb40-fff311effa17","system_id":"levelo_inurba_marseille","lat":43.29786,"lon":5.38111,"is_reserved":false,"is_disabled":true,"rental_uris":{"android":"levelo://app?vid=e12bdda5-dc2c-4545-bb40-fff311effa17","ios":"levelo://app?vid=e12bdda5-dc2c-4545-bb40-fff311effa17"},"vehicle_type_id":"4","last_reported":1733292881,"current_range_meters":0,"station_id":"ce4bgip2rcd13ifvqbb0","pricing_plan_id":"cebpf4jnsgd1na2vs0mg"},{"bike_id":"2f3968e7-9336-4ee4-ba78-8e92c0a818cc","system_id":"levelo_inurba_marseille","lat":43.31322,"lon":5.36647,"is_reserved":false,"is_disabled":true,"rental_uris":{"android":"levelo://app?vid=2f3968e7-9336-4ee4-ba78-8e92c0a818cc","ios":"levelo://app?vid=2f3968e7-9336-4ee4-ba78-8e92c0a818cc"},"vehicle_type_id":"4","last_reported":1733292881,"current_range_meters":4000,"station_id":"","pricing_plan_id":"cebpf4jnsgd1na2vs0mg"},{"bike_id":"8ed9bd96-4c70-4377-9843-d18fd39db93e","system_id":"levelo_inurba_marseille","lat":43.28412,"lon":5.375163,"is_reserved":false,"is_disabled":false,"rental_uris":{"android":"levelo://app?vid=8ed9bd96-4c70-4377-9843-d18fd39db93e","ios":"levelo://app?vid=8ed9bd96-4c70-4377-9843-d18fd39db93e"},"vehicle_type_id":"4","last_reported":1733292881,"current_range_meters":38800,"station_id":"ce4bh412rcd13ifvqds0","pricing_plan_id":"cebpf4jnsgd1na2vs0mg"},{"bike_id":"16bea42d-3248-41fd-8b51-39fb3d7ec2c4","system_id":"levelo_inurba_marseille","lat":43.26471,"lon":5.38525,"is_reserved":false,"is_disabled":true,"rental_uris":{"android":"levelo://app?vid=16bea42d-3248-41fd-8b51-39fb3d7ec2c4","ios":"levelo://app?vid=16bea42d-3248-41fd-8b51-39fb3d7ec2c4"},"vehicle_type_id":"4","last_reported":1733292881,"current_range_meters":0,"station_id":"","pricing_plan_id":"cebpf4jnsgd1na2vs0mg"},{"bike_id":"54660884-8ef8-4b30-aaba-82ac6b4a18bd","system_id":"levelo_inurba_marseille","lat":43.3248,"lon":5.36565,"is_reserved":false,"is_disabled":false,"rental_uris":{"android":"levelo://app?vid=54660884-8ef8-4b30-aaba-82ac6b4a18bd","ios":"levelo://app?vid=54660884-8ef8-4b30-aaba-82ac6b4a18bd"},"vehicle_type_id":"4","last_reported":1733292881,"current_range_meters":39200,"station_id":"ce4bhs12rcd13ifvqhvg","pricing_plan_id":"cebpf4jnsgd1na2vs0mg"},{"bike_id":"38f6a3d6-1c26-4fd5-8be0-5b34de7a7802","system_id":"levelo_inurba_marseille","lat":43.31739,"lon":5.39008,"is_reserved":false,"is_disabled":false,"rental_uris":{"android":"levelo://app?vid=38f6a3d6-1c26-4fd5-8be0-5b34de7a7802","ios":"levelo://app?vid=38f6a3d6-1c26-4fd5-8be0-5b34de7a7802"},"vehicle_type_id":"4","last_reported":1733292881,"current_range_meters":18800,"station_id":"ce4bhr12rcd13ifvqhpg","pricing_plan_id":"cebpf4jnsgd1na2vs0mg"},{"bike_id":"8aa77435-38a9-471a-8b27-546833cee6d3","system_id":"levelo_inurba_marseille","lat":43.26069,"lon":5.39388,"is_reserved":false,"is_disabled":false,"rental_uris":{"android":"levelo://app?vid=8aa77435-38a9-471a-8b27-546833cee6d3","ios":"levelo://app?vid=8aa77435-38a9-471a-8b27-546833cee6d3"},"vehicle_type_id":"4","last_reported":1733292881,"current_range_meters":12000,"station_id":"ce4bhh92rcd13ifvqfj0","pricing_plan_id":"cebpf4jnsgd1na2vs0mg"},{"bike_id":"14f7be4b-6af7-4875-b2f6-c3e0d7c00c23","system_id":"levelo_inurba_marseille","lat":43.30926,"lon":5.40144,"is_reserved":false,"is_disabled":false,"rental_uris":{"android":"levelo://app?vid=14f7be4b-6af7-4875-b2f6-c3e0d7c00c23","ios":"levelo://app?vid=14f7be4b-6af7-4875-b2f6-c3e0d7c00c23"},"vehicle_type_id":"4","last_reported":1733292881,"current_range_meters":38400,"station_id":"ce4bgvp2rcd13ifvqct0","pricing_plan_id":"cebpf4jnsgd1na2vs0mg"},{"bike_id":"821691cd-59d3-4afe-b792-90aa565a871f","system_id":"levelo_inurba_marseille","lat":43.27056,"lon":5.40262,"is_reserved":false,"is_disabled":false,"rental_uris":{"android":"levelo://app?vid=821691cd-59d3-4afe-b792-90aa565a871f","ios":"levelo://app?vid=821691cd-59d3-4afe-b792-90aa565a871f"},"vehicle_type_id":"4","last_reported":1733292881,"current_range_meters":28800,"station_id":"ce4bhk92rcd13ifvqgc0","pricing_plan_id":"cebpf4jnsgd1na2vs0mg"},{"bike_id":"b9dd9668-b431-4d0a-a0c1-c144e4f86bd5","system_id":"levelo_inurba_marseille","lat":43.31369,"lon":5.38496,"is_reserved":false,"is_disabled":false,"rental_uris":{"android":"levelo://app?vid=b9dd9668-b431-4d0a-a0c1-c144e4f86bd5","ios":"levelo://app?vid=b9dd9668-b431-4d0a-a0c1-c144e4f86bd5"},"vehicle_type_id":"4","last_reported":1733292881,"current_range_meters":32000,"station_id":"ce4bgt92rcd13ifvqcf0","pricing_plan_id":"cebpf4jnsgd1na2vs0mg"},{"bike_id":"905f6fa7-82ef-4e81-9fce-69cb34640e29","system_id":"levelo_inurba_marseille","lat":43.30469,"lon":5.37909,"is_reserved":false,"is_disabled":false,"rental_uris":{"android":"levelo://app?vid=905f6fa7-82ef-4e81-9fce-69cb34640e29","ios":"levelo://app?vid=905f6fa7-82ef-4e81-9fce-69cb34640e29"},"vehicle_type_id":"4","last_reported":1733292881,"current_range_meters":16400,"station_id":"ce4bgup2rcd13ifvqcn0","pricing_plan_id":"cebpf4jnsgd1na2vs0mg"},{"bike_id":"03238b9d-aa93-43c4-9b5c-93693053e595","system_id":"levelo_inurba_marseille","lat":43.278104,"lon":5.40708,"is_reserved":false,"is_disabled":false,"rental_uris":{"android":"levelo://app?vid=03238b9d-aa93-43c4-9b5c-93693053e595","ios":"levelo://app?vid=03238b9d-aa93-43c4-9b5c-93693053e595"},"vehicle_type_id":"4","last_reported":1733292881,"current_range_meters":38800,"station_id":"ce4bhnh2rcd13ifvqgtg","pricing_plan_id":"cebpf4jnsgd1na2vs0mg"},{"bike_id":"5ec23ff3-20df-46bf-92e4-fe56f6cc3834","system_id":"levelo_inurba_marseille","lat":43.312801,"lon":5.40169,"is_reserved":false,"is_disabled":false,"rental_uris":{"android":"levelo://app?vid=5ec23ff3-20df-46bf-92e4-fe56f6cc3834","ios":"levelo://app?vid=5ec23ff3-20df-46bf-92e4-fe56f6cc3834"},"vehicle_type_id":"4","last_reported":1733292881,"current_range_meters":38800,"station_id":"ce4bh092rcd13ifvqd30","pricing_plan_id":"cebpf4jnsgd1na2vs0mg"},{"bike_id":"0f03cf6f-7916-43e3-9bea-acf3e77b14b5","system_id":"levelo_inurba_marseille","lat":43.29015,"lon":5.35602,"is_reserved":false,"is_disabled":false,"rental_uris":{"android":"levelo://app?vid=0f03cf6f-7916-43e3-9bea-acf3e77b14b5","ios":"levelo://app?vid=0f03cf6f-7916-43e3-9bea-acf3e77b14b5"},"vehicle_type_id":"4","last_reported":1733292881,"current_range_meters":38800,"station_id":"ce4bhb92rcd13ifvqen0","pricing_plan_id":"cebpf4jnsgd1na2vs0mg"},{"bike_id":"7da7f57c-9bd5-4419-9363-61f0a7ba0b80","system_id":"levelo_inurba_marseille","lat":43.29287,"lon":5.40131,"is_reserved":false,"is_disabled":false,"rental_uris":{"android":"levelo://app?vid=7da7f57c-9bd5-4419-9363-61f0a7ba0b80","ios":"levelo://app?vid=7da7f57c-9bd5-4419-9363-61f0a7ba0b80"},"vehicle_type_id":"4","last_reported":1733292881,"current_range_meters":36400,"station_id":"ce4bh312rcd13ifvqdk0","pricing_plan_id":"cebpf4jnsgd1na2vs0mg"},{"bike_id":"6e9913e5-ee49-4048-9584-31f34047785a","system_id":"levelo_inurba_marseille","lat":43.3092,"lon":5.40157,"is_reserved":false,"is_disabled":false,"rental_uris":{"android":"levelo://app?vid=6e9913e5-ee49-4048-9584-31f34047785a","ios":"levelo://app?vid=6e9913e5-ee49-4048-9584-31f34047785a"},"vehicle_type_id":"4","last_reported":1733292881,"current_range_meters":38400,"station_id":"ce4bgvp2rcd13ifvqct0","pricing_plan_id":"cebpf4jnsgd1na2vs0mg"},{"bike_id":"67aa70e4-fadf-42a7-87c1-4cee816945fb","system_id":"levelo_inurba_marseille","lat":43.3091,"lon":5.36842,"is_reserved":false,"is_disabled":false,"rental_uris":{"android":"levelo://app?vid=67aa70e4-fadf-42a7-87c1-4cee816945fb","ios":"levelo://app?vid=67aa70e4-fadf-42a7-87c1-4cee816945fb"},"vehicle_type_id":"4","last_reported":1733292881,"current_range_meters":36400,"station_id":"ce4bgn92rcd13ifvqbvg","pricing_plan_id":"cebpf4jnsgd1na2vs0mg"},{"bike_id":"8d5d0d4d-456c-403b-ba74-3d12164b8de1","system_id":"levelo_inurba_marseille","lat":43.31326,"lon":5.39703,"is_reserved":false,"is_disabled":false,"rental_uris":{"android":"levelo://app?vid=8d5d0d4d-456c-403b-ba74-3d12164b8de1","ios":"levelo://app?vid=8d5d0d4d-456c-403b-ba74-3d12164b8de1"},"vehicle_type_id":"4","last_reported":1733292881,"current_range_meters":38400,"station_id":"ce4bgvp2rcd13ifvqcu0","pricing_plan_id":"cebpf4jnsgd1na2vs0mg"},{"bike_id":"95c08085-5c8a-4c4e-8507-05711eb57ec0","system_id":"levelo_inurba_marseille","lat":43.286149,"lon":5.350993,"is_reserved":false,"is_disabled":false,"rental_uris":{"android":"levelo://app?vid=95c08085-5c8a-4c4e-8507-05711eb57ec0","ios":"levelo://app?vid=95c08085-5c8a-4c4e-8507-05711eb57ec0"},"vehicle_type_id":"4","last_reported":1733292881,"current_range_meters":38000,"station_id":"ce4bhch2rcd13ifvqeug","pricing_plan_id":"cebpf4jnsgd1na2vs0mg"},{"bike_id":"ef8dccf7-5c02-4648-910c-2c64ce488a65","system_id":"levelo_inurba_marseille","lat":43.28158,"lon":5.42812,"is_reserved":false,"is_disabled":false,"rental_uris":{"android":"levelo://app?vid=ef8dccf7-5c02-4648-910c-2c64ce488a65","ios":"levelo://app?vid=ef8dccf7-5c02-4648-910c-2c64ce488a65"},"vehicle_type_id":"4","last_reported":1733292881,"current_range_meters":12000,"station_id":"","pricing_plan_id":"cebpf4jnsgd1na2vs0mg"},{"bike_id":"2328afe4-3679-437e-827c-94361c2e185f","system_id":"levelo_inurba_marseille","lat":43.28562,"lon":5.39504,"is_reserved":false,"is_disabled":false,"rental_uris":{"android":"levelo://app?vid=2328afe4-3679-437e-827c-94361c2e185f","ios":"levelo://app?vid=2328afe4-3679-437e-827c-94361c2e185f"},"vehicle_type_id":"4","last_reported":1733292881,"current_range_meters":36400,"station_id":"ce4bh292rcd13ifvqdg0","pricing_plan_id":"cebpf4jnsgd1na2vs0mg"},{"bike_id":"dcab5108-03ee-4115-bb90-67acee989c35","system_id":"levelo_inurba_marseille","lat":43.32359,"lon":5.3888,"is_reserved":false,"is_disabled":false,"rental_uris":{"android":"levelo://app?vid=dcab5108-03ee-4115-bb90-67acee989c35","ios":"levelo://app?vid=dcab5108-03ee-4115-bb90-67acee989c35"},"vehicle_type_id":"4","last_reported":1733292881,"current_range_meters":8400,"station_id":"ce4bhqp2rcd13ifvqhog","pricing_plan_id":"cebpf4jnsgd1na2vs0mg"},{"bike_id":"fd0aa93e-5aa8-4ba0-ac70-74f6c4044cc6","system_id":"levelo_inurba_marseille","lat":43.2511,"lon":5.40325,"is_reserved":false,"is_disabled":false,"rental_uris":{"android":"levelo://app?vid=fd0aa93e-5aa8-4ba0-ac70-74f6c4044cc6","ios":"levelo://app?vid=fd0aa93e-5aa8-4ba0-ac70-74f6c4044cc6"},"vehicle_type_id":"4","last_reported":1733292881,"current_range_meters":8000,"station_id":"ce4bhlh2rcd13ifvqgig","pricing_plan_id":"cebpf4jnsgd1na2vs0mg"},{"bike_id":"285d4d97-3ab4-419a-84e4-687443bc50a5","system_id":"levelo_inurba_marseille","lat":43.25862,"lon":5.39903,"is_reserved":false,"is_disabled":false,"rental_uris":{"android":"levelo://app?vid=285d4d97-3ab4-419a-84e4-687443bc50a5","ios":"levelo://app?vid=285d4d97-3ab4-419a-84e4-687443bc50a5"},"vehicle_type_id":"4","last_reported":1733292881,"current_range_meters":8800,"station_id":"ce4bhl92rcd13ifvqghg","pricing_plan_id":"cebpf4jnsgd1na2vs0mg"},{"bike_id":"8d3823ea-8728-4708-a8ab-a7316ed9637a","system_id":"levelo_inurba_marseille","lat":43.28946,"lon":5.36642,"is_reserved":false,"is_disabled":true,"rental_uris":{"android":"levelo://app?vid=8d3823ea-8728-4708-a8ab-a7316ed9637a","ios":"levelo://app?vid=8d3823ea-8728-4708-a8ab-a7316ed9637a"},"vehicle_type_id":"4","last_reported":1733292881,"current_range_meters":20000,"station_id":"ce4bhap2rcd13ifvqek0","pricing_plan_id":"cebpf4jnsgd1na2vs0mg"},{"bike_id":"8f15844d-f38e-4bee-ae2c-14c0775a2e3f","system_id":"levelo_inurba_marseille","lat":43.29279,"lon":5.40127,"is_reserved":false,"is_disabled":false,"rental_uris":{"android":"levelo://app?vid=8f15844d-f38e-4bee-ae2c-14c0775a2e3f","ios":"levelo://app?vid=8f15844d-f38e-4bee-ae2c-14c0775a2e3f"},"vehicle_type_id":"4","last_reported":1733292881,"current_range_meters":36400,"station_id":"ce4bh312rcd13ifvqdk0","pricing_plan_id":"cebpf4jnsgd1na2vs0mg"},{"bike_id":"45ff3798-a743-4ffc-962c-fbce8ce4e073","system_id":"levelo_inurba_marseille","lat":43.23151,"lon":5.43715,"is_reserved":false,"is_disabled":false,"rental_uris":{"android":"levelo://app?vid=45ff3798-a743-4ffc-962c-fbce8ce4e073","ios":"levelo://app?vid=45ff3798-a743-4ffc-962c-fbce8ce4e073"},"vehicle_type_id":"4","last_reported":1733292881,"current_range_meters":38800,"station_id":"ce4bhmp2rcd13ifvqgog","pricing_plan_id":"cebpf4jnsgd1na2vs0mg"},{"bike_id":"1a3cd8d7-7142-485c-b49a-eeb93944eb38","system_id":"levelo_inurba_marseille","lat":43.31108,"lon":5.37773,"is_reserved":false,"is_disabled":false,"rental_uris":{"android":"levelo://app?vid=1a3cd8d7-7142-485c-b49a-eeb93944eb38","ios":"levelo://app?vid=1a3cd8d7-7142-485c-b49a-eeb93944eb38"},"vehicle_type_id":"4","last_reported":1733292881,"current_range_meters":26000,"station_id":"ce4bgt92rcd13ifvqcg0","pricing_plan_id":"cebpf4jnsgd1na2vs0mg"},{"bike_id":"d0ae8c17-172c-441e-ae1e-c77931c183bd","system_id":"levelo_inurba_marseille","lat":43.24177,"lon":5.39727,"is_reserved":false,"is_disabled":false,"rental_uris":{"android":"levelo://app?vid=d0ae8c17-172c-441e-ae1e-c77931c183bd","ios":"levelo://app?vid=d0ae8c17-172c-441e-ae1e-c77931c183bd"},"vehicle_type_id":"4","last_reported":1733292881,"current_range_meters":28400,"station_id":"ce4bhn12rcd13ifvqgpg","pricing_plan_id":"cebpf4jnsgd1na2vs0mg"},{"bike_id":"e9b7fe33-a6dd-4ef0-8696-9f222f7bd94e","system_id":"levelo_inurba_marseille","lat":43.27549,"lon":5.38441,"is_reserved":false,"is_disabled":false,"rental_uris":{"android":"levelo://app?vid=e9b7fe33-a6dd-4ef0-8696-9f222f7bd94e","ios":"levelo://app?vid=e9b7fe33-a6dd-4ef0-8696-9f222f7bd94e"},"vehicle_type_id":"4","last_reported":1733292881,"current_range_meters":27200,"station_id":"ce4bhh92rcd13ifvqfi0","pricing_plan_id":"cebpf4jnsgd1na2vs0mg"},{"bike_id":"cdfe6590-4984-4014-86c8-6dd70747c27a","system_id":"levelo_inurba_marseille","lat":43.29737,"lon":5.37434,"is_reserved":false,"is_disabled":true,"rental_uris":{"android":"levelo://app?vid=cdfe6590-4984-4014-86c8-6dd70747c27a","ios":"levelo://app?vid=cdfe6590-4984-4014-86c8-6dd70747c27a"},"vehicle_type_id":"4","last_reported":1733292881,"current_range_meters":0,"station_id":"","pricing_plan_id":"cebpf4jnsgd1na2vs0mg"},{"bike_id":"8c10b77e-9276-4f90-bb28-d9403699abca","system_id":"levelo_inurba_marseille","lat":43.27551,"lon":5.38441,"is_reserved":false,"is_disabled":false,"rental_uris":{"android":"levelo://app?vid=8c10b77e-9276-4f90-bb28-d9403699abca","ios":"levelo://app?vid=8c10b77e-9276-4f90-bb28-d9403699abca"},"vehicle_type_id":"4","last_reported":1733292881,"current_range_meters":38800,"station_id":"ce4bhh92rcd13ifvqfi0","pricing_plan_id":"cebpf4jnsgd1na2vs0mg"},{"bike_id":"84ed8f84-7c5f-475d-b901-15f06168e165","system_id":"levelo_inurba_marseille","lat":43.28937,"lon":5.36409,"is_reserved":false,"is_disabled":false,"rental_uris":{"android":"levelo://app?vid=84ed8f84-7c5f-475d-b901-15f06168e165","ios":"levelo://app?vid=84ed8f84-7c5f-475d-b901-15f06168e165"},"vehicle_type_id":"4","last_reported":1733292881,"current_range_meters":36800,"station_id":"ce4bhc92rcd13ifvqetg","pricing_plan_id":"cebpf4jnsgd1na2vs0mg"},{"bike_id":"a597326f-3194-416f-870a-bb660333f9fc","system_id":"levelo_inurba_marseille","lat":43.3372,"lon":5.39178,"is_reserved":false,"is_disabled":false,"rental_uris":{"android":"levelo://app?vid=a597326f-3194-416f-870a-bb660333f9fc","ios":"levelo://app?vid=a597326f-3194-416f-870a-bb660333f9fc"},"vehicle_type_id":"4","last_reported":1733292881,"current_range_meters":6400,"station_id":"ce4bhr92rcd13ifvqhsg","pricing_plan_id":"cebpf4jnsgd1na2vs0mg"},{"bike_id":"36142e23-8ff6-4096-ad19-b039c8156b69","system_id":"levelo_inurba_marseille","lat":43.28662,"lon":5.36346,"is_reserved":false,"is_disabled":true,"rental_uris":{"android":"levelo://app?vid=36142e23-8ff6-4096-ad19-b039c8156b69","ios":"levelo://app?vid=36142e23-8ff6-4096-ad19-b039c8156b69"},"vehicle_type_id":"4","last_reported":1733292881,"current_range_meters":27600,"station_id":"ce4bhah2rcd13ifvqej0","pricing_plan_id":"cebpf4jnsgd1na2vs0mg"},{"bike_id":"42b9061c-3a22-4f56-8cdd-6e08457777e2","system_id":"levelo_inurba_marseille","lat":43.29826,"lon":5.39776,"is_reserved":false,"is_disabled":false,"rental_uris":{"android":"levelo://app?vid=42b9061c-3a22-4f56-8cdd-6e08457777e2","ios":"levelo://app?vid=42b9061c-3a22-4f56-8cdd-6e08457777e2"},"vehicle_type_id":"4","last_reported":1733292881,"current_range_meters":38400,"station_id":"","pricing_plan_id":"cebpf4jnsgd1na2vs0mg"},{"bike_id":"2775f11a-2b4d-4f15-b31b-5224deb6b613","system_id":"levelo_inurba_marseille","lat":43.28081,"lon":5.39669,"is_reserved":false,"is_disabled":false,"rental_uris":{"android":"levelo://app?vid=2775f11a-2b4d-4f15-b31b-5224deb6b613","ios":"levelo://app?vid=2775f11a-2b4d-4f15-b31b-5224deb6b613"},"vehicle_type_id":"4","last_reported":1733292881,"current_range_meters":31200,"station_id":"ce4bho12rcd13ifvqh2g","pricing_plan_id":"cebpf4jnsgd1na2vs0mg"},{"bike_id":"4c3fb316-febe-4764-b0a1-d58fd67e3e9a","system_id":"levelo_inurba_marseille","lat":43.28187,"lon":5.38298,"is_reserved":false,"is_disabled":true,"rental_uris":{"android":"levelo://app?vid=4c3fb316-febe-4764-b0a1-d58fd67e3e9a","ios":"levelo://app?vid=4c3fb316-febe-4764-b0a1-d58fd67e3e9a"},"vehicle_type_id":"4","last_reported":1733292881,"current_range_meters":23200,"station_id":"","pricing_plan_id":"cebpf4jnsgd1na2vs0mg"},{"bike_id":"987a5ab4-d60c-480c-94b6-7cab38975402","system_id":"levelo_inurba_marseille","lat":43.29748,"lon":5.37971,"is_reserved":false,"is_disabled":true,"rental_uris":{"android":"levelo://app?vid=987a5ab4-d60c-480c-94b6-7cab38975402","ios":"levelo://app?vid=987a5ab4-d60c-480c-94b6-7cab38975402"},"vehicle_type_id":"4","last_reported":1733292881,"current_range_meters":0,"station_id":"","pricing_plan_id":"cebpf4jnsgd1na2vs0mg"},{"bike_id":"f8678a0f-f5b8-49d6-b7c4-3f4c41af4d83","system_id":"levelo_inurba_marseille","lat":43.30992,"lon":5.37345,"is_reserved":false,"is_disabled":false,"rental_uris":{"android":"levelo://app?vid=f8678a0f-f5b8-49d6-b7c4-3f4c41af4d83","ios":"levelo://app?vid=f8678a0f-f5b8-49d6-b7c4-3f4c41af4d83"},"vehicle_type_id":"4","last_reported":1733292881,"current_range_meters":32800,"station_id":"ce4bgth2rcd13ifvqch0","pricing_plan_id":"cebpf4jnsgd1na2vs0mg"},{"bike_id":"2c4596ad-0ad9-4016-b92b-0093349de2b4","system_id":"levelo_inurba_marseille","lat":43.30766,"lon":5.38214,"is_reserved":false,"is_disabled":true,"rental_uris":{"android":"levelo://app?vid=2c4596ad-0ad9-4016-b92b-0093349de2b4","ios":"levelo://app?vid=2c4596ad-0ad9-4016-b92b-0093349de2b4"},"vehicle_type_id":"4","last_reported":1733292881,"current_range_meters":0,"station_id":"","pricing_plan_id":"cebpf4jnsgd1na2vs0mg"},{"bike_id":"01bf2d77-2887-492a-8e61-418aad60aab8","system_id":"levelo_inurba_marseille","lat":43.23182,"lon":5.3999,"is_reserved":false,"is_disabled":false,"rental_uris":{"android":"levelo://app?vid=01bf2d77-2887-492a-8e61-418aad60aab8","ios":"levelo://app?vid=01bf2d77-2887-492a-8e61-418aad60aab8"},"vehicle_type_id":"4","last_reported":1733292881,"current_range_meters":38800,"station_id":"ce4bhn12rcd13ifvqgqg","pricing_plan_id":"cebpf4jnsgd1na2vs0mg"},{"bike_id":"1f28300c-d8be-4d08-b5ea-d3aadf1e301d","system_id":"levelo_inurba_marseille","lat":43.26242,"lon":5.42095,"is_reserved":false,"is_disabled":false,"rental_uris":{"android":"levelo://app?vid=1f28300c-d8be-4d08-b5ea-d3aadf1e301d","ios":"levelo://app?vid=1f28300c-d8be-4d08-b5ea-d3aadf1e301d"},"vehicle_type_id":"4","last_reported":1733292881,"current_range_meters":14800,"station_id":"","pricing_plan_id":"cebpf4jnsgd1na2vs0mg"},{"bike_id":"b7ab8c01-033f-4395-8276-23c850ad3d02","system_id":"levelo_inurba_marseille","lat":43.303091,"lon":5.365941,"is_reserved":false,"is_disabled":true,"rental_uris":{"android":"levelo://app?vid=b7ab8c01-033f-4395-8276-23c850ad3d02","ios":"levelo://app?vid=b7ab8c01-033f-4395-8276-23c850ad3d02"},"vehicle_type_id":"4","last_reported":1733292881,"current_range_meters":0,"station_id":"","pricing_plan_id":"cebpf4jnsgd1na2vs0mg"},{"bike_id":"5e952925-1491-4f8f-b074-0d84f66a6dea","system_id":"levelo_inurba_marseille","lat":43.32285,"lon":5.38271,"is_reserved":false,"is_disabled":false,"rental_uris":{"android":"levelo://app?vid=5e952925-1491-4f8f-b074-0d84f66a6dea","ios":"levelo://app?vid=5e952925-1491-4f8f-b074-0d84f66a6dea"},"vehicle_type_id":"4","last_reported":1733292881,"current_range_meters":38800,"station_id":"ce4bhr12rcd13ifvqhqg","pricing_plan_id":"cebpf4jnsgd1na2vs0mg"},{"bike_id":"c6e6729e-5027-422b-b134-990c8bb67ebc","system_id":"levelo_inurba_marseille","lat":43.28034,"lon":5.36953,"is_reserved":false,"is_disabled":false,"rental_uris":{"android":"levelo://app?vid=c6e6729e-5027-422b-b134-990c8bb67ebc","ios":"levelo://app?vid=c6e6729e-5027-422b-b134-990c8bb67ebc"},"vehicle_type_id":"4","last_reported":1733292881,"current_range_meters":38800,"station_id":"ce4bha12rcd13ifvqef0","pricing_plan_id":"cebpf4jnsgd1na2vs0mg"},{"bike_id":"ce9f5d0c-0440-494a-92a3-99b91e99b586","system_id":"levelo_inurba_marseille","lat":43.27562,"lon":5.38422,"is_reserved":false,"is_disabled":false,"rental_uris":{"android":"levelo://app?vid=ce9f5d0c-0440-494a-92a3-99b91e99b586","ios":"levelo://app?vid=ce9f5d0c-0440-494a-92a3-99b91e99b586"},"vehicle_type_id":"4","last_reported":1733292881,"current_range_meters":38800,"station_id":"ce4bhh92rcd13ifvqfi0","pricing_plan_id":"cebpf4jnsgd1na2vs0mg"},{"bike_id":"8d8f863b-0066-4dab-b916-897fbd65d119","system_id":"levelo_inurba_marseille","lat":43.30674,"lon":5.40053,"is_reserved":false,"is_disabled":false,"rental_uris":{"android":"levelo://app?vid=8d8f863b-0066-4dab-b916-897fbd65d119","ios":"levelo://app?vid=8d8f863b-0066-4dab-b916-897fbd65d119"},"vehicle_type_id":"4","last_reported":1733292881,"current_range_meters":38400,"station_id":"","pricing_plan_id":"cebpf4jnsgd1na2vs0mg"},{"bike_id":"62039b2b-e25c-4eb7-a7b5-63675d853e8e","system_id":"levelo_inurba_marseille","lat":43.317083,"lon":5.377714,"is_reserved":false,"is_disabled":false,"rental_uris":{"android":"levelo://app?vid=62039b2b-e25c-4eb7-a7b5-63675d853e8e","ios":"levelo://app?vid=62039b2b-e25c-4eb7-a7b5-63675d853e8e"},"vehicle_type_id":"4","last_reported":1733292881,"current_range_meters":27200,"station_id":"ce4bgth2rcd13ifvqch0","pricing_plan_id":"cebpf4jnsgd1na2vs0mg"},{"bike_id":"6ff313f1-2a84-4531-8c5d-857d3c82b454","system_id":"levelo_inurba_marseille","lat":43.30644,"lon":5.40073,"is_reserved":false,"is_disabled":false,"rental_uris":{"android":"levelo://app?vid=6ff313f1-2a84-4531-8c5d-857d3c82b454","ios":"levelo://app?vid=6ff313f1-2a84-4531-8c5d-857d3c82b454"},"vehicle_type_id":"4","last_reported":1733292881,"current_range_meters":38800,"station_id":"ce4bh112rcd13ifvqda0","pricing_plan_id":"cebpf4jnsgd1na2vs0mg"},{"bike_id":"eb585edb-7cfa-4058-91e0-f12bd540ccca","system_id":"levelo_inurba_marseille","lat":43.23178,"lon":5.39987,"is_reserved":false,"is_disabled":false,"rental_uris":{"android":"levelo://app?vid=eb585edb-7cfa-4058-91e0-f12bd540ccca","ios":"levelo://app?vid=eb585edb-7cfa-4058-91e0-f12bd540ccca"},"vehicle_type_id":"4","last_reported":1733292881,"current_range_meters":38800,"station_id":"ce4bhn12rcd13ifvqgqg","pricing_plan_id":"cebpf4jnsgd1na2vs0mg"},{"bike_id":"9130b44a-fbfa-4ab1-943b-a1948d15e832","system_id":"levelo_inurba_marseille","lat":43.23182,"lon":5.39989,"is_reserved":false,"is_disabled":false,"rental_uris":{"android":"levelo://app?vid=9130b44a-fbfa-4ab1-943b-a1948d15e832","ios":"levelo://app?vid=9130b44a-fbfa-4ab1-943b-a1948d15e832"},"vehicle_type_id":"4","last_reported":1733292881,"current_range_meters":38800,"station_id":"ce4bhn12rcd13ifvqgqg","pricing_plan_id":"cebpf4jnsgd1na2vs0mg"},{"bike_id":"6cc6805f-c0ca-4585-bdf1-b5a0339762b0","system_id":"levelo_inurba_marseille","lat":43.29017,"lon":5.42796,"is_reserved":false,"is_disabled":true,"rental_uris":{"android":"levelo://app?vid=6cc6805f-c0ca-4585-bdf1-b5a0339762b0","ios":"levelo://app?vid=6cc6805f-c0ca-4585-bdf1-b5a0339762b0"},"vehicle_type_id":"4","last_reported":1733292881,"current_range_meters":0,"station_id":"","pricing_plan_id":"cebpf4jnsgd1na2vs0mg"},{"bike_id":"66e5e480-df3d-4353-82a1-17abdba691f0","system_id":"levelo_inurba_marseille","lat":43.29186,"lon":5.35814,"is_reserved":false,"is_disabled":false,"rental_uris":{"android":"levelo://app?vid=66e5e480-df3d-4353-82a1-17abdba691f0","ios":"levelo://app?vid=66e5e480-df3d-4353-82a1-17abdba691f0"},"vehicle_type_id":"4","last_reported":1733292881,"current_range_meters":16000,"station_id":"ce4bhb12rcd13ifvqel0","pricing_plan_id":"cebpf4jnsgd1na2vs0mg"},{"bike_id":"cbadf6c2-c068-4746-9dc1-6b1b613021d3","system_id":"levelo_inurba_marseille","lat":43.30405,"lon":5.41291,"is_reserved":false,"is_disabled":false,"rental_uris":{"android":"levelo://app?vid=cbadf6c2-c068-4746-9dc1-6b1b613021d3","ios":"levelo://app?vid=cbadf6c2-c068-4746-9dc1-6b1b613021d3"},"vehicle_type_id":"4","last_reported":1733292881,"current_range_meters":38800,"station_id":"ce4bhop2rcd13ifvqh8g","pricing_plan_id":"cebpf4jnsgd1na2vs0mg"},{"bike_id":"8d1c8b92-79bb-4181-b0d2-5e94db1a14d0","system_id":"levelo_inurba_marseille","lat":43.30008,"lon":5.38273,"is_reserved":false,"is_disabled":true,"rental_uris":{"android":"levelo://app?vid=8d1c8b92-79bb-4181-b0d2-5e94db1a14d0","ios":"levelo://app?vid=8d1c8b92-79bb-4181-b0d2-5e94db1a14d0"},"vehicle_type_id":"4","last_reported":1733292881,"current_range_meters":0,"station_id":"","pricing_plan_id":"cebpf4jnsgd1na2vs0mg"},{"bike_id":"76fee654-7501-410f-8668-e66a20ba7e83","system_id":"levelo_inurba_marseille","lat":43.29623,"lon":5.37151,"is_reserved":false,"is_disabled":true,"rental_uris":{"android":"levelo://app?vid=76fee654-7501-410f-8668-e66a20ba7e83","ios":"levelo://app?vid=76fee654-7501-410f-8668-e66a20ba7e83"},"vehicle_type_id":"4","last_reported":1733292881,"current_range_meters":34000,"station_id":"ce4bgnh2rcd13ifvqc0g","pricing_plan_id":"cebpf4jnsgd1na2vs0mg"},{"bike_id":"9ce77ab6-d985-4c67-b0a5-56a892314fed","system_id":"levelo_inurba_marseille","lat":43.32483,"lon":5.36566,"is_reserved":false,"is_disabled":false,"rental_uris":{"android":"levelo://app?vid=9ce77ab6-d985-4c67-b0a5-56a892314fed","ios":"levelo://app?vid=9ce77ab6-d985-4c67-b0a5-56a892314fed"},"vehicle_type_id":"4","last_reported":1733292881,"current_range_meters":15200,"station_id":"ce4bhs12rcd13ifvqhvg","pricing_plan_id":"cebpf4jnsgd1na2vs0mg"},{"bike_id":"58341fd1-f0d8-4634-923c-b8da7cf1d573","system_id":"levelo_inurba_marseille","lat":43.30924,"lon":5.40153,"is_reserved":false,"is_disabled":false,"rental_uris":{"android":"levelo://app?vid=58341fd1-f0d8-4634-923c-b8da7cf1d573","ios":"levelo://app?vid=58341fd1-f0d8-4634-923c-b8da7cf1d573"},"vehicle_type_id":"4","last_reported":1733292881,"current_range_meters":5600,"station_id":"ce4bgvp2rcd13ifvqct0","pricing_plan_id":"cebpf4jnsgd1na2vs0mg"},{"bike_id":"5741a92c-5fdd-4387-bf90-3ee06302df87","system_id":"levelo_inurba_marseille","lat":43.31064,"lon":5.38353,"is_reserved":false,"is_disabled":false,"rental_uris":{"android":"levelo://app?vid=5741a92c-5fdd-4387-bf90-3ee06302df87","ios":"levelo://app?vid=5741a92c-5fdd-4387-bf90-3ee06302df87"},"vehicle_type_id":"4","last_reported":1733292881,"current_range_meters":32000,"station_id":"ce4bgv92rcd13ifvqcr0","pricing_plan_id":"cebpf4jnsgd1na2vs0mg"},{"bike_id":"bf37e039-8e14-4192-88ac-fae4adcf35ce","system_id":"levelo_inurba_marseille","lat":43.30462,"lon":5.37911,"is_reserved":false,"is_disabled":false,"rental_uris":{"android":"levelo://app?vid=bf37e039-8e14-4192-88ac-fae4adcf35ce","ios":"levelo://app?vid=bf37e039-8e14-4192-88ac-fae4adcf35ce"},"vehicle_type_id":"4","last_reported":1733292881,"current_range_meters":28400,"station_id":"ce4bgup2rcd13ifvqcn0","pricing_plan_id":"cebpf4jnsgd1na2vs0mg"},{"bike_id":"3e28b7f9-50ce-4904-8e56-0c2d25c8bbb2","system_id":"levelo_inurba_marseille","lat":43.287,"lon":5.37402,"is_reserved":false,"is_disabled":false,"rental_uris":{"android":"levelo://app?vid=3e28b7f9-50ce-4904-8e56-0c2d25c8bbb2","ios":"levelo://app?vid=3e28b7f9-50ce-4904-8e56-0c2d25c8bbb2"},"vehicle_type_id":"4","last_reported":1733292881,"current_range_meters":16800,"station_id":"ce4bh3p2rcd13ifvqdq0","pricing_plan_id":"cebpf4jnsgd1na2vs0mg"},{"bike_id":"4e6a3799-ecb2-4f9a-8164-e68eb4d72231","system_id":"levelo_inurba_marseille","lat":43.28943,"lon":5.39639,"is_reserved":false,"is_disabled":true,"rental_uris":{"android":"levelo://app?vid=4e6a3799-ecb2-4f9a-8164-e68eb4d72231","ios":"levelo://app?vid=4e6a3799-ecb2-4f9a-8164-e68eb4d72231"},"vehicle_type_id":"4","last_reported":1733292881,"current_range_meters":38400,"station_id":"ce4bh3h2rcd13ifvqdn0","pricing_plan_id":"cebpf4jnsgd1na2vs0mg"},{"bike_id":"8c6ae27f-3733-439a-943c-f088570574ea","system_id":"levelo_inurba_marseille","lat":43.24798,"lon":5.37454,"is_reserved":false,"is_disabled":false,"rental_uris":{"android":"levelo://app?vid=8c6ae27f-3733-439a-943c-f088570574ea","ios":"levelo://app?vid=8c6ae27f-3733-439a-943c-f088570574ea"},"vehicle_type_id":"4","last_reported":1733292881,"current_range_meters":39200,"station_id":"ce4bhgh2rcd13ifvqfb0","pricing_plan_id":"cebpf4jnsgd1na2vs0mg"},{"bike_id":"30548017-e5f5-4193-a4b7-acc2c9e9bfdb","system_id":"levelo_inurba_marseille","lat":43.3302,"lon":5.39047,"is_reserved":false,"is_disabled":false,"rental_uris":{"android":"levelo://app?vid=30548017-e5f5-4193-a4b7-acc2c9e9bfdb","ios":"levelo://app?vid=30548017-e5f5-4193-a4b7-acc2c9e9bfdb"},"vehicle_type_id":"4","last_reported":1733292881,"current_range_meters":37600,"station_id":"ce4bhr92rcd13ifvqhrg","pricing_plan_id":"cebpf4jnsgd1na2vs0mg"},{"bike_id":"ae11192b-7477-4050-9e15-a2e6b81f0e44","system_id":"levelo_inurba_marseille","lat":43.30263,"lon":5.38664,"is_reserved":false,"is_disabled":false,"rental_uris":{"android":"levelo://app?vid=ae11192b-7477-4050-9e15-a2e6b81f0e44","ios":"levelo://app?vid=ae11192b-7477-4050-9e15-a2e6b81f0e44"},"vehicle_type_id":"4","last_reported":1733292881,"current_range_meters":6000,"station_id":"","pricing_plan_id":"cebpf4jnsgd1na2vs0mg"},{"bike_id":"b68f8e17-5ef9-4eaf-8697-3ea6578e9ad4","system_id":"levelo_inurba_marseille","lat":43.27998,"lon":5.40021,"is_reserved":false,"is_disabled":false,"rental_uris":{"android":"levelo://app?vid=b68f8e17-5ef9-4eaf-8697-3ea6578e9ad4","ios":"levelo://app?vid=b68f8e17-5ef9-4eaf-8697-3ea6578e9ad4"},"vehicle_type_id":"4","last_reported":1733292881,"current_range_meters":38800,"station_id":"ce4bho92rcd13ifvqh4g","pricing_plan_id":"cebpf4jnsgd1na2vs0mg"},{"bike_id":"5084cec7-cd98-476d-a574-a0236a0e067f","system_id":"levelo_inurba_marseille","lat":43.29035,"lon":5.35921,"is_reserved":false,"is_disabled":false,"rental_uris":{"android":"levelo://app?vid=5084cec7-cd98-476d-a574-a0236a0e067f","ios":"levelo://app?vid=5084cec7-cd98-476d-a574-a0236a0e067f"},"vehicle_type_id":"4","last_reported":1733292881,"current_range_meters":21600,"station_id":"ce4bha92rcd13ifvqeg0","pricing_plan_id":"cebpf4jnsgd1na2vs0mg"},{"bike_id":"1ca0aca0-4ca4-4bf8-9b1d-054345c3a341","system_id":"levelo_inurba_marseille","lat":43.28884,"lon":5.39999,"is_reserved":false,"is_disabled":false,"rental_uris":{"android":"levelo://app?vid=1ca0aca0-4ca4-4bf8-9b1d-054345c3a341","ios":"levelo://app?vid=1ca0aca0-4ca4-4bf8-9b1d-054345c3a341"},"vehicle_type_id":"4","last_reported":1733292881,"current_range_meters":29600,"station_id":"","pricing_plan_id":"cebpf4jnsgd1na2vs0mg"},{"bike_id":"1f4af703-ccfd-48bd-b4f8-5dd214f910ce","system_id":"levelo_inurba_marseille","lat":43.23154,"lon":5.43718,"is_reserved":false,"is_disabled":false,"rental_uris":{"android":"levelo://app?vid=1f4af703-ccfd-48bd-b4f8-5dd214f910ce","ios":"levelo://app?vid=1f4af703-ccfd-48bd-b4f8-5dd214f910ce"},"vehicle_type_id":"4","last_reported":1733292881,"current_range_meters":38000,"station_id":"ce4bhmp2rcd13ifvqgog","pricing_plan_id":"cebpf4jnsgd1na2vs0mg"},{"bike_id":"51202af5-7742-4b91-80ff-1d843cab3565","system_id":"levelo_inurba_marseille","lat":43.26544,"lon":5.37321,"is_reserved":false,"is_disabled":false,"rental_uris":{"android":"levelo://app?vid=51202af5-7742-4b91-80ff-1d843cab3565","ios":"levelo://app?vid=51202af5-7742-4b91-80ff-1d843cab3565"},"vehicle_type_id":"4","last_reported":1733292881,"current_range_meters":33200,"station_id":"ce4bhg12rcd13ifvqf70","pricing_plan_id":"cebpf4jnsgd1na2vs0mg"},{"bike_id":"b610ee4b-69e7-4519-8a3a-65e0771cc4af","system_id":"levelo_inurba_marseille","lat":43.2781,"lon":5.40711,"is_reserved":false,"is_disabled":false,"rental_uris":{"android":"levelo://app?vid=b610ee4b-69e7-4519-8a3a-65e0771cc4af","ios":"levelo://app?vid=b610ee4b-69e7-4519-8a3a-65e0771cc4af"},"vehicle_type_id":"4","last_reported":1733292881,"current_range_meters":38800,"station_id":"ce4bhnh2rcd13ifvqgtg","pricing_plan_id":"cebpf4jnsgd1na2vs0mg"},{"bike_id":"d2c28698-e177-4ec3-804c-ede2349774ad","system_id":"levelo_inurba_marseille","lat":43.26031,"lon":5.37555,"is_reserved":false,"is_disabled":false,"rental_uris":{"android":"levelo://app?vid=d2c28698-e177-4ec3-804c-ede2349774ad","ios":"levelo://app?vid=d2c28698-e177-4ec3-804c-ede2349774ad"},"vehicle_type_id":"4","last_reported":1733292881,"current_range_meters":10000,"station_id":"ce4bhgh2rcd13ifvqfa0","pricing_plan_id":"cebpf4jnsgd1na2vs0mg"},{"bike_id":"5c6e9ba5-5f48-4700-90e5-8f3e9be51e92","system_id":"levelo_inurba_marseille","lat":43.31077,"lon":5.38364,"is_reserved":false,"is_disabled":false,"rental_uris":{"android":"levelo://app?vid=5c6e9ba5-5f48-4700-90e5-8f3e9be51e92","ios":"levelo://app?vid=5c6e9ba5-5f48-4700-90e5-8f3e9be51e92"},"vehicle_type_id":"4","last_reported":1733292881,"current_range_meters":22400,"station_id":"ce4bgv92rcd13ifvqcr0","pricing_plan_id":"cebpf4jnsgd1na2vs0mg"},{"bike_id":"72acf1ae-bb0c-4f87-93d2-53a3efc68c5c","system_id":"levelo_inurba_marseille","lat":43.3128,"lon":5.401689,"is_reserved":false,"is_disabled":false,"rental_uris":{"android":"levelo://app?vid=72acf1ae-bb0c-4f87-93d2-53a3efc68c5c","ios":"levelo://app?vid=72acf1ae-bb0c-4f87-93d2-53a3efc68c5c"},"vehicle_type_id":"4","last_reported":1733292881,"current_range_meters":32400,"station_id":"ce4bh092rcd13ifvqd30","pricing_plan_id":"cebpf4jnsgd1na2vs0mg"},{"bike_id":"9c77a68d-2e99-44e9-b903-950fb6644d35","system_id":"levelo_inurba_marseille","lat":43.25265,"lon":5.39465,"is_reserved":false,"is_disabled":true,"rental_uris":{"android":"levelo://app?vid=9c77a68d-2e99-44e9-b903-950fb6644d35","ios":"levelo://app?vid=9c77a68d-2e99-44e9-b903-950fb6644d35"},"vehicle_type_id":"4","last_reported":1733292881,"current_range_meters":0,"station_id":"","pricing_plan_id":"cebpf4jnsgd1na2vs0mg"},{"bike_id":"b3d630af-071c-493f-b0bd-38478eda301f","system_id":"levelo_inurba_marseille","lat":43.28403,"lon":5.37523,"is_reserved":false,"is_disabled":false,"rental_uris":{"android":"levelo://app?vid=b3d630af-071c-493f-b0bd-38478eda301f","ios":"levelo://app?vid=b3d630af-071c-493f-b0bd-38478eda301f"},"vehicle_type_id":"4","last_reported":1733292881,"current_range_meters":38400,"station_id":"ce4bh412rcd13ifvqds0","pricing_plan_id":"cebpf4jnsgd1na2vs0mg"},{"bike_id":"6756620d-c4a7-48b7-90d3-82d14192553b","system_id":"levelo_inurba_marseille","lat":43.28406,"lon":5.37517,"is_reserved":false,"is_disabled":false,"rental_uris":{"android":"levelo://app?vid=6756620d-c4a7-48b7-90d3-82d14192553b","ios":"levelo://app?vid=6756620d-c4a7-48b7-90d3-82d14192553b"},"vehicle_type_id":"4","last_reported":1733292881,"current_range_meters":28000,"station_id":"ce4bh412rcd13ifvqds0","pricing_plan_id":"cebpf4jnsgd1na2vs0mg"},{"bike_id":"bf38dbe1-735d-41b7-93c5-c219ca300fc2","system_id":"levelo_inurba_marseille","lat":43.28657,"lon":5.36363,"is_reserved":false,"is_disabled":false,"rental_uris":{"android":"levelo://app?vid=bf38dbe1-735d-41b7-93c5-c219ca300fc2","ios":"levelo://app?vid=bf38dbe1-735d-41b7-93c5-c219ca300fc2"},"vehicle_type_id":"4","last_reported":1733292881,"current_range_meters":38800,"station_id":"ce4bhah2rcd13ifvqej0","pricing_plan_id":"cebpf4jnsgd1na2vs0mg"},{"bike_id":"25c7c59e-a74e-45fd-a476-3c4f0e9d6527","system_id":"levelo_inurba_marseille","lat":43.27612,"lon":5.36119,"is_reserved":false,"is_disabled":false,"rental_uris":{"android":"levelo://app?vid=25c7c59e-a74e-45fd-a476-3c4f0e9d6527","ios":"levelo://app?vid=25c7c59e-a74e-45fd-a476-3c4f0e9d6527"},"vehicle_type_id":"4","last_reported":1733292881,"current_range_meters":38800,"station_id":"ce4bgj92rcd13ifvqbe0","pricing_plan_id":"cebpf4jnsgd1na2vs0mg"},{"bike_id":"343c8e76-3413-485d-a3a8-aa0f637f4d2c","system_id":"levelo_inurba_marseille","lat":43.28855,"lon":5.39327,"is_reserved":false,"is_disabled":false,"rental_uris":{"android":"levelo://app?vid=343c8e76-3413-485d-a3a8-aa0f637f4d2c","ios":"levelo://app?vid=343c8e76-3413-485d-a3a8-aa0f637f4d2c"},"vehicle_type_id":"4","last_reported":1733292881,"current_range_meters":16400,"station_id":"ce4bh2p2rcd13ifvqdi0","pricing_plan_id":"cebpf4jnsgd1na2vs0mg"},{"bike_id":"83985555-c848-4b28-808f-8a7e7cf8519e","system_id":"levelo_inurba_marseille","lat":43.28116,"lon":5.44007,"is_reserved":false,"is_disabled":true,"rental_uris":{"android":"levelo://app?vid=83985555-c848-4b28-808f-8a7e7cf8519e","ios":"levelo://app?vid=83985555-c848-4b28-808f-8a7e7cf8519e"},"vehicle_type_id":"4","last_reported":1733292881,"current_range_meters":0,"station_id":"","pricing_plan_id":"cebpf4jnsgd1na2vs0mg"},{"bike_id":"57102c6f-b80b-45ba-b78f-8a83a31b1b04","system_id":"levelo_inurba_marseille","lat":43.2781,"lon":5.4071,"is_reserved":false,"is_disabled":false,"rental_uris":{"android":"levelo://app?vid=57102c6f-b80b-45ba-b78f-8a83a31b1b04","ios":"levelo://app?vid=57102c6f-b80b-45ba-b78f-8a83a31b1b04"},"vehicle_type_id":"4","last_reported":1733292881,"current_range_meters":38800,"station_id":"ce4bhnh2rcd13ifvqgtg","pricing_plan_id":"cebpf4jnsgd1na2vs0mg"},{"bike_id":"1be62913-8a8f-472b-bf7b-3981eb37562d","system_id":"levelo_inurba_marseille","lat":43.31492,"lon":5.37298,"is_reserved":false,"is_disabled":false,"rental_uris":{"android":"levelo://app?vid=1be62913-8a8f-472b-bf7b-3981eb37562d","ios":"levelo://app?vid=1be62913-8a8f-472b-bf7b-3981eb37562d"},"vehicle_type_id":"4","last_reported":1733292881,"current_range_meters":29600,"station_id":"ce4bgt12rcd13ifvqcd0","pricing_plan_id":"cebpf4jnsgd1na2vs0mg"},{"bike_id":"903ec8f1-f4c3-441f-a117-ff7454fcb959","system_id":"levelo_inurba_marseille","lat":43.29456,"lon":5.39401,"is_reserved":false,"is_disabled":true,"rental_uris":{"android":"levelo://app?vid=903ec8f1-f4c3-441f-a117-ff7454fcb959","ios":"levelo://app?vid=903ec8f1-f4c3-441f-a117-ff7454fcb959"},"vehicle_type_id":"4","last_reported":1733292881,"current_range_meters":0,"station_id":"","pricing_plan_id":"cebpf4jnsgd1na2vs0mg"},{"bike_id":"07a60b7f-80b7-470a-9515-22fa33d21dee","system_id":"levelo_inurba_marseille","lat":43.30283,"lon":5.39642,"is_reserved":false,"is_disabled":true,"rental_uris":{"android":"levelo://app?vid=07a60b7f-80b7-470a-9515-22fa33d21dee","ios":"levelo://app?vid=07a60b7f-80b7-470a-9515-22fa33d21dee"},"vehicle_type_id":"4","last_reported":1733292881,"current_range_meters":0,"station_id":"","pricing_plan_id":"cebpf4jnsgd1na2vs0mg"},{"bike_id":"a310f9d9-7716-49d1-87cd-ba71d81d3872","system_id":"levelo_inurba_marseille","lat":43.2885,"lon":5.35841,"is_reserved":false,"is_disabled":false,"rental_uris":{"android":"levelo://app?vid=a310f9d9-7716-49d1-87cd-ba71d81d3872","ios":"levelo://app?vid=a310f9d9-7716-49d1-87cd-ba71d81d3872"},"vehicle_type_id":"4","last_reported":1733292881,"current_range_meters":36800,"station_id":"ce4bhb12rcd13ifvqem0","pricing_plan_id":"cebpf4jnsgd1na2vs0mg"},{"bike_id":"941eeae1-8936-4a86-b31a-ea87d84b2048","system_id":"levelo_inurba_marseille","lat":43.28103,"lon":5.35633,"is_reserved":false,"is_disabled":true,"rental_uris":{"android":"levelo://app?vid=941eeae1-8936-4a86-b31a-ea87d84b2048","ios":"levelo://app?vid=941eeae1-8936-4a86-b31a-ea87d84b2048"},"vehicle_type_id":"4","last_reported":1733292881,"current_range_meters":2000,"station_id":"","pricing_plan_id":"cebpf4jnsgd1na2vs0mg"},{"bike_id":"656cbb9d-73c9-4f1e-9a91-9842f49b55db","system_id":"levelo_inurba_marseille","lat":43.24642,"lon":5.38898,"is_reserved":false,"is_disabled":false,"rental_uris":{"android":"levelo://app?vid=656cbb9d-73c9-4f1e-9a91-9842f49b55db","ios":"levelo://app?vid=656cbb9d-73c9-4f1e-9a91-9842f49b55db"},"vehicle_type_id":"4","last_reported":1733292881,"current_range_meters":38000,"station_id":"ce4bhg12rcd13ifvqf60","pricing_plan_id":"cebpf4jnsgd1na2vs0mg"},{"bike_id":"ff3067c4-fadd-4c84-b95e-3b023799d1c8","system_id":"levelo_inurba_marseille","lat":43.309323,"lon":5.401424,"is_reserved":false,"is_disabled":false,"rental_uris":{"android":"levelo://app?vid=ff3067c4-fadd-4c84-b95e-3b023799d1c8","ios":"levelo://app?vid=ff3067c4-fadd-4c84-b95e-3b023799d1c8"},"vehicle_type_id":"4","last_reported":1733292881,"current_range_meters":29600,"station_id":"ce4bgvp2rcd13ifvqct0","pricing_plan_id":"cebpf4jnsgd1na2vs0mg"},{"bike_id":"dded9c2e-a2fa-47d8-b873-14f9be91bd3c","system_id":"levelo_inurba_marseille","lat":43.30538,"lon":5.38422,"is_reserved":false,"is_disabled":false,"rental_uris":{"android":"levelo://app?vid=dded9c2e-a2fa-47d8-b873-14f9be91bd3c","ios":"levelo://app?vid=dded9c2e-a2fa-47d8-b873-14f9be91bd3c"},"vehicle_type_id":"4","last_reported":1733292881,"current_range_meters":36400,"station_id":"ce4bgg92rcd13ifvqb30","pricing_plan_id":"cebpf4jnsgd1na2vs0mg"},{"bike_id":"69dc143b-323b-4e13-ae3a-11dff440fb50","system_id":"levelo_inurba_marseille","lat":43.26226,"lon":5.37476,"is_reserved":false,"is_disabled":false,"rental_uris":{"android":"levelo://app?vid=69dc143b-323b-4e13-ae3a-11dff440fb50","ios":"levelo://app?vid=69dc143b-323b-4e13-ae3a-11dff440fb50"},"vehicle_type_id":"4","last_reported":1733292881,"current_range_meters":34000,"station_id":"","pricing_plan_id":"cebpf4jnsgd1na2vs0mg"},{"bike_id":"e0e99786-7409-4a1b-b292-7743ecfa06e2","system_id":"levelo_inurba_marseille","lat":43.341479,"lon":5.408969,"is_reserved":false,"is_disabled":false,"rental_uris":{"android":"levelo://app?vid=e0e99786-7409-4a1b-b292-7743ecfa06e2","ios":"levelo://app?vid=e0e99786-7409-4a1b-b292-7743ecfa06e2"},"vehicle_type_id":"4","last_reported":1733292881,"current_range_meters":37600,"station_id":"ce4bhqh2rcd13ifvqhlg","pricing_plan_id":"cebpf4jnsgd1na2vs0mg"},{"bike_id":"d968385f-de2b-44eb-96a8-54efc707caa9","system_id":"levelo_inurba_marseille","lat":43.23193,"lon":5.35553,"is_reserved":false,"is_disabled":false,"rental_uris":{"android":"levelo://app?vid=d968385f-de2b-44eb-96a8-54efc707caa9","ios":"levelo://app?vid=d968385f-de2b-44eb-96a8-54efc707caa9"},"vehicle_type_id":"4","last_reported":1733292881,"current_range_meters":38800,"station_id":"ce4bhu92rcd13ifvqi70","pricing_plan_id":"cebpf4jnsgd1na2vs0mg"},{"bike_id":"5e78eeea-0aab-425d-bd69-4fdcfd1fae70","system_id":"levelo_inurba_marseille","lat":43.32283,"lon":5.38263,"is_reserved":false,"is_disabled":false,"rental_uris":{"android":"levelo://app?vid=5e78eeea-0aab-425d-bd69-4fdcfd1fae70","ios":"levelo://app?vid=5e78eeea-0aab-425d-bd69-4fdcfd1fae70"},"vehicle_type_id":"4","last_reported":1733292881,"current_range_meters":38800,"station_id":"ce4bhr12rcd13ifvqhqg","pricing_plan_id":"cebpf4jnsgd1na2vs0mg"},{"bike_id":"e218f52a-3c8a-490a-99d9-5af7196625b0","system_id":"levelo_inurba_marseille","lat":43.23195,"lon":5.35545,"is_reserved":false,"is_disabled":false,"rental_uris":{"android":"levelo://app?vid=e218f52a-3c8a-490a-99d9-5af7196625b0","ios":"levelo://app?vid=e218f52a-3c8a-490a-99d9-5af7196625b0"},"vehicle_type_id":"4","last_reported":1733292881,"current_range_meters":38800,"station_id":"ce4bhu92rcd13ifvqi70","pricing_plan_id":"cebpf4jnsgd1na2vs0mg"},{"bike_id":"506c09f4-6c9b-4fb3-996c-4c7f86dd75a8","system_id":"levelo_inurba_marseille","lat":43.24555,"lon":5.37351,"is_reserved":false,"is_disabled":true,"rental_uris":{"android":"levelo://app?vid=506c09f4-6c9b-4fb3-996c-4c7f86dd75a8","ios":"levelo://app?vid=506c09f4-6c9b-4fb3-996c-4c7f86dd75a8"},"vehicle_type_id":"4","last_reported":1733292881,"current_range_meters":0,"station_id":"","pricing_plan_id":"cebpf4jnsgd1na2vs0mg"},{"bike_id":"a722b8b3-0cc9-4a79-bb43-3d768bdc5b8a","system_id":"levelo_inurba_marseille","lat":43.30468,"lon":5.37914,"is_reserved":false,"is_disabled":false,"rental_uris":{"android":"levelo://app?vid=a722b8b3-0cc9-4a79-bb43-3d768bdc5b8a","ios":"levelo://app?vid=a722b8b3-0cc9-4a79-bb43-3d768bdc5b8a"},"vehicle_type_id":"4","last_reported":1733292881,"current_range_meters":38000,"station_id":"ce4bgup2rcd13ifvqcn0","pricing_plan_id":"cebpf4jnsgd1na2vs0mg"},{"bike_id":"811f147d-6a67-460d-b589-e71e2c93967c","system_id":"levelo_inurba_marseille","lat":43.31526,"lon":5.38035,"is_reserved":false,"is_disabled":false,"rental_uris":{"android":"levelo://app?vid=811f147d-6a67-460d-b589-e71e2c93967c","ios":"levelo://app?vid=811f147d-6a67-460d-b589-e71e2c93967c"},"vehicle_type_id":"4","last_reported":1733292881,"current_range_meters":38800,"station_id":"ce4bhsp2rcd13ifvqi50","pricing_plan_id":"cebpf4jnsgd1na2vs0mg"},{"bike_id":"9202c63e-372c-4469-a5c1-8e35757d1940","system_id":"levelo_inurba_marseille","lat":43.30053,"lon":5.38832,"is_reserved":false,"is_disabled":true,"rental_uris":{"android":"levelo://app?vid=9202c63e-372c-4469-a5c1-8e35757d1940","ios":"levelo://app?vid=9202c63e-372c-4469-a5c1-8e35757d1940"},"vehicle_type_id":"4","last_reported":1733292881,"current_range_meters":0,"station_id":"","pricing_plan_id":"cebpf4jnsgd1na2vs0mg"},{"bike_id":"dd60ff09-e630-4b5e-a980-e9ed56be4200","system_id":"levelo_inurba_marseille","lat":43.29275,"lon":5.40125,"is_reserved":false,"is_disabled":false,"rental_uris":{"android":"levelo://app?vid=dd60ff09-e630-4b5e-a980-e9ed56be4200","ios":"levelo://app?vid=dd60ff09-e630-4b5e-a980-e9ed56be4200"},"vehicle_type_id":"4","last_reported":1733292881,"current_range_meters":35200,"station_id":"ce4bh312rcd13ifvqdk0","pricing_plan_id":"cebpf4jnsgd1na2vs0mg"},{"bike_id":"0e59f5b7-36b8-44de-b22f-57f754a87caa","system_id":"levelo_inurba_marseille","lat":43.31151,"lon":5.37701,"is_reserved":false,"is_disabled":false,"rental_uris":{"android":"levelo://app?vid=0e59f5b7-36b8-44de-b22f-57f754a87caa","ios":"levelo://app?vid=0e59f5b7-36b8-44de-b22f-57f754a87caa"},"vehicle_type_id":"4","last_reported":1733292881,"current_range_meters":16400,"station_id":"ce4bgt92rcd13ifvqcg0","pricing_plan_id":"cebpf4jnsgd1na2vs0mg"},{"bike_id":"59fe6ee5-2970-40fb-8f17-79075f699540","system_id":"levelo_inurba_marseille","lat":43.27047,"lon":5.40269,"is_reserved":false,"is_disabled":false,"rental_uris":{"android":"levelo://app?vid=59fe6ee5-2970-40fb-8f17-79075f699540","ios":"levelo://app?vid=59fe6ee5-2970-40fb-8f17-79075f699540"},"vehicle_type_id":"4","last_reported":1733292881,"current_range_meters":36400,"station_id":"ce4bhk92rcd13ifvqgc0","pricing_plan_id":"cebpf4jnsgd1na2vs0mg"},{"bike_id":"290aeb3b-fca7-41af-82e3-691725fb4503","system_id":"levelo_inurba_marseille","lat":43.2555,"lon":5.38216,"is_reserved":false,"is_disabled":false,"rental_uris":{"android":"levelo://app?vid=290aeb3b-fca7-41af-82e3-691725fb4503","ios":"levelo://app?vid=290aeb3b-fca7-41af-82e3-691725fb4503"},"vehicle_type_id":"4","last_reported":1733292881,"current_range_meters":33200,"station_id":"ce4bhih2rcd13ifvqfs0","pricing_plan_id":"cebpf4jnsgd1na2vs0mg"},{"bike_id":"97837384-22d5-4813-9727-be00db76da7d","system_id":"levelo_inurba_marseille","lat":43.28856,"lon":5.35849,"is_reserved":false,"is_disabled":false,"rental_uris":{"android":"levelo://app?vid=97837384-22d5-4813-9727-be00db76da7d","ios":"levelo://app?vid=97837384-22d5-4813-9727-be00db76da7d"},"vehicle_type_id":"4","last_reported":1733292881,"current_range_meters":38800,"station_id":"ce4bhb12rcd13ifvqem0","pricing_plan_id":"cebpf4jnsgd1na2vs0mg"},{"bike_id":"cf3e6ea0-09ff-406c-b357-28a6a6117f94","system_id":"levelo_inurba_marseille","lat":43.229323,"lon":5.353763,"is_reserved":false,"is_disabled":false,"rental_uris":{"android":"levelo://app?vid=cf3e6ea0-09ff-406c-b357-28a6a6117f94","ios":"levelo://app?vid=cf3e6ea0-09ff-406c-b357-28a6a6117f94"},"vehicle_type_id":"4","last_reported":1733292881,"current_range_meters":38000,"station_id":"cpo3532slgdg3j2ikp40","pricing_plan_id":"cebpf4jnsgd1na2vs0mg"},{"bike_id":"c2a8faff-bb33-449e-ba22-c78399448fc1","system_id":"levelo_inurba_marseille","lat":43.28142,"lon":5.42642,"is_reserved":false,"is_disabled":false,"rental_uris":{"android":"levelo://app?vid=c2a8faff-bb33-449e-ba22-c78399448fc1","ios":"levelo://app?vid=c2a8faff-bb33-449e-ba22-c78399448fc1"},"vehicle_type_id":"4","last_reported":1733292881,"current_range_meters":38000,"station_id":"ce4bhnh2rcd13ifvqgug","pricing_plan_id":"cebpf4jnsgd1na2vs0mg"},{"bike_id":"4a163e59-10c0-4f85-9663-cc135fcf421e","system_id":"levelo_inurba_marseille","lat":43.24807,"lon":5.37456,"is_reserved":false,"is_disabled":false,"rental_uris":{"android":"levelo://app?vid=4a163e59-10c0-4f85-9663-cc135fcf421e","ios":"levelo://app?vid=4a163e59-10c0-4f85-9663-cc135fcf421e"},"vehicle_type_id":"4","last_reported":1733292881,"current_range_meters":17600,"station_id":"ce4bhgh2rcd13ifvqfb0","pricing_plan_id":"cebpf4jnsgd1na2vs0mg"},{"bike_id":"03a2400a-8407-441d-9fbc-e4bcfebde53a","system_id":"levelo_inurba_marseille","lat":43.26935,"lon":5.40249,"is_reserved":false,"is_disabled":false,"rental_uris":{"android":"levelo://app?vid=03a2400a-8407-441d-9fbc-e4bcfebde53a","ios":"levelo://app?vid=03a2400a-8407-441d-9fbc-e4bcfebde53a"},"vehicle_type_id":"4","last_reported":1733292881,"current_range_meters":38000,"station_id":"cjm6bp8fraef2m0cb0m0","pricing_plan_id":"cebpf4jnsgd1na2vs0mg"},{"bike_id":"9e3f7b71-bb69-4130-8846-f0c6f4524366","system_id":"levelo_inurba_marseille","lat":43.33608,"lon":5.41028,"is_reserved":false,"is_disabled":false,"rental_uris":{"android":"levelo://app?vid=9e3f7b71-bb69-4130-8846-f0c6f4524366","ios":"levelo://app?vid=9e3f7b71-bb69-4130-8846-f0c6f4524366"},"vehicle_type_id":"4","last_reported":1733292881,"current_range_meters":37600,"station_id":"ce4bhqh2rcd13ifvqhmg","pricing_plan_id":"cebpf4jnsgd1na2vs0mg"},{"bike_id":"719e509a-25e4-4b1b-9830-f708d85d7593","system_id":"levelo_inurba_marseille","lat":43.29283,"lon":5.37397,"is_reserved":false,"is_disabled":true,"rental_uris":{"android":"levelo://app?vid=719e509a-25e4-4b1b-9830-f708d85d7593","ios":"levelo://app?vid=719e509a-25e4-4b1b-9830-f708d85d7593"},"vehicle_type_id":"4","last_reported":1733292881,"current_range_meters":0,"station_id":"","pricing_plan_id":"cebpf4jnsgd1na2vs0mg"},{"bike_id":"34990873-3196-4058-b006-4ffbc0216fdf","system_id":"levelo_inurba_marseille","lat":43.23194,"lon":5.35551,"is_reserved":false,"is_disabled":false,"rental_uris":{"android":"levelo://app?vid=34990873-3196-4058-b006-4ffbc0216fdf","ios":"levelo://app?vid=34990873-3196-4058-b006-4ffbc0216fdf"},"vehicle_type_id":"4","last_reported":1733292881,"current_range_meters":38800,"station_id":"ce4bhu92rcd13ifvqi70","pricing_plan_id":"cebpf4jnsgd1na2vs0mg"},{"bike_id":"235e4433-937e-41f8-a4d6-6889c27bd8c1","system_id":"levelo_inurba_marseille","lat":43.31074,"lon":5.38351,"is_reserved":false,"is_disabled":false,"rental_uris":{"android":"levelo://app?vid=235e4433-937e-41f8-a4d6-6889c27bd8c1","ios":"levelo://app?vid=235e4433-937e-41f8-a4d6-6889c27bd8c1"},"vehicle_type_id":"4","last_reported":1733292881,"current_range_meters":20800,"station_id":"ce4bgv92rcd13ifvqcr0","pricing_plan_id":"cebpf4jnsgd1na2vs0mg"},{"bike_id":"59c2e160-e79d-47ca-85d4-3412b5c32d58","system_id":"levelo_inurba_marseille","lat":43.26062,"lon":5.39391,"is_reserved":false,"is_disabled":false,"rental_uris":{"android":"levelo://app?vid=59c2e160-e79d-47ca-85d4-3412b5c32d58","ios":"levelo://app?vid=59c2e160-e79d-47ca-85d4-3412b5c32d58"},"vehicle_type_id":"4","last_reported":1733292881,"current_range_meters":10800,"station_id":"ce4bhh92rcd13ifvqfj0","pricing_plan_id":"cebpf4jnsgd1na2vs0mg"},{"bike_id":"8273b47b-32ab-4a2e-9123-95511b6686fe","system_id":"levelo_inurba_marseille","lat":43.26212,"lon":5.37442,"is_reserved":false,"is_disabled":false,"rental_uris":{"android":"levelo://app?vid=8273b47b-32ab-4a2e-9123-95511b6686fe","ios":"levelo://app?vid=8273b47b-32ab-4a2e-9123-95511b6686fe"},"vehicle_type_id":"4","last_reported":1733292881,"current_range_meters":29600,"station_id":"ce4bhgp2rcd13ifvqfc0","pricing_plan_id":"cebpf4jnsgd1na2vs0mg"},{"bike_id":"c0b0668b-9f20-44f3-b7e1-3963df177deb","system_id":"levelo_inurba_marseille","lat":43.26027,"lon":5.3755,"is_reserved":false,"is_disabled":false,"rental_uris":{"android":"levelo://app?vid=c0b0668b-9f20-44f3-b7e1-3963df177deb","ios":"levelo://app?vid=c0b0668b-9f20-44f3-b7e1-3963df177deb"},"vehicle_type_id":"4","last_reported":1733292881,"current_range_meters":37600,"station_id":"ce4bhgh2rcd13ifvqfa0","pricing_plan_id":"cebpf4jnsgd1na2vs0mg"},{"bike_id":"7eeb5ac6-a3ab-4724-a0d1-17bed7e385e6","system_id":"levelo_inurba_marseille","lat":43.27995,"lon":5.41662,"is_reserved":false,"is_disabled":true,"rental_uris":{"android":"levelo://app?vid=7eeb5ac6-a3ab-4724-a0d1-17bed7e385e6","ios":"levelo://app?vid=7eeb5ac6-a3ab-4724-a0d1-17bed7e385e6"},"vehicle_type_id":"4","last_reported":1733292881,"current_range_meters":24400,"station_id":"ce4bho12rcd13ifvqh1g","pricing_plan_id":"cebpf4jnsgd1na2vs0mg"},{"bike_id":"48f7fad5-9736-4854-ad66-3ac0235f4d2f","system_id":"levelo_inurba_marseille","lat":43.27049,"lon":5.40261,"is_reserved":false,"is_disabled":false,"rental_uris":{"android":"levelo://app?vid=48f7fad5-9736-4854-ad66-3ac0235f4d2f","ios":"levelo://app?vid=48f7fad5-9736-4854-ad66-3ac0235f4d2f"},"vehicle_type_id":"4","last_reported":1733292881,"current_range_meters":19600,"station_id":"ce4bhk92rcd13ifvqgc0","pricing_plan_id":"cebpf4jnsgd1na2vs0mg"},{"bike_id":"38cfe079-7483-4589-95cf-6034a1b89a02","system_id":"levelo_inurba_marseille","lat":43.31879,"lon":5.40739,"is_reserved":false,"is_disabled":false,"rental_uris":{"android":"levelo://app?vid=38cfe079-7483-4589-95cf-6034a1b89a02","ios":"levelo://app?vid=38cfe079-7483-4589-95cf-6034a1b89a02"},"vehicle_type_id":"4","last_reported":1733292881,"current_range_meters":25200,"station_id":"ce4bhq12rcd13ifvqhig","pricing_plan_id":"cebpf4jnsgd1na2vs0mg"},{"bike_id":"57681fe6-a85e-4520-b2d5-443892bff85b","system_id":"levelo_inurba_marseille","lat":43.30465,"lon":5.37907,"is_reserved":false,"is_disabled":false,"rental_uris":{"android":"levelo://app?vid=57681fe6-a85e-4520-b2d5-443892bff85b","ios":"levelo://app?vid=57681fe6-a85e-4520-b2d5-443892bff85b"},"vehicle_type_id":"4","last_reported":1733292881,"current_range_meters":32000,"station_id":"ce4bgup2rcd13ifvqcn0","pricing_plan_id":"cebpf4jnsgd1na2vs0mg"},{"bike_id":"1765576d-ad21-4bb0-85a8-4c7cde4f5294","system_id":"levelo_inurba_marseille","lat":43.29619,"lon":5.37151,"is_reserved":false,"is_disabled":true,"rental_uris":{"android":"levelo://app?vid=1765576d-ad21-4bb0-85a8-4c7cde4f5294","ios":"levelo://app?vid=1765576d-ad21-4bb0-85a8-4c7cde4f5294"},"vehicle_type_id":"4","last_reported":1733292881,"current_range_meters":2000,"station_id":"ce4bgnh2rcd13ifvqc0g","pricing_plan_id":"cebpf4jnsgd1na2vs0mg"},{"bike_id":"d66bb060-eae4-4237-b847-a034287e114d","system_id":"levelo_inurba_marseille","lat":43.23957,"lon":5.36652,"is_reserved":false,"is_disabled":false,"rental_uris":{"android":"levelo://app?vid=d66bb060-eae4-4237-b847-a034287e114d","ios":"levelo://app?vid=d66bb060-eae4-4237-b847-a034287e114d"},"vehicle_type_id":"4","last_reported":1733292881,"current_range_meters":20000,"station_id":"ce4bhi12rcd13ifvqfp0","pricing_plan_id":"cebpf4jnsgd1na2vs0mg"},{"bike_id":"814933d9-932f-45d3-812e-11edfcc3f9c1","system_id":"levelo_inurba_marseille","lat":43.29631,"lon":5.37723,"is_reserved":false,"is_disabled":false,"rental_uris":{"android":"levelo://app?vid=814933d9-932f-45d3-812e-11edfcc3f9c1","ios":"levelo://app?vid=814933d9-932f-45d3-812e-11edfcc3f9c1"},"vehicle_type_id":"4","last_reported":1733292881,"current_range_meters":36000,"station_id":"ce4bgi92rcd13ifvqb90","pricing_plan_id":"cebpf4jnsgd1na2vs0mg"},{"bike_id":"9584f553-5f3a-492c-bbf6-6e0338db0a8f","system_id":"levelo_inurba_marseille","lat":43.28714,"lon":5.37946,"is_reserved":false,"is_disabled":false,"rental_uris":{"android":"levelo://app?vid=9584f553-5f3a-492c-bbf6-6e0338db0a8f","ios":"levelo://app?vid=9584f553-5f3a-492c-bbf6-6e0338db0a8f"},"vehicle_type_id":"4","last_reported":1733292881,"current_range_meters":38000,"station_id":"ce4bh9p2rcd13ifvqec0","pricing_plan_id":"cebpf4jnsgd1na2vs0mg"},{"bike_id":"968baaf9-070b-44ea-a9ae-5bc7ffde82cb","system_id":"levelo_inurba_marseille","lat":43.30484,"lon":5.37912,"is_reserved":false,"is_disabled":false,"rental_uris":{"android":"levelo://app?vid=968baaf9-070b-44ea-a9ae-5bc7ffde82cb","ios":"levelo://app?vid=968baaf9-070b-44ea-a9ae-5bc7ffde82cb"},"vehicle_type_id":"4","last_reported":1733292881,"current_range_meters":22800,"station_id":"ce4bgup2rcd13ifvqcn0","pricing_plan_id":"cebpf4jnsgd1na2vs0mg"},{"bike_id":"ecf59274-c53f-4d00-8000-107aaa195945","system_id":"levelo_inurba_marseille","lat":43.2809,"lon":5.37845,"is_reserved":false,"is_disabled":false,"rental_uris":{"android":"levelo://app?vid=ecf59274-c53f-4d00-8000-107aaa195945","ios":"levelo://app?vid=ecf59274-c53f-4d00-8000-107aaa195945"},"vehicle_type_id":"4","last_reported":1733292881,"current_range_meters":38800,"station_id":"ce4bha12rcd13ifvqee0","pricing_plan_id":"cebpf4jnsgd1na2vs0mg"},{"bike_id":"f11fb10d-c600-4f59-80d6-d42de95390f1","system_id":"levelo_inurba_marseille","lat":43.30339,"lon":5.41881,"is_reserved":false,"is_disabled":false,"rental_uris":{"android":"levelo://app?vid=f11fb10d-c600-4f59-80d6-d42de95390f1","ios":"levelo://app?vid=f11fb10d-c600-4f59-80d6-d42de95390f1"},"vehicle_type_id":"4","last_reported":1733292881,"current_range_meters":38800,"station_id":"ce4bhop2rcd13ifvqh7g","pricing_plan_id":"cebpf4jnsgd1na2vs0mg"},{"bike_id":"306ac285-bc0c-4835-93e0-a6039d545963","system_id":"levelo_inurba_marseille","lat":43.30079,"lon":5.39094,"is_reserved":false,"is_disabled":true,"rental_uris":{"android":"levelo://app?vid=306ac285-bc0c-4835-93e0-a6039d545963","ios":"levelo://app?vid=306ac285-bc0c-4835-93e0-a6039d545963"},"vehicle_type_id":"4","last_reported":1733292881,"current_range_meters":36800,"station_id":"ce4bh192rcd13ifvqdb0","pricing_plan_id":"cebpf4jnsgd1na2vs0mg"},{"bike_id":"04acd6cf-39e7-4978-a379-93c734ba69f3","system_id":"levelo_inurba_marseille","lat":43.31547,"lon":5.38001,"is_reserved":false,"is_disabled":false,"rental_uris":{"android":"levelo://app?vid=04acd6cf-39e7-4978-a379-93c734ba69f3","ios":"levelo://app?vid=04acd6cf-39e7-4978-a379-93c734ba69f3"},"vehicle_type_id":"4","last_reported":1733292881,"current_range_meters":38800,"station_id":"ce4bhsp2rcd13ifvqi50","pricing_plan_id":"cebpf4jnsgd1na2vs0mg"},{"bike_id":"3906398f-31e8-420c-aaf7-8851fd039e80","system_id":"levelo_inurba_marseille","lat":43.30594,"lon":5.37237,"is_reserved":false,"is_disabled":false,"rental_uris":{"android":"levelo://app?vid=3906398f-31e8-420c-aaf7-8851fd039e80","ios":"levelo://app?vid=3906398f-31e8-420c-aaf7-8851fd039e80"},"vehicle_type_id":"4","last_reported":1733292881,"current_range_meters":38800,"station_id":"ce4bgqh2rcd13ifvqc4g","pricing_plan_id":"cebpf4jnsgd1na2vs0mg"},{"bike_id":"1dc70cdf-4f74-41af-9e95-77502d50e11a","system_id":"levelo_inurba_marseille","lat":43.304182,"lon":5.412851,"is_reserved":false,"is_disabled":true,"rental_uris":{"android":"levelo://app?vid=1dc70cdf-4f74-41af-9e95-77502d50e11a","ios":"levelo://app?vid=1dc70cdf-4f74-41af-9e95-77502d50e11a"},"vehicle_type_id":"4","last_reported":1733292881,"current_range_meters":12800,"station_id":"ce4bhop2rcd13ifvqh8g","pricing_plan_id":"cebpf4jnsgd1na2vs0mg"},{"bike_id":"82417618-af8d-4268-a69a-909857035607","system_id":"levelo_inurba_marseille","lat":43.24996,"lon":5.38936,"is_reserved":false,"is_disabled":false,"rental_uris":{"android":"levelo://app?vid=82417618-af8d-4268-a69a-909857035607","ios":"levelo://app?vid=82417618-af8d-4268-a69a-909857035607"},"vehicle_type_id":"4","last_reported":1733292881,"current_range_meters":32000,"station_id":"ce4bhgp2rcd13ifvqfd0","pricing_plan_id":"cebpf4jnsgd1na2vs0mg"},{"bike_id":"0fd1cd6b-8b69-4464-90ba-58df07af05d8","system_id":"levelo_inurba_marseille","lat":43.31695,"lon":5.4047,"is_reserved":false,"is_disabled":false,"rental_uris":{"android":"levelo://app?vid=0fd1cd6b-8b69-4464-90ba-58df07af05d8","ios":"levelo://app?vid=0fd1cd6b-8b69-4464-90ba-58df07af05d8"},"vehicle_type_id":"4","last_reported":1733292881,"current_range_meters":28000,"station_id":"ce4bh012rcd13ifvqd00","pricing_plan_id":"cebpf4jnsgd1na2vs0mg"},{"bike_id":"388618c7-8df7-48e6-9e97-71d67355e285","system_id":"levelo_inurba_marseille","lat":43.28608,"lon":5.35095,"is_reserved":false,"is_disabled":false,"rental_uris":{"android":"levelo://app?vid=388618c7-8df7-48e6-9e97-71d67355e285","ios":"levelo://app?vid=388618c7-8df7-48e6-9e97-71d67355e285"},"vehicle_type_id":"4","last_reported":1733292881,"current_range_meters":33200,"station_id":"ce4bhch2rcd13ifvqeug","pricing_plan_id":"cebpf4jnsgd1na2vs0mg"},{"bike_id":"f2e0aeb7-3c53-4d5f-8fec-b31ca652c09b","system_id":"levelo_inurba_marseille","lat":43.290351,"lon":5.359253,"is_reserved":false,"is_disabled":false,"rental_uris":{"android":"levelo://app?vid=f2e0aeb7-3c53-4d5f-8fec-b31ca652c09b","ios":"levelo://app?vid=f2e0aeb7-3c53-4d5f-8fec-b31ca652c09b"},"vehicle_type_id":"4","last_reported":1733292881,"current_range_meters":18000,"station_id":"ce4bha92rcd13ifvqeg0","pricing_plan_id":"cebpf4jnsgd1na2vs0mg"},{"bike_id":"72e21a5e-0a93-46f4-be99-089514dd36e9","system_id":"levelo_inurba_marseille","lat":43.33021,"lon":5.3904,"is_reserved":false,"is_disabled":false,"rental_uris":{"android":"levelo://app?vid=72e21a5e-0a93-46f4-be99-089514dd36e9","ios":"levelo://app?vid=72e21a5e-0a93-46f4-be99-089514dd36e9"},"vehicle_type_id":"4","last_reported":1733292881,"current_range_meters":38400,"station_id":"ce4bhr92rcd13ifvqhrg","pricing_plan_id":"cebpf4jnsgd1na2vs0mg"},{"bike_id":"79c8ea6d-5102-4a1e-b941-afdabc095945","system_id":"levelo_inurba_marseille","lat":43.29067,"lon":5.38335,"is_reserved":false,"is_disabled":true,"rental_uris":{"android":"levelo://app?vid=79c8ea6d-5102-4a1e-b941-afdabc095945","ios":"levelo://app?vid=79c8ea6d-5102-4a1e-b941-afdabc095945"},"vehicle_type_id":"4","last_reported":1733292881,"current_range_meters":22000,"station_id":"","pricing_plan_id":"cebpf4jnsgd1na2vs0mg"},{"bike_id":"48bcc0e7-bd1c-4d09-9bbb-ebbdaa74d691","system_id":"levelo_inurba_marseille","lat":43.31268,"lon":5.40173,"is_reserved":false,"is_disabled":false,"rental_uris":{"android":"levelo://app?vid=48bcc0e7-bd1c-4d09-9bbb-ebbdaa74d691","ios":"levelo://app?vid=48bcc0e7-bd1c-4d09-9bbb-ebbdaa74d691"},"vehicle_type_id":"4","last_reported":1733292881,"current_range_meters":26000,"station_id":"ce4bh092rcd13ifvqd30","pricing_plan_id":"cebpf4jnsgd1na2vs0mg"},{"bike_id":"617629dc-94d5-488c-bdb3-2641b11a2136","system_id":"levelo_inurba_marseille","lat":43.31716,"lon":5.43705,"is_reserved":false,"is_disabled":true,"rental_uris":{"android":"levelo://app?vid=617629dc-94d5-488c-bdb3-2641b11a2136","ios":"levelo://app?vid=617629dc-94d5-488c-bdb3-2641b11a2136"},"vehicle_type_id":"4","last_reported":1733292881,"current_range_meters":28000,"station_id":"ce4bhp92rcd13ifvqhcg","pricing_plan_id":"cebpf4jnsgd1na2vs0mg"},{"bike_id":"94ec07b6-b29d-4f5b-a191-52119e1408dc","system_id":"levelo_inurba_marseille","lat":43.2884,"lon":5.35876,"is_reserved":false,"is_disabled":false,"rental_uris":{"android":"levelo://app?vid=94ec07b6-b29d-4f5b-a191-52119e1408dc","ios":"levelo://app?vid=94ec07b6-b29d-4f5b-a191-52119e1408dc"},"vehicle_type_id":"4","last_reported":1733292881,"current_range_meters":38800,"station_id":"ce4bhb12rcd13ifvqem0","pricing_plan_id":"cebpf4jnsgd1na2vs0mg"},{"bike_id":"d337693b-82b2-4f65-ad74-9a2472a5f9cd","system_id":"levelo_inurba_marseille","lat":43.29787,"lon":5.38117,"is_reserved":false,"is_disabled":true,"rental_uris":{"android":"levelo://app?vid=d337693b-82b2-4f65-ad74-9a2472a5f9cd","ios":"levelo://app?vid=d337693b-82b2-4f65-ad74-9a2472a5f9cd"},"vehicle_type_id":"4","last_reported":1733292881,"current_range_meters":38000,"station_id":"ce4bgip2rcd13ifvqbb0","pricing_plan_id":"cebpf4jnsgd1na2vs0mg"},{"bike_id":"1f3491f0-7911-4ef6-949b-178332ea511b","system_id":"levelo_inurba_marseille","lat":43.27938,"lon":5.3875,"is_reserved":false,"is_disabled":false,"rental_uris":{"android":"levelo://app?vid=1f3491f0-7911-4ef6-949b-178332ea511b","ios":"levelo://app?vid=1f3491f0-7911-4ef6-949b-178332ea511b"},"vehicle_type_id":"4","last_reported":1733292881,"current_range_meters":20800,"station_id":"ce4bhg12rcd13ifvqf80","pricing_plan_id":"cebpf4jnsgd1na2vs0mg"},{"bike_id":"e357fe6d-d100-4b1a-9a89-ff7da1c905e6","system_id":"levelo_inurba_marseille","lat":43.292686,"lon":5.401238,"is_reserved":false,"is_disabled":false,"rental_uris":{"android":"levelo://app?vid=e357fe6d-d100-4b1a-9a89-ff7da1c905e6","ios":"levelo://app?vid=e357fe6d-d100-4b1a-9a89-ff7da1c905e6"},"vehicle_type_id":"4","last_reported":1733292881,"current_range_meters":36400,"station_id":"ce4bh312rcd13ifvqdk0","pricing_plan_id":"cebpf4jnsgd1na2vs0mg"},{"bike_id":"82fc3bec-a1ab-4afd-b009-c1125ebc59a7","system_id":"levelo_inurba_marseille","lat":43.28101,"lon":5.37849,"is_reserved":false,"is_disabled":false,"rental_uris":{"android":"levelo://app?vid=82fc3bec-a1ab-4afd-b009-c1125ebc59a7","ios":"levelo://app?vid=82fc3bec-a1ab-4afd-b009-c1125ebc59a7"},"vehicle_type_id":"4","last_reported":1733292881,"current_range_meters":38400,"station_id":"ce4bha12rcd13ifvqee0","pricing_plan_id":"cebpf4jnsgd1na2vs0mg"},{"bike_id":"427d7497-fe79-4531-b7d6-69d2614ceec1","system_id":"levelo_inurba_marseille","lat":43.29178,"lon":5.38497,"is_reserved":false,"is_disabled":true,"rental_uris":{"android":"levelo://app?vid=427d7497-fe79-4531-b7d6-69d2614ceec1","ios":"levelo://app?vid=427d7497-fe79-4531-b7d6-69d2614ceec1"},"vehicle_type_id":"4","last_reported":1733292881,"current_range_meters":6800,"station_id":"","pricing_plan_id":"cebpf4jnsgd1na2vs0mg"},{"bike_id":"31f22b88-b63f-4c3f-abc3-1c5b8e0c8278","system_id":"levelo_inurba_marseille","lat":43.30419,"lon":5.39748,"is_reserved":false,"is_disabled":false,"rental_uris":{"android":"levelo://app?vid=31f22b88-b63f-4c3f-abc3-1c5b8e0c8278","ios":"levelo://app?vid=31f22b88-b63f-4c3f-abc3-1c5b8e0c8278"},"vehicle_type_id":"4","last_reported":1733292881,"current_range_meters":25200,"station_id":"ce4bh092rcd13ifvqd20","pricing_plan_id":"cebpf4jnsgd1na2vs0mg"},{"bike_id":"043db57f-09aa-4d44-a867-99eb9d67e113","system_id":"levelo_inurba_marseille","lat":43.33604,"lon":5.41018,"is_reserved":false,"is_disabled":false,"rental_uris":{"android":"levelo://app?vid=043db57f-09aa-4d44-a867-99eb9d67e113","ios":"levelo://app?vid=043db57f-09aa-4d44-a867-99eb9d67e113"},"vehicle_type_id":"4","last_reported":1733292881,"current_range_meters":28000,"station_id":"ce4bhqh2rcd13ifvqhmg","pricing_plan_id":"cebpf4jnsgd1na2vs0mg"},{"bike_id":"d08cbdef-fa5f-4eaa-9a1b-d4e2d436791f","system_id":"levelo_inurba_marseille","lat":43.3248,"lon":5.36556,"is_reserved":false,"is_disabled":false,"rental_uris":{"android":"levelo://app?vid=d08cbdef-fa5f-4eaa-9a1b-d4e2d436791f","ios":"levelo://app?vid=d08cbdef-fa5f-4eaa-9a1b-d4e2d436791f"},"vehicle_type_id":"4","last_reported":1733292881,"current_range_meters":38800,"station_id":"ce4bhs12rcd13ifvqhvg","pricing_plan_id":"cebpf4jnsgd1na2vs0mg"},{"bike_id":"ed420919-74d5-496e-8d22-f774c8fcfbb2","system_id":"levelo_inurba_marseille","lat":43.29008,"lon":5.35613,"is_reserved":false,"is_disabled":false,"rental_uris":{"android":"levelo://app?vid=ed420919-74d5-496e-8d22-f774c8fcfbb2","ios":"levelo://app?vid=ed420919-74d5-496e-8d22-f774c8fcfbb2"},"vehicle_type_id":"4","last_reported":1733292881,"current_range_meters":38800,"station_id":"ce4bhb92rcd13ifvqen0","pricing_plan_id":"cebpf4jnsgd1na2vs0mg"},{"bike_id":"a4b9e425-64b8-4ce2-a5ab-5fcc5d1230a4","system_id":"levelo_inurba_marseille","lat":43.32108,"lon":5.36773,"is_reserved":false,"is_disabled":false,"rental_uris":{"android":"levelo://app?vid=a4b9e425-64b8-4ce2-a5ab-5fcc5d1230a4","ios":"levelo://app?vid=a4b9e425-64b8-4ce2-a5ab-5fcc5d1230a4"},"vehicle_type_id":"4","last_reported":1733292881,"current_range_meters":7200,"station_id":"ce4bhrh2rcd13ifvqhug","pricing_plan_id":"cebpf4jnsgd1na2vs0mg"},{"bike_id":"f5e852ee-04e6-4f32-8187-df732ecacdef","system_id":"levelo_inurba_marseille","lat":43.2957,"lon":5.37523,"is_reserved":false,"is_disabled":false,"rental_uris":{"android":"levelo://app?vid=f5e852ee-04e6-4f32-8187-df732ecacdef","ios":"levelo://app?vid=f5e852ee-04e6-4f32-8187-df732ecacdef"},"vehicle_type_id":"4","last_reported":1733292881,"current_range_meters":38800,"station_id":"ce4bgh92rcd13ifvqb50","pricing_plan_id":"cebpf4jnsgd1na2vs0mg"},{"bike_id":"3abebed7-0396-4197-8537-118f812c5e7e","system_id":"levelo_inurba_marseille","lat":43.28405,"lon":5.37515,"is_reserved":false,"is_disabled":true,"rental_uris":{"android":"levelo://app?vid=3abebed7-0396-4197-8537-118f812c5e7e","ios":"levelo://app?vid=3abebed7-0396-4197-8537-118f812c5e7e"},"vehicle_type_id":"4","last_reported":1733292881,"current_range_meters":2000,"station_id":"ce4bh412rcd13ifvqds0","pricing_plan_id":"cebpf4jnsgd1na2vs0mg"},{"bike_id":"35c7d7dd-1835-4a10-a2d9-66363c082bd3","system_id":"levelo_inurba_marseille","lat":43.24071,"lon":5.37764,"is_reserved":false,"is_disabled":false,"rental_uris":{"android":"levelo://app?vid=35c7d7dd-1835-4a10-a2d9-66363c082bd3","ios":"levelo://app?vid=35c7d7dd-1835-4a10-a2d9-66363c082bd3"},"vehicle_type_id":"4","last_reported":1733292881,"current_range_meters":36000,"station_id":"ce4bhnp2rcd13ifvqgvg","pricing_plan_id":"cebpf4jnsgd1na2vs0mg"},{"bike_id":"b2bc1728-46a3-400e-bd39-12c204f62d20","system_id":"levelo_inurba_marseille","lat":43.26943,"lon":5.40245,"is_reserved":false,"is_disabled":false,"rental_uris":{"android":"levelo://app?vid=b2bc1728-46a3-400e-bd39-12c204f62d20","ios":"levelo://app?vid=b2bc1728-46a3-400e-bd39-12c204f62d20"},"vehicle_type_id":"4","last_reported":1733292881,"current_range_meters":24000,"station_id":"cjm6bp8fraef2m0cb0m0","pricing_plan_id":"cebpf4jnsgd1na2vs0mg"},{"bike_id":"124e256b-6755-4adb-956b-3d5fbbcf671d","system_id":"levelo_inurba_marseille","lat":43.29781,"lon":5.39347,"is_reserved":false,"is_disabled":true,"rental_uris":{"android":"levelo://app?vid=124e256b-6755-4adb-956b-3d5fbbcf671d","ios":"levelo://app?vid=124e256b-6755-4adb-956b-3d5fbbcf671d"},"vehicle_type_id":"4","last_reported":1733292881,"current_range_meters":0,"station_id":"chh1huq6cuj3fo74tm60","pricing_plan_id":"cebpf4jnsgd1na2vs0mg"},{"bike_id":"0fb51153-e333-4cf0-9413-a3ae27df6b16","system_id":"levelo_inurba_marseille","lat":43.27992,"lon":5.40027,"is_reserved":false,"is_disabled":false,"rental_uris":{"android":"levelo://app?vid=0fb51153-e333-4cf0-9413-a3ae27df6b16","ios":"levelo://app?vid=0fb51153-e333-4cf0-9413-a3ae27df6b16"},"vehicle_type_id":"4","last_reported":1733292881,"current_range_meters":20800,"station_id":"ce4bho92rcd13ifvqh4g","pricing_plan_id":"cebpf4jnsgd1na2vs0mg"},{"bike_id":"6fa73ae3-91e9-49d0-af4b-d9ca8591ccaf","system_id":"levelo_inurba_marseille","lat":43.330118,"lon":5.390359,"is_reserved":false,"is_disabled":false,"rental_uris":{"android":"levelo://app?vid=6fa73ae3-91e9-49d0-af4b-d9ca8591ccaf","ios":"levelo://app?vid=6fa73ae3-91e9-49d0-af4b-d9ca8591ccaf"},"vehicle_type_id":"4","last_reported":1733292881,"current_range_meters":18000,"station_id":"ce4bhr92rcd13ifvqhrg","pricing_plan_id":"cebpf4jnsgd1na2vs0mg"},{"bike_id":"7d275e9a-1bd4-4401-948a-bf8c39ad132d","system_id":"levelo_inurba_marseille","lat":43.31312,"lon":5.39723,"is_reserved":false,"is_disabled":false,"rental_uris":{"android":"levelo://app?vid=7d275e9a-1bd4-4401-948a-bf8c39ad132d","ios":"levelo://app?vid=7d275e9a-1bd4-4401-948a-bf8c39ad132d"},"vehicle_type_id":"4","last_reported":1733292881,"current_range_meters":9600,"station_id":"ce4bgvp2rcd13ifvqcu0","pricing_plan_id":"cebpf4jnsgd1na2vs0mg"},{"bike_id":"a23c15a7-6637-4860-b7d6-2ef4027a5354","system_id":"levelo_inurba_marseille","lat":43.28089,"lon":5.37874,"is_reserved":false,"is_disabled":false,"rental_uris":{"android":"levelo://app?vid=a23c15a7-6637-4860-b7d6-2ef4027a5354","ios":"levelo://app?vid=a23c15a7-6637-4860-b7d6-2ef4027a5354"},"vehicle_type_id":"4","last_reported":1733292881,"current_range_meters":8000,"station_id":"ce4bha12rcd13ifvqee0","pricing_plan_id":"cebpf4jnsgd1na2vs0mg"},{"bike_id":"8830c08f-c268-499b-b7a5-e0504b24aab5","system_id":"levelo_inurba_marseille","lat":43.32411,"lon":5.36605,"is_reserved":false,"is_disabled":false,"rental_uris":{"android":"levelo://app?vid=8830c08f-c268-499b-b7a5-e0504b24aab5","ios":"levelo://app?vid=8830c08f-c268-499b-b7a5-e0504b24aab5"},"vehicle_type_id":"4","last_reported":1733292881,"current_range_meters":26000,"station_id":"ce4bhs12rcd13ifvqhvg","pricing_plan_id":"cebpf4jnsgd1na2vs0mg"},{"bike_id":"fb437c36-efa9-49b9-954e-d28bfc24991a","system_id":"levelo_inurba_marseille","lat":43.27995,"lon":5.40017,"is_reserved":false,"is_disabled":false,"rental_uris":{"android":"levelo://app?vid=fb437c36-efa9-49b9-954e-d28bfc24991a","ios":"levelo://app?vid=fb437c36-efa9-49b9-954e-d28bfc24991a"},"vehicle_type_id":"4","last_reported":1733292881,"current_range_meters":38000,"station_id":"ce4bho92rcd13ifvqh4g","pricing_plan_id":"cebpf4jnsgd1na2vs0mg"},{"bike_id":"126121cf-b1e6-448c-a19c-bccf6e93feb4","system_id":"levelo_inurba_marseille","lat":43.28571,"lon":5.39504,"is_reserved":false,"is_disabled":false,"rental_uris":{"android":"levelo://app?vid=126121cf-b1e6-448c-a19c-bccf6e93feb4","ios":"levelo://app?vid=126121cf-b1e6-448c-a19c-bccf6e93feb4"},"vehicle_type_id":"4","last_reported":1733292881,"current_range_meters":38000,"station_id":"ce4bh292rcd13ifvqdg0","pricing_plan_id":"cebpf4jnsgd1na2vs0mg"},{"bike_id":"b567921b-0157-4ff8-94b9-e4342091c416","system_id":"levelo_inurba_marseille","lat":43.31494,"lon":5.37311,"is_reserved":false,"is_disabled":false,"rental_uris":{"android":"levelo://app?vid=b567921b-0157-4ff8-94b9-e4342091c416","ios":"levelo://app?vid=b567921b-0157-4ff8-94b9-e4342091c416"},"vehicle_type_id":"4","last_reported":1733292881,"current_range_meters":38000,"station_id":"ce4bgt12rcd13ifvqcd0","pricing_plan_id":"cebpf4jnsgd1na2vs0mg"},{"bike_id":"36daa4a8-f8f6-4ca2-9292-42cf2cc257a6","system_id":"levelo_inurba_marseille","lat":43.29804,"lon":5.38118,"is_reserved":false,"is_disabled":false,"rental_uris":{"android":"levelo://app?vid=36daa4a8-f8f6-4ca2-9292-42cf2cc257a6","ios":"levelo://app?vid=36daa4a8-f8f6-4ca2-9292-42cf2cc257a6"},"vehicle_type_id":"4","last_reported":1733292881,"current_range_meters":17200,"station_id":"ce4bgip2rcd13ifvqbb0","pricing_plan_id":"cebpf4jnsgd1na2vs0mg"},{"bike_id":"629133d4-cff8-483d-809a-322864079e4d","system_id":"levelo_inurba_marseille","lat":43.3172,"lon":5.42409,"is_reserved":false,"is_disabled":false,"rental_uris":{"android":"levelo://app?vid=629133d4-cff8-483d-809a-322864079e4d","ios":"levelo://app?vid=629133d4-cff8-483d-809a-322864079e4d"},"vehicle_type_id":"4","last_reported":1733292881,"current_range_meters":39200,"station_id":"ce4bhp92rcd13ifvqhbg","pricing_plan_id":"cebpf4jnsgd1na2vs0mg"},{"bike_id":"76efbdd8-6e5e-44f8-992f-f35880179fcb","system_id":"levelo_inurba_marseille","lat":43.28659,"lon":5.36346,"is_reserved":false,"is_disabled":false,"rental_uris":{"android":"levelo://app?vid=76efbdd8-6e5e-44f8-992f-f35880179fcb","ios":"levelo://app?vid=76efbdd8-6e5e-44f8-992f-f35880179fcb"},"vehicle_type_id":"4","last_reported":1733292881,"current_range_meters":30000,"station_id":"ce4bhah2rcd13ifvqej0","pricing_plan_id":"cebpf4jnsgd1na2vs0mg"},{"bike_id":"2ca8c14c-5d60-4d95-bfca-cf291ee136ef","system_id":"levelo_inurba_marseille","lat":43.30133,"lon":5.38783,"is_reserved":false,"is_disabled":false,"rental_uris":{"android":"levelo://app?vid=2ca8c14c-5d60-4d95-bfca-cf291ee136ef","ios":"levelo://app?vid=2ca8c14c-5d60-4d95-bfca-cf291ee136ef"},"vehicle_type_id":"4","last_reported":1733292881,"current_range_meters":27600,"station_id":"ce4bghh2rcd13ifvqb60","pricing_plan_id":"cebpf4jnsgd1na2vs0mg"},{"bike_id":"57e0f190-7f16-4931-934d-384b1700b76f","system_id":"levelo_inurba_marseille","lat":43.33099,"lon":5.36231,"is_reserved":false,"is_disabled":true,"rental_uris":{"android":"levelo://app?vid=57e0f190-7f16-4931-934d-384b1700b76f","ios":"levelo://app?vid=57e0f190-7f16-4931-934d-384b1700b76f"},"vehicle_type_id":"4","last_reported":1733292881,"current_range_meters":0,"station_id":"","pricing_plan_id":"cebpf4jnsgd1na2vs0mg"},{"bike_id":"5e160b8e-5c83-4423-b051-bd2cf577003d","system_id":"levelo_inurba_marseille","lat":43.23201,"lon":5.35549,"is_reserved":false,"is_disabled":false,"rental_uris":{"android":"levelo://app?vid=5e160b8e-5c83-4423-b051-bd2cf577003d","ios":"levelo://app?vid=5e160b8e-5c83-4423-b051-bd2cf577003d"},"vehicle_type_id":"4","last_reported":1733292881,"current_range_meters":38800,"station_id":"ce4bhu92rcd13ifvqi70","pricing_plan_id":"cebpf4jnsgd1na2vs0mg"},{"bike_id":"fe22b0f1-4409-493b-92e7-efe79b2e56cf","system_id":"levelo_inurba_marseille","lat":43.27071,"lon":5.42279,"is_reserved":false,"is_disabled":false,"rental_uris":{"android":"levelo://app?vid=fe22b0f1-4409-493b-92e7-efe79b2e56cf","ios":"levelo://app?vid=fe22b0f1-4409-493b-92e7-efe79b2e56cf"},"vehicle_type_id":"4","last_reported":1733292881,"current_range_meters":38800,"station_id":"ce4bhk92rcd13ifvqgb0","pricing_plan_id":"cebpf4jnsgd1na2vs0mg"},{"bike_id":"89790328-14f8-4b3a-86d2-09c07c01657a","system_id":"levelo_inurba_marseille","lat":43.33016,"lon":5.39041,"is_reserved":false,"is_disabled":false,"rental_uris":{"android":"levelo://app?vid=89790328-14f8-4b3a-86d2-09c07c01657a","ios":"levelo://app?vid=89790328-14f8-4b3a-86d2-09c07c01657a"},"vehicle_type_id":"4","last_reported":1733292881,"current_range_meters":27600,"station_id":"ce4bhr92rcd13ifvqhrg","pricing_plan_id":"cebpf4jnsgd1na2vs0mg"},{"bike_id":"6df50695-40ee-4823-a04b-f0e54ed27c86","system_id":"levelo_inurba_marseille","lat":43.31755,"lon":5.39015,"is_reserved":false,"is_disabled":false,"rental_uris":{"android":"levelo://app?vid=6df50695-40ee-4823-a04b-f0e54ed27c86","ios":"levelo://app?vid=6df50695-40ee-4823-a04b-f0e54ed27c86"},"vehicle_type_id":"4","last_reported":1733292881,"current_range_meters":33200,"station_id":"ce4bhqp2rcd13ifvqhng","pricing_plan_id":"cebpf4jnsgd1na2vs0mg"},{"bike_id":"468da660-5299-4b84-99f7-2c673dbc8804","system_id":"levelo_inurba_marseille","lat":43.30155,"lon":5.38095,"is_reserved":false,"is_disabled":false,"rental_uris":{"android":"levelo://app?vid=468da660-5299-4b84-99f7-2c673dbc8804","ios":"levelo://app?vid=468da660-5299-4b84-99f7-2c673dbc8804"},"vehicle_type_id":"4","last_reported":1733292881,"current_range_meters":19200,"station_id":"ce4bgjp2rcd13ifvqbh0","pricing_plan_id":"cebpf4jnsgd1na2vs0mg"},{"bike_id":"1df12b90-cbae-49c5-a6f4-8e27e7cb26fb","system_id":"levelo_inurba_marseille","lat":43.3067,"lon":5.40089,"is_reserved":false,"is_disabled":false,"rental_uris":{"android":"levelo://app?vid=1df12b90-cbae-49c5-a6f4-8e27e7cb26fb","ios":"levelo://app?vid=1df12b90-cbae-49c5-a6f4-8e27e7cb26fb"},"vehicle_type_id":"4","last_reported":1733292881,"current_range_meters":19200,"station_id":"ce4bh112rcd13ifvqda0","pricing_plan_id":"cebpf4jnsgd1na2vs0mg"},{"bike_id":"337a9be2-ef08-4eff-89f9-35aab4dd8102","system_id":"levelo_inurba_marseille","lat":43.313227,"lon":5.3969,"is_reserved":false,"is_disabled":false,"rental_uris":{"android":"levelo://app?vid=337a9be2-ef08-4eff-89f9-35aab4dd8102","ios":"levelo://app?vid=337a9be2-ef08-4eff-89f9-35aab4dd8102"},"vehicle_type_id":"4","last_reported":1733292881,"current_range_meters":26800,"station_id":"ce4bgvp2rcd13ifvqcu0","pricing_plan_id":"cebpf4jnsgd1na2vs0mg"},{"bike_id":"9af40e75-5686-47aa-944a-0d5860696201","system_id":"levelo_inurba_marseille","lat":43.28261,"lon":5.35068,"is_reserved":false,"is_disabled":false,"rental_uris":{"android":"levelo://app?vid=9af40e75-5686-47aa-944a-0d5860696201","ios":"levelo://app?vid=9af40e75-5686-47aa-944a-0d5860696201"},"vehicle_type_id":"4","last_reported":1733292881,"current_range_meters":33600,"station_id":"ce4bhbp2rcd13ifvqerg","pricing_plan_id":"cebpf4jnsgd1na2vs0mg"},{"bike_id":"ce6a429f-4825-4c63-b948-e0dfdaaab389","system_id":"levelo_inurba_marseille","lat":43.29215,"lon":5.36047,"is_reserved":false,"is_disabled":true,"rental_uris":{"android":"levelo://app?vid=ce6a429f-4825-4c63-b948-e0dfdaaab389","ios":"levelo://app?vid=ce6a429f-4825-4c63-b948-e0dfdaaab389"},"vehicle_type_id":"4","last_reported":1733292881,"current_range_meters":36800,"station_id":"ce4bhbh2rcd13ifvqeqg","pricing_plan_id":"cebpf4jnsgd1na2vs0mg"},{"bike_id":"e8de770c-1572-4026-9141-46a7a2399c11","system_id":"levelo_inurba_marseille","lat":43.31486,"lon":5.37309,"is_reserved":false,"is_disabled":false,"rental_uris":{"android":"levelo://app?vid=e8de770c-1572-4026-9141-46a7a2399c11","ios":"levelo://app?vid=e8de770c-1572-4026-9141-46a7a2399c11"},"vehicle_type_id":"4","last_reported":1733292881,"current_range_meters":36400,"station_id":"ce4bgt12rcd13ifvqcd0","pricing_plan_id":"cebpf4jnsgd1na2vs0mg"},{"bike_id":"8d4a4adb-15e8-4c6e-af88-14589ad7920d","system_id":"levelo_inurba_marseille","lat":43.286159,"lon":5.351058,"is_reserved":false,"is_disabled":false,"rental_uris":{"android":"levelo://app?vid=8d4a4adb-15e8-4c6e-af88-14589ad7920d","ios":"levelo://app?vid=8d4a4adb-15e8-4c6e-af88-14589ad7920d"},"vehicle_type_id":"4","last_reported":1733292881,"current_range_meters":38800,"station_id":"ce4bhch2rcd13ifvqeug","pricing_plan_id":"cebpf4jnsgd1na2vs0mg"},{"bike_id":"e63aa962-a242-44bd-8328-31cf6c0d9d3d","system_id":"levelo_inurba_marseille","lat":43.29299,"lon":5.37186,"is_reserved":false,"is_disabled":true,"rental_uris":{"android":"levelo://app?vid=e63aa962-a242-44bd-8328-31cf6c0d9d3d","ios":"levelo://app?vid=e63aa962-a242-44bd-8328-31cf6c0d9d3d"},"vehicle_type_id":"4","last_reported":1733292881,"current_range_meters":0,"station_id":"ce4bgh92rcd13ifvqb40","pricing_plan_id":"cebpf4jnsgd1na2vs0mg"},{"bike_id":"f8bcc820-9a1c-492a-9f26-6a6b26934b17","system_id":"levelo_inurba_marseille","lat":43.28614,"lon":5.37062,"is_reserved":false,"is_disabled":true,"rental_uris":{"android":"levelo://app?vid=f8bcc820-9a1c-492a-9f26-6a6b26934b17","ios":"levelo://app?vid=f8bcc820-9a1c-492a-9f26-6a6b26934b17"},"vehicle_type_id":"4","last_reported":1733292881,"current_range_meters":37600,"station_id":"ce4bht12rcd13ifvqi60","pricing_plan_id":"cebpf4jnsgd1na2vs0mg"},