{"last_updated":1748459296,"ttl":60,"version":"2.2","data":{"bikes":[{"bike_id":"55d42eeb-6b71-4987-a0f2-3d758b10d43e","system_id":"levelo_inurba_marseille","lat":43.33771,"lon":5.37424,"is_reserved":false,"is_disabled":true,"rental_uris":{"android":"levelo://app?vid=55d42eeb-6b71-4987-a0f2-3d758b10d43e","ios":"levelo://app?vid=55d42eeb-6b71-4987-a0f2-3d758b10d43e"},"vehicle_type_id":"4","last_reported":1748459296,"current_range_meters":0,"station_id":"","pricing_plan_id":"cebpf4jnsgd1na2vs0mg"},{"bike_id":"b7fe4621-b706-42f0-9085-4811142f84e8","system_id":"levelo_inurba_marseille","lat":43.337499,"lon":5.374469,"is_reserved":false,"is_disabled":true,"rental_uris":{"android":"levelo://app?vid=b7fe4621-b706-42f0-9085-4811142f84e8","ios":"levelo://app?vid=b7fe4621-b706-42f0-9085-4811142f84e8"},"vehicle_type_id":"4","last_reported":1748459296,"current_range_meters":0,"station_id":"","pricing_plan_id":"cebpf4jnsgd1na2vs0mg"},{"bike_id":"ad402f0f-3192-410c-afac-8cf064a40c6d","system_id":"levelo_inurba_marseille","lat":43.337444,"lon":5.374475,"is_reserved":false,"is_disabled":true,"rental_uris":{"android":"levelo://app?vid=ad402f0f-3192-410c-afac-8cf064a40c6d","ios":"levelo://app?vid=ad402f0f-3192-410c-afac-8cf064a40c6d"},"vehicle_type_id":"4","last_reported":1748459296,"current_range_meters":0,"station_id":"","pricing_plan_id":"cebpf4jnsgd1na2vs0mg"},{"bike_id":"7255f8df-425a-4703-bec2-4d9fab29da8c","system_id":"levelo_inurba_marseille","lat":43.27447,"lon":5.36086,"is_reserved":false,"is_disabled":true,"rental_uris":{"android":"levelo://app?vid=7255f8df-425a-4703-bec2-4d9fab29da8c","ios":"levelo://app?vid=7255f8df-425a-4703-bec2-4d9fab29da8c"},"vehicle_type_id":"4","last_reported":1748459296,"current_range_meters":0,"station_id":"","pricing_plan_id":"cebpf4jnsgd1na2vs0mg"},{"bike_id":"282eb04e-4b2c-4240-aceb-ad36b389035c","system_id":"levelo_inurba_marseille","lat":43.284821,"lon":5.384095,"is_reserved":false,"is_disabled":true,"rental_uris":{"android":"levelo://app?vid=282eb04e-4b2c-4240-aceb-ad36b389035c","ios":"levelo://app?vid=282eb04e-4b2c-4240-aceb-ad36b389035c"},"vehicle_type_id":"4","last_reported":1748459296,"current_range_meters":0,"station_id":"","pricing_plan_id":"cebpf4jnsgd1na2vs0mg"},{"bike_id":"1eeae6c8-fe35-45be-92b0-4ed18ee0463c","system_id":"levelo_inurba_marseille","lat":43.27312,"lon":5.39167,"is_reserved":false,"is_disabled":true,"rental_uris":{"android":"levelo://app?vid=1eeae6c8-fe35-45be-92b0-4ed18ee0463c","ios":"levelo://app?vid=1eeae6c8-fe35-45be-92b0-4ed18ee0463c"},"vehicle_type_id":"4","last_reported":1748459296,"current_range_meters":0,"station_id":"","pricing_plan_id":"cebpf4jnsgd1na2vs0mg"},{"bike_id":"c77593ea-a39a-4174-a0ea-4870d4f1fa7e","system_id":"levelo_inurba_marseille","lat":43.3303,"lon":5.38968,"is_reserved":false,"is_disabled":true,"rental_uris":{"android":"levelo://app?vid=c77593ea-a39a-4174-a0ea-4870d4f1fa7e","ios":"levelo://app?vid=c77593ea-a39a-4174-a0ea-4870d4f1fa7e"},"vehicle_type_id":"4","last_reported":1748459296,"current_range_meters":0,"station_id":"","pricing_plan_id":"cebpf4jnsgd1na2vs0mg"},{"bike_id":"80dc1064-d63f-4a22-ad21-d8abd70986c0","system_id":"levelo_inurba_marseille","lat":43.33762,"lon":5.37474,"is_reserved":false,"is_disabled":true,"rental_uris":{"android":"levelo://app?vid=80dc1064-d63f-4a22-ad21-d8abd70986c0","ios":"levelo://app?vid=80dc1064-d63f-4a22-ad21-d8abd70986c0"},"vehicle_type_id":"4","last_reported":1748459296,"current_range_meters":0,"station_id":"","pricing_plan_id":"cebpf4jnsgd1na2vs0mg"},{"bike_id":"060547db-3f71-4084-ba2a-2f2c4c9fe4dd","system_id":"levelo_inurba_marseille","lat":43.29989,"lon":5.40056,"is_reserved":false,"is_disabled":true,"rental_uris":{"android":"levelo://app?vid=060547db-3f71-4084-ba2a-2f2c4c9fe4dd","ios":"levelo://app?vid=060547db-3f71-4084-ba2a-2f2c4c9fe4dd"},"vehicle_type_id":"4","last_reported":1748459296,"current_range_meters":0,"station_id":"","pricing_plan_id":"cebpf4jnsgd1na2vs0mg"},{"bike_id":"1dbb8f11-1353-41ce-8587-bd80e2c15d60","system_id":"levelo_inurba_marseille","lat":43.24347,"lon":5.38521,"is_reserved":false,"is_disabled":true,"rental_uris":{"android":"levelo://app?vid=1dbb8f11-1353-41ce-8587-bd80e2c15d60","ios":"levelo://app?vid=1dbb8f11-1353-41ce-8587-bd80e2c15d60"},"vehicle_type_id":"4","last_reported":1748459296,"current_range_meters":0,"station_id":"","pricing_plan_id":"cebpf4jnsgd1na2vs0mg"},{"bike_id":"e082a7e3-9601-48a8-99c3-8e25f2736751","system_id":"levelo_inurba_marseille","lat":43.24975,"lon":5.38188,"is_reserved":false,"is_disabled":true,"rental_uris":{"android":"levelo://app?vid=e082a7e3-9601-48a8-99c3-8e25f2736751","ios":"levelo://app?vid=e082a7e3-9601-48a8-99c3-8e25f2736751"},"vehicle_type_id":"4","last_reported":1748459296,"current_range_meters":0,"station_id":"","pricing_plan_id":"cebpf4jnsgd1na2vs0mg"},{"bike_id":"7f9bdcaf-4217-4932-be91-52b5120d5ca8","system_id":"levelo_inurba_marseille","lat":43.26332,"lon":5.4013,"is_reserved":false,"is_disabled":true,"rental_uris":{"android":"levelo://app?vid=7f9bdcaf-4217-4932-be91-52b5120d5ca8","ios":"levelo://app?vid=7f9bdcaf-4217-4932-be91-52b5120d5ca8"},"vehicle_type_id":"4","last_reported":1748459296,"current_range_meters":0,"station_id":"","pricing_plan_id":"cebpf4jnsgd1na2vs0mg"},{"bike_id":"2fd7e160-685c-4858-b57b-dcaef27a8e94","system_id":"levelo_inurba_marseille","lat":43.230331,"lon":5.401847,"is_reserved":false,"is_disabled":true,"rental_uris":{"android":"levelo://app?vid=2fd7e160-685c-4858-b57b-dcaef27a8e94","ios":"levelo://app?vid=2fd7e160-685c-4858-b57b-dcaef27a8e94"},"vehicle_type_id":"4","last_reported":1748459296,"current_range_meters":0,"station_id":"","pricing_plan_id":"cebpf4jnsgd1na2vs0mg"},{"bike_id":"7626e5e9-c8ff-4838-8acb-a441aa89d52c","system_id":"levelo_inurba_marseille","lat":43.33166,"lon":5.38624,"is_reserved":false,"is_disabled":true,"rental_uris":{"android":"levelo://app?vid=7626e5e9-c8ff-4838-8acb-a441aa89d52c","ios":"levelo://app?vid=7626e5e9-c8ff-4838-8acb-a441aa89d52c"},"vehicle_type_id":"4","last_reported":1748459296,"current_range_meters":0,"station_id":"","pricing_plan_id":"cebpf4jnsgd1na2vs0mg"},{"bike_id":"2a1b04a7-6f99-420c-89f9-f9f40f419817","system_id":"levelo_inurba_marseille","lat":43.29303,"lon":5.37449,"is_reserved":false,"is_disabled":true,"rental_uris":{"android":"levelo://app?vid=2a1b04a7-6f99-420c-89f9-f9f40f419817","ios":"levelo://app?vid=2a1b04a7-6f99-420c-89f9-f9f40f419817"},"vehicle_type_id":"4","last_reported":1748459296,"current_range_meters":0,"station_id":"ce4bgi12rcd13ifvqb70","pricing_plan_id":"cebpf4jnsgd1na2vs0mg"},{"bike_id":"13c131ea-b5d1-449a-b589-2e4788c86edb","system_id":"levelo_inurba_marseille","lat":43.29613,"lon":5.37729,"is_reserved":false,"is_disabled":true,"rental_uris":{"android":"levelo://app?vid=13c131ea-b5d1-449a-b589-2e4788c86edb","ios":"levelo://app?vid=13c131ea-b5d1-449a-b589-2e4788c86edb"},"vehicle_type_id":"4","last_reported":1748459296,"current_range_meters":0,"station_id":"ce4bgi92rcd13ifvqb90","pricing_plan_id":"cebpf4jnsgd1na2vs0mg"},{"bike_id":"4e758721-0334-4f7e-955a-711d7eb7e6ce","system_id":"levelo_inurba_marseille","lat":43.299082,"lon":5.374136,"is_reserved":false,"is_disabled":true,"rental_uris":{"android":"levelo://app?vid=4e758721-0334-4f7e-955a-711d7eb7e6ce","ios":"levelo://app?vid=4e758721-0334-4f7e-955a-711d7eb7e6ce"},"vehicle_type_id":"4","last_reported":1748459296,"current_range_meters":0,"station_id":"ce4bgjh2rcd13ifvqbg0","pricing_plan_id":"cebpf4jnsgd1na2vs0mg"},{"bike_id":"7fafc391-4715-42a7-abd4-331b5aeb4c8e","system_id":"levelo_inurba_marseille","lat":43.29932,"lon":5.36542,"is_reserved":false,"is_disabled":true,"rental_uris":{"android":"levelo://app?vid=7fafc391-4715-42a7-abd4-331b5aeb4c8e","ios":"levelo://app?vid=7fafc391-4715-42a7-abd4-331b5aeb4c8e"},"vehicle_type_id":"4","last_reported":1748459296,"current_range_meters":0,"station_id":"ce4bgm92rcd13ifvqbr0","pricing_plan_id":"cebpf4jnsgd1na2vs0mg"},{"bike_id":"0f958852-2178-4a87-a7cb-5a8519d15ed1","system_id":"levelo_inurba_marseille","lat":43.297,"lon":5.36611,"is_reserved":false,"is_disabled":true,"rental_uris":{"android":"levelo://app?vid=0f958852-2178-4a87-a7cb-5a8519d15ed1","ios":"levelo://app?vid=0f958852-2178-4a87-a7cb-5a8519d15ed1"},"vehicle_type_id":"4","last_reported":1748459296,"current_range_meters":0,"station_id":"ce4bgn12rcd13ifvqbt0","pricing_plan_id":"cebpf4jnsgd1na2vs0mg"},{"bike_id":"edf3792f-21d0-4d10-9c03-4fc0b8ad8d43","system_id":"levelo_inurba_marseille","lat":43.31084,"lon":5.38354,"is_reserved":false,"is_disabled":true,"rental_uris":{"android":"levelo://app?vid=edf3792f-21d0-4d10-9c03-4fc0b8ad8d43","ios":"levelo://app?vid=edf3792f-21d0-4d10-9c03-4fc0b8ad8d43"},"vehicle_type_id":"4","last_reported":1748459296,"current_range_meters":0,"station_id":"ce4bgv92rcd13ifvqcr0","pricing_plan_id":"cebpf4jnsgd1na2vs0mg"},{"bike_id":"7a9116eb-9f83-4273-b380-c269ab60d952","system_id":"levelo_inurba_marseille","lat":43.30942,"lon":5.40139,"is_reserved":false,"is_disabled":true,"rental_uris":{"android":"levelo://app?vid=7a9116eb-9f83-4273-b380-c269ab60d952","ios":"levelo://app?vid=7a9116eb-9f83-4273-b380-c269ab60d952"},"vehicle_type_id":"4","last_reported":1748459296,"current_range_meters":0,"station_id":"ce4bgvp2rcd13ifvqct0","pricing_plan_id":"cebpf4jnsgd1na2vs0mg"},{"bike_id":"da80e2d0-1105-45ef-a414-26be64f73b0b","system_id":"levelo_inurba_marseille","lat":43.3132,"lon":5.397,"is_reserved":false,"is_disabled":true,"rental_uris":{"android":"levelo://app?vid=da80e2d0-1105-45ef-a414-26be64f73b0b","ios":"levelo://app?vid=da80e2d0-1105-45ef-a414-26be64f73b0b"},"vehicle_type_id":"4","last_reported":1748459296,"current_range_meters":0,"station_id":"ce4bgvp2rcd13ifvqcu0","pricing_plan_id":"cebpf4jnsgd1na2vs0mg"},{"bike_id":"a8e5ad9a-e8b4-4c5e-b251-d04e6f61fad6","system_id":"levelo_inurba_marseille","lat":43.29034,"lon":5.39977,"is_reserved":false,"is_disabled":true,"rental_uris":{"android":"levelo://app?vid=a8e5ad9a-e8b4-4c5e-b251-d04e6f61fad6","ios":"levelo://app?vid=a8e5ad9a-e8b4-4c5e-b251-d04e6f61fad6"},"vehicle_type_id":"4","last_reported":1748459296,"current_range_meters":0,"station_id":"ce4bh392rcd13ifvqdm0","pricing_plan_id":"cebpf4jnsgd1na2vs0mg"},{"bike_id":"f493bd03-6b9f-4c18-8273-8c433340261e","system_id":"levelo_inurba_marseille","lat":43.29054,"lon":5.39955,"is_reserved":false,"is_disabled":true,"rental_uris":{"android":"levelo://app?vid=f493bd03-6b9f-4c18-8273-8c433340261e","ios":"levelo://app?vid=f493bd03-6b9f-4c18-8273-8c433340261e"},"vehicle_type_id":"4","last_reported":1748459296,"current_range_meters":0,"station_id":"ce4bh392rcd13ifvqdm0","pricing_plan_id":"cebpf4jnsgd1na2vs0mg"},{"bike_id":"d20ad0ed-5f5d-466e-947d-c66bb5845602","system_id":"levelo_inurba_marseille","lat":43.28945,"lon":5.3964,"is_reserved":false,"is_disabled":true,"rental_uris":{"android":"levelo://app?vid=d20ad0ed-5f5d-466e-947d-c66bb5845602","ios":"levelo://app?vid=d20ad0ed-5f5d-466e-947d-c66bb5845602"},"vehicle_type_id":"4","last_reported":1748459296,"current_range_meters":0,"station_id":"ce4bh3h2rcd13ifvqdn0","pricing_plan_id":"cebpf4jnsgd1na2vs0mg"},{"bike_id":"a6bb2ec1-2cc2-4693-90bb-48bd181465f4","system_id":"levelo_inurba_marseille","lat":43.292572,"lon":5.384449,"is_reserved":false,"is_disabled":false,"rental_uris":{"android":"levelo://app?vid=a6bb2ec1-2cc2-4693-90bb-48bd181465f4","ios":"levelo://app?vid=a6bb2ec1-2cc2-4693-90bb-48bd181465f4"},"vehicle_type_id":"4","last_reported":1748459296,"current_range_meters":0,"station_id":"ce4bh692rcd13ifvqea0","pricing_plan_id":"cebpf4jnsgd1na2vs0mg"},{"bike_id":"c8975a9d-7932-48f4-be3f-e5449991d7ea","system_id":"levelo_inurba_marseille","lat":43.29263,"lon":5.38443,"is_reserved":false,"is_disabled":true,"rental_uris":{"android":"levelo://app?vid=c8975a9d-7932-48f4-be3f-e5449991d7ea","ios":"levelo://app?vid=c8975a9d-7932-48f4-be3f-e5449991d7ea"},"vehicle_type_id":"4","last_reported":1748459296,"current_range_meters":0,"station_id":"ce4bh692rcd13ifvqea0","pricing_plan_id":"cebpf4jnsgd1na2vs0mg"},{"bike_id":"32e51573-39c0-4f4b-8743-8870d13b0583","system_id":"levelo_inurba_marseille","lat":43.28406,"lon":5.34987,"is_reserved":false,"is_disabled":false,"rental_uris":{"android":"levelo://app?vid=32e51573-39c0-4f4b-8743-8870d13b0583","ios":"levelo://app?vid=32e51573-39c0-4f4b-8743-8870d13b0583"},"vehicle_type_id":"4","last_reported":1748459296,"current_range_meters":0,"station_id":"ce4bhbh2rcd13ifvqepg","pricing_plan_id":"cebpf4jnsgd1na2vs0mg"},{"bike_id":"ba3e4a6c-4de7-4630-ba2b-3d53b08e7880","system_id":"levelo_inurba_marseille","lat":43.2826,"lon":5.35078,"is_reserved":false,"is_disabled":true,"rental_uris":{"android":"levelo://app?vid=ba3e4a6c-4de7-4630-ba2b-3d53b08e7880","ios":"levelo://app?vid=ba3e4a6c-4de7-4630-ba2b-3d53b08e7880"},"vehicle_type_id":"4","last_reported":1748459296,"current_range_meters":0,"station_id":"ce4bhbp2rcd13ifvqerg","pricing_plan_id":"cebpf4jnsgd1na2vs0mg"},{"bike_id":"b6431b1a-4c63-4b37-8dc1-81437d16dfef","system_id":"levelo_inurba_marseille","lat":43.26552,"lon":5.37281,"is_reserved":false,"is_disabled":true,"rental_uris":{"android":"levelo://app?vid=b6431b1a-4c63-4b37-8dc1-81437d16dfef","ios":"levelo://app?vid=b6431b1a-4c63-4b37-8dc1-81437d16dfef"},"vehicle_type_id":"4","last_reported":1748459296,"current_range_meters":0,"station_id":"ce4bhg12rcd13ifvqf70","pricing_plan_id":"cebpf4jnsgd1na2vs0mg"},{"bike_id":"32e0675e-3d71-4a44-b4e4-02ada48fa65d","system_id":"levelo_inurba_marseille","lat":43.26554,"lon":5.37284,"is_reserved":false,"is_disabled":true,"rental_uris":{"android":"levelo://app?vid=32e0675e-3d71-4a44-b4e4-02ada48fa65d","ios":"levelo://app?vid=32e0675e-3d71-4a44-b4e4-02ada48fa65d"},"vehicle_type_id":"4","last_reported":1748459296,"current_range_meters":0,"station_id":"ce4bhg12rcd13ifvqf70","pricing_plan_id":"cebpf4jnsgd1na2vs0mg"},{"bike_id":"0133150f-6cde-44de-ad34-f895a0417cec","system_id":"levelo_inurba_marseille","lat":43.26028,"lon":5.37557,"is_reserved":false,"is_disabled":true,"rental_uris":{"android":"levelo://app?vid=0133150f-6cde-44de-ad34-f895a0417cec","ios":"levelo://app?vid=0133150f-6cde-44de-ad34-f895a0417cec"},"vehicle_type_id":"4","last_reported":1748459296,"current_range_meters":0,"station_id":"ce4bhgh2rcd13ifvqfa0","pricing_plan_id":"cebpf4jnsgd1na2vs0mg"},{"bike_id":"0abf8802-0f29-40ec-b715-96dfc7273878","system_id":"levelo_inurba_marseille","lat":43.26201,"lon":5.37447,"is_reserved":false,"is_disabled":true,"rental_uris":{"android":"levelo://app?vid=0abf8802-0f29-40ec-b715-96dfc7273878","ios":"levelo://app?vid=0abf8802-0f29-40ec-b715-96dfc7273878"},"vehicle_type_id":"4","last_reported":1748459296,"current_range_meters":0,"station_id":"ce4bhgp2rcd13ifvqfc0","pricing_plan_id":"cebpf4jnsgd1na2vs0mg"},{"bike_id":"fde1104e-399c-4840-b4c0-672036e9e60f","system_id":"levelo_inurba_marseille","lat":43.2621,"lon":5.37451,"is_reserved":false,"is_disabled":true,"rental_uris":{"android":"levelo://app?vid=fde1104e-399c-4840-b4c0-672036e9e60f","ios":"levelo://app?vid=fde1104e-399c-4840-b4c0-672036e9e60f"},"vehicle_type_id":"4","last_reported":1748459296,"current_range_meters":0,"station_id":"ce4bhgp2rcd13ifvqfc0","pricing_plan_id":"cebpf4jnsgd1na2vs0mg"},{"bike_id":"9aac495f-7ec5-47c8-b2a5-3514abe355f8","system_id":"levelo_inurba_marseille","lat":43.2651,"lon":5.3954,"is_reserved":false,"is_disabled":true,"rental_uris":{"android":"levelo://app?vid=9aac495f-7ec5-47c8-b2a5-3514abe355f8","ios":"levelo://app?vid=9aac495f-7ec5-47c8-b2a5-3514abe355f8"},"vehicle_type_id":"4","last_reported":1748459296,"current_range_meters":0,"station_id":"ce4bhi12rcd13ifvqfq0","pricing_plan_id":"cebpf4jnsgd1na2vs0mg"},{"bike_id":"729d8b54-b78a-42f3-bf62-1f46a976fb38","system_id":"levelo_inurba_marseille","lat":43.25586,"lon":5.38231,"is_reserved":false,"is_disabled":true,"rental_uris":{"android":"levelo://app?vid=729d8b54-b78a-42f3-bf62-1f46a976fb38","ios":"levelo://app?vid=729d8b54-b78a-42f3-bf62-1f46a976fb38"},"vehicle_type_id":"4","last_reported":1748459296,"current_range_meters":0,"station_id":"ce4bhih2rcd13ifvqfs0","pricing_plan_id":"cebpf4jnsgd1na2vs0mg"},{"bike_id":"2b3ecf13-5244-4904-be95-0506af0239de","system_id":"levelo_inurba_marseille","lat":43.27173,"lon":5.40996,"is_reserved":false,"is_disabled":true,"rental_uris":{"android":"levelo://app?vid=2b3ecf13-5244-4904-be95-0506af0239de","ios":"levelo://app?vid=2b3ecf13-5244-4904-be95-0506af0239de"},"vehicle_type_id":"4","last_reported":1748459296,"current_range_meters":0,"station_id":"ce4bhl12rcd13ifvqgf0","pricing_plan_id":"cebpf4jnsgd1na2vs0mg"},{"bike_id":"e73357c5-67ed-4075-84be-4246c5fbde4a","system_id":"levelo_inurba_marseille","lat":43.23148,"lon":5.43721,"is_reserved":false,"is_disabled":true,"rental_uris":{"android":"levelo://app?vid=e73357c5-67ed-4075-84be-4246c5fbde4a","ios":"levelo://app?vid=e73357c5-67ed-4075-84be-4246c5fbde4a"},"vehicle_type_id":"4","last_reported":1748459296,"current_range_meters":0,"station_id":"ce4bhmp2rcd13ifvqgog","pricing_plan_id":"cebpf4jnsgd1na2vs0mg"},{"bike_id":"ac941aa7-ae64-4e06-9ba9-ae9b002a5c62","system_id":"levelo_inurba_marseille","lat":43.30378,"lon":5.42492,"is_reserved":false,"is_disabled":true,"rental_uris":{"android":"levelo://app?vid=ac941aa7-ae64-4e06-9ba9-ae9b002a5c62","ios":"levelo://app?vid=ac941aa7-ae64-4e06-9ba9-ae9b002a5c62"},"vehicle_type_id":"4","last_reported":1748459296,"current_range_meters":0,"station_id":"ce4bhoh2rcd13ifvqh6g","pricing_plan_id":"cebpf4jnsgd1na2vs0mg"},{"bike_id":"0d16491c-abaf-49ec-8676-8595a7c9f9c4","system_id":"levelo_inurba_marseille","lat":43.30417,"lon":5.41286,"is_reserved":false,"is_disabled":true,"rental_uris":{"android":"levelo://app?vid=0d16491c-abaf-49ec-8676-8595a7c9f9c4","ios":"levelo://app?vid=0d16491c-abaf-49ec-8676-8595a7c9f9c4"},"vehicle_type_id":"4","last_reported":1748459296,"current_range_meters":0,"station_id":"ce4bhop2rcd13ifvqh8g","pricing_plan_id":"cebpf4jnsgd1na2vs0mg"},{"bike_id":"4b7a0785-0284-4b30-ade4-ed61e7d8b66d","system_id":"levelo_inurba_marseille","lat":43.32366,"lon":5.38887,"is_reserved":false,"is_disabled":true,"rental_uris":{"android":"levelo://app?vid=4b7a0785-0284-4b30-ade4-ed61e7d8b66d","ios":"levelo://app?vid=4b7a0785-0284-4b30-ade4-ed61e7d8b66d"},"vehicle_type_id":"4","last_reported":1748459296,"current_range_meters":0,"station_id":"ce4bhqp2rcd13ifvqhog","pricing_plan_id":"cebpf4jnsgd1na2vs0mg"},{"bike_id":"60a2dca9-9786-4a1c-bfc8-9d705fa0f350","system_id":"levelo_inurba_marseille","lat":43.32104,"lon":5.36768,"is_reserved":false,"is_disabled":true,"rental_uris":{"android":"levelo://app?vid=60a2dca9-9786-4a1c-bfc8-9d705fa0f350","ios":"levelo://app?vid=60a2dca9-9786-4a1c-bfc8-9d705fa0f350"},"vehicle_type_id":"4","last_reported":1748459296,"current_range_meters":0,"station_id":"ce4bhrh2rcd13ifvqhug","pricing_plan_id":"cebpf4jnsgd1na2vs0mg"},{"bike_id":"3dcb201d-de81-4b3c-b43b-0dd0cfb79b79","system_id":"levelo_inurba_marseille","lat":43.31541,"lon":5.38028,"is_reserved":false,"is_disabled":true,"rental_uris":{"android":"levelo://app?vid=3dcb201d-de81-4b3c-b43b-0dd0cfb79b79","ios":"levelo://app?vid=3dcb201d-de81-4b3c-b43b-0dd0cfb79b79"},"vehicle_type_id":"4","last_reported":1748459296,"current_range_meters":0,"station_id":"ce4bhsp2rcd13ifvqi50","pricing_plan_id":"cebpf4jnsgd1na2vs0mg"},{"bike_id":"1806edcd-d251-4d9a-a5f8-2af78342cfc0","system_id":"levelo_inurba_marseille","lat":43.30246,"lon":5.40073,"is_reserved":false,"is_disabled":true,"rental_uris":{"android":"levelo://app?vid=1806edcd-d251-4d9a-a5f8-2af78342cfc0","ios":"levelo://app?vid=1806edcd-d251-4d9a-a5f8-2af78342cfc0"},"vehicle_type_id":"4","last_reported":1748459296,"current_range_meters":400,"station_id":"ce4bgvh2rcd13ifvqcs0","pricing_plan_id":"cebpf4jnsgd1na2vs0mg"},{"bike_id":"227dff68-c054-4bad-afa5-acdbcf2fe0f6","system_id":"levelo_inurba_marseille","lat":43.28662,"lon":5.3635,"is_reserved":false,"is_disabled":true,"rental_uris":{"android":"levelo://app?vid=227dff68-c054-4bad-afa5-acdbcf2fe0f6","ios":"levelo://app?vid=227dff68-c054-4bad-afa5-acdbcf2fe0f6"},"vehicle_type_id":"4","last_reported":1748459296,"current_range_meters":400,"station_id":"ce4bhah2rcd13ifvqej0","pricing_plan_id":"cebpf4jnsgd1na2vs0mg"},{"bike_id":"9c135680-911b-4840-8586-0118a43842f4","system_id":"levelo_inurba_marseille","lat":43.30983,"lon":5.39045,"is_reserved":false,"is_disabled":true,"rental_uris":{"android":"levelo://app?vid=9c135680-911b-4840-8586-0118a43842f4","ios":"levelo://app?vid=9c135680-911b-4840-8586-0118a43842f4"},"vehicle_type_id":"4","last_reported":1748459296,"current_range_meters":800,"station_id":"ce4bgup2rcd13ifvqco0","pricing_plan_id":"cebpf4jnsgd1na2vs0mg"},{"bike_id":"9d8b1229-e624-4c6e-a145-512d0dc7057d","system_id":"levelo_inurba_marseille","lat":43.3212,"lon":5.36781,"is_reserved":false,"is_disabled":true,"rental_uris":{"android":"levelo://app?vid=9d8b1229-e624-4c6e-a145-512d0dc7057d","ios":"levelo://app?vid=9d8b1229-e624-4c6e-a145-512d0dc7057d"},"vehicle_type_id":"4","last_reported":1748459296,"current_range_meters":800,"station_id":"ce4bhrh2rcd13ifvqhug","pricing_plan_id":"cebpf4jnsgd1na2vs0mg"},{"bike_id":"ea88d561-891e-41dd-934b-6a7187a28631","system_id":"levelo_inurba_marseille","lat":43.30135,"lon":5.38795,"is_reserved":false,"is_disabled":true,"rental_uris":{"android":"levelo://app?vid=ea88d561-891e-41dd-934b-6a7187a28631","ios":"levelo://app?vid=ea88d561-891e-41dd-934b-6a7187a28631"},"vehicle_type_id":"4","last_reported":1748459296,"current_range_meters":1200,"station_id":"ce4bghh2rcd13ifvqb60","pricing_plan_id":"cebpf4jnsgd1na2vs0mg"},{"bike_id":"0dbe6450-ae52-4045-8ccf-1b12d3353215","system_id":"levelo_inurba_marseille","lat":43.29226,"lon":5.36068,"is_reserved":false,"is_disabled":true,"rental_uris":{"android":"levelo://app?vid=0dbe6450-ae52-4045-8ccf-1b12d3353215","ios":"levelo://app?vid=0dbe6450-ae52-4045-8ccf-1b12d3353215"},"vehicle_type_id":"4","last_reported":1748459296,"current_range_meters":1200,"station_id":"ce4bhbh2rcd13ifvqeqg","pricing_plan_id":"cebpf4jnsgd1na2vs0mg"},{"bike_id":"1be25f1a-182d-41f2-8d4f-cf02fa7aa93b","system_id":"levelo_inurba_marseille","lat":43.28155,"lon":5.4264,"is_reserved":false,"is_disabled":true,"rental_uris":{"android":"levelo://app?vid=1be25f1a-182d-41f2-8d4f-cf02fa7aa93b","ios":"levelo://app?vid=1be25f1a-182d-41f2-8d4f-cf02fa7aa93b"},"vehicle_type_id":"4","last_reported":1748459296,"current_range_meters":1200,"station_id":"ce4bhnh2rcd13ifvqgug","pricing_plan_id":"cebpf4jnsgd1na2vs0mg"},{"bike_id":"5aefb386-e416-4906-998c-ff23207edc6c","system_id":"levelo_inurba_marseille","lat":43.21748,"lon":5.34594,"is_reserved":false,"is_disabled":true,"rental_uris":{"android":"levelo://app?vid=5aefb386-e416-4906-998c-ff23207edc6c","ios":"levelo://app?vid=5aefb386-e416-4906-998c-ff23207edc6c"},"vehicle_type_id":"4","last_reported":1748459296,"current_range_meters":1200,"station_id":"st_cvj6r9ubvosntc0bgbag","pricing_plan_id":"cebpf4jnsgd1na2vs0mg"},{"bike_id":"1ccc36e7-df39-4008-aebd-755e6322a5de","system_id":"levelo_inurba_marseille","lat":43.29354,"lon":5.37843,"is_reserved":false,"is_disabled":true,"rental_uris":{"android":"levelo://app?vid=1ccc36e7-df39-4008-aebd-755e6322a5de","ios":"levelo://app?vid=1ccc36e7-df39-4008-aebd-755e6322a5de"},"vehicle_type_id":"4","last_reported":1748459296,"current_range_meters":1600,"station_id":"ce4bgjh2rcd13ifvqbf0","pricing_plan_id":"cebpf4jnsgd1na2vs0mg"},{"bike_id":"200711a5-5dce-4aa0-afbe-13e3a7e13fca","system_id":"levelo_inurba_marseille","lat":43.29368,"lon":5.37832,"is_reserved":false,"is_disabled":true,"rental_uris":{"android":"levelo://app?vid=200711a5-5dce-4aa0-afbe-13e3a7e13fca","ios":"levelo://app?vid=200711a5-5dce-4aa0-afbe-13e3a7e13fca"},"vehicle_type_id":"4","last_reported":1748459296,"current_range_meters":1600,"station_id":"ce4bgjh2rcd13ifvqbf0","pricing_plan_id":"cebpf4jnsgd1na2vs0mg"},{"bike_id":"2d5d4f2c-fc56-44be-b09b-6bf98957e7e3","system_id":"levelo_inurba_marseille","lat":43.294171,"lon":5.386144,"is_reserved":false,"is_disabled":true,"rental_uris":{"android":"levelo://app?vid=2d5d4f2c-fc56-44be-b09b-6bf98957e7e3","ios":"levelo://app?vid=2d5d4f2c-fc56-44be-b09b-6bf98957e7e3"},"vehicle_type_id":"4","last_reported":1748459296,"current_range_meters":1600,"station_id":"ce4bh2h2rcd13ifvqdh0","pricing_plan_id":"cebpf4jnsgd1na2vs0mg"},{"bike_id":"14f62cad-bbe7-49bd-8ac5-dbbf3ba73e03","system_id":"levelo_inurba_marseille","lat":43.29281,"lon":5.40124,"is_reserved":false,"is_disabled":true,"rental_uris":{"android":"levelo://app?vid=14f62cad-bbe7-49bd-8ac5-dbbf3ba73e03","ios":"levelo://app?vid=14f62cad-bbe7-49bd-8ac5-dbbf3ba73e03"},"vehicle_type_id":"4","last_reported":1748459296,"current_range_meters":1600,"station_id":"ce4bh312rcd13ifvqdk0","pricing_plan_id":"cebpf4jnsgd1na2vs0mg"},{"bike_id":"47a83c21-68e1-4415-b5f4-5eb241b63f7e","system_id":"levelo_inurba_marseille","lat":43.28115,"lon":5.37855,"is_reserved":false,"is_disabled":true,"rental_uris":{"android":"levelo://app?vid=47a83c21-68e1-4415-b5f4-5eb241b63f7e","ios":"levelo://app?vid=47a83c21-68e1-4415-b5f4-5eb241b63f7e"},"vehicle_type_id":"4","last_reported":1748459296,"current_range_meters":1600,"station_id":"ce4bha12rcd13ifvqee0","pricing_plan_id":"cebpf4jnsgd1na2vs0mg"},{"bike_id":"fa4e6d19-56eb-42fa-a339-5e291de90a2b","system_id":"levelo_inurba_marseille","lat":43.275549,"lon":5.384323,"is_reserved":false,"is_disabled":true,"rental_uris":{"android":"levelo://app?vid=fa4e6d19-56eb-42fa-a339-5e291de90a2b","ios":"levelo://app?vid=fa4e6d19-56eb-42fa-a339-5e291de90a2b"},"vehicle_type_id":"4","last_reported":1748459296,"current_range_meters":1600,"station_id":"ce4bhh92rcd13ifvqfi0","pricing_plan_id":"cebpf4jnsgd1na2vs0mg"},{"bike_id":"ef53bb08-3221-45a4-aeab-27ec5b84f36b","system_id":"levelo_inurba_marseille","lat":43.30725,"lon":5.42455,"is_reserved":false,"is_disabled":true,"rental_uris":{"android":"levelo://app?vid=ef53bb08-3221-45a4-aeab-27ec5b84f36b","ios":"levelo://app?vid=ef53bb08-3221-45a4-aeab-27ec5b84f36b"},"vehicle_type_id":"4","last_reported":1748459296,"current_range_meters":1600,"station_id":"st_cvj6ca6bvosntc0bfgr0","pricing_plan_id":"cebpf4jnsgd1na2vs0mg"},{"bike_id":"19ddf677-f666-41e6-a571-99f0082e0a79","system_id":"levelo_inurba_marseille","lat":43.23121,"lon":5.36618,"is_reserved":false,"is_disabled":true,"rental_uris":{"android":"levelo://app?vid=19ddf677-f666-41e6-a571-99f0082e0a79","ios":"levelo://app?vid=19ddf677-f666-41e6-a571-99f0082e0a79"},"vehicle_type_id":"4","last_reported":1748459296,"current_range_meters":2000,"station_id":"","pricing_plan_id":"cebpf4jnsgd1na2vs0mg"},{"bike_id":"713e9dd7-e9db-49c4-9e03-ebd5963b0d42","system_id":"levelo_inurba_marseille","lat":43.29738,"lon":5.37677,"is_reserved":false,"is_disabled":true,"rental_uris":{"android":"levelo://app?vid=713e9dd7-e9db-49c4-9e03-ebd5963b0d42","ios":"levelo://app?vid=713e9dd7-e9db-49c4-9e03-ebd5963b0d42"},"vehicle_type_id":"4","last_reported":1748459296,"current_range_meters":2000,"station_id":"ce4bgkh2rcd13ifvqbl0","pricing_plan_id":"cebpf4jnsgd1na2vs0mg"},{"bike_id":"22a86348-3abb-4405-b2ed-74157286ee33","system_id":"levelo_inurba_marseille","lat":43.31694,"lon":5.4046,"is_reserved":false,"is_disabled":true,"rental_uris":{"android":"levelo://app?vid=22a86348-3abb-4405-b2ed-74157286ee33","ios":"levelo://app?vid=22a86348-3abb-4405-b2ed-74157286ee33"},"vehicle_type_id":"4","last_reported":1748459296,"current_range_meters":2000,"station_id":"ce4bh012rcd13ifvqd00","pricing_plan_id":"cebpf4jnsgd1na2vs0mg"},{"bike_id":"1fb1f3c6-3576-4b81-9202-36138daf9b27","system_id":"levelo_inurba_marseille","lat":43.33051,"lon":5.38227,"is_reserved":false,"is_disabled":false,"rental_uris":{"android":"levelo://app?vid=1fb1f3c6-3576-4b81-9202-36138daf9b27","ios":"levelo://app?vid=1fb1f3c6-3576-4b81-9202-36138daf9b27"},"vehicle_type_id":"4","last_reported":1748459296,"current_range_meters":2800,"station_id":"","pricing_plan_id":"cebpf4jnsgd1na2vs0mg"},{"bike_id":"f4c45e95-54cf-46e5-83c5-d89c27c9a69c","system_id":"levelo_inurba_marseille","lat":43.27288,"lon":5.41586,"is_reserved":false,"is_disabled":false,"rental_uris":{"android":"levelo://app?vid=f4c45e95-54cf-46e5-83c5-d89c27c9a69c","ios":"levelo://app?vid=f4c45e95-54cf-46e5-83c5-d89c27c9a69c"},"vehicle_type_id":"4","last_reported":1748459296,"current_range_meters":2800,"station_id":"","pricing_plan_id":"cebpf4jnsgd1na2vs0mg"},{"bike_id":"0959cad8-99ce-469b-beae-09b5d0c3b800","system_id":"levelo_inurba_marseille","lat":43.30792,"lon":5.38166,"is_reserved":false,"is_disabled":false,"rental_uris":{"android":"levelo://app?vid=0959cad8-99ce-469b-beae-09b5d0c3b800","ios":"levelo://app?vid=0959cad8-99ce-469b-beae-09b5d0c3b800"},"vehicle_type_id":"4","last_reported":1748459296,"current_range_meters":2800,"station_id":"ce4bgt12rcd13ifvqce0","pricing_plan_id":"cebpf4jnsgd1na2vs0mg"},{"bike_id":"95905bdb-1cb7-4f3d-94bb-8ac9edfe1a32","system_id":"levelo_inurba_marseille","lat":43.26232,"lon":5.40453,"is_reserved":false,"is_disabled":false,"rental_uris":{"android":"levelo://app?vid=95905bdb-1cb7-4f3d-94bb-8ac9edfe1a32","ios":"levelo://app?vid=95905bdb-1cb7-4f3d-94bb-8ac9edfe1a32"},"vehicle_type_id":"4","last_reported":1748459296,"current_range_meters":2800,"station_id":"ce4bhmh2rcd13ifvqgmg","pricing_plan_id":"cebpf4jnsgd1na2vs0mg"},{"bike_id":"e7c8a9b9-0f7e-4f93-8f26-86f0646a609e","system_id":"levelo_inurba_marseille","lat":43.33104,"lon":5.38507,"is_reserved":false,"is_disabled":false,"rental_uris":{"android":"levelo://app?vid=e7c8a9b9-0f7e-4f93-8f26-86f0646a609e","ios":"levelo://app?vid=e7c8a9b9-0f7e-4f93-8f26-86f0646a609e"},"vehicle_type_id":"4","last_reported":1748459296,"current_range_meters":3200,"station_id":"","pricing_plan_id":"cebpf4jnsgd1na2vs0mg"},{"bike_id":"980f0bc5-d91f-4ed7-a3e9-47b5f962d3a1","system_id":"levelo_inurba_marseille","lat":43.30949,"lon":5.39027,"is_reserved":false,"is_disabled":false,"rental_uris":{"android":"levelo://app?vid=980f0bc5-d91f-4ed7-a3e9-47b5f962d3a1","ios":"levelo://app?vid=980f0bc5-d91f-4ed7-a3e9-47b5f962d3a1"},"vehicle_type_id":"4","last_reported":1748459296,"current_range_meters":3200,"station_id":"ce4bgup2rcd13ifvqco0","pricing_plan_id":"cebpf4jnsgd1na2vs0mg"},{"bike_id":"a6fede81-4f9d-4edb-82a9-b2d9f709f4e2","system_id":"levelo_inurba_marseille","lat":43.27917,"lon":5.39576,"is_reserved":false,"is_disabled":false,"rental_uris":{"android":"levelo://app?vid=a6fede81-4f9d-4edb-82a9-b2d9f709f4e2","ios":"levelo://app?vid=a6fede81-4f9d-4edb-82a9-b2d9f709f4e2"},"vehicle_type_id":"4","last_reported":1748459296,"current_range_meters":3200,"station_id":"ce4bhf92rcd13ifvqf40","pricing_plan_id":"cebpf4jnsgd1na2vs0mg"},{"bike_id":"bc6d18c0-6d06-43c8-a20a-660c15cdf082","system_id":"levelo_inurba_marseille","lat":43.26027,"lon":5.37552,"is_reserved":false,"is_disabled":false,"rental_uris":{"android":"levelo://app?vid=bc6d18c0-6d06-43c8-a20a-660c15cdf082","ios":"levelo://app?vid=bc6d18c0-6d06-43c8-a20a-660c15cdf082"},"vehicle_type_id":"4","last_reported":1748459296,"current_range_meters":3200,"station_id":"ce4bhgh2rcd13ifvqfa0","pricing_plan_id":"cebpf4jnsgd1na2vs0mg"},{"bike_id":"43f5d57a-fa5a-4c93-8aad-4ae1ccb59ffe","system_id":"levelo_inurba_marseille","lat":43.29265,"lon":5.37636,"is_reserved":false,"is_disabled":false,"rental_uris":{"android":"levelo://app?vid=43f5d57a-fa5a-4c93-8aad-4ae1ccb59ffe","ios":"levelo://app?vid=43f5d57a-fa5a-4c93-8aad-4ae1ccb59ffe"},"vehicle_type_id":"4","last_reported":1748459296,"current_range_meters":3600,"station_id":"ce4bgi12rcd13ifvqb80","pricing_plan_id":"cebpf4jnsgd1na2vs0mg"},{"bike_id":"55688588-34a5-4b2a-a303-6bccbde7477b","system_id":"levelo_inurba_marseille","lat":43.30951,"lon":5.39027,"is_reserved":false,"is_disabled":false,"rental_uris":{"android":"levelo://app?vid=55688588-34a5-4b2a-a303-6bccbde7477b","ios":"levelo://app?vid=55688588-34a5-4b2a-a303-6bccbde7477b"},"vehicle_type_id":"4","last_reported":1748459296,"current_range_meters":3600,"station_id":"ce4bgup2rcd13ifvqco0","pricing_plan_id":"cebpf4jnsgd1na2vs0mg"},{"bike_id":"3af6916b-00f1-4589-b779-7cb635bd883a","system_id":"levelo_inurba_marseille","lat":43.31169,"lon":5.387235,"is_reserved":false,"is_disabled":false,"rental_uris":{"android":"levelo://app?vid=3af6916b-00f1-4589-b779-7cb635bd883a","ios":"levelo://app?vid=3af6916b-00f1-4589-b779-7cb635bd883a"},"vehicle_type_id":"4","last_reported":1748459296,"current_range_meters":3600,"station_id":"ce4bgv12rcd13ifvqcp0","pricing_plan_id":"cebpf4jnsgd1na2vs0mg"},{"bike_id":"9197d42f-6845-425b-9fed-80b3ed52af34","system_id":"levelo_inurba_marseille","lat":43.2942,"lon":5.38622,"is_reserved":false,"is_disabled":false,"rental_uris":{"android":"levelo://app?vid=9197d42f-6845-425b-9fed-80b3ed52af34","ios":"levelo://app?vid=9197d42f-6845-425b-9fed-80b3ed52af34"},"vehicle_type_id":"4","last_reported":1748459296,"current_range_meters":3600,"station_id":"ce4bh2h2rcd13ifvqdh0","pricing_plan_id":"cebpf4jnsgd1na2vs0mg"},{"bike_id":"9162e118-41f6-4406-a13f-a4aaac3e1b26","system_id":"levelo_inurba_marseille","lat":43.28453,"lon":5.35899,"is_reserved":false,"is_disabled":false,"rental_uris":{"android":"levelo://app?vid=9162e118-41f6-4406-a13f-a4aaac3e1b26","ios":"levelo://app?vid=9162e118-41f6-4406-a13f-a4aaac3e1b26"},"vehicle_type_id":"4","last_reported":1748459296,"current_range_meters":3600,"station_id":"ce4bhah2rcd13ifvqei0","pricing_plan_id":"cebpf4jnsgd1na2vs0mg"},{"bike_id":"b44ab8e6-3387-4fa7-991a-610c13b8323f","system_id":"levelo_inurba_marseille","lat":43.24646,"lon":5.38889,"is_reserved":false,"is_disabled":false,"rental_uris":{"android":"levelo://app?vid=b44ab8e6-3387-4fa7-991a-610c13b8323f","ios":"levelo://app?vid=b44ab8e6-3387-4fa7-991a-610c13b8323f"},"vehicle_type_id":"4","last_reported":1748459296,"current_range_meters":3600,"station_id":"ce4bhg12rcd13ifvqf60","pricing_plan_id":"cebpf4jnsgd1na2vs0mg"},{"bike_id":"d1233735-806a-42a0-b406-ef76d8353599","system_id":"levelo_inurba_marseille","lat":43.31481,"lon":5.3731,"is_reserved":false,"is_disabled":false,"rental_uris":{"android":"levelo://app?vid=d1233735-806a-42a0-b406-ef76d8353599","ios":"levelo://app?vid=d1233735-806a-42a0-b406-ef76d8353599"},"vehicle_type_id":"4","last_reported":1748459296,"current_range_meters":4000,"station_id":"ce4bgt12rcd13ifvqcd0","pricing_plan_id":"cebpf4jnsgd1na2vs0mg"},{"bike_id":"d0e9202f-0ca1-4859-bb3b-0daa610a5a91","system_id":"levelo_inurba_marseille","lat":43.29264,"lon":5.38455,"is_reserved":false,"is_disabled":false,"rental_uris":{"android":"levelo://app?vid=d0e9202f-0ca1-4859-bb3b-0daa610a5a91","ios":"levelo://app?vid=d0e9202f-0ca1-4859-bb3b-0daa610a5a91"},"vehicle_type_id":"4","last_reported":1748459296,"current_range_meters":4000,"station_id":"ce4bh692rcd13ifvqea0","pricing_plan_id":"cebpf4jnsgd1na2vs0mg"},{"bike_id":"af98f460-a58c-4c8e-ad7e-6fe03e0ea2c5","system_id":"levelo_inurba_marseille","lat":43.265,"lon":5.3956,"is_reserved":false,"is_disabled":false,"rental_uris":{"android":"levelo://app?vid=af98f460-a58c-4c8e-ad7e-6fe03e0ea2c5","ios":"levelo://app?vid=af98f460-a58c-4c8e-ad7e-6fe03e0ea2c5"},"vehicle_type_id":"4","last_reported":1748459296,"current_range_meters":4000,"station_id":"ce4bhi12rcd13ifvqfq0","pricing_plan_id":"cebpf4jnsgd1na2vs0mg"},{"bike_id":"12af53ed-42eb-45ad-850f-a103732161d9","system_id":"levelo_inurba_marseille","lat":43.29529,"lon":5.38533,"is_reserved":false,"is_disabled":false,"rental_uris":{"android":"levelo://app?vid=12af53ed-42eb-45ad-850f-a103732161d9","ios":"levelo://app?vid=12af53ed-42eb-45ad-850f-a103732161d9"},"vehicle_type_id":"4","last_reported":1748459296,"current_range_meters":4400,"station_id":"ce4bgih2rcd13ifvqba0","pricing_plan_id":"cebpf4jnsgd1na2vs0mg"},{"bike_id":"b0c065cc-95e2-481e-8705-26ac03d1dfbd","system_id":"levelo_inurba_marseille","lat":43.29417,"lon":5.38627,"is_reserved":false,"is_disabled":false,"rental_uris":{"android":"levelo://app?vid=b0c065cc-95e2-481e-8705-26ac03d1dfbd","ios":"levelo://app?vid=b0c065cc-95e2-481e-8705-26ac03d1dfbd"},"vehicle_type_id":"4","last_reported":1748459296,"current_range_meters":4400,"station_id":"ce4bh2h2rcd13ifvqdh0","pricing_plan_id":"cebpf4jnsgd1na2vs0mg"},{"bike_id":"a38e5d8b-7b4d-4861-9b8b-97543a6aa3d6","system_id":"levelo_inurba_marseille","lat":43.291603,"lon":5.371703,"is_reserved":false,"is_disabled":false,"rental_uris":{"android":"levelo://app?vid=a38e5d8b-7b4d-4861-9b8b-97543a6aa3d6","ios":"levelo://app?vid=a38e5d8b-7b4d-4861-9b8b-97543a6aa3d6"},"vehicle_type_id":"4","last_reported":1748459296,"current_range_meters":4400,"station_id":"ce4bha92rcd13ifvqeh0","pricing_plan_id":"cebpf4jnsgd1na2vs0mg"},{"bike_id":"cb91e7c8-032e-485c-a2a6-e9949f4f2a5c","system_id":"levelo_inurba_marseille","lat":43.2841,"lon":5.35002,"is_reserved":false,"is_disabled":false,"rental_uris":{"android":"levelo://app?vid=cb91e7c8-032e-485c-a2a6-e9949f4f2a5c","ios":"levelo://app?vid=cb91e7c8-032e-485c-a2a6-e9949f4f2a5c"},"vehicle_type_id":"4","last_reported":1748459296,"current_range_meters":4400,"station_id":"ce4bhbh2rcd13ifvqepg","pricing_plan_id":"cebpf4jnsgd1na2vs0mg"},{"bike_id":"191ae870-6942-49d4-b470-d1fc532343a4","system_id":"levelo_inurba_marseille","lat":43.31841,"lon":5.40698,"is_reserved":false,"is_disabled":false,"rental_uris":{"android":"levelo://app?vid=191ae870-6942-49d4-b470-d1fc532343a4","ios":"levelo://app?vid=191ae870-6942-49d4-b470-d1fc532343a4"},"vehicle_type_id":"4","last_reported":1748459296,"current_range_meters":4800,"station_id":"","pricing_plan_id":"cebpf4jnsgd1na2vs0mg"},{"bike_id":"68084d87-c322-46eb-8b68-53c2c3b4c676","system_id":"levelo_inurba_marseille","lat":43.24809,"lon":5.37459,"is_reserved":false,"is_disabled":false,"rental_uris":{"android":"levelo://app?vid=68084d87-c322-46eb-8b68-53c2c3b4c676","ios":"levelo://app?vid=68084d87-c322-46eb-8b68-53c2c3b4c676"},"vehicle_type_id":"4","last_reported":1748459296,"current_range_meters":4800,"station_id":"ce4bhgh2rcd13ifvqfb0","pricing_plan_id":"cebpf4jnsgd1na2vs0mg"},{"bike_id":"1cd5b61b-b21d-42b0-b132-f589dafe9a06","system_id":"levelo_inurba_marseille","lat":43.28932,"lon":5.39629,"is_reserved":false,"is_disabled":false,"rental_uris":{"android":"levelo://app?vid=1cd5b61b-b21d-42b0-b132-f589dafe9a06","ios":"levelo://app?vid=1cd5b61b-b21d-42b0-b132-f589dafe9a06"},"vehicle_type_id":"4","last_reported":1748459296,"current_range_meters":5600,"station_id":"ce4bh3h2rcd13ifvqdn0","pricing_plan_id":"cebpf4jnsgd1na2vs0mg"},{"bike_id":"c57c718f-151a-4fc6-8de3-82ed5d4966e3","system_id":"levelo_inurba_marseille","lat":43.28101,"lon":5.3786,"is_reserved":false,"is_disabled":false,"rental_uris":{"android":"levelo://app?vid=c57c718f-151a-4fc6-8de3-82ed5d4966e3","ios":"levelo://app?vid=c57c718f-151a-4fc6-8de3-82ed5d4966e3"},"vehicle_type_id":"4","last_reported":1748459296,"current_range_meters":5600,"station_id":"ce4bha12rcd13ifvqee0","pricing_plan_id":"cebpf4jnsgd1na2vs0mg"},{"bike_id":"c9e753d0-4b81-4646-86eb-325b6b6becc6","system_id":"levelo_inurba_marseille","lat":43.24807,"lon":5.37457,"is_reserved":false,"is_disabled":false,"rental_uris":{"android":"levelo://app?vid=c9e753d0-4b81-4646-86eb-325b6b6becc6","ios":"levelo://app?vid=c9e753d0-4b81-4646-86eb-325b6b6becc6"},"vehicle_type_id":"4","last_reported":1748459296,"current_range_meters":5600,"station_id":"ce4bhgh2rcd13ifvqfb0","pricing_plan_id":"cebpf4jnsgd1na2vs0mg"},{"bike_id":"166df32a-6a97-47f1-867e-cc5fba911ac2","system_id":"levelo_inurba_marseille","lat":43.25498,"lon":5.37648,"is_reserved":false,"is_disabled":false,"rental_uris":{"android":"levelo://app?vid=166df32a-6a97-47f1-867e-cc5fba911ac2","ios":"levelo://app?vid=166df32a-6a97-47f1-867e-cc5fba911ac2"},"vehicle_type_id":"4","last_reported":1748459296,"current_range_meters":5600,"station_id":"ce4bhh12rcd13ifvqff0","pricing_plan_id":"cebpf4jnsgd1na2vs0mg"},{"bike_id":"871ccdc9-6f42-4392-bea8-f5a2cfb9329b","system_id":"levelo_inurba_marseille","lat":43.27174,"lon":5.40997,"is_reserved":false,"is_disabled":false,"rental_uris":{"android":"levelo://app?vid=871ccdc9-6f42-4392-bea8-f5a2cfb9329b","ios":"levelo://app?vid=871ccdc9-6f42-4392-bea8-f5a2cfb9329b"},"vehicle_type_id":"4","last_reported":1748459296,"current_range_meters":5600,"station_id":"ce4bhl12rcd13ifvqgf0","pricing_plan_id":"cebpf4jnsgd1na2vs0mg"},{"bike_id":"de8da6c5-9995-4d43-ad5d-8b6ed4237a47","system_id":"levelo_inurba_marseille","lat":43.28608,"lon":5.37067,"is_reserved":false,"is_disabled":false,"rental_uris":{"android":"levelo://app?vid=de8da6c5-9995-4d43-ad5d-8b6ed4237a47","ios":"levelo://app?vid=de8da6c5-9995-4d43-ad5d-8b6ed4237a47"},"vehicle_type_id":"4","last_reported":1748459296,"current_range_meters":5600,"station_id":"ce4bht12rcd13ifvqi60","pricing_plan_id":"cebpf4jnsgd1na2vs0mg"},{"bike_id":"65f3072a-9087-4e1c-81b7-e1cd6bbf981a","system_id":"levelo_inurba_marseille","lat":43.304636,"lon":5.373092,"is_reserved":false,"is_disabled":false,"rental_uris":{"android":"levelo://app?vid=65f3072a-9087-4e1c-81b7-e1cd6bbf981a","ios":"levelo://app?vid=65f3072a-9087-4e1c-81b7-e1cd6bbf981a"},"vehicle_type_id":"4","last_reported":1748459296,"current_range_meters":6000,"station_id":"ce4bgjh2rcd13ifvqbg0","pricing_plan_id":"cebpf4jnsgd1na2vs0mg"},{"bike_id":"0215bf3e-7a53-4bf5-8266-43341444823b","system_id":"levelo_inurba_marseille","lat":43.2968,"lon":5.37295,"is_reserved":false,"is_disabled":false,"rental_uris":{"android":"levelo://app?vid=0215bf3e-7a53-4bf5-8266-43341444823b","ios":"levelo://app?vid=0215bf3e-7a53-4bf5-8266-43341444823b"},"vehicle_type_id":"4","last_reported":1748459296,"current_range_meters":6000,"station_id":"ce4bgk12rcd13ifvqbj0","pricing_plan_id":"cebpf4jnsgd1na2vs0mg"},{"bike_id":"069aeca7-e762-47a4-80d3-333caa6ab55c","system_id":"levelo_inurba_marseille","lat":43.2942,"lon":5.38624,"is_reserved":false,"is_disabled":false,"rental_uris":{"android":"levelo://app?vid=069aeca7-e762-47a4-80d3-333caa6ab55c","ios":"levelo://app?vid=069aeca7-e762-47a4-80d3-333caa6ab55c"},"vehicle_type_id":"4","last_reported":1748459296,"current_range_meters":6000,"station_id":"ce4bh2h2rcd13ifvqdh0","pricing_plan_id":"cebpf4jnsgd1na2vs0mg"},{"bike_id":"28d4d04d-d0df-4254-a1f1-8447103df3ea","system_id":"levelo_inurba_marseille","lat":43.29195,"lon":5.35794,"is_reserved":false,"is_disabled":false,"rental_uris":{"android":"levelo://app?vid=28d4d04d-d0df-4254-a1f1-8447103df3ea","ios":"levelo://app?vid=28d4d04d-d0df-4254-a1f1-8447103df3ea"},"vehicle_type_id":"4","last_reported":1748459296,"current_range_meters":6000,"station_id":"ce4bhb12rcd13ifvqel0","pricing_plan_id":"cebpf4jnsgd1na2vs0mg"},{"bike_id":"a5f90b1e-a09e-40ad-8d54-7442721c8689","system_id":"levelo_inurba_marseille","lat":43.2461,"lon":5.39251,"is_reserved":false,"is_disabled":false,"rental_uris":{"android":"levelo://app?vid=a5f90b1e-a09e-40ad-8d54-7442721c8689","ios":"levelo://app?vid=a5f90b1e-a09e-40ad-8d54-7442721c8689"},"vehicle_type_id":"4","last_reported":1748459296,"current_range_meters":6400,"station_id":"","pricing_plan_id":"cebpf4jnsgd1na2vs0mg"},{"bike_id":"c8ce34b9-1ce4-403c-ba36-80e73c0b5e47","system_id":"levelo_inurba_marseille","lat":43.27612,"lon":5.36109,"is_reserved":false,"is_disabled":false,"rental_uris":{"android":"levelo://app?vid=c8ce34b9-1ce4-403c-ba36-80e73c0b5e47","ios":"levelo://app?vid=c8ce34b9-1ce4-403c-ba36-80e73c0b5e47"},"vehicle_type_id":"4","last_reported":1748459296,"current_range_meters":6400,"station_id":"ce4bgj92rcd13ifvqbe0","pricing_plan_id":"cebpf4jnsgd1na2vs0mg"},{"bike_id":"dd7ef83c-fafc-4042-bb9f-3f946500a5ce","system_id":"levelo_inurba_marseille","lat":43.29703,"lon":5.37688,"is_reserved":false,"is_disabled":false,"rental_uris":{"android":"levelo://app?vid=dd7ef83c-fafc-4042-bb9f-3f946500a5ce","ios":"levelo://app?vid=dd7ef83c-fafc-4042-bb9f-3f946500a5ce"},"vehicle_type_id":"4","last_reported":1748459296,"current_range_meters":6400,"station_id":"ce4bgkh2rcd13ifvqbl0","pricing_plan_id":"cebpf4jnsgd1na2vs0mg"},{"bike_id":"15bf3e40-09e3-4e7b-bfcf-690caee25668","system_id":"levelo_inurba_marseille","lat":43.31707,"lon":5.37736,"is_reserved":false,"is_disabled":false,"rental_uris":{"android":"levelo://app?vid=15bf3e40-09e3-4e7b-bfcf-690caee25668","ios":"levelo://app?vid=15bf3e40-09e3-4e7b-bfcf-690caee25668"},"vehicle_type_id":"4","last_reported":1748459296,"current_range_meters":6400,"station_id":"ce4bgth2rcd13ifvqch0","pricing_plan_id":"cebpf4jnsgd1na2vs0mg"},{"bike_id":"a99e9b4d-7cd5-479b-b21d-09cb1196e6aa","system_id":"levelo_inurba_marseille","lat":43.31334,"lon":5.39697,"is_reserved":false,"is_disabled":false,"rental_uris":{"android":"levelo://app?vid=a99e9b4d-7cd5-479b-b21d-09cb1196e6aa","ios":"levelo://app?vid=a99e9b4d-7cd5-479b-b21d-09cb1196e6aa"},"vehicle_type_id":"4","last_reported":1748459296,"current_range_meters":6400,"station_id":"ce4bgvp2rcd13ifvqcu0","pricing_plan_id":"cebpf4jnsgd1na2vs0mg"},{"bike_id":"7eab9357-5f91-4f6e-9f1c-adc86cf89f55","system_id":"levelo_inurba_marseille","lat":43.30083,"lon":5.39096,"is_reserved":false,"is_disabled":false,"rental_uris":{"android":"levelo://app?vid=7eab9357-5f91-4f6e-9f1c-adc86cf89f55","ios":"levelo://app?vid=7eab9357-5f91-4f6e-9f1c-adc86cf89f55"},"vehicle_type_id":"4","last_reported":1748459296,"current_range_meters":6400,"station_id":"ce4bh192rcd13ifvqdb0","pricing_plan_id":"cebpf4jnsgd1na2vs0mg"},{"bike_id":"db1992ae-8df0-45a1-a5da-5a7c5ed89646","system_id":"levelo_inurba_marseille","lat":43.26234,"lon":5.37437,"is_reserved":false,"is_disabled":false,"rental_uris":{"android":"levelo://app?vid=db1992ae-8df0-45a1-a5da-5a7c5ed89646","ios":"levelo://app?vid=db1992ae-8df0-45a1-a5da-5a7c5ed89646"},"vehicle_type_id":"4","last_reported":1748459296,"current_range_meters":6400,"station_id":"ce4bhgp2rcd13ifvqfc0","pricing_plan_id":"cebpf4jnsgd1na2vs0mg"},{"bike_id":"5cffbfd0-d612-48c9-9700-10475ad84b57","system_id":"levelo_inurba_marseille","lat":43.28445,"lon":5.39213,"is_reserved":false,"is_disabled":false,"rental_uris":{"android":"levelo://app?vid=5cffbfd0-d612-48c9-9700-10475ad84b57","ios":"levelo://app?vid=5cffbfd0-d612-48c9-9700-10475ad84b57"},"vehicle_type_id":"4","last_reported":1748459296,"current_range_meters":6400,"station_id":"ce4bhoh2rcd13ifvqh5g","pricing_plan_id":"cebpf4jnsgd1na2vs0mg"},{"bike_id":"f819e741-785c-4777-8961-36bbabeca46f","system_id":"levelo_inurba_marseille","lat":43.293074,"lon":5.371714,"is_reserved":false,"is_disabled":false,"rental_uris":{"android":"levelo://app?vid=f819e741-785c-4777-8961-36bbabeca46f","ios":"levelo://app?vid=f819e741-785c-4777-8961-36bbabeca46f"},"vehicle_type_id":"4","last_reported":1748459296,"current_range_meters":6800,"station_id":"","pricing_plan_id":"cebpf4jnsgd1na2vs0mg"},{"bike_id":"56d9c3c1-d5a8-40e7-be94-477d674e97bf","system_id":"levelo_inurba_marseille","lat":43.298559,"lon":5.363002,"is_reserved":false,"is_disabled":false,"rental_uris":{"android":"levelo://app?vid=56d9c3c1-d5a8-40e7-be94-477d674e97bf","ios":"levelo://app?vid=56d9c3c1-d5a8-40e7-be94-477d674e97bf"},"vehicle_type_id":"4","last_reported":1748459296,"current_range_meters":6800,"station_id":"ce4bgpp2rcd13ifvqc3g","pricing_plan_id":"cebpf4jnsgd1na2vs0mg"},{"bike_id":"fe9ee034-24c5-4d2c-bebf-67ea17dcaf05","system_id":"levelo_inurba_marseille","lat":43.29411,"lon":5.38623,"is_reserved":false,"is_disabled":false,"rental_uris":{"android":"levelo://app?vid=fe9ee034-24c5-4d2c-bebf-67ea17dcaf05","ios":"levelo://app?vid=fe9ee034-24c5-4d2c-bebf-67ea17dcaf05"},"vehicle_type_id":"4","last_reported":1748459296,"current_range_meters":6800,"station_id":"ce4bh2h2rcd13ifvqdh0","pricing_plan_id":"cebpf4jnsgd1na2vs0mg"},{"bike_id":"e10255cf-2b70-4bb6-96e0-b07e5d10ce4d","system_id":"levelo_inurba_marseille","lat":43.28669,"lon":5.38656,"is_reserved":false,"is_disabled":false,"rental_uris":{"android":"levelo://app?vid=e10255cf-2b70-4bb6-96e0-b07e5d10ce4d","ios":"levelo://app?vid=e10255cf-2b70-4bb6-96e0-b07e5d10ce4d"},"vehicle_type_id":"4","last_reported":1748459296,"current_range_meters":6800,"station_id":"ce4bh492rcd13ifvqdug","pricing_plan_id":"cebpf4jnsgd1na2vs0mg"},{"bike_id":"0e298602-0967-4a15-8f4b-da3075b94a79","system_id":"levelo_inurba_marseille","lat":43.24812,"lon":5.37458,"is_reserved":false,"is_disabled":false,"rental_uris":{"android":"levelo://app?vid=0e298602-0967-4a15-8f4b-da3075b94a79","ios":"levelo://app?vid=0e298602-0967-4a15-8f4b-da3075b94a79"},"vehicle_type_id":"4","last_reported":1748459296,"current_range_meters":6800,"station_id":"ce4bhgh2rcd13ifvqfb0","pricing_plan_id":"cebpf4jnsgd1na2vs0mg"},{"bike_id":"fd6a4c86-a86a-4454-bca8-47a67e25b028","system_id":"levelo_inurba_marseille","lat":43.26192,"lon":5.37448,"is_reserved":false,"is_disabled":false,"rental_uris":{"android":"levelo://app?vid=fd6a4c86-a86a-4454-bca8-47a67e25b028","ios":"levelo://app?vid=fd6a4c86-a86a-4454-bca8-47a67e25b028"},"vehicle_type_id":"4","last_reported":1748459296,"current_range_meters":6800,"station_id":"ce4bhgp2rcd13ifvqfc0","pricing_plan_id":"cebpf4jnsgd1na2vs0mg"},{"bike_id":"72d4f433-cb68-4769-871f-d01616e89429","system_id":"levelo_inurba_marseille","lat":43.26193,"lon":5.37447,"is_reserved":false,"is_disabled":false,"rental_uris":{"android":"levelo://app?vid=72d4f433-cb68-4769-871f-d01616e89429","ios":"levelo://app?vid=72d4f433-cb68-4769-871f-d01616e89429"},"vehicle_type_id":"4","last_reported":1748459296,"current_range_meters":6800,"station_id":"ce4bhgp2rcd13ifvqfc0","pricing_plan_id":"cebpf4jnsgd1na2vs0mg"},{"bike_id":"65d0faa0-eda6-4535-bb3b-db4e05cceec9","system_id":"levelo_inurba_marseille","lat":43.27054,"lon":5.4026,"is_reserved":false,"is_disabled":false,"rental_uris":{"android":"levelo://app?vid=65d0faa0-eda6-4535-bb3b-db4e05cceec9","ios":"levelo://app?vid=65d0faa0-eda6-4535-bb3b-db4e05cceec9"},"vehicle_type_id":"4","last_reported":1748459296,"current_range_meters":6800,"station_id":"ce4bhk92rcd13ifvqgc0","pricing_plan_id":"cebpf4jnsgd1na2vs0mg"},{"bike_id":"87b395fb-0dfd-464d-b68d-3afc622e0d48","system_id":"levelo_inurba_marseille","lat":43.295487,"lon":5.394738,"is_reserved":false,"is_disabled":false,"rental_uris":{"android":"levelo://app?vid=87b395fb-0dfd-464d-b68d-3afc622e0d48","ios":"levelo://app?vid=87b395fb-0dfd-464d-b68d-3afc622e0d48"},"vehicle_type_id":"4","last_reported":1748459296,"current_range_meters":7200,"station_id":"","pricing_plan_id":"cebpf4jnsgd1na2vs0mg"},{"bike_id":"1a9deaa6-5b0b-41ea-a3a0-9c49f0de8473","system_id":"levelo_inurba_marseille","lat":43.293241,"lon":5.411694,"is_reserved":false,"is_disabled":false,"rental_uris":{"android":"levelo://app?vid=1a9deaa6-5b0b-41ea-a3a0-9c49f0de8473","ios":"levelo://app?vid=1a9deaa6-5b0b-41ea-a3a0-9c49f0de8473"},"vehicle_type_id":"4","last_reported":1748459296,"current_range_meters":7200,"station_id":"","pricing_plan_id":"cebpf4jnsgd1na2vs0mg"},{"bike_id":"b0699ab7-0cef-41f6-879c-b66ce18aff02","system_id":"levelo_inurba_marseille","lat":43.2761,"lon":5.36118,"is_reserved":false,"is_disabled":false,"rental_uris":{"android":"levelo://app?vid=b0699ab7-0cef-41f6-879c-b66ce18aff02","ios":"levelo://app?vid=b0699ab7-0cef-41f6-879c-b66ce18aff02"},"vehicle_type_id":"4","last_reported":1748459296,"current_range_meters":7200,"station_id":"ce4bgj92rcd13ifvqbe0","pricing_plan_id":"cebpf4jnsgd1na2vs0mg"},{"bike_id":"6b4c845b-28f2-4789-8025-0ebd2af33459","system_id":"levelo_inurba_marseille","lat":43.28104,"lon":5.37839,"is_reserved":false,"is_disabled":false,"rental_uris":{"android":"levelo://app?vid=6b4c845b-28f2-4789-8025-0ebd2af33459","ios":"levelo://app?vid=6b4c845b-28f2-4789-8025-0ebd2af33459"},"vehicle_type_id":"4","last_reported":1748459296,"current_range_meters":7200,"station_id":"ce4bha12rcd13ifvqee0","pricing_plan_id":"cebpf4jnsgd1na2vs0mg"},{"bike_id":"aee99834-6ced-49c8-834c-860cbb28d2f3","system_id":"levelo_inurba_marseille","lat":43.23187,"lon":5.39983,"is_reserved":false,"is_disabled":false,"rental_uris":{"android":"levelo://app?vid=aee99834-6ced-49c8-834c-860cbb28d2f3","ios":"levelo://app?vid=aee99834-6ced-49c8-834c-860cbb28d2f3"},"vehicle_type_id":"4","last_reported":1748459296,"current_range_meters":7200,"station_id":"ce4bhn12rcd13ifvqgqg","pricing_plan_id":"cebpf4jnsgd1na2vs0mg"},{"bike_id":"06491b1e-81f7-49df-bc73-2a2fd354a763","system_id":"levelo_inurba_marseille","lat":43.281563,"lon":5.426445,"is_reserved":false,"is_disabled":false,"rental_uris":{"android":"levelo://app?vid=06491b1e-81f7-49df-bc73-2a2fd354a763","ios":"levelo://app?vid=06491b1e-81f7-49df-bc73-2a2fd354a763"},"vehicle_type_id":"4","last_reported":1748459296,"current_range_meters":7200,"station_id":"ce4bhnh2rcd13ifvqgug","pricing_plan_id":"cebpf4jnsgd1na2vs0mg"},{"bike_id":"697f1bc0-ae34-4ad9-8ede-6a27c99a6ea7","system_id":"levelo_inurba_marseille","lat":43.27974,"lon":5.416603,"is_reserved":false,"is_disabled":false,"rental_uris":{"android":"levelo://app?vid=697f1bc0-ae34-4ad9-8ede-6a27c99a6ea7","ios":"levelo://app?vid=697f1bc0-ae34-4ad9-8ede-6a27c99a6ea7"},"vehicle_type_id":"4","last_reported":1748459296,"current_range_meters":7200,"station_id":"ce4bho12rcd13ifvqh1g","pricing_plan_id":"cebpf4jnsgd1na2vs0mg"},{"bike_id":"044a52c3-d810-4e43-bf1b-b9024024a736","system_id":"levelo_inurba_marseille","lat":43.29724,"lon":5.37691,"is_reserved":false,"is_disabled":false,"rental_uris":{"android":"levelo://app?vid=044a52c3-d810-4e43-bf1b-b9024024a736","ios":"levelo://app?vid=044a52c3-d810-4e43-bf1b-b9024024a736"},"vehicle_type_id":"4","last_reported":1748459296,"current_range_meters":8000,"station_id":"","pricing_plan_id":"cebpf4jnsgd1na2vs0mg"},{"bike_id":"106a4dc0-e463-4d95-87d9-b9bef6eef21e","system_id":"levelo_inurba_marseille","lat":43.30133,"lon":5.3878,"is_reserved":false,"is_disabled":false,"rental_uris":{"android":"levelo://app?vid=106a4dc0-e463-4d95-87d9-b9bef6eef21e","ios":"levelo://app?vid=106a4dc0-e463-4d95-87d9-b9bef6eef21e"},"vehicle_type_id":"4","last_reported":1748459296,"current_range_meters":8000,"station_id":"ce4bghh2rcd13ifvqb60","pricing_plan_id":"cebpf4jnsgd1na2vs0mg"},{"bike_id":"09b81d6a-d61f-4895-8702-519561096a83","system_id":"levelo_inurba_marseille","lat":43.29617,"lon":5.37717,"is_reserved":false,"is_disabled":false,"rental_uris":{"android":"levelo://app?vid=09b81d6a-d61f-4895-8702-519561096a83","ios":"levelo://app?vid=09b81d6a-d61f-4895-8702-519561096a83"},"vehicle_type_id":"4","last_reported":1748459296,"current_range_meters":8000,"station_id":"ce4bgi92rcd13ifvqb90","pricing_plan_id":"cebpf4jnsgd1na2vs0mg"},{"bike_id":"0e048a84-0448-4577-977a-d005e4730bc2","system_id":"levelo_inurba_marseille","lat":43.29169,"lon":5.37156,"is_reserved":false,"is_disabled":false,"rental_uris":{"android":"levelo://app?vid=0e048a84-0448-4577-977a-d005e4730bc2","ios":"levelo://app?vid=0e048a84-0448-4577-977a-d005e4730bc2"},"vehicle_type_id":"4","last_reported":1748459296,"current_range_meters":8000,"station_id":"ce4bha92rcd13ifvqeh0","pricing_plan_id":"cebpf4jnsgd1na2vs0mg"},{"bike_id":"828c9c20-6f75-4835-a373-87fcd67fe6c3","system_id":"levelo_inurba_marseille","lat":43.28455,"lon":5.35904,"is_reserved":false,"is_disabled":false,"rental_uris":{"android":"levelo://app?vid=828c9c20-6f75-4835-a373-87fcd67fe6c3","ios":"levelo://app?vid=828c9c20-6f75-4835-a373-87fcd67fe6c3"},"vehicle_type_id":"4","last_reported":1748459296,"current_range_meters":8000,"station_id":"ce4bhah2rcd13ifvqei0","pricing_plan_id":"cebpf4jnsgd1na2vs0mg"},{"bike_id":"240845dc-3554-46af-a1c5-65cb62e9dc2c","system_id":"levelo_inurba_marseille","lat":43.27371,"lon":5.36254,"is_reserved":false,"is_disabled":false,"rental_uris":{"android":"levelo://app?vid=240845dc-3554-46af-a1c5-65cb62e9dc2c","ios":"levelo://app?vid=240845dc-3554-46af-a1c5-65cb62e9dc2c"},"vehicle_type_id":"4","last_reported":1748459296,"current_range_meters":8000,"station_id":"ce4bhbh2rcd13ifvqeo0","pricing_plan_id":"cebpf4jnsgd1na2vs0mg"},{"bike_id":"594fa21a-e4ec-4adb-b66e-58ef99b2c5c6","system_id":"levelo_inurba_marseille","lat":43.2481,"lon":5.37461,"is_reserved":false,"is_disabled":false,"rental_uris":{"android":"levelo://app?vid=594fa21a-e4ec-4adb-b66e-58ef99b2c5c6","ios":"levelo://app?vid=594fa21a-e4ec-4adb-b66e-58ef99b2c5c6"},"vehicle_type_id":"4","last_reported":1748459296,"current_range_meters":8000,"station_id":"ce4bhgh2rcd13ifvqfb0","pricing_plan_id":"cebpf4jnsgd1na2vs0mg"},{"bike_id":"903af1ca-1009-44e6-930e-3dbbb610a029","system_id":"levelo_inurba_marseille","lat":43.26195,"lon":5.37454,"is_reserved":false,"is_disabled":false,"rental_uris":{"android":"levelo://app?vid=903af1ca-1009-44e6-930e-3dbbb610a029","ios":"levelo://app?vid=903af1ca-1009-44e6-930e-3dbbb610a029"},"vehicle_type_id":"4","last_reported":1748459296,"current_range_meters":8000,"station_id":"ce4bhgp2rcd13ifvqfc0","pricing_plan_id":"cebpf4jnsgd1na2vs0mg"},{"bike_id":"41eeef1b-6f42-44d9-bb0c-fa0939244321","system_id":"levelo_inurba_marseille","lat":43.31998,"lon":5.38165,"is_reserved":false,"is_disabled":false,"rental_uris":{"android":"levelo://app?vid=41eeef1b-6f42-44d9-bb0c-fa0939244321","ios":"levelo://app?vid=41eeef1b-6f42-44d9-bb0c-fa0939244321"},"vehicle_type_id":"4","last_reported":1748459296,"current_range_meters":8000,"station_id":"ce4bhr12rcd13ifvqhpg","pricing_plan_id":"cebpf4jnsgd1na2vs0mg"},{"bike_id":"73a32449-54a6-462e-b0e6-7a1e3e272401","system_id":"levelo_inurba_marseille","lat":43.2931,"lon":5.37178,"is_reserved":false,"is_disabled":false,"rental_uris":{"android":"levelo://app?vid=73a32449-54a6-462e-b0e6-7a1e3e272401","ios":"levelo://app?vid=73a32449-54a6-462e-b0e6-7a1e3e272401"},"vehicle_type_id":"4","last_reported":1748459296,"current_range_meters":8400,"station_id":"ce4bgh92rcd13ifvqb40","pricing_plan_id":"cebpf4jnsgd1na2vs0mg"},{"bike_id":"524b402d-83ef-4088-9a8d-5fe7be6e768c","system_id":"levelo_inurba_marseille","lat":43.27627,"lon":5.36099,"is_reserved":false,"is_disabled":false,"rental_uris":{"android":"levelo://app?vid=524b402d-83ef-4088-9a8d-5fe7be6e768c","ios":"levelo://app?vid=524b402d-83ef-4088-9a8d-5fe7be6e768c"},"vehicle_type_id":"4","last_reported":1748459296,"current_range_meters":8400,"station_id":"ce4bgj92rcd13ifvqbe0","pricing_plan_id":"cebpf4jnsgd1na2vs0mg"},{"bike_id":"bb9b919b-2bff-45ba-9824-3acf8e6df706","system_id":"levelo_inurba_marseille","lat":43.2952,"lon":5.39034,"is_reserved":false,"is_disabled":false,"rental_uris":{"android":"levelo://app?vid=bb9b919b-2bff-45ba-9824-3acf8e6df706","ios":"levelo://app?vid=bb9b919b-2bff-45ba-9824-3acf8e6df706"},"vehicle_type_id":"4","last_reported":1748459296,"current_range_meters":8400,"station_id":"ce4bh3p2rcd13ifvqdp0","pricing_plan_id":"cebpf4jnsgd1na2vs0mg"},{"bike_id":"3836e8d4-6b2c-4104-8f08-239a009b6e6a","system_id":"levelo_inurba_marseille","lat":43.29053,"lon":5.35915,"is_reserved":false,"is_disabled":false,"rental_uris":{"android":"levelo://app?vid=3836e8d4-6b2c-4104-8f08-239a009b6e6a","ios":"levelo://app?vid=3836e8d4-6b2c-4104-8f08-239a009b6e6a"},"vehicle_type_id":"4","last_reported":1748459296,"current_range_meters":8400,"station_id":"ce4bha92rcd13ifvqeg0","pricing_plan_id":"cebpf4jnsgd1na2vs0mg"},{"bike_id":"7254ff10-ed5c-4a97-8e61-58e64de32878","system_id":"levelo_inurba_marseille","lat":43.27905,"lon":5.39589,"is_reserved":false,"is_disabled":false,"rental_uris":{"android":"levelo://app?vid=7254ff10-ed5c-4a97-8e61-58e64de32878","ios":"levelo://app?vid=7254ff10-ed5c-4a97-8e61-58e64de32878"},"vehicle_type_id":"4","last_reported":1748459296,"current_range_meters":8400,"station_id":"ce4bhf92rcd13ifvqf40","pricing_plan_id":"cebpf4jnsgd1na2vs0mg"},{"bike_id":"6a109226-b14f-48cc-9fef-b5f65ed631bf","system_id":"levelo_inurba_marseille","lat":43.24812,"lon":5.37456,"is_reserved":false,"is_disabled":false,"rental_uris":{"android":"levelo://app?vid=6a109226-b14f-48cc-9fef-b5f65ed631bf","ios":"levelo://app?vid=6a109226-b14f-48cc-9fef-b5f65ed631bf"},"vehicle_type_id":"4","last_reported":1748459296,"current_range_meters":8400,"station_id":"ce4bhgh2rcd13ifvqfb0","pricing_plan_id":"cebpf4jnsgd1na2vs0mg"},{"bike_id":"a942dbe5-1e25-4548-8cf9-08d4c65b98b1","system_id":"levelo_inurba_marseille","lat":43.25578,"lon":5.38241,"is_reserved":false,"is_disabled":false,"rental_uris":{"android":"levelo://app?vid=a942dbe5-1e25-4548-8cf9-08d4c65b98b1","ios":"levelo://app?vid=a942dbe5-1e25-4548-8cf9-08d4c65b98b1"},"vehicle_type_id":"4","last_reported":1748459296,"current_range_meters":8400,"station_id":"ce4bhih2rcd13ifvqfs0","pricing_plan_id":"cebpf4jnsgd1na2vs0mg"},{"bike_id":"b43b8a28-3f1e-4816-acbe-aeb6c49a935c","system_id":"levelo_inurba_marseille","lat":43.27841,"lon":5.39207,"is_reserved":false,"is_disabled":false,"rental_uris":{"android":"levelo://app?vid=b43b8a28-3f1e-4816-acbe-aeb6c49a935c","ios":"levelo://app?vid=b43b8a28-3f1e-4816-acbe-aeb6c49a935c"},"vehicle_type_id":"4","last_reported":1748459296,"current_range_meters":8400,"station_id":"ce4bhjp2rcd13ifvqga0","pricing_plan_id":"cebpf4jnsgd1na2vs0mg"},{"bike_id":"b80ee325-09b2-4724-993d-4f8d3707c41c","system_id":"levelo_inurba_marseille","lat":43.25862,"lon":5.39902,"is_reserved":false,"is_disabled":false,"rental_uris":{"android":"levelo://app?vid=b80ee325-09b2-4724-993d-4f8d3707c41c","ios":"levelo://app?vid=b80ee325-09b2-4724-993d-4f8d3707c41c"},"vehicle_type_id":"4","last_reported":1748459296,"current_range_meters":8400,"station_id":"ce4bhl92rcd13ifvqghg","pricing_plan_id":"cebpf4jnsgd1na2vs0mg"},{"bike_id":"96af0526-de74-4e93-8ea1-ca63bf5668db","system_id":"levelo_inurba_marseille","lat":43.29306,"lon":5.37174,"is_reserved":false,"is_disabled":false,"rental_uris":{"android":"levelo://app?vid=96af0526-de74-4e93-8ea1-ca63bf5668db","ios":"levelo://app?vid=96af0526-de74-4e93-8ea1-ca63bf5668db"},"vehicle_type_id":"4","last_reported":1748459296,"current_range_meters":8800,"station_id":"ce4bgh92rcd13ifvqb40","pricing_plan_id":"cebpf4jnsgd1na2vs0mg"},{"bike_id":"bbca82b6-a4c7-4a31-a0da-6c724be95d22","system_id":"levelo_inurba_marseille","lat":43.28419,"lon":5.3752,"is_reserved":false,"is_disabled":false,"rental_uris":{"android":"levelo://app?vid=bbca82b6-a4c7-4a31-a0da-6c724be95d22","ios":"levelo://app?vid=bbca82b6-a4c7-4a31-a0da-6c724be95d22"},"vehicle_type_id":"4","last_reported":1748459296,"current_range_meters":8800,"station_id":"ce4bh412rcd13ifvqds0","pricing_plan_id":"cebpf4jnsgd1na2vs0mg"},{"bike_id":"d48eb37c-947f-4d6d-985c-ffae524fb036","system_id":"levelo_inurba_marseille","lat":43.28077,"lon":5.3966,"is_reserved":false,"is_disabled":false,"rental_uris":{"android":"levelo://app?vid=d48eb37c-947f-4d6d-985c-ffae524fb036","ios":"levelo://app?vid=d48eb37c-947f-4d6d-985c-ffae524fb036"},"vehicle_type_id":"4","last_reported":1748459296,"current_range_meters":8800,"station_id":"ce4bho12rcd13ifvqh2g","pricing_plan_id":"cebpf4jnsgd1na2vs0mg"},{"bike_id":"6d7cfdcd-f061-4eee-b4e5-78d9b6729328","system_id":"levelo_inurba_marseille","lat":43.32998,"lon":5.4385,"is_reserved":false,"is_disabled":false,"rental_uris":{"android":"levelo://app?vid=6d7cfdcd-f061-4eee-b4e5-78d9b6729328","ios":"levelo://app?vid=6d7cfdcd-f061-4eee-b4e5-78d9b6729328"},"vehicle_type_id":"4","last_reported":1748459296,"current_range_meters":9200,"station_id":"","pricing_plan_id":"cebpf4jnsgd1na2vs0mg"},{"bike_id":"7d8a9c99-cc8b-4597-a549-f9b4da630d2d","system_id":"levelo_inurba_marseille","lat":43.31719,"lon":5.42396,"is_reserved":false,"is_disabled":false,"rental_uris":{"android":"levelo://app?vid=7d8a9c99-cc8b-4597-a549-f9b4da630d2d","ios":"levelo://app?vid=7d8a9c99-cc8b-4597-a549-f9b4da630d2d"},"vehicle_type_id":"4","last_reported":1748459296,"current_range_meters":9200,"station_id":"","pricing_plan_id":"cebpf4jnsgd1na2vs0mg"},{"bike_id":"16578a9c-c460-4d38-be25-a20250881a73","system_id":"levelo_inurba_marseille","lat":43.322259,"lon":5.384251,"is_reserved":false,"is_disabled":false,"rental_uris":{"android":"levelo://app?vid=16578a9c-c460-4d38-be25-a20250881a73","ios":"levelo://app?vid=16578a9c-c460-4d38-be25-a20250881a73"},"vehicle_type_id":"4","last_reported":1748459296,"current_range_meters":9200,"station_id":"","pricing_plan_id":"cebpf4jnsgd1na2vs0mg"},{"bike_id":"69668f6a-b606-4365-8526-2700f81f1bc7","system_id":"levelo_inurba_marseille","lat":43.26227,"lon":5.3745,"is_reserved":false,"is_disabled":false,"rental_uris":{"android":"levelo://app?vid=69668f6a-b606-4365-8526-2700f81f1bc7","ios":"levelo://app?vid=69668f6a-b606-4365-8526-2700f81f1bc7"},"vehicle_type_id":"4","last_reported":1748459296,"current_range_meters":9200,"station_id":"","pricing_plan_id":"cebpf4jnsgd1na2vs0mg"},{"bike_id":"879f9784-2929-4c6b-8ed1-c8b1dd942e21","system_id":"levelo_inurba_marseille","lat":43.299744,"lon":5.384791,"is_reserved":false,"is_disabled":false,"rental_uris":{"android":"levelo://app?vid=879f9784-2929-4c6b-8ed1-c8b1dd942e21","ios":"levelo://app?vid=879f9784-2929-4c6b-8ed1-c8b1dd942e21"},"vehicle_type_id":"4","last_reported":1748459296,"current_range_meters":9200,"station_id":"ce4bgj92rcd13ifvqbd0","pricing_plan_id":"cebpf4jnsgd1na2vs0mg"},{"bike_id":"b3896cb9-31cf-4f46-9386-86d6cddcef70","system_id":"levelo_inurba_marseille","lat":43.276226,"lon":5.361014,"is_reserved":false,"is_disabled":false,"rental_uris":{"android":"levelo://app?vid=b3896cb9-31cf-4f46-9386-86d6cddcef70","ios":"levelo://app?vid=b3896cb9-31cf-4f46-9386-86d6cddcef70"},"vehicle_type_id":"4","last_reported":1748459296,"current_range_meters":9200,"station_id":"ce4bgj92rcd13ifvqbe0","pricing_plan_id":"cebpf4jnsgd1na2vs0mg"},{"bike_id":"23e401f9-c22a-4e29-88c7-30946c483823","system_id":"levelo_inurba_marseille","lat":43.3043,"lon":5.38887,"is_reserved":false,"is_disabled":false,"rental_uris":{"android":"levelo://app?vid=23e401f9-c22a-4e29-88c7-30946c483823","ios":"levelo://app?vid=23e401f9-c22a-4e29-88c7-30946c483823"},"vehicle_type_id":"4","last_reported":1748459296,"current_range_meters":9200,"station_id":"ce4bgk12rcd13ifvqbi0","pricing_plan_id":"cebpf4jnsgd1na2vs0mg"},{"bike_id":"bcb6a48d-8756-420f-b6ee-5128bb9a10a4","system_id":"levelo_inurba_marseille","lat":43.29976,"lon":5.37183,"is_reserved":false,"is_disabled":false,"rental_uris":{"android":"levelo://app?vid=bcb6a48d-8756-420f-b6ee-5128bb9a10a4","ios":"levelo://app?vid=bcb6a48d-8756-420f-b6ee-5128bb9a10a4"},"vehicle_type_id":"4","last_reported":1748459296,"current_range_meters":9200,"station_id":"ce4bgr92rcd13ifvqc7g","pricing_plan_id":"cebpf4jnsgd1na2vs0mg"},{"bike_id":"e652bf3c-6160-4ee1-9b1c-152f2da9d011","system_id":"levelo_inurba_marseille","lat":43.30544,"lon":5.36722,"is_reserved":false,"is_disabled":false,"rental_uris":{"android":"levelo://app?vid=e652bf3c-6160-4ee1-9b1c-152f2da9d011","ios":"levelo://app?vid=e652bf3c-6160-4ee1-9b1c-152f2da9d011"},"vehicle_type_id":"4","last_reported":1748459296,"current_range_meters":9200,"station_id":"ce4bgrp2rcd13ifvqc9g","pricing_plan_id":"cebpf4jnsgd1na2vs0mg"},{"bike_id":"4a0b4325-1ee9-4328-a0a3-d582ed97bd04","system_id":"levelo_inurba_marseille","lat":43.30082,"lon":5.39075,"is_reserved":false,"is_disabled":false,"rental_uris":{"android":"levelo://app?vid=4a0b4325-1ee9-4328-a0a3-d582ed97bd04","ios":"levelo://app?vid=4a0b4325-1ee9-4328-a0a3-d582ed97bd04"},"vehicle_type_id":"4","last_reported":1748459296,"current_range_meters":9200,"station_id":"ce4bh192rcd13ifvqdb0","pricing_plan_id":"cebpf4jnsgd1na2vs0mg"},{"bike_id":"0b60daa3-c72d-461b-bf37-dfb5690e497e","system_id":"levelo_inurba_marseille","lat":43.29416,"lon":5.3862,"is_reserved":false,"is_disabled":false,"rental_uris":{"android":"levelo://app?vid=0b60daa3-c72d-461b-bf37-dfb5690e497e","ios":"levelo://app?vid=0b60daa3-c72d-461b-bf37-dfb5690e497e"},"vehicle_type_id":"4","last_reported":1748459296,"current_range_meters":9200,"station_id":"ce4bh2h2rcd13ifvqdh0","pricing_plan_id":"cebpf4jnsgd1na2vs0mg"},{"bike_id":"a2a40c2d-5bc3-4a02-8059-5bc34e49d193","system_id":"levelo_inurba_marseille","lat":43.281,"lon":5.37844,"is_reserved":false,"is_disabled":false,"rental_uris":{"android":"levelo://app?vid=a2a40c2d-5bc3-4a02-8059-5bc34e49d193","ios":"levelo://app?vid=a2a40c2d-5bc3-4a02-8059-5bc34e49d193"},"vehicle_type_id":"4","last_reported":1748459296,"current_range_meters":9200,"station_id":"ce4bha12rcd13ifvqee0","pricing_plan_id":"cebpf4jnsgd1na2vs0mg"},{"bike_id":"df6b8606-d013-4c9f-9923-9bd3f1fc439e","system_id":"levelo_inurba_marseille","lat":43.29157,"lon":5.37155,"is_reserved":false,"is_disabled":false,"rental_uris":{"android":"levelo://app?vid=df6b8606-d013-4c9f-9923-9bd3f1fc439e","ios":"levelo://app?vid=df6b8606-d013-4c9f-9923-9bd3f1fc439e"},"vehicle_type_id":"4","last_reported":1748459296,"current_range_meters":9200,"station_id":"ce4bha92rcd13ifvqeh0","pricing_plan_id":"cebpf4jnsgd1na2vs0mg"},{"bike_id":"1e7d37be-8c52-41ae-8059-865304d62190","system_id":"levelo_inurba_marseille","lat":43.28659,"lon":5.36356,"is_reserved":false,"is_disabled":false,"rental_uris":{"android":"levelo://app?vid=1e7d37be-8c52-41ae-8059-865304d62190","ios":"levelo://app?vid=1e7d37be-8c52-41ae-8059-865304d62190"},"vehicle_type_id":"4","last_reported":1748459296,"current_range_meters":9200,"station_id":"ce4bhah2rcd13ifvqej0","pricing_plan_id":"cebpf4jnsgd1na2vs0mg"},{"bike_id":"a2a91c7a-e3d6-424e-affe-31488fc11490","system_id":"levelo_inurba_marseille","lat":43.27383,"lon":5.36259,"is_reserved":false,"is_disabled":false,"rental_uris":{"android":"levelo://app?vid=a2a91c7a-e3d6-424e-affe-31488fc11490","ios":"levelo://app?vid=a2a91c7a-e3d6-424e-affe-31488fc11490"},"vehicle_type_id":"4","last_reported":1748459296,"current_range_meters":9200,"station_id":"ce4bhbh2rcd13ifvqeo0","pricing_plan_id":"cebpf4jnsgd1na2vs0mg"},{"bike_id":"3b6883fc-b1b8-4919-a71b-9e592f7bed7d","system_id":"levelo_inurba_marseille","lat":43.286213,"lon":5.35097,"is_reserved":false,"is_disabled":false,"rental_uris":{"android":"levelo://app?vid=3b6883fc-b1b8-4919-a71b-9e592f7bed7d","ios":"levelo://app?vid=3b6883fc-b1b8-4919-a71b-9e592f7bed7d"},"vehicle_type_id":"4","last_reported":1748459296,"current_range_meters":9200,"station_id":"ce4bhch2rcd13ifvqeug","pricing_plan_id":"cebpf4jnsgd1na2vs0mg"},{"bike_id":"95f3d807-d3f7-4858-a767-1a20d43b1b5f","system_id":"levelo_inurba_marseille","lat":43.25089,"lon":5.39524,"is_reserved":false,"is_disabled":false,"rental_uris":{"android":"levelo://app?vid=95f3d807-d3f7-4858-a767-1a20d43b1b5f","ios":"levelo://app?vid=95f3d807-d3f7-4858-a767-1a20d43b1b5f"},"vehicle_type_id":"4","last_reported":1748459296,"current_range_meters":9200,"station_id":"ce4bhm12rcd13ifvqgkg","pricing_plan_id":"cebpf4jnsgd1na2vs0mg"},{"bike_id":"7763e5d7-6ee6-4743-b902-05b7a7fc8c5b","system_id":"levelo_inurba_marseille","lat":43.23189,"lon":5.39984,"is_reserved":false,"is_disabled":false,"rental_uris":{"android":"levelo://app?vid=7763e5d7-6ee6-4743-b902-05b7a7fc8c5b","ios":"levelo://app?vid=7763e5d7-6ee6-4743-b902-05b7a7fc8c5b"},"vehicle_type_id":"4","last_reported":1748459296,"current_range_meters":9200,"station_id":"ce4bhn12rcd13ifvqgqg","pricing_plan_id":"cebpf4jnsgd1na2vs0mg"},{"bike_id":"f6a5da37-1f45-4be9-acce-3d5558d1fc13","system_id":"levelo_inurba_marseille","lat":43.34144,"lon":5.40898,"is_reserved":false,"is_disabled":false,"rental_uris":{"android":"levelo://app?vid=f6a5da37-1f45-4be9-acce-3d5558d1fc13","ios":"levelo://app?vid=f6a5da37-1f45-4be9-acce-3d5558d1fc13"},"vehicle_type_id":"4","last_reported":1748459296,"current_range_meters":9200,"station_id":"ce4bhqh2rcd13ifvqhlg","pricing_plan_id":"cebpf4jnsgd1na2vs0mg"},{"bike_id":"be4b293e-8744-4637-8ca2-a3e9032e9cec","system_id":"levelo_inurba_marseille","lat":43.22925,"lon":5.35381,"is_reserved":false,"is_disabled":false,"rental_uris":{"android":"levelo://app?vid=be4b293e-8744-4637-8ca2-a3e9032e9cec","ios":"levelo://app?vid=be4b293e-8744-4637-8ca2-a3e9032e9cec"},"vehicle_type_id":"4","last_reported":1748459296,"current_range_meters":9200,"station_id":"cpo3532slgdg3j2ikp40","pricing_plan_id":"cebpf4jnsgd1na2vs0mg"},{"bike_id":"90d00016-d3c2-42c0-8a91-1423e916b604","system_id":"levelo_inurba_marseille","lat":43.31487,"lon":5.37304,"is_reserved":false,"is_disabled":false,"rental_uris":{"android":"levelo://app?vid=90d00016-d3c2-42c0-8a91-1423e916b604","ios":"levelo://app?vid=90d00016-d3c2-42c0-8a91-1423e916b604"},"vehicle_type_id":"4","last_reported":1748459296,"current_range_meters":9600,"station_id":"ce4bgt12rcd13ifvqcd0","pricing_plan_id":"cebpf4jnsgd1na2vs0mg"},{"bike_id":"737ab3a1-6244-4844-b8a9-e1dc900005f1","system_id":"levelo_inurba_marseille","lat":43.30808,"lon":5.38158,"is_reserved":false,"is_disabled":false,"rental_uris":{"android":"levelo://app?vid=737ab3a1-6244-4844-b8a9-e1dc900005f1","ios":"levelo://app?vid=737ab3a1-6244-4844-b8a9-e1dc900005f1"},"vehicle_type_id":"4","last_reported":1748459296,"current_range_meters":9600,"station_id":"ce4bgt12rcd13ifvqce0","pricing_plan_id":"cebpf4jnsgd1na2vs0mg"},{"bike_id":"1d5a8c95-86e3-4ea9-b788-f9a593b643f3","system_id":"levelo_inurba_marseille","lat":43.31173,"lon":5.38713,"is_reserved":false,"is_disabled":false,"rental_uris":{"android":"levelo://app?vid=1d5a8c95-86e3-4ea9-b788-f9a593b643f3","ios":"levelo://app?vid=1d5a8c95-86e3-4ea9-b788-f9a593b643f3"},"vehicle_type_id":"4","last_reported":1748459296,"current_range_meters":9600,"station_id":"ce4bgv12rcd13ifvqcp0","pricing_plan_id":"cebpf4jnsgd1na2vs0mg"},{"bike_id":"0e332284-f1ed-4ef6-9128-c3559247cff5","system_id":"levelo_inurba_marseille","lat":43.309357,"lon":5.401399,"is_reserved":false,"is_disabled":false,"rental_uris":{"android":"levelo://app?vid=0e332284-f1ed-4ef6-9128-c3559247cff5","ios":"levelo://app?vid=0e332284-f1ed-4ef6-9128-c3559247cff5"},"vehicle_type_id":"4","last_reported":1748459296,"current_range_meters":9600,"station_id":"ce4bgvp2rcd13ifvqct0","pricing_plan_id":"cebpf4jnsgd1na2vs0mg"},{"bike_id":"4c055e6a-d49c-4b4c-8afa-169fd3640c4c","system_id":"levelo_inurba_marseille","lat":43.28374,"lon":5.38629,"is_reserved":false,"is_disabled":false,"rental_uris":{"android":"levelo://app?vid=4c055e6a-d49c-4b4c-8afa-169fd3640c4c","ios":"levelo://app?vid=4c055e6a-d49c-4b4c-8afa-169fd3640c4c"},"vehicle_type_id":"4","last_reported":1748459296,"current_range_meters":9600,"station_id":"ce4bh492rcd13ifvqdvg","pricing_plan_id":"cebpf4jnsgd1na2vs0mg"},{"bike_id":"cc82bd18-1b33-41c6-a2e5-a5acd49b702d","system_id":"levelo_inurba_marseille","lat":43.28041,"lon":5.36939,"is_reserved":false,"is_disabled":false,"rental_uris":{"android":"levelo://app?vid=cc82bd18-1b33-41c6-a2e5-a5acd49b702d","ios":"levelo://app?vid=cc82bd18-1b33-41c6-a2e5-a5acd49b702d"},"vehicle_type_id":"4","last_reported":1748459296,"current_range_meters":9600,"station_id":"ce4bha12rcd13ifvqef0","pricing_plan_id":"cebpf4jnsgd1na2vs0mg"},{"bike_id":"f4056d53-d356-4b9a-9211-fbe28e21c8bf","system_id":"levelo_inurba_marseille","lat":43.24811,"lon":5.37459,"is_reserved":false,"is_disabled":false,"rental_uris":{"android":"levelo://app?vid=f4056d53-d356-4b9a-9211-fbe28e21c8bf","ios":"levelo://app?vid=f4056d53-d356-4b9a-9211-fbe28e21c8bf"},"vehicle_type_id":"4","last_reported":1748459296,"current_range_meters":9600,"station_id":"ce4bhgh2rcd13ifvqfb0","pricing_plan_id":"cebpf4jnsgd1na2vs0mg"},{"bike_id":"df491afd-2cc9-4702-aee8-5979df1b4b28","system_id":"levelo_inurba_marseille","lat":43.2706,"lon":5.40268,"is_reserved":false,"is_disabled":false,"rental_uris":{"android":"levelo://app?vid=df491afd-2cc9-4702-aee8-5979df1b4b28","ios":"levelo://app?vid=df491afd-2cc9-4702-aee8-5979df1b4b28"},"vehicle_type_id":"4","last_reported":1748459296,"current_range_meters":9600,"station_id":"ce4bhk92rcd13ifvqgc0","pricing_plan_id":"cebpf4jnsgd1na2vs0mg"},{"bike_id":"0e5a8a29-c337-4616-b765-83c8164a732e","system_id":"levelo_inurba_marseille","lat":43.299652,"lon":5.384894,"is_reserved":false,"is_disabled":false,"rental_uris":{"android":"levelo://app?vid=0e5a8a29-c337-4616-b765-83c8164a732e","ios":"levelo://app?vid=0e5a8a29-c337-4616-b765-83c8164a732e"},"vehicle_type_id":"4","last_reported":1748459296,"current_range_meters":10000,"station_id":"ce4bgj92rcd13ifvqbd0","pricing_plan_id":"cebpf4jnsgd1na2vs0mg"},{"bike_id":"a1154aa5-6ab6-4358-9e67-6d5b2315a3d0","system_id":"levelo_inurba_marseille","lat":43.31171,"lon":5.38717,"is_reserved":false,"is_disabled":false,"rental_uris":{"android":"levelo://app?vid=a1154aa5-6ab6-4358-9e67-6d5b2315a3d0","ios":"levelo://app?vid=a1154aa5-6ab6-4358-9e67-6d5b2315a3d0"},"vehicle_type_id":"4","last_reported":1748459296,"current_range_meters":10000,"station_id":"ce4bgv12rcd13ifvqcp0","pricing_plan_id":"cebpf4jnsgd1na2vs0mg"},{"bike_id":"5e703e03-e240-4b49-9f2f-4a5035fe04a6","system_id":"levelo_inurba_marseille","lat":43.27376,"lon":5.36249,"is_reserved":false,"is_disabled":false,"rental_uris":{"android":"levelo://app?vid=5e703e03-e240-4b49-9f2f-4a5035fe04a6","ios":"levelo://app?vid=5e703e03-e240-4b49-9f2f-4a5035fe04a6"},"vehicle_type_id":"4","last_reported":1748459296,"current_range_meters":10000,"station_id":"ce4bhbh2rcd13ifvqeo0","pricing_plan_id":"cebpf4jnsgd1na2vs0mg"},{"bike_id":"358de03d-591e-4305-b872-4fa6e54a4363","system_id":"levelo_inurba_marseille","lat":43.27366,"lon":5.36246,"is_reserved":false,"is_disabled":false,"rental_uris":{"android":"levelo://app?vid=358de03d-591e-4305-b872-4fa6e54a4363","ios":"levelo://app?vid=358de03d-591e-4305-b872-4fa6e54a4363"},"vehicle_type_id":"4","last_reported":1748459296,"current_range_meters":10000,"station_id":"ce4bhbh2rcd13ifvqeo0","pricing_plan_id":"cebpf4jnsgd1na2vs0mg"},{"bike_id":"a2901076-f9d6-4c7f-a18d-ea31e087e3b3","system_id":"levelo_inurba_marseille","lat":43.27896,"lon":5.38009,"is_reserved":false,"is_disabled":false,"rental_uris":{"android":"levelo://app?vid=a2901076-f9d6-4c7f-a18d-ea31e087e3b3","ios":"levelo://app?vid=a2901076-f9d6-4c7f-a18d-ea31e087e3b3"},"vehicle_type_id":"4","last_reported":1748459296,"current_range_meters":10000,"station_id":"ce4bhf92rcd13ifvqf50","pricing_plan_id":"cebpf4jnsgd1na2vs0mg"},{"bike_id":"9167ea6a-ce66-49ff-859f-3ca7c151003d","system_id":"levelo_inurba_marseille","lat":43.24178,"lon":5.39731,"is_reserved":false,"is_disabled":false,"rental_uris":{"android":"levelo://app?vid=9167ea6a-ce66-49ff-859f-3ca7c151003d","ios":"levelo://app?vid=9167ea6a-ce66-49ff-859f-3ca7c151003d"},"vehicle_type_id":"4","last_reported":1748459296,"current_range_meters":10000,"station_id":"ce4bhn12rcd13ifvqgpg","pricing_plan_id":"cebpf4jnsgd1na2vs0mg"},{"bike_id":"5c93d864-5241-4b53-b8d7-f7772e9887ea","system_id":"levelo_inurba_marseille","lat":43.28145,"lon":5.4264,"is_reserved":false,"is_disabled":false,"rental_uris":{"android":"levelo://app?vid=5c93d864-5241-4b53-b8d7-f7772e9887ea","ios":"levelo://app?vid=5c93d864-5241-4b53-b8d7-f7772e9887ea"},"vehicle_type_id":"4","last_reported":1748459296,"current_range_meters":10000,"station_id":"ce4bhnh2rcd13ifvqgug","pricing_plan_id":"cebpf4jnsgd1na2vs0mg"},{"bike_id":"2f650bb1-6027-4191-83d2-16315820a0a7","system_id":"levelo_inurba_marseille","lat":43.299865,"lon":5.373656,"is_reserved":false,"is_disabled":false,"rental_uris":{"android":"levelo://app?vid=2f650bb1-6027-4191-83d2-16315820a0a7","ios":"levelo://app?vid=2f650bb1-6027-4191-83d2-16315820a0a7"},"vehicle_type_id":"4","last_reported":1748459296,"current_range_meters":10800,"station_id":"","pricing_plan_id":"cebpf4jnsgd1na2vs0mg"},{"bike_id":"c84f8025-f392-4efb-8662-faa8b7ebbd21","system_id":"levelo_inurba_marseille","lat":43.295066,"lon":5.374448,"is_reserved":false,"is_disabled":false,"rental_uris":{"android":"levelo://app?vid=c84f8025-f392-4efb-8662-faa8b7ebbd21","ios":"levelo://app?vid=c84f8025-f392-4efb-8662-faa8b7ebbd21"},"vehicle_type_id":"4","last_reported":1748459296,"current_range_meters":10800,"station_id":"ce4bgh92rcd13ifvqb50","pricing_plan_id":"cebpf4jnsgd1na2vs0mg"},{"bike_id":"3b5bd19b-dd6b-4988-97c8-672f40417216","system_id":"levelo_inurba_marseille","lat":43.28848,"lon":5.39314,"is_reserved":false,"is_disabled":false,"rental_uris":{"android":"levelo://app?vid=3b5bd19b-dd6b-4988-97c8-672f40417216","ios":"levelo://app?vid=3b5bd19b-dd6b-4988-97c8-672f40417216"},"vehicle_type_id":"4","last_reported":1748459296,"current_range_meters":10800,"station_id":"ce4bh2p2rcd13ifvqdi0","pricing_plan_id":"cebpf4jnsgd1na2vs0mg"},{"bike_id":"20795f93-dfcb-4d17-a396-e3027ac3fe8f","system_id":"levelo_inurba_marseille","lat":43.28692,"lon":5.37405,"is_reserved":false,"is_disabled":false,"rental_uris":{"android":"levelo://app?vid=20795f93-dfcb-4d17-a396-e3027ac3fe8f","ios":"levelo://app?vid=20795f93-dfcb-4d17-a396-e3027ac3fe8f"},"vehicle_type_id":"4","last_reported":1748459296,"current_range_meters":10800,"station_id":"ce4bh3p2rcd13ifvqdq0","pricing_plan_id":"cebpf4jnsgd1na2vs0mg"},{"bike_id":"11ab2fe2-df1c-4f5e-8061-3a7e90502bf7","system_id":"levelo_inurba_marseille","lat":43.26032,"lon":5.37546,"is_reserved":false,"is_disabled":false,"rental_uris":{"android":"levelo://app?vid=11ab2fe2-df1c-4f5e-8061-3a7e90502bf7","ios":"levelo://app?vid=11ab2fe2-df1c-4f5e-8061-3a7e90502bf7"},"vehicle_type_id":"4","last_reported":1748459296,"current_range_meters":10800,"station_id":"ce4bhgh2rcd13ifvqfa0","pricing_plan_id":"cebpf4jnsgd1na2vs0mg"},{"bike_id":"6aee7286-7c1c-4b5f-a14b-2b7840021176","system_id":"levelo_inurba_marseille","lat":43.27181,"lon":5.409935,"is_reserved":false,"is_disabled":false,"rental_uris":{"android":"levelo://app?vid=6aee7286-7c1c-4b5f-a14b-2b7840021176","ios":"levelo://app?vid=6aee7286-7c1c-4b5f-a14b-2b7840021176"},"vehicle_type_id":"4","last_reported":1748459296,"current_range_meters":10800,"station_id":"ce4bhl12rcd13ifvqgf0","pricing_plan_id":"cebpf4jnsgd1na2vs0mg"},{"bike_id":"7419398a-1cb4-45a5-8e82-5774bd3cd87a","system_id":"levelo_inurba_marseille","lat":43.28162,"lon":5.42631,"is_reserved":false,"is_disabled":false,"rental_uris":{"android":"levelo://app?vid=7419398a-1cb4-45a5-8e82-5774bd3cd87a","ios":"levelo://app?vid=7419398a-1cb4-45a5-8e82-5774bd3cd87a"},"vehicle_type_id":"4","last_reported":1748459296,"current_range_meters":10800,"station_id":"ce4bhnh2rcd13ifvqgug","pricing_plan_id":"cebpf4jnsgd1na2vs0mg"},{"bike_id":"3b3f20fb-be76-498a-a9f5-ae1aa0fc1802","system_id":"levelo_inurba_marseille","lat":43.27998,"lon":5.41668,"is_reserved":false,"is_disabled":false,"rental_uris":{"android":"levelo://app?vid=3b3f20fb-be76-498a-a9f5-ae1aa0fc1802","ios":"levelo://app?vid=3b3f20fb-be76-498a-a9f5-ae1aa0fc1802"},"vehicle_type_id":"4","last_reported":1748459296,"current_range_meters":10800,"station_id":"ce4bho12rcd13ifvqh1g","pricing_plan_id":"cebpf4jnsgd1na2vs0mg"},{"bike_id":"837ac862-978b-4d2d-bdcc-6ef41a6f0938","system_id":"levelo_inurba_marseille","lat":43.31725,"lon":5.43703,"is_reserved":false,"is_disabled":false,"rental_uris":{"android":"levelo://app?vid=837ac862-978b-4d2d-bdcc-6ef41a6f0938","ios":"levelo://app?vid=837ac862-978b-4d2d-bdcc-6ef41a6f0938"},"vehicle_type_id":"4","last_reported":1748459296,"current_range_meters":10800,"station_id":"ce4bhp92rcd13ifvqhcg","pricing_plan_id":"cebpf4jnsgd1na2vs0mg"},{"bike_id":"1839a72b-1f19-439f-ba17-e7974ed596b4","system_id":"levelo_inurba_marseille","lat":43.321047,"lon":5.374607,"is_reserved":false,"is_disabled":false,"rental_uris":{"android":"levelo://app?vid=1839a72b-1f19-439f-ba17-e7974ed596b4","ios":"levelo://app?vid=1839a72b-1f19-439f-ba17-e7974ed596b4"},"vehicle_type_id":"4","last_reported":1748459296,"current_range_meters":11200,"station_id":"","pricing_plan_id":"cebpf4jnsgd1na2vs0mg"},{"bike_id":"e96e6ad8-66a5-4a74-9b8a-04311f0e6684","system_id":"levelo_inurba_marseille","lat":43.33106,"lon":5.38942,"is_reserved":false,"is_disabled":false,"rental_uris":{"android":"levelo://app?vid=e96e6ad8-66a5-4a74-9b8a-04311f0e6684","ios":"levelo://app?vid=e96e6ad8-66a5-4a74-9b8a-04311f0e6684"},"vehicle_type_id":"4","last_reported":1748459296,"current_range_meters":11200,"station_id":"","pricing_plan_id":"cebpf4jnsgd1na2vs0mg"},{"bike_id":"c5ac32fc-82fe-4e95-b47f-5cc966c79b1b","system_id":"levelo_inurba_marseille","lat":43.29262,"lon":5.37619,"is_reserved":false,"is_disabled":false,"rental_uris":{"android":"levelo://app?vid=c5ac32fc-82fe-4e95-b47f-5cc966c79b1b","ios":"levelo://app?vid=c5ac32fc-82fe-4e95-b47f-5cc966c79b1b"},"vehicle_type_id":"4","last_reported":1748459296,"current_range_meters":11200,"station_id":"ce4bgi12rcd13ifvqb80","pricing_plan_id":"cebpf4jnsgd1na2vs0mg"},{"bike_id":"fb931f6a-304b-4bad-83c2-3e5599a0df6a","system_id":"levelo_inurba_marseille","lat":43.27615,"lon":5.36108,"is_reserved":false,"is_disabled":false,"rental_uris":{"android":"levelo://app?vid=fb931f6a-304b-4bad-83c2-3e5599a0df6a","ios":"levelo://app?vid=fb931f6a-304b-4bad-83c2-3e5599a0df6a"},"vehicle_type_id":"4","last_reported":1748459296,"current_range_meters":11200,"station_id":"ce4bgj92rcd13ifvqbe0","pricing_plan_id":"cebpf4jnsgd1na2vs0mg"},{"bike_id":"ed9245da-038d-4c66-b513-71b78c399013","system_id":"levelo_inurba_marseille","lat":43.297179,"lon":5.371555,"is_reserved":false,"is_disabled":false,"rental_uris":{"android":"levelo://app?vid=ed9245da-038d-4c66-b513-71b78c399013","ios":"levelo://app?vid=ed9245da-038d-4c66-b513-71b78c399013"},"vehicle_type_id":"4","last_reported":1748459296,"current_range_meters":11200,"station_id":"ce4bgop2rcd13ifvqc1g","pricing_plan_id":"cebpf4jnsgd1na2vs0mg"},{"bike_id":"08fbb7f0-10de-4946-a42f-890babd1b26f","system_id":"levelo_inurba_marseille","lat":43.27373,"lon":5.36265,"is_reserved":false,"is_disabled":false,"rental_uris":{"android":"levelo://app?vid=08fbb7f0-10de-4946-a42f-890babd1b26f","ios":"levelo://app?vid=08fbb7f0-10de-4946-a42f-890babd1b26f"},"vehicle_type_id":"4","last_reported":1748459296,"current_range_meters":11200,"station_id":"ce4bhbh2rcd13ifvqeo0","pricing_plan_id":"cebpf4jnsgd1na2vs0mg"},{"bike_id":"9b0a719a-fbc0-4a5e-9037-c71f34fab866","system_id":"levelo_inurba_marseille","lat":43.28408,"lon":5.34998,"is_reserved":false,"is_disabled":false,"rental_uris":{"android":"levelo://app?vid=9b0a719a-fbc0-4a5e-9037-c71f34fab866","ios":"levelo://app?vid=9b0a719a-fbc0-4a5e-9037-c71f34fab866"},"vehicle_type_id":"4","last_reported":1748459296,"current_range_meters":11200,"station_id":"ce4bhbh2rcd13ifvqepg","pricing_plan_id":"cebpf4jnsgd1na2vs0mg"},{"bike_id":"fb5cb7d3-3e6b-42c4-ad78-4b08ae5b79cd","system_id":"levelo_inurba_marseille","lat":43.30783,"lon":5.37641,"is_reserved":false,"is_disabled":false,"rental_uris":{"android":"levelo://app?vid=fb5cb7d3-3e6b-42c4-ad78-4b08ae5b79cd","ios":"levelo://app?vid=fb5cb7d3-3e6b-42c4-ad78-4b08ae5b79cd"},"vehicle_type_id":"4","last_reported":1748459296,"current_range_meters":11600,"station_id":"ce4bgv92rcd13ifvqcq0","pricing_plan_id":"cebpf4jnsgd1na2vs0mg"},{"bike_id":"dbc2d826-ab10-4ece-8977-afcfa5ef6cb5","system_id":"levelo_inurba_marseille","lat":43.301754,"lon":5.398296,"is_reserved":false,"is_disabled":false,"rental_uris":{"android":"levelo://app?vid=dbc2d826-ab10-4ece-8977-afcfa5ef6cb5","ios":"levelo://app?vid=dbc2d826-ab10-4ece-8977-afcfa5ef6cb5"},"vehicle_type_id":"4","last_reported":1748459296,"current_range_meters":11600,"station_id":"ce4bh0h2rcd13ifvqd40","pricing_plan_id":"cebpf4jnsgd1na2vs0mg"},{"bike_id":"953cb66f-16d3-44c1-aa5b-cad26cd157dd","system_id":"levelo_inurba_marseille","lat":43.28489,"lon":5.38414,"is_reserved":false,"is_disabled":false,"rental_uris":{"android":"levelo://app?vid=953cb66f-16d3-44c1-aa5b-cad26cd157dd","ios":"levelo://app?vid=953cb66f-16d3-44c1-aa5b-cad26cd157dd"},"vehicle_type_id":"4","last_reported":1748459296,"current_range_meters":11600,"station_id":"ce4bh512rcd13ifvqe3g","pricing_plan_id":"cebpf4jnsgd1na2vs0mg"},{"bike_id":"9694985b-b61b-4b80-be16-7f1c7436c556","system_id":"levelo_inurba_marseille","lat":43.280422,"lon":5.369392,"is_reserved":false,"is_disabled":false,"rental_uris":{"android":"levelo://app?vid=9694985b-b61b-4b80-be16-7f1c7436c556","ios":"levelo://app?vid=9694985b-b61b-4b80-be16-7f1c7436c556"},"vehicle_type_id":"4","last_reported":1748459296,"current_range_meters":11600,"station_id":"ce4bha12rcd13ifvqef0","pricing_plan_id":"cebpf4jnsgd1na2vs0mg"},{"bike_id":"6a872200-9528-4d81-9c60-e245d2d18c19","system_id":"levelo_inurba_marseille","lat":43.29212,"lon":5.35782,"is_reserved":false,"is_disabled":false,"rental_uris":{"android":"levelo://app?vid=6a872200-9528-4d81-9c60-e245d2d18c19","ios":"levelo://app?vid=6a872200-9528-4d81-9c60-e245d2d18c19"},"vehicle_type_id":"4","last_reported":1748459296,"current_range_meters":11600,"station_id":"ce4bhb12rcd13ifvqel0","pricing_plan_id":"cebpf4jnsgd1na2vs0mg"},{"bike_id":"e2f7547e-35f8-4741-8a07-3cbd7dda6653","system_id":"levelo_inurba_marseille","lat":43.27418,"lon":5.39414,"is_reserved":false,"is_disabled":false,"rental_uris":{"android":"levelo://app?vid=e2f7547e-35f8-4741-8a07-3cbd7dda6653","ios":"levelo://app?vid=e2f7547e-35f8-4741-8a07-3cbd7dda6653"},"vehicle_type_id":"4","last_reported":1748459296,"current_range_meters":11600,"station_id":"ce4bhdp2rcd13ifvqf20","pricing_plan_id":"cebpf4jnsgd1na2vs0mg"},{"bike_id":"db46cd93-68ce-4316-819a-93bc3d72015d","system_id":"levelo_inurba_marseille","lat":43.24804,"lon":5.37453,"is_reserved":false,"is_disabled":false,"rental_uris":{"android":"levelo://app?vid=db46cd93-68ce-4316-819a-93bc3d72015d","ios":"levelo://app?vid=db46cd93-68ce-4316-819a-93bc3d72015d"},"vehicle_type_id":"4","last_reported":1748459296,"current_range_meters":11600,"station_id":"ce4bhgh2rcd13ifvqfb0","pricing_plan_id":"cebpf4jnsgd1na2vs0mg"},{"bike_id":"87bbad0c-8c28-481d-9de5-144650e2492b","system_id":"levelo_inurba_marseille","lat":43.24804,"lon":5.37457,"is_reserved":false,"is_disabled":false,"rental_uris":{"android":"levelo://app?vid=87bbad0c-8c28-481d-9de5-144650e2492b","ios":"levelo://app?vid=87bbad0c-8c28-481d-9de5-144650e2492b"},"vehicle_type_id":"4","last_reported":1748459296,"current_range_meters":11600,"station_id":"ce4bhgh2rcd13ifvqfb0","pricing_plan_id":"cebpf4jnsgd1na2vs0mg"},{"bike_id":"679d0ead-eaa5-4016-b3f6-1e81437d12c1","system_id":"levelo_inurba_marseille","lat":43.26195,"lon":5.37448,"is_reserved":false,"is_disabled":false,"rental_uris":{"android":"levelo://app?vid=679d0ead-eaa5-4016-b3f6-1e81437d12c1","ios":"levelo://app?vid=679d0ead-eaa5-4016-b3f6-1e81437d12c1"},"vehicle_type_id":"4","last_reported":1748459296,"current_range_meters":11600,"station_id":"ce4bhgp2rcd13ifvqfc0","pricing_plan_id":"cebpf4jnsgd1na2vs0mg"},{"bike_id":"8834029b-4502-4512-8258-af488f553cc1","system_id":"levelo_inurba_marseille","lat":43.30353,"lon":5.41884,"is_reserved":false,"is_disabled":false,"rental_uris":{"android":"levelo://app?vid=8834029b-4502-4512-8258-af488f553cc1","ios":"levelo://app?vid=8834029b-4502-4512-8258-af488f553cc1"},"vehicle_type_id":"4","last_reported":1748459296,"current_range_meters":11600,"station_id":"ce4bhop2rcd13ifvqh7g","pricing_plan_id":"cebpf4jnsgd1na2vs0mg"},{"bike_id":"96bf7d08-63e4-41b5-823b-055035469b02","system_id":"levelo_inurba_marseille","lat":43.29525,"lon":5.38555,"is_reserved":false,"is_disabled":false,"rental_uris":{"android":"levelo://app?vid=96bf7d08-63e4-41b5-823b-055035469b02","ios":"levelo://app?vid=96bf7d08-63e4-41b5-823b-055035469b02"},"vehicle_type_id":"4","last_reported":1748459296,"current_range_meters":12000,"station_id":"ce4bgih2rcd13ifvqba0","pricing_plan_id":"cebpf4jnsgd1na2vs0mg"},{"bike_id":"822960ae-ba2e-467f-a019-a397774bc155","system_id":"levelo_inurba_marseille","lat":43.29849,"lon":5.36287,"is_reserved":false,"is_disabled":false,"rental_uris":{"android":"levelo://app?vid=822960ae-ba2e-467f-a019-a397774bc155","ios":"levelo://app?vid=822960ae-ba2e-467f-a019-a397774bc155"},"vehicle_type_id":"4","last_reported":1748459296,"current_range_meters":12000,"station_id":"ce4bgpp2rcd13ifvqc3g","pricing_plan_id":"cebpf4jnsgd1na2vs0mg"},{"bike_id":"de4c7a57-cd66-4344-9f46-78dd9316c737","system_id":"levelo_inurba_marseille","lat":43.30311,"lon":5.3689,"is_reserved":false,"is_disabled":false,"rental_uris":{"android":"levelo://app?vid=de4c7a57-cd66-4344-9f46-78dd9316c737","ios":"levelo://app?vid=de4c7a57-cd66-4344-9f46-78dd9316c737"},"vehicle_type_id":"4","last_reported":1748459296,"current_range_meters":12000,"station_id":"ce4bgqh2rcd13ifvqc5g","pricing_plan_id":"cebpf4jnsgd1na2vs0mg"},{"bike_id":"211b493d-c6c4-4f1c-931c-fe33ba84eaf6","system_id":"levelo_inurba_marseille","lat":43.29979,"lon":5.37173,"is_reserved":false,"is_disabled":false,"rental_uris":{"android":"levelo://app?vid=211b493d-c6c4-4f1c-931c-fe33ba84eaf6","ios":"levelo://app?vid=211b493d-c6c4-4f1c-931c-fe33ba84eaf6"},"vehicle_type_id":"4","last_reported":1748459296,"current_range_meters":12000,"station_id":"ce4bgr92rcd13ifvqc7g","pricing_plan_id":"cebpf4jnsgd1na2vs0mg"},{"bike_id":"91ecf413-d538-4f57-91d3-0aafadc9f081","system_id":"levelo_inurba_marseille","lat":43.31065,"lon":5.38354,"is_reserved":false,"is_disabled":false,"rental_uris":{"android":"levelo://app?vid=91ecf413-d538-4f57-91d3-0aafadc9f081","ios":"levelo://app?vid=91ecf413-d538-4f57-91d3-0aafadc9f081"},"vehicle_type_id":"4","last_reported":1748459296,"current_range_meters":12000,"station_id":"ce4bgv92rcd13ifvqcr0","pricing_plan_id":"cebpf4jnsgd1na2vs0mg"},{"bike_id":"1aa239ac-1011-49f7-adfd-feb01c1694e9","system_id":"levelo_inurba_marseille","lat":43.281,"lon":5.3785,"is_reserved":false,"is_disabled":false,"rental_uris":{"android":"levelo://app?vid=1aa239ac-1011-49f7-adfd-feb01c1694e9","ios":"levelo://app?vid=1aa239ac-1011-49f7-adfd-feb01c1694e9"},"vehicle_type_id":"4","last_reported":1748459296,"current_range_meters":12000,"station_id":"ce4bha12rcd13ifvqee0","pricing_plan_id":"cebpf4jnsgd1na2vs0mg"},{"bike_id":"13eec829-92f1-4978-8a34-4b4a9d46e5b0","system_id":"levelo_inurba_marseille","lat":43.29173,"lon":5.37152,"is_reserved":false,"is_disabled":false,"rental_uris":{"android":"levelo://app?vid=13eec829-92f1-4978-8a34-4b4a9d46e5b0","ios":"levelo://app?vid=13eec829-92f1-4978-8a34-4b4a9d46e5b0"},"vehicle_type_id":"4","last_reported":1748459296,"current_range_meters":12000,"station_id":"ce4bha92rcd13ifvqeh0","pricing_plan_id":"cebpf4jnsgd1na2vs0mg"},{"bike_id":"937b6a41-4fcc-4603-9b71-4509d813758a","system_id":"levelo_inurba_marseille","lat":43.29002,"lon":5.3561,"is_reserved":false,"is_disabled":false,"rental_uris":{"android":"levelo://app?vid=937b6a41-4fcc-4603-9b71-4509d813758a","ios":"levelo://app?vid=937b6a41-4fcc-4603-9b71-4509d813758a"},"vehicle_type_id":"4","last_reported":1748459296,"current_range_meters":12000,"station_id":"ce4bhb92rcd13ifvqen0","pricing_plan_id":"cebpf4jnsgd1na2vs0mg"},{"bike_id":"c791b162-f969-4a54-9010-7bbc6e180952","system_id":"levelo_inurba_marseille","lat":43.24807,"lon":5.37455,"is_reserved":false,"is_disabled":false,"rental_uris":{"android":"levelo://app?vid=c791b162-f969-4a54-9010-7bbc6e180952","ios":"levelo://app?vid=c791b162-f969-4a54-9010-7bbc6e180952"},"vehicle_type_id":"4","last_reported":1748459296,"current_range_meters":12000,"station_id":"ce4bhgh2rcd13ifvqfb0","pricing_plan_id":"cebpf4jnsgd1na2vs0mg"},{"bike_id":"64e5c2ca-717e-42c7-8a4e-0713f2e46edd","system_id":"levelo_inurba_marseille","lat":43.26194,"lon":5.37449,"is_reserved":false,"is_disabled":false,"rental_uris":{"android":"levelo://app?vid=64e5c2ca-717e-42c7-8a4e-0713f2e46edd","ios":"levelo://app?vid=64e5c2ca-717e-42c7-8a4e-0713f2e46edd"},"vehicle_type_id":"4","last_reported":1748459296,"current_range_meters":12000,"station_id":"ce4bhgp2rcd13ifvqfc0","pricing_plan_id":"cebpf4jnsgd1na2vs0mg"},{"bike_id":"6745d7ff-caca-4ef7-8f29-1ea1839be33a","system_id":"levelo_inurba_marseille","lat":43.26063,"lon":5.39398,"is_reserved":false,"is_disabled":false,"rental_uris":{"android":"levelo://app?vid=6745d7ff-caca-4ef7-8f29-1ea1839be33a","ios":"levelo://app?vid=6745d7ff-caca-4ef7-8f29-1ea1839be33a"},"vehicle_type_id":"4","last_reported":1748459296,"current_range_meters":12000,"station_id":"ce4bhh92rcd13ifvqfj0","pricing_plan_id":"cebpf4jnsgd1na2vs0mg"},{"bike_id":"cb911723-b6d6-4804-99d8-269c143285b3","system_id":"levelo_inurba_marseille","lat":43.32481,"lon":5.36568,"is_reserved":false,"is_disabled":false,"rental_uris":{"android":"levelo://app?vid=cb911723-b6d6-4804-99d8-269c143285b3","ios":"levelo://app?vid=cb911723-b6d6-4804-99d8-269c143285b3"},"vehicle_type_id":"4","last_reported":1748459296,"current_range_meters":12000,"station_id":"ce4bhs12rcd13ifvqhvg","pricing_plan_id":"cebpf4jnsgd1na2vs0mg"},{"bike_id":"22771043-09b1-43eb-91e0-5c845144e1e3","system_id":"levelo_inurba_marseille","lat":43.277123,"lon":5.40875,"is_reserved":false,"is_disabled":false,"rental_uris":{"android":"levelo://app?vid=22771043-09b1-43eb-91e0-5c845144e1e3","ios":"levelo://app?vid=22771043-09b1-43eb-91e0-5c845144e1e3"},"vehicle_type_id":"4","last_reported":1748459296,"current_range_meters":12400,"station_id":"","pricing_plan_id":"cebpf4jnsgd1na2vs0mg"},{"bike_id":"a7b28dad-b0e3-4373-84c9-ca1db05de1f6","system_id":"levelo_inurba_marseille","lat":43.29998,"lon":5.38358,"is_reserved":false,"is_disabled":false,"rental_uris":{"android":"levelo://app?vid=a7b28dad-b0e3-4373-84c9-ca1db05de1f6","ios":"levelo://app?vid=a7b28dad-b0e3-4373-84c9-ca1db05de1f6"},"vehicle_type_id":"4","last_reported":1748459296,"current_range_meters":12400,"station_id":"","pricing_plan_id":"cebpf4jnsgd1na2vs0mg"},{"bike_id":"5a46920f-ef8b-4243-ad77-7692d40d4f21","system_id":"levelo_inurba_marseille","lat":43.3175,"lon":5.38759,"is_reserved":false,"is_disabled":false,"rental_uris":{"android":"levelo://app?vid=5a46920f-ef8b-4243-ad77-7692d40d4f21","ios":"levelo://app?vid=5a46920f-ef8b-4243-ad77-7692d40d4f21"},"vehicle_type_id":"4","last_reported":1748459296,"current_range_meters":12400,"station_id":"","pricing_plan_id":"cebpf4jnsgd1na2vs0mg"},{"bike_id":"203d9fff-2787-45ee-a396-adf32bde599c","system_id":"levelo_inurba_marseille","lat":43.31363,"lon":5.38496,"is_reserved":false,"is_disabled":false,"rental_uris":{"android":"levelo://app?vid=203d9fff-2787-45ee-a396-adf32bde599c","ios":"levelo://app?vid=203d9fff-2787-45ee-a396-adf32bde599c"},"vehicle_type_id":"4","last_reported":1748459296,"current_range_meters":12400,"station_id":"ce4bgt92rcd13ifvqcf0","pricing_plan_id":"cebpf4jnsgd1na2vs0mg"},{"bike_id":"640ab82b-53f0-4a38-866a-52d0678e2c7f","system_id":"levelo_inurba_marseille","lat":43.28025,"lon":5.369439,"is_reserved":false,"is_disabled":false,"rental_uris":{"android":"levelo://app?vid=640ab82b-53f0-4a38-866a-52d0678e2c7f","ios":"levelo://app?vid=640ab82b-53f0-4a38-866a-52d0678e2c7f"},"vehicle_type_id":"4","last_reported":1748459296,"current_range_meters":12400,"station_id":"ce4bha12rcd13ifvqef0","pricing_plan_id":"cebpf4jnsgd1na2vs0mg"},{"bike_id":"847031ec-c235-4f90-8158-8e4eae043a67","system_id":"levelo_inurba_marseille","lat":43.28934,"lon":5.36644,"is_reserved":false,"is_disabled":false,"rental_uris":{"android":"levelo://app?vid=847031ec-c235-4f90-8158-8e4eae043a67","ios":"levelo://app?vid=847031ec-c235-4f90-8158-8e4eae043a67"},"vehicle_type_id":"4","last_reported":1748459296,"current_range_meters":12400,"station_id":"ce4bhap2rcd13ifvqek0","pricing_plan_id":"cebpf4jnsgd1na2vs0mg"},{"bike_id":"7e21b4c5-84e6-49b9-999a-4fa6883be7c5","system_id":"levelo_inurba_marseille","lat":43.28409,"lon":5.34998,"is_reserved":false,"is_disabled":false,"rental_uris":{"android":"levelo://app?vid=7e21b4c5-84e6-49b9-999a-4fa6883be7c5","ios":"levelo://app?vid=7e21b4c5-84e6-49b9-999a-4fa6883be7c5"},"vehicle_type_id":"4","last_reported":1748459296,"current_range_meters":12400,"station_id":"ce4bhbh2rcd13ifvqepg","pricing_plan_id":"cebpf4jnsgd1na2vs0mg"},{"bike_id":"25c8e570-5052-40c4-b2f0-e69c7dc4b204","system_id":"levelo_inurba_marseille","lat":43.2618,"lon":5.37457,"is_reserved":false,"is_disabled":false,"rental_uris":{"android":"levelo://app?vid=25c8e570-5052-40c4-b2f0-e69c7dc4b204","ios":"levelo://app?vid=25c8e570-5052-40c4-b2f0-e69c7dc4b204"},"vehicle_type_id":"4","last_reported":1748459296,"current_range_meters":12400,"station_id":"ce4bhgp2rcd13ifvqfc0","pricing_plan_id":"cebpf4jnsgd1na2vs0mg"},{"bike_id":"74f96497-4ea7-4f20-a758-6670f8051604","system_id":"levelo_inurba_marseille","lat":43.24387,"lon":5.37061,"is_reserved":false,"is_disabled":false,"rental_uris":{"android":"levelo://app?vid=74f96497-4ea7-4f20-a758-6670f8051604","ios":"levelo://app?vid=74f96497-4ea7-4f20-a758-6670f8051604"},"vehicle_type_id":"4","last_reported":1748459296,"current_range_meters":12400,"station_id":"ce4bhhh2rcd13ifvqfk0","pricing_plan_id":"cebpf4jnsgd1na2vs0mg"},{"bike_id":"47f55a1f-8588-4781-bc30-f75474d90e6f","system_id":"levelo_inurba_marseille","lat":43.24179,"lon":5.3973,"is_reserved":false,"is_disabled":false,"rental_uris":{"android":"levelo://app?vid=47f55a1f-8588-4781-bc30-f75474d90e6f","ios":"levelo://app?vid=47f55a1f-8588-4781-bc30-f75474d90e6f"},