{"last_updated":1721067051,"ttl":30,"version":"2.2","data":{"bikes":[{"bike_id":"c5e1d7cf-b6bb-49c5-9981-170ad4231185","system_id":"levelo_inurba_marseille","lat":43.309039,"lon":5.371797,"is_reserved":false,"is_disabled":false,"rental_uris":{"android":"levelo://app?vid=c5e1d7cf-b6bb-49c5-9981-170ad4231185","ios":"levelo://app?vid=c5e1d7cf-b6bb-49c5-9981-170ad4231185"},"vehicle_type_id":"4","last_reported":1721067051,"current_range_meters":18400,"station_id":"ce4bguh2rcd13ifvqckg","pricing_plan_id":"cebpf4jnsgd1na2vs0mg"},{"bike_id":"55ede12d-573a-4e14-87fd-417a7a41a511","system_id":"levelo_inurba_marseille","lat":43.309034,"lon":5.371783,"is_reserved":false,"is_disabled":false,"rental_uris":{"android":"levelo://app?vid=55ede12d-573a-4e14-87fd-417a7a41a511","ios":"levelo://app?vid=55ede12d-573a-4e14-87fd-417a7a41a511"},"vehicle_type_id":"4","last_reported":1721067051,"current_range_meters":11600,"station_id":"ce4bguh2rcd13ifvqckg","pricing_plan_id":"cebpf4jnsgd1na2vs0mg"},{"bike_id":"be2f3df2-39ce-42ec-843b-69614c21e2e2","system_id":"levelo_inurba_marseille","lat":43.30545,"lon":5.36531,"is_reserved":false,"is_disabled":false,"rental_uris":{"android":"levelo://app?vid=be2f3df2-39ce-42ec-843b-69614c21e2e2","ios":"levelo://app?vid=be2f3df2-39ce-42ec-843b-69614c21e2e2"},"vehicle_type_id":"4","last_reported":1721067051,"current_range_meters":0,"station_id":"ce4bgs12rcd13ifvqcag","pricing_plan_id":"cebpf4jnsgd1na2vs0mg"},{"bike_id":"f7602281-9359-41bf-82ef-8862b7a7923b","system_id":"levelo_inurba_marseille","lat":43.305368,"lon":5.367343,"is_reserved":false,"is_disabled":false,"rental_uris":{"android":"levelo://app?vid=f7602281-9359-41bf-82ef-8862b7a7923b","ios":"levelo://app?vid=f7602281-9359-41bf-82ef-8862b7a7923b"},"vehicle_type_id":"4","last_reported":1721067051,"current_range_meters":5200,"station_id":"ce4bgrp2rcd13ifvqc9g","pricing_plan_id":"cebpf4jnsgd1na2vs0mg"},{"bike_id":"1c217698-4dba-47f5-9ae8-8c4f97b9f6cf","system_id":"levelo_inurba_marseille","lat":43.30611,"lon":5.372316,"is_reserved":false,"is_disabled":false,"rental_uris":{"android":"levelo://app?vid=1c217698-4dba-47f5-9ae8-8c4f97b9f6cf","ios":"levelo://app?vid=1c217698-4dba-47f5-9ae8-8c4f97b9f6cf"},"vehicle_type_id":"4","last_reported":1721067051,"current_range_meters":21600,"station_id":"ce4bgqh2rcd13ifvqc4g","pricing_plan_id":"cebpf4jnsgd1na2vs0mg"},{"bike_id":"996a37d3-ab01-4e1a-9d5b-2c8d2af3a8f4","system_id":"levelo_inurba_marseille","lat":43.305989,"lon":5.37225,"is_reserved":false,"is_disabled":false,"rental_uris":{"android":"levelo://app?vid=996a37d3-ab01-4e1a-9d5b-2c8d2af3a8f4","ios":"levelo://app?vid=996a37d3-ab01-4e1a-9d5b-2c8d2af3a8f4"},"vehicle_type_id":"4","last_reported":1721067051,"current_range_meters":10800,"station_id":"ce4bgqh2rcd13ifvqc4g","pricing_plan_id":"cebpf4jnsgd1na2vs0mg"},{"bike_id":"fe4fa233-aa41-4534-9403-5f356218baaf","system_id":"levelo_inurba_marseille","lat":43.305989,"lon":5.37225,"is_reserved":false,"is_disabled":false,"rental_uris":{"android":"levelo://app?vid=fe4fa233-aa41-4534-9403-5f356218baaf","ios":"levelo://app?vid=fe4fa233-aa41-4534-9403-5f356218baaf"},"vehicle_type_id":"4","last_reported":1721067051,"current_range_meters":17600,"station_id":"ce4bgqh2rcd13ifvqc4g","pricing_plan_id":"cebpf4jnsgd1na2vs0mg"},{"bike_id":"adef29c9-92dd-4662-bdfa-d538a2eb0be8","system_id":"levelo_inurba_marseille","lat":43.311125,"lon":5.377624,"is_reserved":false,"is_disabled":false,"rental_uris":{"android":"levelo://app?vid=adef29c9-92dd-4662-bdfa-d538a2eb0be8","ios":"levelo://app?vid=adef29c9-92dd-4662-bdfa-d538a2eb0be8"},"vehicle_type_id":"4","last_reported":1721067051,"current_range_meters":0,"station_id":"ce4bgt92rcd13ifvqcg0","pricing_plan_id":"cebpf4jnsgd1na2vs0mg"},{"bike_id":"012cfb6c-2bf2-4a7d-a7e8-7cfc399f8553","system_id":"levelo_inurba_marseille","lat":43.317075,"lon":5.377367,"is_reserved":false,"is_disabled":false,"rental_uris":{"android":"levelo://app?vid=012cfb6c-2bf2-4a7d-a7e8-7cfc399f8553","ios":"levelo://app?vid=012cfb6c-2bf2-4a7d-a7e8-7cfc399f8553"},"vehicle_type_id":"4","last_reported":1721067051,"current_range_meters":14400,"station_id":"ce4bgth2rcd13ifvqch0","pricing_plan_id":"cebpf4jnsgd1na2vs0mg"},{"bike_id":"c28e5296-f3d7-4d1f-9f5b-e6934600d333","system_id":"levelo_inurba_marseille","lat":43.317075,"lon":5.377367,"is_reserved":false,"is_disabled":false,"rental_uris":{"android":"levelo://app?vid=c28e5296-f3d7-4d1f-9f5b-e6934600d333","ios":"levelo://app?vid=c28e5296-f3d7-4d1f-9f5b-e6934600d333"},"vehicle_type_id":"4","last_reported":1721067051,"current_range_meters":13200,"station_id":"ce4bgth2rcd13ifvqch0","pricing_plan_id":"cebpf4jnsgd1na2vs0mg"},{"bike_id":"9fc92b80-6764-4f0e-885b-2ead3479c7fe","system_id":"levelo_inurba_marseille","lat":43.317075,"lon":5.377367,"is_reserved":false,"is_disabled":false,"rental_uris":{"android":"levelo://app?vid=9fc92b80-6764-4f0e-885b-2ead3479c7fe","ios":"levelo://app?vid=9fc92b80-6764-4f0e-885b-2ead3479c7fe"},"vehicle_type_id":"4","last_reported":1721067051,"current_range_meters":22800,"station_id":"ce4bgth2rcd13ifvqch0","pricing_plan_id":"cebpf4jnsgd1na2vs0mg"},{"bike_id":"7246147b-f160-42e2-9030-c9addfa45e7f","system_id":"levelo_inurba_marseille","lat":43.30304,"lon":5.368987,"is_reserved":false,"is_disabled":false,"rental_uris":{"android":"levelo://app?vid=7246147b-f160-42e2-9030-c9addfa45e7f","ios":"levelo://app?vid=7246147b-f160-42e2-9030-c9addfa45e7f"},"vehicle_type_id":"4","last_reported":1721067051,"current_range_meters":18800,"station_id":"ce4bgqh2rcd13ifvqc5g","pricing_plan_id":"cebpf4jnsgd1na2vs0mg"},{"bike_id":"22a82482-8814-4c1f-9940-f8818c991711","system_id":"levelo_inurba_marseille","lat":43.301939,"lon":5.366286,"is_reserved":false,"is_disabled":false,"rental_uris":{"android":"levelo://app?vid=22a82482-8814-4c1f-9940-f8818c991711","ios":"levelo://app?vid=22a82482-8814-4c1f-9940-f8818c991711"},"vehicle_type_id":"4","last_reported":1721067051,"current_range_meters":14000,"station_id":"ce4bgrh2rcd13ifvqc8g","pricing_plan_id":"cebpf4jnsgd1na2vs0mg"},{"bike_id":"78763668-9861-4f99-90da-c985e69c86e5","system_id":"levelo_inurba_marseille","lat":43.30801,"lon":5.38147,"is_reserved":false,"is_disabled":false,"rental_uris":{"android":"levelo://app?vid=78763668-9861-4f99-90da-c985e69c86e5","ios":"levelo://app?vid=78763668-9861-4f99-90da-c985e69c86e5"},"vehicle_type_id":"4","last_reported":1721067051,"current_range_meters":19200,"station_id":"ce4bgt12rcd13ifvqce0","pricing_plan_id":"cebpf4jnsgd1na2vs0mg"},{"bike_id":"b4b2583b-fe96-4992-b151-9c65df8a0f22","system_id":"levelo_inurba_marseille","lat":43.30805,"lon":5.38155,"is_reserved":false,"is_disabled":false,"rental_uris":{"android":"levelo://app?vid=b4b2583b-fe96-4992-b151-9c65df8a0f22","ios":"levelo://app?vid=b4b2583b-fe96-4992-b151-9c65df8a0f22"},"vehicle_type_id":"4","last_reported":1721067051,"current_range_meters":0,"station_id":"ce4bgt12rcd13ifvqce0","pricing_plan_id":"cebpf4jnsgd1na2vs0mg"},{"bike_id":"15ba9a77-d486-4121-9635-6d92f0debe24","system_id":"levelo_inurba_marseille","lat":43.308012,"lon":5.381511,"is_reserved":false,"is_disabled":false,"rental_uris":{"android":"levelo://app?vid=15ba9a77-d486-4121-9635-6d92f0debe24","ios":"levelo://app?vid=15ba9a77-d486-4121-9635-6d92f0debe24"},"vehicle_type_id":"4","last_reported":1721067051,"current_range_meters":8000,"station_id":"ce4bgt12rcd13ifvqce0","pricing_plan_id":"cebpf4jnsgd1na2vs0mg"},{"bike_id":"febbe9b3-b6a0-4364-b7b1-ba73db9af1a3","system_id":"levelo_inurba_marseille","lat":43.308012,"lon":5.381511,"is_reserved":false,"is_disabled":false,"rental_uris":{"android":"levelo://app?vid=febbe9b3-b6a0-4364-b7b1-ba73db9af1a3","ios":"levelo://app?vid=febbe9b3-b6a0-4364-b7b1-ba73db9af1a3"},"vehicle_type_id":"4","last_reported":1721067051,"current_range_meters":28400,"station_id":"ce4bgt12rcd13ifvqce0","pricing_plan_id":"cebpf4jnsgd1na2vs0mg"},{"bike_id":"d77a49d9-9e08-4ef4-b7c0-95d5f935c20d","system_id":"levelo_inurba_marseille","lat":43.32479,"lon":5.36556,"is_reserved":false,"is_disabled":false,"rental_uris":{"android":"levelo://app?vid=d77a49d9-9e08-4ef4-b7c0-95d5f935c20d","ios":"levelo://app?vid=d77a49d9-9e08-4ef4-b7c0-95d5f935c20d"},"vehicle_type_id":"4","last_reported":1721067051,"current_range_meters":0,"station_id":"ce4bhs12rcd13ifvqhvg","pricing_plan_id":"cebpf4jnsgd1na2vs0mg"},{"bike_id":"54bb3e1a-bf0f-42db-8d8c-e31200f8540a","system_id":"levelo_inurba_marseille","lat":43.32485,"lon":5.36561,"is_reserved":false,"is_disabled":false,"rental_uris":{"android":"levelo://app?vid=54bb3e1a-bf0f-42db-8d8c-e31200f8540a","ios":"levelo://app?vid=54bb3e1a-bf0f-42db-8d8c-e31200f8540a"},"vehicle_type_id":"4","last_reported":1721067051,"current_range_meters":0,"station_id":"ce4bhs12rcd13ifvqhvg","pricing_plan_id":"cebpf4jnsgd1na2vs0mg"},{"bike_id":"1eb457f2-00b3-4e95-a93c-08641e87ec28","system_id":"levelo_inurba_marseille","lat":43.324771,"lon":5.36557,"is_reserved":false,"is_disabled":false,"rental_uris":{"android":"levelo://app?vid=1eb457f2-00b3-4e95-a93c-08641e87ec28","ios":"levelo://app?vid=1eb457f2-00b3-4e95-a93c-08641e87ec28"},"vehicle_type_id":"4","last_reported":1721067051,"current_range_meters":22000,"station_id":"ce4bhs12rcd13ifvqhvg","pricing_plan_id":"cebpf4jnsgd1na2vs0mg"},{"bike_id":"ff164d84-f8fd-4c54-a6d2-1682e7aa4574","system_id":"levelo_inurba_marseille","lat":43.32491,"lon":5.36563,"is_reserved":false,"is_disabled":false,"rental_uris":{"android":"levelo://app?vid=ff164d84-f8fd-4c54-a6d2-1682e7aa4574","ios":"levelo://app?vid=ff164d84-f8fd-4c54-a6d2-1682e7aa4574"},"vehicle_type_id":"4","last_reported":1721067051,"current_range_meters":14400,"station_id":"ce4bhs12rcd13ifvqhvg","pricing_plan_id":"cebpf4jnsgd1na2vs0mg"},{"bike_id":"c27e64dd-d8ca-4636-80f4-d3c7c711ea7a","system_id":"levelo_inurba_marseille","lat":43.310804,"lon":5.38359,"is_reserved":false,"is_disabled":false,"rental_uris":{"android":"levelo://app?vid=c27e64dd-d8ca-4636-80f4-d3c7c711ea7a","ios":"levelo://app?vid=c27e64dd-d8ca-4636-80f4-d3c7c711ea7a"},"vehicle_type_id":"4","last_reported":1721067051,"current_range_meters":2400,"station_id":"ce4bgv92rcd13ifvqcr0","pricing_plan_id":"cebpf4jnsgd1na2vs0mg"},{"bike_id":"4eea9fdf-f8b9-41cf-84f2-12e9368cc6b0","system_id":"levelo_inurba_marseille","lat":43.301429,"lon":5.37413,"is_reserved":false,"is_disabled":false,"rental_uris":{"android":"levelo://app?vid=4eea9fdf-f8b9-41cf-84f2-12e9368cc6b0","ios":"levelo://app?vid=4eea9fdf-f8b9-41cf-84f2-12e9368cc6b0"},"vehicle_type_id":"4","last_reported":1721067051,"current_range_meters":2400,"station_id":"ce4bgs92rcd13ifvqcc0","pricing_plan_id":"cebpf4jnsgd1na2vs0mg"},{"bike_id":"c064cd0b-ff1c-40de-8b9d-eefd3435dcf1","system_id":"levelo_inurba_marseille","lat":43.305924,"lon":5.381825,"is_reserved":false,"is_disabled":false,"rental_uris":{"android":"levelo://app?vid=c064cd0b-ff1c-40de-8b9d-eefd3435dcf1","ios":"levelo://app?vid=c064cd0b-ff1c-40de-8b9d-eefd3435dcf1"},"vehicle_type_id":"4","last_reported":1721067051,"current_range_meters":19200,"station_id":"","pricing_plan_id":"cebpf4jnsgd1na2vs0mg"},{"bike_id":"152cc916-e3d3-477f-8e82-f56563411e73","system_id":"levelo_inurba_marseille","lat":43.313571,"lon":5.384829,"is_reserved":false,"is_disabled":false,"rental_uris":{"android":"levelo://app?vid=152cc916-e3d3-477f-8e82-f56563411e73","ios":"levelo://app?vid=152cc916-e3d3-477f-8e82-f56563411e73"},"vehicle_type_id":"4","last_reported":1721067051,"current_range_meters":5200,"station_id":"ce4bgt92rcd13ifvqcf0","pricing_plan_id":"cebpf4jnsgd1na2vs0mg"},{"bike_id":"8aebd697-aebe-4849-8f8e-f3ee6eff9ac3","system_id":"levelo_inurba_marseille","lat":43.299724,"lon":5.371829,"is_reserved":false,"is_disabled":false,"rental_uris":{"android":"levelo://app?vid=8aebd697-aebe-4849-8f8e-f3ee6eff9ac3","ios":"levelo://app?vid=8aebd697-aebe-4849-8f8e-f3ee6eff9ac3"},"vehicle_type_id":"4","last_reported":1721067051,"current_range_meters":16000,"station_id":"ce4bgr92rcd13ifvqc7g","pricing_plan_id":"cebpf4jnsgd1na2vs0mg"},{"bike_id":"97cb3f6c-ebfc-480f-ad70-1c03da1d260a","system_id":"levelo_inurba_marseille","lat":43.298433,"lon":5.362774,"is_reserved":false,"is_disabled":false,"rental_uris":{"android":"levelo://app?vid=97cb3f6c-ebfc-480f-ad70-1c03da1d260a","ios":"levelo://app?vid=97cb3f6c-ebfc-480f-ad70-1c03da1d260a"},"vehicle_type_id":"4","last_reported":1721067051,"current_range_meters":17200,"station_id":"ce4bgpp2rcd13ifvqc3g","pricing_plan_id":"cebpf4jnsgd1na2vs0mg"},{"bike_id":"6445fb4a-ab17-4db0-8bd0-c9233e1887df","system_id":"levelo_inurba_marseille","lat":43.298433,"lon":5.362774,"is_reserved":false,"is_disabled":false,"rental_uris":{"android":"levelo://app?vid=6445fb4a-ab17-4db0-8bd0-c9233e1887df","ios":"levelo://app?vid=6445fb4a-ab17-4db0-8bd0-c9233e1887df"},"vehicle_type_id":"4","last_reported":1721067051,"current_range_meters":4000,"station_id":"ce4bgpp2rcd13ifvqc3g","pricing_plan_id":"cebpf4jnsgd1na2vs0mg"},{"bike_id":"a95b976e-7afd-4972-86e3-0f09450b5872","system_id":"levelo_inurba_marseille","lat":43.305364,"lon":5.384119,"is_reserved":false,"is_disabled":false,"rental_uris":{"android":"levelo://app?vid=a95b976e-7afd-4972-86e3-0f09450b5872","ios":"levelo://app?vid=a95b976e-7afd-4972-86e3-0f09450b5872"},"vehicle_type_id":"4","last_reported":1721067051,"current_range_meters":9600,"station_id":"ce4bgg92rcd13ifvqb30","pricing_plan_id":"cebpf4jnsgd1na2vs0mg"},{"bike_id":"18d0b443-df53-4560-a8bf-a482f6d8c1c0","system_id":"levelo_inurba_marseille","lat":43.299243,"lon":5.374807,"is_reserved":false,"is_disabled":false,"rental_uris":{"android":"levelo://app?vid=18d0b443-df53-4560-a8bf-a482f6d8c1c0","ios":"levelo://app?vid=18d0b443-df53-4560-a8bf-a482f6d8c1c0"},"vehicle_type_id":"4","last_reported":1721067051,"current_range_meters":23600,"station_id":"ce4bgjh2rcd13ifvqbg0","pricing_plan_id":"cebpf4jnsgd1na2vs0mg"},{"bike_id":"1db99c46-526e-4cd6-a1c1-7b0af2b0687f","system_id":"levelo_inurba_marseille","lat":43.297794,"lon":5.370888,"is_reserved":false,"is_disabled":false,"rental_uris":{"android":"levelo://app?vid=1db99c46-526e-4cd6-a1c1-7b0af2b0687f","ios":"levelo://app?vid=1db99c46-526e-4cd6-a1c1-7b0af2b0687f"},"vehicle_type_id":"4","last_reported":1721067051,"current_range_meters":17200,"station_id":"ce4bgop2rcd13ifvqc1g","pricing_plan_id":"cebpf4jnsgd1na2vs0mg"},{"bike_id":"fa6b271c-4a75-4002-b195-2faa68d1b372","system_id":"levelo_inurba_marseille","lat":43.297774,"lon":5.370875,"is_reserved":false,"is_disabled":false,"rental_uris":{"android":"levelo://app?vid=fa6b271c-4a75-4002-b195-2faa68d1b372","ios":"levelo://app?vid=fa6b271c-4a75-4002-b195-2faa68d1b372"},"vehicle_type_id":"4","last_reported":1721067051,"current_range_meters":7200,"station_id":"ce4bgop2rcd13ifvqc1g","pricing_plan_id":"cebpf4jnsgd1na2vs0mg"},{"bike_id":"b2ba9cff-08d8-4c9f-9261-153a25129ede","system_id":"levelo_inurba_marseille","lat":43.322872,"lon":5.382756,"is_reserved":false,"is_disabled":false,"rental_uris":{"android":"levelo://app?vid=b2ba9cff-08d8-4c9f-9261-153a25129ede","ios":"levelo://app?vid=b2ba9cff-08d8-4c9f-9261-153a25129ede"},"vehicle_type_id":"4","last_reported":1721067051,"current_range_meters":30800,"station_id":"ce4bhr12rcd13ifvqhqg","pricing_plan_id":"cebpf4jnsgd1na2vs0mg"},{"bike_id":"de7668e4-21cc-4d93-a716-d56334046c5c","system_id":"levelo_inurba_marseille","lat":43.299028,"lon":5.381509,"is_reserved":false,"is_disabled":false,"rental_uris":{"android":"levelo://app?vid=de7668e4-21cc-4d93-a716-d56334046c5c","ios":"levelo://app?vid=de7668e4-21cc-4d93-a716-d56334046c5c"},"vehicle_type_id":"4","last_reported":1721067051,"current_range_meters":23600,"station_id":"ce4bgj12rcd13ifvqbc0","pricing_plan_id":"cebpf4jnsgd1na2vs0mg"},{"bike_id":"d81e2664-c08d-4888-b687-d084e4e245de","system_id":"levelo_inurba_marseille","lat":43.296921,"lon":5.376579,"is_reserved":false,"is_disabled":false,"rental_uris":{"android":"levelo://app?vid=d81e2664-c08d-4888-b687-d084e4e245de","ios":"levelo://app?vid=d81e2664-c08d-4888-b687-d084e4e245de"},"vehicle_type_id":"4","last_reported":1721067051,"current_range_meters":7600,"station_id":"ce4bgkh2rcd13ifvqbl0","pricing_plan_id":"cebpf4jnsgd1na2vs0mg"},{"bike_id":"bc493489-f2e0-4761-b590-bbb7de43ba2c","system_id":"levelo_inurba_marseille","lat":43.304274,"lon":5.388873,"is_reserved":false,"is_disabled":false,"rental_uris":{"android":"levelo://app?vid=bc493489-f2e0-4761-b590-bbb7de43ba2c","ios":"levelo://app?vid=bc493489-f2e0-4761-b590-bbb7de43ba2c"},"vehicle_type_id":"4","last_reported":1721067051,"current_range_meters":800,"station_id":"ce4bgk12rcd13ifvqbi0","pricing_plan_id":"cebpf4jnsgd1na2vs0mg"},{"bike_id":"83eb836c-2319-4a36-b401-02e418906e3c","system_id":"levelo_inurba_marseille","lat":43.29792,"lon":5.381,"is_reserved":false,"is_disabled":false,"rental_uris":{"android":"levelo://app?vid=83eb836c-2319-4a36-b401-02e418906e3c","ios":"levelo://app?vid=83eb836c-2319-4a36-b401-02e418906e3c"},"vehicle_type_id":"4","last_reported":1721067051,"current_range_meters":19600,"station_id":"ce4bgip2rcd13ifvqbb0","pricing_plan_id":"cebpf4jnsgd1na2vs0mg"},{"bike_id":"f33ce9de-6f09-48b8-bf4a-bdc1e7297218","system_id":"levelo_inurba_marseille","lat":43.296263,"lon":5.377094,"is_reserved":false,"is_disabled":false,"rental_uris":{"android":"levelo://app?vid=f33ce9de-6f09-48b8-bf4a-bdc1e7297218","ios":"levelo://app?vid=f33ce9de-6f09-48b8-bf4a-bdc1e7297218"},"vehicle_type_id":"4","last_reported":1721067051,"current_range_meters":8400,"station_id":"ce4bgi92rcd13ifvqb90","pricing_plan_id":"cebpf4jnsgd1na2vs0mg"},{"bike_id":"1d5986e3-267a-4880-993c-919d69dccaf9","system_id":"levelo_inurba_marseille","lat":43.29611,"lon":5.37724,"is_reserved":false,"is_disabled":false,"rental_uris":{"android":"levelo://app?vid=1d5986e3-267a-4880-993c-919d69dccaf9","ios":"levelo://app?vid=1d5986e3-267a-4880-993c-919d69dccaf9"},"vehicle_type_id":"4","last_reported":1721067051,"current_range_meters":4800,"station_id":"","pricing_plan_id":"cebpf4jnsgd1na2vs0mg"},{"bike_id":"0362f5d2-91dc-4204-be45-4d13882dad6e","system_id":"levelo_inurba_marseille","lat":43.295279,"lon":5.375048,"is_reserved":false,"is_disabled":false,"rental_uris":{"android":"levelo://app?vid=0362f5d2-91dc-4204-be45-4d13882dad6e","ios":"levelo://app?vid=0362f5d2-91dc-4204-be45-4d13882dad6e"},"vehicle_type_id":"4","last_reported":1721067051,"current_range_meters":0,"station_id":"ce4bgkp2rcd13ifvqbmg","pricing_plan_id":"cebpf4jnsgd1na2vs0mg"},{"bike_id":"f7154fc3-b927-4ac7-be70-af1b1ad6d512","system_id":"levelo_inurba_marseille","lat":43.299724,"lon":5.384848,"is_reserved":false,"is_disabled":false,"rental_uris":{"android":"levelo://app?vid=f7154fc3-b927-4ac7-be70-af1b1ad6d512","ios":"levelo://app?vid=f7154fc3-b927-4ac7-be70-af1b1ad6d512"},"vehicle_type_id":"4","last_reported":1721067051,"current_range_meters":26400,"station_id":"ce4bgj92rcd13ifvqbd0","pricing_plan_id":"cebpf4jnsgd1na2vs0mg"},{"bike_id":"6c31e4b4-f0d6-4d4f-88fb-ec2bdf33bb69","system_id":"levelo_inurba_marseille","lat":43.295279,"lon":5.375048,"is_reserved":false,"is_disabled":false,"rental_uris":{"android":"levelo://app?vid=6c31e4b4-f0d6-4d4f-88fb-ec2bdf33bb69","ios":"levelo://app?vid=6c31e4b4-f0d6-4d4f-88fb-ec2bdf33bb69"},"vehicle_type_id":"4","last_reported":1721067051,"current_range_meters":800,"station_id":"ce4bgkp2rcd13ifvqbmg","pricing_plan_id":"cebpf4jnsgd1na2vs0mg"},{"bike_id":"239e0100-b84f-4d5b-85c7-945abfb4d8fa","system_id":"levelo_inurba_marseille","lat":43.29553,"lon":5.37723,"is_reserved":false,"is_disabled":false,"rental_uris":{"android":"levelo://app?vid=239e0100-b84f-4d5b-85c7-945abfb4d8fa","ios":"levelo://app?vid=239e0100-b84f-4d5b-85c7-945abfb4d8fa"},"vehicle_type_id":"4","last_reported":1721067051,"current_range_meters":9200,"station_id":"","pricing_plan_id":"cebpf4jnsgd1na2vs0mg"},{"bike_id":"0b35dd1a-6af1-4f23-b5eb-e2e638e6529b","system_id":"levelo_inurba_marseille","lat":43.301396,"lon":5.387812,"is_reserved":false,"is_disabled":false,"rental_uris":{"android":"levelo://app?vid=0b35dd1a-6af1-4f23-b5eb-e2e638e6529b","ios":"levelo://app?vid=0b35dd1a-6af1-4f23-b5eb-e2e638e6529b"},"vehicle_type_id":"4","last_reported":1721067051,"current_range_meters":25600,"station_id":"ce4bghh2rcd13ifvqb60","pricing_plan_id":"cebpf4jnsgd1na2vs0mg"},{"bike_id":"b30d290e-6c80-4078-9401-05168bdd6858","system_id":"levelo_inurba_marseille","lat":43.301396,"lon":5.387812,"is_reserved":false,"is_disabled":false,"rental_uris":{"android":"levelo://app?vid=b30d290e-6c80-4078-9401-05168bdd6858","ios":"levelo://app?vid=b30d290e-6c80-4078-9401-05168bdd6858"},"vehicle_type_id":"4","last_reported":1721067051,"current_range_meters":31200,"station_id":"ce4bghh2rcd13ifvqb60","pricing_plan_id":"cebpf4jnsgd1na2vs0mg"},{"bike_id":"39741f18-00d1-4566-b763-91d6f71f569c","system_id":"levelo_inurba_marseille","lat":43.301396,"lon":5.387812,"is_reserved":false,"is_disabled":false,"rental_uris":{"android":"levelo://app?vid=39741f18-00d1-4566-b763-91d6f71f569c","ios":"levelo://app?vid=39741f18-00d1-4566-b763-91d6f71f569c"},"vehicle_type_id":"4","last_reported":1721067051,"current_range_meters":31200,"station_id":"ce4bghh2rcd13ifvqb60","pricing_plan_id":"cebpf4jnsgd1na2vs0mg"},{"bike_id":"9cece9f4-e657-465b-b1ce-741d8cfb4d69","system_id":"levelo_inurba_marseille","lat":43.311125,"lon":5.377624,"is_reserved":false,"is_disabled":false,"rental_uris":{"android":"levelo://app?vid=9cece9f4-e657-465b-b1ce-741d8cfb4d69","ios":"levelo://app?vid=9cece9f4-e657-465b-b1ce-741d8cfb4d69"},"vehicle_type_id":"4","last_reported":1721067051,"current_range_meters":22800,"station_id":"ce4bgt92rcd13ifvqcg0","pricing_plan_id":"cebpf4jnsgd1na2vs0mg"},{"bike_id":"252117f3-0fac-4d65-a562-6d0536671ad0","system_id":"levelo_inurba_marseille","lat":43.32367,"lon":5.388836,"is_reserved":false,"is_disabled":false,"rental_uris":{"android":"levelo://app?vid=252117f3-0fac-4d65-a562-6d0536671ad0","ios":"levelo://app?vid=252117f3-0fac-4d65-a562-6d0536671ad0"},"vehicle_type_id":"4","last_reported":1721067051,"current_range_meters":8800,"station_id":"ce4bhqp2rcd13ifvqhog","pricing_plan_id":"cebpf4jnsgd1na2vs0mg"},{"bike_id":"688daa3d-ca55-491b-a0cb-fab365324b6e","system_id":"levelo_inurba_marseille","lat":43.32367,"lon":5.388836,"is_reserved":false,"is_disabled":false,"rental_uris":{"android":"levelo://app?vid=688daa3d-ca55-491b-a0cb-fab365324b6e","ios":"levelo://app?vid=688daa3d-ca55-491b-a0cb-fab365324b6e"},"vehicle_type_id":"4","last_reported":1721067051,"current_range_meters":9200,"station_id":"ce4bhqp2rcd13ifvqhog","pricing_plan_id":"cebpf4jnsgd1na2vs0mg"},{"bike_id":"33aebb6c-301e-479a-a6f1-37c42ffdc389","system_id":"levelo_inurba_marseille","lat":43.32367,"lon":5.388836,"is_reserved":false,"is_disabled":false,"rental_uris":{"android":"levelo://app?vid=33aebb6c-301e-479a-a6f1-37c42ffdc389","ios":"levelo://app?vid=33aebb6c-301e-479a-a6f1-37c42ffdc389"},"vehicle_type_id":"4","last_reported":1721067051,"current_range_meters":26000,"station_id":"ce4bhqp2rcd13ifvqhog","pricing_plan_id":"cebpf4jnsgd1na2vs0mg"},{"bike_id":"d451669e-8cf6-410f-9b4a-1ac8ac4abc04","system_id":"levelo_inurba_marseille","lat":43.292749,"lon":5.368402,"is_reserved":false,"is_disabled":false,"rental_uris":{"android":"levelo://app?vid=d451669e-8cf6-410f-9b4a-1ac8ac4abc04","ios":"levelo://app?vid=d451669e-8cf6-410f-9b4a-1ac8ac4abc04"},"vehicle_type_id":"4","last_reported":1721067051,"current_range_meters":0,"station_id":"ce4bhbp2rcd13ifvqesg","pricing_plan_id":"cebpf4jnsgd1na2vs0mg"},{"bike_id":"09537b17-0dee-40a8-87ab-b02bfd542746","system_id":"levelo_inurba_marseille","lat":43.293259,"lon":5.371586,"is_reserved":false,"is_disabled":false,"rental_uris":{"android":"levelo://app?vid=09537b17-0dee-40a8-87ab-b02bfd542746","ios":"levelo://app?vid=09537b17-0dee-40a8-87ab-b02bfd542746"},"vehicle_type_id":"4","last_reported":1721067051,"current_range_meters":28800,"station_id":"ce4bgh92rcd13ifvqb40","pricing_plan_id":"cebpf4jnsgd1na2vs0mg"},{"bike_id":"230ba4eb-76d9-499d-81eb-68a354c315d8","system_id":"levelo_inurba_marseille","lat":43.293259,"lon":5.371586,"is_reserved":false,"is_disabled":false,"rental_uris":{"android":"levelo://app?vid=230ba4eb-76d9-499d-81eb-68a354c315d8","ios":"levelo://app?vid=230ba4eb-76d9-499d-81eb-68a354c315d8"},"vehicle_type_id":"4","last_reported":1721067051,"current_range_meters":0,"station_id":"ce4bgh92rcd13ifvqb40","pricing_plan_id":"cebpf4jnsgd1na2vs0mg"},{"bike_id":"1d7b07df-9a69-4943-a5fc-f79bbbffe8a3","system_id":"levelo_inurba_marseille","lat":43.273613,"lon":5.362705,"is_reserved":false,"is_disabled":false,"rental_uris":{"android":"levelo://app?vid=1d7b07df-9a69-4943-a5fc-f79bbbffe8a3","ios":"levelo://app?vid=1d7b07df-9a69-4943-a5fc-f79bbbffe8a3"},"vehicle_type_id":"4","last_reported":1721067051,"current_range_meters":4400,"station_id":"ce4bhbh2rcd13ifvqeo0","pricing_plan_id":"cebpf4jnsgd1na2vs0mg"},{"bike_id":"f4a68692-2935-4d28-a608-46dce65195a7","system_id":"levelo_inurba_marseille","lat":43.292749,"lon":5.368402,"is_reserved":false,"is_disabled":false,"rental_uris":{"android":"levelo://app?vid=f4a68692-2935-4d28-a608-46dce65195a7","ios":"levelo://app?vid=f4a68692-2935-4d28-a608-46dce65195a7"},"vehicle_type_id":"4","last_reported":1721067051,"current_range_meters":800,"station_id":"ce4bhbp2rcd13ifvqesg","pricing_plan_id":"cebpf4jnsgd1na2vs0mg"},{"bike_id":"faaeaa3d-03e2-4561-9bc6-e538bdb4e9b9","system_id":"levelo_inurba_marseille","lat":43.293024,"lon":5.374385,"is_reserved":false,"is_disabled":false,"rental_uris":{"android":"levelo://app?vid=faaeaa3d-03e2-4561-9bc6-e538bdb4e9b9","ios":"levelo://app?vid=faaeaa3d-03e2-4561-9bc6-e538bdb4e9b9"},"vehicle_type_id":"4","last_reported":1721067051,"current_range_meters":0,"station_id":"ce4bgi12rcd13ifvqb70","pricing_plan_id":"cebpf4jnsgd1na2vs0mg"},{"bike_id":"841aa063-4959-434c-b77f-22d902f3e1f5","system_id":"levelo_inurba_marseille","lat":43.293009,"lon":5.374584,"is_reserved":false,"is_disabled":false,"rental_uris":{"android":"levelo://app?vid=841aa063-4959-434c-b77f-22d902f3e1f5","ios":"levelo://app?vid=841aa063-4959-434c-b77f-22d902f3e1f5"},"vehicle_type_id":"4","last_reported":1721067051,"current_range_meters":0,"station_id":"ce4bgi12rcd13ifvqb70","pricing_plan_id":"cebpf4jnsgd1na2vs0mg"},{"bike_id":"12217ac9-a34b-4449-8851-287d9e2b35e1","system_id":"levelo_inurba_marseille","lat":43.302992,"lon":5.392136,"is_reserved":false,"is_disabled":false,"rental_uris":{"android":"levelo://app?vid=12217ac9-a34b-4449-8851-287d9e2b35e1","ios":"levelo://app?vid=12217ac9-a34b-4449-8851-287d9e2b35e1"},"vehicle_type_id":"4","last_reported":1721067051,"current_range_meters":0,"station_id":"ce4bgkh2rcd13ifvqbk0","pricing_plan_id":"cebpf4jnsgd1na2vs0mg"},{"bike_id":"085f9c36-1ac9-4a06-affb-d65bc38a8659","system_id":"levelo_inurba_marseille","lat":43.300506,"lon":5.389893,"is_reserved":false,"is_disabled":false,"rental_uris":{"android":"levelo://app?vid=085f9c36-1ac9-4a06-affb-d65bc38a8659","ios":"levelo://app?vid=085f9c36-1ac9-4a06-affb-d65bc38a8659"},"vehicle_type_id":"4","last_reported":1721067051,"current_range_meters":0,"station_id":"","pricing_plan_id":"cebpf4jnsgd1na2vs0mg"},{"bike_id":"1fdf7a30-894a-4b86-8f1b-04b811cfb66b","system_id":"levelo_inurba_marseille","lat":43.302992,"lon":5.392136,"is_reserved":false,"is_disabled":false,"rental_uris":{"android":"levelo://app?vid=1fdf7a30-894a-4b86-8f1b-04b811cfb66b","ios":"levelo://app?vid=1fdf7a30-894a-4b86-8f1b-04b811cfb66b"},"vehicle_type_id":"4","last_reported":1721067051,"current_range_meters":0,"station_id":"ce4bgkh2rcd13ifvqbk0","pricing_plan_id":"cebpf4jnsgd1na2vs0mg"},{"bike_id":"1749c0d4-4240-4f53-b322-01c14807b45b","system_id":"levelo_inurba_marseille","lat":43.292311,"lon":5.360731,"is_reserved":false,"is_disabled":false,"rental_uris":{"android":"levelo://app?vid=1749c0d4-4240-4f53-b322-01c14807b45b","ios":"levelo://app?vid=1749c0d4-4240-4f53-b322-01c14807b45b"},"vehicle_type_id":"4","last_reported":1721067051,"current_range_meters":400,"station_id":"ce4bhbh2rcd13ifvqeqg","pricing_plan_id":"cebpf4jnsgd1na2vs0mg"},{"bike_id":"97e8678d-3200-446a-a9b4-e8b10280f3fe","system_id":"levelo_inurba_marseille","lat":43.30085,"lon":5.390856,"is_reserved":false,"is_disabled":false,"rental_uris":{"android":"levelo://app?vid=97e8678d-3200-446a-a9b4-e8b10280f3fe","ios":"levelo://app?vid=97e8678d-3200-446a-a9b4-e8b10280f3fe"},"vehicle_type_id":"4","last_reported":1721067051,"current_range_meters":28000,"station_id":"ce4bh192rcd13ifvqdb0","pricing_plan_id":"cebpf4jnsgd1na2vs0mg"},{"bike_id":"2af8085d-c030-432a-8e5a-e3b8714b992b","system_id":"levelo_inurba_marseille","lat":43.292311,"lon":5.360731,"is_reserved":false,"is_disabled":false,"rental_uris":{"android":"levelo://app?vid=2af8085d-c030-432a-8e5a-e3b8714b992b","ios":"levelo://app?vid=2af8085d-c030-432a-8e5a-e3b8714b992b"},"vehicle_type_id":"4","last_reported":1721067051,"current_range_meters":0,"station_id":"ce4bhbh2rcd13ifvqeqg","pricing_plan_id":"cebpf4jnsgd1na2vs0mg"},{"bike_id":"971ea95a-7f8f-41e5-b8d2-25526e3d66a0","system_id":"levelo_inurba_marseille","lat":43.29896,"lon":5.389,"is_reserved":false,"is_disabled":false,"rental_uris":{"android":"levelo://app?vid=971ea95a-7f8f-41e5-b8d2-25526e3d66a0","ios":"levelo://app?vid=971ea95a-7f8f-41e5-b8d2-25526e3d66a0"},"vehicle_type_id":"4","last_reported":1721067051,"current_range_meters":18800,"station_id":"ce4bh392rcd13ifvqdl0","pricing_plan_id":"cebpf4jnsgd1na2vs0mg"},{"bike_id":"6c53eb6d-1019-4554-98d6-91740056308b","system_id":"levelo_inurba_marseille","lat":43.298764,"lon":5.388973,"is_reserved":false,"is_disabled":false,"rental_uris":{"android":"levelo://app?vid=6c53eb6d-1019-4554-98d6-91740056308b","ios":"levelo://app?vid=6c53eb6d-1019-4554-98d6-91740056308b"},"vehicle_type_id":"4","last_reported":1721067051,"current_range_meters":21200,"station_id":"ce4bh392rcd13ifvqdl0","pricing_plan_id":"cebpf4jnsgd1na2vs0mg"},{"bike_id":"795ecee5-d92c-4117-9a7f-84558e726289","system_id":"levelo_inurba_marseille","lat":43.298764,"lon":5.388973,"is_reserved":false,"is_disabled":false,"rental_uris":{"android":"levelo://app?vid=795ecee5-d92c-4117-9a7f-84558e726289","ios":"levelo://app?vid=795ecee5-d92c-4117-9a7f-84558e726289"},"vehicle_type_id":"4","last_reported":1721067051,"current_range_meters":29600,"station_id":"ce4bh392rcd13ifvqdl0","pricing_plan_id":"cebpf4jnsgd1na2vs0mg"},{"bike_id":"6fc01c23-0c7f-4856-a627-1c3f1b10e809","system_id":"levelo_inurba_marseille","lat":43.298764,"lon":5.388973,"is_reserved":false,"is_disabled":false,"rental_uris":{"android":"levelo://app?vid=6fc01c23-0c7f-4856-a627-1c3f1b10e809","ios":"levelo://app?vid=6fc01c23-0c7f-4856-a627-1c3f1b10e809"},"vehicle_type_id":"4","last_reported":1721067051,"current_range_meters":22800,"station_id":"ce4bh392rcd13ifvqdl0","pricing_plan_id":"cebpf4jnsgd1na2vs0mg"},{"bike_id":"1f3a29bd-cd39-4b57-9cd5-ea078e1be52f","system_id":"levelo_inurba_marseille","lat":43.309038,"lon":5.396546,"is_reserved":false,"is_disabled":false,"rental_uris":{"android":"levelo://app?vid=1f3a29bd-cd39-4b57-9cd5-ea078e1be52f","ios":"levelo://app?vid=1f3a29bd-cd39-4b57-9cd5-ea078e1be52f"},"vehicle_type_id":"4","last_reported":1721067051,"current_range_meters":400,"station_id":"ce4bh012rcd13ifvqcv0","pricing_plan_id":"cebpf4jnsgd1na2vs0mg"},{"bike_id":"750f7f2c-d417-4bd0-ad59-6674d78fd76d","system_id":"levelo_inurba_marseille","lat":43.291994,"lon":5.357886,"is_reserved":false,"is_disabled":false,"rental_uris":{"android":"levelo://app?vid=750f7f2c-d417-4bd0-ad59-6674d78fd76d","ios":"levelo://app?vid=750f7f2c-d417-4bd0-ad59-6674d78fd76d"},"vehicle_type_id":"4","last_reported":1721067051,"current_range_meters":0,"station_id":"ce4bhb12rcd13ifvqel0","pricing_plan_id":"cebpf4jnsgd1na2vs0mg"},{"bike_id":"1b79cb7c-5b25-4daa-bf67-529b955d49e2","system_id":"levelo_inurba_marseille","lat":43.313291,"lon":5.396838,"is_reserved":false,"is_disabled":false,"rental_uris":{"android":"levelo://app?vid=1b79cb7c-5b25-4daa-bf67-529b955d49e2","ios":"levelo://app?vid=1b79cb7c-5b25-4daa-bf67-529b955d49e2"},"vehicle_type_id":"4","last_reported":1721067051,"current_range_meters":10400,"station_id":"ce4bgvp2rcd13ifvqcu0","pricing_plan_id":"cebpf4jnsgd1na2vs0mg"},{"bike_id":"30dd403c-8696-4245-8d7c-1cb41e12cbba","system_id":"levelo_inurba_marseille","lat":43.313291,"lon":5.396838,"is_reserved":false,"is_disabled":false,"rental_uris":{"android":"levelo://app?vid=30dd403c-8696-4245-8d7c-1cb41e12cbba","ios":"levelo://app?vid=30dd403c-8696-4245-8d7c-1cb41e12cbba"},"vehicle_type_id":"4","last_reported":1721067051,"current_range_meters":29200,"station_id":"ce4bgvp2rcd13ifvqcu0","pricing_plan_id":"cebpf4jnsgd1na2vs0mg"},{"bike_id":"33855639-b5be-4d71-b9d0-9fad2b51f405","system_id":"levelo_inurba_marseille","lat":43.313291,"lon":5.396838,"is_reserved":false,"is_disabled":false,"rental_uris":{"android":"levelo://app?vid=33855639-b5be-4d71-b9d0-9fad2b51f405","ios":"levelo://app?vid=33855639-b5be-4d71-b9d0-9fad2b51f405"},"vehicle_type_id":"4","last_reported":1721067051,"current_range_meters":9600,"station_id":"ce4bgvp2rcd13ifvqcu0","pricing_plan_id":"cebpf4jnsgd1na2vs0mg"},{"bike_id":"4918eb57-0785-4714-9b8b-98f1758e3127","system_id":"levelo_inurba_marseille","lat":43.313291,"lon":5.396838,"is_reserved":false,"is_disabled":false,"rental_uris":{"android":"levelo://app?vid=4918eb57-0785-4714-9b8b-98f1758e3127","ios":"levelo://app?vid=4918eb57-0785-4714-9b8b-98f1758e3127"},"vehicle_type_id":"4","last_reported":1721067051,"current_range_meters":18400,"station_id":"ce4bgvp2rcd13ifvqcu0","pricing_plan_id":"cebpf4jnsgd1na2vs0mg"},{"bike_id":"36886017-982e-4e8e-9c1b-a31fcd888e57","system_id":"levelo_inurba_marseille","lat":43.313291,"lon":5.396838,"is_reserved":false,"is_disabled":false,"rental_uris":{"android":"levelo://app?vid=36886017-982e-4e8e-9c1b-a31fcd888e57","ios":"levelo://app?vid=36886017-982e-4e8e-9c1b-a31fcd888e57"},"vehicle_type_id":"4","last_reported":1721067051,"current_range_meters":12000,"station_id":"ce4bgvp2rcd13ifvqcu0","pricing_plan_id":"cebpf4jnsgd1na2vs0mg"},{"bike_id":"de74d5c0-55d7-43d4-9636-ddece7a29e83","system_id":"levelo_inurba_marseille","lat":43.309038,"lon":5.396546,"is_reserved":false,"is_disabled":false,"rental_uris":{"android":"levelo://app?vid=de74d5c0-55d7-43d4-9636-ddece7a29e83","ios":"levelo://app?vid=de74d5c0-55d7-43d4-9636-ddece7a29e83"},"vehicle_type_id":"4","last_reported":1721067051,"current_range_meters":20000,"station_id":"ce4bh012rcd13ifvqcv0","pricing_plan_id":"cebpf4jnsgd1na2vs0mg"},{"bike_id":"50eccbf4-c0d0-4e71-84e6-6bb40f92c447","system_id":"levelo_inurba_marseille","lat":43.309038,"lon":5.396546,"is_reserved":false,"is_disabled":false,"rental_uris":{"android":"levelo://app?vid=50eccbf4-c0d0-4e71-84e6-6bb40f92c447","ios":"levelo://app?vid=50eccbf4-c0d0-4e71-84e6-6bb40f92c447"},"vehicle_type_id":"4","last_reported":1721067051,"current_range_meters":17600,"station_id":"ce4bh012rcd13ifvqcv0","pricing_plan_id":"cebpf4jnsgd1na2vs0mg"},{"bike_id":"39f5d83b-177c-4ca0-afcc-c301b90a5bab","system_id":"levelo_inurba_marseille","lat":43.29529,"lon":5.385581,"is_reserved":false,"is_disabled":false,"rental_uris":{"android":"levelo://app?vid=39f5d83b-177c-4ca0-afcc-c301b90a5bab","ios":"levelo://app?vid=39f5d83b-177c-4ca0-afcc-c301b90a5bab"},"vehicle_type_id":"4","last_reported":1721067051,"current_range_meters":28000,"station_id":"ce4bgih2rcd13ifvqba0","pricing_plan_id":"cebpf4jnsgd1na2vs0mg"},{"bike_id":"2eb75c92-c566-44d9-9416-08cc4779a2da","system_id":"levelo_inurba_marseille","lat":43.29529,"lon":5.385581,"is_reserved":false,"is_disabled":false,"rental_uris":{"android":"levelo://app?vid=2eb75c92-c566-44d9-9416-08cc4779a2da","ios":"levelo://app?vid=2eb75c92-c566-44d9-9416-08cc4779a2da"},"vehicle_type_id":"4","last_reported":1721067051,"current_range_meters":23200,"station_id":"ce4bgih2rcd13ifvqba0","pricing_plan_id":"cebpf4jnsgd1na2vs0mg"},{"bike_id":"f1bf2e2e-7a02-410d-bece-2c81f74959c6","system_id":"levelo_inurba_marseille","lat":43.29529,"lon":5.385581,"is_reserved":false,"is_disabled":false,"rental_uris":{"android":"levelo://app?vid=f1bf2e2e-7a02-410d-bece-2c81f74959c6","ios":"levelo://app?vid=f1bf2e2e-7a02-410d-bece-2c81f74959c6"},"vehicle_type_id":"4","last_reported":1721067051,"current_range_meters":27600,"station_id":"ce4bgih2rcd13ifvqba0","pricing_plan_id":"cebpf4jnsgd1na2vs0mg"},{"bike_id":"81eea5fc-5cf7-44cf-a7c2-f2f1c0498e3f","system_id":"levelo_inurba_marseille","lat":43.313291,"lon":5.396838,"is_reserved":false,"is_disabled":false,"rental_uris":{"android":"levelo://app?vid=81eea5fc-5cf7-44cf-a7c2-f2f1c0498e3f","ios":"levelo://app?vid=81eea5fc-5cf7-44cf-a7c2-f2f1c0498e3f"},"vehicle_type_id":"4","last_reported":1721067051,"current_range_meters":11600,"station_id":"ce4bgvp2rcd13ifvqcu0","pricing_plan_id":"cebpf4jnsgd1na2vs0mg"},{"bike_id":"267c0b7c-f1f6-4205-93ad-9301aef8ef53","system_id":"levelo_inurba_marseille","lat":43.290779,"lon":5.371482,"is_reserved":false,"is_disabled":false,"rental_uris":{"android":"levelo://app?vid=267c0b7c-f1f6-4205-93ad-9301aef8ef53","ios":"levelo://app?vid=267c0b7c-f1f6-4205-93ad-9301aef8ef53"},"vehicle_type_id":"4","last_reported":1721067051,"current_range_meters":9200,"station_id":"ce4bh5p2rcd13ifvqe4g","pricing_plan_id":"cebpf4jnsgd1na2vs0mg"},{"bike_id":"7e57e3d5-3318-406b-b56c-1f0e0a6d68c3","system_id":"levelo_inurba_marseille","lat":43.29064,"lon":5.37158,"is_reserved":false,"is_disabled":false,"rental_uris":{"android":"levelo://app?vid=7e57e3d5-3318-406b-b56c-1f0e0a6d68c3","ios":"levelo://app?vid=7e57e3d5-3318-406b-b56c-1f0e0a6d68c3"},"vehicle_type_id":"4","last_reported":1721067051,"current_range_meters":0,"station_id":"ce4bh5p2rcd13ifvqe4g","pricing_plan_id":"cebpf4jnsgd1na2vs0mg"},{"bike_id":"ad8fdec5-da31-4ab5-8982-68438602ecd2","system_id":"levelo_inurba_marseille","lat":43.290779,"lon":5.371482,"is_reserved":false,"is_disabled":false,"rental_uris":{"android":"levelo://app?vid=ad8fdec5-da31-4ab5-8982-68438602ecd2","ios":"levelo://app?vid=ad8fdec5-da31-4ab5-8982-68438602ecd2"},"vehicle_type_id":"4","last_reported":1721067051,"current_range_meters":2400,"station_id":"ce4bh5p2rcd13ifvqe4g","pricing_plan_id":"cebpf4jnsgd1na2vs0mg"},{"bike_id":"3342feb2-2b9f-4755-89fa-0fffe58e9feb","system_id":"levelo_inurba_marseille","lat":43.29439,"lon":5.385238,"is_reserved":false,"is_disabled":false,"rental_uris":{"android":"levelo://app?vid=3342feb2-2b9f-4755-89fa-0fffe58e9feb","ios":"levelo://app?vid=3342feb2-2b9f-4755-89fa-0fffe58e9feb"},"vehicle_type_id":"4","last_reported":1721067051,"current_range_meters":0,"station_id":"","pricing_plan_id":"cebpf4jnsgd1na2vs0mg"},{"bike_id":"4431632a-1de2-418c-9e35-dd49126a77f0","system_id":"levelo_inurba_marseille","lat":43.302008,"lon":5.394694,"is_reserved":false,"is_disabled":false,"rental_uris":{"android":"levelo://app?vid=4431632a-1de2-418c-9e35-dd49126a77f0","ios":"levelo://app?vid=4431632a-1de2-418c-9e35-dd49126a77f0"},"vehicle_type_id":"4","last_reported":1721067051,"current_range_meters":10800,"station_id":"ce4bh0p2rcd13ifvqd70","pricing_plan_id":"cebpf4jnsgd1na2vs0mg"},{"bike_id":"a3043380-8ea5-4f04-aa58-e5a27e887021","system_id":"levelo_inurba_marseille","lat":43.302008,"lon":5.394694,"is_reserved":false,"is_disabled":false,"rental_uris":{"android":"levelo://app?vid=a3043380-8ea5-4f04-aa58-e5a27e887021","ios":"levelo://app?vid=a3043380-8ea5-4f04-aa58-e5a27e887021"},"vehicle_type_id":"4","last_reported":1721067051,"current_range_meters":0,"station_id":"ce4bh0p2rcd13ifvqd70","pricing_plan_id":"cebpf4jnsgd1na2vs0mg"},{"bike_id":"f58d80bd-6d6e-40ce-8fa4-d01ecac35978","system_id":"levelo_inurba_marseille","lat":43.290319,"lon":5.375732,"is_reserved":false,"is_disabled":false,"rental_uris":{"android":"levelo://app?vid=f58d80bd-6d6e-40ce-8fa4-d01ecac35978","ios":"levelo://app?vid=f58d80bd-6d6e-40ce-8fa4-d01ecac35978"},"vehicle_type_id":"4","last_reported":1721067051,"current_range_meters":9200,"station_id":"ce4bh692rcd13ifvqe90","pricing_plan_id":"cebpf4jnsgd1na2vs0mg"},{"bike_id":"8625ea87-ff2f-4b1d-9a9f-62c9772ebc97","system_id":"levelo_inurba_marseille","lat":43.29424,"lon":5.38623,"is_reserved":false,"is_disabled":false,"rental_uris":{"android":"levelo://app?vid=8625ea87-ff2f-4b1d-9a9f-62c9772ebc97","ios":"levelo://app?vid=8625ea87-ff2f-4b1d-9a9f-62c9772ebc97"},"vehicle_type_id":"4","last_reported":1721067051,"current_range_meters":800,"station_id":"ce4bh2h2rcd13ifvqdh0","pricing_plan_id":"cebpf4jnsgd1na2vs0mg"},{"bike_id":"2bd4c995-d55c-49ab-83ed-83965c43dfae","system_id":"levelo_inurba_marseille","lat":43.29421,"lon":5.3863,"is_reserved":false,"is_disabled":false,"rental_uris":{"android":"levelo://app?vid=2bd4c995-d55c-49ab-83ed-83965c43dfae","ios":"levelo://app?vid=2bd4c995-d55c-49ab-83ed-83965c43dfae"},"vehicle_type_id":"4","last_reported":1721067051,"current_range_meters":0,"station_id":"ce4bh2h2rcd13ifvqdh0","pricing_plan_id":"cebpf4jnsgd1na2vs0mg"},{"bike_id":"977019be-217c-4c99-8f06-1c3859169829","system_id":"levelo_inurba_marseille","lat":43.294162,"lon":5.386292,"is_reserved":false,"is_disabled":false,"rental_uris":{"android":"levelo://app?vid=977019be-217c-4c99-8f06-1c3859169829","ios":"levelo://app?vid=977019be-217c-4c99-8f06-1c3859169829"},"vehicle_type_id":"4","last_reported":1721067051,"current_range_meters":5200,"station_id":"ce4bh2h2rcd13ifvqdh0","pricing_plan_id":"cebpf4jnsgd1na2vs0mg"},{"bike_id":"4a62a630-8b34-4c43-8593-40f70dd9d2ec","system_id":"levelo_inurba_marseille","lat":43.289184,"lon":5.366408,"is_reserved":false,"is_disabled":false,"rental_uris":{"android":"levelo://app?vid=4a62a630-8b34-4c43-8593-40f70dd9d2ec","ios":"levelo://app?vid=4a62a630-8b34-4c43-8593-40f70dd9d2ec"},"vehicle_type_id":"4","last_reported":1721067051,"current_range_meters":22400,"station_id":"ce4bhap2rcd13ifvqek0","pricing_plan_id":"cebpf4jnsgd1na2vs0mg"},{"bike_id":"230e3004-9609-4e9d-91b9-3032fb784ca3","system_id":"levelo_inurba_marseille","lat":43.28939,"lon":5.36633,"is_reserved":false,"is_disabled":false,"rental_uris":{"android":"levelo://app?vid=230e3004-9609-4e9d-91b9-3032fb784ca3","ios":"levelo://app?vid=230e3004-9609-4e9d-91b9-3032fb784ca3"},"vehicle_type_id":"4","last_reported":1721067051,"current_range_meters":0,"station_id":"ce4bhap2rcd13ifvqek0","pricing_plan_id":"cebpf4jnsgd1na2vs0mg"},{"bike_id":"e60e358c-3aad-4a0b-87db-417c820aedda","system_id":"levelo_inurba_marseille","lat":43.289184,"lon":5.366408,"is_reserved":false,"is_disabled":false,"rental_uris":{"android":"levelo://app?vid=e60e358c-3aad-4a0b-87db-417c820aedda","ios":"levelo://app?vid=e60e358c-3aad-4a0b-87db-417c820aedda"},"vehicle_type_id":"4","last_reported":1721067051,"current_range_meters":6800,"station_id":"ce4bhap2rcd13ifvqek0","pricing_plan_id":"cebpf4jnsgd1na2vs0mg"},{"bike_id":"87a33059-48b6-4483-b422-fe9e59191959","system_id":"levelo_inurba_marseille","lat":43.289184,"lon":5.366408,"is_reserved":false,"is_disabled":false,"rental_uris":{"android":"levelo://app?vid=87a33059-48b6-4483-b422-fe9e59191959","ios":"levelo://app?vid=87a33059-48b6-4483-b422-fe9e59191959"},"vehicle_type_id":"4","last_reported":1721067051,"current_range_meters":18400,"station_id":"ce4bhap2rcd13ifvqek0","pricing_plan_id":"cebpf4jnsgd1na2vs0mg"},{"bike_id":"91ee0373-bc1e-4a59-9f36-3b29b658db94","system_id":"levelo_inurba_marseille","lat":43.304296,"lon":5.397513,"is_reserved":false,"is_disabled":false,"rental_uris":{"android":"levelo://app?vid=91ee0373-bc1e-4a59-9f36-3b29b658db94","ios":"levelo://app?vid=91ee0373-bc1e-4a59-9f36-3b29b658db94"},"vehicle_type_id":"4","last_reported":1721067051,"current_range_meters":0,"station_id":"ce4bh092rcd13ifvqd20","pricing_plan_id":"cebpf4jnsgd1na2vs0mg"},{"bike_id":"f2c1fff8-779e-4693-aeaf-8ae68c9d9ad1","system_id":"levelo_inurba_marseille","lat":43.304274,"lon":5.397513,"is_reserved":false,"is_disabled":false,"rental_uris":{"android":"levelo://app?vid=f2c1fff8-779e-4693-aeaf-8ae68c9d9ad1","ios":"levelo://app?vid=f2c1fff8-779e-4693-aeaf-8ae68c9d9ad1"},"vehicle_type_id":"4","last_reported":1721067051,"current_range_meters":800,"station_id":"ce4bh092rcd13ifvqd20","pricing_plan_id":"cebpf4jnsgd1na2vs0mg"},{"bike_id":"c75ea778-86ee-4b4e-9f09-6de0de44ced5","system_id":"levelo_inurba_marseille","lat":43.304296,"lon":5.397513,"is_reserved":false,"is_disabled":false,"rental_uris":{"android":"levelo://app?vid=c75ea778-86ee-4b4e-9f09-6de0de44ced5","ios":"levelo://app?vid=c75ea778-86ee-4b4e-9f09-6de0de44ced5"},"vehicle_type_id":"4","last_reported":1721067051,"current_range_meters":15600,"station_id":"ce4bh092rcd13ifvqd20","pricing_plan_id":"cebpf4jnsgd1na2vs0mg"},{"bike_id":"0cc6484c-1096-4134-a588-b6ad4976e145","system_id":"levelo_inurba_marseille","lat":43.30432,"lon":5.39748,"is_reserved":false,"is_disabled":false,"rental_uris":{"android":"levelo://app?vid=0cc6484c-1096-4134-a588-b6ad4976e145","ios":"levelo://app?vid=0cc6484c-1096-4134-a588-b6ad4976e145"},"vehicle_type_id":"4","last_reported":1721067051,"current_range_meters":9600,"station_id":"ce4bh092rcd13ifvqd20","pricing_plan_id":"cebpf4jnsgd1na2vs0mg"},{"bike_id":"db7d2bb3-c37e-43dd-b086-163cec45e8eb","system_id":"levelo_inurba_marseille","lat":43.304274,"lon":5.397513,"is_reserved":false,"is_disabled":false,"rental_uris":{"android":"levelo://app?vid=db7d2bb3-c37e-43dd-b086-163cec45e8eb","ios":"levelo://app?vid=db7d2bb3-c37e-43dd-b086-163cec45e8eb"},"vehicle_type_id":"4","last_reported":1721067051,"current_range_meters":6400,"station_id":"ce4bh092rcd13ifvqd20","pricing_plan_id":"cebpf4jnsgd1na2vs0mg"},{"bike_id":"218bd73c-4a08-42a4-a308-29a6c636cdb7","system_id":"levelo_inurba_marseille","lat":43.292644,"lon":5.384257,"is_reserved":false,"is_disabled":false,"rental_uris":{"android":"levelo://app?vid=218bd73c-4a08-42a4-a308-29a6c636cdb7","ios":"levelo://app?vid=218bd73c-4a08-42a4-a308-29a6c636cdb7"},"vehicle_type_id":"4","last_reported":1721067051,"current_range_meters":2400,"station_id":"ce4bh692rcd13ifvqea0","pricing_plan_id":"cebpf4jnsgd1na2vs0mg"},{"bike_id":"a2ae3ba8-413a-4656-a4cb-ab013b8a8f88","system_id":"levelo_inurba_marseille","lat":43.290104,"lon":5.356111,"is_reserved":false,"is_disabled":false,"rental_uris":{"android":"levelo://app?vid=a2ae3ba8-413a-4656-a4cb-ab013b8a8f88","ios":"levelo://app?vid=a2ae3ba8-413a-4656-a4cb-ab013b8a8f88"},"vehicle_type_id":"4","last_reported":1721067051,"current_range_meters":0,"station_id":"ce4bhb92rcd13ifvqen0","pricing_plan_id":"cebpf4jnsgd1na2vs0mg"},{"bike_id":"2e802461-7b58-4132-bd76-82aeb1597928","system_id":"levelo_inurba_marseille","lat":43.290103,"lon":5.356114,"is_reserved":false,"is_disabled":false,"rental_uris":{"android":"levelo://app?vid=2e802461-7b58-4132-bd76-82aeb1597928","ios":"levelo://app?vid=2e802461-7b58-4132-bd76-82aeb1597928"},"vehicle_type_id":"4","last_reported":1721067051,"current_range_meters":8400,"station_id":"ce4bhb92rcd13ifvqen0","pricing_plan_id":"cebpf4jnsgd1na2vs0mg"},{"bike_id":"8955d0de-f4e6-4e2d-b08b-6271d7ad3061","system_id":"levelo_inurba_marseille","lat":43.290104,"lon":5.356111,"is_reserved":false,"is_disabled":false,"rental_uris":{"android":"levelo://app?vid=8955d0de-f4e6-4e2d-b08b-6271d7ad3061","ios":"levelo://app?vid=8955d0de-f4e6-4e2d-b08b-6271d7ad3061"},"vehicle_type_id":"4","last_reported":1721067051,"current_range_meters":2000,"station_id":"ce4bhb92rcd13ifvqen0","pricing_plan_id":"cebpf4jnsgd1na2vs0mg"},{"bike_id":"48787ea9-0a32-4234-9a61-0b12758eb8f0","system_id":"levelo_inurba_marseille","lat":43.29,"lon":5.35602,"is_reserved":false,"is_disabled":false,"rental_uris":{"android":"levelo://app?vid=48787ea9-0a32-4234-9a61-0b12758eb8f0","ios":"levelo://app?vid=48787ea9-0a32-4234-9a61-0b12758eb8f0"},"vehicle_type_id":"4","last_reported":1721067051,"current_range_meters":1600,"station_id":"","pricing_plan_id":"cebpf4jnsgd1na2vs0mg"},{"bike_id":"4ddb2667-0ceb-4616-a891-638495d09531","system_id":"levelo_inurba_marseille","lat":43.28993,"lon":5.3561,"is_reserved":false,"is_disabled":false,"rental_uris":{"android":"levelo://app?vid=4ddb2667-0ceb-4616-a891-638495d09531","ios":"levelo://app?vid=4ddb2667-0ceb-4616-a891-638495d09531"},"vehicle_type_id":"4","last_reported":1721067051,"current_range_meters":0,"station_id":"ce4bhb92rcd13ifvqen0","pricing_plan_id":"cebpf4jnsgd1na2vs0mg"},{"bike_id":"55de1040-1a36-480c-bf06-3d7eba8b409e","system_id":"levelo_inurba_marseille","lat":43.323163,"lon":5.396998,"is_reserved":false,"is_disabled":false,"rental_uris":{"android":"levelo://app?vid=55de1040-1a36-480c-bf06-3d7eba8b409e","ios":"levelo://app?vid=55de1040-1a36-480c-bf06-3d7eba8b409e"},"vehicle_type_id":"4","last_reported":1721067051,"current_range_meters":0,"station_id":"","pricing_plan_id":"cebpf4jnsgd1na2vs0mg"},{"bike_id":"b22528d5-f133-4490-9964-12a941adcb57","system_id":"levelo_inurba_marseille","lat":43.28985,"lon":5.37831,"is_reserved":false,"is_disabled":false,"rental_uris":{"android":"levelo://app?vid=b22528d5-f133-4490-9964-12a941adcb57","ios":"levelo://app?vid=b22528d5-f133-4490-9964-12a941adcb57"},"vehicle_type_id":"4","last_reported":1721067051,"current_range_meters":23600,"station_id":"ce4bh9p2rcd13ifvqed0","pricing_plan_id":"cebpf4jnsgd1na2vs0mg"},{"bike_id":"c2d8377c-6f39-4137-bde3-d81e285d069c","system_id":"levelo_inurba_marseille","lat":43.29776,"lon":5.39332,"is_reserved":false,"is_disabled":false,"rental_uris":{"android":"levelo://app?vid=c2d8377c-6f39-4137-bde3-d81e285d069c","ios":"levelo://app?vid=c2d8377c-6f39-4137-bde3-d81e285d069c"},"vehicle_type_id":"4","last_reported":1721067051,"current_range_meters":25600,"station_id":"chh1huq6cuj3fo74tm60","pricing_plan_id":"cebpf4jnsgd1na2vs0mg"},{"bike_id":"c2691da3-aebb-4088-9b8e-d2d6f102c589","system_id":"levelo_inurba_marseille","lat":43.29784,"lon":5.39343,"is_reserved":false,"is_disabled":false,"rental_uris":{"android":"levelo://app?vid=c2691da3-aebb-4088-9b8e-d2d6f102c589","ios":"levelo://app?vid=c2691da3-aebb-4088-9b8e-d2d6f102c589"},"vehicle_type_id":"4","last_reported":1721067051,"current_range_meters":14000,"station_id":"chh1huq6cuj3fo74tm60","pricing_plan_id":"cebpf4jnsgd1na2vs0mg"},{"bike_id":"f38ecc0c-0a41-4196-93ef-00937db6166f","system_id":"levelo_inurba_marseille","lat":43.297689,"lon":5.393327,"is_reserved":false,"is_disabled":false,"rental_uris":{"android":"levelo://app?vid=f38ecc0c-0a41-4196-93ef-00937db6166f","ios":"levelo://app?vid=f38ecc0c-0a41-4196-93ef-00937db6166f"},"vehicle_type_id":"4","last_reported":1721067051,"current_range_meters":16400,"station_id":"chh1huq6cuj3fo74tm60","pricing_plan_id":"cebpf4jnsgd1na2vs0mg"},{"bike_id":"2ad115f9-d8a3-4579-9621-2a0fa2ec6b53","system_id":"levelo_inurba_marseille","lat":43.330442,"lon":5.389148,"is_reserved":false,"is_disabled":false,"rental_uris":{"android":"levelo://app?vid=2ad115f9-d8a3-4579-9621-2a0fa2ec6b53","ios":"levelo://app?vid=2ad115f9-d8a3-4579-9621-2a0fa2ec6b53"},"vehicle_type_id":"4","last_reported":1721067051,"current_range_meters":11600,"station_id":"ce4bhr92rcd13ifvqhrg","pricing_plan_id":"cebpf4jnsgd1na2vs0mg"},{"bike_id":"f8412d24-43fc-46aa-87b3-9e5f2a3e73eb","system_id":"levelo_inurba_marseille","lat":43.330442,"lon":5.389148,"is_reserved":false,"is_disabled":false,"rental_uris":{"android":"levelo://app?vid=f8412d24-43fc-46aa-87b3-9e5f2a3e73eb","ios":"levelo://app?vid=f8412d24-43fc-46aa-87b3-9e5f2a3e73eb"},"vehicle_type_id":"4","last_reported":1721067051,"current_range_meters":1200,"station_id":"ce4bhr92rcd13ifvqhrg","pricing_plan_id":"cebpf4jnsgd1na2vs0mg"},{"bike_id":"21130598-87a4-41e1-aed4-deeb6f4f8ac0","system_id":"levelo_inurba_marseille","lat":43.289747,"lon":5.354833,"is_reserved":false,"is_disabled":false,"rental_uris":{"android":"levelo://app?vid=21130598-87a4-41e1-aed4-deeb6f4f8ac0","ios":"levelo://app?vid=21130598-87a4-41e1-aed4-deeb6f4f8ac0"},"vehicle_type_id":"4","last_reported":1721067051,"current_range_meters":5200,"station_id":"","pricing_plan_id":"cebpf4jnsgd1na2vs0mg"},{"bike_id":"e5f9b488-7ae3-4362-9941-63ecfec68cf1","system_id":"levelo_inurba_marseille","lat":43.2895,"lon":5.354845,"is_reserved":false,"is_disabled":false,"rental_uris":{"android":"levelo://app?vid=e5f9b488-7ae3-4362-9941-63ecfec68cf1","ios":"levelo://app?vid=e5f9b488-7ae3-4362-9941-63ecfec68cf1"},"vehicle_type_id":"4","last_reported":1721067051,"current_range_meters":1600,"station_id":"","pricing_plan_id":"cebpf4jnsgd1na2vs0mg"},{"bike_id":"6225aa0b-71a9-4521-9a34-b22fe5a6af9e","system_id":"levelo_inurba_marseille","lat":43.312609,"lon":5.401662,"is_reserved":false,"is_disabled":false,"rental_uris":{"android":"levelo://app?vid=6225aa0b-71a9-4521-9a34-b22fe5a6af9e","ios":"levelo://app?vid=6225aa0b-71a9-4521-9a34-b22fe5a6af9e"},"vehicle_type_id":"4","last_reported":1721067051,"current_range_meters":2800,"station_id":"ce4bh092rcd13ifvqd30","pricing_plan_id":"cebpf4jnsgd1na2vs0mg"},{"bike_id":"11e2a0c5-dab4-4134-ad65-c03b9bccd0e0","system_id":"levelo_inurba_marseille","lat":43.33749,"lon":5.37445,"is_reserved":false,"is_disabled":false,"rental_uris":{"android":"levelo://app?vid=11e2a0c5-dab4-4134-ad65-c03b9bccd0e0","ios":"levelo://app?vid=11e2a0c5-dab4-4134-ad65-c03b9bccd0e0"},"vehicle_type_id":"4","last_reported":1721067051,"current_range_meters":28400,"station_id":"","pricing_plan_id":"cebpf4jnsgd1na2vs0mg"},{"bike_id":"5e29faa5-737f-4677-875d-f28ec400b2e0","system_id":"levelo_inurba_marseille","lat":43.337481,"lon":5.37466,"is_reserved":false,"is_disabled":false,"rental_uris":{"android":"levelo://app?vid=5e29faa5-737f-4677-875d-f28ec400b2e0","ios":"levelo://app?vid=5e29faa5-737f-4677-875d-f28ec400b2e0"},"vehicle_type_id":"4","last_reported":1721067051,"current_range_meters":18800,"station_id":"","pricing_plan_id":"cebpf4jnsgd1na2vs0mg"},{"bike_id":"e6576e8c-22a6-4c2e-8a4b-d48d6443c673","system_id":"levelo_inurba_marseille","lat":43.301117,"lon":5.398795,"is_reserved":false,"is_disabled":false,"rental_uris":{"android":"levelo://app?vid=e6576e8c-22a6-4c2e-8a4b-d48d6443c673","ios":"levelo://app?vid=e6576e8c-22a6-4c2e-8a4b-d48d6443c673"},"vehicle_type_id":"4","last_reported":1721067051,"current_range_meters":0,"station_id":"ce4bh0h2rcd13ifvqd40","pricing_plan_id":"cebpf4jnsgd1na2vs0mg"},{"bike_id":"bc181a61-1a7b-4496-ba49-e2799bac86fb","system_id":"levelo_inurba_marseille","lat":43.337657,"lon":5.374834,"is_reserved":false,"is_disabled":false,"rental_uris":{"android":"levelo://app?vid=bc181a61-1a7b-4496-ba49-e2799bac86fb","ios":"levelo://app?vid=bc181a61-1a7b-4496-ba49-e2799bac86fb"},"vehicle_type_id":"4","last_reported":1721067051,"current_range_meters":17600,"station_id":"","pricing_plan_id":"cebpf4jnsgd1na2vs0mg"},{"bike_id":"8d09718f-ebd1-41ad-aba0-e98b3346332f","system_id":"levelo_inurba_marseille","lat":43.301117,"lon":5.398795,"is_reserved":false,"is_disabled":false,"rental_uris":{"android":"levelo://app?vid=8d09718f-ebd1-41ad-aba0-e98b3346332f","ios":"levelo://app?vid=8d09718f-ebd1-41ad-aba0-e98b3346332f"},"vehicle_type_id":"4","last_reported":1721067051,"current_range_meters":0,"station_id":"ce4bh0h2rcd13ifvqd40","pricing_plan_id":"cebpf4jnsgd1na2vs0mg"},{"bike_id":"7faa7732-9c19-4654-8bbd-ccb619ccefb0","system_id":"levelo_inurba_marseille","lat":43.28727,"lon":5.36078,"is_reserved":false,"is_disabled":false,"rental_uris":{"android":"levelo://app?vid=7faa7732-9c19-4654-8bbd-ccb619ccefb0","ios":"levelo://app?vid=7faa7732-9c19-4654-8bbd-ccb619ccefb0"},"vehicle_type_id":"4","last_reported":1721067051,"current_range_meters":24400,"station_id":"cki0cbj6b192h4jlfktg","pricing_plan_id":"cebpf4jnsgd1na2vs0mg"},{"bike_id":"e98a28d8-f6ff-4e2b-955a-1fc3526f34fb","system_id":"levelo_inurba_marseille","lat":43.286961,"lon":5.373785,"is_reserved":false,"is_disabled":false,"rental_uris":{"android":"levelo://app?vid=e98a28d8-f6ff-4e2b-955a-1fc3526f34fb","ios":"levelo://app?vid=e98a28d8-f6ff-4e2b-955a-1fc3526f34fb"},"vehicle_type_id":"4","last_reported":1721067051,"current_range_meters":19200,"station_id":"ce4bh3p2rcd13ifvqdq0","pricing_plan_id":"cebpf4jnsgd1na2vs0mg"},{"bike_id":"32cfe67f-7b0c-43e0-877e-cf7c0bec4add","system_id":"levelo_inurba_marseille","lat":43.28931,"lon":5.38393,"is_reserved":false,"is_disabled":false,"rental_uris":{"android":"levelo://app?vid=32cfe67f-7b0c-43e0-877e-cf7c0bec4add","ios":"levelo://app?vid=32cfe67f-7b0c-43e0-877e-cf7c0bec4add"},"vehicle_type_id":"4","last_reported":1721067051,"current_range_meters":13600,"station_id":"ce4bh612rcd13ifvqe6g","pricing_plan_id":"cebpf4jnsgd1na2vs0mg"},{"bike_id":"99096afb-9057-4995-a5fe-beff970f98a8","system_id":"levelo_inurba_marseille","lat":43.289307,"lon":5.38406,"is_reserved":false,"is_disabled":false,"rental_uris":{"android":"levelo://app?vid=99096afb-9057-4995-a5fe-beff970f98a8","ios":"levelo://app?vid=99096afb-9057-4995-a5fe-beff970f98a8"},"vehicle_type_id":"4","last_reported":1721067051,"current_range_meters":15600,"station_id":"ce4bh612rcd13ifvqe6g","pricing_plan_id":"cebpf4jnsgd1na2vs0mg"},{"bike_id":"4075d8f5-f429-4dfb-a6ab-55333d80ccdf","system_id":"levelo_inurba_marseille","lat":43.289297,"lon":5.383907,"is_reserved":false,"is_disabled":false,"rental_uris":{"android":"levelo://app?vid=4075d8f5-f429-4dfb-a6ab-55333d80ccdf","ios":"levelo://app?vid=4075d8f5-f429-4dfb-a6ab-55333d80ccdf"},"vehicle_type_id":"4","last_reported":1721067051,"current_range_meters":0,"station_id":"ce4bh612rcd13ifvqe6g","pricing_plan_id":"cebpf4jnsgd1na2vs0mg"},{"bike_id":"81eb9043-8b63-42b9-a23c-6b12a883088a","system_id":"levelo_inurba_marseille","lat":43.32743,"lon":5.39735,"is_reserved":false,"is_disabled":false,"rental_uris":{"android":"levelo://app?vid=81eb9043-8b63-42b9-a23c-6b12a883088a","ios":"levelo://app?vid=81eb9043-8b63-42b9-a23c-6b12a883088a"},"vehicle_type_id":"4","last_reported":1721067051,"current_range_meters":6800,"station_id":"","pricing_plan_id":"cebpf4jnsgd1na2vs0mg"},{"bike_id":"2d9f7bcd-d186-442d-a231-2e3bc1f407a5","system_id":"levelo_inurba_marseille","lat":43.32724,"lon":5.397533,"is_reserved":false,"is_disabled":false,"rental_uris":{"android":"levelo://app?vid=2d9f7bcd-d186-442d-a231-2e3bc1f407a5","ios":"levelo://app?vid=2d9f7bcd-d186-442d-a231-2e3bc1f407a5"},"vehicle_type_id":"4","last_reported":1721067051,"current_range_meters":5200,"station_id":"","pricing_plan_id":"cebpf4jnsgd1na2vs0mg"},{"bike_id":"d2ee04bb-274a-49f4-9ef8-201250f92e44","system_id":"levelo_inurba_marseille","lat":43.290336,"lon":5.386425,"is_reserved":false,"is_disabled":false,"rental_uris":{"android":"levelo://app?vid=d2ee04bb-274a-49f4-9ef8-201250f92e44","ios":"levelo://app?vid=d2ee04bb-274a-49f4-9ef8-201250f92e44"},"vehicle_type_id":"4","last_reported":1721067051,"current_range_meters":28400,"station_id":"ce4bh4p2rcd13ifvqe0g","pricing_plan_id":"cebpf4jnsgd1na2vs0mg"},{"bike_id":"d0f512f9-bd5a-4a8b-ba16-2f97ea8bcd06","system_id":"levelo_inurba_marseille","lat":43.29022,"lon":5.38639,"is_reserved":false,"is_disabled":false,"rental_uris":{"android":"levelo://app?vid=d0f512f9-bd5a-4a8b-ba16-2f97ea8bcd06","ios":"levelo://app?vid=d0f512f9-bd5a-4a8b-ba16-2f97ea8bcd06"},"vehicle_type_id":"4","last_reported":1721067051,"current_range_meters":31600,"station_id":"ce4bh4p2rcd13ifvqe0g","pricing_plan_id":"cebpf4jnsgd1na2vs0mg"},{"bike_id":"637cbf2a-bf2f-4e20-b35c-b9e49e0ec8c0","system_id":"levelo_inurba_marseille","lat":43.302759,"lon":5.400793,"is_reserved":false,"is_disabled":false,"rental_uris":{"android":"levelo://app?vid=637cbf2a-bf2f-4e20-b35c-b9e49e0ec8c0","ios":"levelo://app?vid=637cbf2a-bf2f-4e20-b35c-b9e49e0ec8c0"},"vehicle_type_id":"4","last_reported":1721067051,"current_range_meters":30400,"station_id":"ce4bgvh2rcd13ifvqcs0","pricing_plan_id":"cebpf4jnsgd1na2vs0mg"},{"bike_id":"7b67f1e0-d4b1-4802-a9f0-776005efb190","system_id":"levelo_inurba_marseille","lat":43.29019,"lon":5.38643,"is_reserved":false,"is_disabled":false,"rental_uris":{"android":"levelo://app?vid=7b67f1e0-d4b1-4802-a9f0-776005efb190","ios":"levelo://app?vid=7b67f1e0-d4b1-4802-a9f0-776005efb190"},"vehicle_type_id":"4","last_reported":1721067051,"current_range_meters":31200,"station_id":"ce4bh4p2rcd13ifvqe0g","pricing_plan_id":"cebpf4jnsgd1na2vs0mg"},{"bike_id":"6bc22a55-c67e-4a73-89de-a16f9d03684e","system_id":"levelo_inurba_marseille","lat":43.30256,"lon":5.40079,"is_reserved":false,"is_disabled":false,"rental_uris":{"android":"levelo://app?vid=6bc22a55-c67e-4a73-89de-a16f9d03684e","ios":"levelo://app?vid=6bc22a55-c67e-4a73-89de-a16f9d03684e"},"vehicle_type_id":"4","last_reported":1721067051,"current_range_meters":0,"station_id":"ce4bgvh2rcd13ifvqcs0","pricing_plan_id":"cebpf4jnsgd1na2vs0mg"},{"bike_id":"bc4eef30-8c4b-411b-b383-5dec8dddaf66","system_id":"levelo_inurba_marseille","lat":43.290336,"lon":5.386425,"is_reserved":false,"is_disabled":false,"rental_uris":{"android":"levelo://app?vid=bc4eef30-8c4b-411b-b383-5dec8dddaf66","ios":"levelo://app?vid=bc4eef30-8c4b-411b-b383-5dec8dddaf66"},"vehicle_type_id":"4","last_reported":1721067051,"current_range_meters":31200,"station_id":"ce4bh4p2rcd13ifvqe0g","pricing_plan_id":"cebpf4jnsgd1na2vs0mg"},{"bike_id":"9edd6b6f-f8f0-4285-9a32-bd6c11fe96a8","system_id":"levelo_inurba_marseille","lat":43.287184,"lon":5.37937,"is_reserved":false,"is_disabled":false,"rental_uris":{"android":"levelo://app?vid=9edd6b6f-f8f0-4285-9a32-bd6c11fe96a8","ios":"levelo://app?vid=9edd6b6f-f8f0-4285-9a32-bd6c11fe96a8"},"vehicle_type_id":"4","last_reported":1721067051,"current_range_meters":0,"station_id":"ce4bh9p2rcd13ifvqec0","pricing_plan_id":"cebpf4jnsgd1na2vs0mg"},{"bike_id":"b3767881-639d-4b1a-a9d5-8a1a795243dd","system_id":"levelo_inurba_marseille","lat":43.287184,"lon":5.37937,"is_reserved":false,"is_disabled":false,"rental_uris":{"android":"levelo://app?vid=b3767881-639d-4b1a-a9d5-8a1a795243dd","ios":"levelo://app?vid=b3767881-639d-4b1a-a9d5-8a1a795243dd"},"vehicle_type_id":"4","last_reported":1721067051,"current_range_meters":1200,"station_id":"ce4bh9p2rcd13ifvqec0","pricing_plan_id":"cebpf4jnsgd1na2vs0mg"},{"bike_id":"d6630184-2c06-431f-918f-f69e5849e91c","system_id":"levelo_inurba_marseille","lat":43.287184,"lon":5.37937,"is_reserved":false,"is_disabled":false,"rental_uris":{"android":"levelo://app?vid=d6630184-2c06-431f-918f-f69e5849e91c","ios":"levelo://app?vid=d6630184-2c06-431f-918f-f69e5849e91c"},"vehicle_type_id":"4","last_reported":1721067051,"current_range_meters":24800,"station_id":"ce4bh9p2rcd13ifvqec0","pricing_plan_id":"cebpf4jnsgd1na2vs0mg"},{"bike_id":"da7c0e1a-9eec-4c99-843a-33dad5c327bb","system_id":"levelo_inurba_marseille","lat":43.2872,"lon":5.3794,"is_reserved":false,"is_disabled":false,"rental_uris":{"android":"levelo://app?vid=da7c0e1a-9eec-4c99-843a-33dad5c327bb","ios":"levelo://app?vid=da7c0e1a-9eec-4c99-843a-33dad5c327bb"},"vehicle_type_id":"4","last_reported":1721067051,"current_range_meters":400,"station_id":"ce4bh9p2rcd13ifvqec0","pricing_plan_id":"cebpf4jnsgd1na2vs0mg"},{"bike_id":"05caed85-3523-43f3-8742-8182199ee2f8","system_id":"levelo_inurba_marseille","lat":43.287795,"lon":5.382475,"is_reserved":false,"is_disabled":false,"rental_uris":{"android":"levelo://app?vid=05caed85-3523-43f3-8742-8182199ee2f8","ios":"levelo://app?vid=05caed85-3523-43f3-8742-8182199ee2f8"},"vehicle_type_id":"4","last_reported":1721067051,"current_range_meters":0,"station_id":"","pricing_plan_id":"cebpf4jnsgd1na2vs0mg"},{"bike_id":"df941504-2c29-4674-b612-9f4aa2bc44e8","system_id":"levelo_inurba_marseille","lat":43.316821,"lon":5.404737,"is_reserved":false,"is_disabled":false,"rental_uris":{"android":"levelo://app?vid=df941504-2c29-4674-b612-9f4aa2bc44e8","ios":"levelo://app?vid=df941504-2c29-4674-b612-9f4aa2bc44e8"},"vehicle_type_id":"4","last_reported":1721067051,"current_range_meters":18000,"station_id":"ce4bh012rcd13ifvqd00","pricing_plan_id":"cebpf4jnsgd1na2vs0mg"},{"bike_id":"a1a772be-6362-4335-97cd-173c88afe3be","system_id":"levelo_inurba_marseille","lat":43.316828,"lon":5.404723,"is_reserved":false,"is_disabled":false,"rental_uris":{"android":"levelo://app?vid=a1a772be-6362-4335-97cd-173c88afe3be","ios":"levelo://app?vid=a1a772be-6362-4335-97cd-173c88afe3be"},"vehicle_type_id":"4","last_reported":1721067051,"current_range_meters":9200,"station_id":"ce4bh012rcd13ifvqd00","pricing_plan_id":"cebpf4jnsgd1na2vs0mg"},{"bike_id":"af243bf5-242e-4134-9b05-be7cc52d6fb8","system_id":"levelo_inurba_marseille","lat":43.284538,"lon":5.358657,"is_reserved":false,"is_disabled":false,"rental_uris":{"android":"levelo://app?vid=af243bf5-242e-4134-9b05-be7cc52d6fb8","ios":"levelo://app?vid=af243bf5-242e-4134-9b05-be7cc52d6fb8"},"vehicle_type_id":"4","last_reported":1721067051,"current_range_meters":24000,"station_id":"ce4bhah2rcd13ifvqei0","pricing_plan_id":"cebpf4jnsgd1na2vs0mg"},{"bike_id":"14a2ccd3-51a3-44d4-8a38-da66449fe25f","system_id":"levelo_inurba_marseille","lat":43.28607,"lon":5.37979,"is_reserved":false,"is_disabled":false,"rental_uris":{"android":"levelo://app?vid=14a2ccd3-51a3-44d4-8a38-da66449fe25f","ios":"levelo://app?vid=14a2ccd3-51a3-44d4-8a38-da66449fe25f"},"vehicle_type_id":"4","last_reported":1721067051,"current_range_meters":26000,"station_id":"","pricing_plan_id":"cebpf4jnsgd1na2vs0mg"},{"bike_id":"ce469240-5f89-453c-a234-1141d18438db","system_id":"levelo_inurba_marseille","lat":43.284534,"lon":5.358662,"is_reserved":false,"is_disabled":false,"rental_uris":{"android":"levelo://app?vid=ce469240-5f89-453c-a234-1141d18438db","ios":"levelo://app?vid=ce469240-5f89-453c-a234-1141d18438db"},"vehicle_type_id":"4","last_reported":1721067051,"current_range_meters":27600,"station_id":"ce4bhah2rcd13ifvqei0","pricing_plan_id":"cebpf4jnsgd1na2vs0mg"},{"bike_id":"e0e82dcd-7006-49f6-b014-622d38308eab","system_id":"levelo_inurba_marseille","lat":43.284534,"lon":5.358662,"is_reserved":false,"is_disabled":false,"rental_uris":{"android":"levelo://app?vid=e0e82dcd-7006-49f6-b014-622d38308eab","ios":"levelo://app?vid=e0e82dcd-7006-49f6-b014-622d38308eab"},"vehicle_type_id":"4","last_reported":1721067051,"current_range_meters":19600,"station_id":"ce4bhah2rcd13ifvqei0","pricing_plan_id":"cebpf4jnsgd1na2vs0mg"},{"bike_id":"4cdaa4aa-e269-4b59-987c-bfd9e1c9955b","system_id":"levelo_inurba_marseille","lat":43.294314,"lon":5.397498,"is_reserved":false,"is_disabled":false,"rental_uris":{"android":"levelo://app?vid=4cdaa4aa-e269-4b59-987c-bfd9e1c9955b","ios":"levelo://app?vid=4cdaa4aa-e269-4b59-987c-bfd9e1c9955b"},"vehicle_type_id":"4","last_reported":1721067051,"current_range_meters":27200,"station_id":"ce4bh3h2rcd13ifvqdo0","pricing_plan_id":"cebpf4jnsgd1na2vs0mg"},{"bike_id":"a7390627-8b6c-4149-9d20-d0ff687565c1","system_id":"levelo_inurba_marseille","lat":43.29439,"lon":5.397463,"is_reserved":false,"is_disabled":false,"rental_uris":{"android":"levelo://app?vid=a7390627-8b6c-4149-9d20-d0ff687565c1","ios":"levelo://app?vid=a7390627-8b6c-4149-9d20-d0ff687565c1"},"vehicle_type_id":"4","last_reported":1721067051,"current_range_meters":0,"station_id":"ce4bh3h2rcd13ifvqdo0","pricing_plan_id":"cebpf4jnsgd1na2vs0mg"},{"bike_id":"e0800873-4bfb-4340-ac77-6b33c9302665","system_id":"levelo_inurba_marseille","lat":43.294495,"lon":5.397586,"is_reserved":false,"is_disabled":false,"rental_uris":{"android":"levelo://app?vid=e0800873-4bfb-4340-ac77-6b33c9302665","ios":"levelo://app?vid=e0800873-4bfb-4340-ac77-6b33c9302665"},"vehicle_type_id":"4","last_reported":1721067051,"current_range_meters":0,"station_id":"ce4bh3h2rcd13ifvqdo0","pricing_plan_id":"cebpf4jnsgd1na2vs0mg"},{"bike_id":"7985df56-419a-4cbc-a6f4-6d03983507d1","system_id":"levelo_inurba_marseille","lat":43.28626,"lon":5.351,"is_reserved":false,"is_disabled":false,"rental_uris":{"android":"levelo://app?vid=7985df56-419a-4cbc-a6f4-6d03983507d1","ios":"levelo://app?vid=7985df56-419a-4cbc-a6f4-6d03983507d1"},"vehicle_type_id":"4","last_reported":1721067051,"current_range_meters":2000,"station_id":"ce4bhch2rcd13ifvqeug","pricing_plan_id":"cebpf4jnsgd1na2vs0mg"},{"bike_id":"a763543c-049a-48f6-805a-cb103fc1556b","system_id":"levelo_inurba_marseille","lat":43.28622,"lon":5.35106,"is_reserved":false,"is_disabled":false,"rental_uris":{"android":"levelo://app?vid=a763543c-049a-48f6-805a-cb103fc1556b","ios":"levelo://app?vid=a763543c-049a-48f6-805a-cb103fc1556b"},"vehicle_type_id":"4","last_reported":1721067051,"current_range_meters":5200,"station_id":"ce4bhch2rcd13ifvqeug","pricing_plan_id":"cebpf4jnsgd1na2vs0mg"},{"bike_id":"b73e21eb-b927-4fff-86d4-f7472f25deb5","system_id":"levelo_inurba_marseille","lat":43.28621,"lon":5.35104,"is_reserved":false,"is_disabled":false,"rental_uris":{"android":"levelo://app?vid=b73e21eb-b927-4fff-86d4-f7472f25deb5","ios":"levelo://app?vid=b73e21eb-b927-4fff-86d4-f7472f25deb5"},"vehicle_type_id":"4","last_reported":1721067051,"current_range_meters":0,"station_id":"ce4bhch2rcd13ifvqeug","pricing_plan_id":"cebpf4jnsgd1na2vs0mg"},{"bike_id":"f4888251-3e22-4ece-bfec-7d1c74024c14","system_id":"levelo_inurba_marseille","lat":43.28619,"lon":5.35108,"is_reserved":false,"is_disabled":false,"rental_uris":{"android":"levelo://app?vid=f4888251-3e22-4ece-bfec-7d1c74024c14","ios":"levelo://app?vid=f4888251-3e22-4ece-bfec-7d1c74024c14"},"vehicle_type_id":"4","last_reported":1721067051,"current_range_meters":0,"station_id":"ce4bhch2rcd13ifvqeug","pricing_plan_id":"cebpf4jnsgd1na2vs0mg"},{"bike_id":"e0d222a8-51e0-40d7-b822-dd9484bd1aa2","system_id":"levelo_inurba_marseille","lat":43.28618,"lon":5.35109,"is_reserved":false,"is_disabled":false,"rental_uris":{"android":"levelo://app?vid=e0d222a8-51e0-40d7-b822-dd9484bd1aa2","ios":"levelo://app?vid=e0d222a8-51e0-40d7-b822-dd9484bd1aa2"},"vehicle_type_id":"4","last_reported":1721067051,"current_range_meters":0,"station_id":"ce4bhch2rcd13ifvqeug","pricing_plan_id":"cebpf4jnsgd1na2vs0mg"},{"bike_id":"e68f0785-246a-4762-955a-7268aa6c061a","system_id":"levelo_inurba_marseille","lat":43.28618,"lon":5.35106,"is_reserved":false,"is_disabled":false,"rental_uris":{"android":"levelo://app?vid=e68f0785-246a-4762-955a-7268aa6c061a","ios":"levelo://app?vid=e68f0785-246a-4762-955a-7268aa6c061a"},"vehicle_type_id":"4","last_reported":1721067051,"current_range_meters":800,"station_id":"ce4bhch2rcd13ifvqeug","pricing_plan_id":"cebpf4jnsgd1na2vs0mg"},{"bike_id":"e0dac6d9-f181-4bda-8430-c58acda6f3e5","system_id":"levelo_inurba_marseille","lat":43.285856,"lon":5.350771,"is_reserved":false,"is_disabled":false,"rental_uris":{"android":"levelo://app?vid=e0dac6d9-f181-4bda-8430-c58acda6f3e5","ios":"levelo://app?vid=e0dac6d9-f181-4bda-8430-c58acda6f3e5"},"vehicle_type_id":"4","last_reported":1721067051,"current_range_meters":0,"station_id":"ce4bhch2rcd13ifvqeug","pricing_plan_id":"cebpf4jnsgd1na2vs0mg"},{"bike_id":"586530c1-0fbe-432c-8c8f-56d85226cbb3","system_id":"levelo_inurba_marseille","lat":43.285856,"lon":5.350771,"is_reserved":false,"is_disabled":false,"rental_uris":{"android":"levelo://app?vid=586530c1-0fbe-432c-8c8f-56d85226cbb3","ios":"levelo://app?vid=586530c1-0fbe-432c-8c8f-56d85226cbb3"},"vehicle_type_id":"4","last_reported":1721067051,"current_range_meters":25200,"station_id":"ce4bhch2rcd13ifvqeug","pricing_plan_id":"cebpf4jnsgd1na2vs0mg"},{"bike_id":"24d3ee82-b425-428b-b36b-0474b0dddaa7","system_id":"levelo_inurba_marseille","lat":43.28618,"lon":5.35101,"is_reserved":false,"is_disabled":false,"rental_uris":{"android":"levelo://app?vid=24d3ee82-b425-428b-b36b-0474b0dddaa7","ios":"levelo://app?vid=24d3ee82-b425-428b-b36b-0474b0dddaa7"},"vehicle_type_id":"4","last_reported":1721067051,"current_range_meters":25200,"station_id":"ce4bhch2rcd13ifvqeug","pricing_plan_id":"cebpf4jnsgd1na2vs0mg"},{"bike_id":"dd2c0e9e-e06a-43c4-bd45-ecbdf8ee0005","system_id":"levelo_inurba_marseille","lat":43.28617,"lon":5.35104,"is_reserved":false,"is_disabled":false,"rental_uris":{"android":"levelo://app?vid=dd2c0e9e-e06a-43c4-bd45-ecbdf8ee0005","ios":"levelo://app?vid=dd2c0e9e-e06a-43c4-bd45-ecbdf8ee0005"},"vehicle_type_id":"4","last_reported":1721067051,"current_range_meters":30400,"station_id":"ce4bhch2rcd13ifvqeug","pricing_plan_id":"cebpf4jnsgd1na2vs0mg"},{"bike_id":"804b5bb2-7290-4ca6-b887-7a58fbf4d5ff","system_id":"levelo_inurba_marseille","lat":43.28617,"lon":5.351,"is_reserved":false,"is_disabled":false,"rental_uris":{"android":"levelo://app?vid=804b5bb2-7290-4ca6-b887-7a58fbf4d5ff","ios":"levelo://app?vid=804b5bb2-7290-4ca6-b887-7a58fbf4d5ff"},"vehicle_type_id":"4","last_reported":1721067051,"current_range_meters":31200,"station_id":"ce4bhch2rcd13ifvqeug","pricing_plan_id":"cebpf4jnsgd1na2vs0mg"},{"bike_id":"9fd74551-1237-4872-bc80-7fc910f0017b","system_id":"levelo_inurba_marseille","lat":43.28613,"lon":5.35105,"is_reserved":false,"is_disabled":false,"rental_uris":{"android":"levelo://app?vid=9fd74551-1237-4872-bc80-7fc910f0017b","ios":"levelo://app?vid=9fd74551-1237-4872-bc80-7fc910f0017b"},"vehicle_type_id":"4","last_reported":1721067051,"current_range_meters":24800,"station_id":"ce4bhch2rcd13ifvqeug","pricing_plan_id":"cebpf4jnsgd1na2vs0mg"},{"bike_id":"710c17d5-7226-4c9d-acc1-5e435b765495","system_id":"levelo_inurba_marseille","lat":43.28613,"lon":5.35103,"is_reserved":false,"is_disabled":false,"rental_uris":{"android":"levelo://app?vid=710c17d5-7226-4c9d-acc1-5e435b765495","ios":"levelo://app?vid=710c17d5-7226-4c9d-acc1-5e435b765495"},"vehicle_type_id":"4","last_reported":1721067051,"current_range_meters":7600,"station_id":"ce4bhch2rcd13ifvqeug","pricing_plan_id":"cebpf4jnsgd1na2vs0mg"},{"bike_id":"d1eab666-e9e6-4e59-b5b2-347b5162553e","system_id":"levelo_inurba_marseille","lat":43.28613,"lon":5.35103,"is_reserved":false,"is_disabled":false,"rental_uris":{"android":"levelo://app?vid=d1eab666-e9e6-4e59-b5b2-347b5162553e","ios":"levelo://app?vid=d1eab666-e9e6-4e59-b5b2-347b5162553e"},"vehicle_type_id":"4","last_reported":1721067051,"current_range_meters":21600,"station_id":"ce4bhch2rcd13ifvqeug","pricing_plan_id":"cebpf4jnsgd1na2vs0mg"},{"bike_id":"f0052a65-ed1e-4a27-b6f7-c0ab00c60227","system_id":"levelo_inurba_marseille","lat":43.28613,"lon":5.35099,"is_reserved":false,"is_disabled":false,"rental_uris":{"android":"levelo://app?vid=f0052a65-ed1e-4a27-b6f7-c0ab00c60227","ios":"levelo://app?vid=f0052a65-ed1e-4a27-b6f7-c0ab00c60227"},"vehicle_type_id":"4","last_reported":1721067051,"current_range_meters":13600,"station_id":"ce4bhch2rcd13ifvqeug","pricing_plan_id":"cebpf4jnsgd1na2vs0mg"},{"bike_id":"666e8a48-3acf-4c40-aa63-bed41fb2f723","system_id":"levelo_inurba_marseille","lat":43.2861,"lon":5.35106,"is_reserved":false,"is_disabled":false,"rental_uris":{"android":"levelo://app?vid=666e8a48-3acf-4c40-aa63-bed41fb2f723","ios":"levelo://app?vid=666e8a48-3acf-4c40-aa63-bed41fb2f723"},"vehicle_type_id":"4","last_reported":1721067051,"current_range_meters":8800,"station_id":"ce4bhch2rcd13ifvqeug","pricing_plan_id":"cebpf4jnsgd1na2vs0mg"},{"bike_id":"2f1c6682-6219-4829-b78a-cda424a7c5fe","system_id":"levelo_inurba_marseille","lat":43.28611,"lon":5.35098,"is_reserved":false,"is_disabled":false,"rental_uris":{"android":"levelo://app?vid=2f1c6682-6219-4829-b78a-cda424a7c5fe","ios":"levelo://app?vid=2f1c6682-6219-4829-b78a-cda424a7c5fe"},"vehicle_type_id":"4","last_reported":1721067051,"current_range_meters":24400,"station_id":"ce4bhch2rcd13ifvqeug","pricing_plan_id":"cebpf4jnsgd1na2vs0mg"},{"bike_id":"f09deffb-0870-4ee8-9477-0dd1d3f6b6f0","system_id":"levelo_inurba_marseille","lat":43.283998,"lon":5.375062,"is_reserved":false,"is_disabled":false,"rental_uris":{"android":"levelo://app?vid=f09deffb-0870-4ee8-9477-0dd1d3f6b6f0","ios":"levelo://app?vid=f09deffb-0870-4ee8-9477-0dd1d3f6b6f0"},"vehicle_type_id":"4","last_reported":1721067051,"current_range_meters":22800,"station_id":"ce4bh412rcd13ifvqds0","pricing_plan_id":"cebpf4jnsgd1na2vs0mg"},{"bike_id":"85a6c07f-247b-42a0-ba8c-2a5cf6452bce","system_id":"levelo_inurba_marseille","lat":43.337168,"lon":5.391825,"is_reserved":false,"is_disabled":false,"rental_uris":{"android":"levelo://app?vid=85a6c07f-247b-42a0-ba8c-2a5cf6452bce","ios":"levelo://app?vid=85a6c07f-247b-42a0-ba8c-2a5cf6452bce"},"vehicle_type_id":"4","last_reported":1721067051,"current_range_meters":11200,"station_id":"ce4bhr92rcd13ifvqhsg","pricing_plan_id":"cebpf4jnsgd1na2vs0mg"},{"bike_id":"15e6fafc-31db-4e1b-9bc7-cf72ee2199b7","system_id":"levelo_inurba_marseille","lat":43.32335,"lon":5.40619,"is_reserved":false,"is_disabled":false,"rental_uris":{"android":"levelo://app?vid=15e6fafc-31db-4e1b-9bc7-cf72ee2199b7","ios":"levelo://app?vid=15e6fafc-31db-4e1b-9bc7-cf72ee2199b7"},"vehicle_type_id":"4","last_reported":1721067051,"current_range_meters":0,"station_id":"ce4bhq92rcd13ifvqhjg","pricing_plan_id":"cebpf4jnsgd1na2vs0mg"},{"bike_id":"5c69bd44-6373-450b-9331-50b6aba55bde","system_id":"levelo_inurba_marseille","lat":43.28469,"lon":5.3842,"is_reserved":false,"is_disabled":false,"rental_uris":{"android":"levelo://app?vid=5c69bd44-6373-450b-9331-50b6aba55bde","ios":"levelo://app?vid=5c69bd44-6373-450b-9331-50b6aba55bde"},"vehicle_type_id":"4","last_reported":1721067051,"current_range_meters":0,"station_id":"ce4bh512rcd13ifvqe3g","pricing_plan_id":"cebpf4jnsgd1na2vs0mg"},{"bike_id":"c9be6c18-4439-4477-99cd-a85d10753c2f","system_id":"levelo_inurba_marseille","lat":43.28493,"lon":5.38549,"is_reserved":false,"is_disabled":false,"rental_uris":{"android":"levelo://app?vid=c9be6c18-4439-4477-99cd-a85d10753c2f","ios":"levelo://app?vid=c9be6c18-4439-4477-99cd-a85d10753c2f"},"vehicle_type_id":"4","last_reported":1721067051,"current_range_meters":0,"station_id":"ce4bh8p2rcd13ifvqeb0","pricing_plan_id":"cebpf4jnsgd1na2vs0mg"},{"bike_id":"d23bbc33-0bc9-4f84-b181-66e236c96554","system_id":"levelo_inurba_marseille","lat":43.288497,"lon":5.393089,"is_reserved":false,"is_disabled":false,"rental_uris":{"android":"levelo://app?vid=d23bbc33-0bc9-4f84-b181-66e236c96554","ios":"levelo://app?vid=d23bbc33-0bc9-4f84-b181-66e236c96554"},"vehicle_type_id":"4","last_reported":1721067051,"current_range_meters":0,"station_id":"ce4bh2p2rcd13ifvqdi0","pricing_plan_id":"cebpf4jnsgd1na2vs0mg"},{"bike_id":"6a6be0c6-d483-4acd-919f-74312f66d931","system_id":"levelo_inurba_marseille","lat":43.284214,"lon":5.349706,"is_reserved":false,"is_disabled":false,"rental_uris":{"android":"levelo://app?vid=6a6be0c6-d483-4acd-919f-74312f66d931","ios":"levelo://app?vid=6a6be0c6-d483-4acd-919f-74312f66d931"},"vehicle_type_id":"4","last_reported":1721067051,"current_range_meters":4000,"station_id":"ce4bhbh2rcd13ifvqepg","pricing_plan_id":"cebpf4jnsgd1na2vs0mg"},{"bike_id":"8c0676ad-26f5-4f6f-99b8-910543a3800a","system_id":"levelo_inurba_marseille","lat":43.284214,"lon":5.349706,"is_reserved":false,"is_disabled":false,"rental_uris":{"android":"levelo://app?vid=8c0676ad-26f5-4f6f-99b8-910543a3800a","ios":"levelo://app?vid=8c0676ad-26f5-4f6f-99b8-910543a3800a"},"vehicle_type_id":"4","last_reported":1721067051,"current_range_meters":10800,"station_id":"ce4bhbh2rcd13ifvqepg","pricing_plan_id":"cebpf4jnsgd1na2vs0mg"},{"bike_id":"3e63bcb8-2f74-4a2c-845a-c3586700eff2","system_id":"levelo_inurba_marseille","lat":43.284219,"lon":5.3497,"is_reserved":false,"is_disabled":false,"rental_uris":{"android":"levelo://app?vid=3e63bcb8-2f74-4a2c-845a-c3586700eff2","ios":"levelo://app?vid=3e63bcb8-2f74-4a2c-845a-c3586700eff2"},"vehicle_type_id":"4","last_reported":1721067051,"current_range_meters":0,"station_id":"ce4bhbh2rcd13ifvqepg","pricing_plan_id":"cebpf4jnsgd1na2vs0mg"},{"bike_id":"8b1ce9ed-297e-402b-a693-101f4f59ebfe","system_id":"levelo_inurba_marseille","lat":43.284214,"lon":5.349706,"is_reserved":false,"is_disabled":false,"rental_uris":{"android":"levelo://app?vid=8b1ce9ed-297e-402b-a693-101f4f59ebfe","ios":"levelo://app?vid=8b1ce9ed-297e-402b-a693-101f4f59ebfe"},"vehicle_type_id":"4","last_reported":1721067051,"current_range_meters":30400,"station_id":"ce4bhbh2rcd13ifvqepg","pricing_plan_id":"cebpf4jnsgd1na2vs0mg"},{"bike_id":"3de296a2-cebc-4926-b442-785e7a9b94c1","system_id":"levelo_inurba_marseille","lat":43.284214,"lon":5.349706,"is_reserved":false,"is_disabled":false,"rental_uris":{"android":"levelo://app?vid=3de296a2-cebc-4926-b442-785e7a9b94c1","ios":"levelo://app?vid=3de296a2-cebc-4926-b442-785e7a9b94c1"},"vehicle_type_id":"4","last_reported":1721067051,"current_range_meters":11600,"station_id":"ce4bhbh2rcd13ifvqepg","pricing_plan_id":"cebpf4jnsgd1na2vs0mg"},{"bike_id":"29a271c2-a5c6-4d52-b7f6-6a88fa8a3047","system_id":"levelo_inurba_marseille","lat":43.28413,"lon":5.34988,"is_reserved":false,"is_disabled":false,"rental_uris":{"android":"levelo://app?vid=29a271c2-a5c6-4d52-b7f6-6a88fa8a3047","ios":"levelo://app?vid=29a271c2-a5c6-4d52-b7f6-6a88fa8a3047"},"vehicle_type_id":"4","last_reported":1721067051,"current_range_meters":0,"station_id":"ce4bhbh2rcd13ifvqepg","pricing_plan_id":"cebpf4jnsgd1na2vs0mg"},{"bike_id":"a000da5c-bee3-42e0-b2a3-ec641ac6a2e3","system_id":"levelo_inurba_marseille","lat":43.292588,"lon":5.39988,"is_reserved":false,"is_disabled":false,"rental_uris":{"android":"levelo://app?vid=a000da5c-bee3-42e0-b2a3-ec641ac6a2e3","ios":"levelo://app?vid=a000da5c-bee3-42e0-b2a3-ec641ac6a2e3"},"vehicle_type_id":"4","last_reported":1721067051,"current_range_meters":11200,"station_id":"","pricing_plan_id":"cebpf4jnsgd1na2vs0mg"},{"bike_id":"fbf683e6-93dc-4d58-a37b-ab688d65f65e","system_id":"levelo_inurba_marseille","lat":43.292724,"lon":5.401131,"is_reserved":false,"is_disabled":false,"rental_uris":{"android":"levelo://app?vid=fbf683e6-93dc-4d58-a37b-ab688d65f65e","ios":"levelo://app?vid=fbf683e6-93dc-4d58-a37b-ab688d65f65e"},"vehicle_type_id":"4","last_reported":1721067051,"current_range_meters":2800,"station_id":"ce4bh312rcd13ifvqdk0","pricing_plan_id":"cebpf4jnsgd1na2vs0mg"},{"bike_id":"f8a67ef1-190a-488c-942a-34ba13cb5b15","system_id":"levelo_inurba_marseille","lat":43.292724,"lon":5.401131,"is_reserved":false,"is_disabled":false,"rental_uris":{"android":"levelo://app?vid=f8a67ef1-190a-488c-942a-34ba13cb5b15","ios":"levelo://app?vid=f8a67ef1-190a-488c-942a-34ba13cb5b15"},"vehicle_type_id":"4","last_reported":1721067051,"current_range_meters":4000,"station_id":"ce4bh312rcd13ifvqdk0","pricing_plan_id":"cebpf4jnsgd1na2vs0mg"},{"bike_id":"d812a156-1a54-4b6c-96da-ea1d4389f675","system_id":"levelo_inurba_marseille","lat":43.292724,"lon":5.401131,"is_reserved":false,"is_disabled":false,"rental_uris":{"android":"levelo://app?vid=d812a156-1a54-4b6c-96da-ea1d4389f675","ios":"levelo://app?vid=d812a156-1a54-4b6c-96da-ea1d4389f675"},"vehicle_type_id":"4","last_reported":1721067051,"current_range_meters":4400,"station_id":"ce4bh312rcd13ifvqdk0","pricing_plan_id":"cebpf4jnsgd1na2vs0mg"},{"bike_id":"ace6166b-72ab-43f6-88d1-bce1046bd50e","system_id":"levelo_inurba_marseille","lat":43.282754,"lon":5.350519,"is_reserved":false,"is_disabled":false,"rental_uris":{"android":"levelo://app?vid=ace6166b-72ab-43f6-88d1-bce1046bd50e","ios":"levelo://app?vid=ace6166b-72ab-43f6-88d1-bce1046bd50e"},"vehicle_type_id":"4","last_reported":1721067051,"current_range_meters":0,"station_id":"ce4bhbp2rcd13ifvqerg","pricing_plan_id":"cebpf4jnsgd1na2vs0mg"},{"bike_id":"8eb2a89d-100c-4d9c-8e76-ed66f370d80f","system_id":"levelo_inurba_marseille","lat":43.28369,"lon":5.38641,"is_reserved":false,"is_disabled":false,"rental_uris":{"android":"levelo://app?vid=8eb2a89d-100c-4d9c-8e76-ed66f370d80f","ios":"levelo://app?vid=8eb2a89d-100c-4d9c-8e76-ed66f370d80f"},"vehicle_type_id":"4","last_reported":1721067051,"current_range_meters":0,"station_id":"ce4bh492rcd13ifvqdvg","pricing_plan_id":"cebpf4jnsgd1na2vs0mg"},{"bike_id":"8629340a-48a7-4072-9dce-f42c53a798ea","system_id":"levelo_inurba_marseille","lat":43.28039,"lon":5.369297,"is_reserved":false,"is_disabled":false,"rental_uris":{"android":"levelo://app?vid=8629340a-48a7-4072-9dce-f42c53a798ea","ios":"levelo://app?vid=8629340a-48a7-4072-9dce-f42c53a798ea"},"vehicle_type_id":"4","last_reported":1721067051,"current_range_meters":20800,"station_id":"ce4bha12rcd13ifvqef0","pricing_plan_id":"cebpf4jnsgd1na2vs0mg"},{"bike_id":"ae88d01a-549c-4ce6-bcd1-8c0df8b751ab","system_id":"levelo_inurba_marseille","lat":43.28039,"lon":5.369297,"is_reserved":false,"is_disabled":false,"rental_uris":{"android":"levelo://app?vid=ae88d01a-549c-4ce6-bcd1-8c0df8b751ab","ios":"levelo://app?vid=ae88d01a-549c-4ce6-bcd1-8c0df8b751ab"},"vehicle_type_id":"4","last_reported":1721067051,"current_range_meters":10000,"station_id":"ce4bha12rcd13ifvqef0","pricing_plan_id":"cebpf4jnsgd1na2vs0mg"},{"bike_id":"d88bc74f-1424-40ba-8d39-e5c8ed2cf50f","system_id":"levelo_inurba_marseille","lat":43.28037,"lon":5.36942,"is_reserved":false,"is_disabled":false,"rental_uris":{"android":"levelo://app?vid=d88bc74f-1424-40ba-8d39-e5c8ed2cf50f","ios":"levelo://app?vid=d88bc74f-1424-40ba-8d39-e5c8ed2cf50f"},"vehicle_type_id":"4","last_reported":1721067051,"current_range_meters":0,"station_id":"ce4bha12rcd13ifvqef0","pricing_plan_id":"cebpf4jnsgd1na2vs0mg"},{"bike_id":"8468e833-3554-421b-89b6-eb5d1860a4a9","system_id":"levelo_inurba_marseille","lat":43.28035,"lon":5.36946,"is_reserved":false,"is_disabled":false,"rental_uris":{"android":"levelo://app?vid=8468e833-3554-421b-89b6-eb5d1860a4a9","ios":"levelo://app?vid=8468e833-3554-421b-89b6-eb5d1860a4a9"},"vehicle_type_id":"4","last_reported":1721067051,"current_range_meters":0,"station_id":"ce4bha12rcd13ifvqef0","pricing_plan_id":"cebpf4jnsgd1na2vs0mg"},{"bike_id":"a4e328a1-a649-43a3-82ff-14317526016e","system_id":"levelo_inurba_marseille","lat":43.290412,"lon":5.399633,"is_reserved":false,"is_disabled":false,"rental_uris":{"android":"levelo://app?vid=a4e328a1-a649-43a3-82ff-14317526016e","ios":"levelo://app?vid=a4e328a1-a649-43a3-82ff-14317526016e"},"vehicle_type_id":"4","last_reported":1721067051,"current_range_meters":19600,"station_id":"ce4bh392rcd13ifvqdm0","pricing_plan_id":"cebpf4jnsgd1na2vs0mg"},{"bike_id":"74d3a98c-3c1b-4052-9e1b-90908c6f0bd8","system_id":"levelo_inurba_marseille","lat":43.29041,"lon":5.399634,"is_reserved":false,"is_disabled":false,"rental_uris":{"android":"levelo://app?vid=74d3a98c-3c1b-4052-9e1b-90908c6f0bd8","ios":"levelo://app?vid=74d3a98c-3c1b-4052-9e1b-90908c6f0bd8"},"vehicle_type_id":"4","last_reported":1721067051,"current_range_meters":0,"station_id":"ce4bh392rcd13ifvqdm0","pricing_plan_id":"cebpf4jnsgd1na2vs0mg"},{"bike_id":"9e21e28f-e4c8-41f6-ad0c-e39aa6c7d880","system_id":"levelo_inurba_marseille","lat":43.281044,"lon":5.378308,"is_reserved":false,"is_disabled":false,"rental_uris":{"android":"levelo://app?vid=9e21e28f-e4c8-41f6-ad0c-e39aa6c7d880","ios":"levelo://app?vid=9e21e28f-e4c8-41f6-ad0c-e39aa6c7d880"},"vehicle_type_id":"4","last_reported":1721067051,"current_range_meters":4800,"station_id":"ce4bha12rcd13ifvqee0","pricing_plan_id":"cebpf4jnsgd1na2vs0mg"},{"bike_id":"00b7cbe6-aeaf-4f92-8c47-22908c3e9d47","system_id":"levelo_inurba_marseille","lat":43.28333,"lon":5.38692,"is_reserved":false,"is_disabled":false,"rental_uris":{"android":"levelo://app?vid=00b7cbe6-aeaf-4f92-8c47-22908c3e9d47","ios":"levelo://app?vid=00b7cbe6-aeaf-4f92-8c47-22908c3e9d47"},"vehicle_type_id":"4","last_reported":1721067051,"current_range_meters":13200,"station_id":"","pricing_plan_id":"cebpf4jnsgd1na2vs0mg"},{"bike_id":"3553eae0-9c72-4347-8f24-f31ba28bf06b","system_id":"levelo_inurba_marseille","lat":43.284462,"lon":5.392121,"is_reserved":false,"is_disabled":false,"rental_uris":{"android":"levelo://app?vid=3553eae0-9c72-4347-8f24-f31ba28bf06b","ios":"levelo://app?vid=3553eae0-9c72-4347-8f24-f31ba28bf06b"},"vehicle_type_id":"4","last_reported":1721067051,"current_range_meters":6400,"station_id":"ce4bhoh2rcd13ifvqh5g","pricing_plan_id":"cebpf4jnsgd1na2vs0mg"},{"bike_id":"e7e5c784-5f2a-49f6-994b-df2ecd56a713","system_id":"levelo_inurba_marseille","lat":43.284462,"lon":5.392121,"is_reserved":false,"is_disabled":false,"rental_uris":{"android":"levelo://app?vid=e7e5c784-5f2a-49f6-994b-df2ecd56a713","ios":"levelo://app?vid=e7e5c784-5f2a-49f6-994b-df2ecd56a713"},"vehicle_type_id":"4","last_reported":1721067051,"current_range_meters":4800,"station_id":"ce4bhoh2rcd13ifvqh5g","pricing_plan_id":"cebpf4jnsgd1na2vs0mg"},{"bike_id":"e459395a-9bce-4e6b-9b0d-853e4d38b8c4","system_id":"levelo_inurba_marseille","lat":43.326605,"lon":5.409903,"is_reserved":false,"is_disabled":false,"rental_uris":{"android":"levelo://app?vid=e459395a-9bce-4e6b-9b0d-853e4d38b8c4","ios":"levelo://app?vid=e459395a-9bce-4e6b-9b0d-853e4d38b8c4"},"vehicle_type_id":"4","last_reported":1721067051,"current_range_meters":19200,"station_id":"ce4bhpp2rcd13ifvqhgg","pricing_plan_id":"cebpf4jnsgd1na2vs0mg"},{"bike_id":"1667a9fa-fad1-4bd8-8897-a5b60eef6453","system_id":"levelo_inurba_marseille","lat":43.304188,"lon":5.412904,"is_reserved":false,"is_disabled":false,"rental_uris":{"android":"levelo://app?vid=1667a9fa-fad1-4bd8-8897-a5b60eef6453","ios":"levelo://app?vid=1667a9fa-fad1-4bd8-8897-a5b60eef6453"},"vehicle_type_id":"4","last_reported":1721067051,"current_range_meters":5200,"station_id":"ce4bhop2rcd13ifvqh8g","pricing_plan_id":"cebpf4jnsgd1na2vs0mg"},{"bike_id":"5eef3e6c-d594-432a-8d76-16928a66fd9c","system_id":"levelo_inurba_marseille","lat":43.287,"lon":5.39985,"is_reserved":false,"is_disabled":false,"rental_uris":{"android":"levelo://app?vid=5eef3e6c-d594-432a-8d76-16928a66fd9c","ios":"levelo://app?vid=5eef3e6c-d594-432a-8d76-16928a66fd9c"},"vehicle_type_id":"4","last_reported":1721067051,"current_range_meters":30000,"station_id":"ce4bho92rcd13ifvqh3g","pricing_plan_id":"cebpf4jnsgd1na2vs0mg"},{"bike_id":"0f396278-bb85-4e35-a5dc-dffc3e8d73d5","system_id":"levelo_inurba_marseille","lat":43.279742,"lon":5.38744,"is_reserved":false,"is_disabled":false,"rental_uris":{"android":"levelo://app?vid=0f396278-bb85-4e35-a5dc-dffc3e8d73d5","ios":"levelo://app?vid=0f396278-bb85-4e35-a5dc-dffc3e8d73d5"},"vehicle_type_id":"4","last_reported":1721067051,"current_range_meters":4000,"station_id":"ce4bhg12rcd13ifvqf80","pricing_plan_id":"cebpf4jnsgd1na2vs0mg"},{"bike_id":"f7437e6d-9541-4028-9c1a-0f5d81c858e1","system_id":"levelo_inurba_marseille","lat":43.279742,"lon":5.38744,"is_reserved":false,"is_disabled":false,"rental_uris":{"android":"levelo://app?vid=f7437e6d-9541-4028-9c1a-0f5d81c858e1","ios":"levelo://app?vid=f7437e6d-9541-4028-9c1a-0f5d81c858e1"},"vehicle_type_id":"4","last_reported":1721067051,"current_range_meters":23200,"station_id":"ce4bhg12rcd13ifvqf80","pricing_plan_id":"cebpf4jnsgd1na2vs0mg"},{"bike_id":"2ea5c370-1de4-4c38-8db4-a5528656409c","system_id":"levelo_inurba_marseille","lat":43.320045,"lon":5.415046,"is_reserved":false,"is_disabled":false,"rental_uris":{"android":"levelo://app?vid=2ea5c370-1de4-4c38-8db4-a5528656409c","ios":"levelo://app?vid=2ea5c370-1de4-4c38-8db4-a5528656409c"},"vehicle_type_id":"4","last_reported":1721067051,"current_range_meters":0,"station_id":"ce4bhq92rcd13ifvqhkg","pricing_plan_id":"cebpf4jnsgd1na2vs0mg"},{"bike_id":"3681bf63-bad3-49e0-820f-750915044038","system_id":"levelo_inurba_marseille","lat":43.299577,"lon":5.413277,"is_reserved":false,"is_disabled":false,"rental_uris":{"android":"levelo://app?vid=3681bf63-bad3-49e0-820f-750915044038","ios":"levelo://app?vid=3681bf63-bad3-49e0-820f-750915044038"},"vehicle_type_id":"4","last_reported":1721067051,"current_range_meters":0,"station_id":"ce4bhp12rcd13ifvqh9g","pricing_plan_id":"cebpf4jnsgd1na2vs0mg"},{"bike_id":"62406532-c5e8-44fc-bcbc-fb26d9ba2d30","system_id":"levelo_inurba_marseille","lat":43.27971,"lon":5.38742,"is_reserved":false,"is_disabled":false,"rental_uris":{"android":"levelo://app?vid=62406532-c5e8-44fc-bcbc-fb26d9ba2d30","ios":"levelo://app?vid=62406532-c5e8-44fc-bcbc-fb26d9ba2d30"},"vehicle_type_id":"4","last_reported":1721067051,"current_range_meters":9200,"station_id":"ce4bhg12rcd13ifvqf80","pricing_plan_id":"cebpf4jnsgd1na2vs0mg"},{"bike_id":"ef189095-25f5-4951-bd77-1652f1b80746","system_id":"levelo_inurba_marseille","lat":43.27962,"lon":5.38736,"is_reserved":false,"is_disabled":false,"rental_uris":{"android":"levelo://app?vid=ef189095-25f5-4951-bd77-1652f1b80746","ios":"levelo://app?vid=ef189095-25f5-4951-bd77-1652f1b80746"},"vehicle_type_id":"4","last_reported":1721067051,"current_range_meters":2800,"station_id":"ce4bhg12rcd13ifvqf80","pricing_plan_id":"cebpf4jnsgd1na2vs0mg"},{"bike_id":"5f050af6-a00a-4c32-ae74-c5468944ab10","system_id":"levelo_inurba_marseille","lat":43.325233,"lon":5.414318,"is_reserved":false,"is_disabled":false,"rental_uris":{"android":"levelo://app?vid=5f050af6-a00a-4c32-ae74-c5468944ab10","ios":"levelo://app?vid=5f050af6-a00a-4c32-ae74-c5468944ab10"},"vehicle_type_id":"4","last_reported":1721067051,"current_range_meters":26000,"station_id":"ce4bhq12rcd13ifvqhhg","pricing_plan_id":"cebpf4jnsgd1na2vs0mg"},{"bike_id":"8d607e3b-b8c2-44b2-bf37-0bed2f5a05ec","system_id":"levelo_inurba_marseille","lat":43.27618,"lon":5.361009,"is_reserved":false,"is_disabled":false,"rental_uris":{"android":"levelo://app?vid=8d607e3b-b8c2-44b2-bf37-0bed2f5a05ec","ios":"levelo://app?vid=8d607e3b-b8c2-44b2-bf37-0bed2f5a05ec"},"vehicle_type_id":"4","last_reported":1721067051,"current_range_meters":4800,"station_id":"ce4bgj92rcd13ifvqbe0","pricing_plan_id":"cebpf4jnsgd1na2vs0mg"},{"bike_id":"a6164104-8747-44c7-a843-de8dba8bdb99","system_id":"levelo_inurba_marseille","lat":43.276179,"lon":5.361009,"is_reserved":false,"is_disabled":false,"rental_uris":{"android":"levelo://app?vid=a6164104-8747-44c7-a843-de8dba8bdb99","ios":"levelo://app?vid=a6164104-8747-44c7-a843-de8dba8bdb99"},"vehicle_type_id":"4","last_reported":1721067051,"current_range_meters":16800,"station_id":"ce4bgj92rcd13ifvqbe0","pricing_plan_id":"cebpf4jnsgd1na2vs0mg"},{"bike_id":"4e0af8c9-45b7-46c8-a322-e66baa465d66","system_id":"levelo_inurba_marseille","lat":43.27618,"lon":5.361009,"is_reserved":false,"is_disabled":false,"rental_uris":{"android":"levelo://app?vid=4e0af8c9-45b7-46c8-a322-e66baa465d66","ios":"levelo://app?vid=4e0af8c9-45b7-46c8-a322-e66baa465d66"},"vehicle_type_id":"4","last_reported":1721067051,"current_range_meters":10400,"station_id":"ce4bgj92rcd13ifvqbe0","pricing_plan_id":"cebpf4jnsgd1na2vs0mg"},{"bike_id":"9f2a309e-43c7-4493-99ad-7be11dd91b1e","system_id":"levelo_inurba_marseille","lat":43.27618,"lon":5.361009,"is_reserved":false,"is_disabled":false,"rental_uris":{"android":"levelo://app?vid=9f2a309e-43c7-4493-99ad-7be11dd91b1e","ios":"levelo://app?vid=9f2a309e-43c7-4493-99ad-7be11dd91b1e"},"vehicle_type_id":"4","last_reported":1721067051,"current_range_meters":24400,"station_id":"ce4bgj92rcd13ifvqbe0","pricing_plan_id":"cebpf4jnsgd1na2vs0mg"},{"bike_id":"094b18cb-ad21-4f3d-b553-18e630208a44","system_id":"levelo_inurba_marseille","lat":43.27618,"lon":5.361009,"is_reserved":false,"is_disabled":false,"rental_uris":{"android":"levelo://app?vid=094b18cb-ad21-4f3d-b553-18e630208a44","ios":"levelo://app?vid=094b18cb-ad21-4f3d-b553-18e630208a44"},"vehicle_type_id":"4","last_reported":1721067051,"current_range_meters":3200,"station_id":"ce4bgj92rcd13ifvqbe0","pricing_plan_id":"cebpf4jnsgd1na2vs0mg"},{"bike_id":"bd889982-c09b-4bbf-8a1a-9cb3f1a6fd2d","system_id":"levelo_inurba_marseille","lat":43.276179,"lon":5.361009,"is_reserved":false,"is_disabled":false,"rental_uris":{"android":"levelo://app?vid=bd889982-c09b-4bbf-8a1a-9cb3f1a6fd2d","ios":"levelo://app?vid=bd889982-c09b-4bbf-8a1a-9cb3f1a6fd2d"},"vehicle_type_id":"4","last_reported":1721067051,"current_range_meters":0,"station_id":"ce4bgj92rcd13ifvqbe0","pricing_plan_id":"cebpf4jnsgd1na2vs0mg"},{"bike_id":"c34f4479-9326-462c-9907-5320c663cdc2","system_id":"levelo_inurba_marseille","lat":43.276179,"lon":5.361009,"is_reserved":false,"is_disabled":false,"rental_uris":{"android":"levelo://app?vid=c34f4479-9326-462c-9907-5320c663cdc2","ios":"levelo://app?vid=c34f4479-9326-462c-9907-5320c663cdc2"},"vehicle_type_id":"4","last_reported":1721067051,"current_range_meters":18000,"station_id":"ce4bgj92rcd13ifvqbe0","pricing_plan_id":"cebpf4jnsgd1na2vs0mg"},{"bike_id":"41e80c44-17c4-4e60-b0f1-aae3ed9e6e9a","system_id":"levelo_inurba_marseille","lat":43.276179,"lon":5.361009,"is_reserved":false,"is_disabled":false,"rental_uris":{"android":"levelo://app?vid=41e80c44-17c4-4e60-b0f1-aae3ed9e6e9a","ios":"levelo://app?vid=41e80c44-17c4-4e60-b0f1-aae3ed9e6e9a"},"vehicle_type_id":"4","last_reported":1721067051,"current_range_meters":12800,"station_id":"ce4bgj92rcd13ifvqbe0","pricing_plan_id":"cebpf4jnsgd1na2vs0mg"},{"bike_id":"27e3edd0-aeb3-4546-ab82-60183c282c01","system_id":"levelo_inurba_marseille","lat":43.281693,"lon":5.395533,"is_reserved":false,"is_disabled":false,"rental_uris":{"android":"levelo://app?vid=27e3edd0-aeb3-4546-ab82-60183c282c01","ios":"levelo://app?vid=27e3edd0-aeb3-4546-ab82-60183c282c01"},"vehicle_type_id":"4","last_reported":1721067051,"current_range_meters":0,"station_id":"","pricing_plan_id":"cebpf4jnsgd1na2vs0mg"},{"bike_id":"f8b7f521-55dc-43df-aab4-dd58677a105a","system_id":"levelo_inurba_marseille","lat":43.32151,"lon":5.41786,"is_reserved":false,"is_disabled":false,"rental_uris":{"android":"levelo://app?vid=f8b7f521-55dc-43df-aab4-dd58677a105a","ios":"levelo://app?vid=f8b7f521-55dc-43df-aab4-dd58677a105a"},"vehicle_type_id":"4","last_reported":1721067051,"current_range_meters":20800,"station_id":"","pricing_plan_id":"cebpf4jnsgd1na2vs0mg"},{"bike_id":"ecb6dd09-9caa-4eb4-a8ba-96ef9d80e03d","system_id":"levelo_inurba_marseille","lat":43.3217,"lon":5.418,"is_reserved":false,"is_disabled":false,"rental_uris":{"android":"levelo://app?vid=ecb6dd09-9caa-4eb4-a8ba-96ef9d80e03d","ios":"levelo://app?vid=ecb6dd09-9caa-4eb4-a8ba-96ef9d80e03d"},"vehicle_type_id":"4","last_reported":1721067051,"current_range_meters":5200,"station_id":"","pricing_plan_id":"cebpf4jnsgd1na2vs0mg"},{"bike_id":"a8d1e358-3b10-4323-846b-035c85a749f9","system_id":"levelo_inurba_marseille","lat":43.280915,"lon":5.39658,"is_reserved":false,"is_disabled":false,"rental_uris":{"android":"levelo://app?vid=a8d1e358-3b10-4323-846b-035c85a749f9","ios":"levelo://app?vid=a8d1e358-3b10-4323-846b-035c85a749f9"},"vehicle_type_id":"4","last_reported":1721067051,"current_range_meters":3200,"station_id":"ce4bho12rcd13ifvqh2g","pricing_plan_id":"cebpf4jnsgd1na2vs0mg"},{"bike_id":"41aa6539-4155-48c6-8ae2-bab3b4add94f","system_id":"levelo_inurba_marseille","lat":43.280784,"lon":5.396622,"is_reserved":false,"is_disabled":false,"rental_uris":{"android":"levelo://app?vid=41aa6539-4155-48c6-8ae2-bab3b4add94f","ios":"levelo://app?vid=41aa6539-4155-48c6-8ae2-bab3b4add94f"},"vehicle_type_id":"4","last_reported":1721067051,"current_range_meters":17200,"station_id":"ce4bho12rcd13ifvqh2g","pricing_plan_id":"cebpf4jnsgd1na2vs0mg"},{"bike_id":"b33a118c-2ed0-4bdf-85cc-6ef50a9d7f0a","system_id":"levelo_inurba_marseille","lat":43.280784,"lon":5.396622,"is_reserved":false,"is_disabled":false,"rental_uris":{"android":"levelo://app?vid=b33a118c-2ed0-4bdf-85cc-6ef50a9d7f0a","ios":"levelo://app?vid=b33a118c-2ed0-4bdf-85cc-6ef50a9d7f0a"},"vehicle_type_id":"4","last_reported":1721067051,"current_range_meters":12800,"station_id":"ce4bho12rcd13ifvqh2g","pricing_plan_id":"cebpf4jnsgd1na2vs0mg"},{"bike_id":"2a5dec29-7a67-4c3a-9492-c38a05f4e87b","system_id":"levelo_inurba_marseille","lat":43.280784,"lon":5.396622,"is_reserved":false,"is_disabled":false,"rental_uris":{"android":"levelo://app?vid=2a5dec29-7a67-4c3a-9492-c38a05f4e87b","ios":"levelo://app?vid=2a5dec29-7a67-4c3a-9492-c38a05f4e87b"},"vehicle_type_id":"4","last_reported":1721067051,"current_range_meters":20400,"station_id":"ce4bho12rcd13ifvqh2g","pricing_plan_id":"cebpf4jnsgd1na2vs0mg"},{"bike_id":"800ebcac-c622-4209-9b1d-4dd7d54faf48","system_id":"levelo_inurba_marseille","lat":43.280784,"lon":5.396622,"is_reserved":false,"is_disabled":false,"rental_uris":{"android":"levelo://app?vid=800ebcac-c622-4209-9b1d-4dd7d54faf48","ios":"levelo://app?vid=800ebcac-c622-4209-9b1d-4dd7d54faf48"},"vehicle_type_id":"4","last_reported":1721067051,"current_range_meters":15600,"station_id":"ce4bho12rcd13ifvqh2g","pricing_plan_id":"cebpf4jnsgd1na2vs0mg"},{"bike_id":"e95d392d-d251-42dd-a9e5-d78b3b9afce2","system_id":"levelo_inurba_marseille","lat":43.280784,"lon":5.396622,"is_reserved":false,"is_disabled":false,"rental_uris":{"android":"levelo://app?vid=e95d392d-d251-42dd-a9e5-d78b3b9afce2","ios":"levelo://app?vid=e95d392d-d251-42dd-a9e5-d78b3b9afce2"},"vehicle_type_id":"4","last_reported":1721067051,"current_range_meters":30000,"station_id":"ce4bho12rcd13ifvqh2g","pricing_plan_id":"cebpf4jnsgd1na2vs0mg"},