{"last_updated":1750417757,"ttl":60,"version":"2.2","data":{"bikes":[{"bike_id":"3da29fb8-fc97-44c6-b9ac-31dd456b2fd4","system_id":"levelo_inurba_marseille","lat":43.33771,"lon":5.37424,"is_reserved":false,"is_disabled":true,"rental_uris":{"android":"levelo://app?vid=3da29fb8-fc97-44c6-b9ac-31dd456b2fd4","ios":"levelo://app?vid=3da29fb8-fc97-44c6-b9ac-31dd456b2fd4"},"vehicle_type_id":"4","last_reported":1750417757,"current_range_meters":0,"station_id":"","pricing_plan_id":"cebpf4jnsgd1na2vs0mg"},{"bike_id":"01861ad8-a8d7-4be6-816e-651927c87584","system_id":"levelo_inurba_marseille","lat":43.33751,"lon":5.37456,"is_reserved":false,"is_disabled":true,"rental_uris":{"android":"levelo://app?vid=01861ad8-a8d7-4be6-816e-651927c87584","ios":"levelo://app?vid=01861ad8-a8d7-4be6-816e-651927c87584"},"vehicle_type_id":"4","last_reported":1750417757,"current_range_meters":0,"station_id":"","pricing_plan_id":"cebpf4jnsgd1na2vs0mg"},{"bike_id":"4f79ed18-3754-4594-beef-87f7c093389b","system_id":"levelo_inurba_marseille","lat":43.34212,"lon":5.403572,"is_reserved":false,"is_disabled":true,"rental_uris":{"android":"levelo://app?vid=4f79ed18-3754-4594-beef-87f7c093389b","ios":"levelo://app?vid=4f79ed18-3754-4594-beef-87f7c093389b"},"vehicle_type_id":"4","last_reported":1750417757,"current_range_meters":0,"station_id":"","pricing_plan_id":"cebpf4jnsgd1na2vs0mg"},{"bike_id":"d2bd57c8-6b64-48db-ad24-5398eb3fd9d6","system_id":"levelo_inurba_marseille","lat":43.337444,"lon":5.374475,"is_reserved":false,"is_disabled":true,"rental_uris":{"android":"levelo://app?vid=d2bd57c8-6b64-48db-ad24-5398eb3fd9d6","ios":"levelo://app?vid=d2bd57c8-6b64-48db-ad24-5398eb3fd9d6"},"vehicle_type_id":"4","last_reported":1750417757,"current_range_meters":0,"station_id":"","pricing_plan_id":"cebpf4jnsgd1na2vs0mg"},{"bike_id":"62a493c7-4534-4419-ad43-0582de34a72a","system_id":"levelo_inurba_marseille","lat":43.21366,"lon":5.355183,"is_reserved":false,"is_disabled":true,"rental_uris":{"android":"levelo://app?vid=62a493c7-4534-4419-ad43-0582de34a72a","ios":"levelo://app?vid=62a493c7-4534-4419-ad43-0582de34a72a"},"vehicle_type_id":"4","last_reported":1750417757,"current_range_meters":0,"station_id":"","pricing_plan_id":"cebpf4jnsgd1na2vs0mg"},{"bike_id":"d6609b4f-333b-43c1-9ebe-8726f5e76e88","system_id":"levelo_inurba_marseille","lat":43.337444,"lon":5.374475,"is_reserved":false,"is_disabled":true,"rental_uris":{"android":"levelo://app?vid=d6609b4f-333b-43c1-9ebe-8726f5e76e88","ios":"levelo://app?vid=d6609b4f-333b-43c1-9ebe-8726f5e76e88"},"vehicle_type_id":"4","last_reported":1750417757,"current_range_meters":0,"station_id":"","pricing_plan_id":"cebpf4jnsgd1na2vs0mg"},{"bike_id":"bf38ae01-4915-46f9-9be2-7b6004f52c8e","system_id":"levelo_inurba_marseille","lat":43.29317,"lon":5.37171,"is_reserved":false,"is_disabled":true,"rental_uris":{"android":"levelo://app?vid=bf38ae01-4915-46f9-9be2-7b6004f52c8e","ios":"levelo://app?vid=bf38ae01-4915-46f9-9be2-7b6004f52c8e"},"vehicle_type_id":"4","last_reported":1750417757,"current_range_meters":0,"station_id":"ce4bgh92rcd13ifvqb40","pricing_plan_id":"cebpf4jnsgd1na2vs0mg"},{"bike_id":"faedb750-b8ea-4e5f-b7f1-2931a192c239","system_id":"levelo_inurba_marseille","lat":43.31317,"lon":5.36744,"is_reserved":false,"is_disabled":true,"rental_uris":{"android":"levelo://app?vid=faedb750-b8ea-4e5f-b7f1-2931a192c239","ios":"levelo://app?vid=faedb750-b8ea-4e5f-b7f1-2931a192c239"},"vehicle_type_id":"4","last_reported":1750417757,"current_range_meters":0,"station_id":"ce4bgr92rcd13ifvqc6g","pricing_plan_id":"cebpf4jnsgd1na2vs0mg"},{"bike_id":"8d241f21-090d-4103-8441-016f33bf950d","system_id":"levelo_inurba_marseille","lat":43.29527,"lon":5.39022,"is_reserved":false,"is_disabled":true,"rental_uris":{"android":"levelo://app?vid=8d241f21-090d-4103-8441-016f33bf950d","ios":"levelo://app?vid=8d241f21-090d-4103-8441-016f33bf950d"},"vehicle_type_id":"4","last_reported":1750417757,"current_range_meters":0,"station_id":"ce4bh3p2rcd13ifvqdp0","pricing_plan_id":"cebpf4jnsgd1na2vs0mg"},{"bike_id":"469068c6-d1d6-4189-a7f3-a61f64afa462","system_id":"levelo_inurba_marseille","lat":43.27325,"lon":5.39065,"is_reserved":false,"is_disabled":true,"rental_uris":{"android":"levelo://app?vid=469068c6-d1d6-4189-a7f3-a61f64afa462","ios":"levelo://app?vid=469068c6-d1d6-4189-a7f3-a61f64afa462"},"vehicle_type_id":"4","last_reported":1750417757,"current_range_meters":0,"station_id":"ce4bhgp2rcd13ifvqfe0","pricing_plan_id":"cebpf4jnsgd1na2vs0mg"},{"bike_id":"9491b791-a5aa-472a-b475-a8adbacb70fe","system_id":"levelo_inurba_marseille","lat":43.34145,"lon":5.40945,"is_reserved":false,"is_disabled":true,"rental_uris":{"android":"levelo://app?vid=9491b791-a5aa-472a-b475-a8adbacb70fe","ios":"levelo://app?vid=9491b791-a5aa-472a-b475-a8adbacb70fe"},"vehicle_type_id":"4","last_reported":1750417757,"current_range_meters":0,"station_id":"ce4bhqh2rcd13ifvqhlg","pricing_plan_id":"cebpf4jnsgd1na2vs0mg"},{"bike_id":"8f49a748-5547-4851-a01f-ec21c1b4690e","system_id":"levelo_inurba_marseille","lat":43.325,"lon":5.36564,"is_reserved":false,"is_disabled":true,"rental_uris":{"android":"levelo://app?vid=8f49a748-5547-4851-a01f-ec21c1b4690e","ios":"levelo://app?vid=8f49a748-5547-4851-a01f-ec21c1b4690e"},"vehicle_type_id":"4","last_reported":1750417757,"current_range_meters":0,"station_id":"ce4bhs12rcd13ifvqhvg","pricing_plan_id":"cebpf4jnsgd1na2vs0mg"},{"bike_id":"de304e80-b21e-4423-a36e-c975e57153c2","system_id":"levelo_inurba_marseille","lat":43.22934,"lon":5.35378,"is_reserved":false,"is_disabled":true,"rental_uris":{"android":"levelo://app?vid=de304e80-b21e-4423-a36e-c975e57153c2","ios":"levelo://app?vid=de304e80-b21e-4423-a36e-c975e57153c2"},"vehicle_type_id":"4","last_reported":1750417757,"current_range_meters":0,"station_id":"cpo3532slgdg3j2ikp40","pricing_plan_id":"cebpf4jnsgd1na2vs0mg"},{"bike_id":"ab2794d7-3c04-4647-b150-b0b87446b377","system_id":"levelo_inurba_marseille","lat":43.24172,"lon":5.36405,"is_reserved":false,"is_disabled":true,"rental_uris":{"android":"levelo://app?vid=ab2794d7-3c04-4647-b150-b0b87446b377","ios":"levelo://app?vid=ab2794d7-3c04-4647-b150-b0b87446b377"},"vehicle_type_id":"4","last_reported":1750417757,"current_range_meters":0,"station_id":"cpo36qri1sfpv3e86is0","pricing_plan_id":"cebpf4jnsgd1na2vs0mg"},{"bike_id":"d5a1ae9e-4421-4539-b5ac-98a00695a8d8","system_id":"levelo_inurba_marseille","lat":43.33435,"lon":5.40067,"is_reserved":false,"is_disabled":true,"rental_uris":{"android":"levelo://app?vid=d5a1ae9e-4421-4539-b5ac-98a00695a8d8","ios":"levelo://app?vid=d5a1ae9e-4421-4539-b5ac-98a00695a8d8"},"vehicle_type_id":"4","last_reported":1750417757,"current_range_meters":400,"station_id":"","pricing_plan_id":"cebpf4jnsgd1na2vs0mg"},{"bike_id":"1d3c5359-5208-4100-a7e3-a6f9f6eda1fe","system_id":"levelo_inurba_marseille","lat":43.3361,"lon":5.41041,"is_reserved":false,"is_disabled":true,"rental_uris":{"android":"levelo://app?vid=1d3c5359-5208-4100-a7e3-a6f9f6eda1fe","ios":"levelo://app?vid=1d3c5359-5208-4100-a7e3-a6f9f6eda1fe"},"vehicle_type_id":"4","last_reported":1750417757,"current_range_meters":400,"station_id":"ce4bhqh2rcd13ifvqhmg","pricing_plan_id":"cebpf4jnsgd1na2vs0mg"},{"bike_id":"504efa72-4a24-4f08-b517-7ea5ce74fbe5","system_id":"levelo_inurba_marseille","lat":43.24168,"lon":5.36381,"is_reserved":false,"is_disabled":true,"rental_uris":{"android":"levelo://app?vid=504efa72-4a24-4f08-b517-7ea5ce74fbe5","ios":"levelo://app?vid=504efa72-4a24-4f08-b517-7ea5ce74fbe5"},"vehicle_type_id":"4","last_reported":1750417757,"current_range_meters":400,"station_id":"cpo36qri1sfpv3e86is0","pricing_plan_id":"cebpf4jnsgd1na2vs0mg"},{"bike_id":"62601cf6-4d7a-474f-a378-dfdbba984829","system_id":"levelo_inurba_marseille","lat":43.31287,"lon":5.40134,"is_reserved":false,"is_disabled":true,"rental_uris":{"android":"levelo://app?vid=62601cf6-4d7a-474f-a378-dfdbba984829","ios":"levelo://app?vid=62601cf6-4d7a-474f-a378-dfdbba984829"},"vehicle_type_id":"4","last_reported":1750417757,"current_range_meters":800,"station_id":"ce4bh092rcd13ifvqd30","pricing_plan_id":"cebpf4jnsgd1na2vs0mg"},{"bike_id":"b2cf7112-e147-4071-be2c-27b67540654b","system_id":"levelo_inurba_marseille","lat":43.30654,"lon":5.40092,"is_reserved":false,"is_disabled":true,"rental_uris":{"android":"levelo://app?vid=b2cf7112-e147-4071-be2c-27b67540654b","ios":"levelo://app?vid=b2cf7112-e147-4071-be2c-27b67540654b"},"vehicle_type_id":"4","last_reported":1750417757,"current_range_meters":1200,"station_id":"ce4bh112rcd13ifvqda0","pricing_plan_id":"cebpf4jnsgd1na2vs0mg"},{"bike_id":"6569ce74-54fa-4158-8b1c-95fe9ba22a25","system_id":"levelo_inurba_marseille","lat":43.290232,"lon":5.381227,"is_reserved":false,"is_disabled":true,"rental_uris":{"android":"levelo://app?vid=6569ce74-54fa-4158-8b1c-95fe9ba22a25","ios":"levelo://app?vid=6569ce74-54fa-4158-8b1c-95fe9ba22a25"},"vehicle_type_id":"4","last_reported":1750417757,"current_range_meters":1200,"station_id":"ce4bh4p2rcd13ifvqe1g","pricing_plan_id":"cebpf4jnsgd1na2vs0mg"},{"bike_id":"a50a6588-33f7-480b-86db-f01191577927","system_id":"levelo_inurba_marseille","lat":43.28154,"lon":5.42649,"is_reserved":false,"is_disabled":true,"rental_uris":{"android":"levelo://app?vid=a50a6588-33f7-480b-86db-f01191577927","ios":"levelo://app?vid=a50a6588-33f7-480b-86db-f01191577927"},"vehicle_type_id":"4","last_reported":1750417757,"current_range_meters":1200,"station_id":"ce4bhnh2rcd13ifvqgug","pricing_plan_id":"cebpf4jnsgd1na2vs0mg"},{"bike_id":"03335c97-3828-4146-9108-72b9eb0b89cf","system_id":"levelo_inurba_marseille","lat":43.217468,"lon":5.346011,"is_reserved":false,"is_disabled":true,"rental_uris":{"android":"levelo://app?vid=03335c97-3828-4146-9108-72b9eb0b89cf","ios":"levelo://app?vid=03335c97-3828-4146-9108-72b9eb0b89cf"},"vehicle_type_id":"4","last_reported":1750417757,"current_range_meters":1600,"station_id":"st_cvj6r9ubvosntc0bgbag","pricing_plan_id":"cebpf4jnsgd1na2vs0mg"},{"bike_id":"3f258d88-267f-4bff-b163-6fcc72ff584f","system_id":"levelo_inurba_marseille","lat":43.29567,"lon":5.37511,"is_reserved":false,"is_disabled":true,"rental_uris":{"android":"levelo://app?vid=3f258d88-267f-4bff-b163-6fcc72ff584f","ios":"levelo://app?vid=3f258d88-267f-4bff-b163-6fcc72ff584f"},"vehicle_type_id":"4","last_reported":1750417757,"current_range_meters":2000,"station_id":"ce4bgh92rcd13ifvqb50","pricing_plan_id":"cebpf4jnsgd1na2vs0mg"},{"bike_id":"dd23704f-a752-40d5-9fa9-6d10a11339bb","system_id":"levelo_inurba_marseille","lat":43.30545,"lon":5.36557,"is_reserved":false,"is_disabled":true,"rental_uris":{"android":"levelo://app?vid=dd23704f-a752-40d5-9fa9-6d10a11339bb","ios":"levelo://app?vid=dd23704f-a752-40d5-9fa9-6d10a11339bb"},"vehicle_type_id":"4","last_reported":1750417757,"current_range_meters":2000,"station_id":"ce4bgs12rcd13ifvqcag","pricing_plan_id":"cebpf4jnsgd1na2vs0mg"},{"bike_id":"0cc1a7cc-d9b5-4b90-bef8-84fa9d3f0748","system_id":"levelo_inurba_marseille","lat":43.31496,"lon":5.37308,"is_reserved":false,"is_disabled":true,"rental_uris":{"android":"levelo://app?vid=0cc1a7cc-d9b5-4b90-bef8-84fa9d3f0748","ios":"levelo://app?vid=0cc1a7cc-d9b5-4b90-bef8-84fa9d3f0748"},"vehicle_type_id":"4","last_reported":1750417757,"current_range_meters":2000,"station_id":"ce4bgt12rcd13ifvqcd0","pricing_plan_id":"cebpf4jnsgd1na2vs0mg"},{"bike_id":"eb182add-faa0-48f1-96f0-75a6e7039674","system_id":"levelo_inurba_marseille","lat":43.29291,"lon":5.40208,"is_reserved":false,"is_disabled":true,"rental_uris":{"android":"levelo://app?vid=eb182add-faa0-48f1-96f0-75a6e7039674","ios":"levelo://app?vid=eb182add-faa0-48f1-96f0-75a6e7039674"},"vehicle_type_id":"4","last_reported":1750417757,"current_range_meters":2000,"station_id":"ce4bh312rcd13ifvqdk0","pricing_plan_id":"cebpf4jnsgd1na2vs0mg"},{"bike_id":"16f10012-9850-44bd-a9f7-0b9ada868039","system_id":"levelo_inurba_marseille","lat":43.26565,"lon":5.38998,"is_reserved":false,"is_disabled":false,"rental_uris":{"android":"levelo://app?vid=16f10012-9850-44bd-a9f7-0b9ada868039","ios":"levelo://app?vid=16f10012-9850-44bd-a9f7-0b9ada868039"},"vehicle_type_id":"4","last_reported":1750417757,"current_range_meters":2800,"station_id":"ce4bhe12rcd13ifvqf30","pricing_plan_id":"cebpf4jnsgd1na2vs0mg"},{"bike_id":"27753e77-aae3-41d9-a59b-14c026f9089b","system_id":"levelo_inurba_marseille","lat":43.24154,"lon":5.36385,"is_reserved":false,"is_disabled":false,"rental_uris":{"android":"levelo://app?vid=27753e77-aae3-41d9-a59b-14c026f9089b","ios":"levelo://app?vid=27753e77-aae3-41d9-a59b-14c026f9089b"},"vehicle_type_id":"4","last_reported":1750417757,"current_range_meters":2800,"station_id":"cpo36qri1sfpv3e86is0","pricing_plan_id":"cebpf4jnsgd1na2vs0mg"},{"bike_id":"aca23b85-2d0a-4a04-879c-a12cefefd928","system_id":"levelo_inurba_marseille","lat":43.31079,"lon":5.38354,"is_reserved":false,"is_disabled":false,"rental_uris":{"android":"levelo://app?vid=aca23b85-2d0a-4a04-879c-a12cefefd928","ios":"levelo://app?vid=aca23b85-2d0a-4a04-879c-a12cefefd928"},"vehicle_type_id":"4","last_reported":1750417757,"current_range_meters":3200,"station_id":"ce4bgv92rcd13ifvqcr0","pricing_plan_id":"cebpf4jnsgd1na2vs0mg"},{"bike_id":"36db831d-73d5-4b49-83ec-0dda5e8f4d06","system_id":"levelo_inurba_marseille","lat":43.29533,"lon":5.38536,"is_reserved":false,"is_disabled":false,"rental_uris":{"android":"levelo://app?vid=36db831d-73d5-4b49-83ec-0dda5e8f4d06","ios":"levelo://app?vid=36db831d-73d5-4b49-83ec-0dda5e8f4d06"},"vehicle_type_id":"4","last_reported":1750417757,"current_range_meters":4000,"station_id":"ce4bgih2rcd13ifvqba0","pricing_plan_id":"cebpf4jnsgd1na2vs0mg"},{"bike_id":"1b424ef5-777b-48cf-b38f-1499a1f4f17c","system_id":"levelo_inurba_marseille","lat":43.284301,"lon":5.349668,"is_reserved":false,"is_disabled":false,"rental_uris":{"android":"levelo://app?vid=1b424ef5-777b-48cf-b38f-1499a1f4f17c","ios":"levelo://app?vid=1b424ef5-777b-48cf-b38f-1499a1f4f17c"},"vehicle_type_id":"4","last_reported":1750417757,"current_range_meters":4000,"station_id":"ce4bhbh2rcd13ifvqepg","pricing_plan_id":"cebpf4jnsgd1na2vs0mg"},{"bike_id":"9219617b-bd32-4f08-9e33-b1c7207dfa8b","system_id":"levelo_inurba_marseille","lat":43.31084,"lon":5.42427,"is_reserved":false,"is_disabled":false,"rental_uris":{"android":"levelo://app?vid=9219617b-bd32-4f08-9e33-b1c7207dfa8b","ios":"levelo://app?vid=9219617b-bd32-4f08-9e33-b1c7207dfa8b"},"vehicle_type_id":"4","last_reported":1750417757,"current_range_meters":4000,"station_id":"ce4bhp92rcd13ifvqhag","pricing_plan_id":"cebpf4jnsgd1na2vs0mg"},{"bike_id":"e2b0a006-f829-46ab-a14e-6dfa147c551e","system_id":"levelo_inurba_marseille","lat":43.33018,"lon":5.39011,"is_reserved":false,"is_disabled":false,"rental_uris":{"android":"levelo://app?vid=e2b0a006-f829-46ab-a14e-6dfa147c551e","ios":"levelo://app?vid=e2b0a006-f829-46ab-a14e-6dfa147c551e"},"vehicle_type_id":"4","last_reported":1750417757,"current_range_meters":4000,"station_id":"ce4bhr92rcd13ifvqhrg","pricing_plan_id":"cebpf4jnsgd1na2vs0mg"},{"bike_id":"5f74e68c-5a7b-4ab3-b13b-3e297bef3926","system_id":"levelo_inurba_marseille","lat":43.23197,"lon":5.35551,"is_reserved":false,"is_disabled":false,"rental_uris":{"android":"levelo://app?vid=5f74e68c-5a7b-4ab3-b13b-3e297bef3926","ios":"levelo://app?vid=5f74e68c-5a7b-4ab3-b13b-3e297bef3926"},"vehicle_type_id":"4","last_reported":1750417757,"current_range_meters":4000,"station_id":"ce4bhu92rcd13ifvqi70","pricing_plan_id":"cebpf4jnsgd1na2vs0mg"},{"bike_id":"d62d26ef-76cb-47b2-9bb7-3179c90d044f","system_id":"levelo_inurba_marseille","lat":43.304724,"lon":5.379027,"is_reserved":false,"is_disabled":false,"rental_uris":{"android":"levelo://app?vid=d62d26ef-76cb-47b2-9bb7-3179c90d044f","ios":"levelo://app?vid=d62d26ef-76cb-47b2-9bb7-3179c90d044f"},"vehicle_type_id":"4","last_reported":1750417757,"current_range_meters":4400,"station_id":"","pricing_plan_id":"cebpf4jnsgd1na2vs0mg"},{"bike_id":"c25c41bc-9667-4236-a4d1-c442250cc1a5","system_id":"levelo_inurba_marseille","lat":43.29707,"lon":5.36581,"is_reserved":false,"is_disabled":false,"rental_uris":{"android":"levelo://app?vid=c25c41bc-9667-4236-a4d1-c442250cc1a5","ios":"levelo://app?vid=c25c41bc-9667-4236-a4d1-c442250cc1a5"},"vehicle_type_id":"4","last_reported":1750417757,"current_range_meters":4400,"station_id":"ce4bgn12rcd13ifvqbt0","pricing_plan_id":"cebpf4jnsgd1na2vs0mg"},{"bike_id":"f19695c5-90fc-4ac3-8680-d4502261ace9","system_id":"levelo_inurba_marseille","lat":43.2858,"lon":5.39487,"is_reserved":false,"is_disabled":false,"rental_uris":{"android":"levelo://app?vid=f19695c5-90fc-4ac3-8680-d4502261ace9","ios":"levelo://app?vid=f19695c5-90fc-4ac3-8680-d4502261ace9"},"vehicle_type_id":"4","last_reported":1750417757,"current_range_meters":4400,"station_id":"ce4bh292rcd13ifvqdg0","pricing_plan_id":"cebpf4jnsgd1na2vs0mg"},{"bike_id":"3723de62-433c-4357-8bc6-fafa87279a39","system_id":"levelo_inurba_marseille","lat":43.28568,"lon":5.39497,"is_reserved":false,"is_disabled":false,"rental_uris":{"android":"levelo://app?vid=3723de62-433c-4357-8bc6-fafa87279a39","ios":"levelo://app?vid=3723de62-433c-4357-8bc6-fafa87279a39"},"vehicle_type_id":"4","last_reported":1750417757,"current_range_meters":4400,"station_id":"ce4bh292rcd13ifvqdg0","pricing_plan_id":"cebpf4jnsgd1na2vs0mg"},{"bike_id":"61865e47-c567-4800-a1da-96a2485a9813","system_id":"levelo_inurba_marseille","lat":43.28347,"lon":5.38103,"is_reserved":false,"is_disabled":false,"rental_uris":{"android":"levelo://app?vid=61865e47-c567-4800-a1da-96a2485a9813","ios":"levelo://app?vid=61865e47-c567-4800-a1da-96a2485a9813"},"vehicle_type_id":"4","last_reported":1750417757,"current_range_meters":4400,"station_id":"ce4bh412rcd13ifvqdr0","pricing_plan_id":"cebpf4jnsgd1na2vs0mg"},{"bike_id":"a666abf9-9059-4202-ae47-694f5365d78d","system_id":"levelo_inurba_marseille","lat":43.28069,"lon":5.34758,"is_reserved":false,"is_disabled":false,"rental_uris":{"android":"levelo://app?vid=a666abf9-9059-4202-ae47-694f5365d78d","ios":"levelo://app?vid=a666abf9-9059-4202-ae47-694f5365d78d"},"vehicle_type_id":"4","last_reported":1750417757,"current_range_meters":4800,"station_id":"","pricing_plan_id":"cebpf4jnsgd1na2vs0mg"},{"bike_id":"8afa4c99-bda7-4663-8cf3-2b2b43357814","system_id":"levelo_inurba_marseille","lat":43.297095,"lon":5.366072,"is_reserved":false,"is_disabled":false,"rental_uris":{"android":"levelo://app?vid=8afa4c99-bda7-4663-8cf3-2b2b43357814","ios":"levelo://app?vid=8afa4c99-bda7-4663-8cf3-2b2b43357814"},"vehicle_type_id":"4","last_reported":1750417757,"current_range_meters":4800,"station_id":"ce4bgn12rcd13ifvqbt0","pricing_plan_id":"cebpf4jnsgd1na2vs0mg"},{"bike_id":"ea25b4c1-b00e-4403-8b94-e2f93e6fd6ef","system_id":"levelo_inurba_marseille","lat":43.2606,"lon":5.39393,"is_reserved":false,"is_disabled":false,"rental_uris":{"android":"levelo://app?vid=ea25b4c1-b00e-4403-8b94-e2f93e6fd6ef","ios":"levelo://app?vid=ea25b4c1-b00e-4403-8b94-e2f93e6fd6ef"},"vehicle_type_id":"4","last_reported":1750417757,"current_range_meters":4800,"station_id":"ce4bhh92rcd13ifvqfj0","pricing_plan_id":"cebpf4jnsgd1na2vs0mg"},{"bike_id":"02c8328a-1e0c-43b9-b20a-72a6553a5656","system_id":"levelo_inurba_marseille","lat":43.29909,"lon":5.43685,"is_reserved":false,"is_disabled":false,"rental_uris":{"android":"levelo://app?vid=02c8328a-1e0c-43b9-b20a-72a6553a5656","ios":"levelo://app?vid=02c8328a-1e0c-43b9-b20a-72a6553a5656"},"vehicle_type_id":"4","last_reported":1750417757,"current_range_meters":4800,"station_id":"ce4bhpp2rcd13ifvqhfg","pricing_plan_id":"cebpf4jnsgd1na2vs0mg"},{"bike_id":"44d456a7-c0e7-41d7-9a62-d69932ee1ca4","system_id":"levelo_inurba_marseille","lat":43.24393,"lon":5.37063,"is_reserved":false,"is_disabled":false,"rental_uris":{"android":"levelo://app?vid=44d456a7-c0e7-41d7-9a62-d69932ee1ca4","ios":"levelo://app?vid=44d456a7-c0e7-41d7-9a62-d69932ee1ca4"},"vehicle_type_id":"4","last_reported":1750417757,"current_range_meters":5600,"station_id":"ce4bhhh2rcd13ifvqfk0","pricing_plan_id":"cebpf4jnsgd1na2vs0mg"},{"bike_id":"75468c05-c09e-451e-a194-7b40ec02cfae","system_id":"levelo_inurba_marseille","lat":43.27947,"lon":5.41039,"is_reserved":false,"is_disabled":false,"rental_uris":{"android":"levelo://app?vid=75468c05-c09e-451e-a194-7b40ec02cfae","ios":"levelo://app?vid=75468c05-c09e-451e-a194-7b40ec02cfae"},"vehicle_type_id":"4","last_reported":1750417757,"current_range_meters":5600,"station_id":"ce4bhnp2rcd13ifvqh0g","pricing_plan_id":"cebpf4jnsgd1na2vs0mg"},{"bike_id":"c6d92c7c-5b03-4f50-92af-0a189777b633","system_id":"levelo_inurba_marseille","lat":43.310738,"lon":5.383559,"is_reserved":false,"is_disabled":false,"rental_uris":{"android":"levelo://app?vid=c6d92c7c-5b03-4f50-92af-0a189777b633","ios":"levelo://app?vid=c6d92c7c-5b03-4f50-92af-0a189777b633"},"vehicle_type_id":"4","last_reported":1750417757,"current_range_meters":6000,"station_id":"ce4bgv92rcd13ifvqcr0","pricing_plan_id":"cebpf4jnsgd1na2vs0mg"},{"bike_id":"f8d84068-d7b8-4784-9193-6e65b49efd49","system_id":"levelo_inurba_marseille","lat":43.28679,"lon":5.38665,"is_reserved":false,"is_disabled":false,"rental_uris":{"android":"levelo://app?vid=f8d84068-d7b8-4784-9193-6e65b49efd49","ios":"levelo://app?vid=f8d84068-d7b8-4784-9193-6e65b49efd49"},"vehicle_type_id":"4","last_reported":1750417757,"current_range_meters":6000,"station_id":"ce4bh492rcd13ifvqdug","pricing_plan_id":"cebpf4jnsgd1na2vs0mg"},{"bike_id":"da77d13d-a0ec-4c65-a89c-a5b824007f68","system_id":"levelo_inurba_marseille","lat":43.317352,"lon":5.390043,"is_reserved":false,"is_disabled":false,"rental_uris":{"android":"levelo://app?vid=da77d13d-a0ec-4c65-a89c-a5b824007f68","ios":"levelo://app?vid=da77d13d-a0ec-4c65-a89c-a5b824007f68"},"vehicle_type_id":"4","last_reported":1750417757,"current_range_meters":6000,"station_id":"ce4bhqp2rcd13ifvqhng","pricing_plan_id":"cebpf4jnsgd1na2vs0mg"},{"bike_id":"268aafb4-1331-426c-97bc-a7d6564caeb6","system_id":"levelo_inurba_marseille","lat":43.32933,"lon":5.37919,"is_reserved":false,"is_disabled":false,"rental_uris":{"android":"levelo://app?vid=268aafb4-1331-426c-97bc-a7d6564caeb6","ios":"levelo://app?vid=268aafb4-1331-426c-97bc-a7d6564caeb6"},"vehicle_type_id":"4","last_reported":1750417757,"current_range_meters":6400,"station_id":"","pricing_plan_id":"cebpf4jnsgd1na2vs0mg"},{"bike_id":"0dedb6f6-6801-483b-bfb8-9cd4533d158f","system_id":"levelo_inurba_marseille","lat":43.31134,"lon":5.38101,"is_reserved":false,"is_disabled":false,"rental_uris":{"android":"levelo://app?vid=0dedb6f6-6801-483b-bfb8-9cd4533d158f","ios":"levelo://app?vid=0dedb6f6-6801-483b-bfb8-9cd4533d158f"},"vehicle_type_id":"4","last_reported":1750417757,"current_range_meters":6400,"station_id":"","pricing_plan_id":"cebpf4jnsgd1na2vs0mg"},{"bike_id":"1777fd74-2552-4c4b-9691-d69e3fd088f0","system_id":"levelo_inurba_marseille","lat":43.29618,"lon":5.37717,"is_reserved":false,"is_disabled":false,"rental_uris":{"android":"levelo://app?vid=1777fd74-2552-4c4b-9691-d69e3fd088f0","ios":"levelo://app?vid=1777fd74-2552-4c4b-9691-d69e3fd088f0"},"vehicle_type_id":"4","last_reported":1750417757,"current_range_meters":6400,"station_id":"ce4bgi92rcd13ifvqb90","pricing_plan_id":"cebpf4jnsgd1na2vs0mg"},{"bike_id":"dba40f4c-521c-4b7f-95ed-25c6e0811189","system_id":"levelo_inurba_marseille","lat":43.27621,"lon":5.36102,"is_reserved":false,"is_disabled":false,"rental_uris":{"android":"levelo://app?vid=dba40f4c-521c-4b7f-95ed-25c6e0811189","ios":"levelo://app?vid=dba40f4c-521c-4b7f-95ed-25c6e0811189"},"vehicle_type_id":"4","last_reported":1750417757,"current_range_meters":6400,"station_id":"ce4bgj92rcd13ifvqbe0","pricing_plan_id":"cebpf4jnsgd1na2vs0mg"},{"bike_id":"0b1e53b6-bc72-4bff-b2c0-17099e7d43a1","system_id":"levelo_inurba_marseille","lat":43.31497,"lon":5.373,"is_reserved":false,"is_disabled":false,"rental_uris":{"android":"levelo://app?vid=0b1e53b6-bc72-4bff-b2c0-17099e7d43a1","ios":"levelo://app?vid=0b1e53b6-bc72-4bff-b2c0-17099e7d43a1"},"vehicle_type_id":"4","last_reported":1750417757,"current_range_meters":6400,"station_id":"ce4bgt12rcd13ifvqcd0","pricing_plan_id":"cebpf4jnsgd1na2vs0mg"},{"bike_id":"ef21d472-619b-4672-9054-97ec3bc97065","system_id":"levelo_inurba_marseille","lat":43.29882,"lon":5.43653,"is_reserved":false,"is_disabled":false,"rental_uris":{"android":"levelo://app?vid=ef21d472-619b-4672-9054-97ec3bc97065","ios":"levelo://app?vid=ef21d472-619b-4672-9054-97ec3bc97065"},"vehicle_type_id":"4","last_reported":1750417757,"current_range_meters":6800,"station_id":"ce4bhpp2rcd13ifvqhfg","pricing_plan_id":"cebpf4jnsgd1na2vs0mg"},{"bike_id":"5b39304c-cb4a-40a2-8abf-34b31eac477e","system_id":"levelo_inurba_marseille","lat":43.29035,"lon":5.38148,"is_reserved":false,"is_disabled":false,"rental_uris":{"android":"levelo://app?vid=5b39304c-cb4a-40a2-8abf-34b31eac477e","ios":"levelo://app?vid=5b39304c-cb4a-40a2-8abf-34b31eac477e"},"vehicle_type_id":"4","last_reported":1750417757,"current_range_meters":7200,"station_id":"ce4bh4p2rcd13ifvqe1g","pricing_plan_id":"cebpf4jnsgd1na2vs0mg"},{"bike_id":"0091825b-a567-438a-a8c3-59737f570e01","system_id":"levelo_inurba_marseille","lat":43.2893,"lon":5.36393,"is_reserved":false,"is_disabled":false,"rental_uris":{"android":"levelo://app?vid=0091825b-a567-438a-a8c3-59737f570e01","ios":"levelo://app?vid=0091825b-a567-438a-a8c3-59737f570e01"},"vehicle_type_id":"4","last_reported":1750417757,"current_range_meters":7200,"station_id":"ce4bhc92rcd13ifvqetg","pricing_plan_id":"cebpf4jnsgd1na2vs0mg"},{"bike_id":"c40946bd-0669-481e-81b6-0016ba7ffe28","system_id":"levelo_inurba_marseille","lat":43.329113,"lon":5.389443,"is_reserved":false,"is_disabled":false,"rental_uris":{"android":"levelo://app?vid=c40946bd-0669-481e-81b6-0016ba7ffe28","ios":"levelo://app?vid=c40946bd-0669-481e-81b6-0016ba7ffe28"},"vehicle_type_id":"4","last_reported":1750417757,"current_range_meters":7200,"station_id":"ce4bhr92rcd13ifvqhrg","pricing_plan_id":"cebpf4jnsgd1na2vs0mg"},{"bike_id":"e7ea39a0-08e1-4f09-8f3f-e30c119e669a","system_id":"levelo_inurba_marseille","lat":43.30802,"lon":5.43695,"is_reserved":false,"is_disabled":false,"rental_uris":{"android":"levelo://app?vid=e7ea39a0-08e1-4f09-8f3f-e30c119e669a","ios":"levelo://app?vid=e7ea39a0-08e1-4f09-8f3f-e30c119e669a"},"vehicle_type_id":"4","last_reported":1750417757,"current_range_meters":8000,"station_id":"","pricing_plan_id":"cebpf4jnsgd1na2vs0mg"},{"bike_id":"5ccf7302-f90c-4e07-a41e-587370d7b14e","system_id":"levelo_inurba_marseille","lat":43.2894,"lon":5.36633,"is_reserved":false,"is_disabled":false,"rental_uris":{"android":"levelo://app?vid=5ccf7302-f90c-4e07-a41e-587370d7b14e","ios":"levelo://app?vid=5ccf7302-f90c-4e07-a41e-587370d7b14e"},"vehicle_type_id":"4","last_reported":1750417757,"current_range_meters":8000,"station_id":"ce4bhap2rcd13ifvqek0","pricing_plan_id":"cebpf4jnsgd1na2vs0mg"},{"bike_id":"e2154599-1a95-44de-8d18-d9e76b4ffa33","system_id":"levelo_inurba_marseille","lat":43.21752,"lon":5.34599,"is_reserved":false,"is_disabled":false,"rental_uris":{"android":"levelo://app?vid=e2154599-1a95-44de-8d18-d9e76b4ffa33","ios":"levelo://app?vid=e2154599-1a95-44de-8d18-d9e76b4ffa33"},"vehicle_type_id":"4","last_reported":1750417757,"current_range_meters":8000,"station_id":"st_cvj6r9ubvosntc0bgbag","pricing_plan_id":"cebpf4jnsgd1na2vs0mg"},{"bike_id":"ef4710a9-82c9-4f3e-9d41-3342bd85259a","system_id":"levelo_inurba_marseille","lat":43.26557,"lon":5.37277,"is_reserved":false,"is_disabled":false,"rental_uris":{"android":"levelo://app?vid=ef4710a9-82c9-4f3e-9d41-3342bd85259a","ios":"levelo://app?vid=ef4710a9-82c9-4f3e-9d41-3342bd85259a"},"vehicle_type_id":"4","last_reported":1750417757,"current_range_meters":8400,"station_id":"ce4bhg12rcd13ifvqf70","pricing_plan_id":"cebpf4jnsgd1na2vs0mg"},{"bike_id":"495f3928-e7eb-4491-92b6-0e37031a8418","system_id":"levelo_inurba_marseille","lat":43.26955,"lon":5.38627,"is_reserved":false,"is_disabled":false,"rental_uris":{"android":"levelo://app?vid=495f3928-e7eb-4491-92b6-0e37031a8418","ios":"levelo://app?vid=495f3928-e7eb-4491-92b6-0e37031a8418"},"vehicle_type_id":"4","last_reported":1750417757,"current_range_meters":8400,"station_id":"ce4bhh92rcd13ifvqfh0","pricing_plan_id":"cebpf4jnsgd1na2vs0mg"},{"bike_id":"791230d7-d8e7-4dee-8e0d-b4dcc6f926c1","system_id":"levelo_inurba_marseille","lat":43.23134,"lon":5.43721,"is_reserved":false,"is_disabled":false,"rental_uris":{"android":"levelo://app?vid=791230d7-d8e7-4dee-8e0d-b4dcc6f926c1","ios":"levelo://app?vid=791230d7-d8e7-4dee-8e0d-b4dcc6f926c1"},"vehicle_type_id":"4","last_reported":1750417757,"current_range_meters":8400,"station_id":"ce4bhmp2rcd13ifvqgog","pricing_plan_id":"cebpf4jnsgd1na2vs0mg"},{"bike_id":"fc9aee4f-28db-420f-8d6e-aacacdde6cf5","system_id":"levelo_inurba_marseille","lat":43.33025,"lon":5.39037,"is_reserved":false,"is_disabled":false,"rental_uris":{"android":"levelo://app?vid=fc9aee4f-28db-420f-8d6e-aacacdde6cf5","ios":"levelo://app?vid=fc9aee4f-28db-420f-8d6e-aacacdde6cf5"},"vehicle_type_id":"4","last_reported":1750417757,"current_range_meters":8400,"station_id":"ce4bhr92rcd13ifvqhrg","pricing_plan_id":"cebpf4jnsgd1na2vs0mg"},{"bike_id":"f025e0b0-8595-426c-b214-cb9b74c5fcfd","system_id":"levelo_inurba_marseille","lat":43.32203,"lon":5.40566,"is_reserved":false,"is_disabled":false,"rental_uris":{"android":"levelo://app?vid=f025e0b0-8595-426c-b214-cb9b74c5fcfd","ios":"levelo://app?vid=f025e0b0-8595-426c-b214-cb9b74c5fcfd"},"vehicle_type_id":"4","last_reported":1750417757,"current_range_meters":8800,"station_id":"","pricing_plan_id":"cebpf4jnsgd1na2vs0mg"},{"bike_id":"854e84e4-4fc6-4a5f-af20-2cae2fe62e7d","system_id":"levelo_inurba_marseille","lat":43.22505,"lon":5.34786,"is_reserved":false,"is_disabled":false,"rental_uris":{"android":"levelo://app?vid=854e84e4-4fc6-4a5f-af20-2cae2fe62e7d","ios":"levelo://app?vid=854e84e4-4fc6-4a5f-af20-2cae2fe62e7d"},"vehicle_type_id":"4","last_reported":1750417757,"current_range_meters":8800,"station_id":"st_cvj5dfep6f1abm77gieg","pricing_plan_id":"cebpf4jnsgd1na2vs0mg"},{"bike_id":"289b5172-df52-42ea-a03a-f1ea1c411cbd","system_id":"levelo_inurba_marseille","lat":43.3059,"lon":5.39357,"is_reserved":false,"is_disabled":false,"rental_uris":{"android":"levelo://app?vid=289b5172-df52-42ea-a03a-f1ea1c411cbd","ios":"levelo://app?vid=289b5172-df52-42ea-a03a-f1ea1c411cbd"},"vehicle_type_id":"4","last_reported":1750417757,"current_range_meters":9200,"station_id":"ce4bh0p2rcd13ifvqd80","pricing_plan_id":"cebpf4jnsgd1na2vs0mg"},{"bike_id":"208e1557-8820-4716-99d1-88623a9dd505","system_id":"levelo_inurba_marseille","lat":43.27821,"lon":5.40707,"is_reserved":false,"is_disabled":false,"rental_uris":{"android":"levelo://app?vid=208e1557-8820-4716-99d1-88623a9dd505","ios":"levelo://app?vid=208e1557-8820-4716-99d1-88623a9dd505"},"vehicle_type_id":"4","last_reported":1750417757,"current_range_meters":9200,"station_id":"ce4bhnh2rcd13ifvqgtg","pricing_plan_id":"cebpf4jnsgd1na2vs0mg"},{"bike_id":"df735c88-ae0a-4f8e-9723-d29eb27d80b9","system_id":"levelo_inurba_marseille","lat":43.29921,"lon":5.37642,"is_reserved":false,"is_disabled":false,"rental_uris":{"android":"levelo://app?vid=df735c88-ae0a-4f8e-9723-d29eb27d80b9","ios":"levelo://app?vid=df735c88-ae0a-4f8e-9723-d29eb27d80b9"},"vehicle_type_id":"4","last_reported":1750417757,"current_range_meters":9600,"station_id":"","pricing_plan_id":"cebpf4jnsgd1na2vs0mg"},{"bike_id":"c236c854-cc06-40b9-9879-4430157f030d","system_id":"levelo_inurba_marseille","lat":43.296112,"lon":5.371574,"is_reserved":false,"is_disabled":false,"rental_uris":{"android":"levelo://app?vid=c236c854-cc06-40b9-9879-4430157f030d","ios":"levelo://app?vid=c236c854-cc06-40b9-9879-4430157f030d"},"vehicle_type_id":"4","last_reported":1750417757,"current_range_meters":9600,"station_id":"ce4bgnh2rcd13ifvqc0g","pricing_plan_id":"cebpf4jnsgd1na2vs0mg"},{"bike_id":"5c04f4e0-7a5b-4e92-8e92-8b037538170f","system_id":"levelo_inurba_marseille","lat":43.30465,"lon":5.379,"is_reserved":false,"is_disabled":false,"rental_uris":{"android":"levelo://app?vid=5c04f4e0-7a5b-4e92-8e92-8b037538170f","ios":"levelo://app?vid=5c04f4e0-7a5b-4e92-8e92-8b037538170f"},"vehicle_type_id":"4","last_reported":1750417757,"current_range_meters":9600,"station_id":"ce4bgup2rcd13ifvqcn0","pricing_plan_id":"cebpf4jnsgd1na2vs0mg"},{"bike_id":"dbf0dfeb-05c2-4f38-9fec-e1d0fbb59095","system_id":"levelo_inurba_marseille","lat":43.29543,"lon":5.3903,"is_reserved":false,"is_disabled":false,"rental_uris":{"android":"levelo://app?vid=dbf0dfeb-05c2-4f38-9fec-e1d0fbb59095","ios":"levelo://app?vid=dbf0dfeb-05c2-4f38-9fec-e1d0fbb59095"},"vehicle_type_id":"4","last_reported":1750417757,"current_range_meters":9600,"station_id":"ce4bh3p2rcd13ifvqdp0","pricing_plan_id":"cebpf4jnsgd1na2vs0mg"},{"bike_id":"577e9ea0-01ac-4cf3-a4db-2ed6bfbbed5d","system_id":"levelo_inurba_marseille","lat":43.26226,"lon":5.40454,"is_reserved":false,"is_disabled":false,"rental_uris":{"android":"levelo://app?vid=577e9ea0-01ac-4cf3-a4db-2ed6bfbbed5d","ios":"levelo://app?vid=577e9ea0-01ac-4cf3-a4db-2ed6bfbbed5d"},"vehicle_type_id":"4","last_reported":1750417757,"current_range_meters":9600,"station_id":"ce4bhmh2rcd13ifvqgmg","pricing_plan_id":"cebpf4jnsgd1na2vs0mg"},{"bike_id":"ee1c45f3-6496-47a2-8a67-f8a1f0e9dcc4","system_id":"levelo_inurba_marseille","lat":43.32665,"lon":5.41002,"is_reserved":false,"is_disabled":false,"rental_uris":{"android":"levelo://app?vid=ee1c45f3-6496-47a2-8a67-f8a1f0e9dcc4","ios":"levelo://app?vid=ee1c45f3-6496-47a2-8a67-f8a1f0e9dcc4"},"vehicle_type_id":"4","last_reported":1750417757,"current_range_meters":9600,"station_id":"ce4bhpp2rcd13ifvqhgg","pricing_plan_id":"cebpf4jnsgd1na2vs0mg"},{"bike_id":"943d57f3-b313-44b7-ae78-a394f179e07f","system_id":"levelo_inurba_marseille","lat":43.29821,"lon":5.416096,"is_reserved":false,"is_disabled":false,"rental_uris":{"android":"levelo://app?vid=943d57f3-b313-44b7-ae78-a394f179e07f","ios":"levelo://app?vid=943d57f3-b313-44b7-ae78-a394f179e07f"},"vehicle_type_id":"4","last_reported":1750417757,"current_range_meters":10000,"station_id":"","pricing_plan_id":"cebpf4jnsgd1na2vs0mg"},{"bike_id":"d9b2950a-cd4b-488f-8f1a-b2421b953666","system_id":"levelo_inurba_marseille","lat":43.31469,"lon":5.3923,"is_reserved":false,"is_disabled":false,"rental_uris":{"android":"levelo://app?vid=d9b2950a-cd4b-488f-8f1a-b2421b953666","ios":"levelo://app?vid=d9b2950a-cd4b-488f-8f1a-b2421b953666"},"vehicle_type_id":"4","last_reported":1750417757,"current_range_meters":10000,"station_id":"","pricing_plan_id":"cebpf4jnsgd1na2vs0mg"},{"bike_id":"a6254792-8c55-4162-a3ed-b662790ccbc0","system_id":"levelo_inurba_marseille","lat":43.29912,"lon":5.38135,"is_reserved":false,"is_disabled":false,"rental_uris":{"android":"levelo://app?vid=a6254792-8c55-4162-a3ed-b662790ccbc0","ios":"levelo://app?vid=a6254792-8c55-4162-a3ed-b662790ccbc0"},"vehicle_type_id":"4","last_reported":1750417757,"current_range_meters":10000,"station_id":"ce4bgj12rcd13ifvqbc0","pricing_plan_id":"cebpf4jnsgd1na2vs0mg"},{"bike_id":"1e177524-68f2-4292-909f-dec9ede77420","system_id":"levelo_inurba_marseille","lat":43.3031,"lon":5.39212,"is_reserved":false,"is_disabled":false,"rental_uris":{"android":"levelo://app?vid=1e177524-68f2-4292-909f-dec9ede77420","ios":"levelo://app?vid=1e177524-68f2-4292-909f-dec9ede77420"},"vehicle_type_id":"4","last_reported":1750417757,"current_range_meters":10000,"station_id":"ce4bgkh2rcd13ifvqbk0","pricing_plan_id":"cebpf4jnsgd1na2vs0mg"},{"bike_id":"dbfc0d72-1904-4934-afba-5d80ebbd2706","system_id":"levelo_inurba_marseille","lat":43.31232,"lon":5.36873,"is_reserved":false,"is_disabled":false,"rental_uris":{"android":"levelo://app?vid=dbfc0d72-1904-4934-afba-5d80ebbd2706","ios":"levelo://app?vid=dbfc0d72-1904-4934-afba-5d80ebbd2706"},"vehicle_type_id":"4","last_reported":1750417757,"current_range_meters":10000,"station_id":"ce4bgl92rcd13ifvqbq0","pricing_plan_id":"cebpf4jnsgd1na2vs0mg"},{"bike_id":"66249d4f-d522-423a-9ed1-45397c189f3e","system_id":"levelo_inurba_marseille","lat":43.24393,"lon":5.3706,"is_reserved":false,"is_disabled":false,"rental_uris":{"android":"levelo://app?vid=66249d4f-d522-423a-9ed1-45397c189f3e","ios":"levelo://app?vid=66249d4f-d522-423a-9ed1-45397c189f3e"},"vehicle_type_id":"4","last_reported":1750417757,"current_range_meters":10000,"station_id":"ce4bhhh2rcd13ifvqfk0","pricing_plan_id":"cebpf4jnsgd1na2vs0mg"},{"bike_id":"fc9c54e8-b6e1-462b-b393-a453863683f0","system_id":"levelo_inurba_marseille","lat":43.23181,"lon":5.39982,"is_reserved":false,"is_disabled":false,"rental_uris":{"android":"levelo://app?vid=fc9c54e8-b6e1-462b-b393-a453863683f0","ios":"levelo://app?vid=fc9c54e8-b6e1-462b-b393-a453863683f0"},"vehicle_type_id":"4","last_reported":1750417757,"current_range_meters":10000,"station_id":"ce4bhn12rcd13ifvqgqg","pricing_plan_id":"cebpf4jnsgd1na2vs0mg"},{"bike_id":"3faf2329-83a2-494e-b098-e7888ccf5fcb","system_id":"levelo_inurba_marseille","lat":43.287144,"lon":5.383136,"is_reserved":false,"is_disabled":false,"rental_uris":{"android":"levelo://app?vid=3faf2329-83a2-494e-b098-e7888ccf5fcb","ios":"levelo://app?vid=3faf2329-83a2-494e-b098-e7888ccf5fcb"},"vehicle_type_id":"4","last_reported":1750417757,"current_range_meters":10800,"station_id":"","pricing_plan_id":"cebpf4jnsgd1na2vs0mg"},{"bike_id":"9ee4927a-e02a-4705-adc3-0c49688168ab","system_id":"levelo_inurba_marseille","lat":43.29636,"lon":5.37177,"is_reserved":false,"is_disabled":false,"rental_uris":{"android":"levelo://app?vid=9ee4927a-e02a-4705-adc3-0c49688168ab","ios":"levelo://app?vid=9ee4927a-e02a-4705-adc3-0c49688168ab"},"vehicle_type_id":"4","last_reported":1750417757,"current_range_meters":10800,"station_id":"ce4bgnh2rcd13ifvqc0g","pricing_plan_id":"cebpf4jnsgd1na2vs0mg"},{"bike_id":"bc818d66-0121-423f-bca6-ebc01df66a0f","system_id":"levelo_inurba_marseille","lat":43.31499,"lon":5.37292,"is_reserved":false,"is_disabled":false,"rental_uris":{"android":"levelo://app?vid=bc818d66-0121-423f-bca6-ebc01df66a0f","ios":"levelo://app?vid=bc818d66-0121-423f-bca6-ebc01df66a0f"},"vehicle_type_id":"4","last_reported":1750417757,"current_range_meters":10800,"station_id":"ce4bgt12rcd13ifvqcd0","pricing_plan_id":"cebpf4jnsgd1na2vs0mg"},{"bike_id":"1ac53e3d-c4bf-4c86-a1ae-0bf1a6c3a0a3","system_id":"levelo_inurba_marseille","lat":43.30782,"lon":5.38186,"is_reserved":false,"is_disabled":false,"rental_uris":{"android":"levelo://app?vid=1ac53e3d-c4bf-4c86-a1ae-0bf1a6c3a0a3","ios":"levelo://app?vid=1ac53e3d-c4bf-4c86-a1ae-0bf1a6c3a0a3"},"vehicle_type_id":"4","last_reported":1750417757,"current_range_meters":10800,"station_id":"ce4bgt12rcd13ifvqce0","pricing_plan_id":"cebpf4jnsgd1na2vs0mg"},{"bike_id":"50d51498-c936-44e6-b468-47bdf0d4404d","system_id":"levelo_inurba_marseille","lat":43.28415,"lon":5.34976,"is_reserved":false,"is_disabled":false,"rental_uris":{"android":"levelo://app?vid=50d51498-c936-44e6-b468-47bdf0d4404d","ios":"levelo://app?vid=50d51498-c936-44e6-b468-47bdf0d4404d"},"vehicle_type_id":"4","last_reported":1750417757,"current_range_meters":10800,"station_id":"ce4bhbh2rcd13ifvqepg","pricing_plan_id":"cebpf4jnsgd1na2vs0mg"},{"bike_id":"65ea0cf4-d7e4-4c28-8833-89dd5e62bdb1","system_id":"levelo_inurba_marseille","lat":43.298265,"lon":5.381032,"is_reserved":false,"is_disabled":false,"rental_uris":{"android":"levelo://app?vid=65ea0cf4-d7e4-4c28-8833-89dd5e62bdb1","ios":"levelo://app?vid=65ea0cf4-d7e4-4c28-8833-89dd5e62bdb1"},"vehicle_type_id":"4","last_reported":1750417757,"current_range_meters":11200,"station_id":"ce4bgip2rcd13ifvqbb0","pricing_plan_id":"cebpf4jnsgd1na2vs0mg"},{"bike_id":"28c61316-6d7c-4551-95d6-f3f6b5981563","system_id":"levelo_inurba_marseille","lat":43.2967,"lon":5.36619,"is_reserved":false,"is_disabled":false,"rental_uris":{"android":"levelo://app?vid=28c61316-6d7c-4551-95d6-f3f6b5981563","ios":"levelo://app?vid=28c61316-6d7c-4551-95d6-f3f6b5981563"},"vehicle_type_id":"4","last_reported":1750417757,"current_range_meters":11200,"station_id":"ce4bgn12rcd13ifvqbt0","pricing_plan_id":"cebpf4jnsgd1na2vs0mg"},{"bike_id":"95f6dece-d052-4002-95c8-b85e4a9b9e9b","system_id":"levelo_inurba_marseille","lat":43.28618,"lon":5.35098,"is_reserved":false,"is_disabled":false,"rental_uris":{"android":"levelo://app?vid=95f6dece-d052-4002-95c8-b85e4a9b9e9b","ios":"levelo://app?vid=95f6dece-d052-4002-95c8-b85e4a9b9e9b"},"vehicle_type_id":"4","last_reported":1750417757,"current_range_meters":11200,"station_id":"ce4bhch2rcd13ifvqeug","pricing_plan_id":"cebpf4jnsgd1na2vs0mg"},{"bike_id":"ee9e43c0-6612-42d2-8e5d-ee22cfd8ab29","system_id":"levelo_inurba_marseille","lat":43.246398,"lon":5.384395,"is_reserved":false,"is_disabled":false,"rental_uris":{"android":"levelo://app?vid=ee9e43c0-6612-42d2-8e5d-ee22cfd8ab29","ios":"levelo://app?vid=ee9e43c0-6612-42d2-8e5d-ee22cfd8ab29"},"vehicle_type_id":"4","last_reported":1750417757,"current_range_meters":11200,"station_id":"ce4bhhh2rcd13ifvqfk0","pricing_plan_id":"cebpf4jnsgd1na2vs0mg"},{"bike_id":"f7574965-0667-4f3b-90e2-276750d028f1","system_id":"levelo_inurba_marseille","lat":43.33101,"lon":5.38246,"is_reserved":false,"is_disabled":false,"rental_uris":{"android":"levelo://app?vid=f7574965-0667-4f3b-90e2-276750d028f1","ios":"levelo://app?vid=f7574965-0667-4f3b-90e2-276750d028f1"},"vehicle_type_id":"4","last_reported":1750417757,"current_range_meters":11600,"station_id":"","pricing_plan_id":"cebpf4jnsgd1na2vs0mg"},{"bike_id":"0e4be4f9-e853-4595-93a3-f1549cf41b3f","system_id":"levelo_inurba_marseille","lat":43.26554,"lon":5.37283,"is_reserved":false,"is_disabled":false,"rental_uris":{"android":"levelo://app?vid=0e4be4f9-e853-4595-93a3-f1549cf41b3f","ios":"levelo://app?vid=0e4be4f9-e853-4595-93a3-f1549cf41b3f"},"vehicle_type_id":"4","last_reported":1750417757,"current_range_meters":11600,"station_id":"ce4bhg12rcd13ifvqf70","pricing_plan_id":"cebpf4jnsgd1na2vs0mg"},{"bike_id":"0b438125-229a-47e7-b809-95fbbd1d8f9d","system_id":"levelo_inurba_marseille","lat":43.26487,"lon":5.39548,"is_reserved":false,"is_disabled":false,"rental_uris":{"android":"levelo://app?vid=0b438125-229a-47e7-b809-95fbbd1d8f9d","ios":"levelo://app?vid=0b438125-229a-47e7-b809-95fbbd1d8f9d"},"vehicle_type_id":"4","last_reported":1750417757,"current_range_meters":11600,"station_id":"ce4bhi12rcd13ifvqfq0","pricing_plan_id":"cebpf4jnsgd1na2vs0mg"},{"bike_id":"5f2c4812-f94e-4368-911e-6136b1046f22","system_id":"levelo_inurba_marseille","lat":43.30531,"lon":5.36706,"is_reserved":false,"is_disabled":false,"rental_uris":{"android":"levelo://app?vid=5f2c4812-f94e-4368-911e-6136b1046f22","ios":"levelo://app?vid=5f2c4812-f94e-4368-911e-6136b1046f22"},"vehicle_type_id":"4","last_reported":1750417757,"current_range_meters":12000,"station_id":"ce4bgrp2rcd13ifvqc9g","pricing_plan_id":"cebpf4jnsgd1na2vs0mg"},{"bike_id":"1e466cd0-4ebd-40dc-a9d0-f5b0d3d7d813","system_id":"levelo_inurba_marseille","lat":43.30543,"lon":5.36692,"is_reserved":false,"is_disabled":false,"rental_uris":{"android":"levelo://app?vid=1e466cd0-4ebd-40dc-a9d0-f5b0d3d7d813","ios":"levelo://app?vid=1e466cd0-4ebd-40dc-a9d0-f5b0d3d7d813"},"vehicle_type_id":"4","last_reported":1750417757,"current_range_meters":12000,"station_id":"ce4bgrp2rcd13ifvqc9g","pricing_plan_id":"cebpf4jnsgd1na2vs0mg"},{"bike_id":"e998e0e5-83c0-4a39-bc24-27d9c0e90119","system_id":"levelo_inurba_marseille","lat":43.28612,"lon":5.35109,"is_reserved":false,"is_disabled":false,"rental_uris":{"android":"levelo://app?vid=e998e0e5-83c0-4a39-bc24-27d9c0e90119","ios":"levelo://app?vid=e998e0e5-83c0-4a39-bc24-27d9c0e90119"},"vehicle_type_id":"4","last_reported":1750417757,"current_range_meters":12000,"station_id":"ce4bhch2rcd13ifvqeug","pricing_plan_id":"cebpf4jnsgd1na2vs0mg"},{"bike_id":"cc99f037-42e4-46fd-a8c7-6fb30db396f2","system_id":"levelo_inurba_marseille","lat":43.278225,"lon":5.406977,"is_reserved":false,"is_disabled":false,"rental_uris":{"android":"levelo://app?vid=cc99f037-42e4-46fd-a8c7-6fb30db396f2","ios":"levelo://app?vid=cc99f037-42e4-46fd-a8c7-6fb30db396f2"},"vehicle_type_id":"4","last_reported":1750417757,"current_range_meters":12000,"station_id":"ce4bhnh2rcd13ifvqgtg","pricing_plan_id":"cebpf4jnsgd1na2vs0mg"},{"bike_id":"91abd8e1-c53f-4e42-96d0-0616d9ca7338","system_id":"levelo_inurba_marseille","lat":43.31762,"lon":5.39013,"is_reserved":false,"is_disabled":false,"rental_uris":{"android":"levelo://app?vid=91abd8e1-c53f-4e42-96d0-0616d9ca7338","ios":"levelo://app?vid=91abd8e1-c53f-4e42-96d0-0616d9ca7338"},"vehicle_type_id":"4","last_reported":1750417757,"current_range_meters":12000,"station_id":"ce4bhqp2rcd13ifvqhng","pricing_plan_id":"cebpf4jnsgd1na2vs0mg"},{"bike_id":"54c77c34-a391-43af-80f0-4d422515c3ba","system_id":"levelo_inurba_marseille","lat":43.29301,"lon":5.37456,"is_reserved":false,"is_disabled":false,"rental_uris":{"android":"levelo://app?vid=54c77c34-a391-43af-80f0-4d422515c3ba","ios":"levelo://app?vid=54c77c34-a391-43af-80f0-4d422515c3ba"},"vehicle_type_id":"4","last_reported":1750417757,"current_range_meters":12400,"station_id":"ce4bgi12rcd13ifvqb70","pricing_plan_id":"cebpf4jnsgd1na2vs0mg"},{"bike_id":"0f7d7069-d841-448c-b7ca-c3e2b60ef28f","system_id":"levelo_inurba_marseille","lat":43.31241,"lon":5.36876,"is_reserved":false,"is_disabled":false,"rental_uris":{"android":"levelo://app?vid=0f7d7069-d841-448c-b7ca-c3e2b60ef28f","ios":"levelo://app?vid=0f7d7069-d841-448c-b7ca-c3e2b60ef28f"},"vehicle_type_id":"4","last_reported":1750417757,"current_range_meters":12400,"station_id":"ce4bgl92rcd13ifvqbq0","pricing_plan_id":"cebpf4jnsgd1na2vs0mg"},{"bike_id":"12977e4a-8e64-4231-966c-8e49cdc91127","system_id":"levelo_inurba_marseille","lat":43.23192,"lon":5.35555,"is_reserved":false,"is_disabled":false,"rental_uris":{"android":"levelo://app?vid=12977e4a-8e64-4231-966c-8e49cdc91127","ios":"levelo://app?vid=12977e4a-8e64-4231-966c-8e49cdc91127"},"vehicle_type_id":"4","last_reported":1750417757,"current_range_meters":12400,"station_id":"ce4bhu92rcd13ifvqi70","pricing_plan_id":"cebpf4jnsgd1na2vs0mg"},{"bike_id":"0594a44e-810f-4945-a9a9-fd628fbd42a0","system_id":"levelo_inurba_marseille","lat":43.30286,"lon":5.37703,"is_reserved":false,"is_disabled":false,"rental_uris":{"android":"levelo://app?vid=0594a44e-810f-4945-a9a9-fd628fbd42a0","ios":"levelo://app?vid=0594a44e-810f-4945-a9a9-fd628fbd42a0"},"vehicle_type_id":"4","last_reported":1750417757,"current_range_meters":12800,"station_id":"ce4bguh2rcd13ifvqcj0","pricing_plan_id":"cebpf4jnsgd1na2vs0mg"},{"bike_id":"e606c2af-e790-4f6d-8391-dd4bc26a06a5","system_id":"levelo_inurba_marseille","lat":43.30477,"lon":5.37916,"is_reserved":false,"is_disabled":false,"rental_uris":{"android":"levelo://app?vid=e606c2af-e790-4f6d-8391-dd4bc26a06a5","ios":"levelo://app?vid=e606c2af-e790-4f6d-8391-dd4bc26a06a5"},"vehicle_type_id":"4","last_reported":1750417757,"current_range_meters":12800,"station_id":"ce4bgup2rcd13ifvqcn0","pricing_plan_id":"cebpf4jnsgd1na2vs0mg"},{"bike_id":"cfcc63e5-33ec-4229-a7bf-4d1c7311a7b9","system_id":"levelo_inurba_marseille","lat":43.29905,"lon":5.43665,"is_reserved":false,"is_disabled":false,"rental_uris":{"android":"levelo://app?vid=cfcc63e5-33ec-4229-a7bf-4d1c7311a7b9","ios":"levelo://app?vid=cfcc63e5-33ec-4229-a7bf-4d1c7311a7b9"},"vehicle_type_id":"4","last_reported":1750417757,"current_range_meters":12800,"station_id":"ce4bhpp2rcd13ifvqhfg","pricing_plan_id":"cebpf4jnsgd1na2vs0mg"},{"bike_id":"336ce201-9479-4303-8afb-51687ec111ca","system_id":"levelo_inurba_marseille","lat":43.32342,"lon":5.40621,"is_reserved":false,"is_disabled":false,"rental_uris":{"android":"levelo://app?vid=336ce201-9479-4303-8afb-51687ec111ca","ios":"levelo://app?vid=336ce201-9479-4303-8afb-51687ec111ca"},"vehicle_type_id":"4","last_reported":1750417757,"current_range_meters":12800,"station_id":"ce4bhq92rcd13ifvqhjg","pricing_plan_id":"cebpf4jnsgd1na2vs0mg"},{"bike_id":"8fd94bfe-b0a3-4509-a3c9-0f6e3f8eed78","system_id":"levelo_inurba_marseille","lat":43.24172,"lon":5.36386,"is_reserved":false,"is_disabled":false,"rental_uris":{"android":"levelo://app?vid=8fd94bfe-b0a3-4509-a3c9-0f6e3f8eed78","ios":"levelo://app?vid=8fd94bfe-b0a3-4509-a3c9-0f6e3f8eed78"},"vehicle_type_id":"4","last_reported":1750417757,"current_range_meters":12800,"station_id":"cpo36qri1sfpv3e86is0","pricing_plan_id":"cebpf4jnsgd1na2vs0mg"},{"bike_id":"0708cf38-7a7f-4f4d-a4c6-7778c58c5a3c","system_id":"levelo_inurba_marseille","lat":43.28338,"lon":5.41128,"is_reserved":false,"is_disabled":false,"rental_uris":{"android":"levelo://app?vid=0708cf38-7a7f-4f4d-a4c6-7778c58c5a3c","ios":"levelo://app?vid=0708cf38-7a7f-4f4d-a4c6-7778c58c5a3c"},"vehicle_type_id":"4","last_reported":1750417757,"current_range_meters":13600,"station_id":"","pricing_plan_id":"cebpf4jnsgd1na2vs0mg"},{"bike_id":"199c2831-e081-4bc0-9b94-19503817091d","system_id":"levelo_inurba_marseille","lat":43.24909,"lon":5.40671,"is_reserved":false,"is_disabled":false,"rental_uris":{"android":"levelo://app?vid=199c2831-e081-4bc0-9b94-19503817091d","ios":"levelo://app?vid=199c2831-e081-4bc0-9b94-19503817091d"},"vehicle_type_id":"4","last_reported":1750417757,"current_range_meters":13600,"station_id":"","pricing_plan_id":"cebpf4jnsgd1na2vs0mg"},{"bike_id":"dd45b830-666c-4c76-b06e-9938bffa2cad","system_id":"levelo_inurba_marseille","lat":43.29046,"lon":5.35907,"is_reserved":false,"is_disabled":false,"rental_uris":{"android":"levelo://app?vid=dd45b830-666c-4c76-b06e-9938bffa2cad","ios":"levelo://app?vid=dd45b830-666c-4c76-b06e-9938bffa2cad"},"vehicle_type_id":"4","last_reported":1750417757,"current_range_meters":13600,"station_id":"ce4bha92rcd13ifvqeg0","pricing_plan_id":"cebpf4jnsgd1na2vs0mg"},{"bike_id":"d2d46c7c-bf70-414e-833c-8dd0942c0ef9","system_id":"levelo_inurba_marseille","lat":43.229279,"lon":5.35367,"is_reserved":false,"is_disabled":false,"rental_uris":{"android":"levelo://app?vid=d2d46c7c-bf70-414e-833c-8dd0942c0ef9","ios":"levelo://app?vid=d2d46c7c-bf70-414e-833c-8dd0942c0ef9"},"vehicle_type_id":"4","last_reported":1750417757,"current_range_meters":13600,"station_id":"cpo3532slgdg3j2ikp40","pricing_plan_id":"cebpf4jnsgd1na2vs0mg"},{"bike_id":"aff4d10d-6641-4ded-aa8c-567678e3bcd5","system_id":"levelo_inurba_marseille","lat":43.231889,"lon":5.399779,"is_reserved":false,"is_disabled":false,"rental_uris":{"android":"levelo://app?vid=aff4d10d-6641-4ded-aa8c-567678e3bcd5","ios":"levelo://app?vid=aff4d10d-6641-4ded-aa8c-567678e3bcd5"},"vehicle_type_id":"4","last_reported":1750417757,"current_range_meters":14000,"station_id":"ce4bhn12rcd13ifvqgqg","pricing_plan_id":"cebpf4jnsgd1na2vs0mg"},{"bike_id":"f30123e7-96d3-442d-9d01-6c98dc61e7c8","system_id":"levelo_inurba_marseille","lat":43.298133,"lon":5.36863,"is_reserved":false,"is_disabled":false,"rental_uris":{"android":"levelo://app?vid=f30123e7-96d3-442d-9d01-6c98dc61e7c8","ios":"levelo://app?vid=f30123e7-96d3-442d-9d01-6c98dc61e7c8"},"vehicle_type_id":"4","last_reported":1750417757,"current_range_meters":14400,"station_id":"","pricing_plan_id":"cebpf4jnsgd1na2vs0mg"},{"bike_id":"979e0a6d-dcd9-47be-a2f9-210f00882926","system_id":"levelo_inurba_marseille","lat":43.31079,"lon":5.42439,"is_reserved":false,"is_disabled":false,"rental_uris":{"android":"levelo://app?vid=979e0a6d-dcd9-47be-a2f9-210f00882926","ios":"levelo://app?vid=979e0a6d-dcd9-47be-a2f9-210f00882926"},"vehicle_type_id":"4","last_reported":1750417757,"current_range_meters":14400,"station_id":"ce4bhp92rcd13ifvqhag","pricing_plan_id":"cebpf4jnsgd1na2vs0mg"},{"bike_id":"2179559e-c4ee-4e03-b212-5c4b329fec18","system_id":"levelo_inurba_marseille","lat":43.33027,"lon":5.3905,"is_reserved":false,"is_disabled":false,"rental_uris":{"android":"levelo://app?vid=2179559e-c4ee-4e03-b212-5c4b329fec18","ios":"levelo://app?vid=2179559e-c4ee-4e03-b212-5c4b329fec18"},"vehicle_type_id":"4","last_reported":1750417757,"current_range_meters":14400,"station_id":"ce4bhr92rcd13ifvqhrg","pricing_plan_id":"cebpf4jnsgd1na2vs0mg"},{"bike_id":"e4e5984b-2f37-47e0-ae45-4e7b527c38d2","system_id":"levelo_inurba_marseille","lat":43.26945,"lon":5.40243,"is_reserved":false,"is_disabled":false,"rental_uris":{"android":"levelo://app?vid=e4e5984b-2f37-47e0-ae45-4e7b527c38d2","ios":"levelo://app?vid=e4e5984b-2f37-47e0-ae45-4e7b527c38d2"},"vehicle_type_id":"4","last_reported":1750417757,"current_range_meters":14400,"station_id":"cjm6bp8fraef2m0cb0m0","pricing_plan_id":"cebpf4jnsgd1na2vs0mg"},{"bike_id":"763c365b-d554-4cb9-b43a-83ff33f2c22b","system_id":"levelo_inurba_marseille","lat":43.22505,"lon":5.34778,"is_reserved":false,"is_disabled":false,"rental_uris":{"android":"levelo://app?vid=763c365b-d554-4cb9-b43a-83ff33f2c22b","ios":"levelo://app?vid=763c365b-d554-4cb9-b43a-83ff33f2c22b"},"vehicle_type_id":"4","last_reported":1750417757,"current_range_meters":14400,"station_id":"st_cvj5dfep6f1abm77gieg","pricing_plan_id":"cebpf4jnsgd1na2vs0mg"},{"bike_id":"a5477e03-408d-4a9e-9f46-7167cd248145","system_id":"levelo_inurba_marseille","lat":43.30468,"lon":5.37908,"is_reserved":false,"is_disabled":false,"rental_uris":{"android":"levelo://app?vid=a5477e03-408d-4a9e-9f46-7167cd248145","ios":"levelo://app?vid=a5477e03-408d-4a9e-9f46-7167cd248145"},"vehicle_type_id":"4","last_reported":1750417757,"current_range_meters":14800,"station_id":"ce4bgup2rcd13ifvqcn0","pricing_plan_id":"cebpf4jnsgd1na2vs0mg"},{"bike_id":"47061c50-ca3c-40c3-8230-b77e58e0eb70","system_id":"levelo_inurba_marseille","lat":43.28945,"lon":5.36636,"is_reserved":false,"is_disabled":false,"rental_uris":{"android":"levelo://app?vid=47061c50-ca3c-40c3-8230-b77e58e0eb70","ios":"levelo://app?vid=47061c50-ca3c-40c3-8230-b77e58e0eb70"},"vehicle_type_id":"4","last_reported":1750417757,"current_range_meters":14800,"station_id":"ce4bhap2rcd13ifvqek0","pricing_plan_id":"cebpf4jnsgd1na2vs0mg"},{"bike_id":"c38216e2-5eae-4c28-8eaa-4c91f6880c1d","system_id":"levelo_inurba_marseille","lat":43.22506,"lon":5.34784,"is_reserved":false,"is_disabled":false,"rental_uris":{"android":"levelo://app?vid=c38216e2-5eae-4c28-8eaa-4c91f6880c1d","ios":"levelo://app?vid=c38216e2-5eae-4c28-8eaa-4c91f6880c1d"},"vehicle_type_id":"4","last_reported":1750417757,"current_range_meters":14800,"station_id":"st_cvj5dfep6f1abm77gieg","pricing_plan_id":"cebpf4jnsgd1na2vs0mg"},{"bike_id":"bed64477-6973-4e52-bf3f-315d6cbfbcd5","system_id":"levelo_inurba_marseille","lat":43.29202,"lon":5.39305,"is_reserved":false,"is_disabled":false,"rental_uris":{"android":"levelo://app?vid=bed64477-6973-4e52-bf3f-315d6cbfbcd5","ios":"levelo://app?vid=bed64477-6973-4e52-bf3f-315d6cbfbcd5"},"vehicle_type_id":"4","last_reported":1750417757,"current_range_meters":15200,"station_id":"ce4bh192rcd13ifvqdd0","pricing_plan_id":"cebpf4jnsgd1na2vs0mg"},{"bike_id":"f0921537-2e37-40b7-9b61-3e7b2802c5c2","system_id":"levelo_inurba_marseille","lat":43.290736,"lon":5.371618,"is_reserved":false,"is_disabled":false,"rental_uris":{"android":"levelo://app?vid=f0921537-2e37-40b7-9b61-3e7b2802c5c2","ios":"levelo://app?vid=f0921537-2e37-40b7-9b61-3e7b2802c5c2"},"vehicle_type_id":"4","last_reported":1750417757,"current_range_meters":15200,"station_id":"ce4bh5p2rcd13ifvqe4g","pricing_plan_id":"cebpf4jnsgd1na2vs0mg"},{"bike_id":"1067e012-e83b-4f9b-a228-5d6178f1c368","system_id":"levelo_inurba_marseille","lat":43.28441,"lon":5.34977,"is_reserved":false,"is_disabled":false,"rental_uris":{"android":"levelo://app?vid=1067e012-e83b-4f9b-a228-5d6178f1c368","ios":"levelo://app?vid=1067e012-e83b-4f9b-a228-5d6178f1c368"},"vehicle_type_id":"4","last_reported":1750417757,"current_range_meters":15200,"station_id":"ce4bhbh2rcd13ifvqepg","pricing_plan_id":"cebpf4jnsgd1na2vs0mg"},{"bike_id":"57166064-131f-46d6-949c-f06d270dafff","system_id":"levelo_inurba_marseille","lat":43.26556,"lon":5.37284,"is_reserved":false,"is_disabled":false,"rental_uris":{"android":"levelo://app?vid=57166064-131f-46d6-949c-f06d270dafff","ios":"levelo://app?vid=57166064-131f-46d6-949c-f06d270dafff"},"vehicle_type_id":"4","last_reported":1750417757,"current_range_meters":15200,"station_id":"ce4bhg12rcd13ifvqf70","pricing_plan_id":"cebpf4jnsgd1na2vs0mg"},{"bike_id":"8c0b6e96-60c2-4573-a404-129800d5e38f","system_id":"levelo_inurba_marseille","lat":43.23184,"lon":5.39988,"is_reserved":false,"is_disabled":false,"rental_uris":{"android":"levelo://app?vid=8c0b6e96-60c2-4573-a404-129800d5e38f","ios":"levelo://app?vid=8c0b6e96-60c2-4573-a404-129800d5e38f"},"vehicle_type_id":"4","last_reported":1750417757,"current_range_meters":15200,"station_id":"ce4bhn12rcd13ifvqgqg","pricing_plan_id":"cebpf4jnsgd1na2vs0mg"},{"bike_id":"04d972d4-625c-41a2-93b6-5337e9ca8ff0","system_id":"levelo_inurba_marseille","lat":43.32098,"lon":5.3679,"is_reserved":false,"is_disabled":false,"rental_uris":{"android":"levelo://app?vid=04d972d4-625c-41a2-93b6-5337e9ca8ff0","ios":"levelo://app?vid=04d972d4-625c-41a2-93b6-5337e9ca8ff0"},"vehicle_type_id":"4","last_reported":1750417757,"current_range_meters":15200,"station_id":"ce4bhrh2rcd13ifvqhug","pricing_plan_id":"cebpf4jnsgd1na2vs0mg"},{"bike_id":"56735059-a511-4f75-9fa1-1f0e9a363234","system_id":"levelo_inurba_marseille","lat":43.23196,"lon":5.35553,"is_reserved":false,"is_disabled":false,"rental_uris":{"android":"levelo://app?vid=56735059-a511-4f75-9fa1-1f0e9a363234","ios":"levelo://app?vid=56735059-a511-4f75-9fa1-1f0e9a363234"},"vehicle_type_id":"4","last_reported":1750417757,"current_range_meters":15200,"station_id":"ce4bhu92rcd13ifvqi70","pricing_plan_id":"cebpf4jnsgd1na2vs0mg"},{"bike_id":"344ff4b6-5e72-4c7c-a2f6-498649641e2c","system_id":"levelo_inurba_marseille","lat":43.30619,"lon":5.37224,"is_reserved":false,"is_disabled":false,"rental_uris":{"android":"levelo://app?vid=344ff4b6-5e72-4c7c-a2f6-498649641e2c","ios":"levelo://app?vid=344ff4b6-5e72-4c7c-a2f6-498649641e2c"},"vehicle_type_id":"4","last_reported":1750417757,"current_range_meters":16000,"station_id":"ce4bgqh2rcd13ifvqc4g","pricing_plan_id":"cebpf4jnsgd1na2vs0mg"},{"bike_id":"c4c02e07-b96c-4402-b218-df7a1c59f7ac","system_id":"levelo_inurba_marseille","lat":43.28503,"lon":5.38427,"is_reserved":false,"is_disabled":false,"rental_uris":{"android":"levelo://app?vid=c4c02e07-b96c-4402-b218-df7a1c59f7ac","ios":"levelo://app?vid=c4c02e07-b96c-4402-b218-df7a1c59f7ac"},"vehicle_type_id":"4","last_reported":1750417757,"current_range_meters":16000,"station_id":"ce4bh512rcd13ifvqe3g","pricing_plan_id":"cebpf4jnsgd1na2vs0mg"},{"bike_id":"53d7d466-2910-4a90-99cd-beec84b63e5a","system_id":"levelo_inurba_marseille","lat":43.28049,"lon":5.36982,"is_reserved":false,"is_disabled":false,"rental_uris":{"android":"levelo://app?vid=53d7d466-2910-4a90-99cd-beec84b63e5a","ios":"levelo://app?vid=53d7d466-2910-4a90-99cd-beec84b63e5a"},"vehicle_type_id":"4","last_reported":1750417757,"current_range_meters":16000,"station_id":"ce4bha12rcd13ifvqef0","pricing_plan_id":"cebpf4jnsgd1na2vs0mg"},{"bike_id":"9765131a-3ace-43fa-bca8-8a29ccceccbb","system_id":"levelo_inurba_marseille","lat":43.28422,"lon":5.34979,"is_reserved":false,"is_disabled":false,"rental_uris":{"android":"levelo://app?vid=9765131a-3ace-43fa-bca8-8a29ccceccbb","ios":"levelo://app?vid=9765131a-3ace-43fa-bca8-8a29ccceccbb"},"vehicle_type_id":"4","last_reported":1750417757,"current_range_meters":16000,"station_id":"ce4bhbh2rcd13ifvqepg","pricing_plan_id":"cebpf4jnsgd1na2vs0mg"},{"bike_id":"314bd7c4-28ea-43fb-845a-fea4027b53a9","system_id":"levelo_inurba_marseille","lat":43.26228,"lon":5.40454,"is_reserved":false,"is_disabled":false,"rental_uris":{"android":"levelo://app?vid=314bd7c4-28ea-43fb-845a-fea4027b53a9","ios":"levelo://app?vid=314bd7c4-28ea-43fb-845a-fea4027b53a9"},"vehicle_type_id":"4","last_reported":1750417757,"current_range_meters":16000,"station_id":"ce4bhmh2rcd13ifvqgmg","pricing_plan_id":"cebpf4jnsgd1na2vs0mg"},{"bike_id":"a16ed159-e267-4d94-a745-f7d74ecef029","system_id":"levelo_inurba_marseille","lat":43.23187,"lon":5.39988,"is_reserved":false,"is_disabled":false,"rental_uris":{"android":"levelo://app?vid=a16ed159-e267-4d94-a745-f7d74ecef029","ios":"levelo://app?vid=a16ed159-e267-4d94-a745-f7d74ecef029"},"vehicle_type_id":"4","last_reported":1750417757,"current_range_meters":16000,"station_id":"ce4bhn12rcd13ifvqgqg","pricing_plan_id":"cebpf4jnsgd1na2vs0mg"},{"bike_id":"44f02f9b-24bd-4395-907c-00e97a24d5c6","system_id":"levelo_inurba_marseille","lat":43.27815,"lon":5.40711,"is_reserved":false,"is_disabled":false,"rental_uris":{"android":"levelo://app?vid=44f02f9b-24bd-4395-907c-00e97a24d5c6","ios":"levelo://app?vid=44f02f9b-24bd-4395-907c-00e97a24d5c6"},"vehicle_type_id":"4","last_reported":1750417757,"current_range_meters":16000,"station_id":"ce4bhnh2rcd13ifvqgtg","pricing_plan_id":"cebpf4jnsgd1na2vs0mg"},{"bike_id":"47591e8f-6328-43c4-8be1-42760e35ae7e","system_id":"levelo_inurba_marseille","lat":43.303012,"lon":5.392132,"is_reserved":false,"is_disabled":false,"rental_uris":{"android":"levelo://app?vid=47591e8f-6328-43c4-8be1-42760e35ae7e","ios":"levelo://app?vid=47591e8f-6328-43c4-8be1-42760e35ae7e"},"vehicle_type_id":"4","last_reported":1750417757,"current_range_meters":16400,"station_id":"ce4bgkh2rcd13ifvqbk0","pricing_plan_id":"cebpf4jnsgd1na2vs0mg"},{"bike_id":"17dbf548-b6a7-4e6c-a31a-2b1cadaa85e9","system_id":"levelo_inurba_marseille","lat":43.29577,"lon":5.36724,"is_reserved":false,"is_disabled":false,"rental_uris":{"android":"levelo://app?vid=17dbf548-b6a7-4e6c-a31a-2b1cadaa85e9","ios":"levelo://app?vid=17dbf548-b6a7-4e6c-a31a-2b1cadaa85e9"},"vehicle_type_id":"4","last_reported":1750417757,"current_range_meters":16400,"station_id":"ce4bgph2rcd13ifvqc2g","pricing_plan_id":"cebpf4jnsgd1na2vs0mg"},{"bike_id":"046adeae-0849-4028-af09-e844e98da80f","system_id":"levelo_inurba_marseille","lat":43.28271,"lon":5.35055,"is_reserved":false,"is_disabled":false,"rental_uris":{"android":"levelo://app?vid=046adeae-0849-4028-af09-e844e98da80f","ios":"levelo://app?vid=046adeae-0849-4028-af09-e844e98da80f"},"vehicle_type_id":"4","last_reported":1750417757,"current_range_meters":16400,"station_id":"ce4bhbp2rcd13ifvqerg","pricing_plan_id":"cebpf4jnsgd1na2vs0mg"},{"bike_id":"66556c16-a685-4d29-b1ab-0eb551e43545","system_id":"levelo_inurba_marseille","lat":43.27208,"lon":5.39168,"is_reserved":false,"is_disabled":false,"rental_uris":{"android":"levelo://app?vid=66556c16-a685-4d29-b1ab-0eb551e43545","ios":"levelo://app?vid=66556c16-a685-4d29-b1ab-0eb551e43545"},"vehicle_type_id":"4","last_reported":1750417757,"current_range_meters":16400,"station_id":"ce4bhhp2rcd13ifvqfm0","pricing_plan_id":"cebpf4jnsgd1na2vs0mg"},{"bike_id":"74e58c3c-6de6-4ddc-8072-08325a79deec","system_id":"levelo_inurba_marseille","lat":43.23165,"lon":5.43734,"is_reserved":false,"is_disabled":false,"rental_uris":{"android":"levelo://app?vid=74e58c3c-6de6-4ddc-8072-08325a79deec","ios":"levelo://app?vid=74e58c3c-6de6-4ddc-8072-08325a79deec"},"vehicle_type_id":"4","last_reported":1750417757,"current_range_meters":16400,"station_id":"ce4bhmp2rcd13ifvqgog","pricing_plan_id":"cebpf4jnsgd1na2vs0mg"},{"bike_id":"9c9432f2-200a-4685-a0d1-4fe23879268a","system_id":"levelo_inurba_marseille","lat":43.2406,"lon":5.37818,"is_reserved":false,"is_disabled":false,"rental_uris":{"android":"levelo://app?vid=9c9432f2-200a-4685-a0d1-4fe23879268a","ios":"levelo://app?vid=9c9432f2-200a-4685-a0d1-4fe23879268a"},"vehicle_type_id":"4","last_reported":1750417757,"current_range_meters":16400,"station_id":"ce4bhnp2rcd13ifvqgvg","pricing_plan_id":"cebpf4jnsgd1na2vs0mg"},{"bike_id":"8e92feac-7d18-4ddd-8b47-3e77cf9b9c34","system_id":"levelo_inurba_marseille","lat":43.231907,"lon":5.355524,"is_reserved":false,"is_disabled":false,"rental_uris":{"android":"levelo://app?vid=8e92feac-7d18-4ddd-8b47-3e77cf9b9c34","ios":"levelo://app?vid=8e92feac-7d18-4ddd-8b47-3e77cf9b9c34"},"vehicle_type_id":"4","last_reported":1750417757,"current_range_meters":16400,"station_id":"ce4bhu92rcd13ifvqi70","pricing_plan_id":"cebpf4jnsgd1na2vs0mg"},{"bike_id":"dc540ba2-fb63-45eb-b83a-1826fb3d30b7","system_id":"levelo_inurba_marseille","lat":43.246103,"lon":5.39261,"is_reserved":false,"is_disabled":false,"rental_uris":{"android":"levelo://app?vid=dc540ba2-fb63-45eb-b83a-1826fb3d30b7","ios":"levelo://app?vid=dc540ba2-fb63-45eb-b83a-1826fb3d30b7"},"vehicle_type_id":"4","last_reported":1750417757,"current_range_meters":16800,"station_id":"","pricing_plan_id":"cebpf4jnsgd1na2vs0mg"},{"bike_id":"d40af265-11b5-43a6-9bb6-f910f57901ba","system_id":"levelo_inurba_marseille","lat":43.32928,"lon":5.3803,"is_reserved":false,"is_disabled":false,"rental_uris":{"android":"levelo://app?vid=d40af265-11b5-43a6-9bb6-f910f57901ba","ios":"levelo://app?vid=d40af265-11b5-43a6-9bb6-f910f57901ba"},"vehicle_type_id":"4","last_reported":1750417757,"current_range_meters":16800,"station_id":"","pricing_plan_id":"cebpf4jnsgd1na2vs0mg"},{"bike_id":"8ef11a45-504d-45b0-a2b5-97fef9594218","system_id":"levelo_inurba_marseille","lat":43.29558,"lon":5.38158,"is_reserved":false,"is_disabled":false,"rental_uris":{"android":"levelo://app?vid=8ef11a45-504d-45b0-a2b5-97fef9594218","ios":"levelo://app?vid=8ef11a45-504d-45b0-a2b5-97fef9594218"},"vehicle_type_id":"4","last_reported":1750417757,"current_range_meters":16800,"station_id":"","pricing_plan_id":"cebpf4jnsgd1na2vs0mg"},{"bike_id":"28c0d060-f254-4dc4-9368-035b45178058","system_id":"levelo_inurba_marseille","lat":43.30552,"lon":5.367323,"is_reserved":false,"is_disabled":false,"rental_uris":{"android":"levelo://app?vid=28c0d060-f254-4dc4-9368-035b45178058","ios":"levelo://app?vid=28c0d060-f254-4dc4-9368-035b45178058"},"vehicle_type_id":"4","last_reported":1750417757,"current_range_meters":16800,"station_id":"ce4bgrp2rcd13ifvqc9g","pricing_plan_id":"cebpf4jnsgd1na2vs0mg"},{"bike_id":"bb9081aa-0d15-4317-af70-0717156cea0c","system_id":"levelo_inurba_marseille","lat":43.30476,"lon":5.37902,"is_reserved":false,"is_disabled":false,"rental_uris":{"android":"levelo://app?vid=bb9081aa-0d15-4317-af70-0717156cea0c","ios":"levelo://app?vid=bb9081aa-0d15-4317-af70-0717156cea0c"},"vehicle_type_id":"4","last_reported":1750417757,"current_range_meters":16800,"station_id":"ce4bgup2rcd13ifvqcn0","pricing_plan_id":"cebpf4jnsgd1na2vs0mg"},{"bike_id":"bfc4421a-ba30-4095-8161-c513f3f14387","system_id":"levelo_inurba_marseille","lat":43.31076,"lon":5.38357,"is_reserved":false,"is_disabled":false,"rental_uris":{"android":"levelo://app?vid=bfc4421a-ba30-4095-8161-c513f3f14387","ios":"levelo://app?vid=bfc4421a-ba30-4095-8161-c513f3f14387"},"vehicle_type_id":"4","last_reported":1750417757,"current_range_meters":16800,"station_id":"ce4bgv92rcd13ifvqcr0","pricing_plan_id":"cebpf4jnsgd1na2vs0mg"},{"bike_id":"01f82335-1be4-49f0-bb9c-76bf3d817d2f","system_id":"levelo_inurba_marseille","lat":43.28425,"lon":5.34994,"is_reserved":false,"is_disabled":false,"rental_uris":{"android":"levelo://app?vid=01f82335-1be4-49f0-bb9c-76bf3d817d2f","ios":"levelo://app?vid=01f82335-1be4-49f0-bb9c-76bf3d817d2f"},"vehicle_type_id":"4","last_reported":1750417757,"current_range_meters":16800,"station_id":"ce4bhbh2rcd13ifvqepg","pricing_plan_id":"cebpf4jnsgd1na2vs0mg"},{"bike_id":"3f7c23cc-d594-42bc-a881-f5ba267c7233","system_id":"levelo_inurba_marseille","lat":43.28616,"lon":5.35101,"is_reserved":false,"is_disabled":false,"rental_uris":{"android":"levelo://app?vid=3f7c23cc-d594-42bc-a881-f5ba267c7233","ios":"levelo://app?vid=3f7c23cc-d594-42bc-a881-f5ba267c7233"},"vehicle_type_id":"4","last_reported":1750417757,"current_range_meters":16800,"station_id":"ce4bhch2rcd13ifvqeug","pricing_plan_id":"cebpf4jnsgd1na2vs0mg"},{"bike_id":"d79b7003-c066-48c6-9fb3-3d3550c11987","system_id":"levelo_inurba_marseille","lat":43.24389,"lon":5.3706,"is_reserved":false,"is_disabled":false,"rental_uris":{"android":"levelo://app?vid=d79b7003-c066-48c6-9fb3-3d3550c11987","ios":"levelo://app?vid=d79b7003-c066-48c6-9fb3-3d3550c11987"},"vehicle_type_id":"4","last_reported":1750417757,"current_range_meters":16800,"station_id":"ce4bhhh2rcd13ifvqfk0","pricing_plan_id":"cebpf4jnsgd1na2vs0mg"},{"bike_id":"bf043dfd-309a-443a-8bf2-73a457fed4e7","system_id":"levelo_inurba_marseille","lat":43.2396,"lon":5.36642,"is_reserved":false,"is_disabled":false,"rental_uris":{"android":"levelo://app?vid=bf043dfd-309a-443a-8bf2-73a457fed4e7","ios":"levelo://app?vid=bf043dfd-309a-443a-8bf2-73a457fed4e7"},"vehicle_type_id":"4","last_reported":1750417757,"current_range_meters":16800,"station_id":"ce4bhi12rcd13ifvqfp0","pricing_plan_id":"cebpf4jnsgd1na2vs0mg"},{"bike_id":"349c0f97-8649-4ba5-89ff-4bcd56d59d48","system_id":"levelo_inurba_marseille","lat":43.23193,"lon":5.40011,"is_reserved":false,"is_disabled":false,"rental_uris":{"android":"levelo://app?vid=349c0f97-8649-4ba5-89ff-4bcd56d59d48","ios":"levelo://app?vid=349c0f97-8649-4ba5-89ff-4bcd56d59d48"},"vehicle_type_id":"4","last_reported":1750417757,"current_range_meters":16800,"station_id":"ce4bhn12rcd13ifvqgqg","pricing_plan_id":"cebpf4jnsgd1na2vs0mg"},{"bike_id":"bd27fe72-6fbc-453f-8b77-bee10ab3b13c","system_id":"levelo_inurba_marseille","lat":43.2955,"lon":5.42295,"is_reserved":false,"is_disabled":false,"rental_uris":{"android":"levelo://app?vid=bd27fe72-6fbc-453f-8b77-bee10ab3b13c","ios":"levelo://app?vid=bd27fe72-6fbc-453f-8b77-bee10ab3b13c"},"vehicle_type_id":"4","last_reported":1750417757,"current_range_meters":16800,"station_id":"ce4bhph2rcd13ifvqhdg","pricing_plan_id":"cebpf4jnsgd1na2vs0mg"},{"bike_id":"ddefd7fd-3400-4337-8338-4067185a8cdb","system_id":"levelo_inurba_marseille","lat":43.32105,"lon":5.36817,"is_reserved":false,"is_disabled":false,"rental_uris":{"android":"levelo://app?vid=ddefd7fd-3400-4337-8338-4067185a8cdb","ios":"levelo://app?vid=ddefd7fd-3400-4337-8338-4067185a8cdb"},"vehicle_type_id":"4","last_reported":1750417757,"current_range_meters":16800,"station_id":"ce4bhrh2rcd13ifvqhug","pricing_plan_id":"cebpf4jnsgd1na2vs0mg"},{"bike_id":"e904481c-c075-4235-ab4b-c7d3ddbe3194","system_id":"levelo_inurba_marseille","lat":43.293304,"lon":5.370808,"is_reserved":false,"is_disabled":false,"rental_uris":{"android":"levelo://app?vid=e904481c-c075-4235-ab4b-c7d3ddbe3194","ios":"levelo://app?vid=e904481c-c075-4235-ab4b-c7d3ddbe3194"},"vehicle_type_id":"4","last_reported":1750417757,"current_range_meters":17200,"station_id":"","pricing_plan_id":"cebpf4jnsgd1na2vs0mg"},{"bike_id":"d1df9fc6-20f3-41cb-8e6a-de514d11fa16","system_id":"levelo_inurba_marseille","lat":43.29304,"lon":5.37464,"is_reserved":false,"is_disabled":false,"rental_uris":{"android":"levelo://app?vid=d1df9fc6-20f3-41cb-8e6a-de514d11fa16","ios":"levelo://app?vid=d1df9fc6-20f3-41cb-8e6a-de514d11fa16"},"vehicle_type_id":"4","last_reported":1750417757,"current_range_meters":17200,"station_id":"ce4bgi12rcd13ifvqb70","pricing_plan_id":"cebpf4jnsgd1na2vs0mg"},{"bike_id":"f0fef2d0-349e-4529-a3e1-dc52b32fc8ef","system_id":"levelo_inurba_marseille","lat":43.25503,"lon":5.37646,"is_reserved":false,"is_disabled":false,"rental_uris":{"android":"levelo://app?vid=f0fef2d0-349e-4529-a3e1-dc52b32fc8ef","ios":"levelo://app?vid=f0fef2d0-349e-4529-a3e1-dc52b32fc8ef"},"vehicle_type_id":"4","last_reported":1750417757,"current_range_meters":17200,"station_id":"ce4bhh12rcd13ifvqff0","pricing_plan_id":"cebpf4jnsgd1na2vs0mg"},{"bike_id":"610daf13-bcea-4a5f-b794-a1d5fae6f96b","system_id":"levelo_inurba_marseille","lat":43.22931,"lon":5.35374,"is_reserved":false,"is_disabled":false,"rental_uris":{"android":"levelo://app?vid=610daf13-bcea-4a5f-b794-a1d5fae6f96b","ios":"levelo://app?vid=610daf13-bcea-4a5f-b794-a1d5fae6f96b"},"vehicle_type_id":"4","last_reported":1750417757,"current_range_meters":17200,"station_id":"cpo3532slgdg3j2ikp40","pricing_plan_id":"cebpf4jnsgd1na2vs0mg"},{"bike_id":"a22aa312-0025-4f42-88e2-b1e95e79340f","system_id":"levelo_inurba_marseille","lat":43.31697,"lon":5.38393,"is_reserved":false,"is_disabled":false,"rental_uris":{"android":"levelo://app?vid=a22aa312-0025-4f42-88e2-b1e95e79340f","ios":"levelo://app?vid=a22aa312-0025-4f42-88e2-b1e95e79340f"},"vehicle_type_id":"4","last_reported":1750417757,"current_range_meters":17600,"station_id":"","pricing_plan_id":"cebpf4jnsgd1na2vs0mg"},{"bike_id":"ffbb0c22-3f4e-4cdb-a0e5-79e3b9f3e1a2","system_id":"levelo_inurba_marseille","lat":43.33776,"lon":5.37435,"is_reserved":false,"is_disabled":false,"rental_uris":{"android":"levelo://app?vid=ffbb0c22-3f4e-4cdb-a0e5-79e3b9f3e1a2","ios":"levelo://app?vid=ffbb0c22-3f4e-4cdb-a0e5-79e3b9f3e1a2"},"vehicle_type_id":"4","last_reported":1750417757,"current_range_meters":17600,"station_id":"","pricing_plan_id":"cebpf4jnsgd1na2vs0mg"},{"bike_id":"a355deee-f604-4bbe-bc6d-9b0b2f98b683","system_id":"levelo_inurba_marseille","lat":43.31529,"lon":5.37309,"is_reserved":false,"is_disabled":false,"rental_uris":{"android":"levelo://app?vid=a355deee-f604-4bbe-bc6d-9b0b2f98b683","ios":"levelo://app?vid=a355deee-f604-4bbe-bc6d-9b0b2f98b683"},"vehicle_type_id":"4","last_reported":1750417757,"current_range_meters":17600,"station_id":"ce4bgt12rcd13ifvqcd0","pricing_plan_id":"cebpf4jnsgd1na2vs0mg"},{"bike_id":"8a93d75f-f674-4e14-886b-ca1e8f413fb6","system_id":"levelo_inurba_marseille","lat":43.31076,"lon":5.38354,"is_reserved":false,"is_disabled":false,"rental_uris":{"android":"levelo://app?vid=8a93d75f-f674-4e14-886b-ca1e8f413fb6","ios":"levelo://app?vid=8a93d75f-f674-4e14-886b-ca1e8f413fb6"},"vehicle_type_id":"4","last_reported":1750417757,"current_range_meters":17600,"station_id":"ce4bgv92rcd13ifvqcr0","pricing_plan_id":"cebpf4jnsgd1na2vs0mg"},{"bike_id":"cfee36f6-e070-490a-b865-e4b6072f5318","system_id":"levelo_inurba_marseille","lat":43.29442,"lon":5.39746,"is_reserved":false,"is_disabled":false,"rental_uris":{"android":"levelo://app?vid=cfee36f6-e070-490a-b865-e4b6072f5318","ios":"levelo://app?vid=cfee36f6-e070-490a-b865-e4b6072f5318"},"vehicle_type_id":"4","last_reported":1750417757,"current_range_meters":17600,"station_id":"ce4bh3h2rcd13ifvqdo0","pricing_plan_id":"cebpf4jnsgd1na2vs0mg"},{"bike_id":"2bc5ad35-0445-4961-b22c-b14d3c111900","system_id":"levelo_inurba_marseille","lat":43.28989,"lon":5.37831,"is_reserved":false,"is_disabled":false,"rental_uris":{"android":"levelo://app?vid=2bc5ad35-0445-4961-b22c-b14d3c111900","ios":"levelo://app?vid=2bc5ad35-0445-4961-b22c-b14d3c111900"},"vehicle_type_id":"4","last_reported":1750417757,"current_range_meters":17600,"station_id":"ce4bh9p2rcd13ifvqed0","pricing_plan_id":"cebpf4jnsgd1na2vs0mg"},{"bike_id":"1543e5fb-8ca5-4a5e-8d5b-eb3184fad0fa","system_id":"levelo_inurba_marseille","lat":43.30806,"lon":5.43518,"is_reserved":false,"is_disabled":false,"rental_uris":{"android":"levelo://app?vid=1543e5fb-8ca5-4a5e-8d5b-eb3184fad0fa","ios":"levelo://app?vid=1543e5fb-8ca5-4a5e-8d5b-eb3184fad0fa"},"vehicle_type_id":"4","last_reported":1750417757,"current_range_meters":17600,"station_id":"ce4bhph2rcd13ifvqheg","pricing_plan_id":"cebpf4jnsgd1na2vs0mg"},{"bike_id":"4643bc90-1bac-4c4b-98b1-e2d500830573","system_id":"levelo_inurba_marseille","lat":43.31371,"lon":5.37704,"is_reserved":false,"is_disabled":false,"rental_uris":{"android":"levelo://app?vid=4643bc90-1bac-4c4b-98b1-e2d500830573","ios":"levelo://app?vid=4643bc90-1bac-4c4b-98b1-e2d500830573"},"vehicle_type_id":"4","last_reported":1750417757,"current_range_meters":18000,"station_id":"","pricing_plan_id":"cebpf4jnsgd1na2vs0mg"},{"bike_id":"204afd8f-d13a-468d-a59c-e2db9671fff1","system_id":"levelo_inurba_marseille","lat":43.24449,"lon":5.37115,"is_reserved":false,"is_disabled":false,"rental_uris":{"android":"levelo://app?vid=204afd8f-d13a-468d-a59c-e2db9671fff1","ios":"levelo://app?vid=204afd8f-d13a-468d-a59c-e2db9671fff1"},"vehicle_type_id":"4","last_reported":1750417757,"current_range_meters":18000,"station_id":"","pricing_plan_id":"cebpf4jnsgd1na2vs0mg"},{"bike_id":"635e59db-bb07-4c8d-8e9d-37bf7ec8f814","system_id":"levelo_inurba_marseille","lat":43.29619,"lon":5.38123,"is_reserved":false,"is_disabled":false,"rental_uris":{"android":"levelo://app?vid=635e59db-bb07-4c8d-8e9d-37bf7ec8f814","ios":"levelo://app?vid=635e59db-bb07-4c8d-8e9d-37bf7ec8f814"},"vehicle_type_id":"4","last_reported":1750417757,"current_range_meters":18000,"station_id":"ce4bgl12rcd13ifvqbo0","pricing_plan_id":"cebpf4jnsgd1na2vs0mg"},{"bike_id":"95ec22cf-173f-4213-b9d1-fbe10b999df2","system_id":"levelo_inurba_marseille","lat":43.26572,"lon":5.39011,"is_reserved":false,"is_disabled":false,"rental_uris":{"android":"levelo://app?vid=95ec22cf-173f-4213-b9d1-fbe10b999df2","ios":"levelo://app?vid=95ec22cf-173f-4213-b9d1-fbe10b999df2"},"vehicle_type_id":"4","last_reported":1750417757,"current_range_meters":18000,"station_id":"ce4bhe12rcd13ifvqf30","pricing_plan_id":"cebpf4jnsgd1na2vs0mg"},{"bike_id":"7292142d-a01f-49a7-8bbe-828e8933a3de","system_id":"levelo_inurba_marseille","lat":43.265524,"lon":5.37287,"is_reserved":false,"is_disabled":false,"rental_uris":{"android":"levelo://app?vid=7292142d-a01f-49a7-8bbe-828e8933a3de","ios":"levelo://app?vid=7292142d-a01f-49a7-8bbe-828e8933a3de"},"vehicle_type_id":"4","last_reported":1750417757,"current_range_meters":18000,"station_id":"ce4bhg12rcd13ifvqf70","pricing_plan_id":"cebpf4jnsgd1na2vs0mg"},{"bike_id":"a9f7e5b6-c3b9-477a-9dd1-4ff223f734c0","system_id":"levelo_inurba_marseille","lat":43.29899,"lon":5.43656,"is_reserved":false,"is_disabled":false,"rental_uris":{"android":"levelo://app?vid=a9f7e5b6-c3b9-477a-9dd1-4ff223f734c0","ios":"levelo://app?vid=a9f7e5b6-c3b9-477a-9dd1-4ff223f734c0"},"vehicle_type_id":"4","last_reported":1750417757,"current_range_meters":18000,"station_id":"ce4bhpp2rcd13ifvqhfg","pricing_plan_id":"cebpf4jnsgd1na2vs0mg"},{"bike_id":"63676238-fb9e-4ec1-8dff-ed9f5d30d554","system_id":"levelo_inurba_marseille","lat":43.3176,"lon":5.39011,"is_reserved":false,"is_disabled":false,"rental_uris":{"android":"levelo://app?vid=63676238-fb9e-4ec1-8dff-ed9f5d30d554","ios":"levelo://app?vid=63676238-fb9e-4ec1-8dff-ed9f5d30d554"},"vehicle_type_id":"4","last_reported":1750417757,"current_range_meters":18000,"station_id":"ce4bhqp2rcd13ifvqhng","pricing_plan_id":"cebpf4jnsgd1na2vs0mg"},{"bike_id":"9a21d08c-7ca6-40d4-848a-93b3b17a7313","system_id":"levelo_inurba_marseille","lat":43.31538,"lon":5.38036,"is_reserved":false,"is_disabled":false,"rental_uris":{"android":"levelo://app?vid=9a21d08c-7ca6-40d4-848a-93b3b17a7313","ios":"levelo://app?vid=9a21d08c-7ca6-40d4-848a-93b3b17a7313"},"vehicle_type_id":"4","last_reported":1750417757,"current_range_meters":18000,"station_id":"ce4bhsp2rcd13ifvqi50","pricing_plan_id":"cebpf4jnsgd1na2vs0mg"},{"bike_id":"4580f6a6-88d8-4aa8-a1b0-20d150e4c111","system_id":"levelo_inurba_marseille","lat":43.22934,"lon":5.353781,"is_reserved":false,"is_disabled":false,"rental_uris":{"android":"levelo://app?vid=4580f6a6-88d8-4aa8-a1b0-20d150e4c111","ios":"levelo://app?vid=4580f6a6-88d8-4aa8-a1b0-20d150e4c111"},"vehicle_type_id":"4","last_reported":1750417757,"current_range_meters":18000,"station_id":"cpo3532slgdg3j2ikp40","pricing_plan_id":"cebpf4jnsgd1na2vs0mg"},{"bike_id":"90c109b5-5cee-495e-8f11-f318c0f086b6","system_id":"levelo_inurba_marseille","lat":43.32498,"lon":5.43487,"is_reserved":false,"is_disabled":false,"rental_uris":{"android":"levelo://app?vid=90c109b5-5cee-495e-8f11-f318c0f086b6","ios":"levelo://app?vid=90c109b5-5cee-495e-8f11-f318c0f086b6"},"vehicle_type_id":"4","last_reported":1750417757,"current_range_meters":18800,"station_id":"","pricing_plan_id":"cebpf4jnsgd1na2vs0mg"},{"bike_id":"2dc37154-7eb8-4251-aa63-dde65a5c123c","system_id":"levelo_inurba_marseille","lat":43.29257,"lon":5.37621,"is_reserved":false,"is_disabled":false,"rental_uris":{"android":"levelo://app?vid=2dc37154-7eb8-4251-aa63-dde65a5c123c","ios":"levelo://app?vid=2dc37154-7eb8-4251-aa63-dde65a5c123c"},"vehicle_type_id":"4","last_reported":1750417757,"current_range_meters":18800,"station_id":"ce4bgi12rcd13ifvqb80","pricing_plan_id":"cebpf4jnsgd1na2vs0mg"},{"bike_id":"b31c8701-66c4-4c39-914c-40353c1c6049","system_id":"levelo_inurba_marseille","lat":43.30782,"lon":5.37644,"is_reserved":false,"is_disabled":false,"rental_uris":{"android":"levelo://app?vid=b31c8701-66c4-4c39-914c-40353c1c6049","ios":"levelo://app?vid=b31c8701-66c4-4c39-914c-40353c1c6049"},"vehicle_type_id":"4","last_reported":1750417757,"current_range_meters":18800,"station_id":"ce4bgv92rcd13ifvqcq0","pricing_plan_id":"cebpf4jnsgd1na2vs0mg"},{"bike_id":"7982bcb4-1165-4b51-b1f2-092a4f50e8ce","system_id":"levelo_inurba_marseille","lat":43.28464,"lon":5.35883,"is_reserved":false,"is_disabled":false,"rental_uris":{"android":"levelo://app?vid=7982bcb4-1165-4b51-b1f2-092a4f50e8ce","ios":"levelo://app?vid=7982bcb4-1165-4b51-b1f2-092a4f50e8ce"},"vehicle_type_id":"4","last_reported":1750417757,"current_range_meters":18800,"station_id":"ce4bhah2rcd13ifvqei0","pricing_plan_id":"cebpf4jnsgd1na2vs0mg"},{"bike_id":"9f5365c9-9b47-4f5f-91ee-7cdd4c883d9c","system_id":"levelo_inurba_marseille","lat":43.27396,"lon":5.36266,"is_reserved":false,"is_disabled":false,"rental_uris":{"android":"levelo://app?vid=9f5365c9-9b47-4f5f-91ee-7cdd4c883d9c","ios":"levelo://app?vid=9f5365c9-9b47-4f5f-91ee-7cdd4c883d9c"},"vehicle_type_id":"4","last_reported":1750417757,"current_range_meters":18800,"station_id":"ce4bhbh2rcd13ifvqeo0","pricing_plan_id":"cebpf4jnsgd1na2vs0mg"},{"bike_id":"219b5936-c769-4b8d-bef4-518d48165ac7","system_id":"levelo_inurba_marseille","lat":43.28411,"lon":5.34988,"is_reserved":false,"is_disabled":false,"rental_uris":{"android":"levelo://app?vid=219b5936-c769-4b8d-bef4-518d48165ac7","ios":"levelo://app?vid=219b5936-c769-4b8d-bef4-518d48165ac7"},"vehicle_type_id":"4","last_reported":1750417757,"current_range_meters":18800,"station_id":"ce4bhbh2rcd13ifvqepg","pricing_plan_id":"cebpf4jnsgd1na2vs0mg"},{"bike_id":"0a11771e-cc24-4d24-baf4-0abfe3e65cfe","system_id":"levelo_inurba_marseille","lat":43.28652,"lon":5.35108,"is_reserved":false,"is_disabled":false,"rental_uris":{"android":"levelo://app?vid=0a11771e-cc24-4d24-baf4-0abfe3e65cfe","ios":"levelo://app?vid=0a11771e-cc24-4d24-baf4-0abfe3e65cfe"},"vehicle_type_id":"4","last_reported":1750417757,"current_range_meters":18800,"station_id":"ce4bhch2rcd13ifvqeug","pricing_plan_id":"cebpf4jnsgd1na2vs0mg"},{"bike_id":"1340254a-43c4-432d-85f4-151a43bcdec8","system_id":"levelo_inurba_marseille","lat":43.27966,"lon":5.3875,"is_reserved":false,"is_disabled":false,"rental_uris":{"android":"levelo://app?vid=1340254a-43c4-432d-85f4-151a43bcdec8","ios":"levelo://app?vid=1340254a-43c4-432d-85f4-151a43bcdec8"},"vehicle_type_id":"4","last_reported":1750417757,"current_range_meters":18800,"station_id":"ce4bhg12rcd13ifvqf80","pricing_plan_id":"cebpf4jnsgd1na2vs0mg"},{"bike_id":"ddfab1cd-e542-48da-a64e-2a57d79175b5","system_id":"levelo_inurba_marseille","lat":43.28158,"lon":5.42644,"is_reserved":false,"is_disabled":false,"rental_uris":{"android":"levelo://app?vid=ddfab1cd-e542-48da-a64e-2a57d79175b5","ios":"levelo://app?vid=ddfab1cd-e542-48da-a64e-2a57d79175b5"},"vehicle_type_id":"4","last_reported":1750417757,"current_range_meters":18800,"station_id":"ce4bhnh2rcd13ifvqgug","pricing_plan_id":"cebpf4jnsgd1na2vs0mg"},{"bike_id":"a9fe177d-6cf7-41a6-b924-383cb8edf7ce","system_id":"levelo_inurba_marseille","lat":43.28624,"lon":5.35129,"is_reserved":false,"is_disabled":false,"rental_uris":{"android":"levelo://app?vid=a9fe177d-6cf7-41a6-b924-383cb8edf7ce","ios":"levelo://app?vid=a9fe177d-6cf7-41a6-b924-383cb8edf7ce"},"vehicle_type_id":"4","last_reported":1750417757,"current_range_meters":19200,"station_id":"ce4bhch2rcd13ifvqeug","pricing_plan_id":"cebpf4jnsgd1na2vs0mg"},{"bike_id":"5a6c9ff3-c53d-4f10-897b-84f4d6c103bf","system_id":"levelo_inurba_marseille","lat":43.26684,"lon":5.38268,"is_reserved":false,"is_disabled":false,"rental_uris":{"android":"levelo://app?vid=5a6c9ff3-c53d-4f10-897b-84f4d6c103bf","ios":"levelo://app?vid=5a6c9ff3-c53d-4f10-897b-84f4d6c103bf"},"vehicle_type_id":"4","last_reported":1750417757,"current_range_meters":19200,"station_id":"ce4bhg92rcd13ifvqf90","pricing_plan_id":"cebpf4jnsgd1na2vs0mg"},{"bike_id":"b2a01874-67de-4b5d-90cc-858a65bae2ba","system_id":"levelo_inurba_marseille","lat":43.2709,"lon":5.40286,"is_reserved":false,"is_disabled":false,"rental_uris":{"android":"levelo://app?vid=b2a01874-67de-4b5d-90cc-858a65bae2ba","ios":"levelo://app?vid=b2a01874-67de-4b5d-90cc-858a65bae2ba"},"vehicle_type_id":"4","last_reported":1750417757,"current_range_meters":19200,"station_id":"ce4bhk92rcd13ifvqgc0","pricing_plan_id":"cebpf4jnsgd1na2vs0mg"},{"bike_id":"73a224ff-f6a3-4c18-9279-d392a3f86d72","system_id":"levelo_inurba_marseille","lat":43.217471,"lon":5.345968,"is_reserved":false,"is_disabled":false,"rental_uris":{"android":"levelo://app?vid=73a224ff-f6a3-4c18-9279-d392a3f86d72","ios":"levelo://app?vid=73a224ff-f6a3-4c18-9279-d392a3f86d72"},"vehicle_type_id":"4","last_reported":1750417757,"current_range_meters":19200,"station_id":"st_cvj6r9ubvosntc0bgbag","pricing_plan_id":"cebpf4jnsgd1na2vs0mg"},{"bike_id":"413a87ff-5a89-47b9-88c9-75b414b85f8b","system_id":"levelo_inurba_marseille","lat":43.293638,"lon":5.378291,"is_reserved":false,"is_disabled":false,"rental_uris":{"android":"levelo://app?vid=413a87ff-5a89-47b9-88c9-75b414b85f8b","ios":"levelo://app?vid=413a87ff-5a89-47b9-88c9-75b414b85f8b"},"vehicle_type_id":"4","last_reported":1750417757,"current_range_meters":19600,"station_id":"ce4bgjh2rcd13ifvqbf0","pricing_plan_id":"cebpf4jnsgd1na2vs0mg"},{"bike_id":"063e9941-d5f6-480d-a2cf-92698b2a4bd1","system_id":"levelo_inurba_marseille","lat":43.31483,"lon":5.372922,"is_reserved":false,"is_disabled":false,"rental_uris":{"android":"levelo://app?vid=063e9941-d5f6-480d-a2cf-92698b2a4bd1","ios":"levelo://app?vid=063e9941-d5f6-480d-a2cf-92698b2a4bd1"},"vehicle_type_id":"4","last_reported":1750417757,"current_range_meters":19600,"station_id":"ce4bgt12rcd13ifvqcd0","pricing_plan_id":"cebpf4jnsgd1na2vs0mg"},{"bike_id":"cf4c7a7c-95b8-461c-816a-b4e162b3c8a1","system_id":"levelo_inurba_marseille","lat":43.30219,"lon":5.39458,"is_reserved":false,"is_disabled":false,"rental_uris":{"android":"levelo://app?vid=cf4c7a7c-95b8-461c-816a-b4e162b3c8a1","ios":"levelo://app?vid=cf4c7a7c-95b8-461c-816a-b4e162b3c8a1"},"vehicle_type_id":"4","last_reported":1750417757,"current_range_meters":19600,"station_id":"ce4bh0p2rcd13ifvqd70","pricing_plan_id":"cebpf4jnsgd1na2vs0mg"},{"bike_id":"d3c08c85-b9df-45a5-990f-b85f5bf58f6a","system_id":"levelo_inurba_marseille","lat":43.290143,"lon":5.38668,"is_reserved":false,"is_disabled":false,"rental_uris":{"android":"levelo://app?vid=d3c08c85-b9df-45a5-990f-b85f5bf58f6a","ios":"levelo://app?vid=d3c08c85-b9df-45a5-990f-b85f5bf58f6a"},"vehicle_type_id":"4","last_reported":1750417757,"current_range_meters":19600,"station_id":"ce4bh512rcd13ifvqe3g","pricing_plan_id":"cebpf4jnsgd1na2vs0mg"},{"bike_id":"904d9165-8a4c-4d2c-8705-df7457f3b83b","system_id":"levelo_inurba_marseille","lat":43.29901,"lon":5.4366,"is_reserved":false,"is_disabled":false,"rental_uris":{"android":"levelo://app?vid=904d9165-8a4c-4d2c-8705-df7457f3b83b","ios":"levelo://app?vid=904d9165-8a4c-4d2c-8705-df7457f3b83b"},"vehicle_type_id":"4","last_reported":1750417757,"current_range_meters":19600,"station_id":"ce4bhpp2rcd13ifvqhfg","pricing_plan_id":"cebpf4jnsgd1na2vs0mg"},{"bike_id":"2d50ff45-3046-40df-b784-ee274c648ea0","system_id":"levelo_inurba_marseille","lat":43.3203,"lon":5.40817,"is_reserved":false,"is_disabled":false,"rental_uris":{"android":"levelo://app?vid=2d50ff45-3046-40df-b784-ee274c648ea0","ios":"levelo://app?vid=2d50ff45-3046-40df-b784-ee274c648ea0"},"vehicle_type_id":"4","last_reported":1750417757,"current_range_meters":20000,"station_id":"","pricing_plan_id":"cebpf4jnsgd1na2vs0mg"},{"bike_id":"d457e523-da61-4d23-af81-3f669ff60982","system_id":"levelo_inurba_marseille","lat":43.301502,"lon":5.381009,"is_reserved":false,"is_disabled":false,"rental_uris":{"android":"levelo://app?vid=d457e523-da61-4d23-af81-3f669ff60982","ios":"levelo://app?vid=d457e523-da61-4d23-af81-3f669ff60982"},"vehicle_type_id":"4","last_reported":1750417757,"current_range_meters":20000,"station_id":"ce4bgjp2rcd13ifvqbh0","pricing_plan_id":"cebpf4jnsgd1na2vs0mg"},{"bike_id":"22ffc738-570b-4920-834c-4e8c227bf0af","system_id":"levelo_inurba_marseille","lat":43.29069,"lon":5.3716,"is_reserved":false,"is_disabled":false,"rental_uris":{"android":"levelo://app?vid=22ffc738-570b-4920-834c-4e8c227bf0af","ios":"levelo://app?vid=22ffc738-570b-4920-834c-4e8c227bf0af"},"vehicle_type_id":"4","last_reported":1750417757,"current_range_meters":20000,"station_id":"ce4bh5p2rcd13ifvqe4g","pricing_plan_id":"cebpf4jnsgd1na2vs0mg"},{"bike_id":"870c0e41-4f8f-4255-8033-a12fb7a131b1","system_id":"levelo_inurba_marseille","lat":43.289316,"lon":5.366398,"is_reserved":false,"is_disabled":false,"rental_uris":{"android":"levelo://app?vid=870c0e41-4f8f-4255-8033-a12fb7a131b1","ios":"levelo://app?vid=870c0e41-4f8f-4255-8033-a12fb7a131b1"},"vehicle_type_id":"4","last_reported":1750417757,"current_range_meters":20000,"station_id":"ce4bhap2rcd13ifvqek0","pricing_plan_id":"cebpf4jnsgd1na2vs0mg"},{"bike_id":"da07fe5c-b262-4508-848a-9e4b7808dabb","system_id":"levelo_inurba_marseille","lat":43.273248,"lon":5.390755,"is_reserved":false,"is_disabled":false,"rental_uris":{"android":"levelo://app?vid=da07fe5c-b262-4508-848a-9e4b7808dabb","ios":"levelo://app?vid=da07fe5c-b262-4508-848a-9e4b7808dabb"},"vehicle_type_id":"4","last_reported":1750417757,"current_range_meters":20000,"station_id":"ce4bhgp2rcd13ifvqfe0","pricing_plan_id":"cebpf4jnsgd1na2vs0mg"},{"bike_id":"2cecbda9-af3f-42a0-9399-e006382b197c","system_id":"levelo_inurba_marseille","lat":43.25105,"lon":5.40325,"is_reserved":false,"is_disabled":false,"rental_uris":{"android":"levelo://app?vid=2cecbda9-af3f-42a0-9399-e006382b197c","ios":"levelo://app?vid=2cecbda9-af3f-42a0-9399-e006382b197c"},"vehicle_type_id":"4","last_reported":1750417757,"current_range_meters":20000,"station_id":"ce4bhlh2rcd13ifvqgig","pricing_plan_id":"cebpf4jnsgd1na2vs0mg"},{"bike_id":"3c6a14d3-2ce7-46e3-a2e4-215d36294a2e","system_id":"levelo_inurba_marseille","lat":43.28143,"lon":5.42623,"is_reserved":false,"is_disabled":false,"rental_uris":{"android":"levelo://app?vid=3c6a14d3-2ce7-46e3-a2e4-215d36294a2e","ios":"levelo://app?vid=3c6a14d3-2ce7-46e3-a2e4-215d36294a2e"},"vehicle_type_id":"4","last_reported":1750417757,"current_range_meters":20000,"station_id":"ce4bhnh2rcd13ifvqgug","pricing_plan_id":"cebpf4jnsgd1na2vs0mg"},{"bike_id":"9217e631-bf74-481d-a5af-6c517cf944fe","system_id":"levelo_inurba_marseille","lat":43.286972,"lon":5.399824,"is_reserved":false,"is_disabled":false,"rental_uris":{"android":"levelo://app?vid=9217e631-bf74-481d-a5af-6c517cf944fe","ios":"levelo://app?vid=9217e631-bf74-481d-a5af-6c517cf944fe"},"vehicle_type_id":"4","last_reported":1750417757,"current_range_meters":20000,"station_id":"ce4bho92rcd13ifvqh3g","pricing_plan_id":"cebpf4jnsgd1na2vs0mg"},{"bike_id":"54612abd-2b8f-4728-84c7-d7cb84144f0f","system_id":"levelo_inurba_marseille","lat":43.32339,"lon":5.40619,"is_reserved":false,"is_disabled":false,"rental_uris":{"android":"levelo://app?vid=54612abd-2b8f-4728-84c7-d7cb84144f0f","ios":"levelo://app?vid=54612abd-2b8f-4728-84c7-d7cb84144f0f"},"vehicle_type_id":"4","last_reported":1750417757,"current_range_meters":20000,"station_id":"ce4bhq92rcd13ifvqhjg","pricing_plan_id":"cebpf4jnsgd1na2vs0mg"},{"bike_id":"de4d69a1-e263-4667-b940-3e96b69af600","system_id":"levelo_inurba_marseille","lat":43.33018,"lon":5.39047,"is_reserved":false,"is_disabled":false,"rental_uris":{"android":"levelo://app?vid=de4d69a1-e263-4667-b940-3e96b69af600","ios":"levelo://app?vid=de4d69a1-e263-4667-b940-3e96b69af600"},"vehicle_type_id":"4","last_reported":1750417757,"current_range_meters":20000,"station_id":"ce4bhr92rcd13ifvqhrg","pricing_plan_id":"cebpf4jnsgd1na2vs0mg"},{"bike_id":"f40b14e2-3a68-45fd-9433-444c784b4081","system_id":"levelo_inurba_marseille","lat":43.2175,"lon":5.34614,"is_reserved":false,"is_disabled":false,"rental_uris":{"android":"levelo://app?vid=f40b14e2-3a68-45fd-9433-444c784b4081","ios":"levelo://app?vid=f40b14e2-3a68-45fd-9433-444c784b4081"},"vehicle_type_id":"4","last_reported":1750417757,"current_range_meters":20000,"station_id":"st_cvj6r9ubvosntc0bgbag","pricing_plan_id":"cebpf4jnsgd1na2vs0mg"},{"bike_id":"5187990f-0e38-4183-960c-3c6c679fb2e8","system_id":"levelo_inurba_marseille","lat":43.21186,"lon":5.35059,"is_reserved":false,"is_disabled":false,"rental_uris":{"android":"levelo://app?vid=5187990f-0e38-4183-960c-3c6c679fb2e8","ios":"levelo://app?vid=5187990f-0e38-4183-960c-3c6c679fb2e8"},"vehicle_type_id":"4","last_reported":1750417757,"current_range_meters":20000,"station_id":"st_cvj6sg6p6f1abm77japg","pricing_plan_id":"cebpf4jnsgd1na2vs0mg"},{"bike_id":"973db25f-144a-495b-98c4-15b4ae2dacd8","system_id":"levelo_inurba_marseille","lat":43.31332,"lon":5.37504,"is_reserved":false,"is_disabled":false,"rental_uris":{"android":"levelo://app?vid=973db25f-144a-495b-98c4-15b4ae2dacd8","ios":"levelo://app?vid=973db25f-144a-495b-98c4-15b4ae2dacd8"},"vehicle_type_id":"4","last_reported":1750417757,"current_range_meters":20400,"station_id":"","pricing_plan_id":"cebpf4jnsgd1na2vs0mg"},{"bike_id":"18750010-bffd-4145-93df-015cc4455138","system_id":"levelo_inurba_marseille","lat":43.29918,"lon":5.37472,"is_reserved":false,"is_disabled":false,"rental_uris":{"android":"levelo://app?vid=18750010-bffd-4145-93df-015cc4455138","ios":"levelo://app?vid=18750010-bffd-4145-93df-015cc4455138"},"vehicle_type_id":"4","last_reported":1750417757,"current_range_meters":20400,"station_id":"ce4bgjh2rcd13ifvqbg0","pricing_plan_id":"cebpf4jnsgd1na2vs0mg"},{"bike_id":"3d850e02-4a28-41b8-9a6b-b7b2e5ed6d19","system_id":"levelo_inurba_marseille","lat":43.2952,"lon":5.37532,"is_reserved":false,"is_disabled":false,"rental_uris":{"android":"levelo://app?vid=3d850e02-4a28-41b8-9a6b-b7b2e5ed6d19","ios":"levelo://app?vid=3d850e02-4a28-41b8-9a6b-b7b2e5ed6d19"},"vehicle_type_id":"4","last_reported":1750417757,"current_range_meters":20400,"station_id":"ce4bgkp2rcd13ifvqbmg","pricing_plan_id":"cebpf4jnsgd1na2vs0mg"},{"bike_id":"caffcd93-9507-494d-bf69-b3294231ab44","system_id":"levelo_inurba_marseille","lat":43.29848,"lon":5.36274,"is_reserved":false,"is_disabled":false,"rental_uris":{"android":"levelo://app?vid=caffcd93-9507-494d-bf69-b3294231ab44","ios":"levelo://app?vid=caffcd93-9507-494d-bf69-b3294231ab44"},"vehicle_type_id":"4","last_reported":1750417757,"current_range_meters":20400,"station_id":"ce4bgpp2rcd13ifvqc3g","pricing_plan_id":"cebpf4jnsgd1na2vs0mg"},{"bike_id":"bc6542fb-9b4e-4ece-8014-cc78fa852ea6","system_id":"levelo_inurba_marseille","lat":43.26196,"lon":5.37446,"is_reserved":false,"is_disabled":false,"rental_uris":{"android":"levelo://app?vid=bc6542fb-9b4e-4ece-8014-cc78fa852ea6","ios":"levelo://app?vid=bc6542fb-9b4e-4ece-8014-cc78fa852ea6"},"vehicle_type_id":"4","last_reported":1750417757,"current_range_meters":20400,"station_id":"ce4bhgp2rcd13ifvqfc0","pricing_plan_id":"cebpf4jnsgd1na2vs0mg"},{"bike_id":"86f956c2-95df-4c7d-b611-b5fe1121c754","system_id":"levelo_inurba_marseille","lat":43.2318,"lon":5.39985,"is_reserved":false,"is_disabled":false,"rental_uris":{"android":"levelo://app?vid=86f956c2-95df-4c7d-b611-b5fe1121c754","ios":"levelo://app?vid=86f956c2-95df-4c7d-b611-b5fe1121c754"},"vehicle_type_id":"4","last_reported":1750417757,"current_range_meters":20400,"station_id":"ce4bhn12rcd13ifvqgqg","pricing_plan_id":"cebpf4jnsgd1na2vs0mg"},{"bike_id":"90c5a1b6-730c-413e-bcee-b223ffbd4504","system_id":"levelo_inurba_marseille","lat":43.2417,"lon":5.36389,"is_reserved":false,"is_disabled":false,"rental_uris":{"android":"levelo://app?vid=90c5a1b6-730c-413e-bcee-b223ffbd4504","ios":"levelo://app?vid=90c5a1b6-730c-413e-bcee-b223ffbd4504"},"vehicle_type_id":"4","last_reported":1750417757,"current_range_meters":20400,"station_id":"cpo36qri1sfpv3e86is0","pricing_plan_id":"cebpf4jnsgd1na2vs0mg"},{"bike_id":"65490dbb-fb26-48b3-b1b6-17abf527e385","system_id":"levelo_inurba_marseille","lat":43.24172,"lon":5.36441,"is_reserved":false,"is_disabled":false,"rental_uris":{"android":"levelo://app?vid=65490dbb-fb26-48b3-b1b6-17abf527e385","ios":"levelo://app?vid=65490dbb-fb26-48b3-b1b6-17abf527e385"},"vehicle_type_id":"4","last_reported":1750417757,"current_range_meters":20400,"station_id":"cpo36qri1sfpv3e86is0","pricing_plan_id":"cebpf4jnsgd1na2vs0mg"},{"bike_id":"f20d9be8-f65a-4615-a334-097d875818ce","system_id":"levelo_inurba_marseille","lat":43.289045,"lon":5.372879,"is_reserved":false,"is_disabled":false,"rental_uris":{"android":"levelo://app?vid=f20d9be8-f65a-4615-a334-097d875818ce","ios":"levelo://app?vid=f20d9be8-f65a-4615-a334-097d875818ce"},"vehicle_type_id":"4","last_reported":1750417757,"current_range_meters":20800,"station_id":"","pricing_plan_id":"cebpf4jnsgd1na2vs0mg"},{"bike_id":"ea9cc081-7954-4dc8-8969-18d8bd3a7585","system_id":"levelo_inurba_marseille","lat":43.29875,"lon":5.39727,"is_reserved":false,"is_disabled":false,"rental_uris":{"android":"levelo://app?vid=ea9cc081-7954-4dc8-8969-18d8bd3a7585","ios":"levelo://app?vid=ea9cc081-7954-4dc8-8969-18d8bd3a7585"},"vehicle_type_id":"4","last_reported":1750417757,"current_range_meters":20800,"station_id":"ce4bh0h2rcd13ifvqd50","pricing_plan_id":"cebpf4jnsgd1na2vs0mg"},{"bike_id":"93dc22b4-f33e-4d75-a013-268a187c5b29","system_id":"levelo_inurba_marseille","lat":43.280362,"lon":5.369505,"is_reserved":false,"is_disabled":false,"rental_uris":{"android":"levelo://app?vid=93dc22b4-f33e-4d75-a013-268a187c5b29","ios":"levelo://app?vid=93dc22b4-f33e-4d75-a013-268a187c5b29"},"vehicle_type_id":"4","last_reported":1750417757,"current_range_meters":20800,"station_id":"ce4bha12rcd13ifvqef0","pricing_plan_id":"cebpf4jnsgd1na2vs0mg"},{"bike_id":"8b25782e-bc05-4770-9aed-4b39290e2955","system_id":"levelo_inurba_marseille","lat":43.28415,"lon":5.34983,"is_reserved":false,"is_disabled":false,"rental_uris":{"android":"levelo://app?vid=8b25782e-bc05-4770-9aed-4b39290e2955","ios":"levelo://app?vid=8b25782e-bc05-4770-9aed-4b39290e2955"},"vehicle_type_id":"4","last_reported":1750417757,"current_range_meters":20800,"station_id":"ce4bhbh2rcd13ifvqepg","pricing_plan_id":"cebpf4jnsgd1na2vs0mg"},{"bike_id":"f3a5f9ad-bbe7-4c73-94e1-fa2eaf681962","system_id":"levelo_inurba_marseille","lat":43.284176,"lon":5.349876,"is_reserved":false,"is_disabled":false,"rental_uris":{"android":"levelo://app?vid=f3a5f9ad-bbe7-4c73-94e1-fa2eaf681962","ios":"levelo://app?vid=f3a5f9ad-bbe7-4c73-94e1-fa2eaf681962"},"vehicle_type_id":"4","last_reported":1750417757,"current_range_meters":20800,"station_id":"ce4bhbh2rcd13ifvqepg","pricing_plan_id":"cebpf4jnsgd1na2vs0mg"},{"bike_id":"49c8c4bb-948a-4248-a98d-aef85a0f0df1","system_id":"levelo_inurba_marseille","lat":43.28706,"lon":5.39992,"is_reserved":false,"is_disabled":false,"rental_uris":{"android":"levelo://app?vid=49c8c4bb-948a-4248-a98d-aef85a0f0df1","ios":"levelo://app?vid=49c8c4bb-948a-4248-a98d-aef85a0f0df1"},"vehicle_type_id":"4","last_reported":1750417757,"current_range_meters":20800,"station_id":"ce4bho92rcd13ifvqh3g","pricing_plan_id":"cebpf4jnsgd1na2vs0mg"},{"bike_id":"a9262345-195f-48e6-98ef-2cfccbcf3aaf","system_id":"levelo_inurba_marseille","lat":43.21761,"lon":5.34602,"is_reserved":false,"is_disabled":false,"rental_uris":{"android":"levelo://app?vid=a9262345-195f-48e6-98ef-2cfccbcf3aaf","ios":"levelo://app?vid=a9262345-195f-48e6-98ef-2cfccbcf3aaf"},"vehicle_type_id":"4","last_reported":1750417757,"current_range_meters":20800,"station_id":"st_cvj6r9ubvosntc0bgbag","pricing_plan_id":"cebpf4jnsgd1na2vs0mg"},{"bike_id":"13849048-80e8-4191-a33b-29b3d60fdf73","system_id":"levelo_inurba_marseille","lat":43.33745,"lon":5.37489,"is_reserved":false,"is_disabled":false,"rental_uris":{"android":"levelo://app?vid=13849048-80e8-4191-a33b-29b3d60fdf73","ios":"levelo://app?vid=13849048-80e8-4191-a33b-29b3d60fdf73"},"vehicle_type_id":"4","last_reported":1750417757,"current_range_meters":21600,"station_id":"","pricing_plan_id":"cebpf4jnsgd1na2vs0mg"},{"bike_id":"d954a08e-f1b4-42b9-ac9e-1361da00a1c3","system_id":"levelo_inurba_marseille","lat":43.31329,"lon":5.36765,"is_reserved":false,"is_disabled":false,"rental_uris":{"android":"levelo://app?vid=d954a08e-f1b4-42b9-ac9e-1361da00a1c3","ios":"levelo://app?vid=d954a08e-f1b4-42b9-ac9e-1361da00a1c3"},"vehicle_type_id":"4","last_reported":1750417757,"current_range_meters":21600,"station_id":"ce4bgr92rcd13ifvqc6g","pricing_plan_id":"cebpf4jnsgd1na2vs0mg"},