{"last_updated":1745687235,"ttl":60,"version":"2.2","data":{"bikes":[{"bike_id":"d7de41af-065c-4800-8588-617779d6acbd","system_id":"levelo_inurba_marseille","lat":43.26242,"lon":5.40468,"is_reserved":false,"is_disabled":false,"rental_uris":{"android":"levelo://app?vid=d7de41af-065c-4800-8588-617779d6acbd","ios":"levelo://app?vid=d7de41af-065c-4800-8588-617779d6acbd"},"vehicle_type_id":"4","last_reported":1745687235,"current_range_meters":2800,"station_id":"ce4bhmh2rcd13ifvqgmg","pricing_plan_id":"cebpf4jnsgd1na2vs0mg"},{"bike_id":"29d4209e-4450-4504-8a10-ad3178761a3b","system_id":"levelo_inurba_marseille","lat":43.26949,"lon":5.38641,"is_reserved":false,"is_disabled":false,"rental_uris":{"android":"levelo://app?vid=29d4209e-4450-4504-8a10-ad3178761a3b","ios":"levelo://app?vid=29d4209e-4450-4504-8a10-ad3178761a3b"},"vehicle_type_id":"4","last_reported":1745687235,"current_range_meters":2800,"station_id":"ce4bhh92rcd13ifvqfh0","pricing_plan_id":"cebpf4jnsgd1na2vs0mg"},{"bike_id":"18dad40d-e6c6-400c-ab9d-bda64c0e3073","system_id":"levelo_inurba_marseille","lat":43.28936,"lon":5.36641,"is_reserved":false,"is_disabled":false,"rental_uris":{"android":"levelo://app?vid=18dad40d-e6c6-400c-ab9d-bda64c0e3073","ios":"levelo://app?vid=18dad40d-e6c6-400c-ab9d-bda64c0e3073"},"vehicle_type_id":"4","last_reported":1745687235,"current_range_meters":2800,"station_id":"ce4bhap2rcd13ifvqek0","pricing_plan_id":"cebpf4jnsgd1na2vs0mg"},{"bike_id":"cba4ea1e-6766-4c60-9121-0bc5d2fdafd2","system_id":"levelo_inurba_marseille","lat":43.31177,"lon":5.38727,"is_reserved":false,"is_disabled":false,"rental_uris":{"android":"levelo://app?vid=cba4ea1e-6766-4c60-9121-0bc5d2fdafd2","ios":"levelo://app?vid=cba4ea1e-6766-4c60-9121-0bc5d2fdafd2"},"vehicle_type_id":"4","last_reported":1745687235,"current_range_meters":2800,"station_id":"ce4bgv12rcd13ifvqcp0","pricing_plan_id":"cebpf4jnsgd1na2vs0mg"},{"bike_id":"83439096-5563-4f28-a4a9-c127c2e39c67","system_id":"levelo_inurba_marseille","lat":43.30589,"lon":5.39355,"is_reserved":false,"is_disabled":false,"rental_uris":{"android":"levelo://app?vid=83439096-5563-4f28-a4a9-c127c2e39c67","ios":"levelo://app?vid=83439096-5563-4f28-a4a9-c127c2e39c67"},"vehicle_type_id":"4","last_reported":1745687235,"current_range_meters":2800,"station_id":"ce4bh0p2rcd13ifvqd80","pricing_plan_id":"cebpf4jnsgd1na2vs0mg"},{"bike_id":"03b659de-b116-4682-82ca-09225f30a656","system_id":"levelo_inurba_marseille","lat":43.29269,"lon":5.38449,"is_reserved":false,"is_disabled":false,"rental_uris":{"android":"levelo://app?vid=03b659de-b116-4682-82ca-09225f30a656","ios":"levelo://app?vid=03b659de-b116-4682-82ca-09225f30a656"},"vehicle_type_id":"4","last_reported":1745687235,"current_range_meters":3200,"station_id":"ce4bh692rcd13ifvqea0","pricing_plan_id":"cebpf4jnsgd1na2vs0mg"},{"bike_id":"8f1f84a8-8b3e-4367-aaae-24597a10a4b0","system_id":"levelo_inurba_marseille","lat":43.26819,"lon":5.42676,"is_reserved":false,"is_disabled":false,"rental_uris":{"android":"levelo://app?vid=8f1f84a8-8b3e-4367-aaae-24597a10a4b0","ios":"levelo://app?vid=8f1f84a8-8b3e-4367-aaae-24597a10a4b0"},"vehicle_type_id":"4","last_reported":1745687235,"current_range_meters":3200,"station_id":"","pricing_plan_id":"cebpf4jnsgd1na2vs0mg"},{"bike_id":"fdcb5323-5b99-4771-839c-b6ec9e4cb9d2","system_id":"levelo_inurba_marseille","lat":43.24173,"lon":5.39734,"is_reserved":false,"is_disabled":false,"rental_uris":{"android":"levelo://app?vid=fdcb5323-5b99-4771-839c-b6ec9e4cb9d2","ios":"levelo://app?vid=fdcb5323-5b99-4771-839c-b6ec9e4cb9d2"},"vehicle_type_id":"4","last_reported":1745687235,"current_range_meters":3200,"station_id":"ce4bhn12rcd13ifvqgpg","pricing_plan_id":"cebpf4jnsgd1na2vs0mg"},{"bike_id":"8305fbfd-1dc5-4d92-ae6d-8eb3c8b2b5c8","system_id":"levelo_inurba_marseille","lat":43.27204,"lon":5.39176,"is_reserved":false,"is_disabled":false,"rental_uris":{"android":"levelo://app?vid=8305fbfd-1dc5-4d92-ae6d-8eb3c8b2b5c8","ios":"levelo://app?vid=8305fbfd-1dc5-4d92-ae6d-8eb3c8b2b5c8"},"vehicle_type_id":"4","last_reported":1745687235,"current_range_meters":3600,"station_id":"ce4bhhp2rcd13ifvqfm0","pricing_plan_id":"cebpf4jnsgd1na2vs0mg"},{"bike_id":"ad2656e2-e3df-4dba-9264-c944a4b08747","system_id":"levelo_inurba_marseille","lat":43.27911,"lon":5.3959,"is_reserved":false,"is_disabled":false,"rental_uris":{"android":"levelo://app?vid=ad2656e2-e3df-4dba-9264-c944a4b08747","ios":"levelo://app?vid=ad2656e2-e3df-4dba-9264-c944a4b08747"},"vehicle_type_id":"4","last_reported":1745687235,"current_range_meters":3600,"station_id":"ce4bhf92rcd13ifvqf40","pricing_plan_id":"cebpf4jnsgd1na2vs0mg"},{"bike_id":"0e61e640-9e9f-49f2-b6f4-11b980ea8a2e","system_id":"levelo_inurba_marseille","lat":43.26801,"lon":5.40253,"is_reserved":false,"is_disabled":false,"rental_uris":{"android":"levelo://app?vid=0e61e640-9e9f-49f2-b6f4-11b980ea8a2e","ios":"levelo://app?vid=0e61e640-9e9f-49f2-b6f4-11b980ea8a2e"},"vehicle_type_id":"4","last_reported":1745687235,"current_range_meters":3600,"station_id":"ce501612rcd8frsf0b60","pricing_plan_id":"cebpf4jnsgd1na2vs0mg"},{"bike_id":"d3865220-872f-48c4-9642-d4aa53c406e6","system_id":"levelo_inurba_marseille","lat":43.28849,"lon":5.39325,"is_reserved":false,"is_disabled":false,"rental_uris":{"android":"levelo://app?vid=d3865220-872f-48c4-9642-d4aa53c406e6","ios":"levelo://app?vid=d3865220-872f-48c4-9642-d4aa53c406e6"},"vehicle_type_id":"4","last_reported":1745687235,"current_range_meters":3600,"station_id":"ce4bh2p2rcd13ifvqdi0","pricing_plan_id":"cebpf4jnsgd1na2vs0mg"},{"bike_id":"e1514cc2-3cbf-49e5-8c41-03f7c979d5c3","system_id":"levelo_inurba_marseille","lat":43.23191,"lon":5.35557,"is_reserved":false,"is_disabled":false,"rental_uris":{"android":"levelo://app?vid=e1514cc2-3cbf-49e5-8c41-03f7c979d5c3","ios":"levelo://app?vid=e1514cc2-3cbf-49e5-8c41-03f7c979d5c3"},"vehicle_type_id":"4","last_reported":1745687235,"current_range_meters":3600,"station_id":"ce4bhu92rcd13ifvqi70","pricing_plan_id":"cebpf4jnsgd1na2vs0mg"},{"bike_id":"5905bfe0-4faf-4b0f-92fb-94a70e6c9652","system_id":"levelo_inurba_marseille","lat":43.24648,"lon":5.388942,"is_reserved":false,"is_disabled":false,"rental_uris":{"android":"levelo://app?vid=5905bfe0-4faf-4b0f-92fb-94a70e6c9652","ios":"levelo://app?vid=5905bfe0-4faf-4b0f-92fb-94a70e6c9652"},"vehicle_type_id":"4","last_reported":1745687235,"current_range_meters":3600,"station_id":"ce4bhg12rcd13ifvqf60","pricing_plan_id":"cebpf4jnsgd1na2vs0mg"},{"bike_id":"247c5294-0c27-4431-8dd5-9ba2ba60d0ec","system_id":"levelo_inurba_marseille","lat":43.27909,"lon":5.38024,"is_reserved":false,"is_disabled":false,"rental_uris":{"android":"levelo://app?vid=247c5294-0c27-4431-8dd5-9ba2ba60d0ec","ios":"levelo://app?vid=247c5294-0c27-4431-8dd5-9ba2ba60d0ec"},"vehicle_type_id":"4","last_reported":1745687235,"current_range_meters":4000,"station_id":"ce4bhf92rcd13ifvqf50","pricing_plan_id":"cebpf4jnsgd1na2vs0mg"},{"bike_id":"3b320c8f-66c0-47c7-be2c-fc94a93eda08","system_id":"levelo_inurba_marseille","lat":43.2893,"lon":5.36635,"is_reserved":false,"is_disabled":false,"rental_uris":{"android":"levelo://app?vid=3b320c8f-66c0-47c7-be2c-fc94a93eda08","ios":"levelo://app?vid=3b320c8f-66c0-47c7-be2c-fc94a93eda08"},"vehicle_type_id":"4","last_reported":1745687235,"current_range_meters":4000,"station_id":"ce4bhap2rcd13ifvqek0","pricing_plan_id":"cebpf4jnsgd1na2vs0mg"},{"bike_id":"24d675f7-92b5-4206-a7b0-511eafa21853","system_id":"levelo_inurba_marseille","lat":43.26215,"lon":5.3744,"is_reserved":false,"is_disabled":false,"rental_uris":{"android":"levelo://app?vid=24d675f7-92b5-4206-a7b0-511eafa21853","ios":"levelo://app?vid=24d675f7-92b5-4206-a7b0-511eafa21853"},"vehicle_type_id":"4","last_reported":1745687235,"current_range_meters":4000,"station_id":"ce4bhgp2rcd13ifvqfc0","pricing_plan_id":"cebpf4jnsgd1na2vs0mg"},{"bike_id":"c6983332-2340-4443-9384-a831b05f8e36","system_id":"levelo_inurba_marseille","lat":43.241602,"lon":5.364033,"is_reserved":false,"is_disabled":false,"rental_uris":{"android":"levelo://app?vid=c6983332-2340-4443-9384-a831b05f8e36","ios":"levelo://app?vid=c6983332-2340-4443-9384-a831b05f8e36"},"vehicle_type_id":"4","last_reported":1745687235,"current_range_meters":4000,"station_id":"cpo36qri1sfpv3e86is0","pricing_plan_id":"cebpf4jnsgd1na2vs0mg"},{"bike_id":"327fa908-fafe-40ae-b97e-12862a152f1f","system_id":"levelo_inurba_marseille","lat":43.27623,"lon":5.39316,"is_reserved":false,"is_disabled":false,"rental_uris":{"android":"levelo://app?vid=327fa908-fafe-40ae-b97e-12862a152f1f","ios":"levelo://app?vid=327fa908-fafe-40ae-b97e-12862a152f1f"},"vehicle_type_id":"4","last_reported":1745687235,"current_range_meters":4400,"station_id":"","pricing_plan_id":"cebpf4jnsgd1na2vs0mg"},{"bike_id":"5f0bb2ff-2df1-42e9-af02-436842220ed9","system_id":"levelo_inurba_marseille","lat":43.30307,"lon":5.36884,"is_reserved":false,"is_disabled":false,"rental_uris":{"android":"levelo://app?vid=5f0bb2ff-2df1-42e9-af02-436842220ed9","ios":"levelo://app?vid=5f0bb2ff-2df1-42e9-af02-436842220ed9"},"vehicle_type_id":"4","last_reported":1745687235,"current_range_meters":4400,"station_id":"ce4bgqh2rcd13ifvqc5g","pricing_plan_id":"cebpf4jnsgd1na2vs0mg"},{"bike_id":"e0493146-0a1e-4bd9-a6e5-0a4f5e8943fd","system_id":"levelo_inurba_marseille","lat":43.29928,"lon":5.37484,"is_reserved":false,"is_disabled":false,"rental_uris":{"android":"levelo://app?vid=e0493146-0a1e-4bd9-a6e5-0a4f5e8943fd","ios":"levelo://app?vid=e0493146-0a1e-4bd9-a6e5-0a4f5e8943fd"},"vehicle_type_id":"4","last_reported":1745687235,"current_range_meters":4400,"station_id":"ce4bgjh2rcd13ifvqbg0","pricing_plan_id":"cebpf4jnsgd1na2vs0mg"},{"bike_id":"f3666bdf-5126-4209-99c4-a7f471f2591b","system_id":"levelo_inurba_marseille","lat":43.27212,"lon":5.39179,"is_reserved":false,"is_disabled":false,"rental_uris":{"android":"levelo://app?vid=f3666bdf-5126-4209-99c4-a7f471f2591b","ios":"levelo://app?vid=f3666bdf-5126-4209-99c4-a7f471f2591b"},"vehicle_type_id":"4","last_reported":1745687235,"current_range_meters":4400,"station_id":"ce4bhhp2rcd13ifvqfm0","pricing_plan_id":"cebpf4jnsgd1na2vs0mg"},{"bike_id":"aca4a498-4a9f-4408-aedb-b86cd2716c20","system_id":"levelo_inurba_marseille","lat":43.3314,"lon":5.38686,"is_reserved":false,"is_disabled":false,"rental_uris":{"android":"levelo://app?vid=aca4a498-4a9f-4408-aedb-b86cd2716c20","ios":"levelo://app?vid=aca4a498-4a9f-4408-aedb-b86cd2716c20"},"vehicle_type_id":"4","last_reported":1745687235,"current_range_meters":4400,"station_id":"","pricing_plan_id":"cebpf4jnsgd1na2vs0mg"},{"bike_id":"894983da-55ef-4bff-87ff-939a4641fa35","system_id":"levelo_inurba_marseille","lat":43.30599,"lon":5.39371,"is_reserved":false,"is_disabled":false,"rental_uris":{"android":"levelo://app?vid=894983da-55ef-4bff-87ff-939a4641fa35","ios":"levelo://app?vid=894983da-55ef-4bff-87ff-939a4641fa35"},"vehicle_type_id":"4","last_reported":1745687235,"current_range_meters":4400,"station_id":"ce4bh0p2rcd13ifvqd80","pricing_plan_id":"cebpf4jnsgd1na2vs0mg"},{"bike_id":"57719be3-4d6e-4c7c-9296-79c6c48a68cc","system_id":"levelo_inurba_marseille","lat":43.30323,"lon":5.40437,"is_reserved":false,"is_disabled":false,"rental_uris":{"android":"levelo://app?vid=57719be3-4d6e-4c7c-9296-79c6c48a68cc","ios":"levelo://app?vid=57719be3-4d6e-4c7c-9296-79c6c48a68cc"},"vehicle_type_id":"4","last_reported":1745687235,"current_range_meters":4400,"station_id":"ce4bh012rcd13ifvqd10","pricing_plan_id":"cebpf4jnsgd1na2vs0mg"},{"bike_id":"6957ad88-c99e-458a-8058-ba0b4133949e","system_id":"levelo_inurba_marseille","lat":43.29207,"lon":5.36058,"is_reserved":false,"is_disabled":false,"rental_uris":{"android":"levelo://app?vid=6957ad88-c99e-458a-8058-ba0b4133949e","ios":"levelo://app?vid=6957ad88-c99e-458a-8058-ba0b4133949e"},"vehicle_type_id":"4","last_reported":1745687235,"current_range_meters":4400,"station_id":"ce4bhbh2rcd13ifvqeqg","pricing_plan_id":"cebpf4jnsgd1na2vs0mg"},{"bike_id":"6d0a61fc-518d-48e6-b383-0cc8c0395f0a","system_id":"levelo_inurba_marseille","lat":43.24143,"lon":5.36458,"is_reserved":false,"is_disabled":false,"rental_uris":{"android":"levelo://app?vid=6d0a61fc-518d-48e6-b383-0cc8c0395f0a","ios":"levelo://app?vid=6d0a61fc-518d-48e6-b383-0cc8c0395f0a"},"vehicle_type_id":"4","last_reported":1745687235,"current_range_meters":4800,"station_id":"cpo36qri1sfpv3e86is0","pricing_plan_id":"cebpf4jnsgd1na2vs0mg"},{"bike_id":"1746265e-27ad-4913-8a06-b6dc5372d844","system_id":"levelo_inurba_marseille","lat":43.26007,"lon":5.37495,"is_reserved":false,"is_disabled":false,"rental_uris":{"android":"levelo://app?vid=1746265e-27ad-4913-8a06-b6dc5372d844","ios":"levelo://app?vid=1746265e-27ad-4913-8a06-b6dc5372d844"},"vehicle_type_id":"4","last_reported":1745687235,"current_range_meters":4800,"station_id":"ce4bhgh2rcd13ifvqfa0","pricing_plan_id":"cebpf4jnsgd1na2vs0mg"},{"bike_id":"96cbc51f-a6d5-48fc-aea8-d6723edc8219","system_id":"levelo_inurba_marseille","lat":43.28613,"lon":5.35105,"is_reserved":false,"is_disabled":false,"rental_uris":{"android":"levelo://app?vid=96cbc51f-a6d5-48fc-aea8-d6723edc8219","ios":"levelo://app?vid=96cbc51f-a6d5-48fc-aea8-d6723edc8219"},"vehicle_type_id":"4","last_reported":1745687235,"current_range_meters":4800,"station_id":"ce4bhi12rcd13ifvqfo0","pricing_plan_id":"cebpf4jnsgd1na2vs0mg"},{"bike_id":"439b814d-b53b-4db0-b4fc-f228f73a8f65","system_id":"levelo_inurba_marseille","lat":43.30206,"lon":5.39483,"is_reserved":false,"is_disabled":false,"rental_uris":{"android":"levelo://app?vid=439b814d-b53b-4db0-b4fc-f228f73a8f65","ios":"levelo://app?vid=439b814d-b53b-4db0-b4fc-f228f73a8f65"},"vehicle_type_id":"4","last_reported":1745687235,"current_range_meters":4800,"station_id":"ce4bh0p2rcd13ifvqd70","pricing_plan_id":"cebpf4jnsgd1na2vs0mg"},{"bike_id":"2f12346a-63e5-4994-86b9-2aa4e12d7c61","system_id":"levelo_inurba_marseille","lat":43.29277,"lon":5.40123,"is_reserved":false,"is_disabled":false,"rental_uris":{"android":"levelo://app?vid=2f12346a-63e5-4994-86b9-2aa4e12d7c61","ios":"levelo://app?vid=2f12346a-63e5-4994-86b9-2aa4e12d7c61"},"vehicle_type_id":"4","last_reported":1745687235,"current_range_meters":4800,"station_id":"ce4bh312rcd13ifvqdk0","pricing_plan_id":"cebpf4jnsgd1na2vs0mg"},{"bike_id":"0e136f98-8cfe-4008-8063-b13d8c6fe36a","system_id":"levelo_inurba_marseille","lat":43.26203,"lon":5.37452,"is_reserved":false,"is_disabled":false,"rental_uris":{"android":"levelo://app?vid=0e136f98-8cfe-4008-8063-b13d8c6fe36a","ios":"levelo://app?vid=0e136f98-8cfe-4008-8063-b13d8c6fe36a"},"vehicle_type_id":"4","last_reported":1745687235,"current_range_meters":4800,"station_id":"ce4bhgp2rcd13ifvqfc0","pricing_plan_id":"cebpf4jnsgd1na2vs0mg"},{"bike_id":"a84dda67-2771-448f-9f2c-69a47019d774","system_id":"levelo_inurba_marseille","lat":43.33614,"lon":5.41017,"is_reserved":false,"is_disabled":true,"rental_uris":{"android":"levelo://app?vid=a84dda67-2771-448f-9f2c-69a47019d774","ios":"levelo://app?vid=a84dda67-2771-448f-9f2c-69a47019d774"},"vehicle_type_id":"4","last_reported":1745687235,"current_range_meters":4800,"station_id":"ce4bhqh2rcd13ifvqhmg","pricing_plan_id":"cebpf4jnsgd1na2vs0mg"},{"bike_id":"d94032cc-2111-4865-861d-bed7f9c34822","system_id":"levelo_inurba_marseille","lat":43.29268,"lon":5.38433,"is_reserved":false,"is_disabled":false,"rental_uris":{"android":"levelo://app?vid=d94032cc-2111-4865-861d-bed7f9c34822","ios":"levelo://app?vid=d94032cc-2111-4865-861d-bed7f9c34822"},"vehicle_type_id":"4","last_reported":1745687235,"current_range_meters":4800,"station_id":"ce4bh692rcd13ifvqea0","pricing_plan_id":"cebpf4jnsgd1na2vs0mg"},{"bike_id":"9b3850ef-e784-4dd2-8766-6fc416425e6b","system_id":"levelo_inurba_marseille","lat":43.27982,"lon":5.38733,"is_reserved":false,"is_disabled":false,"rental_uris":{"android":"levelo://app?vid=9b3850ef-e784-4dd2-8766-6fc416425e6b","ios":"levelo://app?vid=9b3850ef-e784-4dd2-8766-6fc416425e6b"},"vehicle_type_id":"4","last_reported":1745687235,"current_range_meters":4800,"station_id":"ce4bhg12rcd13ifvqf80","pricing_plan_id":"cebpf4jnsgd1na2vs0mg"},{"bike_id":"d72b4414-8041-48b3-8b18-1ce394199a38","system_id":"levelo_inurba_marseille","lat":43.311167,"lon":5.377676,"is_reserved":false,"is_disabled":false,"rental_uris":{"android":"levelo://app?vid=d72b4414-8041-48b3-8b18-1ce394199a38","ios":"levelo://app?vid=d72b4414-8041-48b3-8b18-1ce394199a38"},"vehicle_type_id":"4","last_reported":1745687235,"current_range_meters":4800,"station_id":"ce4bgt92rcd13ifvqcg0","pricing_plan_id":"cebpf4jnsgd1na2vs0mg"},{"bike_id":"7c2ae4a4-4f62-4341-be9f-3d071df787d4","system_id":"levelo_inurba_marseille","lat":43.27207,"lon":5.39173,"is_reserved":false,"is_disabled":false,"rental_uris":{"android":"levelo://app?vid=7c2ae4a4-4f62-4341-be9f-3d071df787d4","ios":"levelo://app?vid=7c2ae4a4-4f62-4341-be9f-3d071df787d4"},"vehicle_type_id":"4","last_reported":1745687235,"current_range_meters":5600,"station_id":"ce4bhhp2rcd13ifvqfm0","pricing_plan_id":"cebpf4jnsgd1na2vs0mg"},{"bike_id":"290cd15f-9279-4918-bf25-5256ac86ebf1","system_id":"levelo_inurba_marseille","lat":43.31761,"lon":5.39014,"is_reserved":false,"is_disabled":false,"rental_uris":{"android":"levelo://app?vid=290cd15f-9279-4918-bf25-5256ac86ebf1","ios":"levelo://app?vid=290cd15f-9279-4918-bf25-5256ac86ebf1"},"vehicle_type_id":"4","last_reported":1745687235,"current_range_meters":5600,"station_id":"ce4bhqp2rcd13ifvqhng","pricing_plan_id":"cebpf4jnsgd1na2vs0mg"},{"bike_id":"8e1b7f9c-15cd-4196-9a56-b8c9c867228b","system_id":"levelo_inurba_marseille","lat":43.26248,"lon":5.37473,"is_reserved":false,"is_disabled":false,"rental_uris":{"android":"levelo://app?vid=8e1b7f9c-15cd-4196-9a56-b8c9c867228b","ios":"levelo://app?vid=8e1b7f9c-15cd-4196-9a56-b8c9c867228b"},"vehicle_type_id":"4","last_reported":1745687235,"current_range_meters":5600,"station_id":"","pricing_plan_id":"cebpf4jnsgd1na2vs0mg"},{"bike_id":"ae1f32bd-dea3-4e8c-80dc-64ad55573aeb","system_id":"levelo_inurba_marseille","lat":43.30364,"lon":5.42377,"is_reserved":false,"is_disabled":false,"rental_uris":{"android":"levelo://app?vid=ae1f32bd-dea3-4e8c-80dc-64ad55573aeb","ios":"levelo://app?vid=ae1f32bd-dea3-4e8c-80dc-64ad55573aeb"},"vehicle_type_id":"4","last_reported":1745687235,"current_range_meters":5600,"station_id":"","pricing_plan_id":"cebpf4jnsgd1na2vs0mg"},{"bike_id":"4751c42c-df70-44f1-921f-311585e43c28","system_id":"levelo_inurba_marseille","lat":43.27995,"lon":5.35684,"is_reserved":false,"is_disabled":false,"rental_uris":{"android":"levelo://app?vid=4751c42c-df70-44f1-921f-311585e43c28","ios":"levelo://app?vid=4751c42c-df70-44f1-921f-311585e43c28"},"vehicle_type_id":"4","last_reported":1745687235,"current_range_meters":6000,"station_id":"ce4bhp92rcd13ifvqhbg","pricing_plan_id":"cebpf4jnsgd1na2vs0mg"},{"bike_id":"fcddd32a-71f9-41b4-a1cc-f32582f63a00","system_id":"levelo_inurba_marseille","lat":43.30772,"lon":5.37645,"is_reserved":false,"is_disabled":false,"rental_uris":{"android":"levelo://app?vid=fcddd32a-71f9-41b4-a1cc-f32582f63a00","ios":"levelo://app?vid=fcddd32a-71f9-41b4-a1cc-f32582f63a00"},"vehicle_type_id":"4","last_reported":1745687235,"current_range_meters":6000,"station_id":"","pricing_plan_id":"cebpf4jnsgd1na2vs0mg"},{"bike_id":"8e694d7d-e639-480e-8787-1b3982d5e165","system_id":"levelo_inurba_marseille","lat":43.24802,"lon":5.37458,"is_reserved":false,"is_disabled":false,"rental_uris":{"android":"levelo://app?vid=8e694d7d-e639-480e-8787-1b3982d5e165","ios":"levelo://app?vid=8e694d7d-e639-480e-8787-1b3982d5e165"},"vehicle_type_id":"4","last_reported":1745687235,"current_range_meters":6000,"station_id":"ce4bhgh2rcd13ifvqfb0","pricing_plan_id":"cebpf4jnsgd1na2vs0mg"},{"bike_id":"351a9fc9-840f-432e-a113-1f2b6482ae90","system_id":"levelo_inurba_marseille","lat":43.25729,"lon":5.41114,"is_reserved":false,"is_disabled":false,"rental_uris":{"android":"levelo://app?vid=351a9fc9-840f-432e-a113-1f2b6482ae90","ios":"levelo://app?vid=351a9fc9-840f-432e-a113-1f2b6482ae90"},"vehicle_type_id":"4","last_reported":1745687235,"current_range_meters":6000,"station_id":"ce4bhkp2rcd13ifvqgd0","pricing_plan_id":"cebpf4jnsgd1na2vs0mg"},{"bike_id":"3127f938-6880-462b-9053-357175779ecd","system_id":"levelo_inurba_marseille","lat":43.28619,"lon":5.35108,"is_reserved":false,"is_disabled":false,"rental_uris":{"android":"levelo://app?vid=3127f938-6880-462b-9053-357175779ecd","ios":"levelo://app?vid=3127f938-6880-462b-9053-357175779ecd"},"vehicle_type_id":"4","last_reported":1745687235,"current_range_meters":6400,"station_id":"ce4bhch2rcd13ifvqeug","pricing_plan_id":"cebpf4jnsgd1na2vs0mg"},{"bike_id":"74bf1832-a389-491d-9cf1-c0544e13bc20","system_id":"levelo_inurba_marseille","lat":43.274955,"lon":5.424569,"is_reserved":false,"is_disabled":false,"rental_uris":{"android":"levelo://app?vid=74bf1832-a389-491d-9cf1-c0544e13bc20","ios":"levelo://app?vid=74bf1832-a389-491d-9cf1-c0544e13bc20"},"vehicle_type_id":"4","last_reported":1745687235,"current_range_meters":6400,"station_id":"ce4bhn92rcd13ifvqgrg","pricing_plan_id":"cebpf4jnsgd1na2vs0mg"},{"bike_id":"a9d00bc3-0ef7-49c5-94a1-0e1a56023de7","system_id":"levelo_inurba_marseille","lat":43.31329,"lon":5.39691,"is_reserved":false,"is_disabled":false,"rental_uris":{"android":"levelo://app?vid=a9d00bc3-0ef7-49c5-94a1-0e1a56023de7","ios":"levelo://app?vid=a9d00bc3-0ef7-49c5-94a1-0e1a56023de7"},"vehicle_type_id":"4","last_reported":1745687235,"current_range_meters":6400,"station_id":"ce4bgvp2rcd13ifvqcu0","pricing_plan_id":"cebpf4jnsgd1na2vs0mg"},{"bike_id":"3f5f1e82-f958-4f8c-a5c5-7cd6968f778d","system_id":"levelo_inurba_marseille","lat":43.29875,"lon":5.38908,"is_reserved":false,"is_disabled":false,"rental_uris":{"android":"levelo://app?vid=3f5f1e82-f958-4f8c-a5c5-7cd6968f778d","ios":"levelo://app?vid=3f5f1e82-f958-4f8c-a5c5-7cd6968f778d"},"vehicle_type_id":"4","last_reported":1745687235,"current_range_meters":6400,"station_id":"ce4bh392rcd13ifvqdl0","pricing_plan_id":"cebpf4jnsgd1na2vs0mg"},{"bike_id":"d1ff7e34-d25d-4063-9648-2bd4db47424f","system_id":"levelo_inurba_marseille","lat":43.32455,"lon":5.39145,"is_reserved":false,"is_disabled":false,"rental_uris":{"android":"levelo://app?vid=d1ff7e34-d25d-4063-9648-2bd4db47424f","ios":"levelo://app?vid=d1ff7e34-d25d-4063-9648-2bd4db47424f"},"vehicle_type_id":"4","last_reported":1745687235,"current_range_meters":6400,"station_id":"","pricing_plan_id":"cebpf4jnsgd1na2vs0mg"},{"bike_id":"6d91a8dc-ba91-4e59-90e6-05e9199e8291","system_id":"levelo_inurba_marseille","lat":43.26232,"lon":5.40456,"is_reserved":false,"is_disabled":false,"rental_uris":{"android":"levelo://app?vid=6d91a8dc-ba91-4e59-90e6-05e9199e8291","ios":"levelo://app?vid=6d91a8dc-ba91-4e59-90e6-05e9199e8291"},"vehicle_type_id":"4","last_reported":1745687235,"current_range_meters":6400,"station_id":"ce4bhmh2rcd13ifvqgmg","pricing_plan_id":"cebpf4jnsgd1na2vs0mg"},{"bike_id":"25c18e54-9845-469f-80bb-92d7a85397cd","system_id":"levelo_inurba_marseille","lat":43.30304,"lon":5.39207,"is_reserved":false,"is_disabled":false,"rental_uris":{"android":"levelo://app?vid=25c18e54-9845-469f-80bb-92d7a85397cd","ios":"levelo://app?vid=25c18e54-9845-469f-80bb-92d7a85397cd"},"vehicle_type_id":"4","last_reported":1745687235,"current_range_meters":6400,"station_id":"ce4bgkh2rcd13ifvqbk0","pricing_plan_id":"cebpf4jnsgd1na2vs0mg"},{"bike_id":"2ed3acad-be2b-47bc-bb16-dd14b09ebd94","system_id":"levelo_inurba_marseille","lat":43.24543,"lon":5.39509,"is_reserved":false,"is_disabled":false,"rental_uris":{"android":"levelo://app?vid=2ed3acad-be2b-47bc-bb16-dd14b09ebd94","ios":"levelo://app?vid=2ed3acad-be2b-47bc-bb16-dd14b09ebd94"},"vehicle_type_id":"4","last_reported":1745687235,"current_range_meters":6800,"station_id":"ce4bhlp2rcd13ifvqgjg","pricing_plan_id":"cebpf4jnsgd1na2vs0mg"},{"bike_id":"2a744d65-e5d6-4ca6-a6fc-d3bf16f2766f","system_id":"levelo_inurba_marseille","lat":43.30933,"lon":5.40146,"is_reserved":false,"is_disabled":false,"rental_uris":{"android":"levelo://app?vid=2a744d65-e5d6-4ca6-a6fc-d3bf16f2766f","ios":"levelo://app?vid=2a744d65-e5d6-4ca6-a6fc-d3bf16f2766f"},"vehicle_type_id":"4","last_reported":1745687235,"current_range_meters":6800,"station_id":"ce4bgvp2rcd13ifvqct0","pricing_plan_id":"cebpf4jnsgd1na2vs0mg"},{"bike_id":"2258b389-3df0-47f1-8240-d564944d4d62","system_id":"levelo_inurba_marseille","lat":43.307621,"lon":5.372466,"is_reserved":false,"is_disabled":false,"rental_uris":{"android":"levelo://app?vid=2258b389-3df0-47f1-8240-d564944d4d62","ios":"levelo://app?vid=2258b389-3df0-47f1-8240-d564944d4d62"},"vehicle_type_id":"4","last_reported":1745687235,"current_range_meters":6800,"station_id":"ce4bguh2rcd13ifvqckg","pricing_plan_id":"cebpf4jnsgd1na2vs0mg"},{"bike_id":"422b5989-c8b6-43aa-b2b9-3bfeb2e1ddc0","system_id":"levelo_inurba_marseille","lat":43.24708,"lon":5.41163,"is_reserved":false,"is_disabled":false,"rental_uris":{"android":"levelo://app?vid=422b5989-c8b6-43aa-b2b9-3bfeb2e1ddc0","ios":"levelo://app?vid=422b5989-c8b6-43aa-b2b9-3bfeb2e1ddc0"},"vehicle_type_id":"4","last_reported":1745687235,"current_range_meters":7200,"station_id":"","pricing_plan_id":"cebpf4jnsgd1na2vs0mg"},{"bike_id":"f62a4552-ec40-438e-82bf-49608a81162e","system_id":"levelo_inurba_marseille","lat":43.23966,"lon":5.36646,"is_reserved":false,"is_disabled":false,"rental_uris":{"android":"levelo://app?vid=f62a4552-ec40-438e-82bf-49608a81162e","ios":"levelo://app?vid=f62a4552-ec40-438e-82bf-49608a81162e"},"vehicle_type_id":"4","last_reported":1745687235,"current_range_meters":7200,"station_id":"ce4bhi12rcd13ifvqfp0","pricing_plan_id":"cebpf4jnsgd1na2vs0mg"},{"bike_id":"75e95e4f-d3d7-4c6d-8eb7-ea7969e66638","system_id":"levelo_inurba_marseille","lat":43.323703,"lon":5.367697,"is_reserved":false,"is_disabled":false,"rental_uris":{"android":"levelo://app?vid=75e95e4f-d3d7-4c6d-8eb7-ea7969e66638","ios":"levelo://app?vid=75e95e4f-d3d7-4c6d-8eb7-ea7969e66638"},"vehicle_type_id":"4","last_reported":1745687235,"current_range_meters":7200,"station_id":"","pricing_plan_id":"cebpf4jnsgd1na2vs0mg"},{"bike_id":"4253dda6-17e4-4eef-bd54-f390d4d2a2fb","system_id":"levelo_inurba_marseille","lat":43.28666,"lon":5.36351,"is_reserved":false,"is_disabled":false,"rental_uris":{"android":"levelo://app?vid=4253dda6-17e4-4eef-bd54-f390d4d2a2fb","ios":"levelo://app?vid=4253dda6-17e4-4eef-bd54-f390d4d2a2fb"},"vehicle_type_id":"4","last_reported":1745687235,"current_range_meters":7200,"station_id":"ce4bhah2rcd13ifvqej0","pricing_plan_id":"cebpf4jnsgd1na2vs0mg"},{"bike_id":"14f61ceb-8ee6-467f-a343-ce982707c8bb","system_id":"levelo_inurba_marseille","lat":43.243867,"lon":5.396697,"is_reserved":false,"is_disabled":false,"rental_uris":{"android":"levelo://app?vid=14f61ceb-8ee6-467f-a343-ce982707c8bb","ios":"levelo://app?vid=14f61ceb-8ee6-467f-a343-ce982707c8bb"},"vehicle_type_id":"4","last_reported":1745687235,"current_range_meters":7200,"station_id":"ce4bhn12rcd13ifvqgpg","pricing_plan_id":"cebpf4jnsgd1na2vs0mg"},{"bike_id":"c02b845b-5de7-4589-b66b-009ec09626cd","system_id":"levelo_inurba_marseille","lat":43.29417,"lon":5.38625,"is_reserved":false,"is_disabled":false,"rental_uris":{"android":"levelo://app?vid=c02b845b-5de7-4589-b66b-009ec09626cd","ios":"levelo://app?vid=c02b845b-5de7-4589-b66b-009ec09626cd"},"vehicle_type_id":"4","last_reported":1745687235,"current_range_meters":7200,"station_id":"ce4bh2h2rcd13ifvqdh0","pricing_plan_id":"cebpf4jnsgd1na2vs0mg"},{"bike_id":"6b1c8ba7-230f-44c8-9409-410e552b6afd","system_id":"levelo_inurba_marseille","lat":43.24548,"lon":5.3953,"is_reserved":false,"is_disabled":false,"rental_uris":{"android":"levelo://app?vid=6b1c8ba7-230f-44c8-9409-410e552b6afd","ios":"levelo://app?vid=6b1c8ba7-230f-44c8-9409-410e552b6afd"},"vehicle_type_id":"4","last_reported":1745687235,"current_range_meters":7200,"station_id":"ce4bhlp2rcd13ifvqgjg","pricing_plan_id":"cebpf4jnsgd1na2vs0mg"},{"bike_id":"9e388feb-19fd-41cf-b765-127373bdec3a","system_id":"levelo_inurba_marseille","lat":43.27473,"lon":5.38205,"is_reserved":false,"is_disabled":false,"rental_uris":{"android":"levelo://app?vid=9e388feb-19fd-41cf-b765-127373bdec3a","ios":"levelo://app?vid=9e388feb-19fd-41cf-b765-127373bdec3a"},"vehicle_type_id":"4","last_reported":1745687235,"current_range_meters":7200,"station_id":"","pricing_plan_id":"cebpf4jnsgd1na2vs0mg"},{"bike_id":"dad8af86-1e80-4f85-871e-45a043509b5a","system_id":"levelo_inurba_marseille","lat":43.32259,"lon":5.38169,"is_reserved":false,"is_disabled":false,"rental_uris":{"android":"levelo://app?vid=dad8af86-1e80-4f85-871e-45a043509b5a","ios":"levelo://app?vid=dad8af86-1e80-4f85-871e-45a043509b5a"},"vehicle_type_id":"4","last_reported":1745687235,"current_range_meters":7200,"station_id":"","pricing_plan_id":"cebpf4jnsgd1na2vs0mg"},{"bike_id":"c121c49e-eb9f-4470-a32f-26ebdb74b991","system_id":"levelo_inurba_marseille","lat":43.25155,"lon":5.40377,"is_reserved":false,"is_disabled":false,"rental_uris":{"android":"levelo://app?vid=c121c49e-eb9f-4470-a32f-26ebdb74b991","ios":"levelo://app?vid=c121c49e-eb9f-4470-a32f-26ebdb74b991"},"vehicle_type_id":"4","last_reported":1745687235,"current_range_meters":7200,"station_id":"","pricing_plan_id":"cebpf4jnsgd1na2vs0mg"},{"bike_id":"18ae1d78-8d9e-4697-bc48-a39d36035c1d","system_id":"levelo_inurba_marseille","lat":43.23971,"lon":5.36626,"is_reserved":false,"is_disabled":false,"rental_uris":{"android":"levelo://app?vid=18ae1d78-8d9e-4697-bc48-a39d36035c1d","ios":"levelo://app?vid=18ae1d78-8d9e-4697-bc48-a39d36035c1d"},"vehicle_type_id":"4","last_reported":1745687235,"current_range_meters":7200,"station_id":"ce4bhi12rcd13ifvqfp0","pricing_plan_id":"cebpf4jnsgd1na2vs0mg"},{"bike_id":"e3b08fef-0d07-41c5-83c1-e2b2fccfefb7","system_id":"levelo_inurba_marseille","lat":43.28074,"lon":5.39649,"is_reserved":false,"is_disabled":false,"rental_uris":{"android":"levelo://app?vid=e3b08fef-0d07-41c5-83c1-e2b2fccfefb7","ios":"levelo://app?vid=e3b08fef-0d07-41c5-83c1-e2b2fccfefb7"},"vehicle_type_id":"4","last_reported":1745687235,"current_range_meters":8000,"station_id":"ce4bho12rcd13ifvqh2g","pricing_plan_id":"cebpf4jnsgd1na2vs0mg"},{"bike_id":"746950f8-4406-4759-b3cb-f1f46db860a9","system_id":"levelo_inurba_marseille","lat":43.23958,"lon":5.36652,"is_reserved":false,"is_disabled":false,"rental_uris":{"android":"levelo://app?vid=746950f8-4406-4759-b3cb-f1f46db860a9","ios":"levelo://app?vid=746950f8-4406-4759-b3cb-f1f46db860a9"},"vehicle_type_id":"4","last_reported":1745687235,"current_range_meters":8000,"station_id":"ce4bhi12rcd13ifvqfp0","pricing_plan_id":"cebpf4jnsgd1na2vs0mg"},{"bike_id":"554fe001-fd7c-4ce9-8b9f-fe24a3da343a","system_id":"levelo_inurba_marseille","lat":43.23211,"lon":5.35583,"is_reserved":false,"is_disabled":false,"rental_uris":{"android":"levelo://app?vid=554fe001-fd7c-4ce9-8b9f-fe24a3da343a","ios":"levelo://app?vid=554fe001-fd7c-4ce9-8b9f-fe24a3da343a"},"vehicle_type_id":"4","last_reported":1745687235,"current_range_meters":8000,"station_id":"ce4bhu92rcd13ifvqi70","pricing_plan_id":"cebpf4jnsgd1na2vs0mg"},{"bike_id":"3fb10e7d-00e1-476c-a14f-2837b73331eb","system_id":"levelo_inurba_marseille","lat":43.26201,"lon":5.37476,"is_reserved":false,"is_disabled":false,"rental_uris":{"android":"levelo://app?vid=3fb10e7d-00e1-476c-a14f-2837b73331eb","ios":"levelo://app?vid=3fb10e7d-00e1-476c-a14f-2837b73331eb"},"vehicle_type_id":"4","last_reported":1745687235,"current_range_meters":8000,"station_id":"ce4bhgp2rcd13ifvqfc0","pricing_plan_id":"cebpf4jnsgd1na2vs0mg"},{"bike_id":"bffeb41e-da04-47b3-a952-f3eba58a5fca","system_id":"levelo_inurba_marseille","lat":43.295237,"lon":5.385124,"is_reserved":false,"is_disabled":false,"rental_uris":{"android":"levelo://app?vid=bffeb41e-da04-47b3-a952-f3eba58a5fca","ios":"levelo://app?vid=bffeb41e-da04-47b3-a952-f3eba58a5fca"},"vehicle_type_id":"4","last_reported":1745687235,"current_range_meters":8000,"station_id":"ce4bgih2rcd13ifvqba0","pricing_plan_id":"cebpf4jnsgd1na2vs0mg"},{"bike_id":"1633ed64-e423-42e4-93c5-471c5c6b4f37","system_id":"levelo_inurba_marseille","lat":43.26076,"lon":5.39355,"is_reserved":false,"is_disabled":false,"rental_uris":{"android":"levelo://app?vid=1633ed64-e423-42e4-93c5-471c5c6b4f37","ios":"levelo://app?vid=1633ed64-e423-42e4-93c5-471c5c6b4f37"},"vehicle_type_id":"4","last_reported":1745687235,"current_range_meters":8000,"station_id":"ce4bhh92rcd13ifvqfj0","pricing_plan_id":"cebpf4jnsgd1na2vs0mg"},{"bike_id":"2a44dd0f-f41d-403a-a655-f2144854b0da","system_id":"levelo_inurba_marseille","lat":43.243949,"lon":5.370556,"is_reserved":false,"is_disabled":false,"rental_uris":{"android":"levelo://app?vid=2a44dd0f-f41d-403a-a655-f2144854b0da","ios":"levelo://app?vid=2a44dd0f-f41d-403a-a655-f2144854b0da"},"vehicle_type_id":"4","last_reported":1745687235,"current_range_meters":8000,"station_id":"ce4bhhh2rcd13ifvqfk0","pricing_plan_id":"cebpf4jnsgd1na2vs0mg"},{"bike_id":"2743111f-6f05-405a-b992-7e5d8fae8924","system_id":"levelo_inurba_marseille","lat":43.22973,"lon":5.35389,"is_reserved":false,"is_disabled":false,"rental_uris":{"android":"levelo://app?vid=2743111f-6f05-405a-b992-7e5d8fae8924","ios":"levelo://app?vid=2743111f-6f05-405a-b992-7e5d8fae8924"},"vehicle_type_id":"4","last_reported":1745687235,"current_range_meters":8000,"station_id":"cpo3532slgdg3j2ikp40","pricing_plan_id":"cebpf4jnsgd1na2vs0mg"},{"bike_id":"4d807ca2-73e2-4751-85dc-9f8b5098f06c","system_id":"levelo_inurba_marseille","lat":43.28681,"lon":5.38667,"is_reserved":false,"is_disabled":false,"rental_uris":{"android":"levelo://app?vid=4d807ca2-73e2-4751-85dc-9f8b5098f06c","ios":"levelo://app?vid=4d807ca2-73e2-4751-85dc-9f8b5098f06c"},"vehicle_type_id":"4","last_reported":1745687235,"current_range_meters":8000,"station_id":"ce4bh492rcd13ifvqdug","pricing_plan_id":"cebpf4jnsgd1na2vs0mg"},{"bike_id":"3ec823f4-782d-4179-988e-546c4539463f","system_id":"levelo_inurba_marseille","lat":43.29292,"lon":5.40138,"is_reserved":false,"is_disabled":true,"rental_uris":{"android":"levelo://app?vid=3ec823f4-782d-4179-988e-546c4539463f","ios":"levelo://app?vid=3ec823f4-782d-4179-988e-546c4539463f"},"vehicle_type_id":"4","last_reported":1745687235,"current_range_meters":8400,"station_id":"ce4bh312rcd13ifvqdk0","pricing_plan_id":"cebpf4jnsgd1na2vs0mg"},{"bike_id":"0506984d-ea9b-4ad0-86a7-7d06b801e94a","system_id":"levelo_inurba_marseille","lat":43.28707,"lon":5.37402,"is_reserved":false,"is_disabled":false,"rental_uris":{"android":"levelo://app?vid=0506984d-ea9b-4ad0-86a7-7d06b801e94a","ios":"levelo://app?vid=0506984d-ea9b-4ad0-86a7-7d06b801e94a"},"vehicle_type_id":"4","last_reported":1745687235,"current_range_meters":8400,"station_id":"ce4bh3p2rcd13ifvqdq0","pricing_plan_id":"cebpf4jnsgd1na2vs0mg"},{"bike_id":"97bc9e9f-6e7e-4262-9a2f-bcf1658b46d3","system_id":"levelo_inurba_marseille","lat":43.260246,"lon":5.397916,"is_reserved":false,"is_disabled":false,"rental_uris":{"android":"levelo://app?vid=97bc9e9f-6e7e-4262-9a2f-bcf1658b46d3","ios":"levelo://app?vid=97bc9e9f-6e7e-4262-9a2f-bcf1658b46d3"},"vehicle_type_id":"4","last_reported":1745687235,"current_range_meters":8400,"station_id":"ce4bhl92rcd13ifvqghg","pricing_plan_id":"cebpf4jnsgd1na2vs0mg"},{"bike_id":"b25d821f-85f0-4e36-bfe6-db46d00f9763","system_id":"levelo_inurba_marseille","lat":43.29561,"lon":5.42288,"is_reserved":false,"is_disabled":false,"rental_uris":{"android":"levelo://app?vid=b25d821f-85f0-4e36-bfe6-db46d00f9763","ios":"levelo://app?vid=b25d821f-85f0-4e36-bfe6-db46d00f9763"},"vehicle_type_id":"4","last_reported":1745687235,"current_range_meters":8400,"station_id":"ce4bhph2rcd13ifvqhdg","pricing_plan_id":"cebpf4jnsgd1na2vs0mg"},{"bike_id":"51376682-930e-45ed-90e0-b53d931ddc33","system_id":"levelo_inurba_marseille","lat":43.27492,"lon":5.42448,"is_reserved":false,"is_disabled":false,"rental_uris":{"android":"levelo://app?vid=51376682-930e-45ed-90e0-b53d931ddc33","ios":"levelo://app?vid=51376682-930e-45ed-90e0-b53d931ddc33"},"vehicle_type_id":"4","last_reported":1745687235,"current_range_meters":8400,"station_id":"ce4bhn92rcd13ifvqgrg","pricing_plan_id":"cebpf4jnsgd1na2vs0mg"},{"bike_id":"9a9ab76e-fa7d-44fb-8fd3-3ef93aa4ae5a","system_id":"levelo_inurba_marseille","lat":43.211971,"lon":5.350708,"is_reserved":false,"is_disabled":false,"rental_uris":{"android":"levelo://app?vid=9a9ab76e-fa7d-44fb-8fd3-3ef93aa4ae5a","ios":"levelo://app?vid=9a9ab76e-fa7d-44fb-8fd3-3ef93aa4ae5a"},"vehicle_type_id":"4","last_reported":1745687235,"current_range_meters":8400,"station_id":"st_cvj6sg6p6f1abm77japg","pricing_plan_id":"cebpf4jnsgd1na2vs0mg"},{"bike_id":"6104de1b-83a6-4912-bfa1-49d35364e6af","system_id":"levelo_inurba_marseille","lat":43.23956,"lon":5.36646,"is_reserved":false,"is_disabled":false,"rental_uris":{"android":"levelo://app?vid=6104de1b-83a6-4912-bfa1-49d35364e6af","ios":"levelo://app?vid=6104de1b-83a6-4912-bfa1-49d35364e6af"},"vehicle_type_id":"4","last_reported":1745687235,"current_range_meters":8400,"station_id":"ce4bhi12rcd13ifvqfp0","pricing_plan_id":"cebpf4jnsgd1na2vs0mg"},{"bike_id":"ca28637d-0dba-4175-be44-d8b6cb2518a7","system_id":"levelo_inurba_marseille","lat":43.2942,"lon":5.38618,"is_reserved":false,"is_disabled":false,"rental_uris":{"android":"levelo://app?vid=ca28637d-0dba-4175-be44-d8b6cb2518a7","ios":"levelo://app?vid=ca28637d-0dba-4175-be44-d8b6cb2518a7"},"vehicle_type_id":"4","last_reported":1745687235,"current_range_meters":8400,"station_id":"ce4bh2h2rcd13ifvqdh0","pricing_plan_id":"cebpf4jnsgd1na2vs0mg"},{"bike_id":"c932f73f-cb3e-4cee-948e-54df5458a863","system_id":"levelo_inurba_marseille","lat":43.293722,"lon":5.37842,"is_reserved":false,"is_disabled":false,"rental_uris":{"android":"levelo://app?vid=c932f73f-cb3e-4cee-948e-54df5458a863","ios":"levelo://app?vid=c932f73f-cb3e-4cee-948e-54df5458a863"},"vehicle_type_id":"4","last_reported":1745687235,"current_range_meters":8400,"station_id":"ce4bgjh2rcd13ifvqbf0","pricing_plan_id":"cebpf4jnsgd1na2vs0mg"},{"bike_id":"392eab6a-3cb6-45a2-aa05-27df907741f2","system_id":"levelo_inurba_marseille","lat":43.30788,"lon":5.37657,"is_reserved":false,"is_disabled":false,"rental_uris":{"android":"levelo://app?vid=392eab6a-3cb6-45a2-aa05-27df907741f2","ios":"levelo://app?vid=392eab6a-3cb6-45a2-aa05-27df907741f2"},"vehicle_type_id":"4","last_reported":1745687235,"current_range_meters":8400,"station_id":"ce4bgv92rcd13ifvqcq0","pricing_plan_id":"cebpf4jnsgd1na2vs0mg"},{"bike_id":"d88e823b-cd37-4b75-8c91-9f25245c6dd9","system_id":"levelo_inurba_marseille","lat":43.317,"lon":5.37769,"is_reserved":false,"is_disabled":false,"rental_uris":{"android":"levelo://app?vid=d88e823b-cd37-4b75-8c91-9f25245c6dd9","ios":"levelo://app?vid=d88e823b-cd37-4b75-8c91-9f25245c6dd9"},"vehicle_type_id":"4","last_reported":1745687235,"current_range_meters":8400,"station_id":"ce4bgth2rcd13ifvqch0","pricing_plan_id":"cebpf4jnsgd1na2vs0mg"},{"bike_id":"a54863ab-3f11-4938-b79e-3ee9f9ae0948","system_id":"levelo_inurba_marseille","lat":43.243883,"lon":5.370623,"is_reserved":false,"is_disabled":false,"rental_uris":{"android":"levelo://app?vid=a54863ab-3f11-4938-b79e-3ee9f9ae0948","ios":"levelo://app?vid=a54863ab-3f11-4938-b79e-3ee9f9ae0948"},"vehicle_type_id":"4","last_reported":1745687235,"current_range_meters":8400,"station_id":"ce4bhhh2rcd13ifvqfk0","pricing_plan_id":"cebpf4jnsgd1na2vs0mg"},{"bike_id":"6d5ef6ca-4e41-41ea-9651-b491adc423ca","system_id":"levelo_inurba_marseille","lat":43.29319,"lon":5.3717,"is_reserved":false,"is_disabled":false,"rental_uris":{"android":"levelo://app?vid=6d5ef6ca-4e41-41ea-9651-b491adc423ca","ios":"levelo://app?vid=6d5ef6ca-4e41-41ea-9651-b491adc423ca"},"vehicle_type_id":"4","last_reported":1745687235,"current_range_meters":8400,"station_id":"ce4bgh92rcd13ifvqb40","pricing_plan_id":"cebpf4jnsgd1na2vs0mg"},{"bike_id":"a8bf06b8-255a-43a7-9776-734ca3b1c9a8","system_id":"levelo_inurba_marseille","lat":43.2903,"lon":5.39969,"is_reserved":false,"is_disabled":false,"rental_uris":{"android":"levelo://app?vid=a8bf06b8-255a-43a7-9776-734ca3b1c9a8","ios":"levelo://app?vid=a8bf06b8-255a-43a7-9776-734ca3b1c9a8"},"vehicle_type_id":"4","last_reported":1745687235,"current_range_meters":9200,"station_id":"ce4bh392rcd13ifvqdm0","pricing_plan_id":"cebpf4jnsgd1na2vs0mg"},{"bike_id":"37f609ce-0706-4aeb-be8b-749c62bee297","system_id":"levelo_inurba_marseille","lat":43.316824,"lon":5.404701,"is_reserved":false,"is_disabled":false,"rental_uris":{"android":"levelo://app?vid=37f609ce-0706-4aeb-be8b-749c62bee297","ios":"levelo://app?vid=37f609ce-0706-4aeb-be8b-749c62bee297"},"vehicle_type_id":"4","last_reported":1745687235,"current_range_meters":8800,"station_id":"ce4bh0p2rcd13ifvqd70","pricing_plan_id":"cebpf4jnsgd1na2vs0mg"},{"bike_id":"8ca7e3a5-ca8b-4686-8cb8-808ff235b6b3","system_id":"levelo_inurba_marseille","lat":43.281,"lon":5.37841,"is_reserved":false,"is_disabled":false,"rental_uris":{"android":"levelo://app?vid=8ca7e3a5-ca8b-4686-8cb8-808ff235b6b3","ios":"levelo://app?vid=8ca7e3a5-ca8b-4686-8cb8-808ff235b6b3"},"vehicle_type_id":"4","last_reported":1745687235,"current_range_meters":8800,"station_id":"ce4bha12rcd13ifvqee0","pricing_plan_id":"cebpf4jnsgd1na2vs0mg"},{"bike_id":"0dcd0f1b-dc4b-42eb-b9e4-7b6d79678197","system_id":"levelo_inurba_marseille","lat":43.322802,"lon":5.382718,"is_reserved":false,"is_disabled":false,"rental_uris":{"android":"levelo://app?vid=0dcd0f1b-dc4b-42eb-b9e4-7b6d79678197","ios":"levelo://app?vid=0dcd0f1b-dc4b-42eb-b9e4-7b6d79678197"},"vehicle_type_id":"4","last_reported":1745687235,"current_range_meters":8800,"station_id":"ce4bhr12rcd13ifvqhqg","pricing_plan_id":"cebpf4jnsgd1na2vs0mg"},{"bike_id":"db7de3ab-2965-4174-9cd8-8971df889cf5","system_id":"levelo_inurba_marseille","lat":43.27922,"lon":5.39624,"is_reserved":false,"is_disabled":false,"rental_uris":{"android":"levelo://app?vid=db7de3ab-2965-4174-9cd8-8971df889cf5","ios":"levelo://app?vid=db7de3ab-2965-4174-9cd8-8971df889cf5"},"vehicle_type_id":"4","last_reported":1745687235,"current_range_meters":9200,"station_id":"ce4bhf92rcd13ifvqf40","pricing_plan_id":"cebpf4jnsgd1na2vs0mg"},{"bike_id":"745f0ad1-b4f2-405e-b957-d4c68884b920","system_id":"levelo_inurba_marseille","lat":43.211927,"lon":5.350697,"is_reserved":false,"is_disabled":false,"rental_uris":{"android":"levelo://app?vid=745f0ad1-b4f2-405e-b957-d4c68884b920","ios":"levelo://app?vid=745f0ad1-b4f2-405e-b957-d4c68884b920"},"vehicle_type_id":"4","last_reported":1745687235,"current_range_meters":9200,"station_id":"st_cvj6sg6p6f1abm77japg","pricing_plan_id":"cebpf4jnsgd1na2vs0mg"},{"bike_id":"226012da-a4ff-4396-8e95-84a79b0c50a1","system_id":"levelo_inurba_marseille","lat":43.24666,"lon":5.38156,"is_reserved":false,"is_disabled":false,"rental_uris":{"android":"levelo://app?vid=226012da-a4ff-4396-8e95-84a79b0c50a1","ios":"levelo://app?vid=226012da-a4ff-4396-8e95-84a79b0c50a1"},"vehicle_type_id":"4","last_reported":1745687235,"current_range_meters":9200,"station_id":"ce4bhih2rcd13ifvqfr0","pricing_plan_id":"cebpf4jnsgd1na2vs0mg"},{"bike_id":"b08a7037-0def-4670-97e9-13fc42df1b95","system_id":"levelo_inurba_marseille","lat":43.29795,"lon":5.40406,"is_reserved":false,"is_disabled":false,"rental_uris":{"android":"levelo://app?vid=b08a7037-0def-4670-97e9-13fc42df1b95","ios":"levelo://app?vid=b08a7037-0def-4670-97e9-13fc42df1b95"},"vehicle_type_id":"4","last_reported":1745687235,"current_range_meters":9200,"station_id":"ce4bh112rcd13ifvqd90","pricing_plan_id":"cebpf4jnsgd1na2vs0mg"},{"bike_id":"c895aded-fd80-4c7e-8a66-cab89370e07e","system_id":"levelo_inurba_marseille","lat":43.29873,"lon":5.38899,"is_reserved":false,"is_disabled":false,"rental_uris":{"android":"levelo://app?vid=c895aded-fd80-4c7e-8a66-cab89370e07e","ios":"levelo://app?vid=c895aded-fd80-4c7e-8a66-cab89370e07e"},"vehicle_type_id":"4","last_reported":1745687235,"current_range_meters":9200,"station_id":"ce4bh392rcd13ifvqdl0","pricing_plan_id":"cebpf4jnsgd1na2vs0mg"},{"bike_id":"8dbe6fbe-7b39-483b-8925-d059cc064bc1","system_id":"levelo_inurba_marseille","lat":43.25825,"lon":5.394381,"is_reserved":false,"is_disabled":false,"rental_uris":{"android":"levelo://app?vid=8dbe6fbe-7b39-483b-8925-d059cc064bc1","ios":"levelo://app?vid=8dbe6fbe-7b39-483b-8925-d059cc064bc1"},"vehicle_type_id":"4","last_reported":1745687235,"current_range_meters":9200,"station_id":"ce4bhip2rcd13ifvqft0","pricing_plan_id":"cebpf4jnsgd1na2vs0mg"},{"bike_id":"308d751a-570d-48a1-96d5-c24074181757","system_id":"levelo_inurba_marseille","lat":43.30888,"lon":5.39659,"is_reserved":false,"is_disabled":false,"rental_uris":{"android":"levelo://app?vid=308d751a-570d-48a1-96d5-c24074181757","ios":"levelo://app?vid=308d751a-570d-48a1-96d5-c24074181757"},"vehicle_type_id":"4","last_reported":1745687235,"current_range_meters":9200,"station_id":"ce4bh012rcd13ifvqcv0","pricing_plan_id":"cebpf4jnsgd1na2vs0mg"},{"bike_id":"c0fbc8de-15a9-4527-ba5a-e2809c9a458f","system_id":"levelo_inurba_marseille","lat":43.289345,"lon":5.366365,"is_reserved":false,"is_disabled":false,"rental_uris":{"android":"levelo://app?vid=c0fbc8de-15a9-4527-ba5a-e2809c9a458f","ios":"levelo://app?vid=c0fbc8de-15a9-4527-ba5a-e2809c9a458f"},"vehicle_type_id":"4","last_reported":1745687235,"current_range_meters":9200,"station_id":"ce4bhap2rcd13ifvqek0","pricing_plan_id":"cebpf4jnsgd1na2vs0mg"},{"bike_id":"a712d5a4-3abe-4951-9e8b-76aa69174cd8","system_id":"levelo_inurba_marseille","lat":43.29792,"lon":5.38107,"is_reserved":false,"is_disabled":false,"rental_uris":{"android":"levelo://app?vid=a712d5a4-3abe-4951-9e8b-76aa69174cd8","ios":"levelo://app?vid=a712d5a4-3abe-4951-9e8b-76aa69174cd8"},"vehicle_type_id":"4","last_reported":1745687235,"current_range_meters":9600,"station_id":"ce4bgip2rcd13ifvqbb0","pricing_plan_id":"cebpf4jnsgd1na2vs0mg"},{"bike_id":"0e8748dd-21c3-4a87-8749-5938df606680","system_id":"levelo_inurba_marseille","lat":43.2621,"lon":5.3744,"is_reserved":false,"is_disabled":false,"rental_uris":{"android":"levelo://app?vid=0e8748dd-21c3-4a87-8749-5938df606680","ios":"levelo://app?vid=0e8748dd-21c3-4a87-8749-5938df606680"},"vehicle_type_id":"4","last_reported":1745687235,"current_range_meters":9600,"station_id":"ce4bhgp2rcd13ifvqfc0","pricing_plan_id":"cebpf4jnsgd1na2vs0mg"},{"bike_id":"144232dc-fbfe-4f72-aba3-3450a87576a4","system_id":"levelo_inurba_marseille","lat":43.31753,"lon":5.40562,"is_reserved":false,"is_disabled":false,"rental_uris":{"android":"levelo://app?vid=144232dc-fbfe-4f72-aba3-3450a87576a4","ios":"levelo://app?vid=144232dc-fbfe-4f72-aba3-3450a87576a4"},"vehicle_type_id":"4","last_reported":1745687235,"current_range_meters":9600,"station_id":"","pricing_plan_id":"cebpf4jnsgd1na2vs0mg"},{"bike_id":"c886bc95-a9f4-4b08-af93-286cc6dbd1ea","system_id":"levelo_inurba_marseille","lat":43.24168,"lon":5.36428,"is_reserved":false,"is_disabled":false,"rental_uris":{"android":"levelo://app?vid=c886bc95-a9f4-4b08-af93-286cc6dbd1ea","ios":"levelo://app?vid=c886bc95-a9f4-4b08-af93-286cc6dbd1ea"},"vehicle_type_id":"4","last_reported":1745687235,"current_range_meters":9600,"station_id":"cpo36qri1sfpv3e86is0","pricing_plan_id":"cebpf4jnsgd1na2vs0mg"},{"bike_id":"dd1f484e-afbc-4327-914e-ee2f4d84e475","system_id":"levelo_inurba_marseille","lat":43.27385,"lon":5.36254,"is_reserved":false,"is_disabled":false,"rental_uris":{"android":"levelo://app?vid=dd1f484e-afbc-4327-914e-ee2f4d84e475","ios":"levelo://app?vid=dd1f484e-afbc-4327-914e-ee2f4d84e475"},"vehicle_type_id":"4","last_reported":1745687235,"current_range_meters":9600,"station_id":"ce4bhbh2rcd13ifvqeo0","pricing_plan_id":"cebpf4jnsgd1na2vs0mg"},{"bike_id":"b43bca29-f9d9-4512-a062-af3ba5364dea","system_id":"levelo_inurba_marseille","lat":43.30088,"lon":5.39095,"is_reserved":false,"is_disabled":false,"rental_uris":{"android":"levelo://app?vid=b43bca29-f9d9-4512-a062-af3ba5364dea","ios":"levelo://app?vid=b43bca29-f9d9-4512-a062-af3ba5364dea"},"vehicle_type_id":"4","last_reported":1745687235,"current_range_meters":10000,"station_id":"ce4bh192rcd13ifvqdb0","pricing_plan_id":"cebpf4jnsgd1na2vs0mg"},{"bike_id":"2b83cc1e-d9a1-44a9-b520-cb366f13a7c2","system_id":"levelo_inurba_marseille","lat":43.29527,"lon":5.39039,"is_reserved":false,"is_disabled":false,"rental_uris":{"android":"levelo://app?vid=2b83cc1e-d9a1-44a9-b520-cb366f13a7c2","ios":"levelo://app?vid=2b83cc1e-d9a1-44a9-b520-cb366f13a7c2"},"vehicle_type_id":"4","last_reported":1745687235,"current_range_meters":10800,"station_id":"ce4bh3p2rcd13ifvqdp0","pricing_plan_id":"cebpf4jnsgd1na2vs0mg"},{"bike_id":"92abb8f2-c3a8-4da8-a3b7-3fadef1817bd","system_id":"levelo_inurba_marseille","lat":43.2804,"lon":5.36958,"is_reserved":false,"is_disabled":false,"rental_uris":{"android":"levelo://app?vid=92abb8f2-c3a8-4da8-a3b7-3fadef1817bd","ios":"levelo://app?vid=92abb8f2-c3a8-4da8-a3b7-3fadef1817bd"},"vehicle_type_id":"4","last_reported":1745687235,"current_range_meters":10000,"station_id":"ce4bha12rcd13ifvqef0","pricing_plan_id":"cebpf4jnsgd1na2vs0mg"},{"bike_id":"d6d8cda2-e544-46e5-8c8b-e265b006cffa","system_id":"levelo_inurba_marseille","lat":43.309509,"lon":5.39025,"is_reserved":false,"is_disabled":false,"rental_uris":{"android":"levelo://app?vid=d6d8cda2-e544-46e5-8c8b-e265b006cffa","ios":"levelo://app?vid=d6d8cda2-e544-46e5-8c8b-e265b006cffa"},"vehicle_type_id":"4","last_reported":1745687235,"current_range_meters":10000,"station_id":"ce4bgup2rcd13ifvqco0","pricing_plan_id":"cebpf4jnsgd1na2vs0mg"},{"bike_id":"c07526ea-c4dd-497c-a065-2bcb65dd7a0d","system_id":"levelo_inurba_marseille","lat":43.23062,"lon":5.3549,"is_reserved":false,"is_disabled":false,"rental_uris":{"android":"levelo://app?vid=c07526ea-c4dd-497c-a065-2bcb65dd7a0d","ios":"levelo://app?vid=c07526ea-c4dd-497c-a065-2bcb65dd7a0d"},"vehicle_type_id":"4","last_reported":1745687235,"current_range_meters":10000,"station_id":"cpo3342slgdg3j2ifvpg","pricing_plan_id":"cebpf4jnsgd1na2vs0mg"},{"bike_id":"831a6a93-0e0a-4385-a7b6-6cfc5ae3cb35","system_id":"levelo_inurba_marseille","lat":43.30942,"lon":5.39072,"is_reserved":false,"is_disabled":false,"rental_uris":{"android":"levelo://app?vid=831a6a93-0e0a-4385-a7b6-6cfc5ae3cb35","ios":"levelo://app?vid=831a6a93-0e0a-4385-a7b6-6cfc5ae3cb35"},"vehicle_type_id":"4","last_reported":1745687235,"current_range_meters":10000,"station_id":"ce4bgup2rcd13ifvqco0","pricing_plan_id":"cebpf4jnsgd1na2vs0mg"},{"bike_id":"d29534b1-05ac-4a5e-bd1c-e170bc870393","system_id":"levelo_inurba_marseille","lat":43.28678,"lon":5.38667,"is_reserved":false,"is_disabled":false,"rental_uris":{"android":"levelo://app?vid=d29534b1-05ac-4a5e-bd1c-e170bc870393","ios":"levelo://app?vid=d29534b1-05ac-4a5e-bd1c-e170bc870393"},"vehicle_type_id":"4","last_reported":1745687235,"current_range_meters":10000,"station_id":"ce4bh492rcd13ifvqdug","pricing_plan_id":"cebpf4jnsgd1na2vs0mg"},{"bike_id":"ae2f8384-ab79-4241-aa7f-a13b45da22ce","system_id":"levelo_inurba_marseille","lat":43.26242,"lon":5.37483,"is_reserved":false,"is_disabled":false,"rental_uris":{"android":"levelo://app?vid=ae2f8384-ab79-4241-aa7f-a13b45da22ce","ios":"levelo://app?vid=ae2f8384-ab79-4241-aa7f-a13b45da22ce"},"vehicle_type_id":"4","last_reported":1745687235,"current_range_meters":10000,"station_id":"","pricing_plan_id":"cebpf4jnsgd1na2vs0mg"},{"bike_id":"5802eefb-2481-4af5-a8b0-e03c0cf7cee7","system_id":"levelo_inurba_marseille","lat":43.30562,"lon":5.36549,"is_reserved":false,"is_disabled":false,"rental_uris":{"android":"levelo://app?vid=5802eefb-2481-4af5-a8b0-e03c0cf7cee7","ios":"levelo://app?vid=5802eefb-2481-4af5-a8b0-e03c0cf7cee7"},"vehicle_type_id":"4","last_reported":1745687235,"current_range_meters":10000,"station_id":"ce4bgs12rcd13ifvqcag","pricing_plan_id":"cebpf4jnsgd1na2vs0mg"},{"bike_id":"fa6f1a41-12b7-4563-ab51-9727274bf2ef","system_id":"levelo_inurba_marseille","lat":43.24077,"lon":5.37759,"is_reserved":false,"is_disabled":false,"rental_uris":{"android":"levelo://app?vid=fa6f1a41-12b7-4563-ab51-9727274bf2ef","ios":"levelo://app?vid=fa6f1a41-12b7-4563-ab51-9727274bf2ef"},"vehicle_type_id":"4","last_reported":1745687235,"current_range_meters":10800,"station_id":"ce4bhnp2rcd13ifvqgvg","pricing_plan_id":"cebpf4jnsgd1na2vs0mg"},{"bike_id":"f42c4847-56af-413e-9b29-e67553966aab","system_id":"levelo_inurba_marseille","lat":43.30939,"lon":5.39042,"is_reserved":false,"is_disabled":false,"rental_uris":{"android":"levelo://app?vid=f42c4847-56af-413e-9b29-e67553966aab","ios":"levelo://app?vid=f42c4847-56af-413e-9b29-e67553966aab"},"vehicle_type_id":"4","last_reported":1745687235,"current_range_meters":10800,"station_id":"ce4bgup2rcd13ifvqco0","pricing_plan_id":"cebpf4jnsgd1na2vs0mg"},{"bike_id":"042a36cf-a68c-4f02-8fbe-a3d4f36fa492","system_id":"levelo_inurba_marseille","lat":43.21196,"lon":5.3509,"is_reserved":false,"is_disabled":false,"rental_uris":{"android":"levelo://app?vid=042a36cf-a68c-4f02-8fbe-a3d4f36fa492","ios":"levelo://app?vid=042a36cf-a68c-4f02-8fbe-a3d4f36fa492"},"vehicle_type_id":"4","last_reported":1745687235,"current_range_meters":10800,"station_id":"st_cvj6sg6p6f1abm77japg","pricing_plan_id":"cebpf4jnsgd1na2vs0mg"},{"bike_id":"af2ced06-fc8a-47d4-8897-663cf6d58009","system_id":"levelo_inurba_marseille","lat":43.2842,"lon":5.37538,"is_reserved":false,"is_disabled":false,"rental_uris":{"android":"levelo://app?vid=af2ced06-fc8a-47d4-8897-663cf6d58009","ios":"levelo://app?vid=af2ced06-fc8a-47d4-8897-663cf6d58009"},"vehicle_type_id":"4","last_reported":1745687235,"current_range_meters":10800,"station_id":"ce4bh412rcd13ifvqds0","pricing_plan_id":"cebpf4jnsgd1na2vs0mg"},{"bike_id":"aa7dd23a-c50c-4359-a4fa-3d29c4576751","system_id":"levelo_inurba_marseille","lat":43.24167,"lon":5.36456,"is_reserved":false,"is_disabled":false,"rental_uris":{"android":"levelo://app?vid=aa7dd23a-c50c-4359-a4fa-3d29c4576751","ios":"levelo://app?vid=aa7dd23a-c50c-4359-a4fa-3d29c4576751"},"vehicle_type_id":"4","last_reported":1745687235,"current_range_meters":10800,"station_id":"cpo36qri1sfpv3e86is0","pricing_plan_id":"cebpf4jnsgd1na2vs0mg"},{"bike_id":"3eb0a76e-f457-48b0-a94c-477007d44cde","system_id":"levelo_inurba_marseille","lat":43.29198,"lon":5.35803,"is_reserved":false,"is_disabled":false,"rental_uris":{"android":"levelo://app?vid=3eb0a76e-f457-48b0-a94c-477007d44cde","ios":"levelo://app?vid=3eb0a76e-f457-48b0-a94c-477007d44cde"},"vehicle_type_id":"4","last_reported":1745687235,"current_range_meters":10800,"station_id":"ce4bhb12rcd13ifvqel0","pricing_plan_id":"cebpf4jnsgd1na2vs0mg"},{"bike_id":"049e50e1-a3a5-4115-9dcd-b4e2b26a742a","system_id":"levelo_inurba_marseille","lat":43.29414,"lon":5.38629,"is_reserved":false,"is_disabled":false,"rental_uris":{"android":"levelo://app?vid=049e50e1-a3a5-4115-9dcd-b4e2b26a742a","ios":"levelo://app?vid=049e50e1-a3a5-4115-9dcd-b4e2b26a742a"},"vehicle_type_id":"4","last_reported":1745687235,"current_range_meters":10800,"station_id":"ce4bh2h2rcd13ifvqdh0","pricing_plan_id":"cebpf4jnsgd1na2vs0mg"},{"bike_id":"0429adbf-9996-4670-ae2d-bff8481dfd8d","system_id":"levelo_inurba_marseille","lat":43.30961,"lon":5.39056,"is_reserved":false,"is_disabled":false,"rental_uris":{"android":"levelo://app?vid=0429adbf-9996-4670-ae2d-bff8481dfd8d","ios":"levelo://app?vid=0429adbf-9996-4670-ae2d-bff8481dfd8d"},"vehicle_type_id":"4","last_reported":1745687235,"current_range_meters":10800,"station_id":"ce4bgup2rcd13ifvqco0","pricing_plan_id":"cebpf4jnsgd1na2vs0mg"},{"bike_id":"57739238-5384-4818-ab05-453b214be2c8","system_id":"levelo_inurba_marseille","lat":43.23142,"lon":5.43714,"is_reserved":false,"is_disabled":false,"rental_uris":{"android":"levelo://app?vid=57739238-5384-4818-ab05-453b214be2c8","ios":"levelo://app?vid=57739238-5384-4818-ab05-453b214be2c8"},"vehicle_type_id":"4","last_reported":1745687235,"current_range_meters":11200,"station_id":"ce4bhmp2rcd13ifvqgog","pricing_plan_id":"cebpf4jnsgd1na2vs0mg"},{"bike_id":"5f5d3524-b0f0-47c6-8eac-9ef084096f55","system_id":"levelo_inurba_marseille","lat":43.27434,"lon":5.39411,"is_reserved":false,"is_disabled":false,"rental_uris":{"android":"levelo://app?vid=5f5d3524-b0f0-47c6-8eac-9ef084096f55","ios":"levelo://app?vid=5f5d3524-b0f0-47c6-8eac-9ef084096f55"},"vehicle_type_id":"4","last_reported":1745687235,"current_range_meters":11200,"station_id":"ce4bhdp2rcd13ifvqf20","pricing_plan_id":"cebpf4jnsgd1na2vs0mg"},{"bike_id":"6d7cc870-ccfd-4f48-96fb-e8c1f82a64cc","system_id":"levelo_inurba_marseille","lat":43.29787,"lon":5.37121,"is_reserved":false,"is_disabled":true,"rental_uris":{"android":"levelo://app?vid=6d7cc870-ccfd-4f48-96fb-e8c1f82a64cc","ios":"levelo://app?vid=6d7cc870-ccfd-4f48-96fb-e8c1f82a64cc"},"vehicle_type_id":"4","last_reported":1745687235,"current_range_meters":11600,"station_id":"ce4bgop2rcd13ifvqc1g","pricing_plan_id":"cebpf4jnsgd1na2vs0mg"},{"bike_id":"a0c257a0-3231-4aee-bee4-f09ddd7cb3eb","system_id":"levelo_inurba_marseille","lat":43.28605,"lon":5.37054,"is_reserved":false,"is_disabled":false,"rental_uris":{"android":"levelo://app?vid=a0c257a0-3231-4aee-bee4-f09ddd7cb3eb","ios":"levelo://app?vid=a0c257a0-3231-4aee-bee4-f09ddd7cb3eb"},"vehicle_type_id":"4","last_reported":1745687235,"current_range_meters":11600,"station_id":"ce4bht12rcd13ifvqi60","pricing_plan_id":"cebpf4jnsgd1na2vs0mg"},{"bike_id":"3f8e74df-4b8a-4fe8-9f20-4fbe47605119","system_id":"levelo_inurba_marseille","lat":43.2901,"lon":5.37581,"is_reserved":false,"is_disabled":true,"rental_uris":{"android":"levelo://app?vid=3f8e74df-4b8a-4fe8-9f20-4fbe47605119","ios":"levelo://app?vid=3f8e74df-4b8a-4fe8-9f20-4fbe47605119"},"vehicle_type_id":"4","last_reported":1745687235,"current_range_meters":12000,"station_id":"ce4bh692rcd13ifvqe90","pricing_plan_id":"cebpf4jnsgd1na2vs0mg"},{"bike_id":"5d918ad6-3b3a-4bff-9114-2e9f57f29a25","system_id":"levelo_inurba_marseille","lat":43.29936,"lon":5.36563,"is_reserved":false,"is_disabled":false,"rental_uris":{"android":"levelo://app?vid=5d918ad6-3b3a-4bff-9114-2e9f57f29a25","ios":"levelo://app?vid=5d918ad6-3b3a-4bff-9114-2e9f57f29a25"},"vehicle_type_id":"4","last_reported":1745687235,"current_range_meters":12000,"station_id":"ce4bgm92rcd13ifvqbr0","pricing_plan_id":"cebpf4jnsgd1na2vs0mg"},{"bike_id":"f8a3ba54-d48c-4880-a189-893783e00ca1","system_id":"levelo_inurba_marseille","lat":43.313728,"lon":5.385063,"is_reserved":false,"is_disabled":false,"rental_uris":{"android":"levelo://app?vid=f8a3ba54-d48c-4880-a189-893783e00ca1","ios":"levelo://app?vid=f8a3ba54-d48c-4880-a189-893783e00ca1"},"vehicle_type_id":"4","last_reported":1745687235,"current_range_meters":12000,"station_id":"ce4bgt92rcd13ifvqcf0","pricing_plan_id":"cebpf4jnsgd1na2vs0mg"},{"bike_id":"6934b57c-6bfa-4e67-bded-6963d401296f","system_id":"levelo_inurba_marseille","lat":43.29526,"lon":5.38543,"is_reserved":false,"is_disabled":false,"rental_uris":{"android":"levelo://app?vid=6934b57c-6bfa-4e67-bded-6963d401296f","ios":"levelo://app?vid=6934b57c-6bfa-4e67-bded-6963d401296f"},"vehicle_type_id":"4","last_reported":1745687235,"current_range_meters":12000,"station_id":"ce4bgih2rcd13ifvqba0","pricing_plan_id":"cebpf4jnsgd1na2vs0mg"},{"bike_id":"552e61c6-f47e-4c8a-8818-15a77c26fe65","system_id":"levelo_inurba_marseille","lat":43.24069,"lon":5.37757,"is_reserved":false,"is_disabled":false,"rental_uris":{"android":"levelo://app?vid=552e61c6-f47e-4c8a-8818-15a77c26fe65","ios":"levelo://app?vid=552e61c6-f47e-4c8a-8818-15a77c26fe65"},"vehicle_type_id":"4","last_reported":1745687235,"current_range_meters":12400,"station_id":"ce4bhnp2rcd13ifvqgvg","pricing_plan_id":"cebpf4jnsgd1na2vs0mg"},{"bike_id":"6e3579d9-292f-46ee-a812-23e3ed2512ca","system_id":"levelo_inurba_marseille","lat":43.3309,"lon":5.42814,"is_reserved":false,"is_disabled":true,"rental_uris":{"android":"levelo://app?vid=6e3579d9-292f-46ee-a812-23e3ed2512ca","ios":"levelo://app?vid=6e3579d9-292f-46ee-a812-23e3ed2512ca"},"vehicle_type_id":"4","last_reported":1745687235,"current_range_meters":12400,"station_id":"","pricing_plan_id":"cebpf4jnsgd1na2vs0mg"},{"bike_id":"a9280303-1507-4a5d-a819-ac32a9c4fcb4","system_id":"levelo_inurba_marseille","lat":43.29635,"lon":5.40603,"is_reserved":false,"is_disabled":false,"rental_uris":{"android":"levelo://app?vid=a9280303-1507-4a5d-a819-ac32a9c4fcb4","ios":"levelo://app?vid=a9280303-1507-4a5d-a819-ac32a9c4fcb4"},"vehicle_type_id":"4","last_reported":1745687235,"current_range_meters":12400,"station_id":"ce4bh0h2rcd13ifvqd60","pricing_plan_id":"cebpf4jnsgd1na2vs0mg"},{"bike_id":"38ad6ce0-1ba0-4d0f-a84b-b857ec47c739","system_id":"levelo_inurba_marseille","lat":43.3118,"lon":5.42782,"is_reserved":false,"is_disabled":true,"rental_uris":{"android":"levelo://app?vid=38ad6ce0-1ba0-4d0f-a84b-b857ec47c739","ios":"levelo://app?vid=38ad6ce0-1ba0-4d0f-a84b-b857ec47c739"},"vehicle_type_id":"4","last_reported":1745687235,"current_range_meters":12800,"station_id":"","pricing_plan_id":"cebpf4jnsgd1na2vs0mg"},{"bike_id":"02885b70-5206-43b9-a53f-3d1db16195ef","system_id":"levelo_inurba_marseille","lat":43.24076,"lon":5.37763,"is_reserved":false,"is_disabled":false,"rental_uris":{"android":"levelo://app?vid=02885b70-5206-43b9-a53f-3d1db16195ef","ios":"levelo://app?vid=02885b70-5206-43b9-a53f-3d1db16195ef"},"vehicle_type_id":"4","last_reported":1745687235,"current_range_meters":12800,"station_id":"ce4bhnp2rcd13ifvqgvg","pricing_plan_id":"cebpf4jnsgd1na2vs0mg"},{"bike_id":"736ee7d5-708e-48bd-8281-35bb85d0bc7d","system_id":"levelo_inurba_marseille","lat":43.28999,"lon":5.35529,"is_reserved":false,"is_disabled":true,"rental_uris":{"android":"levelo://app?vid=736ee7d5-708e-48bd-8281-35bb85d0bc7d","ios":"levelo://app?vid=736ee7d5-708e-48bd-8281-35bb85d0bc7d"},"vehicle_type_id":"4","last_reported":1745687235,"current_range_meters":12800,"station_id":"","pricing_plan_id":"cebpf4jnsgd1na2vs0mg"},{"bike_id":"26640e0a-997b-4dbf-8df0-4cd101fb901d","system_id":"levelo_inurba_marseille","lat":43.31361,"lon":5.38498,"is_reserved":false,"is_disabled":false,"rental_uris":{"android":"levelo://app?vid=26640e0a-997b-4dbf-8df0-4cd101fb901d","ios":"levelo://app?vid=26640e0a-997b-4dbf-8df0-4cd101fb901d"},"vehicle_type_id":"4","last_reported":1745687235,"current_range_meters":12800,"station_id":"ce4bgt92rcd13ifvqcf0","pricing_plan_id":"cebpf4jnsgd1na2vs0mg"},{"bike_id":"86082c5a-74ec-45ee-9bbd-681fdfc8da73","system_id":"levelo_inurba_marseille","lat":43.23964,"lon":5.36634,"is_reserved":false,"is_disabled":false,"rental_uris":{"android":"levelo://app?vid=86082c5a-74ec-45ee-9bbd-681fdfc8da73","ios":"levelo://app?vid=86082c5a-74ec-45ee-9bbd-681fdfc8da73"},"vehicle_type_id":"4","last_reported":1745687235,"current_range_meters":13600,"station_id":"ce4bhi12rcd13ifvqfp0","pricing_plan_id":"cebpf4jnsgd1na2vs0mg"},{"bike_id":"e12946ed-f6da-4c33-9348-bf0b9320f4b9","system_id":"levelo_inurba_marseille","lat":43.26943,"lon":5.40286,"is_reserved":false,"is_disabled":false,"rental_uris":{"android":"levelo://app?vid=e12946ed-f6da-4c33-9348-bf0b9320f4b9","ios":"levelo://app?vid=e12946ed-f6da-4c33-9348-bf0b9320f4b9"},"vehicle_type_id":"4","last_reported":1745687235,"current_range_meters":13600,"station_id":"cjm6bp8fraef2m0cb0m0","pricing_plan_id":"cebpf4jnsgd1na2vs0mg"},{"bike_id":"f221d538-210f-4592-8777-5278f3cdfb7f","system_id":"levelo_inurba_marseille","lat":43.27583,"lon":5.38415,"is_reserved":false,"is_disabled":false,"rental_uris":{"android":"levelo://app?vid=f221d538-210f-4592-8777-5278f3cdfb7f","ios":"levelo://app?vid=f221d538-210f-4592-8777-5278f3cdfb7f"},"vehicle_type_id":"4","last_reported":1745687235,"current_range_meters":13600,"station_id":"ce4bhh92rcd13ifvqfi0","pricing_plan_id":"cebpf4jnsgd1na2vs0mg"},{"bike_id":"1a850c8f-8fab-47d1-8646-785097765c1b","system_id":"levelo_inurba_marseille","lat":43.29303,"lon":5.374717,"is_reserved":false,"is_disabled":false,"rental_uris":{"android":"levelo://app?vid=1a850c8f-8fab-47d1-8646-785097765c1b","ios":"levelo://app?vid=1a850c8f-8fab-47d1-8646-785097765c1b"},"vehicle_type_id":"4","last_reported":1745687235,"current_range_meters":13600,"station_id":"ce4bh012rcd13ifvqd00","pricing_plan_id":"cebpf4jnsgd1na2vs0mg"},{"bike_id":"a65c04c4-dde7-4cf7-acfb-5fe2c1f889fd","system_id":"levelo_inurba_marseille","lat":43.26228,"lon":5.40444,"is_reserved":false,"is_disabled":false,"rental_uris":{"android":"levelo://app?vid=a65c04c4-dde7-4cf7-acfb-5fe2c1f889fd","ios":"levelo://app?vid=a65c04c4-dde7-4cf7-acfb-5fe2c1f889fd"},"vehicle_type_id":"4","last_reported":1745687235,"current_range_meters":14000,"station_id":"ce4bhmh2rcd13ifvqgmg","pricing_plan_id":"cebpf4jnsgd1na2vs0mg"},{"bike_id":"4046a82f-66e8-4b55-bd0a-356edea772d8","system_id":"levelo_inurba_marseille","lat":43.3091,"lon":5.3727,"is_reserved":false,"is_disabled":false,"rental_uris":{"android":"levelo://app?vid=4046a82f-66e8-4b55-bd0a-356edea772d8","ios":"levelo://app?vid=4046a82f-66e8-4b55-bd0a-356edea772d8"},"vehicle_type_id":"4","last_reported":1745687235,"current_range_meters":14000,"station_id":"","pricing_plan_id":"cebpf4jnsgd1na2vs0mg"},{"bike_id":"871ff321-985e-4ae5-a5b8-8d608bdff128","system_id":"levelo_inurba_marseille","lat":43.30956,"lon":5.39029,"is_reserved":false,"is_disabled":false,"rental_uris":{"android":"levelo://app?vid=871ff321-985e-4ae5-a5b8-8d608bdff128","ios":"levelo://app?vid=871ff321-985e-4ae5-a5b8-8d608bdff128"},"vehicle_type_id":"4","last_reported":1745687235,"current_range_meters":14000,"station_id":"ce4bgup2rcd13ifvqco0","pricing_plan_id":"cebpf4jnsgd1na2vs0mg"},{"bike_id":"123f3eb4-ba45-40df-9b41-293f359ea004","system_id":"levelo_inurba_marseille","lat":43.24807,"lon":5.37447,"is_reserved":false,"is_disabled":false,"rental_uris":{"android":"levelo://app?vid=123f3eb4-ba45-40df-9b41-293f359ea004","ios":"levelo://app?vid=123f3eb4-ba45-40df-9b41-293f359ea004"},"vehicle_type_id":"4","last_reported":1745687235,"current_range_meters":14000,"station_id":"ce4bhgh2rcd13ifvqfb0","pricing_plan_id":"cebpf4jnsgd1na2vs0mg"},{"bike_id":"3ee52dd6-ee76-4da1-bbf0-da3ef76cb155","system_id":"levelo_inurba_marseille","lat":43.3472,"lon":5.34735,"is_reserved":false,"is_disabled":false,"rental_uris":{"android":"levelo://app?vid=3ee52dd6-ee76-4da1-bbf0-da3ef76cb155","ios":"levelo://app?vid=3ee52dd6-ee76-4da1-bbf0-da3ef76cb155"},"vehicle_type_id":"4","last_reported":1745687235,"current_range_meters":14000,"station_id":"","pricing_plan_id":"cebpf4jnsgd1na2vs0mg"},{"bike_id":"2fac31c9-ecd4-4c07-9ea5-ab959ac9f813","system_id":"levelo_inurba_marseille","lat":43.24675,"lon":5.38169,"is_reserved":false,"is_disabled":true,"rental_uris":{"android":"levelo://app?vid=2fac31c9-ecd4-4c07-9ea5-ab959ac9f813","ios":"levelo://app?vid=2fac31c9-ecd4-4c07-9ea5-ab959ac9f813"},"vehicle_type_id":"4","last_reported":1745687235,"current_range_meters":14400,"station_id":"ce4bhih2rcd13ifvqfr0","pricing_plan_id":"cebpf4jnsgd1na2vs0mg"},{"bike_id":"0ab6801c-0243-4fc0-bbf6-8366cb37d105","system_id":"levelo_inurba_marseille","lat":43.30946,"lon":5.39077,"is_reserved":false,"is_disabled":false,"rental_uris":{"android":"levelo://app?vid=0ab6801c-0243-4fc0-bbf6-8366cb37d105","ios":"levelo://app?vid=0ab6801c-0243-4fc0-bbf6-8366cb37d105"},"vehicle_type_id":"4","last_reported":1745687235,"current_range_meters":14400,"station_id":"ce4bgup2rcd13ifvqco0","pricing_plan_id":"cebpf4jnsgd1na2vs0mg"},{"bike_id":"5d106ed7-7347-4eae-b436-9b3228af6125","system_id":"levelo_inurba_marseille","lat":43.30944,"lon":5.39031,"is_reserved":false,"is_disabled":false,"rental_uris":{"android":"levelo://app?vid=5d106ed7-7347-4eae-b436-9b3228af6125","ios":"levelo://app?vid=5d106ed7-7347-4eae-b436-9b3228af6125"},"vehicle_type_id":"4","last_reported":1745687235,"current_range_meters":14800,"station_id":"ce4bgup2rcd13ifvqco0","pricing_plan_id":"cebpf4jnsgd1na2vs0mg"},{"bike_id":"2e2b5da6-8062-46fb-8609-4c35438dc741","system_id":"levelo_inurba_marseille","lat":43.29411,"lon":5.38629,"is_reserved":false,"is_disabled":false,"rental_uris":{"android":"levelo://app?vid=2e2b5da6-8062-46fb-8609-4c35438dc741","ios":"levelo://app?vid=2e2b5da6-8062-46fb-8609-4c35438dc741"},"vehicle_type_id":"4","last_reported":1745687235,"current_range_meters":14800,"station_id":"ce4bh2h2rcd13ifvqdh0","pricing_plan_id":"cebpf4jnsgd1na2vs0mg"},{"bike_id":"c337840e-ca65-4c5f-bd66-11fa795465f5","system_id":"levelo_inurba_marseille","lat":43.28454,"lon":5.35889,"is_reserved":false,"is_disabled":false,"rental_uris":{"android":"levelo://app?vid=c337840e-ca65-4c5f-bd66-11fa795465f5","ios":"levelo://app?vid=c337840e-ca65-4c5f-bd66-11fa795465f5"},"vehicle_type_id":"4","last_reported":1745687235,"current_range_meters":14800,"station_id":"ce4bhah2rcd13ifvqei0","pricing_plan_id":"cebpf4jnsgd1na2vs0mg"},{"bike_id":"6d85827c-440e-4101-bf4a-74801421310f","system_id":"levelo_inurba_marseille","lat":43.28078,"lon":5.39656,"is_reserved":false,"is_disabled":false,"rental_uris":{"android":"levelo://app?vid=6d85827c-440e-4101-bf4a-74801421310f","ios":"levelo://app?vid=6d85827c-440e-4101-bf4a-74801421310f"},"vehicle_type_id":"4","last_reported":1745687235,"current_range_meters":14800,"station_id":"ce4bho12rcd13ifvqh2g","pricing_plan_id":"cebpf4jnsgd1na2vs0mg"},{"bike_id":"328d57a3-2c92-4abd-b90f-99d968bc0df3","system_id":"levelo_inurba_marseille","lat":43.24796,"lon":5.37454,"is_reserved":false,"is_disabled":false,"rental_uris":{"android":"levelo://app?vid=328d57a3-2c92-4abd-b90f-99d968bc0df3","ios":"levelo://app?vid=328d57a3-2c92-4abd-b90f-99d968bc0df3"},"vehicle_type_id":"4","last_reported":1745687235,"current_range_meters":14800,"station_id":"ce4bhgh2rcd13ifvqfb0","pricing_plan_id":"cebpf4jnsgd1na2vs0mg"},{"bike_id":"356b76a1-af1a-4bef-951e-98e5b057a721","system_id":"levelo_inurba_marseille","lat":43.29259,"lon":5.38431,"is_reserved":false,"is_disabled":true,"rental_uris":{"android":"levelo://app?vid=356b76a1-af1a-4bef-951e-98e5b057a721","ios":"levelo://app?vid=356b76a1-af1a-4bef-951e-98e5b057a721"},"vehicle_type_id":"4","last_reported":1745687235,"current_range_meters":15200,"station_id":"ce4bh692rcd13ifvqea0","pricing_plan_id":"cebpf4jnsgd1na2vs0mg"},{"bike_id":"e11b2816-dd43-4bca-9535-c83556474341","system_id":"levelo_inurba_marseille","lat":43.25103,"lon":5.40316,"is_reserved":false,"is_disabled":false,"rental_uris":{"android":"levelo://app?vid=e11b2816-dd43-4bca-9535-c83556474341","ios":"levelo://app?vid=e11b2816-dd43-4bca-9535-c83556474341"},"vehicle_type_id":"4","last_reported":1745687235,"current_range_meters":15200,"station_id":"ce4bhlh2rcd13ifvqgig","pricing_plan_id":"cebpf4jnsgd1na2vs0mg"},{"bike_id":"c8514d0f-b2d8-431c-bf97-d45ebcc45880","system_id":"levelo_inurba_marseille","lat":43.3044,"lon":5.38899,"is_reserved":false,"is_disabled":false,"rental_uris":{"android":"levelo://app?vid=c8514d0f-b2d8-431c-bf97-d45ebcc45880","ios":"levelo://app?vid=c8514d0f-b2d8-431c-bf97-d45ebcc45880"},"vehicle_type_id":"4","last_reported":1745687235,"current_range_meters":16000,"station_id":"ce4bgk12rcd13ifvqbi0","pricing_plan_id":"cebpf4jnsgd1na2vs0mg"},{"bike_id":"0053b840-de47-4900-98aa-cc8575176b05","system_id":"levelo_inurba_marseille","lat":43.24185,"lon":5.36424,"is_reserved":false,"is_disabled":true,"rental_uris":{"android":"levelo://app?vid=0053b840-de47-4900-98aa-cc8575176b05","ios":"levelo://app?vid=0053b840-de47-4900-98aa-cc8575176b05"},"vehicle_type_id":"4","last_reported":1745687235,"current_range_meters":16000,"station_id":"cpo36qri1sfpv3e86is0","pricing_plan_id":"cebpf4jnsgd1na2vs0mg"},{"bike_id":"46ef3be1-d823-4012-aa91-f3d0fcf6fc62","system_id":"levelo_inurba_marseille","lat":43.303528,"lon":5.418774,"is_reserved":false,"is_disabled":false,"rental_uris":{"android":"levelo://app?vid=46ef3be1-d823-4012-aa91-f3d0fcf6fc62","ios":"levelo://app?vid=46ef3be1-d823-4012-aa91-f3d0fcf6fc62"},"vehicle_type_id":"4","last_reported":1745687235,"current_range_meters":16000,"station_id":"ce4bhop2rcd13ifvqh7g","pricing_plan_id":"cebpf4jnsgd1na2vs0mg"},{"bike_id":"954e6fde-0680-4f31-957b-9a2c3d282d94","system_id":"levelo_inurba_marseille","lat":43.28618,"lon":5.35107,"is_reserved":false,"is_disabled":false,"rental_uris":{"android":"levelo://app?vid=954e6fde-0680-4f31-957b-9a2c3d282d94","ios":"levelo://app?vid=954e6fde-0680-4f31-957b-9a2c3d282d94"},"vehicle_type_id":"4","last_reported":1745687235,"current_range_meters":16000,"station_id":"ce4bhch2rcd13ifvqeug","pricing_plan_id":"cebpf4jnsgd1na2vs0mg"},{"bike_id":"be1c3b48-c701-4345-a096-f8211e1c8fd3","system_id":"levelo_inurba_marseille","lat":43.28445,"lon":5.36875,"is_reserved":false,"is_disabled":false,"rental_uris":{"android":"levelo://app?vid=be1c3b48-c701-4345-a096-f8211e1c8fd3","ios":"levelo://app?vid=be1c3b48-c701-4345-a096-f8211e1c8fd3"},"vehicle_type_id":"4","last_reported":1745687235,"current_range_meters":16400,"station_id":"","pricing_plan_id":"cebpf4jnsgd1na2vs0mg"},{"bike_id":"ae1d96a0-b0a2-41e1-be14-e78907f9338a","system_id":"levelo_inurba_marseille","lat":43.29535,"lon":5.39406,"is_reserved":false,"is_disabled":true,"rental_uris":{"android":"levelo://app?vid=ae1d96a0-b0a2-41e1-be14-e78907f9338a","ios":"levelo://app?vid=ae1d96a0-b0a2-41e1-be14-e78907f9338a"},"vehicle_type_id":"4","last_reported":1745687235,"current_range_meters":16400,"station_id":"ce4bh292rcd13ifvqdf0","pricing_plan_id":"cebpf4jnsgd1na2vs0mg"},{"bike_id":"af4a97e0-dded-4da0-9eba-7bcd01c44383","system_id":"levelo_inurba_marseille","lat":43.3033,"lon":5.39202,"is_reserved":false,"is_disabled":true,"rental_uris":{"android":"levelo://app?vid=af4a97e0-dded-4da0-9eba-7bcd01c44383","ios":"levelo://app?vid=af4a97e0-dded-4da0-9eba-7bcd01c44383"},"vehicle_type_id":"4","last_reported":1745687235,"current_range_meters":16400,"station_id":"ce4bgkh2rcd13ifvqbk0","pricing_plan_id":"cebpf4jnsgd1na2vs0mg"},{"bike_id":"8c4185b5-22e5-4c74-be6a-174e8807d32f","system_id":"levelo_inurba_marseille","lat":43.295227,"lon":5.394009,"is_reserved":false,"is_disabled":false,"rental_uris":{"android":"levelo://app?vid=8c4185b5-22e5-4c74-be6a-174e8807d32f","ios":"levelo://app?vid=8c4185b5-22e5-4c74-be6a-174e8807d32f"},"vehicle_type_id":"4","last_reported":1745687235,"current_range_meters":16400,"station_id":"ce4bh292rcd13ifvqdf0","pricing_plan_id":"cebpf4jnsgd1na2vs0mg"},{"bike_id":"314a7709-793a-4cd8-a4f0-aa8320fcf0cb","system_id":"levelo_inurba_marseille","lat":43.27504,"lon":5.42493,"is_reserved":false,"is_disabled":false,"rental_uris":{"android":"levelo://app?vid=314a7709-793a-4cd8-a4f0-aa8320fcf0cb","ios":"levelo://app?vid=314a7709-793a-4cd8-a4f0-aa8320fcf0cb"},"vehicle_type_id":"4","last_reported":1745687235,"current_range_meters":16400,"station_id":"ce4bhn92rcd13ifvqgrg","pricing_plan_id":"cebpf4jnsgd1na2vs0mg"},{"bike_id":"5136f674-808a-420b-ba2c-640c600e8b75","system_id":"levelo_inurba_marseille","lat":43.31493,"lon":5.37312,"is_reserved":false,"is_disabled":false,"rental_uris":{"android":"levelo://app?vid=5136f674-808a-420b-ba2c-640c600e8b75","ios":"levelo://app?vid=5136f674-808a-420b-ba2c-640c600e8b75"},"vehicle_type_id":"4","last_reported":1745687235,"current_range_meters":16400,"station_id":"ce4bgt12rcd13ifvqcd0","pricing_plan_id":"cebpf4jnsgd1na2vs0mg"},{"bike_id":"30682ff8-8fff-44d2-a888-274e4076f45a","system_id":"levelo_inurba_marseille","lat":43.25495,"lon":5.37649,"is_reserved":false,"is_disabled":false,"rental_uris":{"android":"levelo://app?vid=30682ff8-8fff-44d2-a888-274e4076f45a","ios":"levelo://app?vid=30682ff8-8fff-44d2-a888-274e4076f45a"},"vehicle_type_id":"4","last_reported":1745687235,"current_range_meters":16400,"station_id":"ce4bhh12rcd13ifvqff0","pricing_plan_id":"cebpf4jnsgd1na2vs0mg"},{"bike_id":"3a35e9a3-cfae-4011-b871-23d23212985f","system_id":"levelo_inurba_marseille","lat":43.30325,"lon":5.40436,"is_reserved":false,"is_disabled":false,"rental_uris":{"android":"levelo://app?vid=3a35e9a3-cfae-4011-b871-23d23212985f","ios":"levelo://app?vid=3a35e9a3-cfae-4011-b871-23d23212985f"},"vehicle_type_id":"4","last_reported":1745687235,"current_range_meters":16400,"station_id":"ce4bh012rcd13ifvqd10","pricing_plan_id":"cebpf4jnsgd1na2vs0mg"},{"bike_id":"91474842-32bf-45c2-856a-80fd91d22aa5","system_id":"levelo_inurba_marseille","lat":43.21208,"lon":5.3509,"is_reserved":false,"is_disabled":false,"rental_uris":{"android":"levelo://app?vid=91474842-32bf-45c2-856a-80fd91d22aa5","ios":"levelo://app?vid=91474842-32bf-45c2-856a-80fd91d22aa5"},"vehicle_type_id":"4","last_reported":1745687235,"current_range_meters":16400,"station_id":"st_cvj6sg6p6f1abm77japg","pricing_plan_id":"cebpf4jnsgd1na2vs0mg"},{"bike_id":"01eba2c0-8ddc-454b-8ebe-3984acb789ad","system_id":"levelo_inurba_marseille","lat":43.308857,"lon":5.396584,"is_reserved":false,"is_disabled":false,"rental_uris":{"android":"levelo://app?vid=01eba2c0-8ddc-454b-8ebe-3984acb789ad","ios":"levelo://app?vid=01eba2c0-8ddc-454b-8ebe-3984acb789ad"},"vehicle_type_id":"4","last_reported":1745687235,"current_range_meters":16800,"station_id":"ce4bh012rcd13ifvqcv0","pricing_plan_id":"cebpf4jnsgd1na2vs0mg"},{"bike_id":"a08e6535-7d97-4f82-b424-5e6daf2d2362","system_id":"levelo_inurba_marseille","lat":43.29525,"lon":5.39394,"is_reserved":false,"is_disabled":true,"rental_uris":{"android":"levelo://app?vid=a08e6535-7d97-4f82-b424-5e6daf2d2362","ios":"levelo://app?vid=a08e6535-7d97-4f82-b424-5e6daf2d2362"},"vehicle_type_id":"4","last_reported":1745687235,"current_range_meters":16800,"station_id":"ce4bh292rcd13ifvqdf0","pricing_plan_id":"cebpf4jnsgd1na2vs0mg"},{"bike_id":"47859ae8-4157-419a-a068-4625ada059ba","system_id":"levelo_inurba_marseille","lat":43.26226,"lon":5.40461,"is_reserved":false,"is_disabled":false,"rental_uris":{"android":"levelo://app?vid=47859ae8-4157-419a-a068-4625ada059ba","ios":"levelo://app?vid=47859ae8-4157-419a-a068-4625ada059ba"},"vehicle_type_id":"4","last_reported":1745687235,"current_range_meters":16800,"station_id":"ce4bhmh2rcd13ifvqgmg","pricing_plan_id":"cebpf4jnsgd1na2vs0mg"},{"bike_id":"9de9d996-1620-4858-b125-d2c76650648e","system_id":"levelo_inurba_marseille","lat":43.2608,"lon":5.37566,"is_reserved":false,"is_disabled":false,"rental_uris":{"android":"levelo://app?vid=9de9d996-1620-4858-b125-d2c76650648e","ios":"levelo://app?vid=9de9d996-1620-4858-b125-d2c76650648e"},"vehicle_type_id":"4","last_reported":1745687235,"current_range_meters":16800,"station_id":"","pricing_plan_id":"cebpf4jnsgd1na2vs0mg"},{"bike_id":"afd33670-82f7-4c5c-9029-2dc1c34e85e4","system_id":"levelo_inurba_marseille","lat":43.2876,"lon":5.39688,"is_reserved":false,"is_disabled":false,"rental_uris":{"android":"levelo://app?vid=afd33670-82f7-4c5c-9029-2dc1c34e85e4","ios":"levelo://app?vid=afd33670-82f7-4c5c-9029-2dc1c34e85e4"},"vehicle_type_id":"4","last_reported":1745687235,"current_range_meters":16800,"station_id":"","pricing_plan_id":"cebpf4jnsgd1na2vs0mg"},{"bike_id":"b6cd48f1-000d-4b43-adb2-a0b0786d1edf","system_id":"levelo_inurba_marseille","lat":43.276052,"lon":5.360945,"is_reserved":false,"is_disabled":false,"rental_uris":{"android":"levelo://app?vid=b6cd48f1-000d-4b43-adb2-a0b0786d1edf","ios":"levelo://app?vid=b6cd48f1-000d-4b43-adb2-a0b0786d1edf"},"vehicle_type_id":"4","last_reported":1745687235,"current_range_meters":16800,"station_id":"ce4bgj92rcd13ifvqbe0","pricing_plan_id":"cebpf4jnsgd1na2vs0mg"},{"bike_id":"a16bb2b3-41fd-4455-b0cf-ca6b221fd4e6","system_id":"levelo_inurba_marseille","lat":43.29464,"lon":5.35858,"is_reserved":false,"is_disabled":false,"rental_uris":{"android":"levelo://app?vid=a16bb2b3-41fd-4455-b0cf-ca6b221fd4e6","ios":"levelo://app?vid=a16bb2b3-41fd-4455-b0cf-ca6b221fd4e6"},"vehicle_type_id":"4","last_reported":1745687235,"current_range_meters":17200,"station_id":"","pricing_plan_id":"cebpf4jnsgd1na2vs0mg"},{"bike_id":"0b25ed72-74ae-47e4-a678-34525af0f915","system_id":"levelo_inurba_marseille","lat":43.29303,"lon":5.37173,"is_reserved":false,"is_disabled":false,"rental_uris":{"android":"levelo://app?vid=0b25ed72-74ae-47e4-a678-34525af0f915","ios":"levelo://app?vid=0b25ed72-74ae-47e4-a678-34525af0f915"},"vehicle_type_id":"4","last_reported":1745687235,"current_range_meters":17200,"station_id":"ce4bgh92rcd13ifvqb40","pricing_plan_id":"cebpf4jnsgd1na2vs0mg"},{"bike_id":"560f12bb-1614-4d7c-b78e-ccf5bdec9ea6","system_id":"levelo_inurba_marseille","lat":43.28471,"lon":5.35934,"is_reserved":false,"is_disabled":true,"rental_uris":{"android":"levelo://app?vid=560f12bb-1614-4d7c-b78e-ccf5bdec9ea6","ios":"levelo://app?vid=560f12bb-1614-4d7c-b78e-ccf5bdec9ea6"},"vehicle_type_id":"4","last_reported":1745687235,"current_range_meters":17200,"station_id":"ce4bhah2rcd13ifvqei0","pricing_plan_id":"cebpf4jnsgd1na2vs0mg"},{"bike_id":"004c2ee9-2f84-4f2b-9c74-bcf8e560429d","system_id":"levelo_inurba_marseille","lat":43.29972,"lon":5.38491,"is_reserved":false,"is_disabled":false,"rental_uris":{"android":"levelo://app?vid=004c2ee9-2f84-4f2b-9c74-bcf8e560429d","ios":"levelo://app?vid=004c2ee9-2f84-4f2b-9c74-bcf8e560429d"},"vehicle_type_id":"4","last_reported":1745687235,"current_range_meters":17600,"station_id":"ce4bgj92rcd13ifvqbd0","pricing_plan_id":"cebpf4jnsgd1na2vs0mg"},{"bike_id":"aa5275f1-b687-457a-b1e7-96a665a80efb","system_id":"levelo_inurba_marseille","lat":43.30444,"lon":5.39756,"is_reserved":false,"is_disabled":false,"rental_uris":{"android":"levelo://app?vid=aa5275f1-b687-457a-b1e7-96a665a80efb","ios":"levelo://app?vid=aa5275f1-b687-457a-b1e7-96a665a80efb"},"vehicle_type_id":"4","last_reported":1745687235,"current_range_meters":17600,"station_id":"ce4bh092rcd13ifvqd20","pricing_plan_id":"cebpf4jnsgd1na2vs0mg"},{"bike_id":"9400eaf0-9994-4b35-85ce-22818c9143cc","system_id":"levelo_inurba_marseille","lat":43.241728,"lon":5.363922,"is_reserved":false,"is_disabled":false,"rental_uris":{"android":"levelo://app?vid=9400eaf0-9994-4b35-85ce-22818c9143cc","ios":"levelo://app?vid=9400eaf0-9994-4b35-85ce-22818c9143cc"},"vehicle_type_id":"4","last_reported":1745687235,"current_range_meters":18000,"station_id":"cpo36qri1sfpv3e86is0","pricing_plan_id":"cebpf4jnsgd1na2vs0mg"},{"bike_id":"38a5787a-3504-47ba-8cd1-5eec7c840ad4","system_id":"levelo_inurba_marseille","lat":43.30958,"lon":5.39047,"is_reserved":false,"is_disabled":false,"rental_uris":{"android":"levelo://app?vid=38a5787a-3504-47ba-8cd1-5eec7c840ad4","ios":"levelo://app?vid=38a5787a-3504-47ba-8cd1-5eec7c840ad4"},"vehicle_type_id":"4","last_reported":1745687235,"current_range_meters":18000,"station_id":"ce4bgup2rcd13ifvqco0","pricing_plan_id":"cebpf4jnsgd1na2vs0mg"},{"bike_id":"57ebd52c-bbc8-4a4d-8d80-2da8f6250dbd","system_id":"levelo_inurba_marseille","lat":43.27819,"lon":5.40714,"is_reserved":false,"is_disabled":true,"rental_uris":{"android":"levelo://app?vid=57ebd52c-bbc8-4a4d-8d80-2da8f6250dbd","ios":"levelo://app?vid=57ebd52c-bbc8-4a4d-8d80-2da8f6250dbd"},"vehicle_type_id":"4","last_reported":1745687235,"current_range_meters":18000,"station_id":"ce4bhnh2rcd13ifvqgtg","pricing_plan_id":"cebpf4jnsgd1na2vs0mg"},{"bike_id":"eeb3042e-b2a6-4b3e-9e8c-d89ee3bbae8a","system_id":"levelo_inurba_marseille","lat":43.32356,"lon":5.36756,"is_reserved":false,"is_disabled":false,"rental_uris":{"android":"levelo://app?vid=eeb3042e-b2a6-4b3e-9e8c-d89ee3bbae8a","ios":"levelo://app?vid=eeb3042e-b2a6-4b3e-9e8c-d89ee3bbae8a"},"vehicle_type_id":"4","last_reported":1745687235,"current_range_meters":18000,"station_id":"ce4bhsh2rcd13ifvqi2g","pricing_plan_id":"cebpf4jnsgd1na2vs0mg"},{"bike_id":"d5998670-6a46-4733-ab75-d2db194cb5bb","system_id":"levelo_inurba_marseille","lat":43.293951,"lon":5.373534,"is_reserved":false,"is_disabled":false,"rental_uris":{"android":"levelo://app?vid=d5998670-6a46-4733-ab75-d2db194cb5bb","ios":"levelo://app?vid=d5998670-6a46-4733-ab75-d2db194cb5bb"},"vehicle_type_id":"4","last_reported":1745687235,"current_range_meters":18800,"station_id":"ce4bgs12rcd13ifvqcag","pricing_plan_id":"cebpf4jnsgd1na2vs0mg"},{"bike_id":"d71ef330-4801-4137-b823-753bbcee6c58","system_id":"levelo_inurba_marseille","lat":43.28274,"lon":5.35073,"is_reserved":false,"is_disabled":false,"rental_uris":{"android":"levelo://app?vid=d71ef330-4801-4137-b823-753bbcee6c58","ios":"levelo://app?vid=d71ef330-4801-4137-b823-753bbcee6c58"},"vehicle_type_id":"4","last_reported":1745687235,"current_range_meters":18800,"station_id":"ce4bhbp2rcd13ifvqerg","pricing_plan_id":"cebpf4jnsgd1na2vs0mg"},{"bike_id":"ac4c4173-35f2-480f-a156-1e96630b45e8","system_id":"levelo_inurba_marseille","lat":43.24087,"lon":5.37758,"is_reserved":false,"is_disabled":false,"rental_uris":{"android":"levelo://app?vid=ac4c4173-35f2-480f-a156-1e96630b45e8","ios":"levelo://app?vid=ac4c4173-35f2-480f-a156-1e96630b45e8"},"vehicle_type_id":"4","last_reported":1745687235,"current_range_meters":18800,"station_id":"ce4bhnp2rcd13ifvqgvg","pricing_plan_id":"cebpf4jnsgd1na2vs0mg"},{"bike_id":"cf0d47bd-81d3-4c57-82db-02956e138e59","system_id":"levelo_inurba_marseille","lat":43.32366,"lon":5.38887,"is_reserved":false,"is_disabled":false,"rental_uris":{"android":"levelo://app?vid=cf0d47bd-81d3-4c57-82db-02956e138e59","ios":"levelo://app?vid=cf0d47bd-81d3-4c57-82db-02956e138e59"},"vehicle_type_id":"4","last_reported":1745687235,"current_range_meters":18800,"station_id":"ce4bhqp2rcd13ifvqhog","pricing_plan_id":"cebpf4jnsgd1na2vs0mg"},{"bike_id":"184403fd-77c8-46b2-a7ba-ff1f464908e2","system_id":"levelo_inurba_marseille","lat":43.24672,"lon":5.38173,"is_reserved":false,"is_disabled":false,"rental_uris":{"android":"levelo://app?vid=184403fd-77c8-46b2-a7ba-ff1f464908e2","ios":"levelo://app?vid=184403fd-77c8-46b2-a7ba-ff1f464908e2"},"vehicle_type_id":"4","last_reported":1745687235,"current_range_meters":18800,"station_id":"ce4bhih2rcd13ifvqfr0","pricing_plan_id":"cebpf4jnsgd1na2vs0mg"},{"bike_id":"431c2eb0-838c-4127-9447-65abb969dbcb","system_id":"levelo_inurba_marseille","lat":43.30592,"lon":5.39354,"is_reserved":false,"is_disabled":false,"rental_uris":{"android":"levelo://app?vid=431c2eb0-838c-4127-9447-65abb969dbcb","ios":"levelo://app?vid=431c2eb0-838c-4127-9447-65abb969dbcb"},"vehicle_type_id":"4","last_reported":1745687235,"current_range_meters":18800,"station_id":"ce4bh0p2rcd13ifvqd80","pricing_plan_id":"cebpf4jnsgd1na2vs0mg"},{"bike_id":"c29f6978-fd01-4c64-860c-2b8b755f15b7","system_id":"levelo_inurba_marseille","lat":43.293,"lon":5.37462,"is_reserved":false,"is_disabled":false,"rental_uris":{"android":"levelo://app?vid=c29f6978-fd01-4c64-860c-2b8b755f15b7","ios":"levelo://app?vid=c29f6978-fd01-4c64-860c-2b8b755f15b7"},"vehicle_type_id":"4","last_reported":1745687235,"current_range_meters":18800,"station_id":"ce4bgi12rcd13ifvqb70","pricing_plan_id":"cebpf4jnsgd1na2vs0mg"},{"bike_id":"3ad35c25-d89f-4ea6-848b-393a00786d79","system_id":"levelo_inurba_marseille","lat":43.29876,"lon":5.42092,"is_reserved":false,"is_disabled":false,"rental_uris":{"android":"levelo://app?vid=3ad35c25-d89f-4ea6-848b-393a00786d79","ios":"levelo://app?vid=3ad35c25-d89f-4ea6-848b-393a00786d79"},"vehicle_type_id":"4","last_reported":1745687235,"current_range_meters":18800,"station_id":"","pricing_plan_id":"cebpf4jnsgd1na2vs0mg"},{"bike_id":"d5bf9be5-08b4-401b-8e22-378fd1952997","system_id":"levelo_inurba_marseille","lat":43.28464,"lon":5.359,"is_reserved":false,"is_disabled":false,"rental_uris":{"android":"levelo://app?vid=d5bf9be5-08b4-401b-8e22-378fd1952997","ios":"levelo://app?vid=d5bf9be5-08b4-401b-8e22-378fd1952997"},"vehicle_type_id":"4","last_reported":1745687235,"current_range_meters":18800,"station_id":"ce4bhah2rcd13ifvqei0","pricing_plan_id":"cebpf4jnsgd1na2vs0mg"},{"bike_id":"4dd90a49-95c4-4ff2-9bd5-d1e3d06fbbec","system_id":"levelo_inurba_marseille","lat":43.30602,"lon":5.37234,"is_reserved":false,"is_disabled":false,"rental_uris":{"android":"levelo://app?vid=4dd90a49-95c4-4ff2-9bd5-d1e3d06fbbec","ios":"levelo://app?vid=4dd90a49-95c4-4ff2-9bd5-d1e3d06fbbec"},"vehicle_type_id":"4","last_reported":1745687235,"current_range_meters":18800,"station_id":"ce4bgqh2rcd13ifvqc4g","pricing_plan_id":"cebpf4jnsgd1na2vs0mg"},{"bike_id":"0b9748e9-3402-40ab-9435-24ca8efdbd7e","system_id":"levelo_inurba_marseille","lat":43.30949,"lon":5.39042,"is_reserved":false,"is_disabled":false,"rental_uris":{"android":"levelo://app?vid=0b9748e9-3402-40ab-9435-24ca8efdbd7e","ios":"levelo://app?vid=0b9748e9-3402-40ab-9435-24ca8efdbd7e"},"vehicle_type_id":"4","last_reported":1745687235,"current_range_meters":19200,"station_id":"ce4bgup2rcd13ifvqco0","pricing_plan_id":"cebpf4jnsgd1na2vs0mg"},{"bike_id":"0d777af5-4166-475a-a6b9-6a0197032592","system_id":"levelo_inurba_marseille","lat":43.23253,"lon":5.35225,"is_reserved":false,"is_disabled":false,"rental_uris":{"android":"levelo://app?vid=0d777af5-4166-475a-a6b9-6a0197032592","ios":"levelo://app?vid=0d777af5-4166-475a-a6b9-6a0197032592"},"vehicle_type_id":"4","last_reported":1745687235,"current_range_meters":19200,"station_id":"","pricing_plan_id":"cebpf4jnsgd1na2vs0mg"},{"bike_id":"d8c9ae8a-722b-4e3c-b226-b2b4554c6602","system_id":"levelo_inurba_marseille","lat":43.293249,"lon":5.386066,"is_reserved":false,"is_disabled":false,"rental_uris":{"android":"levelo://app?vid=d8c9ae8a-722b-4e3c-b226-b2b4554c6602","ios":"levelo://app?vid=d8c9ae8a-722b-4e3c-b226-b2b4554c6602"},"vehicle_type_id":"4","last_reported":1745687235,"current_range_meters":19200,"station_id":"ce4bh192rcd13ifvqdd0","pricing_plan_id":"cebpf4jnsgd1na2vs0mg"},{"bike_id":"7575da37-888c-49e1-ae26-1fb5b6c4bf26","system_id":"levelo_inurba_marseille","lat":43.28663,"lon":5.35146,"is_reserved":false,"is_disabled":false,"rental_uris":{"android":"levelo://app?vid=7575da37-888c-49e1-ae26-1fb5b6c4bf26","ios":"levelo://app?vid=7575da37-888c-49e1-ae26-1fb5b6c4bf26"},"vehicle_type_id":"4","last_reported":1745687235,"current_range_meters":19200,"station_id":"ce4bhch2rcd13ifvqeug","pricing_plan_id":"cebpf4jnsgd1na2vs0mg"},{"bike_id":"64e6ebc6-a5fd-40ca-85ee-87b18ebec985","system_id":"levelo_inurba_marseille","lat":43.31366,"lon":5.38504,"is_reserved":false,"is_disabled":false,"rental_uris":{"android":"levelo://app?vid=64e6ebc6-a5fd-40ca-85ee-87b18ebec985","ios":"levelo://app?vid=64e6ebc6-a5fd-40ca-85ee-87b18ebec985"},"vehicle_type_id":"4","last_reported":1745687235,"current_range_meters":19200,"station_id":"ce4bgt92rcd13ifvqcf0","pricing_plan_id":"cebpf4jnsgd1na2vs0mg"},{"bike_id":"63e87da0-f421-4d44-9460-33172dc0267c","system_id":"levelo_inurba_marseille","lat":43.304601,"lon":5.379042,"is_reserved":false,"is_disabled":false,"rental_uris":{"android":"levelo://app?vid=63e87da0-f421-4d44-9460-33172dc0267c","ios":"levelo://app?vid=63e87da0-f421-4d44-9460-33172dc0267c"},"vehicle_type_id":"4","last_reported":1745687235,"current_range_meters":19200,"station_id":"ce4bhq12rcd13ifvqhhg","pricing_plan_id":"cebpf4jnsgd1na2vs0mg"},{"bike_id":"42f1b953-890a-45c5-9996-1bea718462e7","system_id":"levelo_inurba_marseille","lat":43.30465,"lon":5.37891,"is_reserved":false,"is_disabled":false,"rental_uris":{"android":"levelo://app?vid=42f1b953-890a-45c5-9996-1bea718462e7","ios":"levelo://app?vid=42f1b953-890a-45c5-9996-1bea718462e7"},"vehicle_type_id":"4","last_reported":1745687235,"current_range_meters":19200,"station_id":"ce4bgup2rcd13ifvqcn0","pricing_plan_id":"cebpf4jnsgd1na2vs0mg"},{"bike_id":"389fa13e-9fb8-4551-94cc-3437e858ed36","system_id":"levelo_inurba_marseille","lat":43.24173,"lon":5.36424,"is_reserved":false,"is_disabled":false,"rental_uris":{"android":"levelo://app?vid=389fa13e-9fb8-4551-94cc-3437e858ed36","ios":"levelo://app?vid=389fa13e-9fb8-4551-94cc-3437e858ed36"},"vehicle_type_id":"4","last_reported":1745687235,"current_range_meters":19200,"station_id":"cpo36qri1sfpv3e86is0","pricing_plan_id":"cebpf4jnsgd1na2vs0mg"},{"bike_id":"b330c3b4-8203-49c9-a4bf-5485d09a1d2d","system_id":"levelo_inurba_marseille","lat":43.30238,"lon":5.39488,"is_reserved":false,"is_disabled":true,"rental_uris":{"android":"levelo://app?vid=b330c3b4-8203-49c9-a4bf-5485d09a1d2d","ios":"levelo://app?vid=b330c3b4-8203-49c9-a4bf-5485d09a1d2d"},"vehicle_type_id":"4","last_reported":1745687235,"current_range_meters":19200,"station_id":"ce4bh0p2rcd13ifvqd70","pricing_plan_id":"cebpf4jnsgd1na2vs0mg"},{"bike_id":"8bcc4440-a141-419c-8178-249064376741","system_id":"levelo_inurba_marseille","lat":43.24809,"lon":5.37442,"is_reserved":false,"is_disabled":false,"rental_uris":{"android":"levelo://app?vid=8bcc4440-a141-419c-8178-249064376741","ios":"levelo://app?vid=8bcc4440-a141-419c-8178-249064376741"},"vehicle_type_id":"4","last_reported":1745687235,"current_range_meters":19200,"station_id":"ce4bhgh2rcd13ifvqfb0","pricing_plan_id":"cebpf4jnsgd1na2vs0mg"},{"bike_id":"99be1414-58ff-4752-826b-d0dcc4401711","system_id":"levelo_inurba_marseille","lat":43.24803,"lon":5.37467,"is_reserved":false,"is_disabled":true,"rental_uris":{"android":"levelo://app?vid=99be1414-58ff-4752-826b-d0dcc4401711","ios":"levelo://app?vid=99be1414-58ff-4752-826b-d0dcc4401711"},"vehicle_type_id":"4","last_reported":1745687235,"current_range_meters":19200,"station_id":"ce4bhgh2rcd13ifvqfb0","pricing_plan_id":"cebpf4jnsgd1na2vs0mg"},{"bike_id":"261cacaa-d81a-4295-913b-757df75d2655","system_id":"levelo_inurba_marseille","lat":43.24071,"lon":5.37765,"is_reserved":false,"is_disabled":false,"rental_uris":{"android":"levelo://app?vid=261cacaa-d81a-4295-913b-757df75d2655","ios":"levelo://app?vid=261cacaa-d81a-4295-913b-757df75d2655"},"vehicle_type_id":"4","last_reported":1745687235,"current_range_meters":19600,"station_id":"ce4bhnp2rcd13ifvqgvg","pricing_plan_id":"cebpf4jnsgd1na2vs0mg"},{"bike_id":"bc356e07-c6ac-43e7-a3c5-5552446665e5","system_id":"levelo_inurba_marseille","lat":43.3101,"lon":5.41732,"is_reserved":false,"is_disabled":false,"rental_uris":{"android":"levelo://app?vid=bc356e07-c6ac-43e7-a3c5-5552446665e5","ios":"levelo://app?vid=bc356e07-c6ac-43e7-a3c5-5552446665e5"},"vehicle_type_id":"4","last_reported":1745687235,"current_range_meters":19600,"station_id":"","pricing_plan_id":"cebpf4jnsgd1na2vs0mg"},{"bike_id":"f5181ff8-3bea-459d-9bd7-848090e8ed24","system_id":"levelo_inurba_marseille","lat":43.26599,"lon":5.37256,"is_reserved":false,"is_disabled":false,"rental_uris":{"android":"levelo://app?vid=f5181ff8-3bea-459d-9bd7-848090e8ed24","ios":"levelo://app?vid=f5181ff8-3bea-459d-9bd7-848090e8ed24"},"vehicle_type_id":"4","last_reported":1745687235,"current_range_meters":19600,"station_id":"ce4bhg12rcd13ifvqf70","pricing_plan_id":"cebpf4jnsgd1na2vs0mg"},{"bike_id":"311f7248-5ec4-4c3d-9f02-5ba74049d6fe","system_id":"levelo_inurba_marseille","lat":43.31174,"lon":5.38722,"is_reserved":false,"is_disabled":false,"rental_uris":{"android":"levelo://app?vid=311f7248-5ec4-4c3d-9f02-5ba74049d6fe","ios":"levelo://app?vid=311f7248-5ec4-4c3d-9f02-5ba74049d6fe"},"vehicle_type_id":"4","last_reported":1745687235,"current_range_meters":19600,"station_id":"ce4bgv12rcd13ifvqcp0","pricing_plan_id":"cebpf4jnsgd1na2vs0mg"},{"bike_id":"646743cc-a046-42f5-bb74-023fb9611dfb","system_id":"levelo_inurba_marseille","lat":43.27665,"lon":5.38933,"is_reserved":false,"is_disabled":false,"rental_uris":{"android":"levelo://app?vid=646743cc-a046-42f5-bb74-023fb9611dfb","ios":"levelo://app?vid=646743cc-a046-42f5-bb74-023fb9611dfb"},"vehicle_type_id":"4","last_reported":1745687235,"current_range_meters":19600,"station_id":"ce4bhi12rcd13ifvqfo0","pricing_plan_id":"cebpf4jnsgd1na2vs0mg"},{"bike_id":"2f405f37-c6f4-4fa2-b0d0-39fc602306c1","system_id":"levelo_inurba_marseille","lat":43.287461,"lon":5.373565,"is_reserved":false,"is_disabled":false,"rental_uris":{"android":"levelo://app?vid=2f405f37-c6f4-4fa2-b0d0-39fc602306c1","ios":"levelo://app?vid=2f405f37-c6f4-4fa2-b0d0-39fc602306c1"},"vehicle_type_id":"4","last_reported":1745687235,"current_range_meters":19600,"station_id":"ce4bh3p2rcd13ifvqdq0","pricing_plan_id":"cebpf4jnsgd1na2vs0mg"},{"bike_id":"df828ffd-4e82-4caa-bd05-bd0a7f43f4eb","system_id":"levelo_inurba_marseille","lat":43.23172,"lon":5.39974,"is_reserved":false,"is_disabled":false,"rental_uris":{"android":"levelo://app?vid=df828ffd-4e82-4caa-bd05-bd0a7f43f4eb","ios":"levelo://app?vid=df828ffd-4e82-4caa-bd05-bd0a7f43f4eb"},"vehicle_type_id":"4","last_reported":1745687235,"current_range_meters":19600,"station_id":"ce4bhn12rcd13ifvqgqg","pricing_plan_id":"cebpf4jnsgd1na2vs0mg"},{"bike_id":"57160dec-44af-42d0-bdf1-e95df80519a6","system_id":"levelo_inurba_marseille","lat":43.27212,"lon":5.3918,"is_reserved":false,"is_disabled":false,"rental_uris":{"android":"levelo://app?vid=57160dec-44af-42d0-bdf1-e95df80519a6","ios":"levelo://app?vid=57160dec-44af-42d0-bdf1-e95df80519a6"},"vehicle_type_id":"4","last_reported":1745687235,"current_range_meters":19600,"station_id":"ce4bhhp2rcd13ifvqfm0","pricing_plan_id":"cebpf4jnsgd1na2vs0mg"},{"bike_id":"dfc383dc-343b-438e-9a76-740f9df1fe81","system_id":"levelo_inurba_marseille","lat":43.30372,"lon":5.42378,"is_reserved":false,"is_disabled":false,"rental_uris":{"android":"levelo://app?vid=dfc383dc-343b-438e-9a76-740f9df1fe81","ios":"levelo://app?vid=dfc383dc-343b-438e-9a76-740f9df1fe81"},"vehicle_type_id":"4","last_reported":1745687235,"current_range_meters":19600,"station_id":"","pricing_plan_id":"cebpf4jnsgd1na2vs0mg"},{"bike_id":"1874d122-7a7d-4a9c-af20-93ce391aae61","system_id":"levelo_inurba_marseille","lat":43.28461,"lon":5.359,"is_reserved":false,"is_disabled":false,"rental_uris":{"android":"levelo://app?vid=1874d122-7a7d-4a9c-af20-93ce391aae61","ios":"levelo://app?vid=1874d122-7a7d-4a9c-af20-93ce391aae61"},"vehicle_type_id":"4","last_reported":1745687235,"current_range_meters":20000,"station_id":"ce4bhah2rcd13ifvqei0","pricing_plan_id":"cebpf4jnsgd1na2vs0mg"},{"bike_id":"fbda6d2b-058b-4b89-8e0a-c373b83fa05b","system_id":"levelo_inurba_marseille","lat":43.25113,"lon":5.40329,"is_reserved":false,"is_disabled":false,"rental_uris":{"android":"levelo://app?vid=fbda6d2b-058b-4b89-8e0a-c373b83fa05b","ios":"levelo://app?vid=fbda6d2b-058b-4b89-8e0a-c373b83fa05b"},"vehicle_type_id":"4","last_reported":1745687235,"current_range_meters":20000,"station_id":"ce4bhlh2rcd13ifvqgig","pricing_plan_id":"cebpf4jnsgd1na2vs0mg"},{"bike_id":"4c2ba9cd-d4b5-4125-a49d-0bf99d26ec39","system_id":"levelo_inurba_marseille","lat":43.2997,"lon":5.38497,"is_reserved":false,"is_disabled":false,"rental_uris":{"android":"levelo://app?vid=4c2ba9cd-d4b5-4125-a49d-0bf99d26ec39","ios":"levelo://app?vid=4c2ba9cd-d4b5-4125-a49d-0bf99d26ec39"},"vehicle_type_id":"4","last_reported":1745687235,"current_range_meters":20000,"station_id":"ce4bgj92rcd13ifvqbd0","pricing_plan_id":"cebpf4jnsgd1na2vs0mg"},{"bike_id":"52aacdd4-5dab-403a-82ba-a1f9f36d8f0a","system_id":"levelo_inurba_marseille","lat":43.29531,"lon":5.3855,"is_reserved":false,"is_disabled":false,"rental_uris":{"android":"levelo://app?vid=52aacdd4-5dab-403a-82ba-a1f9f36d8f0a","ios":"levelo://app?vid=52aacdd4-5dab-403a-82ba-a1f9f36d8f0a"},"vehicle_type_id":"4","last_reported":1745687235,"current_range_meters":20000,"station_id":"ce4bgih2rcd13ifvqba0","pricing_plan_id":"cebpf4jnsgd1na2vs0mg"},{"bike_id":"0483eb51-8654-4c91-a379-5b27c8d4b890","system_id":"levelo_inurba_marseille","lat":43.28616,"lon":5.35092,"is_reserved":false,"is_disabled":false,"rental_uris":{"android":"levelo://app?vid=0483eb51-8654-4c91-a379-5b27c8d4b890","ios":"levelo://app?vid=0483eb51-8654-4c91-a379-5b27c8d4b890"},"vehicle_type_id":"4","last_reported":1745687235,"current_range_meters":20000,"station_id":"ce4bhch2rcd13ifvqeug","pricing_plan_id":"cebpf4jnsgd1na2vs0mg"},{"bike_id":"d013ffe6-3f41-41cb-9c5f-6efe89312988","system_id":"levelo_inurba_marseille","lat":43.30944,"lon":5.39032,"is_reserved":false,"is_disabled":false,"rental_uris":{"android":"levelo://app?vid=d013ffe6-3f41-41cb-9c5f-6efe89312988","ios":"levelo://app?vid=d013ffe6-3f41-41cb-9c5f-6efe89312988"},"vehicle_type_id":"4","last_reported":1745687235,"current_range_meters":20000,"station_id":"ce4bgup2rcd13ifvqco0","pricing_plan_id":"cebpf4jnsgd1na2vs0mg"},{"bike_id":"e15357d2-7ccc-4f9d-9524-90aab3fa7293","system_id":"levelo_inurba_marseille","lat":43.30141,"lon":5.38075,"is_reserved":false,"is_disabled":false,"rental_uris":{"android":"levelo://app?vid=e15357d2-7ccc-4f9d-9524-90aab3fa7293","ios":"levelo://app?vid=e15357d2-7ccc-4f9d-9524-90aab3fa7293"},"vehicle_type_id":"4","last_reported":1745687235,"current_range_meters":20400,"station_id":"ce4bgjp2rcd13ifvqbh0","pricing_plan_id":"cebpf4jnsgd1na2vs0mg"},{"bike_id":"bce61f2f-0141-4265-ada9-b7bda2c36aa9","system_id":"levelo_inurba_marseille","lat":43.30913,"lon":5.36855,"is_reserved":false,"is_disabled":false,"rental_uris":{"android":"levelo://app?vid=bce61f2f-0141-4265-ada9-b7bda2c36aa9","ios":"levelo://app?vid=bce61f2f-0141-4265-ada9-b7bda2c36aa9"},"vehicle_type_id":"4","last_reported":1745687235,"current_range_meters":20400,"station_id":"ce4bgn92rcd13ifvqbvg","pricing_plan_id":"cebpf4jnsgd1na2vs0mg"},