{"last_updated":1776839333,"ttl":60,"version":"2.2","data":{"bikes":[{"bike_id":"99d78413-1926-4d9d-b4ad-b8ac35c1992a","system_id":"levelo_inurba_marseille","lat":43.30336,"lon":5.40425,"is_reserved":false,"is_disabled":false,"rental_uris":{"android":"levelo://app?vid=99d78413-1926-4d9d-b4ad-b8ac35c1992a","ios":"levelo://app?vid=99d78413-1926-4d9d-b4ad-b8ac35c1992a"},"vehicle_type_id":"4","last_reported":1776839333,"current_range_meters":2800,"station_id":"ce4bh012rcd13ifvqd10","pricing_plan_id":"cebpf4jnsgd1na2vs0mg"},{"bike_id":"428a3e1f-0c14-4644-9951-f64ac1c47a29","system_id":"levelo_inurba_marseille","lat":43.33546,"lon":5.37472,"is_reserved":false,"is_disabled":false,"rental_uris":{"android":"levelo://app?vid=428a3e1f-0c14-4644-9951-f64ac1c47a29","ios":"levelo://app?vid=428a3e1f-0c14-4644-9951-f64ac1c47a29"},"vehicle_type_id":"4","last_reported":1776839333,"current_range_meters":2800,"station_id":"st_d46tts09ee8s73dlu43g","pricing_plan_id":"cebpf4jnsgd1na2vs0mg"},{"bike_id":"be5348a3-1499-4f44-9d7a-d050ef9268e8","system_id":"levelo_inurba_marseille","lat":43.32699,"lon":5.38328,"is_reserved":false,"is_disabled":false,"rental_uris":{"android":"levelo://app?vid=be5348a3-1499-4f44-9d7a-d050ef9268e8","ios":"levelo://app?vid=be5348a3-1499-4f44-9d7a-d050ef9268e8"},"vehicle_type_id":"4","last_reported":1776839333,"current_range_meters":2800,"station_id":"","pricing_plan_id":"cebpf4jnsgd1na2vs0mg"},{"bike_id":"6115ea93-f36b-4933-8d3b-76d3754fa534","system_id":"levelo_inurba_marseille","lat":43.24069,"lon":5.37743,"is_reserved":false,"is_disabled":false,"rental_uris":{"android":"levelo://app?vid=6115ea93-f36b-4933-8d3b-76d3754fa534","ios":"levelo://app?vid=6115ea93-f36b-4933-8d3b-76d3754fa534"},"vehicle_type_id":"4","last_reported":1776839333,"current_range_meters":2800,"station_id":"ce4bhnp2rcd13ifvqgvg","pricing_plan_id":"cebpf4jnsgd1na2vs0mg"},{"bike_id":"58ed09d9-0aa1-471f-818a-54c432b83970","system_id":"levelo_inurba_marseille","lat":43.26618,"lon":5.42818,"is_reserved":false,"is_disabled":false,"rental_uris":{"android":"levelo://app?vid=58ed09d9-0aa1-471f-818a-54c432b83970","ios":"levelo://app?vid=58ed09d9-0aa1-471f-818a-54c432b83970"},"vehicle_type_id":"4","last_reported":1776839333,"current_range_meters":3200,"station_id":"","pricing_plan_id":"cebpf4jnsgd1na2vs0mg"},{"bike_id":"8f50b2d6-251d-42ad-b342-f2749fed0e40","system_id":"levelo_inurba_marseille","lat":43.29253,"lon":5.40151,"is_reserved":false,"is_disabled":false,"rental_uris":{"android":"levelo://app?vid=8f50b2d6-251d-42ad-b342-f2749fed0e40","ios":"levelo://app?vid=8f50b2d6-251d-42ad-b342-f2749fed0e40"},"vehicle_type_id":"4","last_reported":1776839333,"current_range_meters":3200,"station_id":"ce4bh312rcd13ifvqdk0","pricing_plan_id":"cebpf4jnsgd1na2vs0mg"},{"bike_id":"0bbddeab-79a7-4ee1-8ee9-7b449e9b0d0d","system_id":"levelo_inurba_marseille","lat":43.29258,"lon":5.38783,"is_reserved":false,"is_disabled":false,"rental_uris":{"android":"levelo://app?vid=0bbddeab-79a7-4ee1-8ee9-7b449e9b0d0d","ios":"levelo://app?vid=0bbddeab-79a7-4ee1-8ee9-7b449e9b0d0d"},"vehicle_type_id":"4","last_reported":1776839333,"current_range_meters":3200,"station_id":"","pricing_plan_id":"cebpf4jnsgd1na2vs0mg"},{"bike_id":"ae3cdbc1-046c-42e5-b909-29c9e0bcb254","system_id":"levelo_inurba_marseille","lat":43.33163,"lon":5.377,"is_reserved":false,"is_disabled":false,"rental_uris":{"android":"levelo://app?vid=ae3cdbc1-046c-42e5-b909-29c9e0bcb254","ios":"levelo://app?vid=ae3cdbc1-046c-42e5-b909-29c9e0bcb254"},"vehicle_type_id":"4","last_reported":1776839333,"current_range_meters":3200,"station_id":"st_d46cu089ee8s73dldbu0","pricing_plan_id":"cebpf4jnsgd1na2vs0mg"},{"bike_id":"dcd5e660-ed5f-40d3-b14d-73d697ebb6e8","system_id":"levelo_inurba_marseille","lat":43.2175,"lon":5.34611,"is_reserved":false,"is_disabled":false,"rental_uris":{"android":"levelo://app?vid=dcd5e660-ed5f-40d3-b14d-73d697ebb6e8","ios":"levelo://app?vid=dcd5e660-ed5f-40d3-b14d-73d697ebb6e8"},"vehicle_type_id":"4","last_reported":1776839333,"current_range_meters":3200,"station_id":"st_cvj6r9ubvosntc0bgbag","pricing_plan_id":"cebpf4jnsgd1na2vs0mg"},{"bike_id":"b785f7ea-cfcc-407f-b48a-6739a001a77c","system_id":"levelo_inurba_marseille","lat":43.3314,"lon":5.37708,"is_reserved":false,"is_disabled":false,"rental_uris":{"android":"levelo://app?vid=b785f7ea-cfcc-407f-b48a-6739a001a77c","ios":"levelo://app?vid=b785f7ea-cfcc-407f-b48a-6739a001a77c"},"vehicle_type_id":"4","last_reported":1776839333,"current_range_meters":3200,"station_id":"st_d46cu089ee8s73dldbu0","pricing_plan_id":"cebpf4jnsgd1na2vs0mg"},{"bike_id":"2923d899-e487-4cd1-8eb4-a2f0428efa22","system_id":"levelo_inurba_marseille","lat":43.33181,"lon":5.37706,"is_reserved":false,"is_disabled":false,"rental_uris":{"android":"levelo://app?vid=2923d899-e487-4cd1-8eb4-a2f0428efa22","ios":"levelo://app?vid=2923d899-e487-4cd1-8eb4-a2f0428efa22"},"vehicle_type_id":"4","last_reported":1776839333,"current_range_meters":3200,"station_id":"st_d46cu089ee8s73dldbu0","pricing_plan_id":"cebpf4jnsgd1na2vs0mg"},{"bike_id":"624daf69-f815-4f9b-8f7c-0a5468b5d0f6","system_id":"levelo_inurba_marseille","lat":43.26195,"lon":5.37046,"is_reserved":false,"is_disabled":false,"rental_uris":{"android":"levelo://app?vid=624daf69-f815-4f9b-8f7c-0a5468b5d0f6","ios":"levelo://app?vid=624daf69-f815-4f9b-8f7c-0a5468b5d0f6"},"vehicle_type_id":"4","last_reported":1776839333,"current_range_meters":3200,"station_id":"","pricing_plan_id":"cebpf4jnsgd1na2vs0mg"},{"bike_id":"48a2f852-0665-429b-80cc-8e25cfaa3039","system_id":"levelo_inurba_marseille","lat":43.24807,"lon":5.37459,"is_reserved":false,"is_disabled":false,"rental_uris":{"android":"levelo://app?vid=48a2f852-0665-429b-80cc-8e25cfaa3039","ios":"levelo://app?vid=48a2f852-0665-429b-80cc-8e25cfaa3039"},"vehicle_type_id":"4","last_reported":1776839333,"current_range_meters":3600,"station_id":"ce4bhgh2rcd13ifvqfb0","pricing_plan_id":"cebpf4jnsgd1na2vs0mg"},{"bike_id":"4f2ebdfa-1fbb-4ff1-81e8-6d72ce502b6c","system_id":"levelo_inurba_marseille","lat":43.29001,"lon":5.40023,"is_reserved":false,"is_disabled":false,"rental_uris":{"android":"levelo://app?vid=4f2ebdfa-1fbb-4ff1-81e8-6d72ce502b6c","ios":"levelo://app?vid=4f2ebdfa-1fbb-4ff1-81e8-6d72ce502b6c"},"vehicle_type_id":"4","last_reported":1776839333,"current_range_meters":3600,"station_id":"","pricing_plan_id":"cebpf4jnsgd1na2vs0mg"},{"bike_id":"ffd632ae-b20b-479a-9721-b7a2d4551e4d","system_id":"levelo_inurba_marseille","lat":43.30252,"lon":5.40081,"is_reserved":false,"is_disabled":false,"rental_uris":{"android":"levelo://app?vid=ffd632ae-b20b-479a-9721-b7a2d4551e4d","ios":"levelo://app?vid=ffd632ae-b20b-479a-9721-b7a2d4551e4d"},"vehicle_type_id":"4","last_reported":1776839333,"current_range_meters":3600,"station_id":"ce4bgvh2rcd13ifvqcs0","pricing_plan_id":"cebpf4jnsgd1na2vs0mg"},{"bike_id":"ff422c07-4472-471c-ab0d-dcb023acae97","system_id":"levelo_inurba_marseille","lat":43.30586,"lon":5.37224,"is_reserved":false,"is_disabled":false,"rental_uris":{"android":"levelo://app?vid=ff422c07-4472-471c-ab0d-dcb023acae97","ios":"levelo://app?vid=ff422c07-4472-471c-ab0d-dcb023acae97"},"vehicle_type_id":"4","last_reported":1776839333,"current_range_meters":3600,"station_id":"ce4bgqh2rcd13ifvqc4g","pricing_plan_id":"cebpf4jnsgd1na2vs0mg"},{"bike_id":"55b9e363-aef1-4e55-a55c-7c19ee416703","system_id":"levelo_inurba_marseille","lat":43.31851,"lon":5.3729,"is_reserved":false,"is_disabled":false,"rental_uris":{"android":"levelo://app?vid=55b9e363-aef1-4e55-a55c-7c19ee416703","ios":"levelo://app?vid=55b9e363-aef1-4e55-a55c-7c19ee416703"},"vehicle_type_id":"4","last_reported":1776839333,"current_range_meters":3600,"station_id":"","pricing_plan_id":"cebpf4jnsgd1na2vs0mg"},{"bike_id":"bb1c4c2b-c3ea-448f-8049-8fa792f834ce","system_id":"levelo_inurba_marseille","lat":43.2496,"lon":5.4049,"is_reserved":false,"is_disabled":false,"rental_uris":{"android":"levelo://app?vid=bb1c4c2b-c3ea-448f-8049-8fa792f834ce","ios":"levelo://app?vid=bb1c4c2b-c3ea-448f-8049-8fa792f834ce"},"vehicle_type_id":"4","last_reported":1776839333,"current_range_meters":3600,"station_id":"st_d2ngiaodas8pm72gd1h0","pricing_plan_id":"cebpf4jnsgd1na2vs0mg"},{"bike_id":"4065c284-7b54-43b3-b479-8dd87706670a","system_id":"levelo_inurba_marseille","lat":43.319,"lon":5.36795,"is_reserved":false,"is_disabled":false,"rental_uris":{"android":"levelo://app?vid=4065c284-7b54-43b3-b479-8dd87706670a","ios":"levelo://app?vid=4065c284-7b54-43b3-b479-8dd87706670a"},"vehicle_type_id":"4","last_reported":1776839333,"current_range_meters":4000,"station_id":"st_d6o2h0d0559c73evc1b0","pricing_plan_id":"cebpf4jnsgd1na2vs0mg"},{"bike_id":"f13ecd57-6258-4e4c-bbcc-3ea8e22e9f09","system_id":"levelo_inurba_marseille","lat":43.23153,"lon":5.43724,"is_reserved":false,"is_disabled":false,"rental_uris":{"android":"levelo://app?vid=f13ecd57-6258-4e4c-bbcc-3ea8e22e9f09","ios":"levelo://app?vid=f13ecd57-6258-4e4c-bbcc-3ea8e22e9f09"},"vehicle_type_id":"4","last_reported":1776839333,"current_range_meters":4000,"station_id":"ce4bhmp2rcd13ifvqgog","pricing_plan_id":"cebpf4jnsgd1na2vs0mg"},{"bike_id":"1bcf353f-b495-4deb-9190-fb2399df9c0c","system_id":"levelo_inurba_marseille","lat":43.28456,"lon":5.35886,"is_reserved":false,"is_disabled":false,"rental_uris":{"android":"levelo://app?vid=1bcf353f-b495-4deb-9190-fb2399df9c0c","ios":"levelo://app?vid=1bcf353f-b495-4deb-9190-fb2399df9c0c"},"vehicle_type_id":"4","last_reported":1776839333,"current_range_meters":4000,"station_id":"ce4bhah2rcd13ifvqei0","pricing_plan_id":"cebpf4jnsgd1na2vs0mg"},{"bike_id":"2bf658ef-a912-4563-9f63-3110eb25e849","system_id":"levelo_inurba_marseille","lat":43.29697,"lon":5.36007,"is_reserved":false,"is_disabled":false,"rental_uris":{"android":"levelo://app?vid=2bf658ef-a912-4563-9f63-3110eb25e849","ios":"levelo://app?vid=2bf658ef-a912-4563-9f63-3110eb25e849"},"vehicle_type_id":"4","last_reported":1776839333,"current_range_meters":4000,"station_id":"","pricing_plan_id":"cebpf4jnsgd1na2vs0mg"},{"bike_id":"edeeb8a0-d7b8-4928-9681-2ccb6d2999e5","system_id":"levelo_inurba_marseille","lat":43.29457,"lon":5.39756,"is_reserved":false,"is_disabled":false,"rental_uris":{"android":"levelo://app?vid=edeeb8a0-d7b8-4928-9681-2ccb6d2999e5","ios":"levelo://app?vid=edeeb8a0-d7b8-4928-9681-2ccb6d2999e5"},"vehicle_type_id":"4","last_reported":1776839333,"current_range_meters":4000,"station_id":"ce4bh3h2rcd13ifvqdo0","pricing_plan_id":"cebpf4jnsgd1na2vs0mg"},{"bike_id":"7278eae4-9ede-4ee2-afa4-5aef54634e43","system_id":"levelo_inurba_marseille","lat":43.31394,"lon":5.3863,"is_reserved":false,"is_disabled":false,"rental_uris":{"android":"levelo://app?vid=7278eae4-9ede-4ee2-afa4-5aef54634e43","ios":"levelo://app?vid=7278eae4-9ede-4ee2-afa4-5aef54634e43"},"vehicle_type_id":"4","last_reported":1776839333,"current_range_meters":4000,"station_id":"","pricing_plan_id":"cebpf4jnsgd1na2vs0mg"},{"bike_id":"e9c1c731-1912-4153-abf3-120b800b8c67","system_id":"levelo_inurba_marseille","lat":43.27213,"lon":5.39186,"is_reserved":false,"is_disabled":true,"rental_uris":{"android":"levelo://app?vid=e9c1c731-1912-4153-abf3-120b800b8c67","ios":"levelo://app?vid=e9c1c731-1912-4153-abf3-120b800b8c67"},"vehicle_type_id":"4","last_reported":1776839333,"current_range_meters":4000,"station_id":"ce4bhhp2rcd13ifvqfm0","pricing_plan_id":"cebpf4jnsgd1na2vs0mg"},{"bike_id":"fec54d59-47d4-4ddb-8655-648e0f95cb70","system_id":"levelo_inurba_marseille","lat":43.23226,"lon":5.35571,"is_reserved":false,"is_disabled":false,"rental_uris":{"android":"levelo://app?vid=fec54d59-47d4-4ddb-8655-648e0f95cb70","ios":"levelo://app?vid=fec54d59-47d4-4ddb-8655-648e0f95cb70"},"vehicle_type_id":"4","last_reported":1776839333,"current_range_meters":4000,"station_id":"ce4bhu92rcd13ifvqi70","pricing_plan_id":"cebpf4jnsgd1na2vs0mg"},{"bike_id":"12fda952-9902-4c8f-a1e4-397269d94965","system_id":"levelo_inurba_marseille","lat":43.30435,"lon":5.39751,"is_reserved":false,"is_disabled":false,"rental_uris":{"android":"levelo://app?vid=12fda952-9902-4c8f-a1e4-397269d94965","ios":"levelo://app?vid=12fda952-9902-4c8f-a1e4-397269d94965"},"vehicle_type_id":"4","last_reported":1776839333,"current_range_meters":4000,"station_id":"ce4bh092rcd13ifvqd20","pricing_plan_id":"cebpf4jnsgd1na2vs0mg"},{"bike_id":"00db9f9d-ec59-40e4-b9b3-0656fbc37813","system_id":"levelo_inurba_marseille","lat":43.231785,"lon":5.399832,"is_reserved":false,"is_disabled":false,"rental_uris":{"android":"levelo://app?vid=00db9f9d-ec59-40e4-b9b3-0656fbc37813","ios":"levelo://app?vid=00db9f9d-ec59-40e4-b9b3-0656fbc37813"},"vehicle_type_id":"4","last_reported":1776839333,"current_range_meters":4000,"station_id":"ce4bhn12rcd13ifvqgqg","pricing_plan_id":"cebpf4jnsgd1na2vs0mg"},{"bike_id":"afee0c52-b399-4a99-91a6-a18ddd90da9e","system_id":"levelo_inurba_marseille","lat":43.23964,"lon":5.36621,"is_reserved":false,"is_disabled":false,"rental_uris":{"android":"levelo://app?vid=afee0c52-b399-4a99-91a6-a18ddd90da9e","ios":"levelo://app?vid=afee0c52-b399-4a99-91a6-a18ddd90da9e"},"vehicle_type_id":"4","last_reported":1776839333,"current_range_meters":4000,"station_id":"ce4bhi12rcd13ifvqfp0","pricing_plan_id":"cebpf4jnsgd1na2vs0mg"},{"bike_id":"c224c9cf-d497-4bf6-82cd-eee25423f927","system_id":"levelo_inurba_marseille","lat":43.29662,"lon":5.37297,"is_reserved":false,"is_disabled":true,"rental_uris":{"android":"levelo://app?vid=c224c9cf-d497-4bf6-82cd-eee25423f927","ios":"levelo://app?vid=c224c9cf-d497-4bf6-82cd-eee25423f927"},"vehicle_type_id":"4","last_reported":1776839333,"current_range_meters":4000,"station_id":"ce4bgk12rcd13ifvqbj0","pricing_plan_id":"cebpf4jnsgd1na2vs0mg"},{"bike_id":"dbe7f0f5-8654-49f7-bfc1-85076e160f11","system_id":"levelo_inurba_marseille","lat":43.27899,"lon":5.44153,"is_reserved":false,"is_disabled":false,"rental_uris":{"android":"levelo://app?vid=dbe7f0f5-8654-49f7-bfc1-85076e160f11","ios":"levelo://app?vid=dbe7f0f5-8654-49f7-bfc1-85076e160f11"},"vehicle_type_id":"4","last_reported":1776839333,"current_range_meters":4000,"station_id":"","pricing_plan_id":"cebpf4jnsgd1na2vs0mg"},{"bike_id":"38a0c1fe-c793-4677-abc9-44884653b8c5","system_id":"levelo_inurba_marseille","lat":43.29593,"lon":5.37776,"is_reserved":false,"is_disabled":false,"rental_uris":{"android":"levelo://app?vid=38a0c1fe-c793-4677-abc9-44884653b8c5","ios":"levelo://app?vid=38a0c1fe-c793-4677-abc9-44884653b8c5"},"vehicle_type_id":"4","last_reported":1776839333,"current_range_meters":4400,"station_id":"","pricing_plan_id":"cebpf4jnsgd1na2vs0mg"},{"bike_id":"14290775-1809-431a-89de-994574cdc895","system_id":"levelo_inurba_marseille","lat":43.27568,"lon":5.38649,"is_reserved":false,"is_disabled":false,"rental_uris":{"android":"levelo://app?vid=14290775-1809-431a-89de-994574cdc895","ios":"levelo://app?vid=14290775-1809-431a-89de-994574cdc895"},"vehicle_type_id":"4","last_reported":1776839333,"current_range_meters":4400,"station_id":"","pricing_plan_id":"cebpf4jnsgd1na2vs0mg"},{"bike_id":"2224c961-bce6-4c33-966e-f3361d1b2ab2","system_id":"levelo_inurba_marseille","lat":43.27485,"lon":5.41598,"is_reserved":false,"is_disabled":false,"rental_uris":{"android":"levelo://app?vid=2224c961-bce6-4c33-966e-f3361d1b2ab2","ios":"levelo://app?vid=2224c961-bce6-4c33-966e-f3361d1b2ab2"},"vehicle_type_id":"4","last_reported":1776839333,"current_range_meters":4400,"station_id":"st_d6im8g6chgec73a5pndg","pricing_plan_id":"cebpf4jnsgd1na2vs0mg"},{"bike_id":"ba8fabc8-ed48-44b0-a4fd-679e9492279f","system_id":"levelo_inurba_marseille","lat":43.30886,"lon":5.3718,"is_reserved":false,"is_disabled":false,"rental_uris":{"android":"levelo://app?vid=ba8fabc8-ed48-44b0-a4fd-679e9492279f","ios":"levelo://app?vid=ba8fabc8-ed48-44b0-a4fd-679e9492279f"},"vehicle_type_id":"4","last_reported":1776839333,"current_range_meters":4400,"station_id":"ce4bguh2rcd13ifvqckg","pricing_plan_id":"cebpf4jnsgd1na2vs0mg"},{"bike_id":"f9e36f38-ef4d-44c9-9f31-a0f8b13d14ba","system_id":"levelo_inurba_marseille","lat":43.33173,"lon":5.3769,"is_reserved":false,"is_disabled":false,"rental_uris":{"android":"levelo://app?vid=f9e36f38-ef4d-44c9-9f31-a0f8b13d14ba","ios":"levelo://app?vid=f9e36f38-ef4d-44c9-9f31-a0f8b13d14ba"},"vehicle_type_id":"4","last_reported":1776839333,"current_range_meters":4400,"station_id":"st_d46cu089ee8s73dldbu0","pricing_plan_id":"cebpf4jnsgd1na2vs0mg"},{"bike_id":"1fd10be9-0a9a-46a4-9d74-69cc8527ad5b","system_id":"levelo_inurba_marseille","lat":43.2848,"lon":5.484,"is_reserved":false,"is_disabled":false,"rental_uris":{"android":"levelo://app?vid=1fd10be9-0a9a-46a4-9d74-69cc8527ad5b","ios":"levelo://app?vid=1fd10be9-0a9a-46a4-9d74-69cc8527ad5b"},"vehicle_type_id":"4","last_reported":1776839333,"current_range_meters":4800,"station_id":"","pricing_plan_id":"cebpf4jnsgd1na2vs0mg"},{"bike_id":"357c8a3f-22a7-437b-9400-0efde2fb9a38","system_id":"levelo_inurba_marseille","lat":43.27074,"lon":5.42288,"is_reserved":false,"is_disabled":false,"rental_uris":{"android":"levelo://app?vid=357c8a3f-22a7-437b-9400-0efde2fb9a38","ios":"levelo://app?vid=357c8a3f-22a7-437b-9400-0efde2fb9a38"},"vehicle_type_id":"4","last_reported":1776839333,"current_range_meters":4800,"station_id":"ce4bhk92rcd13ifvqgb0","pricing_plan_id":"cebpf4jnsgd1na2vs0mg"},{"bike_id":"afe6c9ff-8c7f-40d2-96bc-86354113b443","system_id":"levelo_inurba_marseille","lat":43.28477,"lon":5.48387,"is_reserved":false,"is_disabled":false,"rental_uris":{"android":"levelo://app?vid=afe6c9ff-8c7f-40d2-96bc-86354113b443","ios":"levelo://app?vid=afe6c9ff-8c7f-40d2-96bc-86354113b443"},"vehicle_type_id":"4","last_reported":1776839333,"current_range_meters":4800,"station_id":"","pricing_plan_id":"cebpf4jnsgd1na2vs0mg"},{"bike_id":"98eb4c82-6586-400e-8980-ec80f7583254","system_id":"levelo_inurba_marseille","lat":43.29924,"lon":5.36546,"is_reserved":false,"is_disabled":false,"rental_uris":{"android":"levelo://app?vid=98eb4c82-6586-400e-8980-ec80f7583254","ios":"levelo://app?vid=98eb4c82-6586-400e-8980-ec80f7583254"},"vehicle_type_id":"4","last_reported":1776839333,"current_range_meters":4800,"station_id":"ce4bgm92rcd13ifvqbr0","pricing_plan_id":"cebpf4jnsgd1na2vs0mg"},{"bike_id":"45b29ce7-5ba9-4158-900f-5a99e371a411","system_id":"levelo_inurba_marseille","lat":43.30977,"lon":5.39059,"is_reserved":false,"is_disabled":false,"rental_uris":{"android":"levelo://app?vid=45b29ce7-5ba9-4158-900f-5a99e371a411","ios":"levelo://app?vid=45b29ce7-5ba9-4158-900f-5a99e371a411"},"vehicle_type_id":"4","last_reported":1776839333,"current_range_meters":4800,"station_id":"ce4bgup2rcd13ifvqco0","pricing_plan_id":"cebpf4jnsgd1na2vs0mg"},{"bike_id":"2372ff5c-b340-4c5f-8531-5cd2273c37fc","system_id":"levelo_inurba_marseille","lat":43.29905,"lon":5.38919,"is_reserved":false,"is_disabled":false,"rental_uris":{"android":"levelo://app?vid=2372ff5c-b340-4c5f-8531-5cd2273c37fc","ios":"levelo://app?vid=2372ff5c-b340-4c5f-8531-5cd2273c37fc"},"vehicle_type_id":"4","last_reported":1776839333,"current_range_meters":4800,"station_id":"ce4bh392rcd13ifvqdl0","pricing_plan_id":"cebpf4jnsgd1na2vs0mg"},{"bike_id":"b79dabe7-3b43-4999-bc7f-510b5ebe7b35","system_id":"levelo_inurba_marseille","lat":43.33158,"lon":5.37683,"is_reserved":false,"is_disabled":false,"rental_uris":{"android":"levelo://app?vid=b79dabe7-3b43-4999-bc7f-510b5ebe7b35","ios":"levelo://app?vid=b79dabe7-3b43-4999-bc7f-510b5ebe7b35"},"vehicle_type_id":"4","last_reported":1776839333,"current_range_meters":4800,"station_id":"st_d46cu089ee8s73dldbu0","pricing_plan_id":"cebpf4jnsgd1na2vs0mg"},{"bike_id":"17a218ae-0cbc-4023-80f0-9ffddf1324e3","system_id":"levelo_inurba_marseille","lat":43.260356,"lon":5.397998,"is_reserved":false,"is_disabled":false,"rental_uris":{"android":"levelo://app?vid=17a218ae-0cbc-4023-80f0-9ffddf1324e3","ios":"levelo://app?vid=17a218ae-0cbc-4023-80f0-9ffddf1324e3"},"vehicle_type_id":"4","last_reported":1776839333,"current_range_meters":5600,"station_id":"","pricing_plan_id":"cebpf4jnsgd1na2vs0mg"},{"bike_id":"415e0658-223c-4fe0-abd1-f3287f2893c2","system_id":"levelo_inurba_marseille","lat":43.31913,"lon":5.36812,"is_reserved":false,"is_disabled":false,"rental_uris":{"android":"levelo://app?vid=415e0658-223c-4fe0-abd1-f3287f2893c2","ios":"levelo://app?vid=415e0658-223c-4fe0-abd1-f3287f2893c2"},"vehicle_type_id":"4","last_reported":1776839333,"current_range_meters":5600,"station_id":"st_d6o2h0d0559c73evc1b0","pricing_plan_id":"cebpf4jnsgd1na2vs0mg"},{"bike_id":"d420143e-37e9-4bbd-a3bb-322c4c4ad02e","system_id":"levelo_inurba_marseille","lat":43.2795,"lon":5.38705,"is_reserved":false,"is_disabled":false,"rental_uris":{"android":"levelo://app?vid=d420143e-37e9-4bbd-a3bb-322c4c4ad02e","ios":"levelo://app?vid=d420143e-37e9-4bbd-a3bb-322c4c4ad02e"},"vehicle_type_id":"4","last_reported":1776839333,"current_range_meters":5600,"station_id":"ce4bhg12rcd13ifvqf80","pricing_plan_id":"cebpf4jnsgd1na2vs0mg"},{"bike_id":"fa67c282-4320-4694-9944-d25f35222a9c","system_id":"levelo_inurba_marseille","lat":43.30907,"lon":5.37187,"is_reserved":false,"is_disabled":false,"rental_uris":{"android":"levelo://app?vid=fa67c282-4320-4694-9944-d25f35222a9c","ios":"levelo://app?vid=fa67c282-4320-4694-9944-d25f35222a9c"},"vehicle_type_id":"4","last_reported":1776839333,"current_range_meters":5600,"station_id":"ce4bguh2rcd13ifvqckg","pricing_plan_id":"cebpf4jnsgd1na2vs0mg"},{"bike_id":"04d9f990-ead5-466c-adb0-472dbaea3d8d","system_id":"levelo_inurba_marseille","lat":43.26799,"lon":5.40257,"is_reserved":false,"is_disabled":false,"rental_uris":{"android":"levelo://app?vid=04d9f990-ead5-466c-adb0-472dbaea3d8d","ios":"levelo://app?vid=04d9f990-ead5-466c-adb0-472dbaea3d8d"},"vehicle_type_id":"4","last_reported":1776839333,"current_range_meters":5600,"station_id":"ce501612rcd8frsf0b60","pricing_plan_id":"cebpf4jnsgd1na2vs0mg"},{"bike_id":"65e45c12-87d5-4317-974f-69f1aef0f736","system_id":"levelo_inurba_marseille","lat":43.29911,"lon":5.3654,"is_reserved":false,"is_disabled":false,"rental_uris":{"android":"levelo://app?vid=65e45c12-87d5-4317-974f-69f1aef0f736","ios":"levelo://app?vid=65e45c12-87d5-4317-974f-69f1aef0f736"},"vehicle_type_id":"4","last_reported":1776839333,"current_range_meters":5600,"station_id":"ce4bgm92rcd13ifvqbr0","pricing_plan_id":"cebpf4jnsgd1na2vs0mg"},{"bike_id":"c63c9c1d-45c3-4d97-81d2-c75f689c2a9d","system_id":"levelo_inurba_marseille","lat":43.28458,"lon":5.39196,"is_reserved":false,"is_disabled":false,"rental_uris":{"android":"levelo://app?vid=c63c9c1d-45c3-4d97-81d2-c75f689c2a9d","ios":"levelo://app?vid=c63c9c1d-45c3-4d97-81d2-c75f689c2a9d"},"vehicle_type_id":"4","last_reported":1776839333,"current_range_meters":5600,"station_id":"ce4bhoh2rcd13ifvqh5g","pricing_plan_id":"cebpf4jnsgd1na2vs0mg"},{"bike_id":"ef91534f-0d0e-4809-9a35-4375555ab2b5","system_id":"levelo_inurba_marseille","lat":43.3189,"lon":5.36819,"is_reserved":false,"is_disabled":false,"rental_uris":{"android":"levelo://app?vid=ef91534f-0d0e-4809-9a35-4375555ab2b5","ios":"levelo://app?vid=ef91534f-0d0e-4809-9a35-4375555ab2b5"},"vehicle_type_id":"4","last_reported":1776839333,"current_range_meters":5600,"station_id":"st_d6o2h0d0559c73evc1b0","pricing_plan_id":"cebpf4jnsgd1na2vs0mg"},{"bike_id":"4dd90c3a-c53a-454b-ad3a-8e2561f63203","system_id":"levelo_inurba_marseille","lat":43.312301,"lon":5.36869,"is_reserved":false,"is_disabled":false,"rental_uris":{"android":"levelo://app?vid=4dd90c3a-c53a-454b-ad3a-8e2561f63203","ios":"levelo://app?vid=4dd90c3a-c53a-454b-ad3a-8e2561f63203"},"vehicle_type_id":"4","last_reported":1776839333,"current_range_meters":5600,"station_id":"","pricing_plan_id":"cebpf4jnsgd1na2vs0mg"},{"bike_id":"7dd35ff4-45e4-4dd9-8cfd-243db1db3d69","system_id":"levelo_inurba_marseille","lat":43.30118,"lon":5.43111,"is_reserved":false,"is_disabled":false,"rental_uris":{"android":"levelo://app?vid=7dd35ff4-45e4-4dd9-8cfd-243db1db3d69","ios":"levelo://app?vid=7dd35ff4-45e4-4dd9-8cfd-243db1db3d69"},"vehicle_type_id":"4","last_reported":1776839333,"current_range_meters":5600,"station_id":"st_d3js3co5814s73ftftug","pricing_plan_id":"cebpf4jnsgd1na2vs0mg"},{"bike_id":"e2a1074a-f360-403a-b992-0facf71484dc","system_id":"levelo_inurba_marseille","lat":43.301486,"lon":5.380871,"is_reserved":false,"is_disabled":false,"rental_uris":{"android":"levelo://app?vid=e2a1074a-f360-403a-b992-0facf71484dc","ios":"levelo://app?vid=e2a1074a-f360-403a-b992-0facf71484dc"},"vehicle_type_id":"4","last_reported":1776839333,"current_range_meters":5600,"station_id":"ce4bgjp2rcd13ifvqbh0","pricing_plan_id":"cebpf4jnsgd1na2vs0mg"},{"bike_id":"2d40a836-133e-4df4-8e94-64278280c4e2","system_id":"levelo_inurba_marseille","lat":43.28498,"lon":5.48406,"is_reserved":false,"is_disabled":false,"rental_uris":{"android":"levelo://app?vid=2d40a836-133e-4df4-8e94-64278280c4e2","ios":"levelo://app?vid=2d40a836-133e-4df4-8e94-64278280c4e2"},"vehicle_type_id":"4","last_reported":1776839333,"current_range_meters":5600,"station_id":"","pricing_plan_id":"cebpf4jnsgd1na2vs0mg"},{"bike_id":"f8886bac-06e6-4f4e-b567-d0f4cd2b25d3","system_id":"levelo_inurba_marseille","lat":43.2749,"lon":5.42455,"is_reserved":false,"is_disabled":false,"rental_uris":{"android":"levelo://app?vid=f8886bac-06e6-4f4e-b567-d0f4cd2b25d3","ios":"levelo://app?vid=f8886bac-06e6-4f4e-b567-d0f4cd2b25d3"},"vehicle_type_id":"4","last_reported":1776839333,"current_range_meters":6000,"station_id":"ce4bhn92rcd13ifvqgrg","pricing_plan_id":"cebpf4jnsgd1na2vs0mg"},{"bike_id":"53398df8-835b-4ed2-bf08-039bd71fda25","system_id":"levelo_inurba_marseille","lat":43.25928,"lon":5.38592,"is_reserved":false,"is_disabled":false,"rental_uris":{"android":"levelo://app?vid=53398df8-835b-4ed2-bf08-039bd71fda25","ios":"levelo://app?vid=53398df8-835b-4ed2-bf08-039bd71fda25"},"vehicle_type_id":"4","last_reported":1776839333,"current_range_meters":6000,"station_id":"","pricing_plan_id":"cebpf4jnsgd1na2vs0mg"},{"bike_id":"37eae820-b39c-4a10-b9f1-bbf6af567e33","system_id":"levelo_inurba_marseille","lat":43.29605,"lon":5.37722,"is_reserved":false,"is_disabled":false,"rental_uris":{"android":"levelo://app?vid=37eae820-b39c-4a10-b9f1-bbf6af567e33","ios":"levelo://app?vid=37eae820-b39c-4a10-b9f1-bbf6af567e33"},"vehicle_type_id":"4","last_reported":1776839333,"current_range_meters":6000,"station_id":"ce4bgi92rcd13ifvqb90","pricing_plan_id":"cebpf4jnsgd1na2vs0mg"},{"bike_id":"753f20a4-e5da-4367-ad36-baf96fa2dcf5","system_id":"levelo_inurba_marseille","lat":43.29253,"lon":5.40175,"is_reserved":false,"is_disabled":false,"rental_uris":{"android":"levelo://app?vid=753f20a4-e5da-4367-ad36-baf96fa2dcf5","ios":"levelo://app?vid=753f20a4-e5da-4367-ad36-baf96fa2dcf5"},"vehicle_type_id":"4","last_reported":1776839333,"current_range_meters":6000,"station_id":"ce4bh312rcd13ifvqdk0","pricing_plan_id":"cebpf4jnsgd1na2vs0mg"},{"bike_id":"3a696f3b-cb93-42f6-97fb-27cfcc82f5e5","system_id":"levelo_inurba_marseille","lat":43.30373,"lon":5.42485,"is_reserved":false,"is_disabled":false,"rental_uris":{"android":"levelo://app?vid=3a696f3b-cb93-42f6-97fb-27cfcc82f5e5","ios":"levelo://app?vid=3a696f3b-cb93-42f6-97fb-27cfcc82f5e5"},"vehicle_type_id":"4","last_reported":1776839333,"current_range_meters":6000,"station_id":"ce4bhoh2rcd13ifvqh6g","pricing_plan_id":"cebpf4jnsgd1na2vs0mg"},{"bike_id":"0f5955b5-2d9a-4f2a-b15d-69de82cfff6a","system_id":"levelo_inurba_marseille","lat":43.25938,"lon":5.40894,"is_reserved":false,"is_disabled":false,"rental_uris":{"android":"levelo://app?vid=0f5955b5-2d9a-4f2a-b15d-69de82cfff6a","ios":"levelo://app?vid=0f5955b5-2d9a-4f2a-b15d-69de82cfff6a"},"vehicle_type_id":"4","last_reported":1776839333,"current_range_meters":6000,"station_id":"ce4bhm92rcd13ifvqglg","pricing_plan_id":"cebpf4jnsgd1na2vs0mg"},{"bike_id":"529c3939-a117-4e6b-bfff-576bb2e91b92","system_id":"levelo_inurba_marseille","lat":43.30815,"lon":5.38155,"is_reserved":false,"is_disabled":false,"rental_uris":{"android":"levelo://app?vid=529c3939-a117-4e6b-bfff-576bb2e91b92","ios":"levelo://app?vid=529c3939-a117-4e6b-bfff-576bb2e91b92"},"vehicle_type_id":"4","last_reported":1776839333,"current_range_meters":6400,"station_id":"ce4bgt12rcd13ifvqce0","pricing_plan_id":"cebpf4jnsgd1na2vs0mg"},{"bike_id":"909929ad-6150-4e90-9010-fc5021f6e58c","system_id":"levelo_inurba_marseille","lat":43.27212,"lon":5.40106,"is_reserved":false,"is_disabled":false,"rental_uris":{"android":"levelo://app?vid=909929ad-6150-4e90-9010-fc5021f6e58c","ios":"levelo://app?vid=909929ad-6150-4e90-9010-fc5021f6e58c"},"vehicle_type_id":"4","last_reported":1776839333,"current_range_meters":6400,"station_id":"","pricing_plan_id":"cebpf4jnsgd1na2vs0mg"},{"bike_id":"af8a1ef7-3bce-462c-8983-73c0060888a3","system_id":"levelo_inurba_marseille","lat":43.29021,"lon":5.38128,"is_reserved":false,"is_disabled":true,"rental_uris":{"android":"levelo://app?vid=af8a1ef7-3bce-462c-8983-73c0060888a3","ios":"levelo://app?vid=af8a1ef7-3bce-462c-8983-73c0060888a3"},"vehicle_type_id":"4","last_reported":1776839333,"current_range_meters":6400,"station_id":"ce4bh4p2rcd13ifvqe1g","pricing_plan_id":"cebpf4jnsgd1na2vs0mg"},{"bike_id":"0cf9c7d1-4ff6-4885-afdb-1945ed4e0993","system_id":"levelo_inurba_marseille","lat":43.29629,"lon":5.40607,"is_reserved":false,"is_disabled":true,"rental_uris":{"android":"levelo://app?vid=0cf9c7d1-4ff6-4885-afdb-1945ed4e0993","ios":"levelo://app?vid=0cf9c7d1-4ff6-4885-afdb-1945ed4e0993"},"vehicle_type_id":"4","last_reported":1776839333,"current_range_meters":6400,"station_id":"ce4bh0h2rcd13ifvqd60","pricing_plan_id":"cebpf4jnsgd1na2vs0mg"},{"bike_id":"3448f0f4-d448-4b78-8559-0a980538ebbf","system_id":"levelo_inurba_marseille","lat":43.29504,"lon":5.43322,"is_reserved":false,"is_disabled":false,"rental_uris":{"android":"levelo://app?vid=3448f0f4-d448-4b78-8559-0a980538ebbf","ios":"levelo://app?vid=3448f0f4-d448-4b78-8559-0a980538ebbf"},"vehicle_type_id":"4","last_reported":1776839333,"current_range_meters":6400,"station_id":"st_d3j5ugp08ojc73fj9d10","pricing_plan_id":"cebpf4jnsgd1na2vs0mg"},{"bike_id":"42e785f9-651f-4b70-9ec1-9513b77950af","system_id":"levelo_inurba_marseille","lat":43.30458,"lon":5.37906,"is_reserved":false,"is_disabled":false,"rental_uris":{"android":"levelo://app?vid=42e785f9-651f-4b70-9ec1-9513b77950af","ios":"levelo://app?vid=42e785f9-651f-4b70-9ec1-9513b77950af"},"vehicle_type_id":"4","last_reported":1776839333,"current_range_meters":6400,"station_id":"ce4bgup2rcd13ifvqcn0","pricing_plan_id":"cebpf4jnsgd1na2vs0mg"},{"bike_id":"66b27746-f9cb-4fae-968c-2b3856809fae","system_id":"levelo_inurba_marseille","lat":43.30156,"lon":5.38085,"is_reserved":false,"is_disabled":false,"rental_uris":{"android":"levelo://app?vid=66b27746-f9cb-4fae-968c-2b3856809fae","ios":"levelo://app?vid=66b27746-f9cb-4fae-968c-2b3856809fae"},"vehicle_type_id":"4","last_reported":1776839333,"current_range_meters":6400,"station_id":"","pricing_plan_id":"cebpf4jnsgd1na2vs0mg"},{"bike_id":"69904aa1-60b2-4195-a1ba-9cd611f8d3ea","system_id":"levelo_inurba_marseille","lat":43.29845,"lon":5.36262,"is_reserved":false,"is_disabled":false,"rental_uris":{"android":"levelo://app?vid=69904aa1-60b2-4195-a1ba-9cd611f8d3ea","ios":"levelo://app?vid=69904aa1-60b2-4195-a1ba-9cd611f8d3ea"},"vehicle_type_id":"4","last_reported":1776839333,"current_range_meters":6400,"station_id":"ce4bgpp2rcd13ifvqc3g","pricing_plan_id":"cebpf4jnsgd1na2vs0mg"},{"bike_id":"9f90dad8-cb18-4640-8128-3cd479908b0c","system_id":"levelo_inurba_marseille","lat":43.27063,"lon":5.42281,"is_reserved":false,"is_disabled":false,"rental_uris":{"android":"levelo://app?vid=9f90dad8-cb18-4640-8128-3cd479908b0c","ios":"levelo://app?vid=9f90dad8-cb18-4640-8128-3cd479908b0c"},"vehicle_type_id":"4","last_reported":1776839333,"current_range_meters":6400,"station_id":"ce4bhk92rcd13ifvqgb0","pricing_plan_id":"cebpf4jnsgd1na2vs0mg"},{"bike_id":"b07b542a-0fc0-425d-b80b-a15f736ff341","system_id":"levelo_inurba_marseille","lat":43.24388,"lon":5.3706,"is_reserved":false,"is_disabled":false,"rental_uris":{"android":"levelo://app?vid=b07b542a-0fc0-425d-b80b-a15f736ff341","ios":"levelo://app?vid=b07b542a-0fc0-425d-b80b-a15f736ff341"},"vehicle_type_id":"4","last_reported":1776839333,"current_range_meters":6800,"station_id":"ce4bhhh2rcd13ifvqfk0","pricing_plan_id":"cebpf4jnsgd1na2vs0mg"},{"bike_id":"dc6bd17c-d37d-48d7-af1c-7f19d45f8111","system_id":"levelo_inurba_marseille","lat":43.27491,"lon":5.42456,"is_reserved":false,"is_disabled":false,"rental_uris":{"android":"levelo://app?vid=dc6bd17c-d37d-48d7-af1c-7f19d45f8111","ios":"levelo://app?vid=dc6bd17c-d37d-48d7-af1c-7f19d45f8111"},"vehicle_type_id":"4","last_reported":1776839333,"current_range_meters":6800,"station_id":"ce4bhn92rcd13ifvqgrg","pricing_plan_id":"cebpf4jnsgd1na2vs0mg"},{"bike_id":"dcea024f-97b1-48db-99db-04932a6072bf","system_id":"levelo_inurba_marseille","lat":43.30571,"lon":5.36697,"is_reserved":false,"is_disabled":false,"rental_uris":{"android":"levelo://app?vid=dcea024f-97b1-48db-99db-04932a6072bf","ios":"levelo://app?vid=dcea024f-97b1-48db-99db-04932a6072bf"},"vehicle_type_id":"4","last_reported":1776839333,"current_range_meters":6800,"station_id":"ce4bgrp2rcd13ifvqc9g","pricing_plan_id":"cebpf4jnsgd1na2vs0mg"},{"bike_id":"e49b8b33-40d0-498a-a2cb-9e719b491918","system_id":"levelo_inurba_marseille","lat":43.25137,"lon":5.40331,"is_reserved":false,"is_disabled":false,"rental_uris":{"android":"levelo://app?vid=e49b8b33-40d0-498a-a2cb-9e719b491918","ios":"levelo://app?vid=e49b8b33-40d0-498a-a2cb-9e719b491918"},"vehicle_type_id":"4","last_reported":1776839333,"current_range_meters":6800,"station_id":"ce4bhlh2rcd13ifvqgig","pricing_plan_id":"cebpf4jnsgd1na2vs0mg"},{"bike_id":"d9be86bb-6c4e-4c05-bc60-e02431cbb916","system_id":"levelo_inurba_marseille","lat":43.31914,"lon":5.36797,"is_reserved":false,"is_disabled":false,"rental_uris":{"android":"levelo://app?vid=d9be86bb-6c4e-4c05-bc60-e02431cbb916","ios":"levelo://app?vid=d9be86bb-6c4e-4c05-bc60-e02431cbb916"},"vehicle_type_id":"4","last_reported":1776839333,"current_range_meters":6800,"station_id":"st_d6o2h0d0559c73evc1b0","pricing_plan_id":"cebpf4jnsgd1na2vs0mg"},{"bike_id":"110a43e3-4b3f-498e-ad8b-dfa310ff0a28","system_id":"levelo_inurba_marseille","lat":43.29206,"lon":5.39318,"is_reserved":false,"is_disabled":false,"rental_uris":{"android":"levelo://app?vid=110a43e3-4b3f-498e-ad8b-dfa310ff0a28","ios":"levelo://app?vid=110a43e3-4b3f-498e-ad8b-dfa310ff0a28"},"vehicle_type_id":"4","last_reported":1776839333,"current_range_meters":6800,"station_id":"ce4bh192rcd13ifvqdd0","pricing_plan_id":"cebpf4jnsgd1na2vs0mg"},{"bike_id":"d204400f-8745-41a5-b8f3-30b0d4c8bfb2","system_id":"levelo_inurba_marseille","lat":43.31885,"lon":5.36822,"is_reserved":false,"is_disabled":false,"rental_uris":{"android":"levelo://app?vid=d204400f-8745-41a5-b8f3-30b0d4c8bfb2","ios":"levelo://app?vid=d204400f-8745-41a5-b8f3-30b0d4c8bfb2"},"vehicle_type_id":"4","last_reported":1776839333,"current_range_meters":6800,"station_id":"st_d6o2h0d0559c73evc1b0","pricing_plan_id":"cebpf4jnsgd1na2vs0mg"},{"bike_id":"5dca9a8e-83e7-4e4f-baef-b39340f4d785","system_id":"levelo_inurba_marseille","lat":43.29575,"lon":5.39968,"is_reserved":false,"is_disabled":true,"rental_uris":{"android":"levelo://app?vid=5dca9a8e-83e7-4e4f-baef-b39340f4d785","ios":"levelo://app?vid=5dca9a8e-83e7-4e4f-baef-b39340f4d785"},"vehicle_type_id":"4","last_reported":1776839333,"current_range_meters":6800,"station_id":"ce4bh312rcd13ifvqdj0","pricing_plan_id":"cebpf4jnsgd1na2vs0mg"},{"bike_id":"0a9b13b2-0c2f-4a3e-b569-3e3096b39a38","system_id":"levelo_inurba_marseille","lat":43.28082,"lon":5.39672,"is_reserved":false,"is_disabled":false,"rental_uris":{"android":"levelo://app?vid=0a9b13b2-0c2f-4a3e-b569-3e3096b39a38","ios":"levelo://app?vid=0a9b13b2-0c2f-4a3e-b569-3e3096b39a38"},"vehicle_type_id":"4","last_reported":1776839333,"current_range_meters":6800,"station_id":"ce4bho12rcd13ifvqh2g","pricing_plan_id":"cebpf4jnsgd1na2vs0mg"},{"bike_id":"259873a5-a1ea-41b3-8200-d0477284c8f2","system_id":"levelo_inurba_marseille","lat":43.28523,"lon":5.44108,"is_reserved":false,"is_disabled":false,"rental_uris":{"android":"levelo://app?vid=259873a5-a1ea-41b3-8200-d0477284c8f2","ios":"levelo://app?vid=259873a5-a1ea-41b3-8200-d0477284c8f2"},"vehicle_type_id":"4","last_reported":1776839333,"current_range_meters":6800,"station_id":"st_d3j3df2ikq2c7380ej80","pricing_plan_id":"cebpf4jnsgd1na2vs0mg"},{"bike_id":"39f98464-fffc-43ef-b935-0affcc53642d","system_id":"levelo_inurba_marseille","lat":43.27501,"lon":5.42453,"is_reserved":false,"is_disabled":false,"rental_uris":{"android":"levelo://app?vid=39f98464-fffc-43ef-b935-0affcc53642d","ios":"levelo://app?vid=39f98464-fffc-43ef-b935-0affcc53642d"},"vehicle_type_id":"4","last_reported":1776839333,"current_range_meters":6800,"station_id":"ce4bhn92rcd13ifvqgrg","pricing_plan_id":"cebpf4jnsgd1na2vs0mg"},{"bike_id":"badf4622-8d39-4c6d-8e74-cdbf9e168f9d","system_id":"levelo_inurba_marseille","lat":43.25107,"lon":5.40345,"is_reserved":false,"is_disabled":false,"rental_uris":{"android":"levelo://app?vid=badf4622-8d39-4c6d-8e74-cdbf9e168f9d","ios":"levelo://app?vid=badf4622-8d39-4c6d-8e74-cdbf9e168f9d"},"vehicle_type_id":"4","last_reported":1776839333,"current_range_meters":7200,"station_id":"ce4bhlh2rcd13ifvqgig","pricing_plan_id":"cebpf4jnsgd1na2vs0mg"},{"bike_id":"bd459604-67c7-4237-9bf2-68f998d0446e","system_id":"levelo_inurba_marseille","lat":43.24806,"lon":5.37438,"is_reserved":false,"is_disabled":true,"rental_uris":{"android":"levelo://app?vid=bd459604-67c7-4237-9bf2-68f998d0446e","ios":"levelo://app?vid=bd459604-67c7-4237-9bf2-68f998d0446e"},"vehicle_type_id":"4","last_reported":1776839333,"current_range_meters":7200,"station_id":"ce4bhgh2rcd13ifvqfb0","pricing_plan_id":"cebpf4jnsgd1na2vs0mg"},{"bike_id":"be5c4907-57d0-4c67-8ff7-ac26938c6076","system_id":"levelo_inurba_marseille","lat":43.28275,"lon":5.40674,"is_reserved":false,"is_disabled":false,"rental_uris":{"android":"levelo://app?vid=be5c4907-57d0-4c67-8ff7-ac26938c6076","ios":"levelo://app?vid=be5c4907-57d0-4c67-8ff7-ac26938c6076"},"vehicle_type_id":"4","last_reported":1776839333,"current_range_meters":7200,"station_id":"","pricing_plan_id":"cebpf4jnsgd1na2vs0mg"},{"bike_id":"156a9278-c7f8-442d-9b54-2a52d275e0c5","system_id":"levelo_inurba_marseille","lat":43.28623,"lon":5.35093,"is_reserved":false,"is_disabled":true,"rental_uris":{"android":"levelo://app?vid=156a9278-c7f8-442d-9b54-2a52d275e0c5","ios":"levelo://app?vid=156a9278-c7f8-442d-9b54-2a52d275e0c5"},"vehicle_type_id":"4","last_reported":1776839333,"current_range_meters":7200,"station_id":"ce4bhch2rcd13ifvqeug","pricing_plan_id":"cebpf4jnsgd1na2vs0mg"},{"bike_id":"9722310c-fef7-48fb-ab23-f20467cb2e54","system_id":"levelo_inurba_marseille","lat":43.31357,"lon":5.36735,"is_reserved":false,"is_disabled":false,"rental_uris":{"android":"levelo://app?vid=9722310c-fef7-48fb-ab23-f20467cb2e54","ios":"levelo://app?vid=9722310c-fef7-48fb-ab23-f20467cb2e54"},"vehicle_type_id":"4","last_reported":1776839333,"current_range_meters":7200,"station_id":"ce4bgr92rcd13ifvqc6g","pricing_plan_id":"cebpf4jnsgd1na2vs0mg"},{"bike_id":"8194a0ff-2824-43c5-8a22-527fdaa0a136","system_id":"levelo_inurba_marseille","lat":43.27368,"lon":5.40911,"is_reserved":false,"is_disabled":false,"rental_uris":{"android":"levelo://app?vid=8194a0ff-2824-43c5-8a22-527fdaa0a136","ios":"levelo://app?vid=8194a0ff-2824-43c5-8a22-527fdaa0a136"},"vehicle_type_id":"4","last_reported":1776839333,"current_range_meters":7200,"station_id":"","pricing_plan_id":"cebpf4jnsgd1na2vs0mg"},{"bike_id":"a7020a93-7c00-4fec-b1a2-4f1670bbc6d7","system_id":"levelo_inurba_marseille","lat":43.23819,"lon":5.41349,"is_reserved":false,"is_disabled":false,"rental_uris":{"android":"levelo://app?vid=a7020a93-7c00-4fec-b1a2-4f1670bbc6d7","ios":"levelo://app?vid=a7020a93-7c00-4fec-b1a2-4f1670bbc6d7"},"vehicle_type_id":"4","last_reported":1776839333,"current_range_meters":7200,"station_id":"","pricing_plan_id":"cebpf4jnsgd1na2vs0mg"},{"bike_id":"b4edc761-1b99-40dc-97c7-99b75dc7bbaa","system_id":"levelo_inurba_marseille","lat":43.30471,"lon":5.37903,"is_reserved":false,"is_disabled":false,"rental_uris":{"android":"levelo://app?vid=b4edc761-1b99-40dc-97c7-99b75dc7bbaa","ios":"levelo://app?vid=b4edc761-1b99-40dc-97c7-99b75dc7bbaa"},"vehicle_type_id":"4","last_reported":1776839333,"current_range_meters":7200,"station_id":"ce4bgup2rcd13ifvqcn0","pricing_plan_id":"cebpf4jnsgd1na2vs0mg"},{"bike_id":"f3bfc620-e85c-452a-808d-e396fddf4a67","system_id":"levelo_inurba_marseille","lat":43.23179,"lon":5.39965,"is_reserved":false,"is_disabled":false,"rental_uris":{"android":"levelo://app?vid=f3bfc620-e85c-452a-808d-e396fddf4a67","ios":"levelo://app?vid=f3bfc620-e85c-452a-808d-e396fddf4a67"},"vehicle_type_id":"4","last_reported":1776839333,"current_range_meters":7200,"station_id":"ce4bhn12rcd13ifvqgqg","pricing_plan_id":"cebpf4jnsgd1na2vs0mg"},{"bike_id":"ed761e08-542f-4a5b-b90a-fbadba78a245","system_id":"levelo_inurba_marseille","lat":43.28483,"lon":5.38465,"is_reserved":false,"is_disabled":false,"rental_uris":{"android":"levelo://app?vid=ed761e08-542f-4a5b-b90a-fbadba78a245","ios":"levelo://app?vid=ed761e08-542f-4a5b-b90a-fbadba78a245"},"vehicle_type_id":"4","last_reported":1776839333,"current_range_meters":7200,"station_id":"ce4bh512rcd13ifvqe3g","pricing_plan_id":"cebpf4jnsgd1na2vs0mg"},{"bike_id":"727fa24e-903e-4a09-916f-420b7a301e67","system_id":"levelo_inurba_marseille","lat":43.29277,"lon":5.40127,"is_reserved":false,"is_disabled":false,"rental_uris":{"android":"levelo://app?vid=727fa24e-903e-4a09-916f-420b7a301e67","ios":"levelo://app?vid=727fa24e-903e-4a09-916f-420b7a301e67"},"vehicle_type_id":"4","last_reported":1776839333,"current_range_meters":7200,"station_id":"ce4bh312rcd13ifvqdk0","pricing_plan_id":"cebpf4jnsgd1na2vs0mg"},{"bike_id":"beafb519-18ba-43f5-901e-4d2a35f80af8","system_id":"levelo_inurba_marseille","lat":43.24383,"lon":5.37069,"is_reserved":false,"is_disabled":false,"rental_uris":{"android":"levelo://app?vid=beafb519-18ba-43f5-901e-4d2a35f80af8","ios":"levelo://app?vid=beafb519-18ba-43f5-901e-4d2a35f80af8"},"vehicle_type_id":"4","last_reported":1776839333,"current_range_meters":7200,"station_id":"ce4bhhh2rcd13ifvqfk0","pricing_plan_id":"cebpf4jnsgd1na2vs0mg"},{"bike_id":"a5932d33-7fe4-4ab5-ab73-558a4a420627","system_id":"levelo_inurba_marseille","lat":43.24449,"lon":5.40045,"is_reserved":false,"is_disabled":false,"rental_uris":{"android":"levelo://app?vid=a5932d33-7fe4-4ab5-ab73-558a4a420627","ios":"levelo://app?vid=a5932d33-7fe4-4ab5-ab73-558a4a420627"},"vehicle_type_id":"4","last_reported":1776839333,"current_range_meters":7200,"station_id":"","pricing_plan_id":"cebpf4jnsgd1na2vs0mg"},{"bike_id":"bacd3fe4-f48a-4afe-8c9c-99f0f1f340a2","system_id":"levelo_inurba_marseille","lat":43.275,"lon":5.42449,"is_reserved":false,"is_disabled":false,"rental_uris":{"android":"levelo://app?vid=bacd3fe4-f48a-4afe-8c9c-99f0f1f340a2","ios":"levelo://app?vid=bacd3fe4-f48a-4afe-8c9c-99f0f1f340a2"},"vehicle_type_id":"4","last_reported":1776839333,"current_range_meters":8000,"station_id":"ce4bhn92rcd13ifvqgrg","pricing_plan_id":"cebpf4jnsgd1na2vs0mg"},{"bike_id":"04257b95-4499-46e1-a4e3-88ab526291ba","system_id":"levelo_inurba_marseille","lat":43.28477,"lon":5.48402,"is_reserved":false,"is_disabled":false,"rental_uris":{"android":"levelo://app?vid=04257b95-4499-46e1-a4e3-88ab526291ba","ios":"levelo://app?vid=04257b95-4499-46e1-a4e3-88ab526291ba"},"vehicle_type_id":"4","last_reported":1776839333,"current_range_meters":8000,"station_id":"","pricing_plan_id":"cebpf4jnsgd1na2vs0mg"},{"bike_id":"ab441cdc-9cd1-4c8e-b69e-34bb46fece34","system_id":"levelo_inurba_marseille","lat":43.29391,"lon":5.363,"is_reserved":false,"is_disabled":false,"rental_uris":{"android":"levelo://app?vid=ab441cdc-9cd1-4c8e-b69e-34bb46fece34","ios":"levelo://app?vid=ab441cdc-9cd1-4c8e-b69e-34bb46fece34"},"vehicle_type_id":"4","last_reported":1776839333,"current_range_meters":8000,"station_id":"","pricing_plan_id":"cebpf4jnsgd1na2vs0mg"},{"bike_id":"42bc5912-9f51-49f0-a597-ebcfd7df5cbb","system_id":"levelo_inurba_marseille","lat":43.29692,"lon":5.36591,"is_reserved":false,"is_disabled":true,"rental_uris":{"android":"levelo://app?vid=42bc5912-9f51-49f0-a597-ebcfd7df5cbb","ios":"levelo://app?vid=42bc5912-9f51-49f0-a597-ebcfd7df5cbb"},"vehicle_type_id":"4","last_reported":1776839333,"current_range_meters":8000,"station_id":"ce4bgn12rcd13ifvqbt0","pricing_plan_id":"cebpf4jnsgd1na2vs0mg"},{"bike_id":"44e78d66-6974-490b-b477-835e3bc74934","system_id":"levelo_inurba_marseille","lat":43.29008,"lon":5.40007,"is_reserved":false,"is_disabled":false,"rental_uris":{"android":"levelo://app?vid=44e78d66-6974-490b-b477-835e3bc74934","ios":"levelo://app?vid=44e78d66-6974-490b-b477-835e3bc74934"},"vehicle_type_id":"4","last_reported":1776839333,"current_range_meters":8000,"station_id":"ce4bh392rcd13ifvqdm0","pricing_plan_id":"cebpf4jnsgd1na2vs0mg"},{"bike_id":"cf8f3098-1172-4602-86c4-e904ffae9039","system_id":"levelo_inurba_marseille","lat":43.28436,"lon":5.37509,"is_reserved":false,"is_disabled":false,"rental_uris":{"android":"levelo://app?vid=cf8f3098-1172-4602-86c4-e904ffae9039","ios":"levelo://app?vid=cf8f3098-1172-4602-86c4-e904ffae9039"},"vehicle_type_id":"4","last_reported":1776839333,"current_range_meters":8000,"station_id":"ce4bh412rcd13ifvqds0","pricing_plan_id":"cebpf4jnsgd1na2vs0mg"},{"bike_id":"468b098b-8742-43b6-94e4-77df021ec20c","system_id":"levelo_inurba_marseille","lat":43.30739,"lon":5.42445,"is_reserved":false,"is_disabled":false,"rental_uris":{"android":"levelo://app?vid=468b098b-8742-43b6-94e4-77df021ec20c","ios":"levelo://app?vid=468b098b-8742-43b6-94e4-77df021ec20c"},"vehicle_type_id":"4","last_reported":1776839333,"current_range_meters":8000,"station_id":"st_cvj6ca6bvosntc0bfgr0","pricing_plan_id":"cebpf4jnsgd1na2vs0mg"},{"bike_id":"8039cb9a-48d0-4777-8a7e-f7f4b18a83eb","system_id":"levelo_inurba_marseille","lat":43.28861,"lon":5.42511,"is_reserved":false,"is_disabled":false,"rental_uris":{"android":"levelo://app?vid=8039cb9a-48d0-4777-8a7e-f7f4b18a83eb","ios":"levelo://app?vid=8039cb9a-48d0-4777-8a7e-f7f4b18a83eb"},"vehicle_type_id":"4","last_reported":1776839333,"current_range_meters":8000,"station_id":"st_d3b462108ojc7389ooeg","pricing_plan_id":"cebpf4jnsgd1na2vs0mg"},{"bike_id":"1c4db81e-e54e-450a-b910-a202dc639503","system_id":"levelo_inurba_marseille","lat":43.28477,"lon":5.48404,"is_reserved":false,"is_disabled":false,"rental_uris":{"android":"levelo://app?vid=1c4db81e-e54e-450a-b910-a202dc639503","ios":"levelo://app?vid=1c4db81e-e54e-450a-b910-a202dc639503"},"vehicle_type_id":"4","last_reported":1776839333,"current_range_meters":8400,"station_id":"","pricing_plan_id":"cebpf4jnsgd1na2vs0mg"},{"bike_id":"feb26dd7-3413-425b-9845-38ec5180fc46","system_id":"levelo_inurba_marseille","lat":43.29917,"lon":5.38157,"is_reserved":false,"is_disabled":false,"rental_uris":{"android":"levelo://app?vid=feb26dd7-3413-425b-9845-38ec5180fc46","ios":"levelo://app?vid=feb26dd7-3413-425b-9845-38ec5180fc46"},"vehicle_type_id":"4","last_reported":1776839333,"current_range_meters":8400,"station_id":"ce4bgj12rcd13ifvqbc0","pricing_plan_id":"cebpf4jnsgd1na2vs0mg"},{"bike_id":"73d436be-8bb5-400c-b5b8-edfd7e8d5913","system_id":"levelo_inurba_marseille","lat":43.337444,"lon":5.374475,"is_reserved":false,"is_disabled":false,"rental_uris":{"android":"levelo://app?vid=73d436be-8bb5-400c-b5b8-edfd7e8d5913","ios":"levelo://app?vid=73d436be-8bb5-400c-b5b8-edfd7e8d5913"},"vehicle_type_id":"4","last_reported":1776839333,"current_range_meters":8400,"station_id":"ce4bhgp2rcd13ifvqfc0","pricing_plan_id":"cebpf4jnsgd1na2vs0mg"},{"bike_id":"fc83597b-c92a-4d6b-9ec3-85cccb5b70a7","system_id":"levelo_inurba_marseille","lat":43.31947,"lon":5.36822,"is_reserved":false,"is_disabled":false,"rental_uris":{"android":"levelo://app?vid=fc83597b-c92a-4d6b-9ec3-85cccb5b70a7","ios":"levelo://app?vid=fc83597b-c92a-4d6b-9ec3-85cccb5b70a7"},"vehicle_type_id":"4","last_reported":1776839333,"current_range_meters":8400,"station_id":"","pricing_plan_id":"cebpf4jnsgd1na2vs0mg"},{"bike_id":"50918bbe-8b4a-4832-b89d-ffef40c798ba","system_id":"levelo_inurba_marseille","lat":43.32358,"lon":5.36733,"is_reserved":false,"is_disabled":false,"rental_uris":{"android":"levelo://app?vid=50918bbe-8b4a-4832-b89d-ffef40c798ba","ios":"levelo://app?vid=50918bbe-8b4a-4832-b89d-ffef40c798ba"},"vehicle_type_id":"4","last_reported":1776839333,"current_range_meters":8400,"station_id":"ce4bhsh2rcd13ifvqi2g","pricing_plan_id":"cebpf4jnsgd1na2vs0mg"},{"bike_id":"2dc7ba5f-cf35-425c-9994-c11c61fdfa32","system_id":"levelo_inurba_marseille","lat":43.28608,"lon":5.39875,"is_reserved":false,"is_disabled":false,"rental_uris":{"android":"levelo://app?vid=2dc7ba5f-cf35-425c-9994-c11c61fdfa32","ios":"levelo://app?vid=2dc7ba5f-cf35-425c-9994-c11c61fdfa32"},"vehicle_type_id":"4","last_reported":1776839333,"current_range_meters":8400,"station_id":"st_d4a7ka997mjs738ck50g","pricing_plan_id":"cebpf4jnsgd1na2vs0mg"},{"bike_id":"0fb68f94-bfe5-4c08-8e51-03553d5164da","system_id":"levelo_inurba_marseille","lat":43.30529,"lon":5.36721,"is_reserved":false,"is_disabled":false,"rental_uris":{"android":"levelo://app?vid=0fb68f94-bfe5-4c08-8e51-03553d5164da","ios":"levelo://app?vid=0fb68f94-bfe5-4c08-8e51-03553d5164da"},"vehicle_type_id":"4","last_reported":1776839333,"current_range_meters":8400,"station_id":"ce4bgrp2rcd13ifvqc9g","pricing_plan_id":"cebpf4jnsgd1na2vs0mg"},{"bike_id":"a94d236d-eba8-4733-81ef-6d7a05120d94","system_id":"levelo_inurba_marseille","lat":43.24874,"lon":5.39428,"is_reserved":false,"is_disabled":false,"rental_uris":{"android":"levelo://app?vid=a94d236d-eba8-4733-81ef-6d7a05120d94","ios":"levelo://app?vid=a94d236d-eba8-4733-81ef-6d7a05120d94"},"vehicle_type_id":"4","last_reported":1776839333,"current_range_meters":8400,"station_id":"","pricing_plan_id":"cebpf4jnsgd1na2vs0mg"},{"bike_id":"53ac9b94-d2b8-401a-8133-9009372f217e","system_id":"levelo_inurba_marseille","lat":43.28475,"lon":5.48393,"is_reserved":false,"is_disabled":false,"rental_uris":{"android":"levelo://app?vid=53ac9b94-d2b8-401a-8133-9009372f217e","ios":"levelo://app?vid=53ac9b94-d2b8-401a-8133-9009372f217e"},"vehicle_type_id":"4","last_reported":1776839333,"current_range_meters":8400,"station_id":"","pricing_plan_id":"cebpf4jnsgd1na2vs0mg"},{"bike_id":"51e7d8cf-63e3-43c5-b2d1-971f18e79ea6","system_id":"levelo_inurba_marseille","lat":43.30935,"lon":5.40159,"is_reserved":false,"is_disabled":true,"rental_uris":{"android":"levelo://app?vid=51e7d8cf-63e3-43c5-b2d1-971f18e79ea6","ios":"levelo://app?vid=51e7d8cf-63e3-43c5-b2d1-971f18e79ea6"},"vehicle_type_id":"4","last_reported":1776839333,"current_range_meters":8400,"station_id":"ce4bgvp2rcd13ifvqct0","pricing_plan_id":"cebpf4jnsgd1na2vs0mg"},{"bike_id":"86eef9cb-2dad-4d7d-a279-a5e1d3b9daf3","system_id":"levelo_inurba_marseille","lat":43.24811,"lon":5.3746,"is_reserved":false,"is_disabled":false,"rental_uris":{"android":"levelo://app?vid=86eef9cb-2dad-4d7d-a279-a5e1d3b9daf3","ios":"levelo://app?vid=86eef9cb-2dad-4d7d-a279-a5e1d3b9daf3"},"vehicle_type_id":"4","last_reported":1776839333,"current_range_meters":8400,"station_id":"ce4bhgh2rcd13ifvqfb0","pricing_plan_id":"cebpf4jnsgd1na2vs0mg"},{"bike_id":"9abdbfb3-a57e-4aaf-9259-c911332c8021","system_id":"levelo_inurba_marseille","lat":43.24069,"lon":5.37759,"is_reserved":false,"is_disabled":false,"rental_uris":{"android":"levelo://app?vid=9abdbfb3-a57e-4aaf-9259-c911332c8021","ios":"levelo://app?vid=9abdbfb3-a57e-4aaf-9259-c911332c8021"},"vehicle_type_id":"4","last_reported":1776839333,"current_range_meters":8400,"station_id":"ce4bhnp2rcd13ifvqgvg","pricing_plan_id":"cebpf4jnsgd1na2vs0mg"},{"bike_id":"e78c04eb-42fe-48ff-b4a7-8a50b3005232","system_id":"levelo_inurba_marseille","lat":43.27808,"lon":5.40706,"is_reserved":false,"is_disabled":false,"rental_uris":{"android":"levelo://app?vid=e78c04eb-42fe-48ff-b4a7-8a50b3005232","ios":"levelo://app?vid=e78c04eb-42fe-48ff-b4a7-8a50b3005232"},"vehicle_type_id":"4","last_reported":1776839333,"current_range_meters":8400,"station_id":"ce4bhnh2rcd13ifvqgtg","pricing_plan_id":"cebpf4jnsgd1na2vs0mg"},{"bike_id":"6a37b8f2-598c-4865-986b-c1637c9a4546","system_id":"levelo_inurba_marseille","lat":43.23913,"lon":5.37467,"is_reserved":false,"is_disabled":false,"rental_uris":{"android":"levelo://app?vid=6a37b8f2-598c-4865-986b-c1637c9a4546","ios":"levelo://app?vid=6a37b8f2-598c-4865-986b-c1637c9a4546"},"vehicle_type_id":"4","last_reported":1776839333,"current_range_meters":8400,"station_id":"st_d6sm7csbq4hs73f8fpjg","pricing_plan_id":"cebpf4jnsgd1na2vs0mg"},{"bike_id":"059b4ad8-665d-46df-9a3f-e9b9a20a1c99","system_id":"levelo_inurba_marseille","lat":43.33535,"lon":5.37462,"is_reserved":false,"is_disabled":false,"rental_uris":{"android":"levelo://app?vid=059b4ad8-665d-46df-9a3f-e9b9a20a1c99","ios":"levelo://app?vid=059b4ad8-665d-46df-9a3f-e9b9a20a1c99"},"vehicle_type_id":"4","last_reported":1776839333,"current_range_meters":8400,"station_id":"st_d46tts09ee8s73dlu43g","pricing_plan_id":"cebpf4jnsgd1na2vs0mg"},{"bike_id":"bbd14b3e-d541-4989-9575-2ab20aec177e","system_id":"levelo_inurba_marseille","lat":43.29588,"lon":5.39999,"is_reserved":false,"is_disabled":false,"rental_uris":{"android":"levelo://app?vid=bbd14b3e-d541-4989-9575-2ab20aec177e","ios":"levelo://app?vid=bbd14b3e-d541-4989-9575-2ab20aec177e"},"vehicle_type_id":"4","last_reported":1776839333,"current_range_meters":8800,"station_id":"ce4bh312rcd13ifvqdj0","pricing_plan_id":"cebpf4jnsgd1na2vs0mg"},{"bike_id":"1a223201-502c-4ebf-b329-9a8b77fd9946","system_id":"levelo_inurba_marseille","lat":43.27937,"lon":5.41037,"is_reserved":false,"is_disabled":false,"rental_uris":{"android":"levelo://app?vid=1a223201-502c-4ebf-b329-9a8b77fd9946","ios":"levelo://app?vid=1a223201-502c-4ebf-b329-9a8b77fd9946"},"vehicle_type_id":"4","last_reported":1776839333,"current_range_meters":8800,"station_id":"ce4bhnp2rcd13ifvqh0g","pricing_plan_id":"cebpf4jnsgd1na2vs0mg"},{"bike_id":"54158463-085c-499f-9d12-01f94070f32c","system_id":"levelo_inurba_marseille","lat":43.23784,"lon":5.3664,"is_reserved":false,"is_disabled":false,"rental_uris":{"android":"levelo://app?vid=54158463-085c-499f-9d12-01f94070f32c","ios":"levelo://app?vid=54158463-085c-499f-9d12-01f94070f32c"},"vehicle_type_id":"4","last_reported":1776839333,"current_range_meters":8800,"station_id":"st_d3nk18o9ro0c73en2l3g","pricing_plan_id":"cebpf4jnsgd1na2vs0mg"},{"bike_id":"896611a9-601b-4f73-887f-331242128bea","system_id":"levelo_inurba_marseille","lat":43.32637,"lon":5.41028,"is_reserved":false,"is_disabled":false,"rental_uris":{"android":"levelo://app?vid=896611a9-601b-4f73-887f-331242128bea","ios":"levelo://app?vid=896611a9-601b-4f73-887f-331242128bea"},"vehicle_type_id":"4","last_reported":1776839333,"current_range_meters":8800,"station_id":"ce4bhpp2rcd13ifvqhgg","pricing_plan_id":"cebpf4jnsgd1na2vs0mg"},{"bike_id":"ac881409-e7c1-4dc7-868f-5470aa726fd2","system_id":"levelo_inurba_marseille","lat":43.29806,"lon":5.44077,"is_reserved":false,"is_disabled":false,"rental_uris":{"android":"levelo://app?vid=ac881409-e7c1-4dc7-868f-5470aa726fd2","ios":"levelo://app?vid=ac881409-e7c1-4dc7-868f-5470aa726fd2"},"vehicle_type_id":"4","last_reported":1776839333,"current_range_meters":8800,"station_id":"st_d3jp68qikq2c7381ktn0","pricing_plan_id":"cebpf4jnsgd1na2vs0mg"},{"bike_id":"12d1ddb5-1e2c-4b2d-a0d4-dafdec917212","system_id":"levelo_inurba_marseille","lat":43.2849,"lon":5.48406,"is_reserved":false,"is_disabled":false,"rental_uris":{"android":"levelo://app?vid=12d1ddb5-1e2c-4b2d-a0d4-dafdec917212","ios":"levelo://app?vid=12d1ddb5-1e2c-4b2d-a0d4-dafdec917212"},"vehicle_type_id":"4","last_reported":1776839333,"current_range_meters":8800,"station_id":"","pricing_plan_id":"cebpf4jnsgd1na2vs0mg"},{"bike_id":"c7ff1d8c-9f80-4101-92ef-2f0b68fb525f","system_id":"levelo_inurba_marseille","lat":43.27597,"lon":5.39509,"is_reserved":false,"is_disabled":false,"rental_uris":{"android":"levelo://app?vid=c7ff1d8c-9f80-4101-92ef-2f0b68fb525f","ios":"levelo://app?vid=c7ff1d8c-9f80-4101-92ef-2f0b68fb525f"},"vehicle_type_id":"4","last_reported":1776839333,"current_range_meters":8800,"station_id":"","pricing_plan_id":"cebpf4jnsgd1na2vs0mg"},{"bike_id":"d1fda486-70ba-4609-b998-7713b50defe1","system_id":"levelo_inurba_marseille","lat":43.27066,"lon":5.4005,"is_reserved":false,"is_disabled":false,"rental_uris":{"android":"levelo://app?vid=d1fda486-70ba-4609-b998-7713b50defe1","ios":"levelo://app?vid=d1fda486-70ba-4609-b998-7713b50defe1"},"vehicle_type_id":"4","last_reported":1776839333,"current_range_meters":8800,"station_id":"","pricing_plan_id":"cebpf4jnsgd1na2vs0mg"},{"bike_id":"2454bee0-cc06-4d55-ae02-3d3cb3b7c7ec","system_id":"levelo_inurba_marseille","lat":43.28701,"lon":5.39988,"is_reserved":false,"is_disabled":false,"rental_uris":{"android":"levelo://app?vid=2454bee0-cc06-4d55-ae02-3d3cb3b7c7ec","ios":"levelo://app?vid=2454bee0-cc06-4d55-ae02-3d3cb3b7c7ec"},"vehicle_type_id":"4","last_reported":1776839333,"current_range_meters":8800,"station_id":"ce4bho92rcd13ifvqh3g","pricing_plan_id":"cebpf4jnsgd1na2vs0mg"},{"bike_id":"ea54b7f9-00c6-43b1-9a5a-534a8cb9648e","system_id":"levelo_inurba_marseille","lat":43.29815,"lon":5.38542,"is_reserved":false,"is_disabled":false,"rental_uris":{"android":"levelo://app?vid=ea54b7f9-00c6-43b1-9a5a-534a8cb9648e","ios":"levelo://app?vid=ea54b7f9-00c6-43b1-9a5a-534a8cb9648e"},"vehicle_type_id":"4","last_reported":1776839333,"current_range_meters":8800,"station_id":"","pricing_plan_id":"cebpf4jnsgd1na2vs0mg"},{"bike_id":"97640678-22eb-456e-8a6b-8940edbd10ca","system_id":"levelo_inurba_marseille","lat":43.239,"lon":5.41482,"is_reserved":false,"is_disabled":false,"rental_uris":{"android":"levelo://app?vid=97640678-22eb-456e-8a6b-8940edbd10ca","ios":"levelo://app?vid=97640678-22eb-456e-8a6b-8940edbd10ca"},"vehicle_type_id":"4","last_reported":1776839333,"current_range_meters":8800,"station_id":"","pricing_plan_id":"cebpf4jnsgd1na2vs0mg"},{"bike_id":"bd13bc00-12c5-4da2-91ea-ddbdc11a15b7","system_id":"levelo_inurba_marseille","lat":43.28519,"lon":5.40191,"is_reserved":false,"is_disabled":false,"rental_uris":{"android":"levelo://app?vid=bd13bc00-12c5-4da2-91ea-ddbdc11a15b7","ios":"levelo://app?vid=bd13bc00-12c5-4da2-91ea-ddbdc11a15b7"},"vehicle_type_id":"4","last_reported":1776839333,"current_range_meters":8800,"station_id":"","pricing_plan_id":"cebpf4jnsgd1na2vs0mg"},{"bike_id":"13e8a1fb-acbf-4743-869e-4ec5f0dc6c5b","system_id":"levelo_inurba_marseille","lat":43.2707,"lon":5.42318,"is_reserved":false,"is_disabled":false,"rental_uris":{"android":"levelo://app?vid=13e8a1fb-acbf-4743-869e-4ec5f0dc6c5b","ios":"levelo://app?vid=13e8a1fb-acbf-4743-869e-4ec5f0dc6c5b"},"vehicle_type_id":"4","last_reported":1776839333,"current_range_meters":8800,"station_id":"ce4bhk92rcd13ifvqgb0","pricing_plan_id":"cebpf4jnsgd1na2vs0mg"},{"bike_id":"e0e6a07f-23e1-4637-a09e-f939446f08c6","system_id":"levelo_inurba_marseille","lat":43.26687,"lon":5.38251,"is_reserved":false,"is_disabled":false,"rental_uris":{"android":"levelo://app?vid=e0e6a07f-23e1-4637-a09e-f939446f08c6","ios":"levelo://app?vid=e0e6a07f-23e1-4637-a09e-f939446f08c6"},"vehicle_type_id":"4","last_reported":1776839333,"current_range_meters":8800,"station_id":"ce4bhg92rcd13ifvqf90","pricing_plan_id":"cebpf4jnsgd1na2vs0mg"},{"bike_id":"82bcc0e6-14a4-4c90-93f5-0c68b5821945","system_id":"levelo_inurba_marseille","lat":43.2859,"lon":5.39931,"is_reserved":false,"is_disabled":true,"rental_uris":{"android":"levelo://app?vid=82bcc0e6-14a4-4c90-93f5-0c68b5821945","ios":"levelo://app?vid=82bcc0e6-14a4-4c90-93f5-0c68b5821945"},"vehicle_type_id":"4","last_reported":1776839333,"current_range_meters":8800,"station_id":"st_d4a7ka997mjs738ck50g","pricing_plan_id":"cebpf4jnsgd1na2vs0mg"},{"bike_id":"35563f45-cad6-4805-9e21-3917e947ca6c","system_id":"levelo_inurba_marseille","lat":43.306,"lon":5.37234,"is_reserved":false,"is_disabled":false,"rental_uris":{"android":"levelo://app?vid=35563f45-cad6-4805-9e21-3917e947ca6c","ios":"levelo://app?vid=35563f45-cad6-4805-9e21-3917e947ca6c"},"vehicle_type_id":"4","last_reported":1776839333,"current_range_meters":8800,"station_id":"ce4bgqh2rcd13ifvqc4g","pricing_plan_id":"cebpf4jnsgd1na2vs0mg"},{"bike_id":"15cb8c60-d64e-4c9d-844a-c9a0db8ed60b","system_id":"levelo_inurba_marseille","lat":43.2902,"lon":5.40008,"is_reserved":false,"is_disabled":false,"rental_uris":{"android":"levelo://app?vid=15cb8c60-d64e-4c9d-844a-c9a0db8ed60b","ios":"levelo://app?vid=15cb8c60-d64e-4c9d-844a-c9a0db8ed60b"},"vehicle_type_id":"4","last_reported":1776839333,"current_range_meters":8800,"station_id":"ce4bh392rcd13ifvqdm0","pricing_plan_id":"cebpf4jnsgd1na2vs0mg"},{"bike_id":"abaea4b7-03dc-4096-8d8a-e98114f13e15","system_id":"levelo_inurba_marseille","lat":43.31323,"lon":5.39702,"is_reserved":false,"is_disabled":false,"rental_uris":{"android":"levelo://app?vid=abaea4b7-03dc-4096-8d8a-e98114f13e15","ios":"levelo://app?vid=abaea4b7-03dc-4096-8d8a-e98114f13e15"},"vehicle_type_id":"4","last_reported":1776839333,"current_range_meters":8800,"station_id":"ce4bgvp2rcd13ifvqcu0","pricing_plan_id":"cebpf4jnsgd1na2vs0mg"},{"bike_id":"cfcc8dcf-6816-46a1-945d-fdf5ccf50752","system_id":"levelo_inurba_marseille","lat":43.30942,"lon":5.41192,"is_reserved":false,"is_disabled":false,"rental_uris":{"android":"levelo://app?vid=cfcc8dcf-6816-46a1-945d-fdf5ccf50752","ios":"levelo://app?vid=cfcc8dcf-6816-46a1-945d-fdf5ccf50752"},"vehicle_type_id":"4","last_reported":1776839333,"current_range_meters":8800,"station_id":"","pricing_plan_id":"cebpf4jnsgd1na2vs0mg"},{"bike_id":"4ec0d99f-069f-4343-a14e-06b28059e112","system_id":"levelo_inurba_marseille","lat":43.31362,"lon":5.36724,"is_reserved":false,"is_disabled":false,"rental_uris":{"android":"levelo://app?vid=4ec0d99f-069f-4343-a14e-06b28059e112","ios":"levelo://app?vid=4ec0d99f-069f-4343-a14e-06b28059e112"},"vehicle_type_id":"4","last_reported":1776839333,"current_range_meters":8800,"station_id":"ce4bgr92rcd13ifvqc6g","pricing_plan_id":"cebpf4jnsgd1na2vs0mg"},{"bike_id":"c4ce6f17-ac36-4f95-9d2a-b2f1cc934876","system_id":"levelo_inurba_marseille","lat":43.26354,"lon":5.41036,"is_reserved":false,"is_disabled":false,"rental_uris":{"android":"levelo://app?vid=c4ce6f17-ac36-4f95-9d2a-b2f1cc934876","ios":"levelo://app?vid=c4ce6f17-ac36-4f95-9d2a-b2f1cc934876"},"vehicle_type_id":"4","last_reported":1776839333,"current_range_meters":8800,"station_id":"st_d4e5ca6na9uc73bfl5fg","pricing_plan_id":"cebpf4jnsgd1na2vs0mg"},{"bike_id":"80575779-c242-42a2-b57f-fe16e1520a85","system_id":"levelo_inurba_marseille","lat":43.28672,"lon":5.38666,"is_reserved":false,"is_disabled":false,"rental_uris":{"android":"levelo://app?vid=80575779-c242-42a2-b57f-fe16e1520a85","ios":"levelo://app?vid=80575779-c242-42a2-b57f-fe16e1520a85"},"vehicle_type_id":"4","last_reported":1776839333,"current_range_meters":8800,"station_id":"ce4bh492rcd13ifvqdug","pricing_plan_id":"cebpf4jnsgd1na2vs0mg"},{"bike_id":"6ee75b1e-3389-452c-805f-052a7231f6b2","system_id":"levelo_inurba_marseille","lat":43.28855,"lon":5.42516,"is_reserved":false,"is_disabled":false,"rental_uris":{"android":"levelo://app?vid=6ee75b1e-3389-452c-805f-052a7231f6b2","ios":"levelo://app?vid=6ee75b1e-3389-452c-805f-052a7231f6b2"},"vehicle_type_id":"4","last_reported":1776839333,"current_range_meters":9200,"station_id":"st_d3b462108ojc7389ooeg","pricing_plan_id":"cebpf4jnsgd1na2vs0mg"},{"bike_id":"f9f4dea5-fb5a-48a1-a672-5e571cae2d66","system_id":"levelo_inurba_marseille","lat":43.3016,"lon":5.38085,"is_reserved":false,"is_disabled":false,"rental_uris":{"android":"levelo://app?vid=f9f4dea5-fb5a-48a1-a672-5e571cae2d66","ios":"levelo://app?vid=f9f4dea5-fb5a-48a1-a672-5e571cae2d66"},"vehicle_type_id":"4","last_reported":1776839333,"current_range_meters":9200,"station_id":"ce4bgjp2rcd13ifvqbh0","pricing_plan_id":"cebpf4jnsgd1na2vs0mg"},{"bike_id":"226ece2b-87fc-494b-b9b1-29d4f3a23456","system_id":"levelo_inurba_marseille","lat":43.28302,"lon":5.42659,"is_reserved":false,"is_disabled":false,"rental_uris":{"android":"levelo://app?vid=226ece2b-87fc-494b-b9b1-29d4f3a23456","ios":"levelo://app?vid=226ece2b-87fc-494b-b9b1-29d4f3a23456"},"vehicle_type_id":"4","last_reported":1776839333,"current_range_meters":9200,"station_id":"","pricing_plan_id":"cebpf4jnsgd1na2vs0mg"},{"bike_id":"67159039-1b6d-49ff-9ddc-c7a7162462df","system_id":"levelo_inurba_marseille","lat":43.24071,"lon":5.37765,"is_reserved":false,"is_disabled":false,"rental_uris":{"android":"levelo://app?vid=67159039-1b6d-49ff-9ddc-c7a7162462df","ios":"levelo://app?vid=67159039-1b6d-49ff-9ddc-c7a7162462df"},"vehicle_type_id":"4","last_reported":1776839333,"current_range_meters":9200,"station_id":"ce4bhnp2rcd13ifvqgvg","pricing_plan_id":"cebpf4jnsgd1na2vs0mg"},{"bike_id":"f8d46f57-68ae-42a5-9479-ae67d8834276","system_id":"levelo_inurba_marseille","lat":43.29996,"lon":5.37074,"is_reserved":false,"is_disabled":false,"rental_uris":{"android":"levelo://app?vid=f8d46f57-68ae-42a5-9479-ae67d8834276","ios":"levelo://app?vid=f8d46f57-68ae-42a5-9479-ae67d8834276"},"vehicle_type_id":"4","last_reported":1776839333,"current_range_meters":9200,"station_id":"","pricing_plan_id":"cebpf4jnsgd1na2vs0mg"},{"bike_id":"2ac15ea7-1904-4a69-9f5e-f4cb7754354f","system_id":"levelo_inurba_marseille","lat":43.24078,"lon":5.37754,"is_reserved":false,"is_disabled":false,"rental_uris":{"android":"levelo://app?vid=2ac15ea7-1904-4a69-9f5e-f4cb7754354f","ios":"levelo://app?vid=2ac15ea7-1904-4a69-9f5e-f4cb7754354f"},"vehicle_type_id":"4","last_reported":1776839333,"current_range_meters":9200,"station_id":"ce4bhnp2rcd13ifvqgvg","pricing_plan_id":"cebpf4jnsgd1na2vs0mg"},{"bike_id":"6b23908a-27fc-400a-b1b6-9daa8d6ab014","system_id":"levelo_inurba_marseille","lat":43.33707,"lon":5.39819,"is_reserved":false,"is_disabled":false,"rental_uris":{"android":"levelo://app?vid=6b23908a-27fc-400a-b1b6-9daa8d6ab014","ios":"levelo://app?vid=6b23908a-27fc-400a-b1b6-9daa8d6ab014"},"vehicle_type_id":"4","last_reported":1776839333,"current_range_meters":9200,"station_id":"","pricing_plan_id":"cebpf4jnsgd1na2vs0mg"},{"bike_id":"b4f74c97-3f91-4820-ad7f-9c6dd916e9f6","system_id":"levelo_inurba_marseille","lat":43.31359,"lon":5.36724,"is_reserved":false,"is_disabled":false,"rental_uris":{"android":"levelo://app?vid=b4f74c97-3f91-4820-ad7f-9c6dd916e9f6","ios":"levelo://app?vid=b4f74c97-3f91-4820-ad7f-9c6dd916e9f6"},"vehicle_type_id":"4","last_reported":1776839333,"current_range_meters":9200,"station_id":"ce4bgr92rcd13ifvqc6g","pricing_plan_id":"cebpf4jnsgd1na2vs0mg"},{"bike_id":"7e0d6d97-df34-41fe-8fdf-94181453bfbe","system_id":"levelo_inurba_marseille","lat":43.26678,"lon":5.38277,"is_reserved":false,"is_disabled":false,"rental_uris":{"android":"levelo://app?vid=7e0d6d97-df34-41fe-8fdf-94181453bfbe","ios":"levelo://app?vid=7e0d6d97-df34-41fe-8fdf-94181453bfbe"},"vehicle_type_id":"4","last_reported":1776839333,"current_range_meters":9200,"station_id":"ce4bhg92rcd13ifvqf90","pricing_plan_id":"cebpf4jnsgd1na2vs0mg"},{"bike_id":"2a043756-cf7b-4982-be3f-7f5485ea3789","system_id":"levelo_inurba_marseille","lat":43.29504,"lon":5.38742,"is_reserved":false,"is_disabled":false,"rental_uris":{"android":"levelo://app?vid=2a043756-cf7b-4982-be3f-7f5485ea3789","ios":"levelo://app?vid=2a043756-cf7b-4982-be3f-7f5485ea3789"},"vehicle_type_id":"4","last_reported":1776839333,"current_range_meters":9600,"station_id":"","pricing_plan_id":"cebpf4jnsgd1na2vs0mg"},{"bike_id":"d6f0718b-772c-4ed1-b53c-ac520f7ff322","system_id":"levelo_inurba_marseille","lat":43.30153,"lon":5.38074,"is_reserved":false,"is_disabled":false,"rental_uris":{"android":"levelo://app?vid=d6f0718b-772c-4ed1-b53c-ac520f7ff322","ios":"levelo://app?vid=d6f0718b-772c-4ed1-b53c-ac520f7ff322"},"vehicle_type_id":"4","last_reported":1776839333,"current_range_meters":9600,"station_id":"ce4bgjp2rcd13ifvqbh0","pricing_plan_id":"cebpf4jnsgd1na2vs0mg"},{"bike_id":"ead43bb9-0c84-4d4f-999a-008e04f1ef77","system_id":"levelo_inurba_marseille","lat":43.28087,"lon":5.37861,"is_reserved":false,"is_disabled":false,"rental_uris":{"android":"levelo://app?vid=ead43bb9-0c84-4d4f-999a-008e04f1ef77","ios":"levelo://app?vid=ead43bb9-0c84-4d4f-999a-008e04f1ef77"},"vehicle_type_id":"4","last_reported":1776839333,"current_range_meters":9600,"station_id":"ce4bha12rcd13ifvqee0","pricing_plan_id":"cebpf4jnsgd1na2vs0mg"},{"bike_id":"09012acd-7e2a-4e46-b00e-3df38d87fafc","system_id":"levelo_inurba_marseille","lat":43.24868,"lon":5.40646,"is_reserved":false,"is_disabled":false,"rental_uris":{"android":"levelo://app?vid=09012acd-7e2a-4e46-b00e-3df38d87fafc","ios":"levelo://app?vid=09012acd-7e2a-4e46-b00e-3df38d87fafc"},"vehicle_type_id":"4","last_reported":1776839333,"current_range_meters":9600,"station_id":"","pricing_plan_id":"cebpf4jnsgd1na2vs0mg"},{"bike_id":"3e36abd9-8c82-4c8b-91e5-0723067a4e7e","system_id":"levelo_inurba_marseille","lat":43.29635,"lon":5.37164,"is_reserved":false,"is_disabled":false,"rental_uris":{"android":"levelo://app?vid=3e36abd9-8c82-4c8b-91e5-0723067a4e7e","ios":"levelo://app?vid=3e36abd9-8c82-4c8b-91e5-0723067a4e7e"},"vehicle_type_id":"4","last_reported":1776839333,"current_range_meters":9600,"station_id":"ce4bgnh2rcd13ifvqc0g","pricing_plan_id":"cebpf4jnsgd1na2vs0mg"},{"bike_id":"b0292b57-bc6e-4d3d-855f-2c85d8c85123","system_id":"levelo_inurba_marseille","lat":43.29321,"lon":5.36256,"is_reserved":false,"is_disabled":false,"rental_uris":{"android":"levelo://app?vid=b0292b57-bc6e-4d3d-855f-2c85d8c85123","ios":"levelo://app?vid=b0292b57-bc6e-4d3d-855f-2c85d8c85123"},"vehicle_type_id":"4","last_reported":1776839333,"current_range_meters":9600,"station_id":"","pricing_plan_id":"cebpf4jnsgd1na2vs0mg"},{"bike_id":"f073afee-cba8-40f3-8cbe-a4d3aba602f4","system_id":"levelo_inurba_marseille","lat":43.28271,"lon":5.350589,"is_reserved":false,"is_disabled":true,"rental_uris":{"android":"levelo://app?vid=f073afee-cba8-40f3-8cbe-a4d3aba602f4","ios":"levelo://app?vid=f073afee-cba8-40f3-8cbe-a4d3aba602f4"},"vehicle_type_id":"4","last_reported":1776839333,"current_range_meters":9600,"station_id":"ce4bhbp2rcd13ifvqerg","pricing_plan_id":"cebpf4jnsgd1na2vs0mg"},{"bike_id":"16f7fe35-694a-4eb9-9cc6-4679694d07e2","system_id":"levelo_inurba_marseille","lat":43.31237,"lon":5.37915,"is_reserved":false,"is_disabled":false,"rental_uris":{"android":"levelo://app?vid=16f7fe35-694a-4eb9-9cc6-4679694d07e2","ios":"levelo://app?vid=16f7fe35-694a-4eb9-9cc6-4679694d07e2"},"vehicle_type_id":"4","last_reported":1776839333,"current_range_meters":9600,"station_id":"","pricing_plan_id":"cebpf4jnsgd1na2vs0mg"},{"bike_id":"9fb54bca-ba88-4da0-9bed-a5b2efdfb47c","system_id":"levelo_inurba_marseille","lat":43.30294,"lon":5.36916,"is_reserved":false,"is_disabled":false,"rental_uris":{"android":"levelo://app?vid=9fb54bca-ba88-4da0-9bed-a5b2efdfb47c","ios":"levelo://app?vid=9fb54bca-ba88-4da0-9bed-a5b2efdfb47c"},"vehicle_type_id":"4","last_reported":1776839333,"current_range_meters":9600,"station_id":"ce4bgqh2rcd13ifvqc5g","pricing_plan_id":"cebpf4jnsgd1na2vs0mg"},{"bike_id":"b07df4a8-3a84-4a6f-8930-a25b3ebe2fc3","system_id":"levelo_inurba_marseille","lat":43.3102,"lon":5.37718,"is_reserved":false,"is_disabled":false,"rental_uris":{"android":"levelo://app?vid=b07df4a8-3a84-4a6f-8930-a25b3ebe2fc3","ios":"levelo://app?vid=b07df4a8-3a84-4a6f-8930-a25b3ebe2fc3"},"vehicle_type_id":"4","last_reported":1776839333,"current_range_meters":9600,"station_id":"","pricing_plan_id":"cebpf4jnsgd1na2vs0mg"},{"bike_id":"1c21b5e4-18ba-4d77-b990-0019b8294ddb","system_id":"levelo_inurba_marseille","lat":43.2655,"lon":5.39687,"is_reserved":false,"is_disabled":false,"rental_uris":{"android":"levelo://app?vid=1c21b5e4-18ba-4d77-b990-0019b8294ddb","ios":"levelo://app?vid=1c21b5e4-18ba-4d77-b990-0019b8294ddb"},"vehicle_type_id":"4","last_reported":1776839333,"current_range_meters":9600,"station_id":"","pricing_plan_id":"cebpf4jnsgd1na2vs0mg"},{"bike_id":"7af19307-88ba-4f26-8f95-a2adf190dff7","system_id":"levelo_inurba_marseille","lat":43.30439,"lon":5.40098,"is_reserved":false,"is_disabled":false,"rental_uris":{"android":"levelo://app?vid=7af19307-88ba-4f26-8f95-a2adf190dff7","ios":"levelo://app?vid=7af19307-88ba-4f26-8f95-a2adf190dff7"},"vehicle_type_id":"4","last_reported":1776839333,"current_range_meters":9600,"station_id":"","pricing_plan_id":"cebpf4jnsgd1na2vs0mg"},{"bike_id":"3c4a27c4-85d0-4c83-9ce9-29a9d01055d1","system_id":"levelo_inurba_marseille","lat":43.3014,"lon":5.38105,"is_reserved":false,"is_disabled":false,"rental_uris":{"android":"levelo://app?vid=3c4a27c4-85d0-4c83-9ce9-29a9d01055d1","ios":"levelo://app?vid=3c4a27c4-85d0-4c83-9ce9-29a9d01055d1"},"vehicle_type_id":"4","last_reported":1776839333,"current_range_meters":9600,"station_id":"ce4bgjp2rcd13ifvqbh0","pricing_plan_id":"cebpf4jnsgd1na2vs0mg"},{"bike_id":"7c2d4cbd-4710-4158-8d5e-3ef9174bf26f","system_id":"levelo_inurba_marseille","lat":43.28121,"lon":5.42309,"is_reserved":false,"is_disabled":true,"rental_uris":{"android":"levelo://app?vid=7c2d4cbd-4710-4158-8d5e-3ef9174bf26f","ios":"levelo://app?vid=7c2d4cbd-4710-4158-8d5e-3ef9174bf26f"},"vehicle_type_id":"4","last_reported":1776839333,"current_range_meters":9600,"station_id":"","pricing_plan_id":"cebpf4jnsgd1na2vs0mg"},{"bike_id":"ab142f2d-2e4a-4af9-8db9-8277fc35f177","system_id":"levelo_inurba_marseille","lat":43.31486,"lon":5.37301,"is_reserved":false,"is_disabled":false,"rental_uris":{"android":"levelo://app?vid=ab142f2d-2e4a-4af9-8db9-8277fc35f177","ios":"levelo://app?vid=ab142f2d-2e4a-4af9-8db9-8277fc35f177"},"vehicle_type_id":"4","last_reported":1776839333,"current_range_meters":9600,"station_id":"ce4bgt12rcd13ifvqcd0","pricing_plan_id":"cebpf4jnsgd1na2vs0mg"},{"bike_id":"0afa6f25-3789-426c-9c47-3f14c5d58b41","system_id":"levelo_inurba_marseille","lat":43.26194,"lon":5.3745,"is_reserved":false,"is_disabled":true,"rental_uris":{"android":"levelo://app?vid=0afa6f25-3789-426c-9c47-3f14c5d58b41","ios":"levelo://app?vid=0afa6f25-3789-426c-9c47-3f14c5d58b41"},"vehicle_type_id":"4","last_reported":1776839333,"current_range_meters":10000,"station_id":"ce4bhgp2rcd13ifvqfc0","pricing_plan_id":"cebpf4jnsgd1na2vs0mg"},{"bike_id":"6f061c2d-e294-44c5-a556-1fdc3d57ab50","system_id":"levelo_inurba_marseille","lat":43.31681,"lon":5.4048,"is_reserved":false,"is_disabled":false,"rental_uris":{"android":"levelo://app?vid=6f061c2d-e294-44c5-a556-1fdc3d57ab50","ios":"levelo://app?vid=6f061c2d-e294-44c5-a556-1fdc3d57ab50"},"vehicle_type_id":"4","last_reported":1776839333,"current_range_meters":10000,"station_id":"ce4bh012rcd13ifvqd00","pricing_plan_id":"cebpf4jnsgd1na2vs0mg"},{"bike_id":"3f50794c-c430-4b89-94ad-5c0aa9eea65c","system_id":"levelo_inurba_marseille","lat":43.27848,"lon":5.40738,"is_reserved":false,"is_disabled":true,"rental_uris":{"android":"levelo://app?vid=3f50794c-c430-4b89-94ad-5c0aa9eea65c","ios":"levelo://app?vid=3f50794c-c430-4b89-94ad-5c0aa9eea65c"},"vehicle_type_id":"4","last_reported":1776839333,"current_range_meters":10000,"station_id":"ce4bhnh2rcd13ifvqgtg","pricing_plan_id":"cebpf4jnsgd1na2vs0mg"},{"bike_id":"923b87f1-b066-476c-9dac-fbfbdd7a8e12","system_id":"levelo_inurba_marseille","lat":43.27689,"lon":5.39431,"is_reserved":false,"is_disabled":false,"rental_uris":{"android":"levelo://app?vid=923b87f1-b066-476c-9dac-fbfbdd7a8e12","ios":"levelo://app?vid=923b87f1-b066-476c-9dac-fbfbdd7a8e12"},"vehicle_type_id":"4","last_reported":1776839333,"current_range_meters":10000,"station_id":"","pricing_plan_id":"cebpf4jnsgd1na2vs0mg"},{"bike_id":"6ffc15b8-1554-41c5-bb1b-9ba599c4e6bd","system_id":"levelo_inurba_marseille","lat":43.28166,"lon":5.36352,"is_reserved":false,"is_disabled":false,"rental_uris":{"android":"levelo://app?vid=6ffc15b8-1554-41c5-bb1b-9ba599c4e6bd","ios":"levelo://app?vid=6ffc15b8-1554-41c5-bb1b-9ba599c4e6bd"},"vehicle_type_id":"4","last_reported":1776839333,"current_range_meters":10000,"station_id":"","pricing_plan_id":"cebpf4jnsgd1na2vs0mg"},{"bike_id":"500638d0-cf5c-4061-b413-99b5dc6f2377","system_id":"levelo_inurba_marseille","lat":43.27441,"lon":5.42477,"is_reserved":false,"is_disabled":false,"rental_uris":{"android":"levelo://app?vid=500638d0-cf5c-4061-b413-99b5dc6f2377","ios":"levelo://app?vid=500638d0-cf5c-4061-b413-99b5dc6f2377"},"vehicle_type_id":"4","last_reported":1776839333,"current_range_meters":10000,"station_id":"","pricing_plan_id":"cebpf4jnsgd1na2vs0mg"},{"bike_id":"4f245905-520d-4f7e-9b17-d237781987a6","system_id":"levelo_inurba_marseille","lat":43.30538,"lon":5.36713,"is_reserved":false,"is_disabled":false,"rental_uris":{"android":"levelo://app?vid=4f245905-520d-4f7e-9b17-d237781987a6","ios":"levelo://app?vid=4f245905-520d-4f7e-9b17-d237781987a6"},"vehicle_type_id":"4","last_reported":1776839333,"current_range_meters":10000,"station_id":"ce4bgrp2rcd13ifvqc9g","pricing_plan_id":"cebpf4jnsgd1na2vs0mg"},{"bike_id":"32fd39c8-747f-4e51-ab12-cdc3c3974430","system_id":"levelo_inurba_marseille","lat":43.27898,"lon":5.39565,"is_reserved":false,"is_disabled":false,"rental_uris":{"android":"levelo://app?vid=32fd39c8-747f-4e51-ab12-cdc3c3974430","ios":"levelo://app?vid=32fd39c8-747f-4e51-ab12-cdc3c3974430"},"vehicle_type_id":"4","last_reported":1776839333,"current_range_meters":10000,"station_id":"ce4bhf92rcd13ifvqf40","pricing_plan_id":"cebpf4jnsgd1na2vs0mg"},{"bike_id":"cb74c37c-0349-47b3-85df-080ebdd748d7","system_id":"levelo_inurba_marseille","lat":43.26785,"lon":5.37478,"is_reserved":false,"is_disabled":false,"rental_uris":{"android":"levelo://app?vid=cb74c37c-0349-47b3-85df-080ebdd748d7","ios":"levelo://app?vid=cb74c37c-0349-47b3-85df-080ebdd748d7"},"vehicle_type_id":"4","last_reported":1776839333,"current_range_meters":10000,"station_id":"","pricing_plan_id":"cebpf4jnsgd1na2vs0mg"},{"bike_id":"7d1854b7-9a5a-4997-9648-21f9f39210cc","system_id":"levelo_inurba_marseille","lat":43.31352,"lon":5.38508,"is_reserved":false,"is_disabled":false,"rental_uris":{"android":"levelo://app?vid=7d1854b7-9a5a-4997-9648-21f9f39210cc","ios":"levelo://app?vid=7d1854b7-9a5a-4997-9648-21f9f39210cc"},"vehicle_type_id":"4","last_reported":1776839333,"current_range_meters":10000,"station_id":"ce4bgt92rcd13ifvqcf0","pricing_plan_id":"cebpf4jnsgd1na2vs0mg"},{"bike_id":"19433796-61b0-4ae1-b1de-efe9872556df","system_id":"levelo_inurba_marseille","lat":43.28419,"lon":5.37533,"is_reserved":false,"is_disabled":true,"rental_uris":{"android":"levelo://app?vid=19433796-61b0-4ae1-b1de-efe9872556df","ios":"levelo://app?vid=19433796-61b0-4ae1-b1de-efe9872556df"},"vehicle_type_id":"4","last_reported":1776839333,"current_range_meters":10000,"station_id":"ce4bh412rcd13ifvqds0","pricing_plan_id":"cebpf4jnsgd1na2vs0mg"},{"bike_id":"0d8738c8-efd5-4f83-bedf-81eb9a1d6096","system_id":"levelo_inurba_marseille","lat":43.33166,"lon":5.36172,"is_reserved":false,"is_disabled":false,"rental_uris":{"android":"levelo://app?vid=0d8738c8-efd5-4f83-bedf-81eb9a1d6096","ios":"levelo://app?vid=0d8738c8-efd5-4f83-bedf-81eb9a1d6096"},"vehicle_type_id":"4","last_reported":1776839333,"current_range_meters":10000,"station_id":"","pricing_plan_id":"cebpf4jnsgd1na2vs0mg"},{"bike_id":"f1e17ef2-58da-4c6a-aab7-1db097bb104c","system_id":"levelo_inurba_marseille","lat":43.27092,"lon":5.36306,"is_reserved":false,"is_disabled":true,"rental_uris":{"android":"levelo://app?vid=f1e17ef2-58da-4c6a-aab7-1db097bb104c","ios":"levelo://app?vid=f1e17ef2-58da-4c6a-aab7-1db097bb104c"},"vehicle_type_id":"4","last_reported":1776839333,"current_range_meters":10000,"station_id":"","pricing_plan_id":"cebpf4jnsgd1na2vs0mg"},{"bike_id":"25931435-472d-4946-9b9a-fc67e50f018d","system_id":"levelo_inurba_marseille","lat":43.23024,"lon":5.44451,"is_reserved":false,"is_disabled":false,"rental_uris":{"android":"levelo://app?vid=25931435-472d-4946-9b9a-fc67e50f018d","ios":"levelo://app?vid=25931435-472d-4946-9b9a-fc67e50f018d"},"vehicle_type_id":"4","last_reported":1776839333,"current_range_meters":10000,"station_id":"","pricing_plan_id":"cebpf4jnsgd1na2vs0mg"},{"bike_id":"c196994c-5fc4-40ae-9a40-dd553c13c77b","system_id":"levelo_inurba_marseille","lat":43.31276,"lon":5.3685,"is_reserved":false,"is_disabled":false,"rental_uris":{"android":"levelo://app?vid=c196994c-5fc4-40ae-9a40-dd553c13c77b","ios":"levelo://app?vid=c196994c-5fc4-40ae-9a40-dd553c13c77b"},"vehicle_type_id":"4","last_reported":1776839333,"current_range_meters":10000,"station_id":"ce4bgl92rcd13ifvqbq0","pricing_plan_id":"cebpf4jnsgd1na2vs0mg"},{"bike_id":"772652df-39a3-4a7d-ab76-86683fdc6511","system_id":"levelo_inurba_marseille","lat":43.28925,"lon":5.36876,"is_reserved":false,"is_disabled":false,"rental_uris":{"android":"levelo://app?vid=772652df-39a3-4a7d-ab76-86683fdc6511","ios":"levelo://app?vid=772652df-39a3-4a7d-ab76-86683fdc6511"},"vehicle_type_id":"4","last_reported":1776839333,"current_range_meters":10000,"station_id":"","pricing_plan_id":"cebpf4jnsgd1na2vs0mg"},{"bike_id":"4961947c-ae80-4ed4-baac-82b2a45ee6d8","system_id":"levelo_inurba_marseille","lat":43.29274,"lon":5.40121,"is_reserved":false,"is_disabled":false,"rental_uris":{"android":"levelo://app?vid=4961947c-ae80-4ed4-baac-82b2a45ee6d8","ios":"levelo://app?vid=4961947c-ae80-4ed4-baac-82b2a45ee6d8"},"vehicle_type_id":"4","last_reported":1776839333,"current_range_meters":10000,"station_id":"ce4bh312rcd13ifvqdk0","pricing_plan_id":"cebpf4jnsgd1na2vs0mg"},{"bike_id":"e1e3547b-a98c-457d-bb1c-d9d080039439","system_id":"levelo_inurba_marseille","lat":43.26231,"lon":5.40448,"is_reserved":false,"is_disabled":false,"rental_uris":{"android":"levelo://app?vid=e1e3547b-a98c-457d-bb1c-d9d080039439","ios":"levelo://app?vid=e1e3547b-a98c-457d-bb1c-d9d080039439"},"vehicle_type_id":"4","last_reported":1776839333,"current_range_meters":10000,"station_id":"ce4bhmh2rcd13ifvqgmg","pricing_plan_id":"cebpf4jnsgd1na2vs0mg"},{"bike_id":"dc7147ac-dbec-4cec-9368-a4559240fe68","system_id":"levelo_inurba_marseille","lat":43.24346,"lon":5.38488,"is_reserved":false,"is_disabled":false,"rental_uris":{"android":"levelo://app?vid=dc7147ac-dbec-4cec-9368-a4559240fe68","ios":"levelo://app?vid=dc7147ac-dbec-4cec-9368-a4559240fe68"},"vehicle_type_id":"4","last_reported":1776839333,"current_range_meters":10000,"station_id":"","pricing_plan_id":"cebpf4jnsgd1na2vs0mg"},{"bike_id":"8a7f64b1-3554-47ae-aa65-9faf1b37cc44","system_id":"levelo_inurba_marseille","lat":43.29863,"lon":5.3889,"is_reserved":false,"is_disabled":false,"rental_uris":{"android":"levelo://app?vid=8a7f64b1-3554-47ae-aa65-9faf1b37cc44","ios":"levelo://app?vid=8a7f64b1-3554-47ae-aa65-9faf1b37cc44"},"vehicle_type_id":"4","last_reported":1776839333,"current_range_meters":10000,"station_id":"ce4bh392rcd13ifvqdl0","pricing_plan_id":"cebpf4jnsgd1na2vs0mg"},{"bike_id":"34c1cc05-fd1e-4db9-ba55-96061ae29e56","system_id":"levelo_inurba_marseille","lat":43.29782,"lon":5.39357,"is_reserved":false,"is_disabled":false,"rental_uris":{"android":"levelo://app?vid=34c1cc05-fd1e-4db9-ba55-96061ae29e56","ios":"levelo://app?vid=34c1cc05-fd1e-4db9-ba55-96061ae29e56"},"vehicle_type_id":"4","last_reported":1776839333,"current_range_meters":10800,"station_id":"chh1huq6cuj3fo74tm60","pricing_plan_id":"cebpf4jnsgd1na2vs0mg"},{"bike_id":"c9d6a56c-612e-42dd-97a2-0ec073bd10b6","system_id":"levelo_inurba_marseille","lat":43.30414,"lon":5.41286,"is_reserved":false,"is_disabled":true,"rental_uris":{"android":"levelo://app?vid=c9d6a56c-612e-42dd-97a2-0ec073bd10b6","ios":"levelo://app?vid=c9d6a56c-612e-42dd-97a2-0ec073bd10b6"},"vehicle_type_id":"4","last_reported":1776839333,"current_range_meters":10800,"station_id":"ce4bhop2rcd13ifvqh8g","pricing_plan_id":"cebpf4jnsgd1na2vs0mg"},{"bike_id":"97ef517c-a3ac-4c23-a634-ba556e45220a","system_id":"levelo_inurba_marseille","lat":43.29634,"lon":5.37178,"is_reserved":false,"is_disabled":false,"rental_uris":{"android":"levelo://app?vid=97ef517c-a3ac-4c23-a634-ba556e45220a","ios":"levelo://app?vid=97ef517c-a3ac-4c23-a634-ba556e45220a"},"vehicle_type_id":"4","last_reported":1776839333,"current_range_meters":10800,"station_id":"ce4bgnh2rcd13ifvqc0g","pricing_plan_id":"cebpf4jnsgd1na2vs0mg"},{"bike_id":"0d30d1ee-6910-4aa6-9fbb-9e4f13b5fea9","system_id":"levelo_inurba_marseille","lat":43.32093,"lon":5.36812,"is_reserved":false,"is_disabled":false,"rental_uris":{"android":"levelo://app?vid=0d30d1ee-6910-4aa6-9fbb-9e4f13b5fea9","ios":"levelo://app?vid=0d30d1ee-6910-4aa6-9fbb-9e4f13b5fea9"},"vehicle_type_id":"4","last_reported":1776839333,"current_range_meters":10800,"station_id":"ce4bhrh2rcd13ifvqhug","pricing_plan_id":"cebpf4jnsgd1na2vs0mg"},{"bike_id":"52d848d3-e124-40a2-855d-fb7f07415aa4","system_id":"levelo_inurba_marseille","lat":43.28427,"lon":5.37523,"is_reserved":false,"is_disabled":true,"rental_uris":{"android":"levelo://app?vid=52d848d3-e124-40a2-855d-fb7f07415aa4","ios":"levelo://app?vid=52d848d3-e124-40a2-855d-fb7f07415aa4"},"vehicle_type_id":"4","last_reported":1776839333,"current_range_meters":10800,"station_id":"ce4bh412rcd13ifvqds0","pricing_plan_id":"cebpf4jnsgd1na2vs0mg"},{"bike_id":"76f79e84-4e82-417e-b9f7-586af1328d81","system_id":"levelo_inurba_marseille","lat":43.2458,"lon":5.42107,"is_reserved":false,"is_disabled":false,"rental_uris":{"android":"levelo://app?vid=76f79e84-4e82-417e-b9f7-586af1328d81","ios":"levelo://app?vid=76f79e84-4e82-417e-b9f7-586af1328d81"},"vehicle_type_id":"4","last_reported":1776839333,"current_range_meters":10800,"station_id":"","pricing_plan_id":"cebpf4jnsgd1na2vs0mg"},{"bike_id":"f89c6752-4825-4438-9c77-f7c8ada80cbf","system_id":"levelo_inurba_marseille","lat":43.2436,"lon":5.38491,"is_reserved":false,"is_disabled":false,"rental_uris":{"android":"levelo://app?vid=f89c6752-4825-4438-9c77-f7c8ada80cbf","ios":"levelo://app?vid=f89c6752-4825-4438-9c77-f7c8ada80cbf"},"vehicle_type_id":"4","last_reported":1776839333,"current_range_meters":10800,"station_id":"","pricing_plan_id":"cebpf4jnsgd1na2vs0mg"},{"bike_id":"2eb260e9-46bc-4f1a-a81c-8bd42648b75e","system_id":"levelo_inurba_marseille","lat":43.28098,"lon":5.37825,"is_reserved":false,"is_disabled":false,"rental_uris":{"android":"levelo://app?vid=2eb260e9-46bc-4f1a-a81c-8bd42648b75e","ios":"levelo://app?vid=2eb260e9-46bc-4f1a-a81c-8bd42648b75e"},"vehicle_type_id":"4","last_reported":1776839333,"current_range_meters":10800,"station_id":"ce4bha12rcd13ifvqee0","pricing_plan_id":"cebpf4jnsgd1na2vs0mg"},{"bike_id":"c9202557-b1b3-4df6-a011-9eb4e647f73e","system_id":"levelo_inurba_marseille","lat":43.2416,"lon":5.36414,"is_reserved":false,"is_disabled":false,"rental_uris":{"android":"levelo://app?vid=c9202557-b1b3-4df6-a011-9eb4e647f73e","ios":"levelo://app?vid=c9202557-b1b3-4df6-a011-9eb4e647f73e"},"vehicle_type_id":"4","last_reported":1776839333,"current_range_meters":10800,"station_id":"cpo36qri1sfpv3e86is0","pricing_plan_id":"cebpf4jnsgd1na2vs0mg"},{"bike_id":"deb2231e-0861-4602-8eeb-c5067b2ff42f","system_id":"levelo_inurba_marseille","lat":43.27498,"lon":5.42455,"is_reserved":false,"is_disabled":false,"rental_uris":{"android":"levelo://app?vid=deb2231e-0861-4602-8eeb-c5067b2ff42f","ios":"levelo://app?vid=deb2231e-0861-4602-8eeb-c5067b2ff42f"},"vehicle_type_id":"4","last_reported":1776839333,"current_range_meters":10800,"station_id":"ce4bhn92rcd13ifvqgrg","pricing_plan_id":"cebpf4jnsgd1na2vs0mg"},{"bike_id":"dfa9056e-9f33-4218-90b6-c4a06d8b3910","system_id":"levelo_inurba_marseille","lat":43.31877,"lon":5.36829,"is_reserved":false,"is_disabled":false,"rental_uris":{"android":"levelo://app?vid=dfa9056e-9f33-4218-90b6-c4a06d8b3910","ios":"levelo://app?vid=dfa9056e-9f33-4218-90b6-c4a06d8b3910"},"vehicle_type_id":"4","last_reported":1776839333,"current_range_meters":10800,"station_id":"st_d6o2h0d0559c73evc1b0","pricing_plan_id":"cebpf4jnsgd1na2vs0mg"},{"bike_id":"400f7dab-0708-453e-899e-29bcb827f6c6","system_id":"levelo_inurba_marseille","lat":43.30162,"lon":5.38091,"is_reserved":false,"is_disabled":false,"rental_uris":{"android":"levelo://app?vid=400f7dab-0708-453e-899e-29bcb827f6c6","ios":"levelo://app?vid=400f7dab-0708-453e-899e-29bcb827f6c6"},"vehicle_type_id":"4","last_reported":1776839333,"current_range_meters":10800,"station_id":"ce4bgjp2rcd13ifvqbh0","pricing_plan_id":"cebpf4jnsgd1na2vs0mg"},{"bike_id":"ab5c3a45-485c-4ead-9696-6b70c4259c91","system_id":"levelo_inurba_marseille","lat":43.28969,"lon":5.37832,"is_reserved":false,"is_disabled":false,"rental_uris":{"android":"levelo://app?vid=ab5c3a45-485c-4ead-9696-6b70c4259c91","ios":"levelo://app?vid=ab5c3a45-485c-4ead-9696-6b70c4259c91"},"vehicle_type_id":"4","last_reported":1776839333,"current_range_meters":10800,"station_id":"ce4bh9p2rcd13ifvqed0","pricing_plan_id":"cebpf4jnsgd1na2vs0mg"},{"bike_id":"ed8d4cd2-40f0-45ef-a90a-c4da91ce5080","system_id":"levelo_inurba_marseille","lat":43.28428,"lon":5.39192,"is_reserved":false,"is_disabled":false,"rental_uris":{"android":"levelo://app?vid=ed8d4cd2-40f0-45ef-a90a-c4da91ce5080","ios":"levelo://app?vid=ed8d4cd2-40f0-45ef-a90a-c4da91ce5080"},"vehicle_type_id":"4","last_reported":1776839333,"current_range_meters":10800,"station_id":"ce4bhoh2rcd13ifvqh5g","pricing_plan_id":"cebpf4jnsgd1na2vs0mg"},{"bike_id":"46335186-6bd7-4461-9e78-da17046593c8","system_id":"levelo_inurba_marseille","lat":43.28398,"lon":5.38483,"is_reserved":false,"is_disabled":false,"rental_uris":{"android":"levelo://app?vid=46335186-6bd7-4461-9e78-da17046593c8","ios":"levelo://app?vid=46335186-6bd7-4461-9e78-da17046593c8"},"vehicle_type_id":"4","last_reported":1776839333,"current_range_meters":10800,"station_id":"","pricing_plan_id":"cebpf4jnsgd1na2vs0mg"},{"bike_id":"6c821050-c3bb-4ae1-9030-f0c2e04838c9","system_id":"levelo_inurba_marseille","lat":43.23884,"lon":5.37453,"is_reserved":false,"is_disabled":false,"rental_uris":{"android":"levelo://app?vid=6c821050-c3bb-4ae1-9030-f0c2e04838c9","ios":"levelo://app?vid=6c821050-c3bb-4ae1-9030-f0c2e04838c9"},"vehicle_type_id":"4","last_reported":1776839333,"current_range_meters":11200,"station_id":"st_d6sm7csbq4hs73f8fpjg","pricing_plan_id":"cebpf4jnsgd1na2vs0mg"},{"bike_id":"8c0fd33d-09a7-4e33-9517-9cb4cd2b7e31","system_id":"levelo_inurba_marseille","lat":43.29867,"lon":5.38898,"is_reserved":false,"is_disabled":false,"rental_uris":{"android":"levelo://app?vid=8c0fd33d-09a7-4e33-9517-9cb4cd2b7e31","ios":"levelo://app?vid=8c0fd33d-09a7-4e33-9517-9cb4cd2b7e31"},"vehicle_type_id":"4","last_reported":1776839333,"current_range_meters":11200,"station_id":"ce4bh392rcd13ifvqdl0","pricing_plan_id":"cebpf4jnsgd1na2vs0mg"},{"bike_id":"bd9420f4-ce77-4eba-888d-d7f533a816d5","system_id":"levelo_inurba_marseille","lat":43.3015,"lon":5.38083,"is_reserved":false,"is_disabled":false,"rental_uris":{"android":"levelo://app?vid=bd9420f4-ce77-4eba-888d-d7f533a816d5","ios":"levelo://app?vid=bd9420f4-ce77-4eba-888d-d7f533a816d5"},"vehicle_type_id":"4","last_reported":1776839333,"current_range_meters":11200,"station_id":"ce4bgjp2rcd13ifvqbh0","pricing_plan_id":"cebpf4jnsgd1na2vs0mg"},{"bike_id":"9e49397d-b15f-42ca-b438-81f289c696f0","system_id":"levelo_inurba_marseille","lat":43.23122,"lon":5.437,"is_reserved":false,"is_disabled":true,"rental_uris":{"android":"levelo://app?vid=9e49397d-b15f-42ca-b438-81f289c696f0","ios":"levelo://app?vid=9e49397d-b15f-42ca-b438-81f289c696f0"},"vehicle_type_id":"4","last_reported":1776839333,"current_range_meters":11200,"station_id":"ce4bhmp2rcd13ifvqgog","pricing_plan_id":"cebpf4jnsgd1na2vs0mg"},{"bike_id":"f2dc9f36-1c51-47f4-9fcf-11c21e8569e1","system_id":"levelo_inurba_marseille","lat":43.26795,"lon":5.40261,"is_reserved":false,"is_disabled":false,"rental_uris":{"android":"levelo://app?vid=f2dc9f36-1c51-47f4-9fcf-11c21e8569e1","ios":"levelo://app?vid=f2dc9f36-1c51-47f4-9fcf-11c21e8569e1"},"vehicle_type_id":"4","last_reported":1776839333,"current_range_meters":11200,"station_id":"ce501612rcd8frsf0b60","pricing_plan_id":"cebpf4jnsgd1na2vs0mg"},{"bike_id":"68e86292-e11d-49d5-888c-58848729cc3c","system_id":"levelo_inurba_marseille","lat":43.28328,"lon":5.38754,"is_reserved":false,"is_disabled":false,"rental_uris":{"android":"levelo://app?vid=68e86292-e11d-49d5-888c-58848729cc3c","ios":"levelo://app?vid=68e86292-e11d-49d5-888c-58848729cc3c"},"vehicle_type_id":"4","last_reported":1776839333,"current_range_meters":11200,"station_id":"","pricing_plan_id":"cebpf4jnsgd1na2vs0mg"},{"bike_id":"a22050df-25c3-4424-8c45-565af661de82","system_id":"levelo_inurba_marseille","lat":43.28492,"lon":5.48357,"is_reserved":false,"is_disabled":false,"rental_uris":{"android":"levelo://app?vid=a22050df-25c3-4424-8c45-565af661de82","ios":"levelo://app?vid=a22050df-25c3-4424-8c45-565af661de82"},"vehicle_type_id":"4","last_reported":1776839333,"current_range_meters":11200,"station_id":"","pricing_plan_id":"cebpf4jnsgd1na2vs0mg"},{"bike_id":"4eefafd0-0557-4c3a-9619-88b0ed5718eb","system_id":"levelo_inurba_marseille","lat":43.30329,"lon":5.4044,"is_reserved":false,"is_disabled":false,"rental_uris":{"android":"levelo://app?vid=4eefafd0-0557-4c3a-9619-88b0ed5718eb","ios":"levelo://app?vid=4eefafd0-0557-4c3a-9619-88b0ed5718eb"},"vehicle_type_id":"4","last_reported":1776839333,"current_range_meters":11200,"station_id":"ce4bh012rcd13ifvqd10","pricing_plan_id":"cebpf4jnsgd1na2vs0mg"},{"bike_id":"6fdaa5ee-d3a7-40da-ac34-7525c9f17159","system_id":"levelo_inurba_marseille","lat":43.28078,"lon":5.39637,"is_reserved":false,"is_disabled":false,"rental_uris":{"android":"levelo://app?vid=6fdaa5ee-d3a7-40da-ac34-7525c9f17159","ios":"levelo://app?vid=6fdaa5ee-d3a7-40da-ac34-7525c9f17159"},"vehicle_type_id":"4","last_reported":1776839333,"current_range_meters":11200,"station_id":"ce4bho12rcd13ifvqh2g","pricing_plan_id":"cebpf4jnsgd1na2vs0mg"},{"bike_id":"af2f07c2-2765-459d-a576-4ba56a342ba6","system_id":"levelo_inurba_marseille","lat":43.26779,"lon":5.39428,"is_reserved":false,"is_disabled":true,"rental_uris":{"android":"levelo://app?vid=af2f07c2-2765-459d-a576-4ba56a342ba6","ios":"levelo://app?vid=af2f07c2-2765-459d-a576-4ba56a342ba6"},"vehicle_type_id":"4","last_reported":1776839333,"current_range_meters":11200,"station_id":"ce4bhh12rcd13ifvqfg0","pricing_plan_id":"cebpf4jnsgd1na2vs0mg"},{"bike_id":"5d0135cb-5dc2-4e33-85ad-e0c21c572c50","system_id":"levelo_inurba_marseille","lat":43.29489,"lon":5.43305,"is_reserved":false,"is_disabled":false,"rental_uris":{"android":"levelo://app?vid=5d0135cb-5dc2-4e33-85ad-e0c21c572c50","ios":"levelo://app?vid=5d0135cb-5dc2-4e33-85ad-e0c21c572c50"},"vehicle_type_id":"4","last_reported":1776839333,"current_range_meters":11200,"station_id":"st_d3j5ugp08ojc73fj9d10","pricing_plan_id":"cebpf4jnsgd1na2vs0mg"},{"bike_id":"89186ed9-a65f-4018-bd19-6dfa9a8570f7","system_id":"levelo_inurba_marseille","lat":43.2846,"lon":5.39265,"is_reserved":false,"is_disabled":false,"rental_uris":{"android":"levelo://app?vid=89186ed9-a65f-4018-bd19-6dfa9a8570f7","ios":"levelo://app?vid=89186ed9-a65f-4018-bd19-6dfa9a8570f7"},"vehicle_type_id":"4","last_reported":1776839333,"current_range_meters":11200,"station_id":"ce4bhoh2rcd13ifvqh5g","pricing_plan_id":"cebpf4jnsgd1na2vs0mg"},{"bike_id":"ee25626d-ab46-412f-a587-181d46f9799d","system_id":"levelo_inurba_marseille","lat":43.28515,"lon":5.38552,"is_reserved":false,"is_disabled":false,"rental_uris":{"android":"levelo://app?vid=ee25626d-ab46-412f-a587-181d46f9799d","ios":"levelo://app?vid=ee25626d-ab46-412f-a587-181d46f9799d"},"vehicle_type_id":"4","last_reported":1776839333,"current_range_meters":11200,"station_id":"ce4bh8p2rcd13ifvqeb0","pricing_plan_id":"cebpf4jnsgd1na2vs0mg"},{"bike_id":"9c3677d0-627f-49f8-bd9c-64ba96ef4fce","system_id":"levelo_inurba_marseille","lat":43.28466,"lon":5.48381,"is_reserved":false,"is_disabled":false,"rental_uris":{"android":"levelo://app?vid=9c3677d0-627f-49f8-bd9c-64ba96ef4fce","ios":"levelo://app?vid=9c3677d0-627f-49f8-bd9c-64ba96ef4fce"},"vehicle_type_id":"4","last_reported":1776839333,"current_range_meters":11200,"station_id":"","pricing_plan_id":"cebpf4jnsgd1na2vs0mg"},{"bike_id":"c68383f4-900c-4ecc-b43f-c9fb82abb017","system_id":"levelo_inurba_marseille","lat":43.30433,"lon":5.38882,"is_reserved":false,"is_disabled":false,"rental_uris":{"android":"levelo://app?vid=c68383f4-900c-4ecc-b43f-c9fb82abb017","ios":"levelo://app?vid=c68383f4-900c-4ecc-b43f-c9fb82abb017"},"vehicle_type_id":"4","last_reported":1776839333,"current_range_meters":11200,"station_id":"ce4bgk12rcd13ifvqbi0","pricing_plan_id":"cebpf4jnsgd1na2vs0mg"},{"bike_id":"8aba1266-43ed-4424-983f-04374684eebb","system_id":"levelo_inurba_marseille","lat":43.29941,"lon":5.36557,"is_reserved":false,"is_disabled":false,"rental_uris":{"android":"levelo://app?vid=8aba1266-43ed-4424-983f-04374684eebb","ios":"levelo://app?vid=8aba1266-43ed-4424-983f-04374684eebb"},"vehicle_type_id":"4","last_reported":1776839333,"current_range_meters":11200,"station_id":"ce4bgm92rcd13ifvqbr0","pricing_plan_id":"cebpf4jnsgd1na2vs0mg"},{"bike_id":"cce9e933-3790-4ced-9eef-b5ac537ec700","system_id":"levelo_inurba_marseille","lat":43.28646,"lon":5.38351,"is_reserved":false,"is_disabled":false,"rental_uris":{"android":"levelo://app?vid=cce9e933-3790-4ced-9eef-b5ac537ec700","ios":"levelo://app?vid=cce9e933-3790-4ced-9eef-b5ac537ec700"},"vehicle_type_id":"4","last_reported":1776839333,"current_range_meters":11200,"station_id":"","pricing_plan_id":"cebpf4jnsgd1na2vs0mg"},{"bike_id":"48ff8779-6221-4f57-83b2-6b16c84f3d03","system_id":"levelo_inurba_marseille","lat":43.23373,"lon":5.41249,"is_reserved":false,"is_disabled":false,"rental_uris":{"android":"levelo://app?vid=48ff8779-6221-4f57-83b2-6b16c84f3d03","ios":"levelo://app?vid=48ff8779-6221-4f57-83b2-6b16c84f3d03"},"vehicle_type_id":"4","last_reported":1776839333,"current_range_meters":11200,"station_id":"st_d75pvndhf9lc73cqq3eg","pricing_plan_id":"cebpf4jnsgd1na2vs0mg"},{"bike_id":"75da28ab-8813-4425-829f-ceaedfe0d4f6","system_id":"levelo_inurba_marseille","lat":43.23074,"lon":5.35482,"is_reserved":false,"is_disabled":false,"rental_uris":{"android":"levelo://app?vid=75da28ab-8813-4425-829f-ceaedfe0d4f6","ios":"levelo://app?vid=75da28ab-8813-4425-829f-ceaedfe0d4f6"},"vehicle_type_id":"4","last_reported":1776839333,"current_range_meters":11200,"station_id":"cpo3342slgdg3j2ifvpg","pricing_plan_id":"cebpf4jnsgd1na2vs0mg"},{"bike_id":"260a11b4-c72a-4ce9-a016-a96cbacfe433","system_id":"levelo_inurba_marseille","lat":43.29891,"lon":5.38898,"is_reserved":false,"is_disabled":false,"rental_uris":{"android":"levelo://app?vid=260a11b4-c72a-4ce9-a016-a96cbacfe433","ios":"levelo://app?vid=260a11b4-c72a-4ce9-a016-a96cbacfe433"},"vehicle_type_id":"4","last_reported":1776839333,"current_range_meters":11600,"station_id":"ce4bh392rcd13ifvqdl0","pricing_plan_id":"cebpf4jnsgd1na2vs0mg"},{"bike_id":"da67e34a-d0e4-4526-a545-0186ccf69497","system_id":"levelo_inurba_marseille","lat":43.30891,"lon":5.40206,"is_reserved":false,"is_disabled":false,"rental_uris":{"android":"levelo://app?vid=da67e34a-d0e4-4526-a545-0186ccf69497","ios":"levelo://app?vid=da67e34a-d0e4-4526-a545-0186ccf69497"},"vehicle_type_id":"4","last_reported":1776839333,"current_range_meters":11600,"station_id":"ce4bgvp2rcd13ifvqct0","pricing_plan_id":"cebpf4jnsgd1na2vs0mg"},{"bike_id":"d32687e4-1174-4359-ba71-e3002448f282","system_id":"levelo_inurba_marseille","lat":43.31353,"lon":5.39693,"is_reserved":false,"is_disabled":false,"rental_uris":{"android":"levelo://app?vid=d32687e4-1174-4359-ba71-e3002448f282","ios":"levelo://app?vid=d32687e4-1174-4359-ba71-e3002448f282"},"vehicle_type_id":"4","last_reported":1776839333,"current_range_meters":11600,"station_id":"ce4bgvp2rcd13ifvqcu0","pricing_plan_id":"cebpf4jnsgd1na2vs0mg"},{"bike_id":"778fdf4c-a352-4679-a7ab-a0901687d64e","system_id":"levelo_inurba_marseille","lat":43.31102,"lon":5.38755,"is_reserved":false,"is_disabled":false,"rental_uris":{"android":"levelo://app?vid=778fdf4c-a352-4679-a7ab-a0901687d64e","ios":"levelo://app?vid=778fdf4c-a352-4679-a7ab-a0901687d64e"},"vehicle_type_id":"4","last_reported":1776839333,"current_range_meters":11600,"station_id":"","pricing_plan_id":"cebpf4jnsgd1na2vs0mg"},{"bike_id":"efafe04d-4c99-4008-b213-fd769bff4eb0","system_id":"levelo_inurba_marseille","lat":43.29517,"lon":5.39401,"is_reserved":false,"is_disabled":true,"rental_uris":{"android":"levelo://app?vid=efafe04d-4c99-4008-b213-fd769bff4eb0","ios":"levelo://app?vid=efafe04d-4c99-4008-b213-fd769bff4eb0"},