{"last_updated":1752560252,"ttl":60,"version":"2.2","data":{"bikes":[{"bike_id":"feb1ed1d-b0db-45cc-9e1b-7311a8d72058","system_id":"levelo_inurba_marseille","lat":43.33747,"lon":5.37463,"is_reserved":false,"is_disabled":false,"rental_uris":{"android":"levelo://app?vid=feb1ed1d-b0db-45cc-9e1b-7311a8d72058","ios":"levelo://app?vid=feb1ed1d-b0db-45cc-9e1b-7311a8d72058"},"vehicle_type_id":"1","last_reported":1752560253,"current_range_meters":34800,"station_id":"","pricing_plan_id":"cebpf4jnsgd1na2vs0mg"},{"bike_id":"6e0e2f23-6c02-4390-9409-f61e67d0abc9","system_id":"levelo_inurba_marseille","lat":43.28542,"lon":5.37144,"is_reserved":false,"is_disabled":false,"rental_uris":{"android":"levelo://app?vid=6e0e2f23-6c02-4390-9409-f61e67d0abc9","ios":"levelo://app?vid=6e0e2f23-6c02-4390-9409-f61e67d0abc9"},"vehicle_type_id":"4","last_reported":1752560253,"current_range_meters":2800,"station_id":"","pricing_plan_id":"cebpf4jnsgd1na2vs0mg"},{"bike_id":"0a8c3dc3-ac54-4c0b-bc16-f9b2a1bbc1c7","system_id":"levelo_inurba_marseille","lat":43.26984,"lon":5.39316,"is_reserved":false,"is_disabled":false,"rental_uris":{"android":"levelo://app?vid=0a8c3dc3-ac54-4c0b-bc16-f9b2a1bbc1c7","ios":"levelo://app?vid=0a8c3dc3-ac54-4c0b-bc16-f9b2a1bbc1c7"},"vehicle_type_id":"4","last_reported":1752560253,"current_range_meters":2800,"station_id":"","pricing_plan_id":"cebpf4jnsgd1na2vs0mg"},{"bike_id":"7831e717-e1b9-461f-b354-3aa3b04d7538","system_id":"levelo_inurba_marseille","lat":43.29967,"lon":5.38481,"is_reserved":false,"is_disabled":false,"rental_uris":{"android":"levelo://app?vid=7831e717-e1b9-461f-b354-3aa3b04d7538","ios":"levelo://app?vid=7831e717-e1b9-461f-b354-3aa3b04d7538"},"vehicle_type_id":"4","last_reported":1752560253,"current_range_meters":0,"station_id":"ce4bgj92rcd13ifvqbd0","pricing_plan_id":"cebpf4jnsgd1na2vs0mg"},{"bike_id":"c5fe914d-a9c4-4784-aa86-5f55fad6ba5d","system_id":"levelo_inurba_marseille","lat":43.310783,"lon":5.383584,"is_reserved":false,"is_disabled":true,"rental_uris":{"android":"levelo://app?vid=c5fe914d-a9c4-4784-aa86-5f55fad6ba5d","ios":"levelo://app?vid=c5fe914d-a9c4-4784-aa86-5f55fad6ba5d"},"vehicle_type_id":"4","last_reported":1752560253,"current_range_meters":4400,"station_id":"ce4bgv92rcd13ifvqcr0","pricing_plan_id":"cebpf4jnsgd1na2vs0mg"},{"bike_id":"77169138-e071-417d-b9d3-77a62f419884","system_id":"levelo_inurba_marseille","lat":43.30451,"lon":5.39736,"is_reserved":false,"is_disabled":false,"rental_uris":{"android":"levelo://app?vid=77169138-e071-417d-b9d3-77a62f419884","ios":"levelo://app?vid=77169138-e071-417d-b9d3-77a62f419884"},"vehicle_type_id":"4","last_reported":1752560253,"current_range_meters":4400,"station_id":"ce4bh092rcd13ifvqd20","pricing_plan_id":"cebpf4jnsgd1na2vs0mg"},{"bike_id":"4c136979-003e-4527-b11b-751bab038e76","system_id":"levelo_inurba_marseille","lat":43.29282,"lon":5.40125,"is_reserved":false,"is_disabled":false,"rental_uris":{"android":"levelo://app?vid=4c136979-003e-4527-b11b-751bab038e76","ios":"levelo://app?vid=4c136979-003e-4527-b11b-751bab038e76"},"vehicle_type_id":"4","last_reported":1752560253,"current_range_meters":4400,"station_id":"ce4bh312rcd13ifvqdk0","pricing_plan_id":"cebpf4jnsgd1na2vs0mg"},{"bike_id":"14654183-f437-4ab0-ad09-836c2d963eb1","system_id":"levelo_inurba_marseille","lat":43.29508,"lon":5.42418,"is_reserved":false,"is_disabled":true,"rental_uris":{"android":"levelo://app?vid=14654183-f437-4ab0-ad09-836c2d963eb1","ios":"levelo://app?vid=14654183-f437-4ab0-ad09-836c2d963eb1"},"vehicle_type_id":"4","last_reported":1752560253,"current_range_meters":4400,"station_id":"","pricing_plan_id":"cebpf4jnsgd1na2vs0mg"},{"bike_id":"6f603e6b-5437-434c-9780-f1082a040efa","system_id":"levelo_inurba_marseille","lat":43.2562,"lon":5.38729,"is_reserved":false,"is_disabled":false,"rental_uris":{"android":"levelo://app?vid=6f603e6b-5437-434c-9780-f1082a040efa","ios":"levelo://app?vid=6f603e6b-5437-434c-9780-f1082a040efa"},"vehicle_type_id":"4","last_reported":1752560253,"current_range_meters":4800,"station_id":"","pricing_plan_id":"cebpf4jnsgd1na2vs0mg"},{"bike_id":"f23760ff-ab61-4853-aa67-28aac93822c1","system_id":"levelo_inurba_marseille","lat":43.337444,"lon":5.374475,"is_reserved":false,"is_disabled":false,"rental_uris":{"android":"levelo://app?vid=f23760ff-ab61-4853-aa67-28aac93822c1","ios":"levelo://app?vid=f23760ff-ab61-4853-aa67-28aac93822c1"},"vehicle_type_id":"4","last_reported":1752560253,"current_range_meters":4800,"station_id":"","pricing_plan_id":"cebpf4jnsgd1na2vs0mg"},{"bike_id":"7e435c41-890e-4d23-9c5f-05a7d0e68433","system_id":"levelo_inurba_marseille","lat":43.29626,"lon":5.40614,"is_reserved":false,"is_disabled":false,"rental_uris":{"android":"levelo://app?vid=7e435c41-890e-4d23-9c5f-05a7d0e68433","ios":"levelo://app?vid=7e435c41-890e-4d23-9c5f-05a7d0e68433"},"vehicle_type_id":"4","last_reported":1752560253,"current_range_meters":4800,"station_id":"ce4bh0h2rcd13ifvqd60","pricing_plan_id":"cebpf4jnsgd1na2vs0mg"},{"bike_id":"50f053d7-690e-4467-b1df-2a04d6e9d256","system_id":"levelo_inurba_marseille","lat":43.29321,"lon":5.40063,"is_reserved":false,"is_disabled":false,"rental_uris":{"android":"levelo://app?vid=50f053d7-690e-4467-b1df-2a04d6e9d256","ios":"levelo://app?vid=50f053d7-690e-4467-b1df-2a04d6e9d256"},"vehicle_type_id":"4","last_reported":1752560253,"current_range_meters":5600,"station_id":"","pricing_plan_id":"cebpf4jnsgd1na2vs0mg"},{"bike_id":"eac430f0-f31e-44f9-9b29-e0f7b6108abe","system_id":"levelo_inurba_marseille","lat":43.30541,"lon":5.38429,"is_reserved":false,"is_disabled":false,"rental_uris":{"android":"levelo://app?vid=eac430f0-f31e-44f9-9b29-e0f7b6108abe","ios":"levelo://app?vid=eac430f0-f31e-44f9-9b29-e0f7b6108abe"},"vehicle_type_id":"4","last_reported":1752560253,"current_range_meters":6000,"station_id":"ce4bgg92rcd13ifvqb30","pricing_plan_id":"cebpf4jnsgd1na2vs0mg"},{"bike_id":"11316478-3b7d-4e3c-9dc7-4c1ab3f3f879","system_id":"levelo_inurba_marseille","lat":43.29686,"lon":5.37289,"is_reserved":false,"is_disabled":false,"rental_uris":{"android":"levelo://app?vid=11316478-3b7d-4e3c-9dc7-4c1ab3f3f879","ios":"levelo://app?vid=11316478-3b7d-4e3c-9dc7-4c1ab3f3f879"},"vehicle_type_id":"4","last_reported":1752560253,"current_range_meters":5600,"station_id":"ce4bgk12rcd13ifvqbj0","pricing_plan_id":"cebpf4jnsgd1na2vs0mg"},{"bike_id":"c77e3c9b-c93a-47b4-94c1-31331326f1ac","system_id":"levelo_inurba_marseille","lat":43.295586,"lon":5.42291,"is_reserved":false,"is_disabled":false,"rental_uris":{"android":"levelo://app?vid=c77e3c9b-c93a-47b4-94c1-31331326f1ac","ios":"levelo://app?vid=c77e3c9b-c93a-47b4-94c1-31331326f1ac"},"vehicle_type_id":"4","last_reported":1752560253,"current_range_meters":6000,"station_id":"ce4bhph2rcd13ifvqhdg","pricing_plan_id":"cebpf4jnsgd1na2vs0mg"},{"bike_id":"2fc12690-85cf-4214-94f6-be23b1371547","system_id":"levelo_inurba_marseille","lat":43.29205,"lon":5.36047,"is_reserved":false,"is_disabled":false,"rental_uris":{"android":"levelo://app?vid=2fc12690-85cf-4214-94f6-be23b1371547","ios":"levelo://app?vid=2fc12690-85cf-4214-94f6-be23b1371547"},"vehicle_type_id":"4","last_reported":1752560253,"current_range_meters":6400,"station_id":"ce4bhbh2rcd13ifvqeqg","pricing_plan_id":"cebpf4jnsgd1na2vs0mg"},{"bike_id":"78fd1c8a-e791-4498-8838-a85fbcfb68bc","system_id":"levelo_inurba_marseille","lat":43.29278,"lon":5.40121,"is_reserved":false,"is_disabled":false,"rental_uris":{"android":"levelo://app?vid=78fd1c8a-e791-4498-8838-a85fbcfb68bc","ios":"levelo://app?vid=78fd1c8a-e791-4498-8838-a85fbcfb68bc"},"vehicle_type_id":"4","last_reported":1752560253,"current_range_meters":6400,"station_id":"ce4bh312rcd13ifvqdk0","pricing_plan_id":"cebpf4jnsgd1na2vs0mg"},{"bike_id":"becd11bd-7272-4eb9-9dce-5acbefea57c1","system_id":"levelo_inurba_marseille","lat":43.305991,"lon":5.372233,"is_reserved":false,"is_disabled":false,"rental_uris":{"android":"levelo://app?vid=becd11bd-7272-4eb9-9dce-5acbefea57c1","ios":"levelo://app?vid=becd11bd-7272-4eb9-9dce-5acbefea57c1"},"vehicle_type_id":"4","last_reported":1752560253,"current_range_meters":6400,"station_id":"ce4bgqh2rcd13ifvqc4g","pricing_plan_id":"cebpf4jnsgd1na2vs0mg"},{"bike_id":"97116945-f406-4dcc-971e-deff2ff8d4fa","system_id":"levelo_inurba_marseille","lat":43.323648,"lon":5.367684,"is_reserved":false,"is_disabled":false,"rental_uris":{"android":"levelo://app?vid=97116945-f406-4dcc-971e-deff2ff8d4fa","ios":"levelo://app?vid=97116945-f406-4dcc-971e-deff2ff8d4fa"},"vehicle_type_id":"4","last_reported":1752560253,"current_range_meters":6800,"station_id":"ce4bhsh2rcd13ifvqi2g","pricing_plan_id":"cebpf4jnsgd1na2vs0mg"},{"bike_id":"093d88b0-c884-4b3d-9c85-70f15b88a520","system_id":"levelo_inurba_marseille","lat":43.28654,"lon":5.41267,"is_reserved":false,"is_disabled":true,"rental_uris":{"android":"levelo://app?vid=093d88b0-c884-4b3d-9c85-70f15b88a520","ios":"levelo://app?vid=093d88b0-c884-4b3d-9c85-70f15b88a520"},"vehicle_type_id":"4","last_reported":1752560253,"current_range_meters":7200,"station_id":"","pricing_plan_id":"cebpf4jnsgd1na2vs0mg"},{"bike_id":"0179bf21-e753-4323-a63e-d69b5b2b3879","system_id":"levelo_inurba_marseille","lat":43.24644,"lon":5.38899,"is_reserved":false,"is_disabled":true,"rental_uris":{"android":"levelo://app?vid=0179bf21-e753-4323-a63e-d69b5b2b3879","ios":"levelo://app?vid=0179bf21-e753-4323-a63e-d69b5b2b3879"},"vehicle_type_id":"4","last_reported":1752560253,"current_range_meters":7200,"station_id":"ce4bhg12rcd13ifvqf60","pricing_plan_id":"cebpf4jnsgd1na2vs0mg"},{"bike_id":"2c66c6a3-c3a9-4faf-bc13-2dec19484e98","system_id":"levelo_inurba_marseille","lat":43.30385,"lon":5.42482,"is_reserved":false,"is_disabled":false,"rental_uris":{"android":"levelo://app?vid=2c66c6a3-c3a9-4faf-bc13-2dec19484e98","ios":"levelo://app?vid=2c66c6a3-c3a9-4faf-bc13-2dec19484e98"},"vehicle_type_id":"4","last_reported":1752560253,"current_range_meters":7200,"station_id":"ce4bhoh2rcd13ifvqh6g","pricing_plan_id":"cebpf4jnsgd1na2vs0mg"},{"bike_id":"7021049d-f452-44c4-9743-f1a9eaab5443","system_id":"levelo_inurba_marseille","lat":43.295265,"lon":5.390369,"is_reserved":false,"is_disabled":false,"rental_uris":{"android":"levelo://app?vid=7021049d-f452-44c4-9743-f1a9eaab5443","ios":"levelo://app?vid=7021049d-f452-44c4-9743-f1a9eaab5443"},"vehicle_type_id":"4","last_reported":1752560253,"current_range_meters":8000,"station_id":"","pricing_plan_id":"cebpf4jnsgd1na2vs0mg"},{"bike_id":"21e4850d-b049-4411-adc4-b58334ff7b41","system_id":"levelo_inurba_marseille","lat":43.30549,"lon":5.36557,"is_reserved":false,"is_disabled":false,"rental_uris":{"android":"levelo://app?vid=21e4850d-b049-4411-adc4-b58334ff7b41","ios":"levelo://app?vid=21e4850d-b049-4411-adc4-b58334ff7b41"},"vehicle_type_id":"4","last_reported":1752560253,"current_range_meters":8000,"station_id":"ce4bgs12rcd13ifvqcag","pricing_plan_id":"cebpf4jnsgd1na2vs0mg"},{"bike_id":"07b80ba8-94f7-4006-b883-d44157aa02a8","system_id":"levelo_inurba_marseille","lat":43.211961,"lon":5.350643,"is_reserved":false,"is_disabled":false,"rental_uris":{"android":"levelo://app?vid=07b80ba8-94f7-4006-b883-d44157aa02a8","ios":"levelo://app?vid=07b80ba8-94f7-4006-b883-d44157aa02a8"},"vehicle_type_id":"4","last_reported":1752560253,"current_range_meters":8000,"station_id":"st_cvj6sg6p6f1abm77japg","pricing_plan_id":"cebpf4jnsgd1na2vs0mg"},{"bike_id":"7203c0d5-ea15-46c1-805c-8ecc9fe7f557","system_id":"levelo_inurba_marseille","lat":43.22504,"lon":5.34779,"is_reserved":false,"is_disabled":false,"rental_uris":{"android":"levelo://app?vid=7203c0d5-ea15-46c1-805c-8ecc9fe7f557","ios":"levelo://app?vid=7203c0d5-ea15-46c1-805c-8ecc9fe7f557"},"vehicle_type_id":"4","last_reported":1752560253,"current_range_meters":8000,"station_id":"st_cvj5dfep6f1abm77gieg","pricing_plan_id":"cebpf4jnsgd1na2vs0mg"},{"bike_id":"58375fde-ca97-4dab-be52-59caf98323d3","system_id":"levelo_inurba_marseille","lat":43.26557,"lon":5.3729,"is_reserved":false,"is_disabled":false,"rental_uris":{"android":"levelo://app?vid=58375fde-ca97-4dab-be52-59caf98323d3","ios":"levelo://app?vid=58375fde-ca97-4dab-be52-59caf98323d3"},"vehicle_type_id":"4","last_reported":1752560253,"current_range_meters":8000,"station_id":"ce4bhg12rcd13ifvqf70","pricing_plan_id":"cebpf4jnsgd1na2vs0mg"},{"bike_id":"07628e3f-43fa-45d4-9096-3dd5df51cd69","system_id":"levelo_inurba_marseille","lat":43.25002,"lon":5.38927,"is_reserved":false,"is_disabled":false,"rental_uris":{"android":"levelo://app?vid=07628e3f-43fa-45d4-9096-3dd5df51cd69","ios":"levelo://app?vid=07628e3f-43fa-45d4-9096-3dd5df51cd69"},"vehicle_type_id":"4","last_reported":1752560253,"current_range_meters":8000,"station_id":"ce4bhgp2rcd13ifvqfd0","pricing_plan_id":"cebpf4jnsgd1na2vs0mg"},{"bike_id":"7b7fb125-1e21-4d9b-b9b6-967459d426be","system_id":"levelo_inurba_marseille","lat":43.30324,"lon":5.40457,"is_reserved":false,"is_disabled":false,"rental_uris":{"android":"levelo://app?vid=7b7fb125-1e21-4d9b-b9b6-967459d426be","ios":"levelo://app?vid=7b7fb125-1e21-4d9b-b9b6-967459d426be"},"vehicle_type_id":"4","last_reported":1752560253,"current_range_meters":8400,"station_id":"ce4bh012rcd13ifvqd10","pricing_plan_id":"cebpf4jnsgd1na2vs0mg"},{"bike_id":"930c144e-fb2b-4526-9386-3ed01e1c6cca","system_id":"levelo_inurba_marseille","lat":43.29653,"lon":5.40616,"is_reserved":false,"is_disabled":false,"rental_uris":{"android":"levelo://app?vid=930c144e-fb2b-4526-9386-3ed01e1c6cca","ios":"levelo://app?vid=930c144e-fb2b-4526-9386-3ed01e1c6cca"},"vehicle_type_id":"4","last_reported":1752560253,"current_range_meters":8400,"station_id":"ce4bh0h2rcd13ifvqd60","pricing_plan_id":"cebpf4jnsgd1na2vs0mg"},{"bike_id":"d916aace-830c-451e-a376-c1312f1fc6af","system_id":"levelo_inurba_marseille","lat":43.22512,"lon":5.34767,"is_reserved":false,"is_disabled":false,"rental_uris":{"android":"levelo://app?vid=d916aace-830c-451e-a376-c1312f1fc6af","ios":"levelo://app?vid=d916aace-830c-451e-a376-c1312f1fc6af"},"vehicle_type_id":"4","last_reported":1752560253,"current_range_meters":8400,"station_id":"st_cvj5dfep6f1abm77gieg","pricing_plan_id":"cebpf4jnsgd1na2vs0mg"},{"bike_id":"39dce06d-1ef7-48f7-9c9b-40b259869ec1","system_id":"levelo_inurba_marseille","lat":43.33582,"lon":5.40973,"is_reserved":false,"is_disabled":false,"rental_uris":{"android":"levelo://app?vid=39dce06d-1ef7-48f7-9c9b-40b259869ec1","ios":"levelo://app?vid=39dce06d-1ef7-48f7-9c9b-40b259869ec1"},"vehicle_type_id":"4","last_reported":1752560253,"current_range_meters":8400,"station_id":"","pricing_plan_id":"cebpf4jnsgd1na2vs0mg"},{"bike_id":"ea07ccd5-4bc0-429f-86b0-041e02908e66","system_id":"levelo_inurba_marseille","lat":43.29294,"lon":5.40129,"is_reserved":false,"is_disabled":false,"rental_uris":{"android":"levelo://app?vid=ea07ccd5-4bc0-429f-86b0-041e02908e66","ios":"levelo://app?vid=ea07ccd5-4bc0-429f-86b0-041e02908e66"},"vehicle_type_id":"4","last_reported":1752560253,"current_range_meters":8800,"station_id":"ce4bh312rcd13ifvqdk0","pricing_plan_id":"cebpf4jnsgd1na2vs0mg"},{"bike_id":"a6177175-8e64-4752-9094-36de58f53c1d","system_id":"levelo_inurba_marseille","lat":43.320421,"lon":5.41551,"is_reserved":false,"is_disabled":false,"rental_uris":{"android":"levelo://app?vid=a6177175-8e64-4752-9094-36de58f53c1d","ios":"levelo://app?vid=a6177175-8e64-4752-9094-36de58f53c1d"},"vehicle_type_id":"4","last_reported":1752560253,"current_range_meters":9200,"station_id":"ce4bhq92rcd13ifvqhkg","pricing_plan_id":"cebpf4jnsgd1na2vs0mg"},{"bike_id":"1fbaf219-67be-45b8-aacc-64d6722df546","system_id":"levelo_inurba_marseille","lat":43.29024,"lon":5.38649,"is_reserved":false,"is_disabled":true,"rental_uris":{"android":"levelo://app?vid=1fbaf219-67be-45b8-aacc-64d6722df546","ios":"levelo://app?vid=1fbaf219-67be-45b8-aacc-64d6722df546"},"vehicle_type_id":"4","last_reported":1752560253,"current_range_meters":9200,"station_id":"ce4bh4p2rcd13ifvqe0g","pricing_plan_id":"cebpf4jnsgd1na2vs0mg"},{"bike_id":"4026c91c-d6e8-4686-b762-11d3714cecf8","system_id":"levelo_inurba_marseille","lat":43.29259,"lon":5.3592,"is_reserved":false,"is_disabled":true,"rental_uris":{"android":"levelo://app?vid=4026c91c-d6e8-4686-b762-11d3714cecf8","ios":"levelo://app?vid=4026c91c-d6e8-4686-b762-11d3714cecf8"},"vehicle_type_id":"4","last_reported":1752560253,"current_range_meters":9200,"station_id":"","pricing_plan_id":"cebpf4jnsgd1na2vs0mg"},{"bike_id":"0c293337-481a-4856-9010-47007468e0fd","system_id":"levelo_inurba_marseille","lat":43.3672,"lon":5.34831,"is_reserved":false,"is_disabled":false,"rental_uris":{"android":"levelo://app?vid=0c293337-481a-4856-9010-47007468e0fd","ios":"levelo://app?vid=0c293337-481a-4856-9010-47007468e0fd"},"vehicle_type_id":"4","last_reported":1752560253,"current_range_meters":9200,"station_id":"","pricing_plan_id":"cebpf4jnsgd1na2vs0mg"},{"bike_id":"39f26311-25a3-44ef-8923-c453831dd27b","system_id":"levelo_inurba_marseille","lat":43.29648,"lon":5.40609,"is_reserved":false,"is_disabled":false,"rental_uris":{"android":"levelo://app?vid=39f26311-25a3-44ef-8923-c453831dd27b","ios":"levelo://app?vid=39f26311-25a3-44ef-8923-c453831dd27b"},"vehicle_type_id":"4","last_reported":1752560253,"current_range_meters":9600,"station_id":"ce4bh0h2rcd13ifvqd60","pricing_plan_id":"cebpf4jnsgd1na2vs0mg"},{"bike_id":"c14947c2-7b5b-4c03-b04b-d7f22fccfd67","system_id":"levelo_inurba_marseille","lat":43.21199,"lon":5.35069,"is_reserved":false,"is_disabled":false,"rental_uris":{"android":"levelo://app?vid=c14947c2-7b5b-4c03-b04b-d7f22fccfd67","ios":"levelo://app?vid=c14947c2-7b5b-4c03-b04b-d7f22fccfd67"},"vehicle_type_id":"4","last_reported":1752560253,"current_range_meters":9600,"station_id":"st_cvj6sg6p6f1abm77japg","pricing_plan_id":"cebpf4jnsgd1na2vs0mg"},{"bike_id":"8a01e88a-8371-4085-9838-47ae11897cd3","system_id":"levelo_inurba_marseille","lat":43.28153,"lon":5.42652,"is_reserved":false,"is_disabled":true,"rental_uris":{"android":"levelo://app?vid=8a01e88a-8371-4085-9838-47ae11897cd3","ios":"levelo://app?vid=8a01e88a-8371-4085-9838-47ae11897cd3"},"vehicle_type_id":"4","last_reported":1752560253,"current_range_meters":9600,"station_id":"ce4bhnh2rcd13ifvqgug","pricing_plan_id":"cebpf4jnsgd1na2vs0mg"},{"bike_id":"088e6b1d-8a81-47e0-9ad0-36233ed399c0","system_id":"levelo_inurba_marseille","lat":43.27948,"lon":5.39615,"is_reserved":false,"is_disabled":true,"rental_uris":{"android":"levelo://app?vid=088e6b1d-8a81-47e0-9ad0-36233ed399c0","ios":"levelo://app?vid=088e6b1d-8a81-47e0-9ad0-36233ed399c0"},"vehicle_type_id":"4","last_reported":1752560253,"current_range_meters":9600,"station_id":"ce4bhf92rcd13ifvqf40","pricing_plan_id":"cebpf4jnsgd1na2vs0mg"},{"bike_id":"ffa5ccb4-905c-4e50-802b-1c1f9b2cbe03","system_id":"levelo_inurba_marseille","lat":43.21187,"lon":5.35064,"is_reserved":false,"is_disabled":true,"rental_uris":{"android":"levelo://app?vid=ffa5ccb4-905c-4e50-802b-1c1f9b2cbe03","ios":"levelo://app?vid=ffa5ccb4-905c-4e50-802b-1c1f9b2cbe03"},"vehicle_type_id":"4","last_reported":1752560253,"current_range_meters":10000,"station_id":"st_cvj6sg6p6f1abm77japg","pricing_plan_id":"cebpf4jnsgd1na2vs0mg"},{"bike_id":"9b1afee0-5d71-42b1-bfb3-0f11fa1e097d","system_id":"levelo_inurba_marseille","lat":43.292534,"lon":5.376396,"is_reserved":false,"is_disabled":false,"rental_uris":{"android":"levelo://app?vid=9b1afee0-5d71-42b1-bfb3-0f11fa1e097d","ios":"levelo://app?vid=9b1afee0-5d71-42b1-bfb3-0f11fa1e097d"},"vehicle_type_id":"4","last_reported":1752560253,"current_range_meters":10000,"station_id":"","pricing_plan_id":"cebpf4jnsgd1na2vs0mg"},{"bike_id":"a4d07f45-19f9-4df9-9728-be6623530a64","system_id":"levelo_inurba_marseille","lat":43.237145,"lon":5.388364,"is_reserved":false,"is_disabled":false,"rental_uris":{"android":"levelo://app?vid=a4d07f45-19f9-4df9-9728-be6623530a64","ios":"levelo://app?vid=a4d07f45-19f9-4df9-9728-be6623530a64"},"vehicle_type_id":"4","last_reported":1752560253,"current_range_meters":10000,"station_id":"","pricing_plan_id":"cebpf4jnsgd1na2vs0mg"},{"bike_id":"e91ced2f-2041-4b38-8446-0d5d97adec95","system_id":"levelo_inurba_marseille","lat":43.255761,"lon":5.382331,"is_reserved":false,"is_disabled":true,"rental_uris":{"android":"levelo://app?vid=e91ced2f-2041-4b38-8446-0d5d97adec95","ios":"levelo://app?vid=e91ced2f-2041-4b38-8446-0d5d97adec95"},"vehicle_type_id":"4","last_reported":1752560253,"current_range_meters":10000,"station_id":"ce4bhih2rcd13ifvqfs0","pricing_plan_id":"cebpf4jnsgd1na2vs0mg"},{"bike_id":"1e52cfe4-daa6-4f6d-b89a-ac2b466be504","system_id":"levelo_inurba_marseille","lat":43.28727,"lon":5.39986,"is_reserved":false,"is_disabled":false,"rental_uris":{"android":"levelo://app?vid=1e52cfe4-daa6-4f6d-b89a-ac2b466be504","ios":"levelo://app?vid=1e52cfe4-daa6-4f6d-b89a-ac2b466be504"},"vehicle_type_id":"4","last_reported":1752560253,"current_range_meters":10000,"station_id":"ce4bho92rcd13ifvqh3g","pricing_plan_id":"cebpf4jnsgd1na2vs0mg"},{"bike_id":"856f2d23-2d4b-4e7d-9b18-dff24c595dd3","system_id":"levelo_inurba_marseille","lat":43.26779,"lon":5.3943,"is_reserved":false,"is_disabled":false,"rental_uris":{"android":"levelo://app?vid=856f2d23-2d4b-4e7d-9b18-dff24c595dd3","ios":"levelo://app?vid=856f2d23-2d4b-4e7d-9b18-dff24c595dd3"},"vehicle_type_id":"4","last_reported":1752560253,"current_range_meters":10000,"station_id":"ce4bhh12rcd13ifvqfg0","pricing_plan_id":"cebpf4jnsgd1na2vs0mg"},{"bike_id":"c8c4de1a-846f-4f5b-aace-9fb14bf7ad52","system_id":"levelo_inurba_marseille","lat":43.21193,"lon":5.3508,"is_reserved":false,"is_disabled":false,"rental_uris":{"android":"levelo://app?vid=c8c4de1a-846f-4f5b-aace-9fb14bf7ad52","ios":"levelo://app?vid=c8c4de1a-846f-4f5b-aace-9fb14bf7ad52"},"vehicle_type_id":"4","last_reported":1752560253,"current_range_meters":10000,"station_id":"st_cvj6sg6p6f1abm77japg","pricing_plan_id":"cebpf4jnsgd1na2vs0mg"},{"bike_id":"a177b2a8-881b-40e0-8b5a-a85ce51b5706","system_id":"levelo_inurba_marseille","lat":43.309346,"lon":5.401464,"is_reserved":false,"is_disabled":false,"rental_uris":{"android":"levelo://app?vid=a177b2a8-881b-40e0-8b5a-a85ce51b5706","ios":"levelo://app?vid=a177b2a8-881b-40e0-8b5a-a85ce51b5706"},"vehicle_type_id":"4","last_reported":1752560253,"current_range_meters":10000,"station_id":"ce4bgvp2rcd13ifvqct0","pricing_plan_id":"cebpf4jnsgd1na2vs0mg"},{"bike_id":"697d5fc4-b988-4a4e-8323-c1ce5ed61a61","system_id":"levelo_inurba_marseille","lat":43.21193,"lon":5.35084,"is_reserved":false,"is_disabled":false,"rental_uris":{"android":"levelo://app?vid=697d5fc4-b988-4a4e-8323-c1ce5ed61a61","ios":"levelo://app?vid=697d5fc4-b988-4a4e-8323-c1ce5ed61a61"},"vehicle_type_id":"4","last_reported":1752560253,"current_range_meters":10800,"station_id":"st_cvj6sg6p6f1abm77japg","pricing_plan_id":"cebpf4jnsgd1na2vs0mg"},{"bike_id":"4a19e4ee-cbbe-4fd8-9e6c-310afa6ee6c9","system_id":"levelo_inurba_marseille","lat":43.23191,"lon":5.39994,"is_reserved":false,"is_disabled":false,"rental_uris":{"android":"levelo://app?vid=4a19e4ee-cbbe-4fd8-9e6c-310afa6ee6c9","ios":"levelo://app?vid=4a19e4ee-cbbe-4fd8-9e6c-310afa6ee6c9"},"vehicle_type_id":"4","last_reported":1752560253,"current_range_meters":10800,"station_id":"ce4bhn12rcd13ifvqgqg","pricing_plan_id":"cebpf4jnsgd1na2vs0mg"},{"bike_id":"df737b47-6e09-4542-8d35-f3681d0e6a4d","system_id":"levelo_inurba_marseille","lat":43.27615,"lon":5.36111,"is_reserved":false,"is_disabled":true,"rental_uris":{"android":"levelo://app?vid=df737b47-6e09-4542-8d35-f3681d0e6a4d","ios":"levelo://app?vid=df737b47-6e09-4542-8d35-f3681d0e6a4d"},"vehicle_type_id":"4","last_reported":1752560253,"current_range_meters":10800,"station_id":"ce4bgj92rcd13ifvqbe0","pricing_plan_id":"cebpf4jnsgd1na2vs0mg"},{"bike_id":"e1442ff3-c767-4bb3-901d-e5f60873ad13","system_id":"levelo_inurba_marseille","lat":43.231836,"lon":5.399967,"is_reserved":false,"is_disabled":false,"rental_uris":{"android":"levelo://app?vid=e1442ff3-c767-4bb3-901d-e5f60873ad13","ios":"levelo://app?vid=e1442ff3-c767-4bb3-901d-e5f60873ad13"},"vehicle_type_id":"4","last_reported":1752560253,"current_range_meters":10800,"station_id":"ce4bhn12rcd13ifvqgqg","pricing_plan_id":"cebpf4jnsgd1na2vs0mg"},{"bike_id":"f5a47db5-6fb2-46bd-a2de-efa4ad13bf60","system_id":"levelo_inurba_marseille","lat":43.211935,"lon":5.350729,"is_reserved":false,"is_disabled":false,"rental_uris":{"android":"levelo://app?vid=f5a47db5-6fb2-46bd-a2de-efa4ad13bf60","ios":"levelo://app?vid=f5a47db5-6fb2-46bd-a2de-efa4ad13bf60"},"vehicle_type_id":"4","last_reported":1752560253,"current_range_meters":10800,"station_id":"st_cvj6sg6p6f1abm77japg","pricing_plan_id":"cebpf4jnsgd1na2vs0mg"},{"bike_id":"2a0aedde-7f30-493f-9aae-d292c759cf7c","system_id":"levelo_inurba_marseille","lat":43.27928,"lon":5.39588,"is_reserved":false,"is_disabled":false,"rental_uris":{"android":"levelo://app?vid=2a0aedde-7f30-493f-9aae-d292c759cf7c","ios":"levelo://app?vid=2a0aedde-7f30-493f-9aae-d292c759cf7c"},"vehicle_type_id":"4","last_reported":1752560253,"current_range_meters":10800,"station_id":"ce4bhf92rcd13ifvqf40","pricing_plan_id":"cebpf4jnsgd1na2vs0mg"},{"bike_id":"58b5bc37-eacc-47e6-ab27-354309eb9582","system_id":"levelo_inurba_marseille","lat":43.29274,"lon":5.40115,"is_reserved":false,"is_disabled":false,"rental_uris":{"android":"levelo://app?vid=58b5bc37-eacc-47e6-ab27-354309eb9582","ios":"levelo://app?vid=58b5bc37-eacc-47e6-ab27-354309eb9582"},"vehicle_type_id":"4","last_reported":1752560253,"current_range_meters":11200,"station_id":"ce4bh312rcd13ifvqdk0","pricing_plan_id":"cebpf4jnsgd1na2vs0mg"},{"bike_id":"6ac174d4-75c5-4a9c-9699-97cd631c6e65","system_id":"levelo_inurba_marseille","lat":43.25486,"lon":5.39911,"is_reserved":false,"is_disabled":false,"rental_uris":{"android":"levelo://app?vid=6ac174d4-75c5-4a9c-9699-97cd631c6e65","ios":"levelo://app?vid=6ac174d4-75c5-4a9c-9699-97cd631c6e65"},"vehicle_type_id":"4","last_reported":1752560253,"current_range_meters":11200,"station_id":"","pricing_plan_id":"cebpf4jnsgd1na2vs0mg"},{"bike_id":"08dbf31c-b540-4ca6-b57d-3481ea73d97b","system_id":"levelo_inurba_marseille","lat":43.22507,"lon":5.34784,"is_reserved":false,"is_disabled":false,"rental_uris":{"android":"levelo://app?vid=08dbf31c-b540-4ca6-b57d-3481ea73d97b","ios":"levelo://app?vid=08dbf31c-b540-4ca6-b57d-3481ea73d97b"},"vehicle_type_id":"4","last_reported":1752560253,"current_range_meters":11200,"station_id":"st_cvj5dfep6f1abm77gieg","pricing_plan_id":"cebpf4jnsgd1na2vs0mg"},{"bike_id":"ed74f810-226b-4edb-a7d8-2c9a86d071a4","system_id":"levelo_inurba_marseille","lat":43.21199,"lon":5.35068,"is_reserved":false,"is_disabled":false,"rental_uris":{"android":"levelo://app?vid=ed74f810-226b-4edb-a7d8-2c9a86d071a4","ios":"levelo://app?vid=ed74f810-226b-4edb-a7d8-2c9a86d071a4"},"vehicle_type_id":"4","last_reported":1752560253,"current_range_meters":11200,"station_id":"st_cvj6sg6p6f1abm77japg","pricing_plan_id":"cebpf4jnsgd1na2vs0mg"},{"bike_id":"d2820ebc-ef8a-4f29-98f7-e3d919f66310","system_id":"levelo_inurba_marseille","lat":43.28482,"lon":5.38565,"is_reserved":false,"is_disabled":false,"rental_uris":{"android":"levelo://app?vid=d2820ebc-ef8a-4f29-98f7-e3d919f66310","ios":"levelo://app?vid=d2820ebc-ef8a-4f29-98f7-e3d919f66310"},"vehicle_type_id":"4","last_reported":1752560253,"current_range_meters":11200,"station_id":"ce4bh8p2rcd13ifvqeb0","pricing_plan_id":"cebpf4jnsgd1na2vs0mg"},{"bike_id":"affb3f7a-a227-4528-9d14-09d0b60aecf5","system_id":"levelo_inurba_marseille","lat":43.30381,"lon":5.4249,"is_reserved":false,"is_disabled":false,"rental_uris":{"android":"levelo://app?vid=affb3f7a-a227-4528-9d14-09d0b60aecf5","ios":"levelo://app?vid=affb3f7a-a227-4528-9d14-09d0b60aecf5"},"vehicle_type_id":"4","last_reported":1752560253,"current_range_meters":11600,"station_id":"ce4bhoh2rcd13ifvqh6g","pricing_plan_id":"cebpf4jnsgd1na2vs0mg"},{"bike_id":"68271f2c-d116-4bee-8e06-9f87e5a7a022","system_id":"levelo_inurba_marseille","lat":43.29293,"lon":5.40168,"is_reserved":false,"is_disabled":false,"rental_uris":{"android":"levelo://app?vid=68271f2c-d116-4bee-8e06-9f87e5a7a022","ios":"levelo://app?vid=68271f2c-d116-4bee-8e06-9f87e5a7a022"},"vehicle_type_id":"4","last_reported":1752560253,"current_range_meters":11600,"station_id":"ce4bh312rcd13ifvqdk0","pricing_plan_id":"cebpf4jnsgd1na2vs0mg"},{"bike_id":"e39d72a8-1c3e-4dce-a3c9-7069cc0fb06f","system_id":"levelo_inurba_marseille","lat":43.279461,"lon":5.410439,"is_reserved":false,"is_disabled":false,"rental_uris":{"android":"levelo://app?vid=e39d72a8-1c3e-4dce-a3c9-7069cc0fb06f","ios":"levelo://app?vid=e39d72a8-1c3e-4dce-a3c9-7069cc0fb06f"},"vehicle_type_id":"4","last_reported":1752560253,"current_range_meters":11600,"station_id":"ce4bhnp2rcd13ifvqh0g","pricing_plan_id":"cebpf4jnsgd1na2vs0mg"},{"bike_id":"7ea577e7-1080-4e3d-9ece-a825e8e18d5b","system_id":"levelo_inurba_marseille","lat":43.30663,"lon":5.4011,"is_reserved":false,"is_disabled":false,"rental_uris":{"android":"levelo://app?vid=7ea577e7-1080-4e3d-9ece-a825e8e18d5b","ios":"levelo://app?vid=7ea577e7-1080-4e3d-9ece-a825e8e18d5b"},"vehicle_type_id":"4","last_reported":1752560253,"current_range_meters":11600,"station_id":"ce4bh112rcd13ifvqda0","pricing_plan_id":"cebpf4jnsgd1na2vs0mg"},{"bike_id":"41e47ab4-31d6-4e54-b9bb-9741e0f94162","system_id":"levelo_inurba_marseille","lat":43.229286,"lon":5.353801,"is_reserved":false,"is_disabled":false,"rental_uris":{"android":"levelo://app?vid=41e47ab4-31d6-4e54-b9bb-9741e0f94162","ios":"levelo://app?vid=41e47ab4-31d6-4e54-b9bb-9741e0f94162"},"vehicle_type_id":"4","last_reported":1752560253,"current_range_meters":12000,"station_id":"cpo3532slgdg3j2ikp40","pricing_plan_id":"cebpf4jnsgd1na2vs0mg"},{"bike_id":"72566a5d-2220-47a5-ac42-493b8b25d9fe","system_id":"levelo_inurba_marseille","lat":43.307891,"lon":5.381706,"is_reserved":false,"is_disabled":false,"rental_uris":{"android":"levelo://app?vid=72566a5d-2220-47a5-ac42-493b8b25d9fe","ios":"levelo://app?vid=72566a5d-2220-47a5-ac42-493b8b25d9fe"},"vehicle_type_id":"4","last_reported":1752560253,"current_range_meters":12000,"station_id":"ce4bhap2rcd13ifvqek0","pricing_plan_id":"cebpf4jnsgd1na2vs0mg"},{"bike_id":"92abda49-3ab7-4993-a4ee-dad11c1651fb","system_id":"levelo_inurba_marseille","lat":43.27822,"lon":5.407002,"is_reserved":false,"is_disabled":false,"rental_uris":{"android":"levelo://app?vid=92abda49-3ab7-4993-a4ee-dad11c1651fb","ios":"levelo://app?vid=92abda49-3ab7-4993-a4ee-dad11c1651fb"},"vehicle_type_id":"4","last_reported":1752560253,"current_range_meters":12000,"station_id":"ce4bhnh2rcd13ifvqgtg","pricing_plan_id":"cebpf4jnsgd1na2vs0mg"},{"bike_id":"f83ab5f8-537f-4add-838c-741a759ed6a0","system_id":"levelo_inurba_marseille","lat":43.27562,"lon":5.3841,"is_reserved":false,"is_disabled":false,"rental_uris":{"android":"levelo://app?vid=f83ab5f8-537f-4add-838c-741a759ed6a0","ios":"levelo://app?vid=f83ab5f8-537f-4add-838c-741a759ed6a0"},"vehicle_type_id":"4","last_reported":1752560253,"current_range_meters":12400,"station_id":"ce4bhh92rcd13ifvqfi0","pricing_plan_id":"cebpf4jnsgd1na2vs0mg"},{"bike_id":"af1eb9db-514d-4b8f-85e5-450ef4483445","system_id":"levelo_inurba_marseille","lat":43.2956,"lon":5.39097,"is_reserved":false,"is_disabled":false,"rental_uris":{"android":"levelo://app?vid=af1eb9db-514d-4b8f-85e5-450ef4483445","ios":"levelo://app?vid=af1eb9db-514d-4b8f-85e5-450ef4483445"},"vehicle_type_id":"4","last_reported":1752560253,"current_range_meters":12400,"station_id":"","pricing_plan_id":"cebpf4jnsgd1na2vs0mg"},{"bike_id":"c4394d8c-8102-4300-bdb5-758262918af2","system_id":"levelo_inurba_marseille","lat":43.30926,"lon":5.40151,"is_reserved":false,"is_disabled":false,"rental_uris":{"android":"levelo://app?vid=c4394d8c-8102-4300-bdb5-758262918af2","ios":"levelo://app?vid=c4394d8c-8102-4300-bdb5-758262918af2"},"vehicle_type_id":"4","last_reported":1752560253,"current_range_meters":12400,"station_id":"ce4bgvp2rcd13ifvqct0","pricing_plan_id":"cebpf4jnsgd1na2vs0mg"},{"bike_id":"6ac53aaf-35af-46ab-8dd7-f7b897e5005c","system_id":"levelo_inurba_marseille","lat":43.24184,"lon":5.39732,"is_reserved":false,"is_disabled":false,"rental_uris":{"android":"levelo://app?vid=6ac53aaf-35af-46ab-8dd7-f7b897e5005c","ios":"levelo://app?vid=6ac53aaf-35af-46ab-8dd7-f7b897e5005c"},"vehicle_type_id":"4","last_reported":1752560253,"current_range_meters":12400,"station_id":"ce4bhn12rcd13ifvqgpg","pricing_plan_id":"cebpf4jnsgd1na2vs0mg"},{"bike_id":"70b4ffb5-edda-4ad2-b17f-168b7d57906f","system_id":"levelo_inurba_marseille","lat":43.31718,"lon":5.37624,"is_reserved":false,"is_disabled":false,"rental_uris":{"android":"levelo://app?vid=70b4ffb5-edda-4ad2-b17f-168b7d57906f","ios":"levelo://app?vid=70b4ffb5-edda-4ad2-b17f-168b7d57906f"},"vehicle_type_id":"4","last_reported":1752560253,"current_range_meters":12400,"station_id":"","pricing_plan_id":"cebpf4jnsgd1na2vs0mg"},{"bike_id":"96404d04-512d-4e45-b57c-350a79134d38","system_id":"levelo_inurba_marseille","lat":43.21206,"lon":5.35051,"is_reserved":false,"is_disabled":false,"rental_uris":{"android":"levelo://app?vid=96404d04-512d-4e45-b57c-350a79134d38","ios":"levelo://app?vid=96404d04-512d-4e45-b57c-350a79134d38"},"vehicle_type_id":"4","last_reported":1752560253,"current_range_meters":12400,"station_id":"st_cvj6sg6p6f1abm77japg","pricing_plan_id":"cebpf4jnsgd1na2vs0mg"},{"bike_id":"5b4907f8-5f47-4ce5-ab03-6f51d8f8736a","system_id":"levelo_inurba_marseille","lat":43.255022,"lon":5.376487,"is_reserved":false,"is_disabled":true,"rental_uris":{"android":"levelo://app?vid=5b4907f8-5f47-4ce5-ab03-6f51d8f8736a","ios":"levelo://app?vid=5b4907f8-5f47-4ce5-ab03-6f51d8f8736a"},"vehicle_type_id":"4","last_reported":1752560253,"current_range_meters":12800,"station_id":"ce4bhih2rcd13ifvqfs0","pricing_plan_id":"cebpf4jnsgd1na2vs0mg"},{"bike_id":"47be2d0f-247f-4168-8434-9c41a69e5f6f","system_id":"levelo_inurba_marseille","lat":43.258642,"lon":5.398999,"is_reserved":false,"is_disabled":false,"rental_uris":{"android":"levelo://app?vid=47be2d0f-247f-4168-8434-9c41a69e5f6f","ios":"levelo://app?vid=47be2d0f-247f-4168-8434-9c41a69e5f6f"},"vehicle_type_id":"4","last_reported":1752560253,"current_range_meters":12400,"station_id":"ce4bhl92rcd13ifvqghg","pricing_plan_id":"cebpf4jnsgd1na2vs0mg"},{"bike_id":"44e10618-e1b8-4569-bc24-980853c4bf04","system_id":"levelo_inurba_marseille","lat":43.22927,"lon":5.35373,"is_reserved":false,"is_disabled":true,"rental_uris":{"android":"levelo://app?vid=44e10618-e1b8-4569-bc24-980853c4bf04","ios":"levelo://app?vid=44e10618-e1b8-4569-bc24-980853c4bf04"},"vehicle_type_id":"4","last_reported":1752560253,"current_range_meters":12800,"station_id":"cpo3532slgdg3j2ikp40","pricing_plan_id":"cebpf4jnsgd1na2vs0mg"},{"bike_id":"ffc10bb7-6696-43b5-8cd5-d4ad3720cc9c","system_id":"levelo_inurba_marseille","lat":43.30185,"lon":5.36622,"is_reserved":false,"is_disabled":false,"rental_uris":{"android":"levelo://app?vid=ffc10bb7-6696-43b5-8cd5-d4ad3720cc9c","ios":"levelo://app?vid=ffc10bb7-6696-43b5-8cd5-d4ad3720cc9c"},"vehicle_type_id":"4","last_reported":1752560253,"current_range_meters":12800,"station_id":"ce4bgrh2rcd13ifvqc8g","pricing_plan_id":"cebpf4jnsgd1na2vs0mg"},{"bike_id":"fc596da9-9f61-4d64-825a-637114e9ef48","system_id":"levelo_inurba_marseille","lat":43.26587,"lon":5.39483,"is_reserved":false,"is_disabled":false,"rental_uris":{"android":"levelo://app?vid=fc596da9-9f61-4d64-825a-637114e9ef48","ios":"levelo://app?vid=fc596da9-9f61-4d64-825a-637114e9ef48"},"vehicle_type_id":"4","last_reported":1752560253,"current_range_meters":12800,"station_id":"","pricing_plan_id":"cebpf4jnsgd1na2vs0mg"},{"bike_id":"4fd4ba1f-b36f-4f2f-b78c-fef4f619cbec","system_id":"levelo_inurba_marseille","lat":43.30926,"lon":5.40145,"is_reserved":false,"is_disabled":false,"rental_uris":{"android":"levelo://app?vid=4fd4ba1f-b36f-4f2f-b78c-fef4f619cbec","ios":"levelo://app?vid=4fd4ba1f-b36f-4f2f-b78c-fef4f619cbec"},"vehicle_type_id":"4","last_reported":1752560253,"current_range_meters":12800,"station_id":"ce4bgvp2rcd13ifvqct0","pricing_plan_id":"cebpf4jnsgd1na2vs0mg"},{"bike_id":"2ab5e94c-5417-4029-92b3-02a3578ad673","system_id":"levelo_inurba_marseille","lat":43.290249,"lon":5.381227,"is_reserved":false,"is_disabled":false,"rental_uris":{"android":"levelo://app?vid=2ab5e94c-5417-4029-92b3-02a3578ad673","ios":"levelo://app?vid=2ab5e94c-5417-4029-92b3-02a3578ad673"},"vehicle_type_id":"4","last_reported":1752560253,"current_range_meters":12800,"station_id":"","pricing_plan_id":"cebpf4jnsgd1na2vs0mg"},{"bike_id":"e54d9ba4-d17a-4a42-ab61-c933b6d03a23","system_id":"levelo_inurba_marseille","lat":43.25935,"lon":5.40908,"is_reserved":false,"is_disabled":false,"rental_uris":{"android":"levelo://app?vid=e54d9ba4-d17a-4a42-ab61-c933b6d03a23","ios":"levelo://app?vid=e54d9ba4-d17a-4a42-ab61-c933b6d03a23"},"vehicle_type_id":"4","last_reported":1752560253,"current_range_meters":12800,"station_id":"ce4bhm92rcd13ifvqglg","pricing_plan_id":"cebpf4jnsgd1na2vs0mg"},{"bike_id":"aac218cd-f764-48c5-a074-bf8aa6e2343a","system_id":"levelo_inurba_marseille","lat":43.23165,"lon":5.43691,"is_reserved":false,"is_disabled":false,"rental_uris":{"android":"levelo://app?vid=aac218cd-f764-48c5-a074-bf8aa6e2343a","ios":"levelo://app?vid=aac218cd-f764-48c5-a074-bf8aa6e2343a"},"vehicle_type_id":"4","last_reported":1752560253,"current_range_meters":12800,"station_id":"ce4bhmp2rcd13ifvqgog","pricing_plan_id":"cebpf4jnsgd1na2vs0mg"},{"bike_id":"1fee386a-4b32-4a67-9474-f50b228f909b","system_id":"levelo_inurba_marseille","lat":43.31181,"lon":5.38722,"is_reserved":false,"is_disabled":false,"rental_uris":{"android":"levelo://app?vid=1fee386a-4b32-4a67-9474-f50b228f909b","ios":"levelo://app?vid=1fee386a-4b32-4a67-9474-f50b228f909b"},"vehicle_type_id":"4","last_reported":1752560253,"current_range_meters":12800,"station_id":"ce4bgv12rcd13ifvqcp0","pricing_plan_id":"cebpf4jnsgd1na2vs0mg"},{"bike_id":"7cbad297-5ffd-4c4b-942f-f29161424c4d","system_id":"levelo_inurba_marseille","lat":43.279415,"lon":5.410374,"is_reserved":false,"is_disabled":false,"rental_uris":{"android":"levelo://app?vid=7cbad297-5ffd-4c4b-942f-f29161424c4d","ios":"levelo://app?vid=7cbad297-5ffd-4c4b-942f-f29161424c4d"},"vehicle_type_id":"4","last_reported":1752560253,"current_range_meters":12800,"station_id":"ce4bhnp2rcd13ifvqh0g","pricing_plan_id":"cebpf4jnsgd1na2vs0mg"},{"bike_id":"459f21fb-410d-45c7-bf60-9f57d1ac5b1b","system_id":"levelo_inurba_marseille","lat":43.31287,"lon":5.40179,"is_reserved":false,"is_disabled":false,"rental_uris":{"android":"levelo://app?vid=459f21fb-410d-45c7-bf60-9f57d1ac5b1b","ios":"levelo://app?vid=459f21fb-410d-45c7-bf60-9f57d1ac5b1b"},"vehicle_type_id":"4","last_reported":1752560253,"current_range_meters":12800,"station_id":"ce4bh092rcd13ifvqd30","pricing_plan_id":"cebpf4jnsgd1na2vs0mg"},{"bike_id":"d0f90c24-dd03-411b-9731-55305f76b7c8","system_id":"levelo_inurba_marseille","lat":43.211938,"lon":5.350737,"is_reserved":false,"is_disabled":false,"rental_uris":{"android":"levelo://app?vid=d0f90c24-dd03-411b-9731-55305f76b7c8","ios":"levelo://app?vid=d0f90c24-dd03-411b-9731-55305f76b7c8"},"vehicle_type_id":"4","last_reported":1752560253,"current_range_meters":13600,"station_id":"st_cvj6sg6p6f1abm77japg","pricing_plan_id":"cebpf4jnsgd1na2vs0mg"},{"bike_id":"2e0ffcb6-b7e9-4beb-84a0-f44d5c1d023a","system_id":"levelo_inurba_marseille","lat":43.29295,"lon":5.3745,"is_reserved":false,"is_disabled":false,"rental_uris":{"android":"levelo://app?vid=2e0ffcb6-b7e9-4beb-84a0-f44d5c1d023a","ios":"levelo://app?vid=2e0ffcb6-b7e9-4beb-84a0-f44d5c1d023a"},"vehicle_type_id":"4","last_reported":1752560253,"current_range_meters":13600,"station_id":"ce4bgi12rcd13ifvqb70","pricing_plan_id":"cebpf4jnsgd1na2vs0mg"},{"bike_id":"01beb3f2-c54f-4f68-af15-b28ae7c75196","system_id":"levelo_inurba_marseille","lat":43.30143,"lon":5.39872,"is_reserved":false,"is_disabled":true,"rental_uris":{"android":"levelo://app?vid=01beb3f2-c54f-4f68-af15-b28ae7c75196","ios":"levelo://app?vid=01beb3f2-c54f-4f68-af15-b28ae7c75196"},"vehicle_type_id":"4","last_reported":1752560253,"current_range_meters":14000,"station_id":"","pricing_plan_id":"cebpf4jnsgd1na2vs0mg"},{"bike_id":"dac82076-93da-4b41-856a-0d7980eb97a8","system_id":"levelo_inurba_marseille","lat":43.296256,"lon":5.405841,"is_reserved":false,"is_disabled":false,"rental_uris":{"android":"levelo://app?vid=dac82076-93da-4b41-856a-0d7980eb97a8","ios":"levelo://app?vid=dac82076-93da-4b41-856a-0d7980eb97a8"},"vehicle_type_id":"4","last_reported":1752560253,"current_range_meters":14000,"station_id":"ce4bh0h2rcd13ifvqd60","pricing_plan_id":"cebpf4jnsgd1na2vs0mg"},{"bike_id":"48a72147-d63a-4fad-9403-9184689656c8","system_id":"levelo_inurba_marseille","lat":43.24387,"lon":5.3706,"is_reserved":false,"is_disabled":false,"rental_uris":{"android":"levelo://app?vid=48a72147-d63a-4fad-9403-9184689656c8","ios":"levelo://app?vid=48a72147-d63a-4fad-9403-9184689656c8"},"vehicle_type_id":"4","last_reported":1752560253,"current_range_meters":14000,"station_id":"ce4bhhh2rcd13ifvqfk0","pricing_plan_id":"cebpf4jnsgd1na2vs0mg"},{"bike_id":"9abe87a0-4ff8-4da3-9ef8-ba0f0e19ecb1","system_id":"levelo_inurba_marseille","lat":43.302521,"lon":5.400704,"is_reserved":false,"is_disabled":false,"rental_uris":{"android":"levelo://app?vid=9abe87a0-4ff8-4da3-9ef8-ba0f0e19ecb1","ios":"levelo://app?vid=9abe87a0-4ff8-4da3-9ef8-ba0f0e19ecb1"},"vehicle_type_id":"4","last_reported":1752560253,"current_range_meters":14000,"station_id":"ce4bgvh2rcd13ifvqcs0","pricing_plan_id":"cebpf4jnsgd1na2vs0mg"},{"bike_id":"e604067d-3800-4ac2-9860-8fea46e837e8","system_id":"levelo_inurba_marseille","lat":43.26584,"lon":5.40294,"is_reserved":false,"is_disabled":false,"rental_uris":{"android":"levelo://app?vid=e604067d-3800-4ac2-9860-8fea46e837e8","ios":"levelo://app?vid=e604067d-3800-4ac2-9860-8fea46e837e8"},"vehicle_type_id":"4","last_reported":1752560253,"current_range_meters":14000,"station_id":"","pricing_plan_id":"cebpf4jnsgd1na2vs0mg"},{"bike_id":"eb2929d3-dd77-40bb-8627-49b45cefd50d","system_id":"levelo_inurba_marseille","lat":43.292823,"lon":5.40127,"is_reserved":false,"is_disabled":false,"rental_uris":{"android":"levelo://app?vid=eb2929d3-dd77-40bb-8627-49b45cefd50d","ios":"levelo://app?vid=eb2929d3-dd77-40bb-8627-49b45cefd50d"},"vehicle_type_id":"4","last_reported":1752560253,"current_range_meters":14000,"station_id":"ce4bh312rcd13ifvqdk0","pricing_plan_id":"cebpf4jnsgd1na2vs0mg"},{"bike_id":"c4030d5f-3164-40e9-af92-658e84288f5b","system_id":"levelo_inurba_marseille","lat":43.27218,"lon":5.39189,"is_reserved":false,"is_disabled":false,"rental_uris":{"android":"levelo://app?vid=c4030d5f-3164-40e9-af92-658e84288f5b","ios":"levelo://app?vid=c4030d5f-3164-40e9-af92-658e84288f5b"},"vehicle_type_id":"4","last_reported":1752560253,"current_range_meters":14400,"station_id":"ce4bhhp2rcd13ifvqfm0","pricing_plan_id":"cebpf4jnsgd1na2vs0mg"},{"bike_id":"6c6d4d9a-6141-481c-9c1a-8e61054bdc43","system_id":"levelo_inurba_marseille","lat":43.24796,"lon":5.41797,"is_reserved":false,"is_disabled":false,"rental_uris":{"android":"levelo://app?vid=6c6d4d9a-6141-481c-9c1a-8e61054bdc43","ios":"levelo://app?vid=6c6d4d9a-6141-481c-9c1a-8e61054bdc43"},"vehicle_type_id":"4","last_reported":1752560253,"current_range_meters":14400,"station_id":"","pricing_plan_id":"cebpf4jnsgd1na2vs0mg"},{"bike_id":"f10941ce-d19a-4475-b0ba-1c38d332727e","system_id":"levelo_inurba_marseille","lat":43.32167,"lon":5.38744,"is_reserved":false,"is_disabled":false,"rental_uris":{"android":"levelo://app?vid=f10941ce-d19a-4475-b0ba-1c38d332727e","ios":"levelo://app?vid=f10941ce-d19a-4475-b0ba-1c38d332727e"},"vehicle_type_id":"4","last_reported":1752560253,"current_range_meters":14400,"station_id":"","pricing_plan_id":"cebpf4jnsgd1na2vs0mg"},{"bike_id":"d7112c54-f9dc-425f-acf8-196623bf4ba2","system_id":"levelo_inurba_marseille","lat":43.24067,"lon":5.37751,"is_reserved":false,"is_disabled":false,"rental_uris":{"android":"levelo://app?vid=d7112c54-f9dc-425f-acf8-196623bf4ba2","ios":"levelo://app?vid=d7112c54-f9dc-425f-acf8-196623bf4ba2"},"vehicle_type_id":"4","last_reported":1752560253,"current_range_meters":14400,"station_id":"ce4bhnp2rcd13ifvqgvg","pricing_plan_id":"cebpf4jnsgd1na2vs0mg"},{"bike_id":"e4cc9422-b66a-4b54-b535-b17a3b695b97","system_id":"levelo_inurba_marseille","lat":43.28364,"lon":5.37395,"is_reserved":false,"is_disabled":false,"rental_uris":{"android":"levelo://app?vid=e4cc9422-b66a-4b54-b535-b17a3b695b97","ios":"levelo://app?vid=e4cc9422-b66a-4b54-b535-b17a3b695b97"},"vehicle_type_id":"4","last_reported":1752560253,"current_range_meters":14400,"station_id":"","pricing_plan_id":"cebpf4jnsgd1na2vs0mg"},{"bike_id":"93f72f67-b54e-44c4-a367-16c06a5c24ce","system_id":"levelo_inurba_marseille","lat":43.31325,"lon":5.3672,"is_reserved":false,"is_disabled":false,"rental_uris":{"android":"levelo://app?vid=93f72f67-b54e-44c4-a367-16c06a5c24ce","ios":"levelo://app?vid=93f72f67-b54e-44c4-a367-16c06a5c24ce"},"vehicle_type_id":"4","last_reported":1752560253,"current_range_meters":14800,"station_id":"ce4bgr92rcd13ifvqc6g","pricing_plan_id":"cebpf4jnsgd1na2vs0mg"},{"bike_id":"00c03d2c-c3d1-457c-84f6-45dff552e5ca","system_id":"levelo_inurba_marseille","lat":43.303278,"lon":5.40446,"is_reserved":false,"is_disabled":false,"rental_uris":{"android":"levelo://app?vid=00c03d2c-c3d1-457c-84f6-45dff552e5ca","ios":"levelo://app?vid=00c03d2c-c3d1-457c-84f6-45dff552e5ca"},"vehicle_type_id":"4","last_reported":1752560253,"current_range_meters":14800,"station_id":"ce4bh012rcd13ifvqd10","pricing_plan_id":"cebpf4jnsgd1na2vs0mg"},{"bike_id":"2a74c118-5915-42ae-a5b6-acad51f5ceb5","system_id":"levelo_inurba_marseille","lat":43.27559,"lon":5.38424,"is_reserved":false,"is_disabled":true,"rental_uris":{"android":"levelo://app?vid=2a74c118-5915-42ae-a5b6-acad51f5ceb5","ios":"levelo://app?vid=2a74c118-5915-42ae-a5b6-acad51f5ceb5"},"vehicle_type_id":"4","last_reported":1752560253,"current_range_meters":14800,"station_id":"ce4bhh92rcd13ifvqfi0","pricing_plan_id":"cebpf4jnsgd1na2vs0mg"},{"bike_id":"c3eb31c9-e106-4cd2-bb91-f2d0ee3e7a6f","system_id":"levelo_inurba_marseille","lat":43.240256,"lon":5.362447,"is_reserved":false,"is_disabled":false,"rental_uris":{"android":"levelo://app?vid=c3eb31c9-e106-4cd2-bb91-f2d0ee3e7a6f","ios":"levelo://app?vid=c3eb31c9-e106-4cd2-bb91-f2d0ee3e7a6f"},"vehicle_type_id":"4","last_reported":1752560253,"current_range_meters":14800,"station_id":"","pricing_plan_id":"cebpf4jnsgd1na2vs0mg"},{"bike_id":"8017085f-d27f-49fc-a294-412551452c92","system_id":"levelo_inurba_marseille","lat":43.24662,"lon":5.389,"is_reserved":false,"is_disabled":false,"rental_uris":{"android":"levelo://app?vid=8017085f-d27f-49fc-a294-412551452c92","ios":"levelo://app?vid=8017085f-d27f-49fc-a294-412551452c92"},"vehicle_type_id":"4","last_reported":1752560253,"current_range_meters":15200,"station_id":"ce4bhg12rcd13ifvqf60","pricing_plan_id":"cebpf4jnsgd1na2vs0mg"},{"bike_id":"7da72a15-d4a5-40d8-9205-78a0a34f5247","system_id":"levelo_inurba_marseille","lat":43.24854,"lon":5.42522,"is_reserved":false,"is_disabled":false,"rental_uris":{"android":"levelo://app?vid=7da72a15-d4a5-40d8-9205-78a0a34f5247","ios":"levelo://app?vid=7da72a15-d4a5-40d8-9205-78a0a34f5247"},"vehicle_type_id":"4","last_reported":1752560253,"current_range_meters":15200,"station_id":"","pricing_plan_id":"cebpf4jnsgd1na2vs0mg"},{"bike_id":"d7159adf-94a3-498c-948b-458c9b026277","system_id":"levelo_inurba_marseille","lat":43.22541,"lon":5.34769,"is_reserved":false,"is_disabled":false,"rental_uris":{"android":"levelo://app?vid=d7159adf-94a3-498c-948b-458c9b026277","ios":"levelo://app?vid=d7159adf-94a3-498c-948b-458c9b026277"},"vehicle_type_id":"4","last_reported":1752560253,"current_range_meters":15200,"station_id":"","pricing_plan_id":"cebpf4jnsgd1na2vs0mg"},{"bike_id":"68a86088-e3e2-4227-b2d1-31a14f48b8a6","system_id":"levelo_inurba_marseille","lat":43.258601,"lon":5.399063,"is_reserved":false,"is_disabled":false,"rental_uris":{"android":"levelo://app?vid=68a86088-e3e2-4227-b2d1-31a14f48b8a6","ios":"levelo://app?vid=68a86088-e3e2-4227-b2d1-31a14f48b8a6"},"vehicle_type_id":"4","last_reported":1752560253,"current_range_meters":15200,"station_id":"","pricing_plan_id":"cebpf4jnsgd1na2vs0mg"},{"bike_id":"0f87502a-9397-4f5d-88c4-6ba6bf98cee4","system_id":"levelo_inurba_marseille","lat":43.27371,"lon":5.36266,"is_reserved":false,"is_disabled":false,"rental_uris":{"android":"levelo://app?vid=0f87502a-9397-4f5d-88c4-6ba6bf98cee4","ios":"levelo://app?vid=0f87502a-9397-4f5d-88c4-6ba6bf98cee4"},"vehicle_type_id":"4","last_reported":1752560253,"current_range_meters":15200,"station_id":"ce4bhbh2rcd13ifvqeo0","pricing_plan_id":"cebpf4jnsgd1na2vs0mg"},{"bike_id":"d199b05c-bf49-40ff-8185-8d98f4140722","system_id":"levelo_inurba_marseille","lat":43.331481,"lon":5.381704,"is_reserved":false,"is_disabled":false,"rental_uris":{"android":"levelo://app?vid=d199b05c-bf49-40ff-8185-8d98f4140722","ios":"levelo://app?vid=d199b05c-bf49-40ff-8185-8d98f4140722"},"vehicle_type_id":"4","last_reported":1752560253,"current_range_meters":16000,"station_id":"","pricing_plan_id":"cebpf4jnsgd1na2vs0mg"},{"bike_id":"381c2c7f-c1b3-435f-9930-740c9756b917","system_id":"levelo_inurba_marseille","lat":43.30544,"lon":5.36713,"is_reserved":false,"is_disabled":false,"rental_uris":{"android":"levelo://app?vid=381c2c7f-c1b3-435f-9930-740c9756b917","ios":"levelo://app?vid=381c2c7f-c1b3-435f-9930-740c9756b917"},"vehicle_type_id":"4","last_reported":1752560253,"current_range_meters":16000,"station_id":"ce4bgrp2rcd13ifvqc9g","pricing_plan_id":"cebpf4jnsgd1na2vs0mg"},{"bike_id":"69b858da-be64-415e-b050-fb498189d3c3","system_id":"levelo_inurba_marseille","lat":43.24556,"lon":5.39537,"is_reserved":false,"is_disabled":false,"rental_uris":{"android":"levelo://app?vid=69b858da-be64-415e-b050-fb498189d3c3","ios":"levelo://app?vid=69b858da-be64-415e-b050-fb498189d3c3"},"vehicle_type_id":"4","last_reported":1752560253,"current_range_meters":16000,"station_id":"ce4bhlp2rcd13ifvqgjg","pricing_plan_id":"cebpf4jnsgd1na2vs0mg"},{"bike_id":"9c6b3a09-9422-4986-a81f-a7a9a126b0ad","system_id":"levelo_inurba_marseille","lat":43.231441,"lon":5.437099,"is_reserved":false,"is_disabled":false,"rental_uris":{"android":"levelo://app?vid=9c6b3a09-9422-4986-a81f-a7a9a126b0ad","ios":"levelo://app?vid=9c6b3a09-9422-4986-a81f-a7a9a126b0ad"},"vehicle_type_id":"4","last_reported":1752560253,"current_range_meters":16000,"station_id":"ce4bhmp2rcd13ifvqgog","pricing_plan_id":"cebpf4jnsgd1na2vs0mg"},{"bike_id":"8e56c4dd-f869-4339-9fdf-243b5630b73f","system_id":"levelo_inurba_marseille","lat":43.30231,"lon":5.40093,"is_reserved":false,"is_disabled":false,"rental_uris":{"android":"levelo://app?vid=8e56c4dd-f869-4339-9fdf-243b5630b73f","ios":"levelo://app?vid=8e56c4dd-f869-4339-9fdf-243b5630b73f"},"vehicle_type_id":"4","last_reported":1752560253,"current_range_meters":16000,"station_id":"","pricing_plan_id":"cebpf4jnsgd1na2vs0mg"},{"bike_id":"da29be3c-81ee-41d8-95eb-47bda3d4de6c","system_id":"levelo_inurba_marseille","lat":43.27559,"lon":5.38419,"is_reserved":false,"is_disabled":false,"rental_uris":{"android":"levelo://app?vid=da29be3c-81ee-41d8-95eb-47bda3d4de6c","ios":"levelo://app?vid=da29be3c-81ee-41d8-95eb-47bda3d4de6c"},"vehicle_type_id":"4","last_reported":1752560253,"current_range_meters":16000,"station_id":"ce4bhh92rcd13ifvqfi0","pricing_plan_id":"cebpf4jnsgd1na2vs0mg"},{"bike_id":"6a5bdfb5-44e8-42af-a1d8-aada0ea5cffd","system_id":"levelo_inurba_marseille","lat":43.292771,"lon":5.401311,"is_reserved":false,"is_disabled":false,"rental_uris":{"android":"levelo://app?vid=6a5bdfb5-44e8-42af-a1d8-aada0ea5cffd","ios":"levelo://app?vid=6a5bdfb5-44e8-42af-a1d8-aada0ea5cffd"},"vehicle_type_id":"4","last_reported":1752560253,"current_range_meters":16000,"station_id":"ce4bh312rcd13ifvqdk0","pricing_plan_id":"cebpf4jnsgd1na2vs0mg"},{"bike_id":"6b665749-5d83-4001-bfa6-ddbce97a8df7","system_id":"levelo_inurba_marseille","lat":43.23976,"lon":5.3661,"is_reserved":false,"is_disabled":false,"rental_uris":{"android":"levelo://app?vid=6b665749-5d83-4001-bfa6-ddbce97a8df7","ios":"levelo://app?vid=6b665749-5d83-4001-bfa6-ddbce97a8df7"},"vehicle_type_id":"4","last_reported":1752560253,"current_range_meters":16000,"station_id":"ce4bhi12rcd13ifvqfp0","pricing_plan_id":"cebpf4jnsgd1na2vs0mg"},{"bike_id":"8ff79917-70b1-4485-bd2f-f557cbff6cf7","system_id":"levelo_inurba_marseille","lat":43.290421,"lon":5.359118,"is_reserved":false,"is_disabled":true,"rental_uris":{"android":"levelo://app?vid=8ff79917-70b1-4485-bd2f-f557cbff6cf7","ios":"levelo://app?vid=8ff79917-70b1-4485-bd2f-f557cbff6cf7"},"vehicle_type_id":"4","last_reported":1752560253,"current_range_meters":16000,"station_id":"","pricing_plan_id":"cebpf4jnsgd1na2vs0mg"},{"bike_id":"de3c7479-ad03-448f-a78e-88898eddd51a","system_id":"levelo_inurba_marseille","lat":43.329645,"lon":5.397451,"is_reserved":false,"is_disabled":false,"rental_uris":{"android":"levelo://app?vid=de3c7479-ad03-448f-a78e-88898eddd51a","ios":"levelo://app?vid=de3c7479-ad03-448f-a78e-88898eddd51a"},"vehicle_type_id":"4","last_reported":1752560253,"current_range_meters":16400,"station_id":"","pricing_plan_id":"cebpf4jnsgd1na2vs0mg"},{"bike_id":"903197e4-3da2-471b-9537-d88bae7e31c4","system_id":"levelo_inurba_marseille","lat":43.26485,"lon":5.39546,"is_reserved":false,"is_disabled":true,"rental_uris":{"android":"levelo://app?vid=903197e4-3da2-471b-9537-d88bae7e31c4","ios":"levelo://app?vid=903197e4-3da2-471b-9537-d88bae7e31c4"},"vehicle_type_id":"4","last_reported":1752560253,"current_range_meters":16400,"station_id":"ce4bhi12rcd13ifvqfq0","pricing_plan_id":"cebpf4jnsgd1na2vs0mg"},{"bike_id":"8c13824d-337d-4a6c-afdf-ac2b2456af5d","system_id":"levelo_inurba_marseille","lat":43.27937,"lon":5.39609,"is_reserved":false,"is_disabled":false,"rental_uris":{"android":"levelo://app?vid=8c13824d-337d-4a6c-afdf-ac2b2456af5d","ios":"levelo://app?vid=8c13824d-337d-4a6c-afdf-ac2b2456af5d"},"vehicle_type_id":"4","last_reported":1752560253,"current_range_meters":16400,"station_id":"ce4bhf92rcd13ifvqf40","pricing_plan_id":"cebpf4jnsgd1na2vs0mg"},{"bike_id":"90d8578f-7619-4279-84b6-4ed88aa377e2","system_id":"levelo_inurba_marseille","lat":43.21189,"lon":5.35065,"is_reserved":false,"is_disabled":false,"rental_uris":{"android":"levelo://app?vid=90d8578f-7619-4279-84b6-4ed88aa377e2","ios":"levelo://app?vid=90d8578f-7619-4279-84b6-4ed88aa377e2"},"vehicle_type_id":"4","last_reported":1752560253,"current_range_meters":16400,"station_id":"st_cvj6sg6p6f1abm77japg","pricing_plan_id":"cebpf4jnsgd1na2vs0mg"},{"bike_id":"c26b5803-1934-443f-a178-b5a6c19165be","system_id":"levelo_inurba_marseille","lat":43.29901,"lon":5.381195,"is_reserved":false,"is_disabled":false,"rental_uris":{"android":"levelo://app?vid=c26b5803-1934-443f-a178-b5a6c19165be","ios":"levelo://app?vid=c26b5803-1934-443f-a178-b5a6c19165be"},"vehicle_type_id":"4","last_reported":1752560253,"current_range_meters":16400,"station_id":"ce4bgj12rcd13ifvqbc0","pricing_plan_id":"cebpf4jnsgd1na2vs0mg"},{"bike_id":"590e8a59-7dcc-42c4-80cd-31312d6a701b","system_id":"levelo_inurba_marseille","lat":43.23206,"lon":5.35549,"is_reserved":false,"is_disabled":false,"rental_uris":{"android":"levelo://app?vid=590e8a59-7dcc-42c4-80cd-31312d6a701b","ios":"levelo://app?vid=590e8a59-7dcc-42c4-80cd-31312d6a701b"},"vehicle_type_id":"4","last_reported":1752560253,"current_range_meters":16400,"station_id":"ce4bhu92rcd13ifvqi70","pricing_plan_id":"cebpf4jnsgd1na2vs0mg"},{"bike_id":"7bce7a34-5113-458d-9330-3d00164f4612","system_id":"levelo_inurba_marseille","lat":43.21246,"lon":5.3509,"is_reserved":false,"is_disabled":false,"rental_uris":{"android":"levelo://app?vid=7bce7a34-5113-458d-9330-3d00164f4612","ios":"levelo://app?vid=7bce7a34-5113-458d-9330-3d00164f4612"},"vehicle_type_id":"4","last_reported":1752560253,"current_range_meters":16400,"station_id":"","pricing_plan_id":"cebpf4jnsgd1na2vs0mg"},{"bike_id":"df0527da-c1eb-410d-9133-b6454f909497","system_id":"levelo_inurba_marseille","lat":43.279527,"lon":5.391683,"is_reserved":false,"is_disabled":true,"rental_uris":{"android":"levelo://app?vid=df0527da-c1eb-410d-9133-b6454f909497","ios":"levelo://app?vid=df0527da-c1eb-410d-9133-b6454f909497"},"vehicle_type_id":"4","last_reported":1752560253,"current_range_meters":16400,"station_id":"","pricing_plan_id":"cebpf4jnsgd1na2vs0mg"},{"bike_id":"2bcc0ed5-261b-4e84-bfe4-ce2479b810f6","system_id":"levelo_inurba_marseille","lat":43.28395,"lon":5.37518,"is_reserved":false,"is_disabled":true,"rental_uris":{"android":"levelo://app?vid=2bcc0ed5-261b-4e84-bfe4-ce2479b810f6","ios":"levelo://app?vid=2bcc0ed5-261b-4e84-bfe4-ce2479b810f6"},"vehicle_type_id":"4","last_reported":1752560253,"current_range_meters":16400,"station_id":"ce4bh412rcd13ifvqds0","pricing_plan_id":"cebpf4jnsgd1na2vs0mg"},{"bike_id":"36fe69a3-bcb1-4181-8ed6-b93e807e4e94","system_id":"levelo_inurba_marseille","lat":43.31682,"lon":5.40479,"is_reserved":false,"is_disabled":false,"rental_uris":{"android":"levelo://app?vid=36fe69a3-bcb1-4181-8ed6-b93e807e4e94","ios":"levelo://app?vid=36fe69a3-bcb1-4181-8ed6-b93e807e4e94"},"vehicle_type_id":"4","last_reported":1752560253,"current_range_meters":16400,"station_id":"ce4bh012rcd13ifvqd00","pricing_plan_id":"cebpf4jnsgd1na2vs0mg"},{"bike_id":"a043714e-0ca7-4bd2-9fac-0a949ab5c01f","system_id":"levelo_inurba_marseille","lat":43.28151,"lon":5.42387,"is_reserved":false,"is_disabled":false,"rental_uris":{"android":"levelo://app?vid=a043714e-0ca7-4bd2-9fac-0a949ab5c01f","ios":"levelo://app?vid=a043714e-0ca7-4bd2-9fac-0a949ab5c01f"},"vehicle_type_id":"4","last_reported":1752560253,"current_range_meters":16400,"station_id":"","pricing_plan_id":"cebpf4jnsgd1na2vs0mg"},{"bike_id":"277581c9-02e8-4d56-838d-c73954e3b9c5","system_id":"levelo_inurba_marseille","lat":43.26993,"lon":5.38769,"is_reserved":false,"is_disabled":false,"rental_uris":{"android":"levelo://app?vid=277581c9-02e8-4d56-838d-c73954e3b9c5","ios":"levelo://app?vid=277581c9-02e8-4d56-838d-c73954e3b9c5"},"vehicle_type_id":"4","last_reported":1752560253,"current_range_meters":16400,"station_id":"","pricing_plan_id":"cebpf4jnsgd1na2vs0mg"},{"bike_id":"fe38fcda-be18-4a6d-9386-5071ca1609b6","system_id":"levelo_inurba_marseille","lat":43.231877,"lon":5.355685,"is_reserved":false,"is_disabled":true,"rental_uris":{"android":"levelo://app?vid=fe38fcda-be18-4a6d-9386-5071ca1609b6","ios":"levelo://app?vid=fe38fcda-be18-4a6d-9386-5071ca1609b6"},"vehicle_type_id":"4","last_reported":1752560253,"current_range_meters":16400,"station_id":"ce4bhu92rcd13ifvqi70","pricing_plan_id":"cebpf4jnsgd1na2vs0mg"},{"bike_id":"ac928612-476b-4e4b-8c2b-a3f75e53d945","system_id":"levelo_inurba_marseille","lat":43.22507,"lon":5.34771,"is_reserved":false,"is_disabled":false,"rental_uris":{"android":"levelo://app?vid=ac928612-476b-4e4b-8c2b-a3f75e53d945","ios":"levelo://app?vid=ac928612-476b-4e4b-8c2b-a3f75e53d945"},"vehicle_type_id":"4","last_reported":1752560253,"current_range_meters":16800,"station_id":"st_cvj5dfep6f1abm77gieg","pricing_plan_id":"cebpf4jnsgd1na2vs0mg"},{"bike_id":"64a13226-d056-45f1-8b29-c54a0d4b2b5d","system_id":"levelo_inurba_marseille","lat":43.269358,"lon":5.402634,"is_reserved":false,"is_disabled":false,"rental_uris":{"android":"levelo://app?vid=64a13226-d056-45f1-8b29-c54a0d4b2b5d","ios":"levelo://app?vid=64a13226-d056-45f1-8b29-c54a0d4b2b5d"},"vehicle_type_id":"4","last_reported":1752560253,"current_range_meters":16800,"station_id":"cjm6bp8fraef2m0cb0m0","pricing_plan_id":"cebpf4jnsgd1na2vs0mg"},{"bike_id":"8a9f8ceb-0274-4ada-8a43-1bc35cd2deb7","system_id":"levelo_inurba_marseille","lat":43.28969,"lon":5.36638,"is_reserved":false,"is_disabled":true,"rental_uris":{"android":"levelo://app?vid=8a9f8ceb-0274-4ada-8a43-1bc35cd2deb7","ios":"levelo://app?vid=8a9f8ceb-0274-4ada-8a43-1bc35cd2deb7"},"vehicle_type_id":"4","last_reported":1752560253,"current_range_meters":16800,"station_id":"","pricing_plan_id":"cebpf4jnsgd1na2vs0mg"},{"bike_id":"474d0eb6-38ba-4a3d-b185-eec1551078f4","system_id":"levelo_inurba_marseille","lat":43.27633,"lon":5.36105,"is_reserved":false,"is_disabled":true,"rental_uris":{"android":"levelo://app?vid=474d0eb6-38ba-4a3d-b185-eec1551078f4","ios":"levelo://app?vid=474d0eb6-38ba-4a3d-b185-eec1551078f4"},"vehicle_type_id":"4","last_reported":1752560253,"current_range_meters":16800,"station_id":"ce4bgj92rcd13ifvqbe0","pricing_plan_id":"cebpf4jnsgd1na2vs0mg"},{"bike_id":"dcd06469-8c2e-44a3-8376-6ecb9d99af57","system_id":"levelo_inurba_marseille","lat":43.30311,"lon":5.39227,"is_reserved":false,"is_disabled":false,"rental_uris":{"android":"levelo://app?vid=dcd06469-8c2e-44a3-8376-6ecb9d99af57","ios":"levelo://app?vid=dcd06469-8c2e-44a3-8376-6ecb9d99af57"},"vehicle_type_id":"4","last_reported":1752560253,"current_range_meters":16800,"station_id":"ce4bgkh2rcd13ifvqbk0","pricing_plan_id":"cebpf4jnsgd1na2vs0mg"},{"bike_id":"ce23b02e-6d65-4c0d-9e4c-0269a519d803","system_id":"levelo_inurba_marseille","lat":43.24176,"lon":5.39721,"is_reserved":false,"is_disabled":false,"rental_uris":{"android":"levelo://app?vid=ce23b02e-6d65-4c0d-9e4c-0269a519d803","ios":"levelo://app?vid=ce23b02e-6d65-4c0d-9e4c-0269a519d803"},"vehicle_type_id":"4","last_reported":1752560253,"current_range_meters":16800,"station_id":"ce4bhn12rcd13ifvqgpg","pricing_plan_id":"cebpf4jnsgd1na2vs0mg"},{"bike_id":"09a93a64-fbb1-49a9-be1f-f86a34310e71","system_id":"levelo_inurba_marseille","lat":43.21199,"lon":5.3507,"is_reserved":false,"is_disabled":false,"rental_uris":{"android":"levelo://app?vid=09a93a64-fbb1-49a9-be1f-f86a34310e71","ios":"levelo://app?vid=09a93a64-fbb1-49a9-be1f-f86a34310e71"},"vehicle_type_id":"4","last_reported":1752560253,"current_range_meters":16800,"station_id":"st_cvj6sg6p6f1abm77japg","pricing_plan_id":"cebpf4jnsgd1na2vs0mg"},{"bike_id":"202e7e2e-075f-420c-b3a2-8fce4649d1bc","system_id":"levelo_inurba_marseille","lat":43.28334,"lon":5.3811,"is_reserved":false,"is_disabled":true,"rental_uris":{"android":"levelo://app?vid=202e7e2e-075f-420c-b3a2-8fce4649d1bc","ios":"levelo://app?vid=202e7e2e-075f-420c-b3a2-8fce4649d1bc"},"vehicle_type_id":"4","last_reported":1752560253,"current_range_meters":17200,"station_id":"ce4bh412rcd13ifvqdr0","pricing_plan_id":"cebpf4jnsgd1na2vs0mg"},{"bike_id":"97669a37-e194-4a77-b20b-b50734761c8f","system_id":"levelo_inurba_marseille","lat":43.24658,"lon":5.38165,"is_reserved":false,"is_disabled":false,"rental_uris":{"android":"levelo://app?vid=97669a37-e194-4a77-b20b-b50734761c8f","ios":"levelo://app?vid=97669a37-e194-4a77-b20b-b50734761c8f"},"vehicle_type_id":"4","last_reported":1752560253,"current_range_meters":17600,"station_id":"ce4bhih2rcd13ifvqfr0","pricing_plan_id":"cebpf4jnsgd1na2vs0mg"},{"bike_id":"7e296367-f9dc-4f6b-a050-e61b373d7f1d","system_id":"levelo_inurba_marseille","lat":43.297801,"lon":5.371023,"is_reserved":false,"is_disabled":false,"rental_uris":{"android":"levelo://app?vid=7e296367-f9dc-4f6b-a050-e61b373d7f1d","ios":"levelo://app?vid=7e296367-f9dc-4f6b-a050-e61b373d7f1d"},"vehicle_type_id":"4","last_reported":1752560253,"current_range_meters":17600,"station_id":"","pricing_plan_id":"cebpf4jnsgd1na2vs0mg"},{"bike_id":"4963b491-16fa-42d4-a195-5b73695a8862","system_id":"levelo_inurba_marseille","lat":43.28367,"lon":5.38603,"is_reserved":false,"is_disabled":false,"rental_uris":{"android":"levelo://app?vid=4963b491-16fa-42d4-a195-5b73695a8862","ios":"levelo://app?vid=4963b491-16fa-42d4-a195-5b73695a8862"},"vehicle_type_id":"4","last_reported":1752560253,"current_range_meters":17600,"station_id":"ce4bh492rcd13ifvqdvg","pricing_plan_id":"cebpf4jnsgd1na2vs0mg"},{"bike_id":"8bd2104e-1bce-449c-ba40-a9db5ef29bd9","system_id":"levelo_inurba_marseille","lat":43.31275,"lon":5.40185,"is_reserved":false,"is_disabled":false,"rental_uris":{"android":"levelo://app?vid=8bd2104e-1bce-449c-ba40-a9db5ef29bd9","ios":"levelo://app?vid=8bd2104e-1bce-449c-ba40-a9db5ef29bd9"},"vehicle_type_id":"4","last_reported":1752560253,"current_range_meters":17600,"station_id":"ce4bh092rcd13ifvqd30","pricing_plan_id":"cebpf4jnsgd1na2vs0mg"},{"bike_id":"5f67488b-1144-439d-9f2f-c2b297dc02e6","system_id":"levelo_inurba_marseille","lat":43.31982,"lon":5.38107,"is_reserved":false,"is_disabled":false,"rental_uris":{"android":"levelo://app?vid=5f67488b-1144-439d-9f2f-c2b297dc02e6","ios":"levelo://app?vid=5f67488b-1144-439d-9f2f-c2b297dc02e6"},"vehicle_type_id":"4","last_reported":1752560253,"current_range_meters":17600,"station_id":"","pricing_plan_id":"cebpf4jnsgd1na2vs0mg"},{"bike_id":"14bd22b7-20e9-4d3b-9beb-1729b4d55a13","system_id":"levelo_inurba_marseille","lat":43.30335,"lon":5.40438,"is_reserved":false,"is_disabled":false,"rental_uris":{"android":"levelo://app?vid=14bd22b7-20e9-4d3b-9beb-1729b4d55a13","ios":"levelo://app?vid=14bd22b7-20e9-4d3b-9beb-1729b4d55a13"},"vehicle_type_id":"4","last_reported":1752560253,"current_range_meters":17600,"station_id":"ce4bh012rcd13ifvqd10","pricing_plan_id":"cebpf4jnsgd1na2vs0mg"},{"bike_id":"3a89e24e-fb99-4dce-b59e-a3de39019418","system_id":"levelo_inurba_marseille","lat":43.27427,"lon":5.39419,"is_reserved":false,"is_disabled":false,"rental_uris":{"android":"levelo://app?vid=3a89e24e-fb99-4dce-b59e-a3de39019418","ios":"levelo://app?vid=3a89e24e-fb99-4dce-b59e-a3de39019418"},"vehicle_type_id":"4","last_reported":1752560253,"current_range_meters":17600,"station_id":"ce4bhdp2rcd13ifvqf20","pricing_plan_id":"cebpf4jnsgd1na2vs0mg"},{"bike_id":"49242fff-2955-4d93-9ace-2210ca63683c","system_id":"levelo_inurba_marseille","lat":43.30954,"lon":5.39034,"is_reserved":false,"is_disabled":false,"rental_uris":{"android":"levelo://app?vid=49242fff-2955-4d93-9ace-2210ca63683c","ios":"levelo://app?vid=49242fff-2955-4d93-9ace-2210ca63683c"},"vehicle_type_id":"4","last_reported":1752560253,"current_range_meters":18000,"station_id":"ce4bgup2rcd13ifvqco0","pricing_plan_id":"cebpf4jnsgd1na2vs0mg"},{"bike_id":"cc078f22-342f-4a6e-b156-6dbca5db6df2","system_id":"levelo_inurba_marseille","lat":43.25115,"lon":5.40314,"is_reserved":false,"is_disabled":false,"rental_uris":{"android":"levelo://app?vid=cc078f22-342f-4a6e-b156-6dbca5db6df2","ios":"levelo://app?vid=cc078f22-342f-4a6e-b156-6dbca5db6df2"},"vehicle_type_id":"4","last_reported":1752560253,"current_range_meters":18000,"station_id":"ce4bhlh2rcd13ifvqgig","pricing_plan_id":"cebpf4jnsgd1na2vs0mg"},{"bike_id":"0d140a81-3bf4-4753-8204-348faa1afef7","system_id":"levelo_inurba_marseille","lat":43.27683,"lon":5.38918,"is_reserved":false,"is_disabled":false,"rental_uris":{"android":"levelo://app?vid=0d140a81-3bf4-4753-8204-348faa1afef7","ios":"levelo://app?vid=0d140a81-3bf4-4753-8204-348faa1afef7"},"vehicle_type_id":"4","last_reported":1752560253,"current_range_meters":18000,"station_id":"ce4bhi12rcd13ifvqfo0","pricing_plan_id":"cebpf4jnsgd1na2vs0mg"},{"bike_id":"22ccfe7f-b8aa-475d-8f58-a670cd3948b4","system_id":"levelo_inurba_marseille","lat":43.32945,"lon":5.39026,"is_reserved":false,"is_disabled":false,"rental_uris":{"android":"levelo://app?vid=22ccfe7f-b8aa-475d-8f58-a670cd3948b4","ios":"levelo://app?vid=22ccfe7f-b8aa-475d-8f58-a670cd3948b4"},"vehicle_type_id":"4","last_reported":1752560253,"current_range_meters":18000,"station_id":"","pricing_plan_id":"cebpf4jnsgd1na2vs0mg"},{"bike_id":"2cd7e0a4-d08b-4068-aee0-815ec0d61e4c","system_id":"levelo_inurba_marseille","lat":43.3033,"lon":5.40436,"is_reserved":false,"is_disabled":false,"rental_uris":{"android":"levelo://app?vid=2cd7e0a4-d08b-4068-aee0-815ec0d61e4c","ios":"levelo://app?vid=2cd7e0a4-d08b-4068-aee0-815ec0d61e4c"},"vehicle_type_id":"4","last_reported":1752560253,"current_range_meters":18000,"station_id":"ce4bh012rcd13ifvqd10","pricing_plan_id":"cebpf4jnsgd1na2vs0mg"},{"bike_id":"a322dad9-b7bc-4d33-8281-6ef40e205b4b","system_id":"levelo_inurba_marseille","lat":43.29279,"lon":5.40142,"is_reserved":false,"is_disabled":false,"rental_uris":{"android":"levelo://app?vid=a322dad9-b7bc-4d33-8281-6ef40e205b4b","ios":"levelo://app?vid=a322dad9-b7bc-4d33-8281-6ef40e205b4b"},"vehicle_type_id":"4","last_reported":1752560253,"current_range_meters":18000,"station_id":"ce4bh312rcd13ifvqdk0","pricing_plan_id":"cebpf4jnsgd1na2vs0mg"},{"bike_id":"aaffeafc-b726-4eeb-93a4-95bb0be1eec2","system_id":"levelo_inurba_marseille","lat":43.24169,"lon":5.396965,"is_reserved":false,"is_disabled":false,"rental_uris":{"android":"levelo://app?vid=aaffeafc-b726-4eeb-93a4-95bb0be1eec2","ios":"levelo://app?vid=aaffeafc-b726-4eeb-93a4-95bb0be1eec2"},"vehicle_type_id":"4","last_reported":1752560253,"current_range_meters":18000,"station_id":"ce4bhn12rcd13ifvqgpg","pricing_plan_id":"cebpf4jnsgd1na2vs0mg"},{"bike_id":"68c3cd12-30dd-461a-bc78-0c7437ce93a5","system_id":"levelo_inurba_marseille","lat":43.32008,"lon":5.38142,"is_reserved":false,"is_disabled":false,"rental_uris":{"android":"levelo://app?vid=68c3cd12-30dd-461a-bc78-0c7437ce93a5","ios":"levelo://app?vid=68c3cd12-30dd-461a-bc78-0c7437ce93a5"},"vehicle_type_id":"4","last_reported":1752560253,"current_range_meters":18000,"station_id":"ce4bhr12rcd13ifvqhpg","pricing_plan_id":"cebpf4jnsgd1na2vs0mg"},{"bike_id":"e875ba05-0311-438b-a1ff-af174969b660","system_id":"levelo_inurba_marseille","lat":43.279574,"lon":5.410455,"is_reserved":false,"is_disabled":true,"rental_uris":{"android":"levelo://app?vid=e875ba05-0311-438b-a1ff-af174969b660","ios":"levelo://app?vid=e875ba05-0311-438b-a1ff-af174969b660"},"vehicle_type_id":"4","last_reported":1752560253,"current_range_meters":18000,"station_id":"ce4bhnp2rcd13ifvqh0g","pricing_plan_id":"cebpf4jnsgd1na2vs0mg"},{"bike_id":"0da36d1c-3ba1-49df-9c20-f86f1bf9eb74","system_id":"levelo_inurba_marseille","lat":43.279399,"lon":5.410407,"is_reserved":false,"is_disabled":false,"rental_uris":{"android":"levelo://app?vid=0da36d1c-3ba1-49df-9c20-f86f1bf9eb74","ios":"levelo://app?vid=0da36d1c-3ba1-49df-9c20-f86f1bf9eb74"},"vehicle_type_id":"4","last_reported":1752560253,"current_range_meters":18000,"station_id":"ce4bhnp2rcd13ifvqh0g","pricing_plan_id":"cebpf4jnsgd1na2vs0mg"},{"bike_id":"11870952-3634-45de-bf5d-1bea7827d243","system_id":"levelo_inurba_marseille","lat":43.27903,"lon":5.38687,"is_reserved":false,"is_disabled":false,"rental_uris":{"android":"levelo://app?vid=11870952-3634-45de-bf5d-1bea7827d243","ios":"levelo://app?vid=11870952-3634-45de-bf5d-1bea7827d243"},"vehicle_type_id":"4","last_reported":1752560253,"current_range_meters":18000,"station_id":"","pricing_plan_id":"cebpf4jnsgd1na2vs0mg"},{"bike_id":"2d65b583-39d0-45fd-8638-d56b87571939","system_id":"levelo_inurba_marseille","lat":43.30382,"lon":5.42513,"is_reserved":false,"is_disabled":false,"rental_uris":{"android":"levelo://app?vid=2d65b583-39d0-45fd-8638-d56b87571939","ios":"levelo://app?vid=2d65b583-39d0-45fd-8638-d56b87571939"},"vehicle_type_id":"4","last_reported":1752560253,"current_range_meters":18800,"station_id":"ce4bhoh2rcd13ifvqh6g","pricing_plan_id":"cebpf4jnsgd1na2vs0mg"},{"bike_id":"56ab7976-2404-43ff-adb5-af81ded6987e","system_id":"levelo_inurba_marseille","lat":43.31442,"lon":5.40438,"is_reserved":false,"is_disabled":false,"rental_uris":{"android":"levelo://app?vid=56ab7976-2404-43ff-adb5-af81ded6987e","ios":"levelo://app?vid=56ab7976-2404-43ff-adb5-af81ded6987e"},"vehicle_type_id":"4","last_reported":1752560253,"current_range_meters":18800,"station_id":"","pricing_plan_id":"cebpf4jnsgd1na2vs0mg"},{"bike_id":"3efaa20b-1a13-47ff-8c60-3e16a3212d4b","system_id":"levelo_inurba_marseille","lat":43.302588,"lon":5.400551,"is_reserved":false,"is_disabled":false,"rental_uris":{"android":"levelo://app?vid=3efaa20b-1a13-47ff-8c60-3e16a3212d4b","ios":"levelo://app?vid=3efaa20b-1a13-47ff-8c60-3e16a3212d4b"},"vehicle_type_id":"4","last_reported":1752560253,"current_range_meters":18800,"station_id":"ce4bgvh2rcd13ifvqcs0","pricing_plan_id":"cebpf4jnsgd1na2vs0mg"},{"bike_id":"c5b4c9fc-2f46-4903-9bd5-3b80e4e030c8","system_id":"levelo_inurba_marseille","lat":43.2807,"lon":5.39656,"is_reserved":false,"is_disabled":false,"rental_uris":{"android":"levelo://app?vid=c5b4c9fc-2f46-4903-9bd5-3b80e4e030c8","ios":"levelo://app?vid=c5b4c9fc-2f46-4903-9bd5-3b80e4e030c8"},"vehicle_type_id":"4","last_reported":1752560253,"current_range_meters":18800,"station_id":"ce4bho12rcd13ifvqh2g","pricing_plan_id":"cebpf4jnsgd1na2vs0mg"},{"bike_id":"8a3c7a9b-da04-4232-b94d-88afe10b78aa","system_id":"levelo_inurba_marseille","lat":43.24246,"lon":5.36909,"is_reserved":false,"is_disabled":false,"rental_uris":{"android":"levelo://app?vid=8a3c7a9b-da04-4232-b94d-88afe10b78aa","ios":"levelo://app?vid=8a3c7a9b-da04-4232-b94d-88afe10b78aa"},"vehicle_type_id":"4","last_reported":1752560253,"current_range_meters":18800,"station_id":"","pricing_plan_id":"cebpf4jnsgd1na2vs0mg"},{"bike_id":"69470280-c898-4c61-913d-814206528e10","system_id":"levelo_inurba_marseille","lat":43.21181,"lon":5.35067,"is_reserved":false,"is_disabled":false,"rental_uris":{"android":"levelo://app?vid=69470280-c898-4c61-913d-814206528e10","ios":"levelo://app?vid=69470280-c898-4c61-913d-814206528e10"},"vehicle_type_id":"4","last_reported":1752560253,"current_range_meters":18800,"station_id":"st_cvj6sg6p6f1abm77japg","pricing_plan_id":"cebpf4jnsgd1na2vs0mg"},{"bike_id":"37f393c5-717a-4601-ac3d-e99cf486af7b","system_id":"levelo_inurba_marseille","lat":43.28377,"lon":5.38643,"is_reserved":false,"is_disabled":true,"rental_uris":{"android":"levelo://app?vid=37f393c5-717a-4601-ac3d-e99cf486af7b","ios":"levelo://app?vid=37f393c5-717a-4601-ac3d-e99cf486af7b"},"vehicle_type_id":"4","last_reported":1752560253,"current_range_meters":18800,"station_id":"ce4bh492rcd13ifvqdvg","pricing_plan_id":"cebpf4jnsgd1na2vs0mg"},{"bike_id":"967624da-8d3b-48f4-8ccf-a306ea43f76d","system_id":"levelo_inurba_marseille","lat":43.31285,"lon":5.40165,"is_reserved":false,"is_disabled":false,"rental_uris":{"android":"levelo://app?vid=967624da-8d3b-48f4-8ccf-a306ea43f76d","ios":"levelo://app?vid=967624da-8d3b-48f4-8ccf-a306ea43f76d"},"vehicle_type_id":"4","last_reported":1752560253,"current_range_meters":18800,"station_id":"ce4bh092rcd13ifvqd30","pricing_plan_id":"cebpf4jnsgd1na2vs0mg"},{"bike_id":"3669464d-4cf5-4251-b5a6-ab26db4cf8f5","system_id":"levelo_inurba_marseille","lat":43.290789,"lon":5.371493,"is_reserved":false,"is_disabled":true,"rental_uris":{"android":"levelo://app?vid=3669464d-4cf5-4251-b5a6-ab26db4cf8f5","ios":"levelo://app?vid=3669464d-4cf5-4251-b5a6-ab26db4cf8f5"},"vehicle_type_id":"4","last_reported":1752560253,"current_range_meters":18800,"station_id":"ce4bh5p2rcd13ifvqe4g","pricing_plan_id":"cebpf4jnsgd1na2vs0mg"},{"bike_id":"93704d8a-5411-444e-be27-0f37f240bc95","system_id":"levelo_inurba_marseille","lat":43.290429,"lon":5.399522,"is_reserved":false,"is_disabled":false,"rental_uris":{"android":"levelo://app?vid=93704d8a-5411-444e-be27-0f37f240bc95","ios":"levelo://app?vid=93704d8a-5411-444e-be27-0f37f240bc95"},"vehicle_type_id":"4","last_reported":1752560253,"current_range_meters":19200,"station_id":"ce4bh392rcd13ifvqdm0","pricing_plan_id":"cebpf4jnsgd1na2vs0mg"},{"bike_id":"111689b3-8a45-4b5f-8470-811fcbda968a","system_id":"levelo_inurba_marseille","lat":43.2798,"lon":5.41065,"is_reserved":false,"is_disabled":false,"rental_uris":{"android":"levelo://app?vid=111689b3-8a45-4b5f-8470-811fcbda968a","ios":"levelo://app?vid=111689b3-8a45-4b5f-8470-811fcbda968a"},"vehicle_type_id":"4","last_reported":1752560253,"current_range_meters":19200,"station_id":"ce4bhnp2rcd13ifvqh0g","pricing_plan_id":"cebpf4jnsgd1na2vs0mg"},{"bike_id":"acea0d95-3622-4981-b315-d1078b503b06","system_id":"levelo_inurba_marseille","lat":43.289216,"lon":5.383981,"is_reserved":false,"is_disabled":true,"rental_uris":{"android":"levelo://app?vid=acea0d95-3622-4981-b315-d1078b503b06","ios":"levelo://app?vid=acea0d95-3622-4981-b315-d1078b503b06"},"vehicle_type_id":"4","last_reported":1752560253,"current_range_meters":19200,"station_id":"ce4bh612rcd13ifvqe6g","pricing_plan_id":"cebpf4jnsgd1na2vs0mg"},{"bike_id":"0ec65385-a52d-4658-9186-55188c9382dc","system_id":"levelo_inurba_marseille","lat":43.28081,"lon":5.39667,"is_reserved":false,"is_disabled":false,"rental_uris":{"android":"levelo://app?vid=0ec65385-a52d-4658-9186-55188c9382dc","ios":"levelo://app?vid=0ec65385-a52d-4658-9186-55188c9382dc"},"vehicle_type_id":"4","last_reported":1752560253,"current_range_meters":19200,"station_id":"ce4bho12rcd13ifvqh2g","pricing_plan_id":"cebpf4jnsgd1na2vs0mg"},{"bike_id":"69a98ef8-9b4f-490a-b1e7-11ae49fc387b","system_id":"levelo_inurba_marseille","lat":43.211906,"lon":5.350691,"is_reserved":false,"is_disabled":false,"rental_uris":{"android":"levelo://app?vid=69a98ef8-9b4f-490a-b1e7-11ae49fc387b","ios":"levelo://app?vid=69a98ef8-9b4f-490a-b1e7-11ae49fc387b"},"vehicle_type_id":"4","last_reported":1752560253,"current_range_meters":19200,"station_id":"st_cvj6sg6p6f1abm77japg","pricing_plan_id":"cebpf4jnsgd1na2vs0mg"},{"bike_id":"33134a80-38af-4759-a83b-eb44ea22bcb9","system_id":"levelo_inurba_marseille","lat":43.27821,"lon":5.40715,"is_reserved":false,"is_disabled":false,"rental_uris":{"android":"levelo://app?vid=33134a80-38af-4759-a83b-eb44ea22bcb9","ios":"levelo://app?vid=33134a80-38af-4759-a83b-eb44ea22bcb9"},"vehicle_type_id":"4","last_reported":1752560253,"current_range_meters":19200,"station_id":"ce4bhnh2rcd13ifvqgtg","pricing_plan_id":"cebpf4jnsgd1na2vs0mg"},{"bike_id":"9d598979-7e11-49a5-8ad4-7cf6c3eaf48c","system_id":"levelo_inurba_marseille","lat":43.31113,"lon":5.37778,"is_reserved":false,"is_disabled":false,"rental_uris":{"android":"levelo://app?vid=9d598979-7e11-49a5-8ad4-7cf6c3eaf48c","ios":"levelo://app?vid=9d598979-7e11-49a5-8ad4-7cf6c3eaf48c"},"vehicle_type_id":"4","last_reported":1752560253,"current_range_meters":19200,"station_id":"ce4bgt92rcd13ifvqcg0","pricing_plan_id":"cebpf4jnsgd1na2vs0mg"},{"bike_id":"f9027ea3-f0e3-4635-8519-75ba3f92b2c7","system_id":"levelo_inurba_marseille","lat":43.29271,"lon":5.37635,"is_reserved":false,"is_disabled":false,"rental_uris":{"android":"levelo://app?vid=f9027ea3-f0e3-4635-8519-75ba3f92b2c7","ios":"levelo://app?vid=f9027ea3-f0e3-4635-8519-75ba3f92b2c7"},"vehicle_type_id":"4","last_reported":1752560253,"current_range_meters":19200,"station_id":"ce4bgi12rcd13ifvqb80","pricing_plan_id":"cebpf4jnsgd1na2vs0mg"},{"bike_id":"f84b1dd0-1623-4e4c-9af9-f1ba75567f78","system_id":"levelo_inurba_marseille","lat":43.29278,"lon":5.40136,"is_reserved":false,"is_disabled":false,"rental_uris":{"android":"levelo://app?vid=f84b1dd0-1623-4e4c-9af9-f1ba75567f78","ios":"levelo://app?vid=f84b1dd0-1623-4e4c-9af9-f1ba75567f78"},"vehicle_type_id":"4","last_reported":1752560253,"current_range_meters":19200,"station_id":"ce4bh312rcd13ifvqdk0","pricing_plan_id":"cebpf4jnsgd1na2vs0mg"},{"bike_id":"486c36cd-bb8d-435f-a933-802c2d5d2447","system_id":"levelo_inurba_marseille","lat":43.21187,"lon":5.35067,"is_reserved":false,"is_disabled":false,"rental_uris":{"android":"levelo://app?vid=486c36cd-bb8d-435f-a933-802c2d5d2447","ios":"levelo://app?vid=486c36cd-bb8d-435f-a933-802c2d5d2447"},"vehicle_type_id":"4","last_reported":1752560253,"current_range_meters":19200,"station_id":"st_cvj6sg6p6f1abm77japg","pricing_plan_id":"cebpf4jnsgd1na2vs0mg"},{"bike_id":"dc12862d-2cbe-426f-9d1f-5eaa7851b23c","system_id":"levelo_inurba_marseille","lat":43.24181,"lon":5.39725,"is_reserved":false,"is_disabled":false,"rental_uris":{"android":"levelo://app?vid=dc12862d-2cbe-426f-9d1f-5eaa7851b23c","ios":"levelo://app?vid=dc12862d-2cbe-426f-9d1f-5eaa7851b23c"},"vehicle_type_id":"4","last_reported":1752560253,"current_range_meters":19600,"station_id":"ce4bhn12rcd13ifvqgpg","pricing_plan_id":"cebpf4jnsgd1na2vs0mg"},{"bike_id":"607692d7-92f3-464d-9130-5e688d0416e7","system_id":"levelo_inurba_marseille","lat":43.30152,"lon":5.39898,"is_reserved":false,"is_disabled":true,"rental_uris":{"android":"levelo://app?vid=607692d7-92f3-464d-9130-5e688d0416e7","ios":"levelo://app?vid=607692d7-92f3-464d-9130-5e688d0416e7"},"vehicle_type_id":"4","last_reported":1752560253,"current_range_meters":19600,"station_id":"ce4bh0h2rcd13ifvqd40","pricing_plan_id":"cebpf4jnsgd1na2vs0mg"},{"bike_id":"0888a42d-f8f5-4432-96f6-c0578e5ed28c","system_id":"levelo_inurba_marseille","lat":43.2465,"lon":5.38154,"is_reserved":false,"is_disabled":false,"rental_uris":{"android":"levelo://app?vid=0888a42d-f8f5-4432-96f6-c0578e5ed28c","ios":"levelo://app?vid=0888a42d-f8f5-4432-96f6-c0578e5ed28c"},"vehicle_type_id":"4","last_reported":1752560253,"current_range_meters":19600,"station_id":"ce4bhih2rcd13ifvqfr0","pricing_plan_id":"cebpf4jnsgd1na2vs0mg"},{"bike_id":"d8d60ab6-c488-42ca-96e4-553e790a9162","system_id":"levelo_inurba_marseille","lat":43.212006,"lon":5.350671,"is_reserved":false,"is_disabled":false,"rental_uris":{"android":"levelo://app?vid=d8d60ab6-c488-42ca-96e4-553e790a9162","ios":"levelo://app?vid=d8d60ab6-c488-42ca-96e4-553e790a9162"},"vehicle_type_id":"4","last_reported":1752560253,"current_range_meters":19600,"station_id":"st_cvj6sg6p6f1abm77japg","pricing_plan_id":"cebpf4jnsgd1na2vs0mg"},{"bike_id":"b433af72-b4f5-4f79-ad97-b03c22bf68a5","system_id":"levelo_inurba_marseille","lat":43.25924,"lon":5.40879,"is_reserved":false,"is_disabled":false,"rental_uris":{"android":"levelo://app?vid=b433af72-b4f5-4f79-ad97-b03c22bf68a5","ios":"levelo://app?vid=b433af72-b4f5-4f79-ad97-b03c22bf68a5"},"vehicle_type_id":"4","last_reported":1752560253,"current_range_meters":20000,"station_id":"ce4bhm92rcd13ifvqglg","pricing_plan_id":"cebpf4jnsgd1na2vs0mg"},{"bike_id":"55591a03-9ac2-442c-ae5e-ebeb8edb45d4","system_id":"levelo_inurba_marseille","lat":43.32006,"lon":5.38094,"is_reserved":false,"is_disabled":false,"rental_uris":{"android":"levelo://app?vid=55591a03-9ac2-442c-ae5e-ebeb8edb45d4","ios":"levelo://app?vid=55591a03-9ac2-442c-ae5e-ebeb8edb45d4"},"vehicle_type_id":"4","last_reported":1752560253,"current_range_meters":20000,"station_id":"","pricing_plan_id":"cebpf4jnsgd1na2vs0mg"},{"bike_id":"a1d2db8e-2275-4ec8-bc7a-3841cb860ffe","system_id":"levelo_inurba_marseille","lat":43.337444,"lon":5.374475,"is_reserved":false,"is_disabled":false,"rental_uris":{"android":"levelo://app?vid=a1d2db8e-2275-4ec8-bc7a-3841cb860ffe","ios":"levelo://app?vid=a1d2db8e-2275-4ec8-bc7a-3841cb860ffe"},"vehicle_type_id":"4","last_reported":1752560253,"current_range_meters":20000,"station_id":"","pricing_plan_id":"cebpf4jnsgd1na2vs0mg"},{"bike_id":"f3e4a14e-8992-4198-9f2a-7d57a260053a","system_id":"levelo_inurba_marseille","lat":43.27999,"lon":5.416585,"is_reserved":false,"is_disabled":false,"rental_uris":{"android":"levelo://app?vid=f3e4a14e-8992-4198-9f2a-7d57a260053a","ios":"levelo://app?vid=f3e4a14e-8992-4198-9f2a-7d57a260053a"},"vehicle_type_id":"4","last_reported":1752560253,"current_range_meters":20000,"station_id":"ce4bho12rcd13ifvqh1g","pricing_plan_id":"cebpf4jnsgd1na2vs0mg"},{"bike_id":"b0f129b0-df2d-4827-8f93-3d6fb00f5fe2","system_id":"levelo_inurba_marseille","lat":43.284929,"lon":5.371025,"is_reserved":false,"is_disabled":false,"rental_uris":{"android":"levelo://app?vid=b0f129b0-df2d-4827-8f93-3d6fb00f5fe2","ios":"levelo://app?vid=b0f129b0-df2d-4827-8f93-3d6fb00f5fe2"},"vehicle_type_id":"4","last_reported":1752560253,"current_range_meters":20000,"station_id":"","pricing_plan_id":"cebpf4jnsgd1na2vs0mg"},{"bike_id":"3673bafc-0594-4f62-8c0b-43b0b6ac7a94","system_id":"levelo_inurba_marseille","lat":43.292525,"lon":5.409108,"is_reserved":false,"is_disabled":false,"rental_uris":{"android":"levelo://app?vid=3673bafc-0594-4f62-8c0b-43b0b6ac7a94","ios":"levelo://app?vid=3673bafc-0594-4f62-8c0b-43b0b6ac7a94"},"vehicle_type_id":"4","last_reported":1752560253,"current_range_meters":20000,"station_id":"ce4bh192rcd13ifvqdc0","pricing_plan_id":"cebpf4jnsgd1na2vs0mg"},{"bike_id":"0d68ece9-d421-4de0-88bb-464e887e7c5f","system_id":"levelo_inurba_marseille","lat":43.3125,"lon":5.38135,"is_reserved":false,"is_disabled":false,"rental_uris":{"android":"levelo://app?vid=0d68ece9-d421-4de0-88bb-464e887e7c5f","ios":"levelo://app?vid=0d68ece9-d421-4de0-88bb-464e887e7c5f"},"vehicle_type_id":"4","last_reported":1752560253,"current_range_meters":20000,"station_id":"","pricing_plan_id":"cebpf4jnsgd1na2vs0mg"},{"bike_id":"5d58bac3-010f-4287-a2a5-d8431617834e","system_id":"levelo_inurba_marseille","lat":43.21199,"lon":5.35039,"is_reserved":false,"is_disabled":false,"rental_uris":{"android":"levelo://app?vid=5d58bac3-010f-4287-a2a5-d8431617834e","ios":"levelo://app?vid=5d58bac3-010f-4287-a2a5-d8431617834e"},"vehicle_type_id":"4","last_reported":1752560253,"current_range_meters":20000,"station_id":"st_cvj6sg6p6f1abm77japg","pricing_plan_id":"cebpf4jnsgd1na2vs0mg"},{"bike_id":"0e0ca525-dd45-4514-8a8e-bc4d44ff13a9","system_id":"levelo_inurba_marseille","lat":43.279872,"lon":5.416503,"is_reserved":false,"is_disabled":true,"rental_uris":{"android":"levelo://app?vid=0e0ca525-dd45-4514-8a8e-bc4d44ff13a9","ios":"levelo://app?vid=0e0ca525-dd45-4514-8a8e-bc4d44ff13a9"},"vehicle_type_id":"4","last_reported":1752560253,"current_range_meters":20000,"station_id":"ce4bho12rcd13ifvqh1g","pricing_plan_id":"cebpf4jnsgd1na2vs0mg"},{"bike_id":"ae181643-3667-45a4-ad33-38fae9d04211","system_id":"levelo_inurba_marseille","lat":43.301463,"lon":5.380753,"is_reserved":false,"is_disabled":false,"rental_uris":{"android":"levelo://app?vid=ae181643-3667-45a4-ad33-38fae9d04211","ios":"levelo://app?vid=ae181643-3667-45a4-ad33-38fae9d04211"},"vehicle_type_id":"4","last_reported":1752560253,"current_range_meters":20000,"station_id":"ce4bgjp2rcd13ifvqbh0","pricing_plan_id":"cebpf4jnsgd1na2vs0mg"},{"bike_id":"aefd79db-bf8d-4180-92af-a9ef470139d0","system_id":"levelo_inurba_marseille","lat":43.28977,"lon":5.35576,"is_reserved":false,"is_disabled":true,"rental_uris":{"android":"levelo://app?vid=aefd79db-bf8d-4180-92af-a9ef470139d0","ios":"levelo://app?vid=aefd79db-bf8d-4180-92af-a9ef470139d0"},"vehicle_type_id":"4","last_reported":1752560253,"current_range_meters":20400,"station_id":"ce4bhb92rcd13ifvqen0","pricing_plan_id":"cebpf4jnsgd1na2vs0mg"},{"bike_id":"8fd72403-f6be-4cee-97aa-9dd54933902e","system_id":"levelo_inurba_marseille","lat":43.24183,"lon":5.39717,"is_reserved":false,"is_disabled":false,"rental_uris":{"android":"levelo://app?vid=8fd72403-f6be-4cee-97aa-9dd54933902e","ios":"levelo://app?vid=8fd72403-f6be-4cee-97aa-9dd54933902e"},"vehicle_type_id":"4","last_reported":1752560253,"current_range_meters":20400,"station_id":"ce4bhn12rcd13ifvqgpg","pricing_plan_id":"cebpf4jnsgd1na2vs0mg"},{"bike_id":"c2ab978f-22e9-484d-a675-181c157137d4","system_id":"levelo_inurba_marseille","lat":43.323586,"lon":5.388791,"is_reserved":false,"is_disabled":false,"rental_uris":{"android":"levelo://app?vid=c2ab978f-22e9-484d-a675-181c157137d4","ios":"levelo://app?vid=c2ab978f-22e9-484d-a675-181c157137d4"},"vehicle_type_id":"4","last_reported":1752560253,"current_range_meters":20400,"station_id":"ce4bhqp2rcd13ifvqhog","pricing_plan_id":"cebpf4jnsgd1na2vs0mg"},{"bike_id":"5335adad-7b61-4313-832b-07723a125b64","system_id":"levelo_inurba_marseille","lat":43.29214,"lon":5.36056,"is_reserved":false,"is_disabled":true,"rental_uris":{"android":"levelo://app?vid=5335adad-7b61-4313-832b-07723a125b64","ios":"levelo://app?vid=5335adad-7b61-4313-832b-07723a125b64"},"vehicle_type_id":"4","last_reported":1752560253,"current_range_meters":20400,"station_id":"ce4bhbh2rcd13ifvqeqg","pricing_plan_id":"cebpf4jnsgd1na2vs0mg"},{"bike_id":"18e98d1e-0673-4e37-bac2-abd9250eedfd","system_id":"levelo_inurba_marseille","lat":43.337551,"lon":5.374482,"is_reserved":false,"is_disabled":false,"rental_uris":{"android":"levelo://app?vid=18e98d1e-0673-4e37-bac2-abd9250eedfd","ios":"levelo://app?vid=18e98d1e-0673-4e37-bac2-abd9250eedfd"},"vehicle_type_id":"4","last_reported":1752560253,"current_range_meters":20400,"station_id":"","pricing_plan_id":"cebpf4jnsgd1na2vs0mg"},{"bike_id":"e3151a9b-c556-450e-bc2c-7098bb0dfdee","system_id":"levelo_inurba_marseille","lat":43.241654,"lon":5.363945,"is_reserved":false,"is_disabled":false,"rental_uris":{"android":"levelo://app?vid=e3151a9b-c556-450e-bc2c-7098bb0dfdee","ios":"levelo://app?vid=e3151a9b-c556-450e-bc2c-7098bb0dfdee"},"vehicle_type_id":"4","last_reported":1752560253,"current_range_meters":20800,"station_id":"cpo36qri1sfpv3e86is0","pricing_plan_id":"cebpf4jnsgd1na2vs0mg"},{"bike_id":"091fe711-2ea4-4237-a18d-c9ad056acae5","system_id":"levelo_inurba_marseille","lat":43.32073,"lon":5.38737,"is_reserved":false,"is_disabled":false,"rental_uris":{"android":"levelo://app?vid=091fe711-2ea4-4237-a18d-c9ad056acae5","ios":"levelo://app?vid=091fe711-2ea4-4237-a18d-c9ad056acae5"},"vehicle_type_id":"4","last_reported":1752560253,"current_range_meters":20800,"station_id":"","pricing_plan_id":"cebpf4jnsgd1na2vs0mg"},{"bike_id":"ddefa569-4878-4dd2-b279-a383470093db","system_id":"levelo_inurba_marseille","lat":43.29893,"lon":5.43666,"is_reserved":false,"is_disabled":false,"rental_uris":{"android":"levelo://app?vid=ddefa569-4878-4dd2-b279-a383470093db","ios":"levelo://app?vid=ddefa569-4878-4dd2-b279-a383470093db"},"vehicle_type_id":"4","last_reported":1752560253,"current_range_meters":20800,"station_id":"ce4bhpp2rcd13ifvqhfg","pricing_plan_id":"cebpf4jnsgd1na2vs0mg"},{"bike_id":"f65ee0cc-e6a6-4656-a435-c94eaab8eec3","system_id":"levelo_inurba_marseille","lat":43.27999,"lon":5.4166,"is_reserved":false,"is_disabled":false,"rental_uris":{"android":"levelo://app?vid=f65ee0cc-e6a6-4656-a435-c94eaab8eec3","ios":"levelo://app?vid=f65ee0cc-e6a6-4656-a435-c94eaab8eec3"},"vehicle_type_id":"4","last_reported":1752560253,"current_range_meters":20800,"station_id":"ce4bho12rcd13ifvqh1g","pricing_plan_id":"cebpf4jnsgd1na2vs0mg"},{"bike_id":"4f3dcf83-e813-4485-859d-70a3e66ba8d7","system_id":"levelo_inurba_marseille","lat":43.32476,"lon":5.36562,"is_reserved":false,"is_disabled":false,"rental_uris":{"android":"levelo://app?vid=4f3dcf83-e813-4485-859d-70a3e66ba8d7","ios":"levelo://app?vid=4f3dcf83-e813-4485-859d-70a3e66ba8d7"},"vehicle_type_id":"4","last_reported":1752560253,"current_range_meters":20800,"station_id":"ce4bhs12rcd13ifvqhvg","pricing_plan_id":"cebpf4jnsgd1na2vs0mg"},{"bike_id":"52e7a37c-fd09-472d-a3fb-2d8640d4ca27","system_id":"levelo_inurba_marseille","lat":43.231541,"lon":5.436953,"is_reserved":false,"is_disabled":false,"rental_uris":{"android":"levelo://app?vid=52e7a37c-fd09-472d-a3fb-2d8640d4ca27","ios":"levelo://app?vid=52e7a37c-fd09-472d-a3fb-2d8640d4ca27"},"vehicle_type_id":"4","last_reported":1752560253,"current_range_meters":20800,"station_id":"ce4bhmp2rcd13ifvqgog","pricing_plan_id":"cebpf4jnsgd1na2vs0mg"},{"bike_id":"b36eab62-c27d-42e8-b7f7-fe1bdcfcfa55","system_id":"levelo_inurba_marseille","lat":43.290383,"lon":5.399804,"is_reserved":false,"is_disabled":false,"rental_uris":{"android":"levelo://app?vid=b36eab62-c27d-42e8-b7f7-fe1bdcfcfa55","ios":"levelo://app?vid=b36eab62-c27d-42e8-b7f7-fe1bdcfcfa55"},"vehicle_type_id":"4","last_reported":1752560253,"current_range_meters":20800,"station_id":"ce4bh392rcd13ifvqdm0","pricing_plan_id":"cebpf4jnsgd1na2vs0mg"},{"bike_id":"87a33e75-96c7-413d-a9bb-6fb09e17c7e5","system_id":"levelo_inurba_marseille","lat":43.31995,"lon":5.38129,"is_reserved":false,"is_disabled":false,"rental_uris":{"android":"levelo://app?vid=87a33e75-96c7-413d-a9bb-6fb09e17c7e5","ios":"levelo://app?vid=87a33e75-96c7-413d-a9bb-6fb09e17c7e5"},"vehicle_type_id":"4","last_reported":1752560253,"current_range_meters":20800,"station_id":"ce4bhr12rcd13ifvqhpg","pricing_plan_id":"cebpf4jnsgd1na2vs0mg"},{"bike_id":"8deda4e4-77ec-40f6-8b17-7341c6c4075b","system_id":"levelo_inurba_marseille","lat":43.30102,"lon":5.39097,"is_reserved":false,"is_disabled":false,"rental_uris":{"android":"levelo://app?vid=8deda4e4-77ec-40f6-8b17-7341c6c4075b","ios":"levelo://app?vid=8deda4e4-77ec-40f6-8b17-7341c6c4075b"},"vehicle_type_id":"4","last_reported":1752560253,"current_range_meters":20800,"station_id":"ce4bh192rcd13ifvqdb0","pricing_plan_id":"cebpf4jnsgd1na2vs0mg"},{"bike_id":"10f0ef82-3817-40f8-b5b8-a215b61408c8","system_id":"levelo_inurba_marseille","lat":43.23194,"lon":5.39984,"is_reserved":false,"is_disabled":false,"rental_uris":{"android":"levelo://app?vid=10f0ef82-3817-40f8-b5b8-a215b61408c8","ios":"levelo://app?vid=10f0ef82-3817-40f8-b5b8-a215b61408c8"},"vehicle_type_id":"4","last_reported":1752560253,"current_range_meters":20800,"station_id":"ce4bhn12rcd13ifvqgqg","pricing_plan_id":"cebpf4jnsgd1na2vs0mg"},{"bike_id":"21448da8-114b-4ac7-880e-02f90ce3d909","system_id":"levelo_inurba_marseille","lat":43.310739,"lon":5.383546,"is_reserved":false,"is_disabled":false,"rental_uris":{"android":"levelo://app?vid=21448da8-114b-4ac7-880e-02f90ce3d909","ios":"levelo://app?vid=21448da8-114b-4ac7-880e-02f90ce3d909"},"vehicle_type_id":"4","last_reported":1752560253,"current_range_meters":20800,"station_id":"ce4bgv92rcd13ifvqcr0","pricing_plan_id":"cebpf4jnsgd1na2vs0mg"},{"bike_id":"9b8d13e7-4408-43a7-b2bd-e3a173987dad","system_id":"levelo_inurba_marseille","lat":43.27944,"lon":5.41049,"is_reserved":false,"is_disabled":false,"rental_uris":{"android":"levelo://app?vid=9b8d13e7-4408-43a7-b2bd-e3a173987dad","ios":"levelo://app?vid=9b8d13e7-4408-43a7-b2bd-e3a173987dad"},"vehicle_type_id":"4","last_reported":1752560253,"current_range_meters":21600,"station_id":"ce4bhnp2rcd13ifvqh0g","pricing_plan_id":"cebpf4jnsgd1na2vs0mg"},{"bike_id":"4bb87d5d-dd63-4e5f-8dd1-727eb79ff27b","system_id":"levelo_inurba_marseille","lat":43.292239,"lon":5.360282,"is_reserved":false,"is_disabled":true,"rental_uris":{"android":"levelo://app?vid=4bb87d5d-dd63-4e5f-8dd1-727eb79ff27b","ios":"levelo://app?vid=4bb87d5d-dd63-4e5f-8dd1-727eb79ff27b"},"vehicle_type_id":"4","last_reported":1752560253,"current_range_meters":21600,"station_id":"","pricing_plan_id":"cebpf4jnsgd1na2vs0mg"},{"bike_id":"eb0c9335-0aa2-4480-9437-ef42971facd3","system_id":"levelo_inurba_marseille","lat":43.279419,"lon":5.410418,"is_reserved":false,"is_disabled":false,"rental_uris":{"android":"levelo://app?vid=eb0c9335-0aa2-4480-9437-ef42971facd3","ios":"levelo://app?vid=eb0c9335-0aa2-4480-9437-ef42971facd3"},"vehicle_type_id":"4","last_reported":1752560253,"current_range_meters":21600,"station_id":"ce4bhnp2rcd13ifvqh0g","pricing_plan_id":"cebpf4jnsgd1na2vs0mg"},{"bike_id":"ef2fe04c-923f-48fe-9707-46c383b6efb4","system_id":"levelo_inurba_marseille","lat":43.23963,"lon":5.36625,"is_reserved":false,"is_disabled":false,"rental_uris":{"android":"levelo://app?vid=ef2fe04c-923f-48fe-9707-46c383b6efb4","ios":"levelo://app?vid=ef2fe04c-923f-48fe-9707-46c383b6efb4"},"vehicle_type_id":"4","last_reported":1752560253,"current_range_meters":21600,"station_id":"ce4bhi12rcd13ifvqfp0","pricing_plan_id":"cebpf4jnsgd1na2vs0mg"},{"bike_id":"692f4c3d-5308-44c1-a334-547b88a7122f","system_id":"levelo_inurba_marseille","lat":43.21182,"lon":5.35063,"is_reserved":false,"is_disabled":false,"rental_uris":{"android":"levelo://app?vid=692f4c3d-5308-44c1-a334-547b88a7122f","ios":"levelo://app?vid=692f4c3d-5308-44c1-a334-547b88a7122f"},"vehicle_type_id":"4","last_reported":1752560253,"current_range_meters":21600,"station_id":"st_cvj6sg6p6f1abm77japg","pricing_plan_id":"cebpf4jnsgd1na2vs0mg"},{"bike_id":"715d022f-28d0-4c32-9336-41c485904164","system_id":"levelo_inurba_marseille","lat":43.321017,"lon":5.367752,"is_reserved":false,"is_disabled":false,"rental_uris":{"android":"levelo://app?vid=715d022f-28d0-4c32-9336-41c485904164","ios":"levelo://app?vid=715d022f-28d0-4c32-9336-41c485904164"},"vehicle_type_id":"4","last_reported":1752560253,"current_range_meters":21600,"station_id":"ce4bhrh2rcd13ifvqhug","pricing_plan_id":"cebpf4jnsgd1na2vs0mg"},{"bike_id":"320bcd66-f406-4d29-b361-bf4ee558eb37","system_id":"levelo_inurba_marseille","lat":43.29634,"lon":5.40621,"is_reserved":false,"is_disabled":false,"rental_uris":{"android":"levelo://app?vid=320bcd66-f406-4d29-b361-bf4ee558eb37","ios":"levelo://app?vid=320bcd66-f406-4d29-b361-bf4ee558eb37"},"vehicle_type_id":"4","last_reported":1752560253,"current_range_meters":21600,"station_id":"ce4bh0h2rcd13ifvqd60","pricing_plan_id":"cebpf4jnsgd1na2vs0mg"},{"bike_id":"e052fcae-45d9-43f3-a1e5-a83c0613120f","system_id":"levelo_inurba_marseille","lat":43.25869,"lon":5.39901,"is_reserved":false,"is_disabled":false,"rental_uris":{"android":"levelo://app?vid=e052fcae-45d9-43f3-a1e5-a83c0613120f","ios":"levelo://app?vid=e052fcae-45d9-43f3-a1e5-a83c0613120f"},"vehicle_type_id":"4","last_reported":1752560253,"current_range_meters":21600,"station_id":"ce4bhl92rcd13ifvqghg","pricing_plan_id":"cebpf4jnsgd1na2vs0mg"},{"bike_id":"576f7547-e82f-42b1-b2ec-7ef31aefb23f","system_id":"levelo_inurba_marseille","lat":43.305481,"lon":5.384159,"is_reserved":false,"is_disabled":false,"rental_uris":{"android":"levelo://app?vid=576f7547-e82f-42b1-b2ec-7ef31aefb23f","ios":"levelo://app?vid=576f7547-e82f-42b1-b2ec-7ef31aefb23f"},"vehicle_type_id":"4","last_reported":1752560253,"current_range_meters":21600,"station_id":"ce4bgg92rcd13ifvqb30","pricing_plan_id":"cebpf4jnsgd1na2vs0mg"},{"bike_id":"b1e0549d-b768-496e-bb72-60dde2c32d88","system_id":"levelo_inurba_marseille","lat":43.272217,"lon":5.391697,"is_reserved":false,"is_disabled":false,"rental_uris":{"android":"levelo://app?vid=b1e0549d-b768-496e-bb72-60dde2c32d88","ios":"levelo://app?vid=b1e0549d-b768-496e-bb72-60dde2c32d88"},"vehicle_type_id":"4","last_reported":1752560253,"current_range_meters":21600,"station_id":"ce4bhhp2rcd13ifvqfm0","pricing_plan_id":"cebpf4jnsgd1na2vs0mg"},{"bike_id":"5ac9071c-48d7-4d25-95b4-f57599d509c5","system_id":"levelo_inurba_marseille","lat":43.29323,"lon":5.372,"is_reserved":false,"is_disabled":true,"rental_uris":{"android":"levelo://app?vid=5ac9071c-48d7-4d25-95b4-f57599d509c5","ios":"levelo://app?vid=5ac9071c-48d7-4d25-95b4-f57599d509c5"},"vehicle_type_id":"4","last_reported":1752560253,"current_range_meters":21600,"station_id":"ce4bgh92rcd13ifvqb40","pricing_plan_id":"cebpf4jnsgd1na2vs0mg"},{"bike_id":"cd8f3c0d-552d-4a3f-88af-516f4759f77d","system_id":"levelo_inurba_marseille","lat":43.304565,"lon":5.379052,"is_reserved":false,"is_disabled":false,"rental_uris":{"android":"levelo://app?vid=cd8f3c0d-552d-4a3f-88af-516f4759f77d","ios":"levelo://app?vid=cd8f3c0d-552d-4a3f-88af-516f4759f77d"},"vehicle_type_id":"4","last_reported":1752560253,"current_range_meters":22000,"station_id":"ce4bgup2rcd13ifvqcn0","pricing_plan_id":"cebpf4jnsgd1na2vs0mg"},{"bike_id":"2a476c21-11c4-4a68-9c83-59f52a11bd10","system_id":"levelo_inurba_marseille","lat":43.309285,"lon":5.401538,"is_reserved":false,"is_disabled":false,"rental_uris":{"android":"levelo://app?vid=2a476c21-11c4-4a68-9c83-59f52a11bd10","ios":"levelo://app?vid=2a476c21-11c4-4a68-9c83-59f52a11bd10"},"vehicle_type_id":"4","last_reported":1752560253,"current_range_meters":22000,"station_id":"ce4bgvp2rcd13ifvqct0","pricing_plan_id":"cebpf4jnsgd1na2vs0mg"},{"bike_id":"90b8ee11-9c54-4dc8-9fba-ad676bda395a","system_id":"levelo_inurba_marseille","lat":43.30204,"lon":5.38204,"is_reserved":false,"is_disabled":true,"rental_uris":{"android":"levelo://app?vid=90b8ee11-9c54-4dc8-9fba-ad676bda395a","ios":"levelo://app?vid=90b8ee11-9c54-4dc8-9fba-ad676bda395a"},"vehicle_type_id":"4","last_reported":1752560253,"current_range_meters":22000,"station_id":"","pricing_plan_id":"cebpf4jnsgd1na2vs0mg"},{"bike_id":"02332818-a066-48dd-a4b6-3c0f37c743df","system_id":"levelo_inurba_marseille","lat":43.303273,"lon":5.404377,"is_reserved":false,"is_disabled":false,"rental_uris":{"android":"levelo://app?vid=02332818-a066-48dd-a4b6-3c0f37c743df","ios":"levelo://app?vid=02332818-a066-48dd-a4b6-3c0f37c743df"},"vehicle_type_id":"4","last_reported":1752560253,"current_range_meters":22000,"station_id":"ce4bh012rcd13ifvqd10","pricing_plan_id":"cebpf4jnsgd1na2vs0mg"},{"bike_id":"e99f4838-872a-4abd-8d4e-c21704332a2c","system_id":"levelo_inurba_marseille","lat":43.211973,"lon":5.350828,"is_reserved":false,"is_disabled":false,"rental_uris":{"android":"levelo://app?vid=e99f4838-872a-4abd-8d4e-c21704332a2c","ios":"levelo://app?vid=e99f4838-872a-4abd-8d4e-c21704332a2c"},"vehicle_type_id":"4","last_reported":1752560253,"current_range_meters":22000,"station_id":"st_cvj6sg6p6f1abm77japg","pricing_plan_id":"cebpf4jnsgd1na2vs0mg"},{"bike_id":"fc37079b-b4c4-49de-8f4b-76279df1eb4a","system_id":"levelo_inurba_marseille","lat":43.29715,"lon":5.37695,"is_reserved":false,"is_disabled":false,"rental_uris":{"android":"levelo://app?vid=fc37079b-b4c4-49de-8f4b-76279df1eb4a","ios":"levelo://app?vid=fc37079b-b4c4-49de-8f4b-76279df1eb4a"},