{"last_updated":1774356354,"ttl":60,"version":"2.2","data":{"bikes":[{"bike_id":"7d0e7181-3a70-4370-9354-bef3948a92c8","system_id":"levelo_inurba_marseille","lat":43.29959,"lon":5.41327,"is_reserved":false,"is_disabled":false,"rental_uris":{"android":"levelo://app?vid=7d0e7181-3a70-4370-9354-bef3948a92c8","ios":"levelo://app?vid=7d0e7181-3a70-4370-9354-bef3948a92c8"},"vehicle_type_id":"4","last_reported":1774356354,"current_range_meters":2800,"station_id":"ce4bhp12rcd13ifvqh9g","pricing_plan_id":"cebpf4jnsgd1na2vs0mg"},{"bike_id":"b243165f-2727-41ea-ae46-b940ca728d6b","system_id":"levelo_inurba_marseille","lat":43.30798,"lon":5.37614,"is_reserved":false,"is_disabled":false,"rental_uris":{"android":"levelo://app?vid=b243165f-2727-41ea-ae46-b940ca728d6b","ios":"levelo://app?vid=b243165f-2727-41ea-ae46-b940ca728d6b"},"vehicle_type_id":"4","last_reported":1774356354,"current_range_meters":2800,"station_id":"ce4bgv92rcd13ifvqcq0","pricing_plan_id":"cebpf4jnsgd1na2vs0mg"},{"bike_id":"00f4039c-838f-43a1-a71b-6c5b9693f44f","system_id":"levelo_inurba_marseille","lat":43.26773,"lon":5.39417,"is_reserved":false,"is_disabled":false,"rental_uris":{"android":"levelo://app?vid=00f4039c-838f-43a1-a71b-6c5b9693f44f","ios":"levelo://app?vid=00f4039c-838f-43a1-a71b-6c5b9693f44f"},"vehicle_type_id":"4","last_reported":1774356354,"current_range_meters":2800,"station_id":"ce4bhh12rcd13ifvqfg0","pricing_plan_id":"cebpf4jnsgd1na2vs0mg"},{"bike_id":"6129324b-bc79-4660-8045-ca383beec99b","system_id":"levelo_inurba_marseille","lat":43.25717,"lon":5.41116,"is_reserved":false,"is_disabled":false,"rental_uris":{"android":"levelo://app?vid=6129324b-bc79-4660-8045-ca383beec99b","ios":"levelo://app?vid=6129324b-bc79-4660-8045-ca383beec99b"},"vehicle_type_id":"4","last_reported":1774356354,"current_range_meters":2800,"station_id":"ce4bhkp2rcd13ifvqgd0","pricing_plan_id":"cebpf4jnsgd1na2vs0mg"},{"bike_id":"b57800af-160e-4a76-a637-994ebd7704a8","system_id":"levelo_inurba_marseille","lat":43.28848,"lon":5.35891,"is_reserved":false,"is_disabled":false,"rental_uris":{"android":"levelo://app?vid=b57800af-160e-4a76-a637-994ebd7704a8","ios":"levelo://app?vid=b57800af-160e-4a76-a637-994ebd7704a8"},"vehicle_type_id":"4","last_reported":1774356354,"current_range_meters":2800,"station_id":"ce4bhb12rcd13ifvqem0","pricing_plan_id":"cebpf4jnsgd1na2vs0mg"},{"bike_id":"0f88d6b7-883f-4b13-98ff-b1b3b7d422a5","system_id":"levelo_inurba_marseille","lat":43.25926,"lon":5.40905,"is_reserved":false,"is_disabled":true,"rental_uris":{"android":"levelo://app?vid=0f88d6b7-883f-4b13-98ff-b1b3b7d422a5","ios":"levelo://app?vid=0f88d6b7-883f-4b13-98ff-b1b3b7d422a5"},"vehicle_type_id":"4","last_reported":1774356354,"current_range_meters":2800,"station_id":"ce4bhm92rcd13ifvqglg","pricing_plan_id":"cebpf4jnsgd1na2vs0mg"},{"bike_id":"c3f3c8ac-b6d1-4026-a061-65e7cfa764fe","system_id":"levelo_inurba_marseille","lat":43.28495,"lon":5.48373,"is_reserved":false,"is_disabled":false,"rental_uris":{"android":"levelo://app?vid=c3f3c8ac-b6d1-4026-a061-65e7cfa764fe","ios":"levelo://app?vid=c3f3c8ac-b6d1-4026-a061-65e7cfa764fe"},"vehicle_type_id":"4","last_reported":1774356354,"current_range_meters":2800,"station_id":"","pricing_plan_id":"cebpf4jnsgd1na2vs0mg"},{"bike_id":"f1235d51-4e70-4dcb-b813-536275678677","system_id":"levelo_inurba_marseille","lat":43.30957,"lon":5.39019,"is_reserved":false,"is_disabled":false,"rental_uris":{"android":"levelo://app?vid=f1235d51-4e70-4dcb-b813-536275678677","ios":"levelo://app?vid=f1235d51-4e70-4dcb-b813-536275678677"},"vehicle_type_id":"4","last_reported":1774356354,"current_range_meters":3200,"station_id":"ce4bgup2rcd13ifvqco0","pricing_plan_id":"cebpf4jnsgd1na2vs0mg"},{"bike_id":"ffb98fb8-da98-43fb-9eac-ddb2ee1141c2","system_id":"levelo_inurba_marseille","lat":43.24633,"lon":5.41645,"is_reserved":false,"is_disabled":false,"rental_uris":{"android":"levelo://app?vid=ffb98fb8-da98-43fb-9eac-ddb2ee1141c2","ios":"levelo://app?vid=ffb98fb8-da98-43fb-9eac-ddb2ee1141c2"},"vehicle_type_id":"4","last_reported":1774356354,"current_range_meters":3200,"station_id":"","pricing_plan_id":"cebpf4jnsgd1na2vs0mg"},{"bike_id":"f554888c-9515-430c-b3e9-327a4cc15db0","system_id":"levelo_inurba_marseille","lat":43.2964,"lon":5.42423,"is_reserved":false,"is_disabled":false,"rental_uris":{"android":"levelo://app?vid=f554888c-9515-430c-b3e9-327a4cc15db0","ios":"levelo://app?vid=f554888c-9515-430c-b3e9-327a4cc15db0"},"vehicle_type_id":"4","last_reported":1774356354,"current_range_meters":3200,"station_id":"","pricing_plan_id":"cebpf4jnsgd1na2vs0mg"},{"bike_id":"82d19d95-2492-495d-b746-799a9f30f6d5","system_id":"levelo_inurba_marseille","lat":43.28229,"lon":5.40832,"is_reserved":false,"is_disabled":false,"rental_uris":{"android":"levelo://app?vid=82d19d95-2492-495d-b746-799a9f30f6d5","ios":"levelo://app?vid=82d19d95-2492-495d-b746-799a9f30f6d5"},"vehicle_type_id":"4","last_reported":1774356354,"current_range_meters":3200,"station_id":"","pricing_plan_id":"cebpf4jnsgd1na2vs0mg"},{"bike_id":"6f3fdbf9-917f-421d-aa86-02187d7ba65c","system_id":"levelo_inurba_marseille","lat":43.28481,"lon":5.4839,"is_reserved":false,"is_disabled":false,"rental_uris":{"android":"levelo://app?vid=6f3fdbf9-917f-421d-aa86-02187d7ba65c","ios":"levelo://app?vid=6f3fdbf9-917f-421d-aa86-02187d7ba65c"},"vehicle_type_id":"4","last_reported":1774356354,"current_range_meters":3200,"station_id":"st_d3svhcjqgbts73a3dn0g","pricing_plan_id":"cebpf4jnsgd1na2vs0mg"},{"bike_id":"d800c613-ad48-4197-9627-52b5164a5a60","system_id":"levelo_inurba_marseille","lat":43.23168,"lon":5.43681,"is_reserved":false,"is_disabled":false,"rental_uris":{"android":"levelo://app?vid=d800c613-ad48-4197-9627-52b5164a5a60","ios":"levelo://app?vid=d800c613-ad48-4197-9627-52b5164a5a60"},"vehicle_type_id":"4","last_reported":1774356354,"current_range_meters":3200,"station_id":"ce4bhmp2rcd13ifvqgog","pricing_plan_id":"cebpf4jnsgd1na2vs0mg"},{"bike_id":"e83262b0-1126-4f07-ae69-266f4cd40a8c","system_id":"levelo_inurba_marseille","lat":43.27209,"lon":5.39191,"is_reserved":false,"is_disabled":false,"rental_uris":{"android":"levelo://app?vid=e83262b0-1126-4f07-ae69-266f4cd40a8c","ios":"levelo://app?vid=e83262b0-1126-4f07-ae69-266f4cd40a8c"},"vehicle_type_id":"4","last_reported":1774356354,"current_range_meters":3200,"station_id":"ce4bhhp2rcd13ifvqfm0","pricing_plan_id":"cebpf4jnsgd1na2vs0mg"},{"bike_id":"bc27e809-afb9-4b67-90c4-fb613e66e8ac","system_id":"levelo_inurba_marseille","lat":43.3249,"lon":5.36576,"is_reserved":false,"is_disabled":false,"rental_uris":{"android":"levelo://app?vid=bc27e809-afb9-4b67-90c4-fb613e66e8ac","ios":"levelo://app?vid=bc27e809-afb9-4b67-90c4-fb613e66e8ac"},"vehicle_type_id":"4","last_reported":1774356354,"current_range_meters":3600,"station_id":"ce4bhs12rcd13ifvqhvg","pricing_plan_id":"cebpf4jnsgd1na2vs0mg"},{"bike_id":"6a361988-483c-4fea-b668-fae45fefb959","system_id":"levelo_inurba_marseille","lat":43.32117,"lon":5.36759,"is_reserved":false,"is_disabled":false,"rental_uris":{"android":"levelo://app?vid=6a361988-483c-4fea-b668-fae45fefb959","ios":"levelo://app?vid=6a361988-483c-4fea-b668-fae45fefb959"},"vehicle_type_id":"4","last_reported":1774356354,"current_range_meters":3600,"station_id":"ce4bhrh2rcd13ifvqhug","pricing_plan_id":"cebpf4jnsgd1na2vs0mg"},{"bike_id":"8a067a40-2b29-4806-a830-bffb2dfb8e57","system_id":"levelo_inurba_marseille","lat":43.26562,"lon":5.37288,"is_reserved":false,"is_disabled":false,"rental_uris":{"android":"levelo://app?vid=8a067a40-2b29-4806-a830-bffb2dfb8e57","ios":"levelo://app?vid=8a067a40-2b29-4806-a830-bffb2dfb8e57"},"vehicle_type_id":"4","last_reported":1774356354,"current_range_meters":3600,"station_id":"ce4bhg12rcd13ifvqf70","pricing_plan_id":"cebpf4jnsgd1na2vs0mg"},{"bike_id":"63fb6336-17f6-4435-9585-e8e9f8fc71fb","system_id":"levelo_inurba_marseille","lat":43.23157,"lon":5.43692,"is_reserved":false,"is_disabled":false,"rental_uris":{"android":"levelo://app?vid=63fb6336-17f6-4435-9585-e8e9f8fc71fb","ios":"levelo://app?vid=63fb6336-17f6-4435-9585-e8e9f8fc71fb"},"vehicle_type_id":"4","last_reported":1774356354,"current_range_meters":3600,"station_id":"ce4bhmp2rcd13ifvqgog","pricing_plan_id":"cebpf4jnsgd1na2vs0mg"},{"bike_id":"134ec09b-de3e-41f0-93c9-aa86737c6894","system_id":"levelo_inurba_marseille","lat":43.32483,"lon":5.38289,"is_reserved":false,"is_disabled":false,"rental_uris":{"android":"levelo://app?vid=134ec09b-de3e-41f0-93c9-aa86737c6894","ios":"levelo://app?vid=134ec09b-de3e-41f0-93c9-aa86737c6894"},"vehicle_type_id":"4","last_reported":1774356354,"current_range_meters":3600,"station_id":"st_d4asgbiv49dc73anf9m0","pricing_plan_id":"cebpf4jnsgd1na2vs0mg"},{"bike_id":"67184a1e-328f-4b7e-a7ed-f5346d66ee6a","system_id":"levelo_inurba_marseille","lat":43.29008,"lon":5.3812,"is_reserved":false,"is_disabled":false,"rental_uris":{"android":"levelo://app?vid=67184a1e-328f-4b7e-a7ed-f5346d66ee6a","ios":"levelo://app?vid=67184a1e-328f-4b7e-a7ed-f5346d66ee6a"},"vehicle_type_id":"4","last_reported":1774356354,"current_range_meters":3600,"station_id":"ce4bh4p2rcd13ifvqe1g","pricing_plan_id":"cebpf4jnsgd1na2vs0mg"},{"bike_id":"4d88734a-162e-4307-92a3-61e5ee7aa63f","system_id":"levelo_inurba_marseille","lat":43.29205,"lon":5.42586,"is_reserved":false,"is_disabled":true,"rental_uris":{"android":"levelo://app?vid=4d88734a-162e-4307-92a3-61e5ee7aa63f","ios":"levelo://app?vid=4d88734a-162e-4307-92a3-61e5ee7aa63f"},"vehicle_type_id":"4","last_reported":1774356354,"current_range_meters":3600,"station_id":"","pricing_plan_id":"cebpf4jnsgd1na2vs0mg"},{"bike_id":"9f8c5aae-214b-4b16-b28e-49c211477f37","system_id":"levelo_inurba_marseille","lat":43.28543,"lon":5.44107,"is_reserved":false,"is_disabled":false,"rental_uris":{"android":"levelo://app?vid=9f8c5aae-214b-4b16-b28e-49c211477f37","ios":"levelo://app?vid=9f8c5aae-214b-4b16-b28e-49c211477f37"},"vehicle_type_id":"4","last_reported":1774356354,"current_range_meters":3600,"station_id":"st_d3j3df2ikq2c7380ej80","pricing_plan_id":"cebpf4jnsgd1na2vs0mg"},{"bike_id":"43e533cf-9b26-44c4-be7e-ee1dae392786","system_id":"levelo_inurba_marseille","lat":43.26378,"lon":5.41085,"is_reserved":false,"is_disabled":false,"rental_uris":{"android":"levelo://app?vid=43e533cf-9b26-44c4-be7e-ee1dae392786","ios":"levelo://app?vid=43e533cf-9b26-44c4-be7e-ee1dae392786"},"vehicle_type_id":"4","last_reported":1774356354,"current_range_meters":3600,"station_id":"st_d4e5ca6na9uc73bfl5fg","pricing_plan_id":"cebpf4jnsgd1na2vs0mg"},{"bike_id":"2565c1a6-db78-4222-859e-3c243a83c02d","system_id":"levelo_inurba_marseille","lat":43.30467,"lon":5.37909,"is_reserved":false,"is_disabled":false,"rental_uris":{"android":"levelo://app?vid=2565c1a6-db78-4222-859e-3c243a83c02d","ios":"levelo://app?vid=2565c1a6-db78-4222-859e-3c243a83c02d"},"vehicle_type_id":"4","last_reported":1774356354,"current_range_meters":3600,"station_id":"","pricing_plan_id":"cebpf4jnsgd1na2vs0mg"},{"bike_id":"bf5af6f8-69a5-4b76-be3f-994c76781739","system_id":"levelo_inurba_marseille","lat":43.26552,"lon":5.39008,"is_reserved":false,"is_disabled":true,"rental_uris":{"android":"levelo://app?vid=bf5af6f8-69a5-4b76-be3f-994c76781739","ios":"levelo://app?vid=bf5af6f8-69a5-4b76-be3f-994c76781739"},"vehicle_type_id":"4","last_reported":1774356354,"current_range_meters":4000,"station_id":"ce4bhe12rcd13ifvqf30","pricing_plan_id":"cebpf4jnsgd1na2vs0mg"},{"bike_id":"c49e9578-571f-4887-a4b2-b47715463765","system_id":"levelo_inurba_marseille","lat":43.27364,"lon":5.36252,"is_reserved":false,"is_disabled":false,"rental_uris":{"android":"levelo://app?vid=c49e9578-571f-4887-a4b2-b47715463765","ios":"levelo://app?vid=c49e9578-571f-4887-a4b2-b47715463765"},"vehicle_type_id":"4","last_reported":1774356354,"current_range_meters":4000,"station_id":"ce4bhbh2rcd13ifvqeo0","pricing_plan_id":"cebpf4jnsgd1na2vs0mg"},{"bike_id":"2a5f80a6-a530-40e8-8b57-fb3c7d7e0c72","system_id":"levelo_inurba_marseille","lat":43.2594,"lon":5.40891,"is_reserved":false,"is_disabled":false,"rental_uris":{"android":"levelo://app?vid=2a5f80a6-a530-40e8-8b57-fb3c7d7e0c72","ios":"levelo://app?vid=2a5f80a6-a530-40e8-8b57-fb3c7d7e0c72"},"vehicle_type_id":"4","last_reported":1774356354,"current_range_meters":4000,"station_id":"ce4bhm92rcd13ifvqglg","pricing_plan_id":"cebpf4jnsgd1na2vs0mg"},{"bike_id":"13df310a-df66-4459-a0ed-d5986144cfc6","system_id":"levelo_inurba_marseille","lat":43.26506,"lon":5.39547,"is_reserved":false,"is_disabled":false,"rental_uris":{"android":"levelo://app?vid=13df310a-df66-4459-a0ed-d5986144cfc6","ios":"levelo://app?vid=13df310a-df66-4459-a0ed-d5986144cfc6"},"vehicle_type_id":"4","last_reported":1774356354,"current_range_meters":4000,"station_id":"ce4bhi12rcd13ifvqfq0","pricing_plan_id":"cebpf4jnsgd1na2vs0mg"},{"bike_id":"a9ec82e5-093a-4542-9f2f-44e506af087d","system_id":"levelo_inurba_marseille","lat":43.28411,"lon":5.34989,"is_reserved":false,"is_disabled":false,"rental_uris":{"android":"levelo://app?vid=a9ec82e5-093a-4542-9f2f-44e506af087d","ios":"levelo://app?vid=a9ec82e5-093a-4542-9f2f-44e506af087d"},"vehicle_type_id":"4","last_reported":1774356354,"current_range_meters":4000,"station_id":"ce4bhbh2rcd13ifvqepg","pricing_plan_id":"cebpf4jnsgd1na2vs0mg"},{"bike_id":"bbb20be4-a4e3-4756-bf9e-de6efa0abbb9","system_id":"levelo_inurba_marseille","lat":43.29193,"lon":5.42567,"is_reserved":false,"is_disabled":false,"rental_uris":{"android":"levelo://app?vid=bbb20be4-a4e3-4756-bf9e-de6efa0abbb9","ios":"levelo://app?vid=bbb20be4-a4e3-4756-bf9e-de6efa0abbb9"},"vehicle_type_id":"4","last_reported":1774356354,"current_range_meters":4000,"station_id":"","pricing_plan_id":"cebpf4jnsgd1na2vs0mg"},{"bike_id":"0add2a96-b6be-483b-ad2e-88265dc5481b","system_id":"levelo_inurba_marseille","lat":43.23887,"lon":5.37462,"is_reserved":false,"is_disabled":false,"rental_uris":{"android":"levelo://app?vid=0add2a96-b6be-483b-ad2e-88265dc5481b","ios":"levelo://app?vid=0add2a96-b6be-483b-ad2e-88265dc5481b"},"vehicle_type_id":"4","last_reported":1774356354,"current_range_meters":4000,"station_id":"st_d6sm7csbq4hs73f8fpjg","pricing_plan_id":"cebpf4jnsgd1na2vs0mg"},{"bike_id":"87cab354-e36c-4dc9-949d-1832434988fa","system_id":"levelo_inurba_marseille","lat":43.313,"lon":5.38434,"is_reserved":false,"is_disabled":false,"rental_uris":{"android":"levelo://app?vid=87cab354-e36c-4dc9-949d-1832434988fa","ios":"levelo://app?vid=87cab354-e36c-4dc9-949d-1832434988fa"},"vehicle_type_id":"4","last_reported":1774356354,"current_range_meters":4000,"station_id":"","pricing_plan_id":"cebpf4jnsgd1na2vs0mg"},{"bike_id":"d882c5f0-6d30-468c-89d5-352032b15473","system_id":"levelo_inurba_marseille","lat":43.23204,"lon":5.35531,"is_reserved":false,"is_disabled":false,"rental_uris":{"android":"levelo://app?vid=d882c5f0-6d30-468c-89d5-352032b15473","ios":"levelo://app?vid=d882c5f0-6d30-468c-89d5-352032b15473"},"vehicle_type_id":"4","last_reported":1774356354,"current_range_meters":4000,"station_id":"ce4bhu92rcd13ifvqi70","pricing_plan_id":"cebpf4jnsgd1na2vs0mg"},{"bike_id":"c0ede030-ab9a-4615-a9c7-01479ac5ac50","system_id":"levelo_inurba_marseille","lat":43.26696,"lon":5.38268,"is_reserved":false,"is_disabled":false,"rental_uris":{"android":"levelo://app?vid=c0ede030-ab9a-4615-a9c7-01479ac5ac50","ios":"levelo://app?vid=c0ede030-ab9a-4615-a9c7-01479ac5ac50"},"vehicle_type_id":"4","last_reported":1774356354,"current_range_meters":4400,"station_id":"ce4bhg92rcd13ifvqf90","pricing_plan_id":"cebpf4jnsgd1na2vs0mg"},{"bike_id":"fa1cda98-6fa6-42a9-ae0a-4d0ed02bb2ca","system_id":"levelo_inurba_marseille","lat":43.29912,"lon":5.3814,"is_reserved":false,"is_disabled":false,"rental_uris":{"android":"levelo://app?vid=fa1cda98-6fa6-42a9-ae0a-4d0ed02bb2ca","ios":"levelo://app?vid=fa1cda98-6fa6-42a9-ae0a-4d0ed02bb2ca"},"vehicle_type_id":"4","last_reported":1774356354,"current_range_meters":4800,"station_id":"ce4bgj12rcd13ifvqbc0","pricing_plan_id":"cebpf4jnsgd1na2vs0mg"},{"bike_id":"67fa727b-a75e-43f5-8f7f-0420dd73f369","system_id":"levelo_inurba_marseille","lat":43.31501,"lon":5.37304,"is_reserved":false,"is_disabled":false,"rental_uris":{"android":"levelo://app?vid=67fa727b-a75e-43f5-8f7f-0420dd73f369","ios":"levelo://app?vid=67fa727b-a75e-43f5-8f7f-0420dd73f369"},"vehicle_type_id":"4","last_reported":1774356354,"current_range_meters":4800,"station_id":"ce4bgt12rcd13ifvqcd0","pricing_plan_id":"cebpf4jnsgd1na2vs0mg"},{"bike_id":"f7fa1ad5-099f-49b7-ba3e-26442c9181b9","system_id":"levelo_inurba_marseille","lat":43.30537,"lon":5.36525,"is_reserved":false,"is_disabled":false,"rental_uris":{"android":"levelo://app?vid=f7fa1ad5-099f-49b7-ba3e-26442c9181b9","ios":"levelo://app?vid=f7fa1ad5-099f-49b7-ba3e-26442c9181b9"},"vehicle_type_id":"4","last_reported":1774356354,"current_range_meters":4800,"station_id":"ce4bgs12rcd13ifvqcag","pricing_plan_id":"cebpf4jnsgd1na2vs0mg"},{"bike_id":"19b82be1-b440-4d0a-9a72-a56e26a8c0b8","system_id":"levelo_inurba_marseille","lat":43.31171,"lon":5.38715,"is_reserved":false,"is_disabled":false,"rental_uris":{"android":"levelo://app?vid=19b82be1-b440-4d0a-9a72-a56e26a8c0b8","ios":"levelo://app?vid=19b82be1-b440-4d0a-9a72-a56e26a8c0b8"},"vehicle_type_id":"4","last_reported":1774356354,"current_range_meters":4800,"station_id":"ce4bgv12rcd13ifvqcp0","pricing_plan_id":"cebpf4jnsgd1na2vs0mg"},{"bike_id":"0f20725a-6a44-43fa-9842-d87d17e8a6e1","system_id":"levelo_inurba_marseille","lat":43.3055,"lon":5.36555,"is_reserved":false,"is_disabled":false,"rental_uris":{"android":"levelo://app?vid=0f20725a-6a44-43fa-9842-d87d17e8a6e1","ios":"levelo://app?vid=0f20725a-6a44-43fa-9842-d87d17e8a6e1"},"vehicle_type_id":"4","last_reported":1774356354,"current_range_meters":4800,"station_id":"ce4bgs12rcd13ifvqcag","pricing_plan_id":"cebpf4jnsgd1na2vs0mg"},{"bike_id":"5f2558c5-438e-459c-a403-8a7eef5cc9f8","system_id":"levelo_inurba_marseille","lat":43.28577,"lon":5.39503,"is_reserved":false,"is_disabled":false,"rental_uris":{"android":"levelo://app?vid=5f2558c5-438e-459c-a403-8a7eef5cc9f8","ios":"levelo://app?vid=5f2558c5-438e-459c-a403-8a7eef5cc9f8"},"vehicle_type_id":"4","last_reported":1774356354,"current_range_meters":4800,"station_id":"ce4bh292rcd13ifvqdg0","pricing_plan_id":"cebpf4jnsgd1na2vs0mg"},{"bike_id":"9ee9e783-2c85-4849-91db-12992211c84e","system_id":"levelo_inurba_marseille","lat":43.23143,"lon":5.43688,"is_reserved":false,"is_disabled":false,"rental_uris":{"android":"levelo://app?vid=9ee9e783-2c85-4849-91db-12992211c84e","ios":"levelo://app?vid=9ee9e783-2c85-4849-91db-12992211c84e"},"vehicle_type_id":"4","last_reported":1774356354,"current_range_meters":5600,"station_id":"ce4bhmp2rcd13ifvqgog","pricing_plan_id":"cebpf4jnsgd1na2vs0mg"},{"bike_id":"e41c893a-4032-48f3-bf3a-8efcbfe1465c","system_id":"levelo_inurba_marseille","lat":43.25847,"lon":5.39438,"is_reserved":false,"is_disabled":true,"rental_uris":{"android":"levelo://app?vid=e41c893a-4032-48f3-bf3a-8efcbfe1465c","ios":"levelo://app?vid=e41c893a-4032-48f3-bf3a-8efcbfe1465c"},"vehicle_type_id":"4","last_reported":1774356354,"current_range_meters":5600,"station_id":"ce4bhip2rcd13ifvqft0","pricing_plan_id":"cebpf4jnsgd1na2vs0mg"},{"bike_id":"1d0f3067-7ca2-4fbd-8b40-b921c6748a4a","system_id":"levelo_inurba_marseille","lat":43.28476,"lon":5.48397,"is_reserved":false,"is_disabled":false,"rental_uris":{"android":"levelo://app?vid=1d0f3067-7ca2-4fbd-8b40-b921c6748a4a","ios":"levelo://app?vid=1d0f3067-7ca2-4fbd-8b40-b921c6748a4a"},"vehicle_type_id":"4","last_reported":1774356354,"current_range_meters":5600,"station_id":"","pricing_plan_id":"cebpf4jnsgd1na2vs0mg"},{"bike_id":"7f8fb115-abde-4880-9a00-1089095cf253","system_id":"levelo_inurba_marseille","lat":43.29884,"lon":5.38904,"is_reserved":false,"is_disabled":true,"rental_uris":{"android":"levelo://app?vid=7f8fb115-abde-4880-9a00-1089095cf253","ios":"levelo://app?vid=7f8fb115-abde-4880-9a00-1089095cf253"},"vehicle_type_id":"4","last_reported":1774356354,"current_range_meters":5600,"station_id":"ce4bh392rcd13ifvqdl0","pricing_plan_id":"cebpf4jnsgd1na2vs0mg"},{"bike_id":"72999db3-62c4-4d6b-9c7f-3129997c7dc6","system_id":"levelo_inurba_marseille","lat":43.28134,"lon":5.40946,"is_reserved":false,"is_disabled":false,"rental_uris":{"android":"levelo://app?vid=72999db3-62c4-4d6b-9c7f-3129997c7dc6","ios":"levelo://app?vid=72999db3-62c4-4d6b-9c7f-3129997c7dc6"},"vehicle_type_id":"4","last_reported":1774356354,"current_range_meters":5600,"station_id":"","pricing_plan_id":"cebpf4jnsgd1na2vs0mg"},{"bike_id":"d9762b28-65d1-4114-9609-5a7f09174170","system_id":"levelo_inurba_marseille","lat":43.24079,"lon":5.37763,"is_reserved":false,"is_disabled":false,"rental_uris":{"android":"levelo://app?vid=d9762b28-65d1-4114-9609-5a7f09174170","ios":"levelo://app?vid=d9762b28-65d1-4114-9609-5a7f09174170"},"vehicle_type_id":"4","last_reported":1774356354,"current_range_meters":5600,"station_id":"ce4bhnp2rcd13ifvqgvg","pricing_plan_id":"cebpf4jnsgd1na2vs0mg"},{"bike_id":"293d9caf-2f12-403d-9412-7e7a0536eea2","system_id":"levelo_inurba_marseille","lat":43.293,"lon":5.37444,"is_reserved":false,"is_disabled":false,"rental_uris":{"android":"levelo://app?vid=293d9caf-2f12-403d-9412-7e7a0536eea2","ios":"levelo://app?vid=293d9caf-2f12-403d-9412-7e7a0536eea2"},"vehicle_type_id":"4","last_reported":1774356354,"current_range_meters":5600,"station_id":"ce4bgi12rcd13ifvqb70","pricing_plan_id":"cebpf4jnsgd1na2vs0mg"},{"bike_id":"d2260517-36eb-498b-95a6-a249410b03cf","system_id":"levelo_inurba_marseille","lat":43.26583,"lon":5.39805,"is_reserved":false,"is_disabled":false,"rental_uris":{"android":"levelo://app?vid=d2260517-36eb-498b-95a6-a249410b03cf","ios":"levelo://app?vid=d2260517-36eb-498b-95a6-a249410b03cf"},"vehicle_type_id":"4","last_reported":1774356354,"current_range_meters":5600,"station_id":"","pricing_plan_id":"cebpf4jnsgd1na2vs0mg"},{"bike_id":"40906df4-17dd-4d9f-ac1f-0880c5eb117e","system_id":"levelo_inurba_marseille","lat":43.32335,"lon":5.36737,"is_reserved":false,"is_disabled":false,"rental_uris":{"android":"levelo://app?vid=40906df4-17dd-4d9f-ac1f-0880c5eb117e","ios":"levelo://app?vid=40906df4-17dd-4d9f-ac1f-0880c5eb117e"},"vehicle_type_id":"4","last_reported":1774356354,"current_range_meters":6000,"station_id":"ce4bhsh2rcd13ifvqi2g","pricing_plan_id":"cebpf4jnsgd1na2vs0mg"},{"bike_id":"141066b1-5234-40af-9c07-ec152c8edc09","system_id":"levelo_inurba_marseille","lat":43.32043,"lon":5.41532,"is_reserved":false,"is_disabled":false,"rental_uris":{"android":"levelo://app?vid=141066b1-5234-40af-9c07-ec152c8edc09","ios":"levelo://app?vid=141066b1-5234-40af-9c07-ec152c8edc09"},"vehicle_type_id":"4","last_reported":1774356354,"current_range_meters":6000,"station_id":"ce4bhq92rcd13ifvqhkg","pricing_plan_id":"cebpf4jnsgd1na2vs0mg"},{"bike_id":"767be3c7-42ea-460e-b4ab-7b74f6f87537","system_id":"levelo_inurba_marseille","lat":43.29966,"lon":5.38497,"is_reserved":false,"is_disabled":false,"rental_uris":{"android":"levelo://app?vid=767be3c7-42ea-460e-b4ab-7b74f6f87537","ios":"levelo://app?vid=767be3c7-42ea-460e-b4ab-7b74f6f87537"},"vehicle_type_id":"4","last_reported":1774356354,"current_range_meters":6000,"station_id":"ce4bgj92rcd13ifvqbd0","pricing_plan_id":"cebpf4jnsgd1na2vs0mg"},{"bike_id":"a2fabdf4-bd61-4352-82b4-201f5349c59d","system_id":"levelo_inurba_marseille","lat":43.26559,"lon":5.39015,"is_reserved":false,"is_disabled":true,"rental_uris":{"android":"levelo://app?vid=a2fabdf4-bd61-4352-82b4-201f5349c59d","ios":"levelo://app?vid=a2fabdf4-bd61-4352-82b4-201f5349c59d"},"vehicle_type_id":"4","last_reported":1774356354,"current_range_meters":6000,"station_id":"ce4bhe12rcd13ifvqf30","pricing_plan_id":"cebpf4jnsgd1na2vs0mg"},{"bike_id":"a9fcd02c-7b6b-4ad8-a39d-d88606ee3ac0","system_id":"levelo_inurba_marseille","lat":43.2501,"lon":5.38918,"is_reserved":false,"is_disabled":true,"rental_uris":{"android":"levelo://app?vid=a9fcd02c-7b6b-4ad8-a39d-d88606ee3ac0","ios":"levelo://app?vid=a9fcd02c-7b6b-4ad8-a39d-d88606ee3ac0"},"vehicle_type_id":"4","last_reported":1774356354,"current_range_meters":6000,"station_id":"ce4bhgp2rcd13ifvqfd0","pricing_plan_id":"cebpf4jnsgd1na2vs0mg"},{"bike_id":"807ff7fd-43b0-4423-8b9a-91e1802fc76b","system_id":"levelo_inurba_marseille","lat":43.2987,"lon":5.39737,"is_reserved":false,"is_disabled":false,"rental_uris":{"android":"levelo://app?vid=807ff7fd-43b0-4423-8b9a-91e1802fc76b","ios":"levelo://app?vid=807ff7fd-43b0-4423-8b9a-91e1802fc76b"},"vehicle_type_id":"4","last_reported":1774356354,"current_range_meters":6000,"station_id":"ce4bh0h2rcd13ifvqd50","pricing_plan_id":"cebpf4jnsgd1na2vs0mg"},{"bike_id":"984079ef-dac2-4f3d-839e-069af9ca9a81","system_id":"levelo_inurba_marseille","lat":43.280084,"lon":5.399997,"is_reserved":false,"is_disabled":false,"rental_uris":{"android":"levelo://app?vid=984079ef-dac2-4f3d-839e-069af9ca9a81","ios":"levelo://app?vid=984079ef-dac2-4f3d-839e-069af9ca9a81"},"vehicle_type_id":"4","last_reported":1774356354,"current_range_meters":6000,"station_id":"ce4bho92rcd13ifvqh4g","pricing_plan_id":"cebpf4jnsgd1na2vs0mg"},{"bike_id":"2800d3ae-4516-415c-9215-32d251476b25","system_id":"levelo_inurba_marseille","lat":43.30369,"lon":5.42503,"is_reserved":false,"is_disabled":false,"rental_uris":{"android":"levelo://app?vid=2800d3ae-4516-415c-9215-32d251476b25","ios":"levelo://app?vid=2800d3ae-4516-415c-9215-32d251476b25"},"vehicle_type_id":"4","last_reported":1774356354,"current_range_meters":6000,"station_id":"ce4bhoh2rcd13ifvqh6g","pricing_plan_id":"cebpf4jnsgd1na2vs0mg"},{"bike_id":"69a34fac-fc80-43dc-bb66-91eee3bdfb90","system_id":"levelo_inurba_marseille","lat":43.28776,"lon":5.35339,"is_reserved":false,"is_disabled":false,"rental_uris":{"android":"levelo://app?vid=69a34fac-fc80-43dc-bb66-91eee3bdfb90","ios":"levelo://app?vid=69a34fac-fc80-43dc-bb66-91eee3bdfb90"},"vehicle_type_id":"4","last_reported":1774356354,"current_range_meters":6000,"station_id":"","pricing_plan_id":"cebpf4jnsgd1na2vs0mg"},{"bike_id":"ddd19851-2813-4f37-ad2a-16ff941ac458","system_id":"levelo_inurba_marseille","lat":43.26961,"lon":5.40268,"is_reserved":false,"is_disabled":false,"rental_uris":{"android":"levelo://app?vid=ddd19851-2813-4f37-ad2a-16ff941ac458","ios":"levelo://app?vid=ddd19851-2813-4f37-ad2a-16ff941ac458"},"vehicle_type_id":"4","last_reported":1774356354,"current_range_meters":6000,"station_id":"cjm6bp8fraef2m0cb0m0","pricing_plan_id":"cebpf4jnsgd1na2vs0mg"},{"bike_id":"6e12c744-c386-4fad-befe-29eb201902c0","system_id":"levelo_inurba_marseille","lat":43.25346,"lon":5.42186,"is_reserved":false,"is_disabled":false,"rental_uris":{"android":"levelo://app?vid=6e12c744-c386-4fad-befe-29eb201902c0","ios":"levelo://app?vid=6e12c744-c386-4fad-befe-29eb201902c0"},"vehicle_type_id":"4","last_reported":1774356354,"current_range_meters":6000,"station_id":"","pricing_plan_id":"cebpf4jnsgd1na2vs0mg"},{"bike_id":"83ba9a27-1ffd-46e6-b6cd-44c9db3f84fb","system_id":"levelo_inurba_marseille","lat":43.24961,"lon":5.40501,"is_reserved":false,"is_disabled":false,"rental_uris":{"android":"levelo://app?vid=83ba9a27-1ffd-46e6-b6cd-44c9db3f84fb","ios":"levelo://app?vid=83ba9a27-1ffd-46e6-b6cd-44c9db3f84fb"},"vehicle_type_id":"4","last_reported":1774356354,"current_range_meters":6000,"station_id":"st_d2ngiaodas8pm72gd1h0","pricing_plan_id":"cebpf4jnsgd1na2vs0mg"},{"bike_id":"bbcec521-b2cb-4752-a30b-3cc813f9ce07","system_id":"levelo_inurba_marseille","lat":43.28745,"lon":5.44841,"is_reserved":false,"is_disabled":false,"rental_uris":{"android":"levelo://app?vid=bbcec521-b2cb-4752-a30b-3cc813f9ce07","ios":"levelo://app?vid=bbcec521-b2cb-4752-a30b-3cc813f9ce07"},"vehicle_type_id":"4","last_reported":1774356354,"current_range_meters":6000,"station_id":"","pricing_plan_id":"cebpf4jnsgd1na2vs0mg"},{"bike_id":"d89b1915-483d-4d09-b44a-47b8df915eef","system_id":"levelo_inurba_marseille","lat":43.23083,"lon":5.35498,"is_reserved":false,"is_disabled":false,"rental_uris":{"android":"levelo://app?vid=d89b1915-483d-4d09-b44a-47b8df915eef","ios":"levelo://app?vid=d89b1915-483d-4d09-b44a-47b8df915eef"},"vehicle_type_id":"4","last_reported":1774356354,"current_range_meters":6000,"station_id":"cpo3342slgdg3j2ifvpg","pricing_plan_id":"cebpf4jnsgd1na2vs0mg"},{"bike_id":"9770250a-77e9-4ea5-9ff1-988b6a720cc3","system_id":"levelo_inurba_marseille","lat":43.27205,"lon":5.39163,"is_reserved":false,"is_disabled":false,"rental_uris":{"android":"levelo://app?vid=9770250a-77e9-4ea5-9ff1-988b6a720cc3","ios":"levelo://app?vid=9770250a-77e9-4ea5-9ff1-988b6a720cc3"},"vehicle_type_id":"4","last_reported":1774356354,"current_range_meters":6400,"station_id":"ce4bhhp2rcd13ifvqfm0","pricing_plan_id":"cebpf4jnsgd1na2vs0mg"},{"bike_id":"256b161c-b142-4bd9-a3a8-1e9e29a5e07f","system_id":"levelo_inurba_marseille","lat":43.24077,"lon":5.37755,"is_reserved":false,"is_disabled":false,"rental_uris":{"android":"levelo://app?vid=256b161c-b142-4bd9-a3a8-1e9e29a5e07f","ios":"levelo://app?vid=256b161c-b142-4bd9-a3a8-1e9e29a5e07f"},"vehicle_type_id":"4","last_reported":1774356354,"current_range_meters":6400,"station_id":"ce4bhnp2rcd13ifvqgvg","pricing_plan_id":"cebpf4jnsgd1na2vs0mg"},{"bike_id":"2f502975-a390-4073-b153-a56892e056fa","system_id":"levelo_inurba_marseille","lat":43.33762,"lon":5.37421,"is_reserved":false,"is_disabled":false,"rental_uris":{"android":"levelo://app?vid=2f502975-a390-4073-b153-a56892e056fa","ios":"levelo://app?vid=2f502975-a390-4073-b153-a56892e056fa"},"vehicle_type_id":"4","last_reported":1774356354,"current_range_meters":6400,"station_id":"","pricing_plan_id":"cebpf4jnsgd1na2vs0mg"},{"bike_id":"4676a6aa-fbf3-4ad5-807c-7592e672720a","system_id":"levelo_inurba_marseille","lat":43.231852,"lon":5.3998,"is_reserved":false,"is_disabled":false,"rental_uris":{"android":"levelo://app?vid=4676a6aa-fbf3-4ad5-807c-7592e672720a","ios":"levelo://app?vid=4676a6aa-fbf3-4ad5-807c-7592e672720a"},"vehicle_type_id":"4","last_reported":1774356354,"current_range_meters":6400,"station_id":"ce4bhn12rcd13ifvqgqg","pricing_plan_id":"cebpf4jnsgd1na2vs0mg"},{"bike_id":"546b340f-160b-4c03-aeb6-6b8540327341","system_id":"levelo_inurba_marseille","lat":43.30542,"lon":5.36553,"is_reserved":false,"is_disabled":false,"rental_uris":{"android":"levelo://app?vid=546b340f-160b-4c03-aeb6-6b8540327341","ios":"levelo://app?vid=546b340f-160b-4c03-aeb6-6b8540327341"},"vehicle_type_id":"4","last_reported":1774356354,"current_range_meters":6400,"station_id":"ce4bgs12rcd13ifvqcag","pricing_plan_id":"cebpf4jnsgd1na2vs0mg"},{"bike_id":"a8467241-e91a-426d-bd6a-e893f8c649ec","system_id":"levelo_inurba_marseille","lat":43.28933,"lon":5.36642,"is_reserved":false,"is_disabled":false,"rental_uris":{"android":"levelo://app?vid=a8467241-e91a-426d-bd6a-e893f8c649ec","ios":"levelo://app?vid=a8467241-e91a-426d-bd6a-e893f8c649ec"},"vehicle_type_id":"4","last_reported":1774356354,"current_range_meters":6400,"station_id":"ce4bhap2rcd13ifvqek0","pricing_plan_id":"cebpf4jnsgd1na2vs0mg"},{"bike_id":"aa929685-e4dd-4a31-a1c6-979463fa81a3","system_id":"levelo_inurba_marseille","lat":43.28483,"lon":5.4839,"is_reserved":false,"is_disabled":false,"rental_uris":{"android":"levelo://app?vid=aa929685-e4dd-4a31-a1c6-979463fa81a3","ios":"levelo://app?vid=aa929685-e4dd-4a31-a1c6-979463fa81a3"},"vehicle_type_id":"4","last_reported":1774356354,"current_range_meters":6400,"station_id":"st_d3svhcjqgbts73a3dn0g","pricing_plan_id":"cebpf4jnsgd1na2vs0mg"},{"bike_id":"4ce98637-072f-4197-bd69-11f207a88eab","system_id":"levelo_inurba_marseille","lat":43.28496,"lon":5.47279,"is_reserved":false,"is_disabled":false,"rental_uris":{"android":"levelo://app?vid=4ce98637-072f-4197-bd69-11f207a88eab","ios":"levelo://app?vid=4ce98637-072f-4197-bd69-11f207a88eab"},"vehicle_type_id":"4","last_reported":1774356354,"current_range_meters":6400,"station_id":"","pricing_plan_id":"cebpf4jnsgd1na2vs0mg"},{"bike_id":"ed9471b8-b5f8-4508-ba58-7b54717a8564","system_id":"levelo_inurba_marseille","lat":43.29583,"lon":5.36737,"is_reserved":false,"is_disabled":false,"rental_uris":{"android":"levelo://app?vid=ed9471b8-b5f8-4508-ba58-7b54717a8564","ios":"levelo://app?vid=ed9471b8-b5f8-4508-ba58-7b54717a8564"},"vehicle_type_id":"4","last_reported":1774356354,"current_range_meters":6400,"station_id":"ce4bgph2rcd13ifvqc2g","pricing_plan_id":"cebpf4jnsgd1na2vs0mg"},{"bike_id":"98aa1c8a-7d98-4320-b367-9e51480a2f7e","system_id":"levelo_inurba_marseille","lat":43.33562,"lon":5.37424,"is_reserved":false,"is_disabled":false,"rental_uris":{"android":"levelo://app?vid=98aa1c8a-7d98-4320-b367-9e51480a2f7e","ios":"levelo://app?vid=98aa1c8a-7d98-4320-b367-9e51480a2f7e"},"vehicle_type_id":"4","last_reported":1774356354,"current_range_meters":6400,"station_id":"st_d46tts09ee8s73dlu43g","pricing_plan_id":"cebpf4jnsgd1na2vs0mg"},{"bike_id":"f80d7cb3-57a2-4e61-a9d9-d2c6a2ce4bdc","system_id":"levelo_inurba_marseille","lat":43.26366,"lon":5.41079,"is_reserved":false,"is_disabled":false,"rental_uris":{"android":"levelo://app?vid=f80d7cb3-57a2-4e61-a9d9-d2c6a2ce4bdc","ios":"levelo://app?vid=f80d7cb3-57a2-4e61-a9d9-d2c6a2ce4bdc"},"vehicle_type_id":"4","last_reported":1774356354,"current_range_meters":6800,"station_id":"st_d4e5ca6na9uc73bfl5fg","pricing_plan_id":"cebpf4jnsgd1na2vs0mg"},{"bike_id":"294a0ae4-8dd5-42da-b113-f8ac9debf169","system_id":"levelo_inurba_marseille","lat":43.29975,"lon":5.38512,"is_reserved":false,"is_disabled":true,"rental_uris":{"android":"levelo://app?vid=294a0ae4-8dd5-42da-b113-f8ac9debf169","ios":"levelo://app?vid=294a0ae4-8dd5-42da-b113-f8ac9debf169"},"vehicle_type_id":"4","last_reported":1774356354,"current_range_meters":6800,"station_id":"ce4bgj92rcd13ifvqbd0","pricing_plan_id":"cebpf4jnsgd1na2vs0mg"},{"bike_id":"543b6845-6387-4a4b-bb16-a06562514fb1","system_id":"levelo_inurba_marseille","lat":43.311182,"lon":5.377873,"is_reserved":false,"is_disabled":true,"rental_uris":{"android":"levelo://app?vid=543b6845-6387-4a4b-bb16-a06562514fb1","ios":"levelo://app?vid=543b6845-6387-4a4b-bb16-a06562514fb1"},"vehicle_type_id":"4","last_reported":1774356354,"current_range_meters":6800,"station_id":"ce4bgt92rcd13ifvqcg0","pricing_plan_id":"cebpf4jnsgd1na2vs0mg"},{"bike_id":"f910acab-e234-4475-91c9-ec3fea6d1bf3","system_id":"levelo_inurba_marseille","lat":43.2989,"lon":5.43664,"is_reserved":false,"is_disabled":false,"rental_uris":{"android":"levelo://app?vid=f910acab-e234-4475-91c9-ec3fea6d1bf3","ios":"levelo://app?vid=f910acab-e234-4475-91c9-ec3fea6d1bf3"},"vehicle_type_id":"4","last_reported":1774356354,"current_range_meters":6800,"station_id":"ce4bhpp2rcd13ifvqhfg","pricing_plan_id":"cebpf4jnsgd1na2vs0mg"},{"bike_id":"e777dc2e-9308-43c6-a6be-09685ee35cc2","system_id":"levelo_inurba_marseille","lat":43.28558,"lon":5.44079,"is_reserved":false,"is_disabled":false,"rental_uris":{"android":"levelo://app?vid=e777dc2e-9308-43c6-a6be-09685ee35cc2","ios":"levelo://app?vid=e777dc2e-9308-43c6-a6be-09685ee35cc2"},"vehicle_type_id":"4","last_reported":1774356354,"current_range_meters":6800,"station_id":"st_d3j3df2ikq2c7380ej80","pricing_plan_id":"cebpf4jnsgd1na2vs0mg"},{"bike_id":"b402a583-2077-4fd2-bbf4-c7051cbb803e","system_id":"levelo_inurba_marseille","lat":43.29615,"lon":5.37713,"is_reserved":false,"is_disabled":false,"rental_uris":{"android":"levelo://app?vid=b402a583-2077-4fd2-bbf4-c7051cbb803e","ios":"levelo://app?vid=b402a583-2077-4fd2-bbf4-c7051cbb803e"},"vehicle_type_id":"4","last_reported":1774356354,"current_range_meters":6800,"station_id":"ce4bgi92rcd13ifvqb90","pricing_plan_id":"cebpf4jnsgd1na2vs0mg"},{"bike_id":"c3fb6ac0-526f-4836-98cf-d46bdb9ad792","system_id":"levelo_inurba_marseille","lat":43.31058,"lon":5.37173,"is_reserved":false,"is_disabled":false,"rental_uris":{"android":"levelo://app?vid=c3fb6ac0-526f-4836-98cf-d46bdb9ad792","ios":"levelo://app?vid=c3fb6ac0-526f-4836-98cf-d46bdb9ad792"},"vehicle_type_id":"4","last_reported":1774356354,"current_range_meters":6800,"station_id":"st_d4kl2rp97mjs73e7tdfg","pricing_plan_id":"cebpf4jnsgd1na2vs0mg"},{"bike_id":"999603c2-2e41-4d77-b239-d9f77fd611da","system_id":"levelo_inurba_marseille","lat":43.26201,"lon":5.37927,"is_reserved":false,"is_disabled":false,"rental_uris":{"android":"levelo://app?vid=999603c2-2e41-4d77-b239-d9f77fd611da","ios":"levelo://app?vid=999603c2-2e41-4d77-b239-d9f77fd611da"},"vehicle_type_id":"4","last_reported":1774356354,"current_range_meters":6800,"station_id":"ce4bhjp2rcd13ifvqg90","pricing_plan_id":"cebpf4jnsgd1na2vs0mg"},{"bike_id":"27a8af3f-7682-4429-85af-8d74282bd1de","system_id":"levelo_inurba_marseille","lat":43.30533,"lon":5.36531,"is_reserved":false,"is_disabled":false,"rental_uris":{"android":"levelo://app?vid=27a8af3f-7682-4429-85af-8d74282bd1de","ios":"levelo://app?vid=27a8af3f-7682-4429-85af-8d74282bd1de"},"vehicle_type_id":"4","last_reported":1774356354,"current_range_meters":6800,"station_id":"ce4bgs12rcd13ifvqcag","pricing_plan_id":"cebpf4jnsgd1na2vs0mg"},{"bike_id":"9be37a25-79de-43c2-b934-7db63853cf20","system_id":"levelo_inurba_marseille","lat":43.26565,"lon":5.3729,"is_reserved":false,"is_disabled":false,"rental_uris":{"android":"levelo://app?vid=9be37a25-79de-43c2-b934-7db63853cf20","ios":"levelo://app?vid=9be37a25-79de-43c2-b934-7db63853cf20"},"vehicle_type_id":"4","last_reported":1774356354,"current_range_meters":6800,"station_id":"ce4bhg12rcd13ifvqf70","pricing_plan_id":"cebpf4jnsgd1na2vs0mg"},{"bike_id":"44fa29ca-b862-4a84-b5f1-7a9b20cec0fc","system_id":"levelo_inurba_marseille","lat":43.23145,"lon":5.43732,"is_reserved":false,"is_disabled":false,"rental_uris":{"android":"levelo://app?vid=44fa29ca-b862-4a84-b5f1-7a9b20cec0fc","ios":"levelo://app?vid=44fa29ca-b862-4a84-b5f1-7a9b20cec0fc"},"vehicle_type_id":"4","last_reported":1774356354,"current_range_meters":6800,"station_id":"ce4bhmp2rcd13ifvqgog","pricing_plan_id":"cebpf4jnsgd1na2vs0mg"},{"bike_id":"29a311a2-8c83-4778-b76c-56070b790302","system_id":"levelo_inurba_marseille","lat":43.27083,"lon":5.42257,"is_reserved":false,"is_disabled":false,"rental_uris":{"android":"levelo://app?vid=29a311a2-8c83-4778-b76c-56070b790302","ios":"levelo://app?vid=29a311a2-8c83-4778-b76c-56070b790302"},"vehicle_type_id":"4","last_reported":1774356354,"current_range_meters":6800,"station_id":"ce4bhk92rcd13ifvqgb0","pricing_plan_id":"cebpf4jnsgd1na2vs0mg"},{"bike_id":"7e03e45c-d69c-4371-8267-aa26cde43729","system_id":"levelo_inurba_marseille","lat":43.25583,"lon":5.38239,"is_reserved":false,"is_disabled":true,"rental_uris":{"android":"levelo://app?vid=7e03e45c-d69c-4371-8267-aa26cde43729","ios":"levelo://app?vid=7e03e45c-d69c-4371-8267-aa26cde43729"},"vehicle_type_id":"4","last_reported":1774356354,"current_range_meters":6800,"station_id":"ce4bhih2rcd13ifvqfs0","pricing_plan_id":"cebpf4jnsgd1na2vs0mg"},{"bike_id":"9c134060-ad13-414a-9d07-f82217cebe13","system_id":"levelo_inurba_marseille","lat":43.23903,"lon":5.37429,"is_reserved":false,"is_disabled":false,"rental_uris":{"android":"levelo://app?vid=9c134060-ad13-414a-9d07-f82217cebe13","ios":"levelo://app?vid=9c134060-ad13-414a-9d07-f82217cebe13"},"vehicle_type_id":"4","last_reported":1774356354,"current_range_meters":6800,"station_id":"st_d6sm7csbq4hs73f8fpjg","pricing_plan_id":"cebpf4jnsgd1na2vs0mg"},{"bike_id":"966ed813-86e1-4363-8eb2-94023a2528c3","system_id":"levelo_inurba_marseille","lat":43.28619,"lon":5.35123,"is_reserved":false,"is_disabled":false,"rental_uris":{"android":"levelo://app?vid=966ed813-86e1-4363-8eb2-94023a2528c3","ios":"levelo://app?vid=966ed813-86e1-4363-8eb2-94023a2528c3"},"vehicle_type_id":"4","last_reported":1774356354,"current_range_meters":6800,"station_id":"ce4bhch2rcd13ifvqeug","pricing_plan_id":"cebpf4jnsgd1na2vs0mg"},{"bike_id":"0e2f4137-e82a-401c-945f-6a1c7c098239","system_id":"levelo_inurba_marseille","lat":43.29618,"lon":5.37142,"is_reserved":false,"is_disabled":false,"rental_uris":{"android":"levelo://app?vid=0e2f4137-e82a-401c-945f-6a1c7c098239","ios":"levelo://app?vid=0e2f4137-e82a-401c-945f-6a1c7c098239"},"vehicle_type_id":"4","last_reported":1774356354,"current_range_meters":7200,"station_id":"ce4bgnh2rcd13ifvqc0g","pricing_plan_id":"cebpf4jnsgd1na2vs0mg"},{"bike_id":"583e6688-0d97-472a-b1ec-7a756df95af0","system_id":"levelo_inurba_marseille","lat":43.29593,"lon":5.36724,"is_reserved":false,"is_disabled":false,"rental_uris":{"android":"levelo://app?vid=583e6688-0d97-472a-b1ec-7a756df95af0","ios":"levelo://app?vid=583e6688-0d97-472a-b1ec-7a756df95af0"},"vehicle_type_id":"4","last_reported":1774356354,"current_range_meters":7200,"station_id":"ce4bgph2rcd13ifvqc2g","pricing_plan_id":"cebpf4jnsgd1na2vs0mg"},{"bike_id":"b75036ac-d81d-4bfd-a9c8-a051a6ff39fe","system_id":"levelo_inurba_marseille","lat":43.28529,"lon":5.44126,"is_reserved":false,"is_disabled":false,"rental_uris":{"android":"levelo://app?vid=b75036ac-d81d-4bfd-a9c8-a051a6ff39fe","ios":"levelo://app?vid=b75036ac-d81d-4bfd-a9c8-a051a6ff39fe"},"vehicle_type_id":"4","last_reported":1774356354,"current_range_meters":7200,"station_id":"st_d3j3df2ikq2c7380ej80","pricing_plan_id":"cebpf4jnsgd1na2vs0mg"},{"bike_id":"5c941c2b-f0fa-4f64-af96-831f9028136a","system_id":"levelo_inurba_marseille","lat":43.32242,"lon":5.37127,"is_reserved":false,"is_disabled":false,"rental_uris":{"android":"levelo://app?vid=5c941c2b-f0fa-4f64-af96-831f9028136a","ios":"levelo://app?vid=5c941c2b-f0fa-4f64-af96-831f9028136a"},"vehicle_type_id":"4","last_reported":1774356354,"current_range_meters":7200,"station_id":"","pricing_plan_id":"cebpf4jnsgd1na2vs0mg"},{"bike_id":"77deb619-deef-42c1-ade2-8dca83a843fb","system_id":"levelo_inurba_marseille","lat":43.29492,"lon":5.43309,"is_reserved":false,"is_disabled":false,"rental_uris":{"android":"levelo://app?vid=77deb619-deef-42c1-ade2-8dca83a843fb","ios":"levelo://app?vid=77deb619-deef-42c1-ade2-8dca83a843fb"},"vehicle_type_id":"4","last_reported":1774356354,"current_range_meters":7200,"station_id":"st_d3j5ugp08ojc73fj9d10","pricing_plan_id":"cebpf4jnsgd1na2vs0mg"},{"bike_id":"098144e5-733b-42c7-b084-7ac44619c48e","system_id":"levelo_inurba_marseille","lat":43.30556,"lon":5.36528,"is_reserved":false,"is_disabled":false,"rental_uris":{"android":"levelo://app?vid=098144e5-733b-42c7-b084-7ac44619c48e","ios":"levelo://app?vid=098144e5-733b-42c7-b084-7ac44619c48e"},"vehicle_type_id":"4","last_reported":1774356354,"current_range_meters":7200,"station_id":"ce4bgs12rcd13ifvqcag","pricing_plan_id":"cebpf4jnsgd1na2vs0mg"},{"bike_id":"5cca4b32-612b-471f-a02d-66912cbe70ff","system_id":"levelo_inurba_marseille","lat":43.21189,"lon":5.35065,"is_reserved":false,"is_disabled":true,"rental_uris":{"android":"levelo://app?vid=5cca4b32-612b-471f-a02d-66912cbe70ff","ios":"levelo://app?vid=5cca4b32-612b-471f-a02d-66912cbe70ff"},"vehicle_type_id":"4","last_reported":1774356354,"current_range_meters":7200,"station_id":"st_cvj6sg6p6f1abm77japg","pricing_plan_id":"cebpf4jnsgd1na2vs0mg"},{"bike_id":"0b786319-6d9f-4d1c-890a-5150198e272a","system_id":"levelo_inurba_marseille","lat":43.28484,"lon":5.48376,"is_reserved":false,"is_disabled":false,"rental_uris":{"android":"levelo://app?vid=0b786319-6d9f-4d1c-890a-5150198e272a","ios":"levelo://app?vid=0b786319-6d9f-4d1c-890a-5150198e272a"},"vehicle_type_id":"4","last_reported":1774356354,"current_range_meters":7200,"station_id":"st_d3svhcjqgbts73a3dn0g","pricing_plan_id":"cebpf4jnsgd1na2vs0mg"},{"bike_id":"f35a9644-f102-427c-8b00-579a35988db3","system_id":"levelo_inurba_marseille","lat":43.21202,"lon":5.35079,"is_reserved":false,"is_disabled":false,"rental_uris":{"android":"levelo://app?vid=f35a9644-f102-427c-8b00-579a35988db3","ios":"levelo://app?vid=f35a9644-f102-427c-8b00-579a35988db3"},"vehicle_type_id":"4","last_reported":1774356354,"current_range_meters":7200,"station_id":"st_cvj6sg6p6f1abm77japg","pricing_plan_id":"cebpf4jnsgd1na2vs0mg"},{"bike_id":"04e42d2b-817b-4033-8935-148ae7f53cb4","system_id":"levelo_inurba_marseille","lat":43.28224,"lon":5.39075,"is_reserved":false,"is_disabled":true,"rental_uris":{"android":"levelo://app?vid=04e42d2b-817b-4033-8935-148ae7f53cb4","ios":"levelo://app?vid=04e42d2b-817b-4033-8935-148ae7f53cb4"},"vehicle_type_id":"4","last_reported":1774356354,"current_range_meters":7200,"station_id":"ce4bhn92rcd13ifvqgsg","pricing_plan_id":"cebpf4jnsgd1na2vs0mg"},{"bike_id":"e3639a64-f841-40c2-9d27-776257788ada","system_id":"levelo_inurba_marseille","lat":43.23136,"lon":5.43722,"is_reserved":false,"is_disabled":false,"rental_uris":{"android":"levelo://app?vid=e3639a64-f841-40c2-9d27-776257788ada","ios":"levelo://app?vid=e3639a64-f841-40c2-9d27-776257788ada"},"vehicle_type_id":"4","last_reported":1774356354,"current_range_meters":7200,"station_id":"ce4bhmp2rcd13ifvqgog","pricing_plan_id":"cebpf4jnsgd1na2vs0mg"},{"bike_id":"a9cf656d-017c-4001-ab51-66a11dcfd826","system_id":"levelo_inurba_marseille","lat":43.27669,"lon":5.38944,"is_reserved":false,"is_disabled":false,"rental_uris":{"android":"levelo://app?vid=a9cf656d-017c-4001-ab51-66a11dcfd826","ios":"levelo://app?vid=a9cf656d-017c-4001-ab51-66a11dcfd826"},"vehicle_type_id":"4","last_reported":1774356354,"current_range_meters":7200,"station_id":"","pricing_plan_id":"cebpf4jnsgd1na2vs0mg"},{"bike_id":"4d89f570-8cff-4cea-aa57-8254cc1c1e00","system_id":"levelo_inurba_marseille","lat":43.24173,"lon":5.36375,"is_reserved":false,"is_disabled":false,"rental_uris":{"android":"levelo://app?vid=4d89f570-8cff-4cea-aa57-8254cc1c1e00","ios":"levelo://app?vid=4d89f570-8cff-4cea-aa57-8254cc1c1e00"},"vehicle_type_id":"4","last_reported":1774356354,"current_range_meters":7200,"station_id":"cpo36qri1sfpv3e86is0","pricing_plan_id":"cebpf4jnsgd1na2vs0mg"},{"bike_id":"0c1af71c-ad3d-4cf7-9f47-43fef6dbb5a3","system_id":"levelo_inurba_marseille","lat":43.31126,"lon":5.38619,"is_reserved":false,"is_disabled":false,"rental_uris":{"android":"levelo://app?vid=0c1af71c-ad3d-4cf7-9f47-43fef6dbb5a3","ios":"levelo://app?vid=0c1af71c-ad3d-4cf7-9f47-43fef6dbb5a3"},"vehicle_type_id":"4","last_reported":1774356354,"current_range_meters":7200,"station_id":"","pricing_plan_id":"cebpf4jnsgd1na2vs0mg"},{"bike_id":"151825c5-4f19-4142-976b-820915f156d2","system_id":"levelo_inurba_marseille","lat":43.28949,"lon":5.364,"is_reserved":false,"is_disabled":false,"rental_uris":{"android":"levelo://app?vid=151825c5-4f19-4142-976b-820915f156d2","ios":"levelo://app?vid=151825c5-4f19-4142-976b-820915f156d2"},"vehicle_type_id":"4","last_reported":1774356354,"current_range_meters":7200,"station_id":"ce4bhc92rcd13ifvqetg","pricing_plan_id":"cebpf4jnsgd1na2vs0mg"},{"bike_id":"63ecf3e2-b359-4df6-b223-76ae007149f8","system_id":"levelo_inurba_marseille","lat":43.29527,"lon":5.37509,"is_reserved":false,"is_disabled":false,"rental_uris":{"android":"levelo://app?vid=63ecf3e2-b359-4df6-b223-76ae007149f8","ios":"levelo://app?vid=63ecf3e2-b359-4df6-b223-76ae007149f8"},"vehicle_type_id":"4","last_reported":1774356354,"current_range_meters":7200,"station_id":"ce4bgkp2rcd13ifvqbmg","pricing_plan_id":"cebpf4jnsgd1na2vs0mg"},{"bike_id":"17ecb8f1-df4c-49b8-9174-4fdee094aaf6","system_id":"levelo_inurba_marseille","lat":43.26555,"lon":5.37286,"is_reserved":false,"is_disabled":false,"rental_uris":{"android":"levelo://app?vid=17ecb8f1-df4c-49b8-9174-4fdee094aaf6","ios":"levelo://app?vid=17ecb8f1-df4c-49b8-9174-4fdee094aaf6"},"vehicle_type_id":"4","last_reported":1774356354,"current_range_meters":7200,"station_id":"ce4bhg12rcd13ifvqf70","pricing_plan_id":"cebpf4jnsgd1na2vs0mg"},{"bike_id":"aac16f30-8732-48f4-bb17-1bd0acbb479e","system_id":"levelo_inurba_marseille","lat":43.26557,"lon":5.37289,"is_reserved":false,"is_disabled":false,"rental_uris":{"android":"levelo://app?vid=aac16f30-8732-48f4-bb17-1bd0acbb479e","ios":"levelo://app?vid=aac16f30-8732-48f4-bb17-1bd0acbb479e"},"vehicle_type_id":"4","last_reported":1774356354,"current_range_meters":8000,"station_id":"ce4bhg12rcd13ifvqf70","pricing_plan_id":"cebpf4jnsgd1na2vs0mg"},{"bike_id":"7b6c8f1e-bc5a-4218-9383-b05da73318e0","system_id":"levelo_inurba_marseille","lat":43.32352,"lon":5.36707,"is_reserved":false,"is_disabled":false,"rental_uris":{"android":"levelo://app?vid=7b6c8f1e-bc5a-4218-9383-b05da73318e0","ios":"levelo://app?vid=7b6c8f1e-bc5a-4218-9383-b05da73318e0"},"vehicle_type_id":"4","last_reported":1774356354,"current_range_meters":8000,"station_id":"ce4bhsh2rcd13ifvqi2g","pricing_plan_id":"cebpf4jnsgd1na2vs0mg"},{"bike_id":"edda675a-b62b-421d-aa8f-95ea6d9ae219","system_id":"levelo_inurba_marseille","lat":43.31499,"lon":5.37286,"is_reserved":false,"is_disabled":false,"rental_uris":{"android":"levelo://app?vid=edda675a-b62b-421d-aa8f-95ea6d9ae219","ios":"levelo://app?vid=edda675a-b62b-421d-aa8f-95ea6d9ae219"},"vehicle_type_id":"4","last_reported":1774356354,"current_range_meters":8000,"station_id":"ce4bgt12rcd13ifvqcd0","pricing_plan_id":"cebpf4jnsgd1na2vs0mg"},{"bike_id":"eb7a7f56-5fe1-4638-8414-2f94a8aa7efb","system_id":"levelo_inurba_marseille","lat":43.30955,"lon":5.39054,"is_reserved":false,"is_disabled":false,"rental_uris":{"android":"levelo://app?vid=eb7a7f56-5fe1-4638-8414-2f94a8aa7efb","ios":"levelo://app?vid=eb7a7f56-5fe1-4638-8414-2f94a8aa7efb"},"vehicle_type_id":"4","last_reported":1774356354,"current_range_meters":8000,"station_id":"ce4bgup2rcd13ifvqco0","pricing_plan_id":"cebpf4jnsgd1na2vs0mg"},{"bike_id":"8e331d09-f777-47e4-a327-164db2e188a9","system_id":"levelo_inurba_marseille","lat":43.26608,"lon":5.40337,"is_reserved":false,"is_disabled":true,"rental_uris":{"android":"levelo://app?vid=8e331d09-f777-47e4-a327-164db2e188a9","ios":"levelo://app?vid=8e331d09-f777-47e4-a327-164db2e188a9"},"vehicle_type_id":"4","last_reported":1774356354,"current_range_meters":8000,"station_id":"","pricing_plan_id":"cebpf4jnsgd1na2vs0mg"},{"bike_id":"ff47fefb-b748-4cb1-b5ff-b0a348769fe4","system_id":"levelo_inurba_marseille","lat":43.30198,"lon":5.38072,"is_reserved":false,"is_disabled":false,"rental_uris":{"android":"levelo://app?vid=ff47fefb-b748-4cb1-b5ff-b0a348769fe4","ios":"levelo://app?vid=ff47fefb-b748-4cb1-b5ff-b0a348769fe4"},"vehicle_type_id":"4","last_reported":1774356354,"current_range_meters":8000,"station_id":"","pricing_plan_id":"cebpf4jnsgd1na2vs0mg"},{"bike_id":"253bfbd1-c3f6-4b72-a716-55890f3b4db7","system_id":"levelo_inurba_marseille","lat":43.28469,"lon":5.48438,"is_reserved":false,"is_disabled":false,"rental_uris":{"android":"levelo://app?vid=253bfbd1-c3f6-4b72-a716-55890f3b4db7","ios":"levelo://app?vid=253bfbd1-c3f6-4b72-a716-55890f3b4db7"},"vehicle_type_id":"4","last_reported":1774356354,"current_range_meters":8000,"station_id":"st_d3svhcjqgbts73a3dn0g","pricing_plan_id":"cebpf4jnsgd1na2vs0mg"},{"bike_id":"1e1db994-b280-49e0-bd9d-89157eb4f87b","system_id":"levelo_inurba_marseille","lat":43.2991,"lon":5.37465,"is_reserved":false,"is_disabled":false,"rental_uris":{"android":"levelo://app?vid=1e1db994-b280-49e0-bd9d-89157eb4f87b","ios":"levelo://app?vid=1e1db994-b280-49e0-bd9d-89157eb4f87b"},"vehicle_type_id":"4","last_reported":1774356354,"current_range_meters":8000,"station_id":"ce4bgjh2rcd13ifvqbg0","pricing_plan_id":"cebpf4jnsgd1na2vs0mg"},{"bike_id":"0d489b01-590f-434e-9649-624f92bba9bb","system_id":"levelo_inurba_marseille","lat":43.23203,"lon":5.35523,"is_reserved":false,"is_disabled":false,"rental_uris":{"android":"levelo://app?vid=0d489b01-590f-434e-9649-624f92bba9bb","ios":"levelo://app?vid=0d489b01-590f-434e-9649-624f92bba9bb"},"vehicle_type_id":"4","last_reported":1774356354,"current_range_meters":8000,"station_id":"ce4bhu92rcd13ifvqi70","pricing_plan_id":"cebpf4jnsgd1na2vs0mg"},{"bike_id":"19f1add8-fb4d-4df2-9f34-3abb6a2112fe","system_id":"levelo_inurba_marseille","lat":43.21196,"lon":5.35066,"is_reserved":false,"is_disabled":false,"rental_uris":{"android":"levelo://app?vid=19f1add8-fb4d-4df2-9f34-3abb6a2112fe","ios":"levelo://app?vid=19f1add8-fb4d-4df2-9f34-3abb6a2112fe"},"vehicle_type_id":"4","last_reported":1774356354,"current_range_meters":8000,"station_id":"st_cvj6sg6p6f1abm77japg","pricing_plan_id":"cebpf4jnsgd1na2vs0mg"},{"bike_id":"dea89b23-d677-4e73-9928-c9b7dab20660","system_id":"levelo_inurba_marseille","lat":43.28355,"lon":5.38088,"is_reserved":false,"is_disabled":false,"rental_uris":{"android":"levelo://app?vid=dea89b23-d677-4e73-9928-c9b7dab20660","ios":"levelo://app?vid=dea89b23-d677-4e73-9928-c9b7dab20660"},"vehicle_type_id":"4","last_reported":1774356354,"current_range_meters":8000,"station_id":"ce4bh412rcd13ifvqdr0","pricing_plan_id":"cebpf4jnsgd1na2vs0mg"},{"bike_id":"6711ca2b-9a4e-46b1-892e-1007cc2a656e","system_id":"levelo_inurba_marseille","lat":43.28549,"lon":5.44131,"is_reserved":false,"is_disabled":false,"rental_uris":{"android":"levelo://app?vid=6711ca2b-9a4e-46b1-892e-1007cc2a656e","ios":"levelo://app?vid=6711ca2b-9a4e-46b1-892e-1007cc2a656e"},"vehicle_type_id":"4","last_reported":1774356354,"current_range_meters":8000,"station_id":"st_d3j3df2ikq2c7380ej80","pricing_plan_id":"cebpf4jnsgd1na2vs0mg"},{"bike_id":"f3dccb27-25f8-415f-8a8c-207408b72398","system_id":"levelo_inurba_marseille","lat":43.32063,"lon":5.36709,"is_reserved":false,"is_disabled":false,"rental_uris":{"android":"levelo://app?vid=f3dccb27-25f8-415f-8a8c-207408b72398","ios":"levelo://app?vid=f3dccb27-25f8-415f-8a8c-207408b72398"},"vehicle_type_id":"4","last_reported":1774356354,"current_range_meters":8000,"station_id":"","pricing_plan_id":"cebpf4jnsgd1na2vs0mg"},{"bike_id":"dc6b5f99-fae1-4f22-a1a9-6f28e41db96e","system_id":"levelo_inurba_marseille","lat":43.3155,"lon":5.37191,"is_reserved":false,"is_disabled":false,"rental_uris":{"android":"levelo://app?vid=dc6b5f99-fae1-4f22-a1a9-6f28e41db96e","ios":"levelo://app?vid=dc6b5f99-fae1-4f22-a1a9-6f28e41db96e"},"vehicle_type_id":"4","last_reported":1774356354,"current_range_meters":8000,"station_id":"","pricing_plan_id":"cebpf4jnsgd1na2vs0mg"},{"bike_id":"078c8d6a-6a18-480a-9826-cb5f26ba0dcb","system_id":"levelo_inurba_marseille","lat":43.2436,"lon":5.37068,"is_reserved":false,"is_disabled":false,"rental_uris":{"android":"levelo://app?vid=078c8d6a-6a18-480a-9826-cb5f26ba0dcb","ios":"levelo://app?vid=078c8d6a-6a18-480a-9826-cb5f26ba0dcb"},"vehicle_type_id":"4","last_reported":1774356354,"current_range_meters":8000,"station_id":"ce4bhhh2rcd13ifvqfk0","pricing_plan_id":"cebpf4jnsgd1na2vs0mg"},{"bike_id":"4078e5c4-b784-4a81-827e-b1a58b5db34d","system_id":"levelo_inurba_marseille","lat":43.30593,"lon":5.366,"is_reserved":false,"is_disabled":false,"rental_uris":{"android":"levelo://app?vid=4078e5c4-b784-4a81-827e-b1a58b5db34d","ios":"levelo://app?vid=4078e5c4-b784-4a81-827e-b1a58b5db34d"},"vehicle_type_id":"4","last_reported":1774356354,"current_range_meters":8400,"station_id":"ce4bgs12rcd13ifvqcag","pricing_plan_id":"cebpf4jnsgd1na2vs0mg"},{"bike_id":"1956b4b1-2733-4998-b5d8-2f8c7a4333e6","system_id":"levelo_inurba_marseille","lat":43.29655,"lon":5.37295,"is_reserved":false,"is_disabled":false,"rental_uris":{"android":"levelo://app?vid=1956b4b1-2733-4998-b5d8-2f8c7a4333e6","ios":"levelo://app?vid=1956b4b1-2733-4998-b5d8-2f8c7a4333e6"},"vehicle_type_id":"4","last_reported":1774356354,"current_range_meters":8400,"station_id":"ce4bgk12rcd13ifvqbj0","pricing_plan_id":"cebpf4jnsgd1na2vs0mg"},{"bike_id":"21212254-e5a0-4af6-a45f-ed4c631ca773","system_id":"levelo_inurba_marseille","lat":43.25539,"lon":5.37634,"is_reserved":false,"is_disabled":false,"rental_uris":{"android":"levelo://app?vid=21212254-e5a0-4af6-a45f-ed4c631ca773","ios":"levelo://app?vid=21212254-e5a0-4af6-a45f-ed4c631ca773"},"vehicle_type_id":"4","last_reported":1774356354,"current_range_meters":8400,"station_id":"ce4bhh12rcd13ifvqff0","pricing_plan_id":"cebpf4jnsgd1na2vs0mg"},{"bike_id":"a14d2edd-85c5-4116-8db5-355e3fb2ddbe","system_id":"levelo_inurba_marseille","lat":43.33546,"lon":5.37442,"is_reserved":false,"is_disabled":false,"rental_uris":{"android":"levelo://app?vid=a14d2edd-85c5-4116-8db5-355e3fb2ddbe","ios":"levelo://app?vid=a14d2edd-85c5-4116-8db5-355e3fb2ddbe"},"vehicle_type_id":"4","last_reported":1774356354,"current_range_meters":8400,"station_id":"st_d46tts09ee8s73dlu43g","pricing_plan_id":"cebpf4jnsgd1na2vs0mg"},{"bike_id":"ee0008af-b338-43bd-8cd8-01b4212c701e","system_id":"levelo_inurba_marseille","lat":43.3095,"lon":5.39086,"is_reserved":false,"is_disabled":false,"rental_uris":{"android":"levelo://app?vid=ee0008af-b338-43bd-8cd8-01b4212c701e","ios":"levelo://app?vid=ee0008af-b338-43bd-8cd8-01b4212c701e"},"vehicle_type_id":"4","last_reported":1774356354,"current_range_meters":8400,"station_id":"ce4bgup2rcd13ifvqco0","pricing_plan_id":"cebpf4jnsgd1na2vs0mg"},{"bike_id":"9d6609d5-65e7-41ef-88fb-fa773b2a7787","system_id":"levelo_inurba_marseille","lat":43.29982,"lon":5.37181,"is_reserved":false,"is_disabled":false,"rental_uris":{"android":"levelo://app?vid=9d6609d5-65e7-41ef-88fb-fa773b2a7787","ios":"levelo://app?vid=9d6609d5-65e7-41ef-88fb-fa773b2a7787"},"vehicle_type_id":"4","last_reported":1774356354,"current_range_meters":8400,"station_id":"ce4bgr92rcd13ifvqc7g","pricing_plan_id":"cebpf4jnsgd1na2vs0mg"},{"bike_id":"445a363e-6635-4c6f-9d9b-6ed1d223c4e8","system_id":"levelo_inurba_marseille","lat":43.29547,"lon":5.43884,"is_reserved":false,"is_disabled":false,"rental_uris":{"android":"levelo://app?vid=445a363e-6635-4c6f-9d9b-6ed1d223c4e8","ios":"levelo://app?vid=445a363e-6635-4c6f-9d9b-6ed1d223c4e8"},"vehicle_type_id":"4","last_reported":1774356354,"current_range_meters":8400,"station_id":"","pricing_plan_id":"cebpf4jnsgd1na2vs0mg"},{"bike_id":"066cfe81-714d-4a28-ba8d-e13baf5bbb1b","system_id":"levelo_inurba_marseille","lat":43.27266,"lon":5.41147,"is_reserved":false,"is_disabled":false,"rental_uris":{"android":"levelo://app?vid=066cfe81-714d-4a28-ba8d-e13baf5bbb1b","ios":"levelo://app?vid=066cfe81-714d-4a28-ba8d-e13baf5bbb1b"},"vehicle_type_id":"4","last_reported":1774356354,"current_range_meters":8400,"station_id":"","pricing_plan_id":"cebpf4jnsgd1na2vs0mg"},{"bike_id":"7f97ff93-a465-4a12-958c-3f0f1e1d17e6","system_id":"levelo_inurba_marseille","lat":43.23896,"lon":5.37449,"is_reserved":false,"is_disabled":false,"rental_uris":{"android":"levelo://app?vid=7f97ff93-a465-4a12-958c-3f0f1e1d17e6","ios":"levelo://app?vid=7f97ff93-a465-4a12-958c-3f0f1e1d17e6"},"vehicle_type_id":"4","last_reported":1774356354,"current_range_meters":8400,"station_id":"st_d6sm7csbq4hs73f8fpjg","pricing_plan_id":"cebpf4jnsgd1na2vs0mg"},{"bike_id":"ef8fd86f-6320-42e7-9274-bc445679c5fa","system_id":"levelo_inurba_marseille","lat":43.2992,"lon":5.37461,"is_reserved":false,"is_disabled":false,"rental_uris":{"android":"levelo://app?vid=ef8fd86f-6320-42e7-9274-bc445679c5fa","ios":"levelo://app?vid=ef8fd86f-6320-42e7-9274-bc445679c5fa"},"vehicle_type_id":"4","last_reported":1774356354,"current_range_meters":8400,"station_id":"ce4bgjh2rcd13ifvqbg0","pricing_plan_id":"cebpf4jnsgd1na2vs0mg"},{"bike_id":"09da43bf-a4c1-4b01-b944-9c875869389c","system_id":"levelo_inurba_marseille","lat":43.29285,"lon":5.37431,"is_reserved":false,"is_disabled":false,"rental_uris":{"android":"levelo://app?vid=09da43bf-a4c1-4b01-b944-9c875869389c","ios":"levelo://app?vid=09da43bf-a4c1-4b01-b944-9c875869389c"},"vehicle_type_id":"4","last_reported":1774356354,"current_range_meters":8400,"station_id":"ce4bgi12rcd13ifvqb70","pricing_plan_id":"cebpf4jnsgd1na2vs0mg"},{"bike_id":"5bd9aec4-f639-4190-9ebd-ffd6e8dfa9b4","system_id":"levelo_inurba_marseille","lat":43.31073,"lon":5.37178,"is_reserved":false,"is_disabled":false,"rental_uris":{"android":"levelo://app?vid=5bd9aec4-f639-4190-9ebd-ffd6e8dfa9b4","ios":"levelo://app?vid=5bd9aec4-f639-4190-9ebd-ffd6e8dfa9b4"},"vehicle_type_id":"4","last_reported":1774356354,"current_range_meters":8400,"station_id":"st_d4kl2rp97mjs73e7tdfg","pricing_plan_id":"cebpf4jnsgd1na2vs0mg"},{"bike_id":"a6856221-5037-40bd-82ff-b3f51aa79fe0","system_id":"levelo_inurba_marseille","lat":43.28708,"lon":5.36093,"is_reserved":false,"is_disabled":false,"rental_uris":{"android":"levelo://app?vid=a6856221-5037-40bd-82ff-b3f51aa79fe0","ios":"levelo://app?vid=a6856221-5037-40bd-82ff-b3f51aa79fe0"},"vehicle_type_id":"4","last_reported":1774356354,"current_range_meters":8400,"station_id":"cki0cbj6b192h4jlfktg","pricing_plan_id":"cebpf4jnsgd1na2vs0mg"},{"bike_id":"60ba24d3-bbbe-4eef-88a7-e908baca16b3","system_id":"levelo_inurba_marseille","lat":43.29298,"lon":5.37155,"is_reserved":false,"is_disabled":false,"rental_uris":{"android":"levelo://app?vid=60ba24d3-bbbe-4eef-88a7-e908baca16b3","ios":"levelo://app?vid=60ba24d3-bbbe-4eef-88a7-e908baca16b3"},"vehicle_type_id":"4","last_reported":1774356354,"current_range_meters":8400,"station_id":"ce4bgh92rcd13ifvqb40","pricing_plan_id":"cebpf4jnsgd1na2vs0mg"},{"bike_id":"e6349eb3-2730-461c-ae14-f386689052fa","system_id":"levelo_inurba_marseille","lat":43.31624,"lon":5.37805,"is_reserved":false,"is_disabled":true,"rental_uris":{"android":"levelo://app?vid=e6349eb3-2730-461c-ae14-f386689052fa","ios":"levelo://app?vid=e6349eb3-2730-461c-ae14-f386689052fa"},"vehicle_type_id":"4","last_reported":1774356354,"current_range_meters":8400,"station_id":"","pricing_plan_id":"cebpf4jnsgd1na2vs0mg"},{"bike_id":"8aa507e7-e6bd-4861-b754-6c06023061cc","system_id":"levelo_inurba_marseille","lat":43.29698,"lon":5.38267,"is_reserved":false,"is_disabled":false,"rental_uris":{"android":"levelo://app?vid=8aa507e7-e6bd-4861-b754-6c06023061cc","ios":"levelo://app?vid=8aa507e7-e6bd-4861-b754-6c06023061cc"},"vehicle_type_id":"4","last_reported":1774356354,"current_range_meters":8400,"station_id":"","pricing_plan_id":"cebpf4jnsgd1na2vs0mg"},{"bike_id":"e5566bc0-cde1-4f92-8668-69531775d9fd","system_id":"levelo_inurba_marseille","lat":43.31372,"lon":5.38484,"is_reserved":false,"is_disabled":false,"rental_uris":{"android":"levelo://app?vid=e5566bc0-cde1-4f92-8668-69531775d9fd","ios":"levelo://app?vid=e5566bc0-cde1-4f92-8668-69531775d9fd"},"vehicle_type_id":"4","last_reported":1774356354,"current_range_meters":8400,"station_id":"ce4bgt92rcd13ifvqcf0","pricing_plan_id":"cebpf4jnsgd1na2vs0mg"},{"bike_id":"0edb33a8-c0c9-43cb-9d1e-abc2c62cd077","system_id":"levelo_inurba_marseille","lat":43.30956,"lon":5.3902,"is_reserved":false,"is_disabled":false,"rental_uris":{"android":"levelo://app?vid=0edb33a8-c0c9-43cb-9d1e-abc2c62cd077","ios":"levelo://app?vid=0edb33a8-c0c9-43cb-9d1e-abc2c62cd077"},"vehicle_type_id":"4","last_reported":1774356354,"current_range_meters":8400,"station_id":"ce4bgup2rcd13ifvqco0","pricing_plan_id":"cebpf4jnsgd1na2vs0mg"},{"bike_id":"5208ee98-7e4f-445b-9dbc-5d8fbec80d74","system_id":"levelo_inurba_marseille","lat":43.23389,"lon":5.41236,"is_reserved":false,"is_disabled":false,"rental_uris":{"android":"levelo://app?vid=5208ee98-7e4f-445b-9dbc-5d8fbec80d74","ios":"levelo://app?vid=5208ee98-7e4f-445b-9dbc-5d8fbec80d74"},"vehicle_type_id":"4","last_reported":1774356354,"current_range_meters":8400,"station_id":"","pricing_plan_id":"cebpf4jnsgd1na2vs0mg"},{"bike_id":"46b2e1ac-4b3c-44fa-aff9-5e6ea6ab448b","system_id":"levelo_inurba_marseille","lat":43.23149,"lon":5.43725,"is_reserved":false,"is_disabled":false,"rental_uris":{"android":"levelo://app?vid=46b2e1ac-4b3c-44fa-aff9-5e6ea6ab448b","ios":"levelo://app?vid=46b2e1ac-4b3c-44fa-aff9-5e6ea6ab448b"},"vehicle_type_id":"4","last_reported":1774356354,"current_range_meters":8400,"station_id":"ce4bhmp2rcd13ifvqgog","pricing_plan_id":"cebpf4jnsgd1na2vs0mg"},{"bike_id":"5ecae002-d94a-48c0-9c56-03698e32a88c","system_id":"levelo_inurba_marseille","lat":43.23894,"lon":5.37472,"is_reserved":false,"is_disabled":false,"rental_uris":{"android":"levelo://app?vid=5ecae002-d94a-48c0-9c56-03698e32a88c","ios":"levelo://app?vid=5ecae002-d94a-48c0-9c56-03698e32a88c"},"vehicle_type_id":"4","last_reported":1774356354,"current_range_meters":8400,"station_id":"st_d6sm7csbq4hs73f8fpjg","pricing_plan_id":"cebpf4jnsgd1na2vs0mg"},{"bike_id":"6006e25d-41fb-44b0-97d9-eb152e464909","system_id":"levelo_inurba_marseille","lat":43.28158,"lon":5.42647,"is_reserved":false,"is_disabled":false,"rental_uris":{"android":"levelo://app?vid=6006e25d-41fb-44b0-97d9-eb152e464909","ios":"levelo://app?vid=6006e25d-41fb-44b0-97d9-eb152e464909"},"vehicle_type_id":"4","last_reported":1774356354,"current_range_meters":8400,"station_id":"ce4bhnh2rcd13ifvqgug","pricing_plan_id":"cebpf4jnsgd1na2vs0mg"},{"bike_id":"e3f886a8-5ab4-45f3-9b3b-ccb5c60cb84a","system_id":"levelo_inurba_marseille","lat":43.25572,"lon":5.38229,"is_reserved":false,"is_disabled":false,"rental_uris":{"android":"levelo://app?vid=e3f886a8-5ab4-45f3-9b3b-ccb5c60cb84a","ios":"levelo://app?vid=e3f886a8-5ab4-45f3-9b3b-ccb5c60cb84a"},"vehicle_type_id":"4","last_reported":1774356354,"current_range_meters":8400,"station_id":"ce4bhih2rcd13ifvqfs0","pricing_plan_id":"cebpf4jnsgd1na2vs0mg"},{"bike_id":"02a29044-af44-4ad0-ad60-be49d8de6622","system_id":"levelo_inurba_marseille","lat":43.29751,"lon":5.42774,"is_reserved":false,"is_disabled":false,"rental_uris":{"android":"levelo://app?vid=02a29044-af44-4ad0-ad60-be49d8de6622","ios":"levelo://app?vid=02a29044-af44-4ad0-ad60-be49d8de6622"},"vehicle_type_id":"4","last_reported":1774356354,"current_range_meters":8800,"station_id":"st_d3md5207bmas73dh9klg","pricing_plan_id":"cebpf4jnsgd1na2vs0mg"},{"bike_id":"e0dfd533-af70-4356-b761-e1b91e9e88b2","system_id":"levelo_inurba_marseille","lat":43.29563,"lon":5.3753,"is_reserved":false,"is_disabled":false,"rental_uris":{"android":"levelo://app?vid=e0dfd533-af70-4356-b761-e1b91e9e88b2","ios":"levelo://app?vid=e0dfd533-af70-4356-b761-e1b91e9e88b2"},"vehicle_type_id":"4","last_reported":1774356354,"current_range_meters":8800,"station_id":"ce4bgh92rcd13ifvqb50","pricing_plan_id":"cebpf4jnsgd1na2vs0mg"},{"bike_id":"66a43d55-32c7-48fb-b013-3d7574d12857","system_id":"levelo_inurba_marseille","lat":43.25013,"lon":5.38896,"is_reserved":false,"is_disabled":true,"rental_uris":{"android":"levelo://app?vid=66a43d55-32c7-48fb-b013-3d7574d12857","ios":"levelo://app?vid=66a43d55-32c7-48fb-b013-3d7574d12857"},"vehicle_type_id":"4","last_reported":1774356354,"current_range_meters":8800,"station_id":"ce4bhgp2rcd13ifvqfd0","pricing_plan_id":"cebpf4jnsgd1na2vs0mg"},{"bike_id":"f7e664bc-8cfe-465d-9dbe-128ca982aa9c","system_id":"levelo_inurba_marseille","lat":43.25001,"lon":5.38921,"is_reserved":false,"is_disabled":false,"rental_uris":{"android":"levelo://app?vid=f7e664bc-8cfe-465d-9dbe-128ca982aa9c","ios":"levelo://app?vid=f7e664bc-8cfe-465d-9dbe-128ca982aa9c"},"vehicle_type_id":"4","last_reported":1774356354,"current_range_meters":8800,"station_id":"ce4bhgp2rcd13ifvqfd0","pricing_plan_id":"cebpf4jnsgd1na2vs0mg"},{"bike_id":"da6972b3-b161-480b-8ef0-1ff556fc7299","system_id":"levelo_inurba_marseille","lat":43.23797,"lon":5.36625,"is_reserved":false,"is_disabled":false,"rental_uris":{"android":"levelo://app?vid=da6972b3-b161-480b-8ef0-1ff556fc7299","ios":"levelo://app?vid=da6972b3-b161-480b-8ef0-1ff556fc7299"},"vehicle_type_id":"4","last_reported":1774356354,"current_range_meters":8800,"station_id":"st_d3nk18o9ro0c73en2l3g","pricing_plan_id":"cebpf4jnsgd1na2vs0mg"},{"bike_id":"22a24422-8367-44e3-afc2-fd1672c2c7f5","system_id":"levelo_inurba_marseille","lat":43.28486,"lon":5.48372,"is_reserved":false,"is_disabled":false,"rental_uris":{"android":"levelo://app?vid=22a24422-8367-44e3-afc2-fd1672c2c7f5","ios":"levelo://app?vid=22a24422-8367-44e3-afc2-fd1672c2c7f5"},"vehicle_type_id":"4","last_reported":1774356354,"current_range_meters":8800,"station_id":"","pricing_plan_id":"cebpf4jnsgd1na2vs0mg"},{"bike_id":"f5c03b01-d29b-4410-a5f0-a0b3d299600e","system_id":"levelo_inurba_marseille","lat":43.27509,"lon":5.4242,"is_reserved":false,"is_disabled":false,"rental_uris":{"android":"levelo://app?vid=f5c03b01-d29b-4410-a5f0-a0b3d299600e","ios":"levelo://app?vid=f5c03b01-d29b-4410-a5f0-a0b3d299600e"},"vehicle_type_id":"4","last_reported":1774356354,"current_range_meters":8800,"station_id":"","pricing_plan_id":"cebpf4jnsgd1na2vs0mg"},{"bike_id":"506a3b3a-8f55-4d69-97f1-16bb6548bbbb","system_id":"levelo_inurba_marseille","lat":43.295569,"lon":5.422947,"is_reserved":false,"is_disabled":false,"rental_uris":{"android":"levelo://app?vid=506a3b3a-8f55-4d69-97f1-16bb6548bbbb","ios":"levelo://app?vid=506a3b3a-8f55-4d69-97f1-16bb6548bbbb"},"vehicle_type_id":"4","last_reported":1774356354,"current_range_meters":8800,"station_id":"","pricing_plan_id":"cebpf4jnsgd1na2vs0mg"},{"bike_id":"eaed477e-d29e-469f-af8b-e6c24a66d33d","system_id":"levelo_inurba_marseille","lat":43.23162,"lon":5.438,"is_reserved":false,"is_disabled":false,"rental_uris":{"android":"levelo://app?vid=eaed477e-d29e-469f-af8b-e6c24a66d33d","ios":"levelo://app?vid=eaed477e-d29e-469f-af8b-e6c24a66d33d"},"vehicle_type_id":"4","last_reported":1774356354,"current_range_meters":8800,"station_id":"ce4bhmp2rcd13ifvqgog","pricing_plan_id":"cebpf4jnsgd1na2vs0mg"},{"bike_id":"7c59c074-6646-4968-803b-ea035a59d3f4","system_id":"levelo_inurba_marseille","lat":43.23787,"lon":5.36626,"is_reserved":false,"is_disabled":false,"rental_uris":{"android":"levelo://app?vid=7c59c074-6646-4968-803b-ea035a59d3f4","ios":"levelo://app?vid=7c59c074-6646-4968-803b-ea035a59d3f4"},"vehicle_type_id":"4","last_reported":1774356354,"current_range_meters":8800,"station_id":"st_d3nk18o9ro0c73en2l3g","pricing_plan_id":"cebpf4jnsgd1na2vs0mg"},{"bike_id":"03394cc4-9f83-46b9-9edc-9e258f5f55ad","system_id":"levelo_inurba_marseille","lat":43.21742,"lon":5.34601,"is_reserved":false,"is_disabled":false,"rental_uris":{"android":"levelo://app?vid=03394cc4-9f83-46b9-9edc-9e258f5f55ad","ios":"levelo://app?vid=03394cc4-9f83-46b9-9edc-9e258f5f55ad"},"vehicle_type_id":"4","last_reported":1774356354,"current_range_meters":8800,"station_id":"st_cvj6r9ubvosntc0bgbag","pricing_plan_id":"cebpf4jnsgd1na2vs0mg"},{"bike_id":"cbe143e8-3e8d-46c8-8239-3389a4661d28","system_id":"levelo_inurba_marseille","lat":43.30312,"lon":5.36912,"is_reserved":false,"is_disabled":false,"rental_uris":{"android":"levelo://app?vid=cbe143e8-3e8d-46c8-8239-3389a4661d28","ios":"levelo://app?vid=cbe143e8-3e8d-46c8-8239-3389a4661d28"},"vehicle_type_id":"4","last_reported":1774356354,"current_range_meters":8800,"station_id":"ce4bgqh2rcd13ifvqc5g","pricing_plan_id":"cebpf4jnsgd1na2vs0mg"},{"bike_id":"8edde19f-14bb-4a9f-b9ee-19b95f05ec2f","system_id":"levelo_inurba_marseille","lat":43.33546,"lon":5.37463,"is_reserved":false,"is_disabled":false,"rental_uris":{"android":"levelo://app?vid=8edde19f-14bb-4a9f-b9ee-19b95f05ec2f","ios":"levelo://app?vid=8edde19f-14bb-4a9f-b9ee-19b95f05ec2f"},"vehicle_type_id":"4","last_reported":1774356354,"current_range_meters":8800,"station_id":"st_d46tts09ee8s73dlu43g","pricing_plan_id":"cebpf4jnsgd1na2vs0mg"},{"bike_id":"8d8566de-f03a-4e5e-aa8c-ad2e3c17ab03","system_id":"levelo_inurba_marseille","lat":43.31543,"lon":5.37319,"is_reserved":false,"is_disabled":false,"rental_uris":{"android":"levelo://app?vid=8d8566de-f03a-4e5e-aa8c-ad2e3c17ab03","ios":"levelo://app?vid=8d8566de-f03a-4e5e-aa8c-ad2e3c17ab03"},"vehicle_type_id":"4","last_reported":1774356354,"current_range_meters":8800,"station_id":"","pricing_plan_id":"cebpf4jnsgd1na2vs0mg"},{"bike_id":"c6d4c6eb-ccff-42fd-b1e0-3cd44d92012a","system_id":"levelo_inurba_marseille","lat":43.29937,"lon":5.36561,"is_reserved":false,"is_disabled":false,"rental_uris":{"android":"levelo://app?vid=c6d4c6eb-ccff-42fd-b1e0-3cd44d92012a","ios":"levelo://app?vid=c6d4c6eb-ccff-42fd-b1e0-3cd44d92012a"},"vehicle_type_id":"4","last_reported":1774356354,"current_range_meters":8800,"station_id":"ce4bgm92rcd13ifvqbr0","pricing_plan_id":"cebpf4jnsgd1na2vs0mg"},{"bike_id":"a9abd8af-8bd4-41e9-9b12-068972ec99fa","system_id":"levelo_inurba_marseille","lat":43.33545,"lon":5.37466,"is_reserved":false,"is_disabled":false,"rental_uris":{"android":"levelo://app?vid=a9abd8af-8bd4-41e9-9b12-068972ec99fa","ios":"levelo://app?vid=a9abd8af-8bd4-41e9-9b12-068972ec99fa"},"vehicle_type_id":"4","last_reported":1774356354,"current_range_meters":9200,"station_id":"st_d46tts09ee8s73dlu43g","pricing_plan_id":"cebpf4jnsgd1na2vs0mg"},{"bike_id":"5cbb6b33-cd42-48cd-ad8f-b3cedeba4f97","system_id":"levelo_inurba_marseille","lat":43.23887,"lon":5.37452,"is_reserved":false,"is_disabled":false,"rental_uris":{"android":"levelo://app?vid=5cbb6b33-cd42-48cd-ad8f-b3cedeba4f97","ios":"levelo://app?vid=5cbb6b33-cd42-48cd-ad8f-b3cedeba4f97"},"vehicle_type_id":"4","last_reported":1774356354,"current_range_meters":9200,"station_id":"st_d6sm7csbq4hs73f8fpjg","pricing_plan_id":"cebpf4jnsgd1na2vs0mg"},{"bike_id":"a764620c-9391-4a08-b730-d20c049ab21e","system_id":"levelo_inurba_marseille","lat":43.24076,"lon":5.37764,"is_reserved":false,"is_disabled":false,"rental_uris":{"android":"levelo://app?vid=a764620c-9391-4a08-b730-d20c049ab21e","ios":"levelo://app?vid=a764620c-9391-4a08-b730-d20c049ab21e"},"vehicle_type_id":"4","last_reported":1774356354,"current_range_meters":9200,"station_id":"ce4bhnp2rcd13ifvqgvg","pricing_plan_id":"cebpf4jnsgd1na2vs0mg"},{"bike_id":"58be8aa8-bd35-4163-9e14-6396c4fefd76","system_id":"levelo_inurba_marseille","lat":43.29303,"lon":5.37186,"is_reserved":false,"is_disabled":false,"rental_uris":{"android":"levelo://app?vid=58be8aa8-bd35-4163-9e14-6396c4fefd76","ios":"levelo://app?vid=58be8aa8-bd35-4163-9e14-6396c4fefd76"},"vehicle_type_id":"4","last_reported":1774356354,"current_range_meters":9200,"station_id":"ce4bgh92rcd13ifvqb40","pricing_plan_id":"cebpf4jnsgd1na2vs0mg"},{"bike_id":"29f49a32-ba08-40ef-839e-89650b416d04","system_id":"levelo_inurba_marseille","lat":43.31043,"lon":5.37903,"is_reserved":false,"is_disabled":false,"rental_uris":{"android":"levelo://app?vid=29f49a32-ba08-40ef-839e-89650b416d04","ios":"levelo://app?vid=29f49a32-ba08-40ef-839e-89650b416d04"},"vehicle_type_id":"4","last_reported":1774356354,"current_range_meters":9200,"station_id":"","pricing_plan_id":"cebpf4jnsgd1na2vs0mg"},{"bike_id":"62c0eda8-c666-40c1-b62d-71242266f316","system_id":"levelo_inurba_marseille","lat":43.28437,"lon":5.39177,"is_reserved":false,"is_disabled":true,"rental_uris":{"android":"levelo://app?vid=62c0eda8-c666-40c1-b62d-71242266f316","ios":"levelo://app?vid=62c0eda8-c666-40c1-b62d-71242266f316"},"vehicle_type_id":"4","last_reported":1774356354,"current_range_meters":9200,"station_id":"ce4bhoh2rcd13ifvqh5g","pricing_plan_id":"cebpf4jnsgd1na2vs0mg"},{"bike_id":"e8428cd4-c8c7-4157-bdf7-045d0e008d43","system_id":"levelo_inurba_marseille","lat":43.24179,"lon":5.39694,"is_reserved":false,"is_disabled":false,"rental_uris":{"android":"levelo://app?vid=e8428cd4-c8c7-4157-bdf7-045d0e008d43","ios":"levelo://app?vid=e8428cd4-c8c7-4157-bdf7-045d0e008d43"},"vehicle_type_id":"4","last_reported":1774356354,"current_range_meters":9200,"station_id":"ce4bhn12rcd13ifvqgpg","pricing_plan_id":"cebpf4jnsgd1na2vs0mg"},{"bike_id":"1e918871-5864-4c70-b8b0-f948647bad08","system_id":"levelo_inurba_marseille","lat":43.24544,"lon":5.39534,"is_reserved":false,"is_disabled":false,"rental_uris":{"android":"levelo://app?vid=1e918871-5864-4c70-b8b0-f948647bad08","ios":"levelo://app?vid=1e918871-5864-4c70-b8b0-f948647bad08"},"vehicle_type_id":"4","last_reported":1774356354,"current_range_meters":9200,"station_id":"ce4bhlp2rcd13ifvqgjg","pricing_plan_id":"cebpf4jnsgd1na2vs0mg"},{"bike_id":"854fa555-916f-42ba-819b-35b93c0e74ed","system_id":"levelo_inurba_marseille","lat":43.23899,"lon":5.37444,"is_reserved":false,"is_disabled":false,"rental_uris":{"android":"levelo://app?vid=854fa555-916f-42ba-819b-35b93c0e74ed","ios":"levelo://app?vid=854fa555-916f-42ba-819b-35b93c0e74ed"},"vehicle_type_id":"4","last_reported":1774356354,"current_range_meters":9200,"station_id":"st_d6sm7csbq4hs73f8fpjg","pricing_plan_id":"cebpf4jnsgd1na2vs0mg"},{"bike_id":"f97ee179-c7bb-412a-8e73-a0ee8cbb90d7","system_id":"levelo_inurba_marseille","lat":43.28266,"lon":5.35056,"is_reserved":false,"is_disabled":false,"rental_uris":{"android":"levelo://app?vid=f97ee179-c7bb-412a-8e73-a0ee8cbb90d7","ios":"levelo://app?vid=f97ee179-c7bb-412a-8e73-a0ee8cbb90d7"},"vehicle_type_id":"4","last_reported":1774356354,"current_range_meters":9200,"station_id":"ce4bhbp2rcd13ifvqerg","pricing_plan_id":"cebpf4jnsgd1na2vs0mg"},{"bike_id":"0f1baf5f-c219-48b4-bab4-e4e4dd49fd33","system_id":"levelo_inurba_marseille","lat":43.31756,"lon":5.39017,"is_reserved":false,"is_disabled":false,"rental_uris":{"android":"levelo://app?vid=0f1baf5f-c219-48b4-bab4-e4e4dd49fd33","ios":"levelo://app?vid=0f1baf5f-c219-48b4-bab4-e4e4dd49fd33"},"vehicle_type_id":"4","last_reported":1774356354,"current_range_meters":9200,"station_id":"ce4bhqp2rcd13ifvqhng","pricing_plan_id":"cebpf4jnsgd1na2vs0mg"},{"bike_id":"762eba06-8520-41c7-b0b4-8147df78de21","system_id":"levelo_inurba_marseille","lat":43.33172,"lon":5.37682,"is_reserved":false,"is_disabled":false,"rental_uris":{"android":"levelo://app?vid=762eba06-8520-41c7-b0b4-8147df78de21","ios":"levelo://app?vid=762eba06-8520-41c7-b0b4-8147df78de21"},"vehicle_type_id":"4","last_reported":1774356354,"current_range_meters":9200,"station_id":"st_d46cu089ee8s73dldbu0","pricing_plan_id":"cebpf4jnsgd1na2vs0mg"},{"bike_id":"18911888-078d-4900-b574-66e9960b927c","system_id":"levelo_inurba_marseille","lat":43.26567,"lon":5.39024,"is_reserved":false,"is_disabled":false,"rental_uris":{"android":"levelo://app?vid=18911888-078d-4900-b574-66e9960b927c","ios":"levelo://app?vid=18911888-078d-4900-b574-66e9960b927c"},"vehicle_type_id":"4","last_reported":1774356354,"current_range_meters":9200,"station_id":"ce4bhe12rcd13ifvqf30","pricing_plan_id":"cebpf4jnsgd1na2vs0mg"},{"bike_id":"d520c672-a946-4bd2-bc2d-9a95f6b0b226","system_id":"levelo_inurba_marseille","lat":43.23903,"lon":5.37465,"is_reserved":false,"is_disabled":false,"rental_uris":{"android":"levelo://app?vid=d520c672-a946-4bd2-bc2d-9a95f6b0b226","ios":"levelo://app?vid=d520c672-a946-4bd2-bc2d-9a95f6b0b226"},"vehicle_type_id":"4","last_reported":1774356354,"current_range_meters":9200,"station_id":"st_d6sm7csbq4hs73f8fpjg","pricing_plan_id":"cebpf4jnsgd1na2vs0mg"},{"bike_id":"96ef8b23-5054-4ed2-9788-4da8cf353732","system_id":"levelo_inurba_marseille","lat":43.25941,"lon":5.40879,"is_reserved":false,"is_disabled":false,"rental_uris":{"android":"levelo://app?vid=96ef8b23-5054-4ed2-9788-4da8cf353732","ios":"levelo://app?vid=96ef8b23-5054-4ed2-9788-4da8cf353732"},"vehicle_type_id":"4","last_reported":1774356354,"current_range_meters":9200,"station_id":"ce4bhm92rcd13ifvqglg","pricing_plan_id":"cebpf4jnsgd1na2vs0mg"},{"bike_id":"0483e660-b7ec-4061-bd5d-8e1b6a2b8aa8","system_id":"levelo_inurba_marseille","lat":43.27355,"lon":5.42392,"is_reserved":false,"is_disabled":false,"rental_uris":{"android":"levelo://app?vid=0483e660-b7ec-4061-bd5d-8e1b6a2b8aa8","ios":"levelo://app?vid=0483e660-b7ec-4061-bd5d-8e1b6a2b8aa8"},"vehicle_type_id":"4","last_reported":1774356354,"current_range_meters":9200,"station_id":"","pricing_plan_id":"cebpf4jnsgd1na2vs0mg"},{"bike_id":"34092ada-d338-4cdd-b261-4a35252d5ee6","system_id":"levelo_inurba_marseille","lat":43.30184,"lon":5.38084,"is_reserved":false,"is_disabled":false,"rental_uris":{"android":"levelo://app?vid=34092ada-d338-4cdd-b261-4a35252d5ee6","ios":"levelo://app?vid=34092ada-d338-4cdd-b261-4a35252d5ee6"},"vehicle_type_id":"4","last_reported":1774356354,"current_range_meters":9600,"station_id":"ce4bgjp2rcd13ifvqbh0","pricing_plan_id":"cebpf4jnsgd1na2vs0mg"},{"bike_id":"992d461f-8839-4086-b27a-9edc1d38b03d","system_id":"levelo_inurba_marseille","lat":43.3355,"lon":5.37467,"is_reserved":false,"is_disabled":false,"rental_uris":{"android":"levelo://app?vid=992d461f-8839-4086-b27a-9edc1d38b03d","ios":"levelo://app?vid=992d461f-8839-4086-b27a-9edc1d38b03d"},"vehicle_type_id":"4","last_reported":1774356354,"current_range_meters":9600,"station_id":"st_d46tts09ee8s73dlu43g","pricing_plan_id":"cebpf4jnsgd1na2vs0mg"},{"bike_id":"906f17c0-60c6-4dfc-84c3-93d15fbf23d8","system_id":"levelo_inurba_marseille","lat":43.26702,"lon":5.38247,"is_reserved":false,"is_disabled":false,"rental_uris":{"android":"levelo://app?vid=906f17c0-60c6-4dfc-84c3-93d15fbf23d8","ios":"levelo://app?vid=906f17c0-60c6-4dfc-84c3-93d15fbf23d8"},"vehicle_type_id":"4","last_reported":1774356354,"current_range_meters":9600,"station_id":"ce4bhg92rcd13ifvqf90","pricing_plan_id":"cebpf4jnsgd1na2vs0mg"},{"bike_id":"5222fbf4-45b6-4e81-9805-30723fab8403","system_id":"levelo_inurba_marseille","lat":43.26682,"lon":5.38256,"is_reserved":false,"is_disabled":false,"rental_uris":{"android":"levelo://app?vid=5222fbf4-45b6-4e81-9805-30723fab8403","ios":"levelo://app?vid=5222fbf4-45b6-4e81-9805-30723fab8403"},"vehicle_type_id":"4","last_reported":1774356354,"current_range_meters":9600,"station_id":"ce4bhg92rcd13ifvqf90","pricing_plan_id":"cebpf4jnsgd1na2vs0mg"},{"bike_id":"659460d5-1083-48ca-9799-b96962297f2a","system_id":"levelo_inurba_marseille","lat":43.3136,"lon":5.3848,"is_reserved":false,"is_disabled":false,"rental_uris":{"android":"levelo://app?vid=659460d5-1083-48ca-9799-b96962297f2a","ios":"levelo://app?vid=659460d5-1083-48ca-9799-b96962297f2a"},"vehicle_type_id":"4","last_reported":1774356354,"current_range_meters":9600,"station_id":"ce4bgt92rcd13ifvqcf0","pricing_plan_id":"cebpf4jnsgd1na2vs0mg"},{"bike_id":"58913129-4e21-4f58-a615-02fa2bfec3ba","system_id":"levelo_inurba_marseille","lat":43.25942,"lon":5.40898,"is_reserved":false,"is_disabled":false,"rental_uris":{"android":"levelo://app?vid=58913129-4e21-4f58-a615-02fa2bfec3ba","ios":"levelo://app?vid=58913129-4e21-4f58-a615-02fa2bfec3ba"},"vehicle_type_id":"4","last_reported":1774356354,"current_range_meters":9600,"station_id":"ce4bhm92rcd13ifvqglg","pricing_plan_id":"cebpf4jnsgd1na2vs0mg"},{"bike_id":"1da79276-4e4c-4ab9-a9e0-6b0134a0fc85","system_id":"levelo_inurba_marseille","lat":43.28725,"lon":5.36088,"is_reserved":false,"is_disabled":false,"rental_uris":{"android":"levelo://app?vid=1da79276-4e4c-4ab9-a9e0-6b0134a0fc85","ios":"levelo://app?vid=1da79276-4e4c-4ab9-a9e0-6b0134a0fc85"},"vehicle_type_id":"4","last_reported":1774356354,"current_range_meters":9600,"station_id":"cki0cbj6b192h4jlfktg","pricing_plan_id":"cebpf4jnsgd1na2vs0mg"},{"bike_id":"afe0a86a-bdb1-4d45-9157-9ef00bbb9918","system_id":"levelo_inurba_marseille","lat":43.26795,"lon":5.39421,"is_reserved":false,"is_disabled":false,"rental_uris":{"android":"levelo://app?vid=afe0a86a-bdb1-4d45-9157-9ef00bbb9918","ios":"levelo://app?vid=afe0a86a-bdb1-4d45-9157-9ef00bbb9918"},"vehicle_type_id":"4","last_reported":1774356354,"current_range_meters":9600,"station_id":"ce4bhh12rcd13ifvqfg0","pricing_plan_id":"cebpf4jnsgd1na2vs0mg"},{"bike_id":"489b1f47-9bf9-4f10-90f5-3b4dff230700","system_id":"levelo_inurba_marseille","lat":43.23791,"lon":5.36621,"is_reserved":false,"is_disabled":false,"rental_uris":{"android":"levelo://app?vid=489b1f47-9bf9-4f10-90f5-3b4dff230700","ios":"levelo://app?vid=489b1f47-9bf9-4f10-90f5-3b4dff230700"},"vehicle_type_id":"4","last_reported":1774356354,"current_range_meters":9600,"station_id":"st_d3nk18o9ro0c73en2l3g","pricing_plan_id":"cebpf4jnsgd1na2vs0mg"},{"bike_id":"584125c6-2468-4f45-a44d-fd68c53d0920","system_id":"levelo_inurba_marseille","lat":43.30962,"lon":5.39043,"is_reserved":false,"is_disabled":false,"rental_uris":{"android":"levelo://app?vid=584125c6-2468-4f45-a44d-fd68c53d0920","ios":"levelo://app?vid=584125c6-2468-4f45-a44d-fd68c53d0920"},"vehicle_type_id":"4","last_reported":1774356354,"current_range_meters":9600,"station_id":"ce4bgup2rcd13ifvqco0","pricing_plan_id":"cebpf4jnsgd1na2vs0mg"},{"bike_id":"8b52f831-7196-42c4-98f8-2da2d3570465","system_id":"levelo_inurba_marseille","lat":43.29097,"lon":5.38133,"is_reserved":false,"is_disabled":false,"rental_uris":{"android":"levelo://app?vid=8b52f831-7196-42c4-98f8-2da2d3570465","ios":"levelo://app?vid=8b52f831-7196-42c4-98f8-2da2d3570465"},"vehicle_type_id":"4","last_reported":1774356354,"current_range_meters":9600,"station_id":"ce4bh512rcd13ifvqe2g","pricing_plan_id":"cebpf4jnsgd1na2vs0mg"},{"bike_id":"b9d157e4-adb0-4d64-b93d-349f42c39fcf","system_id":"levelo_inurba_marseille","lat":43.31899,"lon":5.36802,"is_reserved":false,"is_disabled":false,"rental_uris":{"android":"levelo://app?vid=b9d157e4-adb0-4d64-b93d-349f42c39fcf","ios":"levelo://app?vid=b9d157e4-adb0-4d64-b93d-349f42c39fcf"},"vehicle_type_id":"4","last_reported":1774356354,"current_range_meters":9600,"station_id":"st_d6o2h0d0559c73evc1b0","pricing_plan_id":"cebpf4jnsgd1na2vs0mg"},{"bike_id":"3c68b8c9-7b48-4a5e-96da-c48a047e8ef3","system_id":"levelo_inurba_marseille","lat":43.32472,"lon":5.36571,"is_reserved":false,"is_disabled":false,"rental_uris":{"android":"levelo://app?vid=3c68b8c9-7b48-4a5e-96da-c48a047e8ef3","ios":"levelo://app?vid=3c68b8c9-7b48-4a5e-96da-c48a047e8ef3"},"vehicle_type_id":"4","last_reported":1774356354,"current_range_meters":10000,"station_id":"ce4bhs12rcd13ifvqhvg","pricing_plan_id":"cebpf4jnsgd1na2vs0mg"},{"bike_id":"fdd8bf84-b2fe-4508-9572-06ea662fa5ac","system_id":"levelo_inurba_marseille","lat":43.28478,"lon":5.48388,"is_reserved":false,"is_disabled":false,"rental_uris":{"android":"levelo://app?vid=fdd8bf84-b2fe-4508-9572-06ea662fa5ac","ios":"levelo://app?vid=fdd8bf84-b2fe-4508-9572-06ea662fa5ac"},"vehicle_type_id":"4","last_reported":1774356354,"current_range_meters":10000,"station_id":"","pricing_plan_id":"cebpf4jnsgd1na2vs0mg"},{"bike_id":"00632196-0233-4f69-90af-0a36bab1dde0","system_id":"levelo_inurba_marseille","lat":43.2253,"lon":5.34843,"is_reserved":false,"is_disabled":false,"rental_uris":{"android":"levelo://app?vid=00632196-0233-4f69-90af-0a36bab1dde0","ios":"levelo://app?vid=00632196-0233-4f69-90af-0a36bab1dde0"},"vehicle_type_id":"4","last_reported":1774356354,"current_range_meters":10000,"station_id":"","pricing_plan_id":"cebpf4jnsgd1na2vs0mg"},{"bike_id":"fadd83d2-5a56-4dab-abd3-4fc024887366","system_id":"levelo_inurba_marseille","lat":43.28483,"lon":5.48402,"is_reserved":false,"is_disabled":false,"rental_uris":{"android":"levelo://app?vid=fadd83d2-5a56-4dab-abd3-4fc024887366","ios":"levelo://app?vid=fadd83d2-5a56-4dab-abd3-4fc024887366"},"vehicle_type_id":"4","last_reported":1774356354,"current_range_meters":10000,"station_id":"","pricing_plan_id":"cebpf4jnsgd1na2vs0mg"},{"bike_id":"8926c4c4-5f6a-4e55-a77a-ca8a5ff700ce","system_id":"levelo_inurba_marseille","lat":43.30445,"lon":5.37919,"is_reserved":false,"is_disabled":true,"rental_uris":{"android":"levelo://app?vid=8926c4c4-5f6a-4e55-a77a-ca8a5ff700ce","ios":"levelo://app?vid=8926c4c4-5f6a-4e55-a77a-ca8a5ff700ce"},"vehicle_type_id":"4","last_reported":1774356354,"current_range_meters":10000,"station_id":"","pricing_plan_id":"cebpf4jnsgd1na2vs0mg"},{"bike_id":"adaf8e00-ca2c-49b5-9b35-6749da32aa87","system_id":"levelo_inurba_marseille","lat":43.33563,"lon":5.37439,"is_reserved":false,"is_disabled":false,"rental_uris":{"android":"levelo://app?vid=adaf8e00-ca2c-49b5-9b35-6749da32aa87","ios":"levelo://app?vid=adaf8e00-ca2c-49b5-9b35-6749da32aa87"},"vehicle_type_id":"4","last_reported":1774356354,"current_range_meters":10000,"station_id":"st_d46tts09ee8s73dlu43g","pricing_plan_id":"cebpf4jnsgd1na2vs0mg"},{"bike_id":"7e8711eb-4f85-45fc-a398-fe1f826a3f78","system_id":"levelo_inurba_marseille","lat":43.26208,"lon":5.37923,"is_reserved":false,"is_disabled":false,"rental_uris":{"android":"levelo://app?vid=7e8711eb-4f85-45fc-a398-fe1f826a3f78","ios":"levelo://app?vid=7e8711eb-4f85-45fc-a398-fe1f826a3f78"},"vehicle_type_id":"4","last_reported":1774356354,"current_range_meters":10000,"station_id":"ce4bhjp2rcd13ifvqg90","pricing_plan_id":"cebpf4jnsgd1na2vs0mg"},{"bike_id":"8536f45d-e3de-4b5a-8404-cf2d2ec17d57","system_id":"levelo_inurba_marseille","lat":43.24391,"lon":5.37073,"is_reserved":false,"is_disabled":false,"rental_uris":{"android":"levelo://app?vid=8536f45d-e3de-4b5a-8404-cf2d2ec17d57","ios":"levelo://app?vid=8536f45d-e3de-4b5a-8404-cf2d2ec17d57"},"vehicle_type_id":"4","last_reported":1774356354,"current_range_meters":10000,"station_id":"ce4bhhh2rcd13ifvqfk0","pricing_plan_id":"cebpf4jnsgd1na2vs0mg"},{"bike_id":"36c30ee7-542d-41db-b84b-a18e4b79c37e","system_id":"levelo_inurba_marseille","lat":43.27934,"lon":5.39546,"is_reserved":false,"is_disabled":true,"rental_uris":{"android":"levelo://app?vid=36c30ee7-542d-41db-b84b-a18e4b79c37e","ios":"levelo://app?vid=36c30ee7-542d-41db-b84b-a18e4b79c37e"},"vehicle_type_id":"4","last_reported":1774356354,"current_range_meters":10000,"station_id":"ce4bhf92rcd13ifvqf40","pricing_plan_id":"cebpf4jnsgd1na2vs0mg"},{"bike_id":"db23ebda-ef7b-4738-b1a2-70195b447c20","system_id":"levelo_inurba_marseille","lat":43.22574,"lon":5.41626,"is_reserved":false,"is_disabled":false,"rental_uris":{"android":"levelo://app?vid=db23ebda-ef7b-4738-b1a2-70195b447c20","ios":"levelo://app?vid=db23ebda-ef7b-4738-b1a2-70195b447c20"},"vehicle_type_id":"4","last_reported":1774356354,"current_range_meters":10000,"station_id":"st_d2o4gvlbi1j2169b742g","pricing_plan_id":"cebpf4jnsgd1na2vs0mg"},{"bike_id":"81afbade-9b61-4865-965d-d9c81a599521","system_id":"levelo_inurba_marseille","lat":43.2378,"lon":5.36624,"is_reserved":false,"is_disabled":false,"rental_uris":{"android":"levelo://app?vid=81afbade-9b61-4865-965d-d9c81a599521","ios":"levelo://app?vid=81afbade-9b61-4865-965d-d9c81a599521"},"vehicle_type_id":"4","last_reported":1774356354,"current_range_meters":10000,"station_id":"st_d3nk18o9ro0c73en2l3g","pricing_plan_id":"cebpf4jnsgd1na2vs0mg"},{"bike_id":"9cdb5796-a3d8-4383-874d-c26002801877","system_id":"levelo_inurba_marseille","lat":43.30148,"lon":5.38062,"is_reserved":false,"is_disabled":false,"rental_uris":{"android":"levelo://app?vid=9cdb5796-a3d8-4383-874d-c26002801877","ios":"levelo://app?vid=9cdb5796-a3d8-4383-874d-c26002801877"},"vehicle_type_id":"4","last_reported":1774356354,"current_range_meters":10000,"station_id":"ce4bgjp2rcd13ifvqbh0","pricing_plan_id":"cebpf4jnsgd1na2vs0mg"},{"bike_id":"3969d9ff-e51e-44fd-8e71-b3c87bcabc26","system_id":"levelo_inurba_marseille","lat":43.25833,"lon":5.39446,"is_reserved":false,"is_disabled":false,"rental_uris":{"android":"levelo://app?vid=3969d9ff-e51e-44fd-8e71-b3c87bcabc26","ios":"levelo://app?vid=3969d9ff-e51e-44fd-8e71-b3c87bcabc26"},"vehicle_type_id":"4","last_reported":1774356354,"current_range_meters":10000,"station_id":"ce4bhip2rcd13ifvqft0","pricing_plan_id":"cebpf4jnsgd1na2vs0mg"},{"bike_id":"c077bc61-87d5-464a-91c7-0a56c776f1f2","system_id":"levelo_inurba_marseille","lat":43.31502,"lon":5.36544,"is_reserved":false,"is_disabled":false,"rental_uris":{"android":"levelo://app?vid=c077bc61-87d5-464a-91c7-0a56c776f1f2","ios":"levelo://app?vid=c077bc61-87d5-464a-91c7-0a56c776f1f2"},"vehicle_type_id":"4","last_reported":1774356354,"current_range_meters":10000,"station_id":"ce4bgr92rcd13ifvqc6g","pricing_plan_id":"cebpf4jnsgd1na2vs0mg"},{"bike_id":"2e5157cb-0643-41a3-9ca9-1871890938ce","system_id":"levelo_inurba_marseille","lat":43.25849,"lon":5.39914,"is_reserved":false,"is_disabled":false,"rental_uris":{"android":"levelo://app?vid=2e5157cb-0643-41a3-9ca9-1871890938ce","ios":"levelo://app?vid=2e5157cb-0643-41a3-9ca9-1871890938ce"},"vehicle_type_id":"4","last_reported":1774356354,"current_range_meters":10000,"station_id":"ce4bhl92rcd13ifvqghg","pricing_plan_id":"cebpf4jnsgd1na2vs0mg"},{"bike_id":"96e183ba-7480-47fb-b46e-3d870282305d","system_id":"levelo_inurba_marseille","lat":43.30186,"lon":5.36613,"is_reserved":false,"is_disabled":false,"rental_uris":{"android":"levelo://app?vid=96e183ba-7480-47fb-b46e-3d870282305d","ios":"levelo://app?vid=96e183ba-7480-47fb-b46e-3d870282305d"},"vehicle_type_id":"4","last_reported":1774356354,"current_range_meters":10800,"station_id":"ce4bgrh2rcd13ifvqc8g","pricing_plan_id":"cebpf4jnsgd1na2vs0mg"},{"bike_id":"f7964fa2-d7a6-41b0-97f9-1f4fa6b33c53","system_id":"levelo_inurba_marseille","lat":43.25336,"lon":5.42171,"is_reserved":false,"is_disabled":false,"rental_uris":{"android":"levelo://app?vid=f7964fa2-d7a6-41b0-97f9-1f4fa6b33c53","ios":"levelo://app?vid=f7964fa2-d7a6-41b0-97f9-1f4fa6b33c53"},"vehicle_type_id":"4","last_reported":1774356354,"current_range_meters":10800,"station_id":"","pricing_plan_id":"cebpf4jnsgd1na2vs0mg"},{"bike_id":"484f2abe-81d9-4c3a-92bb-99d4e164fc66","system_id":"levelo_inurba_marseille","lat":43.2749,"lon":5.41576,"is_reserved":false,"is_disabled":false,"rental_uris":{"android":"levelo://app?vid=484f2abe-81d9-4c3a-92bb-99d4e164fc66","ios":"levelo://app?vid=484f2abe-81d9-4c3a-92bb-99d4e164fc66"},"vehicle_type_id":"4","last_reported":1774356354,"current_range_meters":10800,"station_id":"st_d6im8g6chgec73a5pndg","pricing_plan_id":"cebpf4jnsgd1na2vs0mg"},{"bike_id":"1fc2c6f1-de46-468f-b8d8-fb4bd76ace6e","system_id":"levelo_inurba_marseille","lat":43.23194,"lon":5.39991,"is_reserved":false,"is_disabled":false,"rental_uris":{"android":"levelo://app?vid=1fc2c6f1-de46-468f-b8d8-fb4bd76ace6e","ios":"levelo://app?vid=1fc2c6f1-de46-468f-b8d8-fb4bd76ace6e"},"vehicle_type_id":"4","last_reported":1774356354,"current_range_meters":10800,"station_id":"ce4bhn12rcd13ifvqgqg","pricing_plan_id":"cebpf4jnsgd1na2vs0mg"},{"bike_id":"8f9f7620-9242-4d4f-a4b5-edf78d9544f8","system_id":"levelo_inurba_marseille","lat":43.24391,"lon":5.37061,"is_reserved":false,"is_disabled":false,"rental_uris":{"android":"levelo://app?vid=8f9f7620-9242-4d4f-a4b5-edf78d9544f8","ios":"levelo://app?vid=8f9f7620-9242-4d4f-a4b5-edf78d9544f8"},"vehicle_type_id":"4","last_reported":1774356354,"current_range_meters":10800,"station_id":"ce4bhhh2rcd13ifvqfk0","pricing_plan_id":"cebpf4jnsgd1na2vs0mg"},{"bike_id":"34a36d18-ae2d-479f-aac0-c387918978af","system_id":"levelo_inurba_marseille","lat":43.33605,"lon":5.41027,"is_reserved":false,"is_disabled":false,"rental_uris":{"android":"levelo://app?vid=34a36d18-ae2d-479f-aac0-c387918978af","ios":"levelo://app?vid=34a36d18-ae2d-479f-aac0-c387918978af"},"vehicle_type_id":"4","last_reported":1774356354,"current_range_meters":10800,"station_id":"ce4bhqh2rcd13ifvqhmg","pricing_plan_id":"cebpf4jnsgd1na2vs0mg"},{"bike_id":"0024941b-8fb7-482f-afc1-9c877246df67","system_id":"levelo_inurba_marseille","lat":43.29539,"lon":5.38545,"is_reserved":false,"is_disabled":false,"rental_uris":{"android":"levelo://app?vid=0024941b-8fb7-482f-afc1-9c877246df67","ios":"levelo://app?vid=0024941b-8fb7-482f-afc1-9c877246df67"},"vehicle_type_id":"4","last_reported":1774356354,"current_range_meters":10800,"station_id":"ce4bgih2rcd13ifvqba0","pricing_plan_id":"cebpf4jnsgd1na2vs0mg"},{"bike_id":"efa8a9e2-d0f9-4774-bd46-4f0acd088750","system_id":"levelo_inurba_marseille","lat":43.30805,"lon":5.39979,"is_reserved":false,"is_disabled":false,"rental_uris":{"android":"levelo://app?vid=efa8a9e2-d0f9-4774-bd46-4f0acd088750","ios":"levelo://app?vid=efa8a9e2-d0f9-4774-bd46-4f0acd088750"},"vehicle_type_id":"4","last_reported":1774356354,"current_range_meters":10800,"station_id":"","pricing_plan_id":"cebpf4jnsgd1na2vs0mg"},{"bike_id":"c00614de-fb45-42a8-b0b6-775dc2afa204","system_id":"levelo_inurba_marseille","lat":43.3055,"lon":5.36703,"is_reserved":false,"is_disabled":false,"rental_uris":{"android":"levelo://app?vid=c00614de-fb45-42a8-b0b6-775dc2afa204","ios":"levelo://app?vid=c00614de-fb45-42a8-b0b6-775dc2afa204"},"vehicle_type_id":"4","last_reported":1774356354,"current_range_meters":10800,"station_id":"ce4bgrp2rcd13ifvqc9g","pricing_plan_id":"cebpf4jnsgd1na2vs0mg"},{"bike_id":"21800d29-3481-4758-b7e9-e138cc33b063","system_id":"levelo_inurba_marseille","lat":43.29928,"lon":5.37467,"is_reserved":false,"is_disabled":false,"rental_uris":{"android":"levelo://app?vid=21800d29-3481-4758-b7e9-e138cc33b063","ios":"levelo://app?vid=21800d29-3481-4758-b7e9-e138cc33b063"},"vehicle_type_id":"4","last_reported":1774356354,"current_range_meters":10800,"station_id":"ce4bgjh2rcd13ifvqbg0","pricing_plan_id":"cebpf4jnsgd1na2vs0mg"},{"bike_id":"451e822b-d17c-41b3-aa86-e9da4e66ded2","system_id":"levelo_inurba_marseille","lat":43.23969,"lon":5.36619,"is_reserved":false,"is_disabled":false,"rental_uris":{"android":"levelo://app?vid=451e822b-d17c-41b3-aa86-e9da4e66ded2","ios":"levelo://app?vid=451e822b-d17c-41b3-aa86-e9da4e66ded2"},"vehicle_type_id":"4","last_reported":1774356354,"current_range_meters":10800,"station_id":"ce4bhi12rcd13ifvqfp0","pricing_plan_id":"cebpf4jnsgd1na2vs0mg"},{"bike_id":"2ffcc2dd-acc7-4c1f-83fe-76a51bfe4c59","system_id":"levelo_inurba_marseille","lat":43.23774,"lon":5.36649,"is_reserved":false,"is_disabled":false,"rental_uris":{"android":"levelo://app?vid=2ffcc2dd-acc7-4c1f-83fe-76a51bfe4c59","ios":"levelo://app?vid=2ffcc2dd-acc7-4c1f-83fe-76a51bfe4c59"},"vehicle_type_id":"4","last_reported":1774356354,"current_range_meters":10800,"station_id":"st_d3nk18o9ro0c73en2l3g","pricing_plan_id":"cebpf4jnsgd1na2vs0mg"},{"bike_id":"f186bad8-5bed-4bb3-8e6b-283c87fad25e","system_id":"levelo_inurba_marseille","lat":43.27349,"lon":5.36205,"is_reserved":false,"is_disabled":false,"rental_uris":{"android":"levelo://app?vid=f186bad8-5bed-4bb3-8e6b-283c87fad25e","ios":"levelo://app?vid=f186bad8-5bed-4bb3-8e6b-283c87fad25e"},"vehicle_type_id":"4","last_reported":1774356354,"current_range_meters":10800,"station_id":"ce4bhbh2rcd13ifvqeo0","pricing_plan_id":"cebpf4jnsgd1na2vs0mg"},{"bike_id":"f4e12de3-12ee-449c-bb7b-82b4b799a0fa","system_id":"levelo_inurba_marseille","lat":43.246511,"lon":5.388933,"is_reserved":false,"is_disabled":true,"rental_uris":{"android":"levelo://app?vid=f4e12de3-12ee-449c-bb7b-82b4b799a0fa","ios":"levelo://app?vid=f4e12de3-12ee-449c-bb7b-82b4b799a0fa"},"vehicle_type_id":"4","last_reported":1774356354,"current_range_meters":11200,"station_id":"ce4bgg92rcd13ifvqb30","pricing_plan_id":"cebpf4jnsgd1na2vs0mg"},{"bike_id":"390642d5-ebc3-4bda-abf8-55b0c8070dc5","system_id":"levelo_inurba_marseille","lat":43.26691,"lon":5.38254,"is_reserved":false,"is_disabled":true,"rental_uris":{"android":"levelo://app?vid=390642d5-ebc3-4bda-abf8-55b0c8070dc5","ios":"levelo://app?vid=390642d5-ebc3-4bda-abf8-55b0c8070dc5"},"vehicle_type_id":"4","last_reported":1774356354,"current_range_meters":11200,"station_id":"ce4bhg92rcd13ifvqf90","pricing_plan_id":"cebpf4jnsgd1na2vs0mg"},{"bike_id":"d64c94f3-e268-41de-bac3-5a218887d9b5","system_id":"levelo_inurba_marseille","lat":43.2848,"lon":5.48392,"is_reserved":false,"is_disabled":false,"rental_uris":{"android":"levelo://app?vid=d64c94f3-e268-41de-bac3-5a218887d9b5","ios":"levelo://app?vid=d64c94f3-e268-41de-bac3-5a218887d9b5"},"vehicle_type_id":"4","last_reported":1774356354,"current_range_meters":11200,"station_id":"","pricing_plan_id":"cebpf4jnsgd1na2vs0mg"},{"bike_id":"1f79b281-4c7e-42fd-85e8-6ac2f2c6e346","system_id":"levelo_inurba_marseille","lat":43.21203,"lon":5.35031,"is_reserved":false,"is_disabled":false,"rental_uris":{"android":"levelo://app?vid=1f79b281-4c7e-42fd-85e8-6ac2f2c6e346","ios":"levelo://app?vid=1f79b281-4c7e-42fd-85e8-6ac2f2c6e346"},"vehicle_type_id":"4","last_reported":1774356354,"current_range_meters":11200,"station_id":"","pricing_plan_id":"cebpf4jnsgd1na2vs0mg"},{"bike_id":"89673b48-b93e-49b1-91bc-4a5460ed425e","system_id":"levelo_inurba_marseille","lat":43.29902,"lon":5.43644,"is_reserved":false,"is_disabled":false,"rental_uris":{"android":"levelo://app?vid=89673b48-b93e-49b1-91bc-4a5460ed425e","ios":"levelo://app?vid=89673b48-b93e-49b1-91bc-4a5460ed425e"},"vehicle_type_id":"4","last_reported":1774356354,"current_range_meters":11200,"station_id":"ce4bhpp2rcd13ifvqhfg","pricing_plan_id":"cebpf4jnsgd1na2vs0mg"},{"bike_id":"7ea6fdc2-331a-49a0-86c0-bac72acd4c08","system_id":"levelo_inurba_marseille","lat":43.28885,"lon":5.42492,"is_reserved":false,"is_disabled":false,"rental_uris":{"android":"levelo://app?vid=7ea6fdc2-331a-49a0-86c0-bac72acd4c08","ios":"levelo://app?vid=7ea6fdc2-331a-49a0-86c0-bac72acd4c08"},"vehicle_type_id":"4","last_reported":1774356354,"current_range_meters":11200,"station_id":"","pricing_plan_id":"cebpf4jnsgd1na2vs0mg"},{"bike_id":"5487f2c1-c4a8-4daf-8490-88d7b84744cf","system_id":"levelo_inurba_marseille","lat":43.30302,"lon":5.36914,"is_reserved":false,"is_disabled":false,"rental_uris":{"android":"levelo://app?vid=5487f2c1-c4a8-4daf-8490-88d7b84744cf","ios":"levelo://app?vid=5487f2c1-c4a8-4daf-8490-88d7b84744cf"},"vehicle_type_id":"4","last_reported":1774356354,"current_range_meters":11200,"station_id":"ce4bgqh2rcd13ifvqc5g","pricing_plan_id":"cebpf4jnsgd1na2vs0mg"},{"bike_id":"526b1a54-1174-47a5-b5d7-e3da14731487","system_id":"levelo_inurba_marseille","lat":43.26961,"lon":5.4022,"is_reserved":false,"is_disabled":false,"rental_uris":{"android":"levelo://app?vid=526b1a54-1174-47a5-b5d7-e3da14731487","ios":"levelo://app?vid=526b1a54-1174-47a5-b5d7-e3da14731487"},