{"last_updated":1768272717,"ttl":60,"version":"2.2","data":{"bikes":[{"bike_id":"7ffdc8b6-d5d5-45ce-aaaa-678d1bd8c170","system_id":"levelo_inurba_marseille","lat":43.29272,"lon":5.36842,"is_reserved":false,"is_disabled":false,"rental_uris":{"android":"levelo://app?vid=7ffdc8b6-d5d5-45ce-aaaa-678d1bd8c170","ios":"levelo://app?vid=7ffdc8b6-d5d5-45ce-aaaa-678d1bd8c170"},"vehicle_type_id":"4","last_reported":1768272717,"current_range_meters":2800,"station_id":"ce4bhbp2rcd13ifvqesg","pricing_plan_id":"cebpf4jnsgd1na2vs0mg"},{"bike_id":"9bc89c8e-a483-418e-b55a-8f6d2ebdde7a","system_id":"levelo_inurba_marseille","lat":43.2293,"lon":5.35382,"is_reserved":false,"is_disabled":false,"rental_uris":{"android":"levelo://app?vid=9bc89c8e-a483-418e-b55a-8f6d2ebdde7a","ios":"levelo://app?vid=9bc89c8e-a483-418e-b55a-8f6d2ebdde7a"},"vehicle_type_id":"4","last_reported":1768272717,"current_range_meters":2800,"station_id":"cpo3532slgdg3j2ikp40","pricing_plan_id":"cebpf4jnsgd1na2vs0mg"},{"bike_id":"68b4e476-9063-4091-b192-166f0191d00d","system_id":"levelo_inurba_marseille","lat":43.233615,"lon":5.435951,"is_reserved":false,"is_disabled":false,"rental_uris":{"android":"levelo://app?vid=68b4e476-9063-4091-b192-166f0191d00d","ios":"levelo://app?vid=68b4e476-9063-4091-b192-166f0191d00d"},"vehicle_type_id":"4","last_reported":1768272717,"current_range_meters":2800,"station_id":"ce4bhmp2rcd13ifvqgog","pricing_plan_id":"cebpf4jnsgd1na2vs0mg"},{"bike_id":"208b6de9-ffcd-4907-8a2c-4799bc189022","system_id":"levelo_inurba_marseille","lat":43.23178,"lon":5.39981,"is_reserved":false,"is_disabled":false,"rental_uris":{"android":"levelo://app?vid=208b6de9-ffcd-4907-8a2c-4799bc189022","ios":"levelo://app?vid=208b6de9-ffcd-4907-8a2c-4799bc189022"},"vehicle_type_id":"4","last_reported":1768272717,"current_range_meters":2800,"station_id":"ce4bhn12rcd13ifvqgqg","pricing_plan_id":"cebpf4jnsgd1na2vs0mg"},{"bike_id":"e21f83f2-ad42-4aed-9759-576415e0cd84","system_id":"levelo_inurba_marseille","lat":43.2851,"lon":5.43006,"is_reserved":false,"is_disabled":false,"rental_uris":{"android":"levelo://app?vid=e21f83f2-ad42-4aed-9759-576415e0cd84","ios":"levelo://app?vid=e21f83f2-ad42-4aed-9759-576415e0cd84"},"vehicle_type_id":"4","last_reported":1768272717,"current_range_meters":2800,"station_id":"","pricing_plan_id":"cebpf4jnsgd1na2vs0mg"},{"bike_id":"950fb9ca-8a92-4124-b176-97b616bd9ee7","system_id":"levelo_inurba_marseille","lat":43.28852,"lon":5.3937,"is_reserved":false,"is_disabled":true,"rental_uris":{"android":"levelo://app?vid=950fb9ca-8a92-4124-b176-97b616bd9ee7","ios":"levelo://app?vid=950fb9ca-8a92-4124-b176-97b616bd9ee7"},"vehicle_type_id":"4","last_reported":1768272717,"current_range_meters":2800,"station_id":"ce4bh2p2rcd13ifvqdi0","pricing_plan_id":"cebpf4jnsgd1na2vs0mg"},{"bike_id":"aaa7746b-4bb3-4745-9a78-16c7e3f0ea13","system_id":"levelo_inurba_marseille","lat":43.24066,"lon":5.37762,"is_reserved":false,"is_disabled":false,"rental_uris":{"android":"levelo://app?vid=aaa7746b-4bb3-4745-9a78-16c7e3f0ea13","ios":"levelo://app?vid=aaa7746b-4bb3-4745-9a78-16c7e3f0ea13"},"vehicle_type_id":"4","last_reported":1768272717,"current_range_meters":2800,"station_id":"ce4bhnp2rcd13ifvqgvg","pricing_plan_id":"cebpf4jnsgd1na2vs0mg"},{"bike_id":"34776374-4b02-4cd6-b23e-c5bdf67f2d27","system_id":"levelo_inurba_marseille","lat":43.291974,"lon":5.357928,"is_reserved":false,"is_disabled":false,"rental_uris":{"android":"levelo://app?vid=34776374-4b02-4cd6-b23e-c5bdf67f2d27","ios":"levelo://app?vid=34776374-4b02-4cd6-b23e-c5bdf67f2d27"},"vehicle_type_id":"4","last_reported":1768272717,"current_range_meters":2800,"station_id":"ce4bhb12rcd13ifvqel0","pricing_plan_id":"cebpf4jnsgd1na2vs0mg"},{"bike_id":"1e77de7f-4d27-4509-a320-356d2d64a285","system_id":"levelo_inurba_marseille","lat":43.30581,"lon":5.37207,"is_reserved":false,"is_disabled":false,"rental_uris":{"android":"levelo://app?vid=1e77de7f-4d27-4509-a320-356d2d64a285","ios":"levelo://app?vid=1e77de7f-4d27-4509-a320-356d2d64a285"},"vehicle_type_id":"4","last_reported":1768272717,"current_range_meters":2800,"station_id":"ce4bgqh2rcd13ifvqc4g","pricing_plan_id":"cebpf4jnsgd1na2vs0mg"},{"bike_id":"7fe21793-db8c-4337-8752-6b7e026e2640","system_id":"levelo_inurba_marseille","lat":43.255,"lon":5.37661,"is_reserved":false,"is_disabled":false,"rental_uris":{"android":"levelo://app?vid=7fe21793-db8c-4337-8752-6b7e026e2640","ios":"levelo://app?vid=7fe21793-db8c-4337-8752-6b7e026e2640"},"vehicle_type_id":"4","last_reported":1768272717,"current_range_meters":2800,"station_id":"ce4bhh12rcd13ifvqff0","pricing_plan_id":"cebpf4jnsgd1na2vs0mg"},{"bike_id":"6b4cd2dc-25ea-4079-b9fe-5462d5e3a9f0","system_id":"levelo_inurba_marseille","lat":43.27129,"lon":5.40409,"is_reserved":false,"is_disabled":false,"rental_uris":{"android":"levelo://app?vid=6b4cd2dc-25ea-4079-b9fe-5462d5e3a9f0","ios":"levelo://app?vid=6b4cd2dc-25ea-4079-b9fe-5462d5e3a9f0"},"vehicle_type_id":"4","last_reported":1768272717,"current_range_meters":2800,"station_id":"","pricing_plan_id":"cebpf4jnsgd1na2vs0mg"},{"bike_id":"e8909d11-c6c0-4a1b-a11a-6b74d5a8be8d","system_id":"levelo_inurba_marseille","lat":43.225339,"lon":5.348392,"is_reserved":false,"is_disabled":false,"rental_uris":{"android":"levelo://app?vid=e8909d11-c6c0-4a1b-a11a-6b74d5a8be8d","ios":"levelo://app?vid=e8909d11-c6c0-4a1b-a11a-6b74d5a8be8d"},"vehicle_type_id":"4","last_reported":1768272717,"current_range_meters":2800,"station_id":"","pricing_plan_id":"cebpf4jnsgd1na2vs0mg"},{"bike_id":"74517fce-3511-422e-b7b6-d84d30e9d61f","system_id":"levelo_inurba_marseille","lat":43.30367,"lon":5.37326,"is_reserved":false,"is_disabled":false,"rental_uris":{"android":"levelo://app?vid=74517fce-3511-422e-b7b6-d84d30e9d61f","ios":"levelo://app?vid=74517fce-3511-422e-b7b6-d84d30e9d61f"},"vehicle_type_id":"4","last_reported":1768272717,"current_range_meters":3200,"station_id":"","pricing_plan_id":"cebpf4jnsgd1na2vs0mg"},{"bike_id":"795d793e-88df-4ac1-a147-0968b8571e02","system_id":"levelo_inurba_marseille","lat":43.231894,"lon":5.399789,"is_reserved":false,"is_disabled":false,"rental_uris":{"android":"levelo://app?vid=795d793e-88df-4ac1-a147-0968b8571e02","ios":"levelo://app?vid=795d793e-88df-4ac1-a147-0968b8571e02"},"vehicle_type_id":"4","last_reported":1768272717,"current_range_meters":3200,"station_id":"ce4bhn12rcd13ifvqgqg","pricing_plan_id":"cebpf4jnsgd1na2vs0mg"},{"bike_id":"599551f3-489c-449c-a5f9-34490cbff37c","system_id":"levelo_inurba_marseille","lat":43.28481,"lon":5.38216,"is_reserved":false,"is_disabled":false,"rental_uris":{"android":"levelo://app?vid=599551f3-489c-449c-a5f9-34490cbff37c","ios":"levelo://app?vid=599551f3-489c-449c-a5f9-34490cbff37c"},"vehicle_type_id":"4","last_reported":1768272717,"current_range_meters":3200,"station_id":"","pricing_plan_id":"cebpf4jnsgd1na2vs0mg"},{"bike_id":"49eccc2e-11c2-4c32-870f-ae2b350f0484","system_id":"levelo_inurba_marseille","lat":43.24075,"lon":5.37762,"is_reserved":false,"is_disabled":false,"rental_uris":{"android":"levelo://app?vid=49eccc2e-11c2-4c32-870f-ae2b350f0484","ios":"levelo://app?vid=49eccc2e-11c2-4c32-870f-ae2b350f0484"},"vehicle_type_id":"4","last_reported":1768272717,"current_range_meters":3200,"station_id":"ce4bhnp2rcd13ifvqgvg","pricing_plan_id":"cebpf4jnsgd1na2vs0mg"},{"bike_id":"73458e0d-84b9-4043-9286-37e9026bc27e","system_id":"levelo_inurba_marseille","lat":43.22552,"lon":5.41639,"is_reserved":false,"is_disabled":false,"rental_uris":{"android":"levelo://app?vid=73458e0d-84b9-4043-9286-37e9026bc27e","ios":"levelo://app?vid=73458e0d-84b9-4043-9286-37e9026bc27e"},"vehicle_type_id":"4","last_reported":1768272717,"current_range_meters":3200,"station_id":"st_d2o4gvlbi1j2169b742g","pricing_plan_id":"cebpf4jnsgd1na2vs0mg"},{"bike_id":"301c787a-5305-45f5-86ff-c559fa230a50","system_id":"levelo_inurba_marseille","lat":43.29869,"lon":5.37667,"is_reserved":false,"is_disabled":false,"rental_uris":{"android":"levelo://app?vid=301c787a-5305-45f5-86ff-c559fa230a50","ios":"levelo://app?vid=301c787a-5305-45f5-86ff-c559fa230a50"},"vehicle_type_id":"4","last_reported":1768272717,"current_range_meters":3200,"station_id":"","pricing_plan_id":"cebpf4jnsgd1na2vs0mg"},{"bike_id":"46b25bcd-1b30-4ab1-a048-fe805bc6821a","system_id":"levelo_inurba_marseille","lat":43.25108,"lon":5.40342,"is_reserved":false,"is_disabled":false,"rental_uris":{"android":"levelo://app?vid=46b25bcd-1b30-4ab1-a048-fe805bc6821a","ios":"levelo://app?vid=46b25bcd-1b30-4ab1-a048-fe805bc6821a"},"vehicle_type_id":"4","last_reported":1768272717,"current_range_meters":3200,"station_id":"ce4bhlh2rcd13ifvqgig","pricing_plan_id":"cebpf4jnsgd1na2vs0mg"},{"bike_id":"682a25db-2229-438e-a91a-bd8e0ed43f7f","system_id":"levelo_inurba_marseille","lat":43.30183,"lon":5.37068,"is_reserved":false,"is_disabled":false,"rental_uris":{"android":"levelo://app?vid=682a25db-2229-438e-a91a-bd8e0ed43f7f","ios":"levelo://app?vid=682a25db-2229-438e-a91a-bd8e0ed43f7f"},"vehicle_type_id":"4","last_reported":1768272717,"current_range_meters":3600,"station_id":"","pricing_plan_id":"cebpf4jnsgd1na2vs0mg"},{"bike_id":"f043a1a1-4a69-4186-9666-3af6d6cee7e1","system_id":"levelo_inurba_marseille","lat":43.261864,"lon":5.374587,"is_reserved":false,"is_disabled":true,"rental_uris":{"android":"levelo://app?vid=f043a1a1-4a69-4186-9666-3af6d6cee7e1","ios":"levelo://app?vid=f043a1a1-4a69-4186-9666-3af6d6cee7e1"},"vehicle_type_id":"4","last_reported":1768272717,"current_range_meters":3600,"station_id":"ce4bhgp2rcd13ifvqfc0","pricing_plan_id":"cebpf4jnsgd1na2vs0mg"},{"bike_id":"0b89e391-f907-49b3-821c-11a35132660a","system_id":"levelo_inurba_marseille","lat":43.25332,"lon":5.42174,"is_reserved":false,"is_disabled":false,"rental_uris":{"android":"levelo://app?vid=0b89e391-f907-49b3-821c-11a35132660a","ios":"levelo://app?vid=0b89e391-f907-49b3-821c-11a35132660a"},"vehicle_type_id":"4","last_reported":1768272717,"current_range_meters":3600,"station_id":"st_d2m65c5bi1j21697t3ng","pricing_plan_id":"cebpf4jnsgd1na2vs0mg"},{"bike_id":"dd67a0b3-d5e0-4276-b1a4-1926be74a790","system_id":"levelo_inurba_marseille","lat":43.30014,"lon":5.37637,"is_reserved":false,"is_disabled":false,"rental_uris":{"android":"levelo://app?vid=dd67a0b3-d5e0-4276-b1a4-1926be74a790","ios":"levelo://app?vid=dd67a0b3-d5e0-4276-b1a4-1926be74a790"},"vehicle_type_id":"4","last_reported":1768272717,"current_range_meters":3600,"station_id":"","pricing_plan_id":"cebpf4jnsgd1na2vs0mg"},{"bike_id":"fae57e34-d123-4b5d-b549-b5483c41b8c0","system_id":"levelo_inurba_marseille","lat":43.29135,"lon":5.37678,"is_reserved":false,"is_disabled":false,"rental_uris":{"android":"levelo://app?vid=fae57e34-d123-4b5d-b549-b5483c41b8c0","ios":"levelo://app?vid=fae57e34-d123-4b5d-b549-b5483c41b8c0"},"vehicle_type_id":"4","last_reported":1768272717,"current_range_meters":3600,"station_id":"","pricing_plan_id":"cebpf4jnsgd1na2vs0mg"},{"bike_id":"6139c10e-9938-4122-bd56-3985da1045c8","system_id":"levelo_inurba_marseille","lat":43.2446,"lon":5.42534,"is_reserved":false,"is_disabled":false,"rental_uris":{"android":"levelo://app?vid=6139c10e-9938-4122-bd56-3985da1045c8","ios":"levelo://app?vid=6139c10e-9938-4122-bd56-3985da1045c8"},"vehicle_type_id":"4","last_reported":1768272717,"current_range_meters":3600,"station_id":"st_d4a3vfp97mjs738cd8kg","pricing_plan_id":"cebpf4jnsgd1na2vs0mg"},{"bike_id":"55721f3e-3ed3-405e-9b69-edfadfcd574a","system_id":"levelo_inurba_marseille","lat":43.3088,"lon":5.40159,"is_reserved":false,"is_disabled":false,"rental_uris":{"android":"levelo://app?vid=55721f3e-3ed3-405e-9b69-edfadfcd574a","ios":"levelo://app?vid=55721f3e-3ed3-405e-9b69-edfadfcd574a"},"vehicle_type_id":"4","last_reported":1768272717,"current_range_meters":3600,"station_id":"ce4bgvp2rcd13ifvqct0","pricing_plan_id":"cebpf4jnsgd1na2vs0mg"},{"bike_id":"53d22cba-91d1-42b1-b294-699211397009","system_id":"levelo_inurba_marseille","lat":43.253342,"lon":5.421694,"is_reserved":false,"is_disabled":false,"rental_uris":{"android":"levelo://app?vid=53d22cba-91d1-42b1-b294-699211397009","ios":"levelo://app?vid=53d22cba-91d1-42b1-b294-699211397009"},"vehicle_type_id":"4","last_reported":1768272717,"current_range_meters":3600,"station_id":"st_d2m65c5bi1j21697t3ng","pricing_plan_id":"cebpf4jnsgd1na2vs0mg"},{"bike_id":"d1f6413a-a22a-4d08-995c-bf8ace8ea81c","system_id":"levelo_inurba_marseille","lat":43.28695,"lon":5.37418,"is_reserved":false,"is_disabled":false,"rental_uris":{"android":"levelo://app?vid=d1f6413a-a22a-4d08-995c-bf8ace8ea81c","ios":"levelo://app?vid=d1f6413a-a22a-4d08-995c-bf8ace8ea81c"},"vehicle_type_id":"4","last_reported":1768272717,"current_range_meters":3600,"station_id":"ce4bh3p2rcd13ifvqdq0","pricing_plan_id":"cebpf4jnsgd1na2vs0mg"},{"bike_id":"1da82394-edf2-4a0c-a62d-43072755bbb4","system_id":"levelo_inurba_marseille","lat":43.24671,"lon":5.38138,"is_reserved":false,"is_disabled":false,"rental_uris":{"android":"levelo://app?vid=1da82394-edf2-4a0c-a62d-43072755bbb4","ios":"levelo://app?vid=1da82394-edf2-4a0c-a62d-43072755bbb4"},"vehicle_type_id":"4","last_reported":1768272717,"current_range_meters":3600,"station_id":"ce4bhih2rcd13ifvqfr0","pricing_plan_id":"cebpf4jnsgd1na2vs0mg"},{"bike_id":"8c4e7e32-a39f-4449-88b1-69941cb755fd","system_id":"levelo_inurba_marseille","lat":43.2781,"lon":5.40704,"is_reserved":false,"is_disabled":false,"rental_uris":{"android":"levelo://app?vid=8c4e7e32-a39f-4449-88b1-69941cb755fd","ios":"levelo://app?vid=8c4e7e32-a39f-4449-88b1-69941cb755fd"},"vehicle_type_id":"4","last_reported":1768272717,"current_range_meters":4000,"station_id":"ce4bhnh2rcd13ifvqgtg","pricing_plan_id":"cebpf4jnsgd1na2vs0mg"},{"bike_id":"7c2a7247-1757-4f73-86d7-4e2145cd68ac","system_id":"levelo_inurba_marseille","lat":43.29057,"lon":5.37189,"is_reserved":false,"is_disabled":false,"rental_uris":{"android":"levelo://app?vid=7c2a7247-1757-4f73-86d7-4e2145cd68ac","ios":"levelo://app?vid=7c2a7247-1757-4f73-86d7-4e2145cd68ac"},"vehicle_type_id":"4","last_reported":1768272717,"current_range_meters":4000,"station_id":"ce4bh5p2rcd13ifvqe4g","pricing_plan_id":"cebpf4jnsgd1na2vs0mg"},{"bike_id":"2c79ba8b-e186-4531-bb05-ea95004575af","system_id":"levelo_inurba_marseille","lat":43.30196,"lon":5.38082,"is_reserved":false,"is_disabled":false,"rental_uris":{"android":"levelo://app?vid=2c79ba8b-e186-4531-bb05-ea95004575af","ios":"levelo://app?vid=2c79ba8b-e186-4531-bb05-ea95004575af"},"vehicle_type_id":"4","last_reported":1768272717,"current_range_meters":4000,"station_id":"","pricing_plan_id":"cebpf4jnsgd1na2vs0mg"},{"bike_id":"b0d8414b-9ec4-4d2d-ada4-4b5a508ba76c","system_id":"levelo_inurba_marseille","lat":43.259314,"lon":5.409094,"is_reserved":false,"is_disabled":false,"rental_uris":{"android":"levelo://app?vid=b0d8414b-9ec4-4d2d-ada4-4b5a508ba76c","ios":"levelo://app?vid=b0d8414b-9ec4-4d2d-ada4-4b5a508ba76c"},"vehicle_type_id":"4","last_reported":1768272717,"current_range_meters":4000,"station_id":"ce4bhm92rcd13ifvqglg","pricing_plan_id":"cebpf4jnsgd1na2vs0mg"},{"bike_id":"56f33d1a-63a6-44cd-9b0f-4476e7b7806c","system_id":"levelo_inurba_marseille","lat":43.2405,"lon":5.3778,"is_reserved":false,"is_disabled":false,"rental_uris":{"android":"levelo://app?vid=56f33d1a-63a6-44cd-9b0f-4476e7b7806c","ios":"levelo://app?vid=56f33d1a-63a6-44cd-9b0f-4476e7b7806c"},"vehicle_type_id":"4","last_reported":1768272717,"current_range_meters":4000,"station_id":"ce4bhnp2rcd13ifvqgvg","pricing_plan_id":"cebpf4jnsgd1na2vs0mg"},{"bike_id":"dbad2cff-9661-422b-a29b-69069add4417","system_id":"levelo_inurba_marseille","lat":43.22928,"lon":5.3537,"is_reserved":false,"is_disabled":false,"rental_uris":{"android":"levelo://app?vid=dbad2cff-9661-422b-a29b-69069add4417","ios":"levelo://app?vid=dbad2cff-9661-422b-a29b-69069add4417"},"vehicle_type_id":"4","last_reported":1768272717,"current_range_meters":4000,"station_id":"cpo3532slgdg3j2ikp40","pricing_plan_id":"cebpf4jnsgd1na2vs0mg"},{"bike_id":"8bdcf316-ddb9-4fba-b0cc-f1d452415712","system_id":"levelo_inurba_marseille","lat":43.278223,"lon":5.407141,"is_reserved":false,"is_disabled":false,"rental_uris":{"android":"levelo://app?vid=8bdcf316-ddb9-4fba-b0cc-f1d452415712","ios":"levelo://app?vid=8bdcf316-ddb9-4fba-b0cc-f1d452415712"},"vehicle_type_id":"4","last_reported":1768272717,"current_range_meters":4000,"station_id":"ce4bhnh2rcd13ifvqgtg","pricing_plan_id":"cebpf4jnsgd1na2vs0mg"},{"bike_id":"886f6a48-d8c9-4f03-9c08-fa6700bc8f85","system_id":"levelo_inurba_marseille","lat":43.22938,"lon":5.35372,"is_reserved":false,"is_disabled":false,"rental_uris":{"android":"levelo://app?vid=886f6a48-d8c9-4f03-9c08-fa6700bc8f85","ios":"levelo://app?vid=886f6a48-d8c9-4f03-9c08-fa6700bc8f85"},"vehicle_type_id":"4","last_reported":1768272717,"current_range_meters":4000,"station_id":"cpo3532slgdg3j2ikp40","pricing_plan_id":"cebpf4jnsgd1na2vs0mg"},{"bike_id":"9f2a1fd3-ffc5-4586-95af-377ff8c15230","system_id":"levelo_inurba_marseille","lat":43.24952,"lon":5.40491,"is_reserved":false,"is_disabled":false,"rental_uris":{"android":"levelo://app?vid=9f2a1fd3-ffc5-4586-95af-377ff8c15230","ios":"levelo://app?vid=9f2a1fd3-ffc5-4586-95af-377ff8c15230"},"vehicle_type_id":"4","last_reported":1768272717,"current_range_meters":4000,"station_id":"st_d2ngiaodas8pm72gd1h0","pricing_plan_id":"cebpf4jnsgd1na2vs0mg"},{"bike_id":"6cfafae2-24e3-4bb5-9336-a15339de06af","system_id":"levelo_inurba_marseille","lat":43.23789,"lon":5.36638,"is_reserved":false,"is_disabled":false,"rental_uris":{"android":"levelo://app?vid=6cfafae2-24e3-4bb5-9336-a15339de06af","ios":"levelo://app?vid=6cfafae2-24e3-4bb5-9336-a15339de06af"},"vehicle_type_id":"4","last_reported":1768272717,"current_range_meters":4400,"station_id":"st_d3nk18o9ro0c73en2l3g","pricing_plan_id":"cebpf4jnsgd1na2vs0mg"},{"bike_id":"857213d5-7353-4d98-a3cc-a303673faf43","system_id":"levelo_inurba_marseille","lat":43.25569,"lon":5.38237,"is_reserved":false,"is_disabled":true,"rental_uris":{"android":"levelo://app?vid=857213d5-7353-4d98-a3cc-a303673faf43","ios":"levelo://app?vid=857213d5-7353-4d98-a3cc-a303673faf43"},"vehicle_type_id":"4","last_reported":1768272717,"current_range_meters":4400,"station_id":"ce4bhih2rcd13ifvqfs0","pricing_plan_id":"cebpf4jnsgd1na2vs0mg"},{"bike_id":"a16392da-5207-4df7-9429-2df19a8a41ee","system_id":"levelo_inurba_marseille","lat":43.329547,"lon":5.390797,"is_reserved":false,"is_disabled":false,"rental_uris":{"android":"levelo://app?vid=a16392da-5207-4df7-9429-2df19a8a41ee","ios":"levelo://app?vid=a16392da-5207-4df7-9429-2df19a8a41ee"},"vehicle_type_id":"4","last_reported":1768272717,"current_range_meters":4400,"station_id":"","pricing_plan_id":"cebpf4jnsgd1na2vs0mg"},{"bike_id":"5b74f76c-7655-4a1b-bf0f-ee1d1ac9b692","system_id":"levelo_inurba_marseille","lat":43.3138,"lon":5.36807,"is_reserved":false,"is_disabled":false,"rental_uris":{"android":"levelo://app?vid=5b74f76c-7655-4a1b-bf0f-ee1d1ac9b692","ios":"levelo://app?vid=5b74f76c-7655-4a1b-bf0f-ee1d1ac9b692"},"vehicle_type_id":"4","last_reported":1768272717,"current_range_meters":4400,"station_id":"","pricing_plan_id":"cebpf4jnsgd1na2vs0mg"},{"bike_id":"cf7ff780-5cc1-488c-bf59-2cc02d1f230b","system_id":"levelo_inurba_marseille","lat":43.23793,"lon":5.36629,"is_reserved":false,"is_disabled":false,"rental_uris":{"android":"levelo://app?vid=cf7ff780-5cc1-488c-bf59-2cc02d1f230b","ios":"levelo://app?vid=cf7ff780-5cc1-488c-bf59-2cc02d1f230b"},"vehicle_type_id":"4","last_reported":1768272717,"current_range_meters":4400,"station_id":"st_d3nk18o9ro0c73en2l3g","pricing_plan_id":"cebpf4jnsgd1na2vs0mg"},{"bike_id":"584740bc-b28f-45e7-8c07-3256faa8a0cc","system_id":"levelo_inurba_marseille","lat":43.26206,"lon":5.37921,"is_reserved":false,"is_disabled":true,"rental_uris":{"android":"levelo://app?vid=584740bc-b28f-45e7-8c07-3256faa8a0cc","ios":"levelo://app?vid=584740bc-b28f-45e7-8c07-3256faa8a0cc"},"vehicle_type_id":"4","last_reported":1768272717,"current_range_meters":4400,"station_id":"ce4bhjp2rcd13ifvqg90","pricing_plan_id":"cebpf4jnsgd1na2vs0mg"},{"bike_id":"24f0a2da-aa1b-495a-8bd2-5db4872b3634","system_id":"levelo_inurba_marseille","lat":43.225629,"lon":5.416282,"is_reserved":false,"is_disabled":false,"rental_uris":{"android":"levelo://app?vid=24f0a2da-aa1b-495a-8bd2-5db4872b3634","ios":"levelo://app?vid=24f0a2da-aa1b-495a-8bd2-5db4872b3634"},"vehicle_type_id":"4","last_reported":1768272717,"current_range_meters":4400,"station_id":"st_d2o4gvlbi1j2169b742g","pricing_plan_id":"cebpf4jnsgd1na2vs0mg"},{"bike_id":"da362a2c-f6c4-45fb-8937-7af4b966a6ad","system_id":"levelo_inurba_marseille","lat":43.24653,"lon":5.38217,"is_reserved":false,"is_disabled":false,"rental_uris":{"android":"levelo://app?vid=da362a2c-f6c4-45fb-8937-7af4b966a6ad","ios":"levelo://app?vid=da362a2c-f6c4-45fb-8937-7af4b966a6ad"},"vehicle_type_id":"4","last_reported":1768272717,"current_range_meters":4400,"station_id":"ce4bhih2rcd13ifvqfr0","pricing_plan_id":"cebpf4jnsgd1na2vs0mg"},{"bike_id":"89f9912c-438c-4c1b-82ba-9bf53f14cbe7","system_id":"levelo_inurba_marseille","lat":43.31337,"lon":5.39703,"is_reserved":false,"is_disabled":false,"rental_uris":{"android":"levelo://app?vid=89f9912c-438c-4c1b-82ba-9bf53f14cbe7","ios":"levelo://app?vid=89f9912c-438c-4c1b-82ba-9bf53f14cbe7"},"vehicle_type_id":"4","last_reported":1768272717,"current_range_meters":4400,"station_id":"ce4bgvp2rcd13ifvqcu0","pricing_plan_id":"cebpf4jnsgd1na2vs0mg"},{"bike_id":"2e02cc71-3e50-4a35-806f-7e9a5398a999","system_id":"levelo_inurba_marseille","lat":43.29223,"lon":5.3628,"is_reserved":false,"is_disabled":true,"rental_uris":{"android":"levelo://app?vid=2e02cc71-3e50-4a35-806f-7e9a5398a999","ios":"levelo://app?vid=2e02cc71-3e50-4a35-806f-7e9a5398a999"},"vehicle_type_id":"4","last_reported":1768272717,"current_range_meters":4800,"station_id":"","pricing_plan_id":"cebpf4jnsgd1na2vs0mg"},{"bike_id":"35254f06-efb2-4d00-b949-89c11838f9ec","system_id":"levelo_inurba_marseille","lat":43.23197,"lon":5.35566,"is_reserved":false,"is_disabled":false,"rental_uris":{"android":"levelo://app?vid=35254f06-efb2-4d00-b949-89c11838f9ec","ios":"levelo://app?vid=35254f06-efb2-4d00-b949-89c11838f9ec"},"vehicle_type_id":"4","last_reported":1768272717,"current_range_meters":4800,"station_id":"ce4bhu92rcd13ifvqi70","pricing_plan_id":"cebpf4jnsgd1na2vs0mg"},{"bike_id":"18959285-a787-476c-a26f-440113181d13","system_id":"levelo_inurba_marseille","lat":43.28477,"lon":5.38395,"is_reserved":false,"is_disabled":true,"rental_uris":{"android":"levelo://app?vid=18959285-a787-476c-a26f-440113181d13","ios":"levelo://app?vid=18959285-a787-476c-a26f-440113181d13"},"vehicle_type_id":"4","last_reported":1768272717,"current_range_meters":4800,"station_id":"ce4bh512rcd13ifvqe3g","pricing_plan_id":"cebpf4jnsgd1na2vs0mg"},{"bike_id":"a10cebfe-81dc-4dff-bad4-c25d976b2067","system_id":"levelo_inurba_marseille","lat":43.284101,"lon":5.349982,"is_reserved":false,"is_disabled":false,"rental_uris":{"android":"levelo://app?vid=a10cebfe-81dc-4dff-bad4-c25d976b2067","ios":"levelo://app?vid=a10cebfe-81dc-4dff-bad4-c25d976b2067"},"vehicle_type_id":"4","last_reported":1768272717,"current_range_meters":4800,"station_id":"ce4bhbh2rcd13ifvqepg","pricing_plan_id":"cebpf4jnsgd1na2vs0mg"},{"bike_id":"63a8ad53-0407-4bea-a09c-eee796fd0c2b","system_id":"levelo_inurba_marseille","lat":43.27828,"lon":5.40703,"is_reserved":false,"is_disabled":false,"rental_uris":{"android":"levelo://app?vid=63a8ad53-0407-4bea-a09c-eee796fd0c2b","ios":"levelo://app?vid=63a8ad53-0407-4bea-a09c-eee796fd0c2b"},"vehicle_type_id":"4","last_reported":1768272717,"current_range_meters":4800,"station_id":"ce4bhnh2rcd13ifvqgtg","pricing_plan_id":"cebpf4jnsgd1na2vs0mg"},{"bike_id":"2587eba2-f80d-4b3a-88e3-bb85d27a199d","system_id":"levelo_inurba_marseille","lat":43.22556,"lon":5.41639,"is_reserved":false,"is_disabled":false,"rental_uris":{"android":"levelo://app?vid=2587eba2-f80d-4b3a-88e3-bb85d27a199d","ios":"levelo://app?vid=2587eba2-f80d-4b3a-88e3-bb85d27a199d"},"vehicle_type_id":"4","last_reported":1768272717,"current_range_meters":4800,"station_id":"st_d2o4gvlbi1j2169b742g","pricing_plan_id":"cebpf4jnsgd1na2vs0mg"},{"bike_id":"cddcf2c2-04b5-4843-b385-219618c4a20f","system_id":"levelo_inurba_marseille","lat":43.28608,"lon":5.35108,"is_reserved":false,"is_disabled":false,"rental_uris":{"android":"levelo://app?vid=cddcf2c2-04b5-4843-b385-219618c4a20f","ios":"levelo://app?vid=cddcf2c2-04b5-4843-b385-219618c4a20f"},"vehicle_type_id":"4","last_reported":1768272717,"current_range_meters":4800,"station_id":"ce4bhch2rcd13ifvqeug","pricing_plan_id":"cebpf4jnsgd1na2vs0mg"},{"bike_id":"bce5bef6-66c0-48f9-9494-83e46be9a229","system_id":"levelo_inurba_marseille","lat":43.32365,"lon":5.36732,"is_reserved":false,"is_disabled":false,"rental_uris":{"android":"levelo://app?vid=bce5bef6-66c0-48f9-9494-83e46be9a229","ios":"levelo://app?vid=bce5bef6-66c0-48f9-9494-83e46be9a229"},"vehicle_type_id":"4","last_reported":1768272717,"current_range_meters":4800,"station_id":"ce4bhsh2rcd13ifvqi2g","pricing_plan_id":"cebpf4jnsgd1na2vs0mg"},{"bike_id":"f6dd8e80-5d58-4dd7-b7ed-7c52e4ac4267","system_id":"levelo_inurba_marseille","lat":43.27923,"lon":5.39576,"is_reserved":false,"is_disabled":false,"rental_uris":{"android":"levelo://app?vid=f6dd8e80-5d58-4dd7-b7ed-7c52e4ac4267","ios":"levelo://app?vid=f6dd8e80-5d58-4dd7-b7ed-7c52e4ac4267"},"vehicle_type_id":"4","last_reported":1768272717,"current_range_meters":4800,"station_id":"ce4bhf92rcd13ifvqf40","pricing_plan_id":"cebpf4jnsgd1na2vs0mg"},{"bike_id":"b81a771e-796c-40e5-98d5-2c3857393d80","system_id":"levelo_inurba_marseille","lat":43.28476,"lon":5.48398,"is_reserved":false,"is_disabled":false,"rental_uris":{"android":"levelo://app?vid=b81a771e-796c-40e5-98d5-2c3857393d80","ios":"levelo://app?vid=b81a771e-796c-40e5-98d5-2c3857393d80"},"vehicle_type_id":"4","last_reported":1768272717,"current_range_meters":4800,"station_id":"st_d3svhcjqgbts73a3dn0g","pricing_plan_id":"cebpf4jnsgd1na2vs0mg"},{"bike_id":"8685ba34-cb7d-4eb4-a401-a6d947bbdb57","system_id":"levelo_inurba_marseille","lat":43.24449,"lon":5.42526,"is_reserved":false,"is_disabled":false,"rental_uris":{"android":"levelo://app?vid=8685ba34-cb7d-4eb4-a401-a6d947bbdb57","ios":"levelo://app?vid=8685ba34-cb7d-4eb4-a401-a6d947bbdb57"},"vehicle_type_id":"4","last_reported":1768272717,"current_range_meters":4800,"station_id":"st_d4a3vfp97mjs738cd8kg","pricing_plan_id":"cebpf4jnsgd1na2vs0mg"},{"bike_id":"8f9c5fef-eb25-471f-abc7-43f55327e6a6","system_id":"levelo_inurba_marseille","lat":43.27788,"lon":5.40697,"is_reserved":false,"is_disabled":false,"rental_uris":{"android":"levelo://app?vid=8f9c5fef-eb25-471f-abc7-43f55327e6a6","ios":"levelo://app?vid=8f9c5fef-eb25-471f-abc7-43f55327e6a6"},"vehicle_type_id":"4","last_reported":1768272717,"current_range_meters":5600,"station_id":"ce4bhnh2rcd13ifvqgtg","pricing_plan_id":"cebpf4jnsgd1na2vs0mg"},{"bike_id":"a7f3381d-b96a-4907-8886-7a2032e17419","system_id":"levelo_inurba_marseille","lat":43.30736,"lon":5.42434,"is_reserved":false,"is_disabled":false,"rental_uris":{"android":"levelo://app?vid=a7f3381d-b96a-4907-8886-7a2032e17419","ios":"levelo://app?vid=a7f3381d-b96a-4907-8886-7a2032e17419"},"vehicle_type_id":"4","last_reported":1768272717,"current_range_meters":5600,"station_id":"st_cvj6ca6bvosntc0bfgr0","pricing_plan_id":"cebpf4jnsgd1na2vs0mg"},{"bike_id":"21f594df-8489-4ed1-9833-71f4d7d5f3e6","system_id":"levelo_inurba_marseille","lat":43.27605,"lon":5.36118,"is_reserved":false,"is_disabled":false,"rental_uris":{"android":"levelo://app?vid=21f594df-8489-4ed1-9833-71f4d7d5f3e6","ios":"levelo://app?vid=21f594df-8489-4ed1-9833-71f4d7d5f3e6"},"vehicle_type_id":"4","last_reported":1768272717,"current_range_meters":5600,"station_id":"ce4bgj92rcd13ifvqbe0","pricing_plan_id":"cebpf4jnsgd1na2vs0mg"},{"bike_id":"4566aab9-f7d5-4a51-be0a-13a330b78888","system_id":"levelo_inurba_marseille","lat":43.337444,"lon":5.374475,"is_reserved":false,"is_disabled":false,"rental_uris":{"android":"levelo://app?vid=4566aab9-f7d5-4a51-be0a-13a330b78888","ios":"levelo://app?vid=4566aab9-f7d5-4a51-be0a-13a330b78888"},"vehicle_type_id":"4","last_reported":1768272717,"current_range_meters":5600,"station_id":"ce4bhph2rcd13ifvqhdg","pricing_plan_id":"cebpf4jnsgd1na2vs0mg"},{"bike_id":"b0efd0f2-bc5c-4dff-bc29-9743c461b4d7","system_id":"levelo_inurba_marseille","lat":43.24063,"lon":5.37739,"is_reserved":false,"is_disabled":false,"rental_uris":{"android":"levelo://app?vid=b0efd0f2-bc5c-4dff-bc29-9743c461b4d7","ios":"levelo://app?vid=b0efd0f2-bc5c-4dff-bc29-9743c461b4d7"},"vehicle_type_id":"4","last_reported":1768272717,"current_range_meters":5600,"station_id":"ce4bhnp2rcd13ifvqgvg","pricing_plan_id":"cebpf4jnsgd1na2vs0mg"},{"bike_id":"38d076d2-a3a0-46d0-b800-0eaafad476d4","system_id":"levelo_inurba_marseille","lat":43.2821,"lon":5.40373,"is_reserved":false,"is_disabled":false,"rental_uris":{"android":"levelo://app?vid=38d076d2-a3a0-46d0-b800-0eaafad476d4","ios":"levelo://app?vid=38d076d2-a3a0-46d0-b800-0eaafad476d4"},"vehicle_type_id":"4","last_reported":1768272717,"current_range_meters":5600,"station_id":"","pricing_plan_id":"cebpf4jnsgd1na2vs0mg"},{"bike_id":"95d1a547-8b14-44f2-9976-03f9cf0f6b77","system_id":"levelo_inurba_marseille","lat":43.26062,"lon":5.39409,"is_reserved":false,"is_disabled":false,"rental_uris":{"android":"levelo://app?vid=95d1a547-8b14-44f2-9976-03f9cf0f6b77","ios":"levelo://app?vid=95d1a547-8b14-44f2-9976-03f9cf0f6b77"},"vehicle_type_id":"4","last_reported":1768272717,"current_range_meters":5600,"station_id":"ce4bhh92rcd13ifvqfj0","pricing_plan_id":"cebpf4jnsgd1na2vs0mg"},{"bike_id":"60b2799b-61f3-403e-9a44-fb6b08646c57","system_id":"levelo_inurba_marseille","lat":43.27808,"lon":5.40697,"is_reserved":false,"is_disabled":false,"rental_uris":{"android":"levelo://app?vid=60b2799b-61f3-403e-9a44-fb6b08646c57","ios":"levelo://app?vid=60b2799b-61f3-403e-9a44-fb6b08646c57"},"vehicle_type_id":"4","last_reported":1768272717,"current_range_meters":5600,"station_id":"ce4bhnh2rcd13ifvqgtg","pricing_plan_id":"cebpf4jnsgd1na2vs0mg"},{"bike_id":"f2f6879c-c6f8-4aad-a64c-976ab5b32f9c","system_id":"levelo_inurba_marseille","lat":43.24083,"lon":5.37739,"is_reserved":false,"is_disabled":false,"rental_uris":{"android":"levelo://app?vid=f2f6879c-c6f8-4aad-a64c-976ab5b32f9c","ios":"levelo://app?vid=f2f6879c-c6f8-4aad-a64c-976ab5b32f9c"},"vehicle_type_id":"4","last_reported":1768272717,"current_range_meters":5600,"station_id":"ce4bhnp2rcd13ifvqgvg","pricing_plan_id":"cebpf4jnsgd1na2vs0mg"},{"bike_id":"482817d6-1c7c-49cd-bf1a-a824b589e285","system_id":"levelo_inurba_marseille","lat":43.27828,"lon":5.39219,"is_reserved":false,"is_disabled":false,"rental_uris":{"android":"levelo://app?vid=482817d6-1c7c-49cd-bf1a-a824b589e285","ios":"levelo://app?vid=482817d6-1c7c-49cd-bf1a-a824b589e285"},"vehicle_type_id":"4","last_reported":1768272717,"current_range_meters":5600,"station_id":"ce4bhjp2rcd13ifvqga0","pricing_plan_id":"cebpf4jnsgd1na2vs0mg"},{"bike_id":"8049ab61-e378-4478-bef4-ac0f529d7d1a","system_id":"levelo_inurba_marseille","lat":43.23188,"lon":5.35558,"is_reserved":false,"is_disabled":false,"rental_uris":{"android":"levelo://app?vid=8049ab61-e378-4478-bef4-ac0f529d7d1a","ios":"levelo://app?vid=8049ab61-e378-4478-bef4-ac0f529d7d1a"},"vehicle_type_id":"4","last_reported":1768272717,"current_range_meters":5600,"station_id":"ce4bhu92rcd13ifvqi70","pricing_plan_id":"cebpf4jnsgd1na2vs0mg"},{"bike_id":"824e0100-c6fc-4a0d-bafe-328ab4a682ff","system_id":"levelo_inurba_marseille","lat":43.32342,"lon":5.36756,"is_reserved":false,"is_disabled":false,"rental_uris":{"android":"levelo://app?vid=824e0100-c6fc-4a0d-bafe-328ab4a682ff","ios":"levelo://app?vid=824e0100-c6fc-4a0d-bafe-328ab4a682ff"},"vehicle_type_id":"4","last_reported":1768272717,"current_range_meters":5600,"station_id":"ce4bhsh2rcd13ifvqi2g","pricing_plan_id":"cebpf4jnsgd1na2vs0mg"},{"bike_id":"d4c76a3c-be64-4255-845b-8ccc9f87b7d9","system_id":"levelo_inurba_marseille","lat":43.29991,"lon":5.37372,"is_reserved":false,"is_disabled":false,"rental_uris":{"android":"levelo://app?vid=d4c76a3c-be64-4255-845b-8ccc9f87b7d9","ios":"levelo://app?vid=d4c76a3c-be64-4255-845b-8ccc9f87b7d9"},"vehicle_type_id":"4","last_reported":1768272717,"current_range_meters":5600,"station_id":"","pricing_plan_id":"cebpf4jnsgd1na2vs0mg"},{"bike_id":"cd0221e4-8d5e-4481-a072-4408c503f646","system_id":"levelo_inurba_marseille","lat":43.27995,"lon":5.41669,"is_reserved":false,"is_disabled":false,"rental_uris":{"android":"levelo://app?vid=cd0221e4-8d5e-4481-a072-4408c503f646","ios":"levelo://app?vid=cd0221e4-8d5e-4481-a072-4408c503f646"},"vehicle_type_id":"4","last_reported":1768272717,"current_range_meters":5600,"station_id":"ce4bho12rcd13ifvqh1g","pricing_plan_id":"cebpf4jnsgd1na2vs0mg"},{"bike_id":"3e9f6f76-2cc1-4a8f-893d-69062c076f77","system_id":"levelo_inurba_marseille","lat":43.30477,"lon":5.39029,"is_reserved":false,"is_disabled":false,"rental_uris":{"android":"levelo://app?vid=3e9f6f76-2cc1-4a8f-893d-69062c076f77","ios":"levelo://app?vid=3e9f6f76-2cc1-4a8f-893d-69062c076f77"},"vehicle_type_id":"4","last_reported":1768272717,"current_range_meters":5600,"station_id":"","pricing_plan_id":"cebpf4jnsgd1na2vs0mg"},{"bike_id":"48e0d58e-bd7e-4b90-92d4-898fdf7abd39","system_id":"levelo_inurba_marseille","lat":43.30848,"lon":5.40603,"is_reserved":false,"is_disabled":false,"rental_uris":{"android":"levelo://app?vid=48e0d58e-bd7e-4b90-92d4-898fdf7abd39","ios":"levelo://app?vid=48e0d58e-bd7e-4b90-92d4-898fdf7abd39"},"vehicle_type_id":"4","last_reported":1768272717,"current_range_meters":6000,"station_id":"","pricing_plan_id":"cebpf4jnsgd1na2vs0mg"},{"bike_id":"7b6f12be-65ff-469f-954c-5bc823eb23e6","system_id":"levelo_inurba_marseille","lat":43.3252,"lon":5.36445,"is_reserved":false,"is_disabled":false,"rental_uris":{"android":"levelo://app?vid=7b6f12be-65ff-469f-954c-5bc823eb23e6","ios":"levelo://app?vid=7b6f12be-65ff-469f-954c-5bc823eb23e6"},"vehicle_type_id":"4","last_reported":1768272717,"current_range_meters":6000,"station_id":"","pricing_plan_id":"cebpf4jnsgd1na2vs0mg"},{"bike_id":"a0750e8b-6f08-4dec-ad7b-75931873cace","system_id":"levelo_inurba_marseille","lat":43.30158,"lon":5.37419,"is_reserved":false,"is_disabled":false,"rental_uris":{"android":"levelo://app?vid=a0750e8b-6f08-4dec-ad7b-75931873cace","ios":"levelo://app?vid=a0750e8b-6f08-4dec-ad7b-75931873cace"},"vehicle_type_id":"4","last_reported":1768272717,"current_range_meters":6000,"station_id":"ce4bgs92rcd13ifvqcc0","pricing_plan_id":"cebpf4jnsgd1na2vs0mg"},{"bike_id":"d84786fe-606f-4cea-8819-113abea8f013","system_id":"levelo_inurba_marseille","lat":43.28868,"lon":5.42512,"is_reserved":false,"is_disabled":false,"rental_uris":{"android":"levelo://app?vid=d84786fe-606f-4cea-8819-113abea8f013","ios":"levelo://app?vid=d84786fe-606f-4cea-8819-113abea8f013"},"vehicle_type_id":"4","last_reported":1768272717,"current_range_meters":6000,"station_id":"st_d3b462108ojc7389ooeg","pricing_plan_id":"cebpf4jnsgd1na2vs0mg"},{"bike_id":"a3b66a73-aef3-42a6-bf24-ef2935218f23","system_id":"levelo_inurba_marseille","lat":43.32356,"lon":5.36776,"is_reserved":false,"is_disabled":false,"rental_uris":{"android":"levelo://app?vid=a3b66a73-aef3-42a6-bf24-ef2935218f23","ios":"levelo://app?vid=a3b66a73-aef3-42a6-bf24-ef2935218f23"},"vehicle_type_id":"4","last_reported":1768272717,"current_range_meters":6000,"station_id":"ce4bhsh2rcd13ifvqi2g","pricing_plan_id":"cebpf4jnsgd1na2vs0mg"},{"bike_id":"c211c6f8-49bd-4417-9066-24ae90884977","system_id":"levelo_inurba_marseille","lat":43.298459,"lon":5.362913,"is_reserved":false,"is_disabled":false,"rental_uris":{"android":"levelo://app?vid=c211c6f8-49bd-4417-9066-24ae90884977","ios":"levelo://app?vid=c211c6f8-49bd-4417-9066-24ae90884977"},"vehicle_type_id":"4","last_reported":1768272717,"current_range_meters":6000,"station_id":"ce4bgpp2rcd13ifvqc3g","pricing_plan_id":"cebpf4jnsgd1na2vs0mg"},{"bike_id":"90dfc0c4-0044-4337-8331-b045fdb00361","system_id":"levelo_inurba_marseille","lat":43.33149,"lon":5.3768,"is_reserved":false,"is_disabled":false,"rental_uris":{"android":"levelo://app?vid=90dfc0c4-0044-4337-8331-b045fdb00361","ios":"levelo://app?vid=90dfc0c4-0044-4337-8331-b045fdb00361"},"vehicle_type_id":"4","last_reported":1768272717,"current_range_meters":6000,"station_id":"st_d46cu089ee8s73dldbu0","pricing_plan_id":"cebpf4jnsgd1na2vs0mg"},{"bike_id":"f2105464-0910-4b23-927b-e71ae0adf2b7","system_id":"levelo_inurba_marseille","lat":43.25722,"lon":5.41129,"is_reserved":false,"is_disabled":false,"rental_uris":{"android":"levelo://app?vid=f2105464-0910-4b23-927b-e71ae0adf2b7","ios":"levelo://app?vid=f2105464-0910-4b23-927b-e71ae0adf2b7"},"vehicle_type_id":"4","last_reported":1768272717,"current_range_meters":6000,"station_id":"ce4bhkp2rcd13ifvqgd0","pricing_plan_id":"cebpf4jnsgd1na2vs0mg"},{"bike_id":"6bbdef40-24c9-4b57-8712-a56ee58237c1","system_id":"levelo_inurba_marseille","lat":43.28705,"lon":5.37934,"is_reserved":false,"is_disabled":false,"rental_uris":{"android":"levelo://app?vid=6bbdef40-24c9-4b57-8712-a56ee58237c1","ios":"levelo://app?vid=6bbdef40-24c9-4b57-8712-a56ee58237c1"},"vehicle_type_id":"4","last_reported":1768272717,"current_range_meters":6000,"station_id":"ce4bh9p2rcd13ifvqec0","pricing_plan_id":"cebpf4jnsgd1na2vs0mg"},{"bike_id":"f984a5c8-b4f0-4ca0-8b12-faccee1f74d4","system_id":"levelo_inurba_marseille","lat":43.24808,"lon":5.37468,"is_reserved":false,"is_disabled":false,"rental_uris":{"android":"levelo://app?vid=f984a5c8-b4f0-4ca0-8b12-faccee1f74d4","ios":"levelo://app?vid=f984a5c8-b4f0-4ca0-8b12-faccee1f74d4"},"vehicle_type_id":"4","last_reported":1768272717,"current_range_meters":6000,"station_id":"ce4bhgh2rcd13ifvqfb0","pricing_plan_id":"cebpf4jnsgd1na2vs0mg"},{"bike_id":"6bba4daf-89fe-4d85-b2d6-e7c59d10d0f9","system_id":"levelo_inurba_marseille","lat":43.30111,"lon":5.39071,"is_reserved":false,"is_disabled":false,"rental_uris":{"android":"levelo://app?vid=6bba4daf-89fe-4d85-b2d6-e7c59d10d0f9","ios":"levelo://app?vid=6bba4daf-89fe-4d85-b2d6-e7c59d10d0f9"},"vehicle_type_id":"4","last_reported":1768272717,"current_range_meters":6000,"station_id":"ce4bh192rcd13ifvqdb0","pricing_plan_id":"cebpf4jnsgd1na2vs0mg"},{"bike_id":"d1d7ed20-2fc0-4bb0-b335-bddc0f061a5f","system_id":"levelo_inurba_marseille","lat":43.31043,"lon":5.37166,"is_reserved":false,"is_disabled":false,"rental_uris":{"android":"levelo://app?vid=d1d7ed20-2fc0-4bb0-b335-bddc0f061a5f","ios":"levelo://app?vid=d1d7ed20-2fc0-4bb0-b335-bddc0f061a5f"},"vehicle_type_id":"4","last_reported":1768272717,"current_range_meters":6000,"station_id":"st_d4kl2rp97mjs73e7tdfg","pricing_plan_id":"cebpf4jnsgd1na2vs0mg"},{"bike_id":"952412d5-8359-4eb6-9ee8-294a4128a280","system_id":"levelo_inurba_marseille","lat":43.29277,"lon":5.37334,"is_reserved":false,"is_disabled":false,"rental_uris":{"android":"levelo://app?vid=952412d5-8359-4eb6-9ee8-294a4128a280","ios":"levelo://app?vid=952412d5-8359-4eb6-9ee8-294a4128a280"},"vehicle_type_id":"4","last_reported":1768272717,"current_range_meters":6000,"station_id":"","pricing_plan_id":"cebpf4jnsgd1na2vs0mg"},{"bike_id":"b539daf2-0256-4f12-80ca-4ee66e0fd92e","system_id":"levelo_inurba_marseille","lat":43.24948,"lon":5.40497,"is_reserved":false,"is_disabled":false,"rental_uris":{"android":"levelo://app?vid=b539daf2-0256-4f12-80ca-4ee66e0fd92e","ios":"levelo://app?vid=b539daf2-0256-4f12-80ca-4ee66e0fd92e"},"vehicle_type_id":"4","last_reported":1768272717,"current_range_meters":6000,"station_id":"st_d2ngiaodas8pm72gd1h0","pricing_plan_id":"cebpf4jnsgd1na2vs0mg"},{"bike_id":"a220aa57-9942-4e78-8e5c-ca8bbd2226fa","system_id":"levelo_inurba_marseille","lat":43.30932,"lon":5.4015,"is_reserved":false,"is_disabled":false,"rental_uris":{"android":"levelo://app?vid=a220aa57-9942-4e78-8e5c-ca8bbd2226fa","ios":"levelo://app?vid=a220aa57-9942-4e78-8e5c-ca8bbd2226fa"},"vehicle_type_id":"4","last_reported":1768272717,"current_range_meters":6000,"station_id":"ce4bgvp2rcd13ifvqct0","pricing_plan_id":"cebpf4jnsgd1na2vs0mg"},{"bike_id":"df269709-d44c-4576-84d8-e2021718e52e","system_id":"levelo_inurba_marseille","lat":43.27937,"lon":5.41059,"is_reserved":false,"is_disabled":false,"rental_uris":{"android":"levelo://app?vid=df269709-d44c-4576-84d8-e2021718e52e","ios":"levelo://app?vid=df269709-d44c-4576-84d8-e2021718e52e"},"vehicle_type_id":"4","last_reported":1768272717,"current_range_meters":6000,"station_id":"ce4bhnp2rcd13ifvqh0g","pricing_plan_id":"cebpf4jnsgd1na2vs0mg"},{"bike_id":"7d685810-6742-41f8-be5c-e1978be9f1f0","system_id":"levelo_inurba_marseille","lat":43.298458,"lon":5.362769,"is_reserved":false,"is_disabled":false,"rental_uris":{"android":"levelo://app?vid=7d685810-6742-41f8-be5c-e1978be9f1f0","ios":"levelo://app?vid=7d685810-6742-41f8-be5c-e1978be9f1f0"},"vehicle_type_id":"4","last_reported":1768272717,"current_range_meters":6400,"station_id":"ce4bgpp2rcd13ifvqc3g","pricing_plan_id":"cebpf4jnsgd1na2vs0mg"},{"bike_id":"a38bcbb1-c226-4bc2-8672-2e7d0273da8d","system_id":"levelo_inurba_marseille","lat":43.32345,"lon":5.36745,"is_reserved":false,"is_disabled":false,"rental_uris":{"android":"levelo://app?vid=a38bcbb1-c226-4bc2-8672-2e7d0273da8d","ios":"levelo://app?vid=a38bcbb1-c226-4bc2-8672-2e7d0273da8d"},"vehicle_type_id":"4","last_reported":1768272717,"current_range_meters":6400,"station_id":"ce4bhsh2rcd13ifvqi2g","pricing_plan_id":"cebpf4jnsgd1na2vs0mg"},{"bike_id":"c5cacf13-0b9c-41b5-94a2-55e05bf702f3","system_id":"levelo_inurba_marseille","lat":43.29726,"lon":5.37854,"is_reserved":false,"is_disabled":false,"rental_uris":{"android":"levelo://app?vid=c5cacf13-0b9c-41b5-94a2-55e05bf702f3","ios":"levelo://app?vid=c5cacf13-0b9c-41b5-94a2-55e05bf702f3"},"vehicle_type_id":"4","last_reported":1768272717,"current_range_meters":6400,"station_id":"","pricing_plan_id":"cebpf4jnsgd1na2vs0mg"},{"bike_id":"bad9d05b-2efd-4707-af1a-d48b0eeaba21","system_id":"levelo_inurba_marseille","lat":43.24462,"lon":5.42546,"is_reserved":false,"is_disabled":false,"rental_uris":{"android":"levelo://app?vid=bad9d05b-2efd-4707-af1a-d48b0eeaba21","ios":"levelo://app?vid=bad9d05b-2efd-4707-af1a-d48b0eeaba21"},"vehicle_type_id":"4","last_reported":1768272717,"current_range_meters":6400,"station_id":"st_d4a3vfp97mjs738cd8kg","pricing_plan_id":"cebpf4jnsgd1na2vs0mg"},{"bike_id":"8a8b0f0c-0d15-4719-980a-dbef53ae178d","system_id":"levelo_inurba_marseille","lat":43.30322,"lon":5.40422,"is_reserved":false,"is_disabled":false,"rental_uris":{"android":"levelo://app?vid=8a8b0f0c-0d15-4719-980a-dbef53ae178d","ios":"levelo://app?vid=8a8b0f0c-0d15-4719-980a-dbef53ae178d"},"vehicle_type_id":"4","last_reported":1768272717,"current_range_meters":6400,"station_id":"ce4bh012rcd13ifvqd10","pricing_plan_id":"cebpf4jnsgd1na2vs0mg"},{"bike_id":"a31d6591-3529-45da-8bf0-fbc0c47174bd","system_id":"levelo_inurba_marseille","lat":43.28613,"lon":5.35121,"is_reserved":false,"is_disabled":false,"rental_uris":{"android":"levelo://app?vid=a31d6591-3529-45da-8bf0-fbc0c47174bd","ios":"levelo://app?vid=a31d6591-3529-45da-8bf0-fbc0c47174bd"},"vehicle_type_id":"4","last_reported":1768272717,"current_range_meters":6400,"station_id":"ce4bhch2rcd13ifvqeug","pricing_plan_id":"cebpf4jnsgd1na2vs0mg"},{"bike_id":"7fb0d18d-87f0-4490-ac9a-259338a041dc","system_id":"levelo_inurba_marseille","lat":43.23527,"lon":5.35946,"is_reserved":false,"is_disabled":false,"rental_uris":{"android":"levelo://app?vid=7fb0d18d-87f0-4490-ac9a-259338a041dc","ios":"levelo://app?vid=7fb0d18d-87f0-4490-ac9a-259338a041dc"},"vehicle_type_id":"4","last_reported":1768272717,"current_range_meters":6400,"station_id":"","pricing_plan_id":"cebpf4jnsgd1na2vs0mg"},{"bike_id":"f2feb58b-2e1d-410d-a362-6a4d0a6ad00a","system_id":"levelo_inurba_marseille","lat":43.26938,"lon":5.40229,"is_reserved":false,"is_disabled":false,"rental_uris":{"android":"levelo://app?vid=f2feb58b-2e1d-410d-a362-6a4d0a6ad00a","ios":"levelo://app?vid=f2feb58b-2e1d-410d-a362-6a4d0a6ad00a"},"vehicle_type_id":"4","last_reported":1768272717,"current_range_meters":6400,"station_id":"cjm6bp8fraef2m0cb0m0","pricing_plan_id":"cebpf4jnsgd1na2vs0mg"},{"bike_id":"2455333c-abb5-40b2-83d1-6df58226f70a","system_id":"levelo_inurba_marseille","lat":43.32905,"lon":5.38938,"is_reserved":false,"is_disabled":false,"rental_uris":{"android":"levelo://app?vid=2455333c-abb5-40b2-83d1-6df58226f70a","ios":"levelo://app?vid=2455333c-abb5-40b2-83d1-6df58226f70a"},"vehicle_type_id":"4","last_reported":1768272717,"current_range_meters":6400,"station_id":"","pricing_plan_id":"cebpf4jnsgd1na2vs0mg"},{"bike_id":"fd5c22af-551e-4b5c-a587-8bd6f93a7d5e","system_id":"levelo_inurba_marseille","lat":43.27945,"lon":5.41031,"is_reserved":false,"is_disabled":false,"rental_uris":{"android":"levelo://app?vid=fd5c22af-551e-4b5c-a587-8bd6f93a7d5e","ios":"levelo://app?vid=fd5c22af-551e-4b5c-a587-8bd6f93a7d5e"},"vehicle_type_id":"4","last_reported":1768272717,"current_range_meters":6400,"station_id":"","pricing_plan_id":"cebpf4jnsgd1na2vs0mg"},{"bike_id":"1bc4dd22-8b42-4ae1-b96e-ede97fc223cf","system_id":"levelo_inurba_marseille","lat":43.29898,"lon":5.37797,"is_reserved":false,"is_disabled":false,"rental_uris":{"android":"levelo://app?vid=1bc4dd22-8b42-4ae1-b96e-ede97fc223cf","ios":"levelo://app?vid=1bc4dd22-8b42-4ae1-b96e-ede97fc223cf"},"vehicle_type_id":"4","last_reported":1768272717,"current_range_meters":6400,"station_id":"","pricing_plan_id":"cebpf4jnsgd1na2vs0mg"},{"bike_id":"62a6a880-8c2f-4973-954e-dca5b666173d","system_id":"levelo_inurba_marseille","lat":43.29964,"lon":5.37373,"is_reserved":false,"is_disabled":false,"rental_uris":{"android":"levelo://app?vid=62a6a880-8c2f-4973-954e-dca5b666173d","ios":"levelo://app?vid=62a6a880-8c2f-4973-954e-dca5b666173d"},"vehicle_type_id":"4","last_reported":1768272717,"current_range_meters":6400,"station_id":"","pricing_plan_id":"cebpf4jnsgd1na2vs0mg"},{"bike_id":"7a440519-e672-4871-ad93-60c2cc143e76","system_id":"levelo_inurba_marseille","lat":43.28571,"lon":5.39511,"is_reserved":false,"is_disabled":false,"rental_uris":{"android":"levelo://app?vid=7a440519-e672-4871-ad93-60c2cc143e76","ios":"levelo://app?vid=7a440519-e672-4871-ad93-60c2cc143e76"},"vehicle_type_id":"4","last_reported":1768272717,"current_range_meters":6400,"station_id":"ce4bh292rcd13ifvqdg0","pricing_plan_id":"cebpf4jnsgd1na2vs0mg"},{"bike_id":"8778a270-debd-4124-975b-32917c0cd81c","system_id":"levelo_inurba_marseille","lat":43.30817,"lon":5.3814,"is_reserved":false,"is_disabled":false,"rental_uris":{"android":"levelo://app?vid=8778a270-debd-4124-975b-32917c0cd81c","ios":"levelo://app?vid=8778a270-debd-4124-975b-32917c0cd81c"},"vehicle_type_id":"4","last_reported":1768272717,"current_range_meters":6400,"station_id":"ce4bgt12rcd13ifvqce0","pricing_plan_id":"cebpf4jnsgd1na2vs0mg"},{"bike_id":"4202e215-6f29-4f58-ace8-2e6289f05e81","system_id":"levelo_inurba_marseille","lat":43.23948,"lon":5.3663,"is_reserved":false,"is_disabled":false,"rental_uris":{"android":"levelo://app?vid=4202e215-6f29-4f58-ace8-2e6289f05e81","ios":"levelo://app?vid=4202e215-6f29-4f58-ace8-2e6289f05e81"},"vehicle_type_id":"4","last_reported":1768272717,"current_range_meters":6400,"station_id":"ce4bhi12rcd13ifvqfp0","pricing_plan_id":"cebpf4jnsgd1na2vs0mg"},{"bike_id":"bb872cf3-111a-4da5-8326-64266a28cac2","system_id":"levelo_inurba_marseille","lat":43.26073,"lon":5.39398,"is_reserved":false,"is_disabled":false,"rental_uris":{"android":"levelo://app?vid=bb872cf3-111a-4da5-8326-64266a28cac2","ios":"levelo://app?vid=bb872cf3-111a-4da5-8326-64266a28cac2"},"vehicle_type_id":"4","last_reported":1768272717,"current_range_meters":6400,"station_id":"ce4bhh92rcd13ifvqfj0","pricing_plan_id":"cebpf4jnsgd1na2vs0mg"},{"bike_id":"40d47c0c-55a1-48e8-8d5c-9585a4d68622","system_id":"levelo_inurba_marseille","lat":43.2407,"lon":5.37764,"is_reserved":false,"is_disabled":false,"rental_uris":{"android":"levelo://app?vid=40d47c0c-55a1-48e8-8d5c-9585a4d68622","ios":"levelo://app?vid=40d47c0c-55a1-48e8-8d5c-9585a4d68622"},"vehicle_type_id":"4","last_reported":1768272717,"current_range_meters":6400,"station_id":"ce4bhnp2rcd13ifvqgvg","pricing_plan_id":"cebpf4jnsgd1na2vs0mg"},{"bike_id":"ca6c5b5b-a9ad-467b-8916-3c5ac8e065da","system_id":"levelo_inurba_marseille","lat":43.29929,"lon":5.36507,"is_reserved":false,"is_disabled":false,"rental_uris":{"android":"levelo://app?vid=ca6c5b5b-a9ad-467b-8916-3c5ac8e065da","ios":"levelo://app?vid=ca6c5b5b-a9ad-467b-8916-3c5ac8e065da"},"vehicle_type_id":"4","last_reported":1768272717,"current_range_meters":6400,"station_id":"ce4bgm92rcd13ifvqbr0","pricing_plan_id":"cebpf4jnsgd1na2vs0mg"},{"bike_id":"e5a3ec84-3306-487e-9f3f-64e1da9bd3e6","system_id":"levelo_inurba_marseille","lat":43.24631,"lon":5.43142,"is_reserved":false,"is_disabled":false,"rental_uris":{"android":"levelo://app?vid=e5a3ec84-3306-487e-9f3f-64e1da9bd3e6","ios":"levelo://app?vid=e5a3ec84-3306-487e-9f3f-64e1da9bd3e6"},"vehicle_type_id":"4","last_reported":1768272717,"current_range_meters":6400,"station_id":"st_d2m6c4gdas8pm72e190g","pricing_plan_id":"cebpf4jnsgd1na2vs0mg"},{"bike_id":"32b1abe2-c3eb-4fbe-b346-34f5779df386","system_id":"levelo_inurba_marseille","lat":43.26212,"lon":5.37922,"is_reserved":false,"is_disabled":false,"rental_uris":{"android":"levelo://app?vid=32b1abe2-c3eb-4fbe-b346-34f5779df386","ios":"levelo://app?vid=32b1abe2-c3eb-4fbe-b346-34f5779df386"},"vehicle_type_id":"4","last_reported":1768272717,"current_range_meters":6400,"station_id":"ce4bhjp2rcd13ifvqg90","pricing_plan_id":"cebpf4jnsgd1na2vs0mg"},{"bike_id":"9f295e7a-65c6-4272-9043-5a3d89670383","system_id":"levelo_inurba_marseille","lat":43.248239,"lon":5.374468,"is_reserved":false,"is_disabled":false,"rental_uris":{"android":"levelo://app?vid=9f295e7a-65c6-4272-9043-5a3d89670383","ios":"levelo://app?vid=9f295e7a-65c6-4272-9043-5a3d89670383"},"vehicle_type_id":"4","last_reported":1768272717,"current_range_meters":6400,"station_id":"ce4bhgh2rcd13ifvqfb0","pricing_plan_id":"cebpf4jnsgd1na2vs0mg"},{"bike_id":"ce18eb13-3297-475e-be12-69b723daa3fc","system_id":"levelo_inurba_marseille","lat":43.28572,"lon":5.39487,"is_reserved":false,"is_disabled":false,"rental_uris":{"android":"levelo://app?vid=ce18eb13-3297-475e-be12-69b723daa3fc","ios":"levelo://app?vid=ce18eb13-3297-475e-be12-69b723daa3fc"},"vehicle_type_id":"4","last_reported":1768272717,"current_range_meters":6400,"station_id":"ce4bh292rcd13ifvqdg0","pricing_plan_id":"cebpf4jnsgd1na2vs0mg"},{"bike_id":"42b6dfec-3e09-4e3a-9a6d-1e9fb82fbfba","system_id":"levelo_inurba_marseille","lat":43.27033,"lon":5.40278,"is_reserved":false,"is_disabled":false,"rental_uris":{"android":"levelo://app?vid=42b6dfec-3e09-4e3a-9a6d-1e9fb82fbfba","ios":"levelo://app?vid=42b6dfec-3e09-4e3a-9a6d-1e9fb82fbfba"},"vehicle_type_id":"4","last_reported":1768272717,"current_range_meters":6400,"station_id":"ce4bhk92rcd13ifvqgc0","pricing_plan_id":"cebpf4jnsgd1na2vs0mg"},{"bike_id":"1fab451c-a69a-44ca-b2c3-fe8939fd9580","system_id":"levelo_inurba_marseille","lat":43.31499,"lon":5.41411,"is_reserved":false,"is_disabled":false,"rental_uris":{"android":"levelo://app?vid=1fab451c-a69a-44ca-b2c3-fe8939fd9580","ios":"levelo://app?vid=1fab451c-a69a-44ca-b2c3-fe8939fd9580"},"vehicle_type_id":"4","last_reported":1768272717,"current_range_meters":6400,"station_id":"","pricing_plan_id":"cebpf4jnsgd1na2vs0mg"},{"bike_id":"f4d56beb-17a4-43ae-a1b7-ece3f3acf3f9","system_id":"levelo_inurba_marseille","lat":43.279937,"lon":5.416574,"is_reserved":false,"is_disabled":false,"rental_uris":{"android":"levelo://app?vid=f4d56beb-17a4-43ae-a1b7-ece3f3acf3f9","ios":"levelo://app?vid=f4d56beb-17a4-43ae-a1b7-ece3f3acf3f9"},"vehicle_type_id":"4","last_reported":1768272717,"current_range_meters":6400,"station_id":"ce4bho12rcd13ifvqh1g","pricing_plan_id":"cebpf4jnsgd1na2vs0mg"},{"bike_id":"a27f6a61-689d-49de-951e-01c7ddaa0581","system_id":"levelo_inurba_marseille","lat":43.2417,"lon":5.36399,"is_reserved":false,"is_disabled":false,"rental_uris":{"android":"levelo://app?vid=a27f6a61-689d-49de-951e-01c7ddaa0581","ios":"levelo://app?vid=a27f6a61-689d-49de-951e-01c7ddaa0581"},"vehicle_type_id":"4","last_reported":1768272717,"current_range_meters":6800,"station_id":"cpo36qri1sfpv3e86is0","pricing_plan_id":"cebpf4jnsgd1na2vs0mg"},{"bike_id":"47fa8c07-02d3-44db-8c89-106a6ddb4f66","system_id":"levelo_inurba_marseille","lat":43.2954,"lon":5.3854,"is_reserved":false,"is_disabled":false,"rental_uris":{"android":"levelo://app?vid=47fa8c07-02d3-44db-8c89-106a6ddb4f66","ios":"levelo://app?vid=47fa8c07-02d3-44db-8c89-106a6ddb4f66"},"vehicle_type_id":"4","last_reported":1768272717,"current_range_meters":6800,"station_id":"ce4bgih2rcd13ifvqba0","pricing_plan_id":"cebpf4jnsgd1na2vs0mg"},{"bike_id":"e17a9c82-8846-45df-b367-7545f106e168","system_id":"levelo_inurba_marseille","lat":43.31329,"lon":5.38424,"is_reserved":false,"is_disabled":false,"rental_uris":{"android":"levelo://app?vid=e17a9c82-8846-45df-b367-7545f106e168","ios":"levelo://app?vid=e17a9c82-8846-45df-b367-7545f106e168"},"vehicle_type_id":"4","last_reported":1768272717,"current_range_meters":6800,"station_id":"","pricing_plan_id":"cebpf4jnsgd1na2vs0mg"},{"bike_id":"d57094ce-7af8-428e-9753-4201f05f4a86","system_id":"levelo_inurba_marseille","lat":43.24812,"lon":5.374583,"is_reserved":false,"is_disabled":false,"rental_uris":{"android":"levelo://app?vid=d57094ce-7af8-428e-9753-4201f05f4a86","ios":"levelo://app?vid=d57094ce-7af8-428e-9753-4201f05f4a86"},"vehicle_type_id":"4","last_reported":1768272717,"current_range_meters":6800,"station_id":"ce4bhgh2rcd13ifvqfb0","pricing_plan_id":"cebpf4jnsgd1na2vs0mg"},{"bike_id":"3b87f715-5308-4927-a132-6efec6c4b701","system_id":"levelo_inurba_marseille","lat":43.3127,"lon":5.40179,"is_reserved":false,"is_disabled":false,"rental_uris":{"android":"levelo://app?vid=3b87f715-5308-4927-a132-6efec6c4b701","ios":"levelo://app?vid=3b87f715-5308-4927-a132-6efec6c4b701"},"vehicle_type_id":"4","last_reported":1768272717,"current_range_meters":6800,"station_id":"ce4bh092rcd13ifvqd30","pricing_plan_id":"cebpf4jnsgd1na2vs0mg"},{"bike_id":"c9aa61c2-bf79-4eea-867a-5fdf9f19baaf","system_id":"levelo_inurba_marseille","lat":43.255121,"lon":5.376506,"is_reserved":false,"is_disabled":false,"rental_uris":{"android":"levelo://app?vid=c9aa61c2-bf79-4eea-867a-5fdf9f19baaf","ios":"levelo://app?vid=c9aa61c2-bf79-4eea-867a-5fdf9f19baaf"},"vehicle_type_id":"4","last_reported":1768272717,"current_range_meters":6800,"station_id":"ce4bhh12rcd13ifvqff0","pricing_plan_id":"cebpf4jnsgd1na2vs0mg"},{"bike_id":"7b7c4d5a-48b0-4253-8d68-ce9bdb9244be","system_id":"levelo_inurba_marseille","lat":43.26545,"lon":5.37315,"is_reserved":false,"is_disabled":false,"rental_uris":{"android":"levelo://app?vid=7b7c4d5a-48b0-4253-8d68-ce9bdb9244be","ios":"levelo://app?vid=7b7c4d5a-48b0-4253-8d68-ce9bdb9244be"},"vehicle_type_id":"4","last_reported":1768272717,"current_range_meters":6800,"station_id":"ce4bhg12rcd13ifvqf70","pricing_plan_id":"cebpf4jnsgd1na2vs0mg"},{"bike_id":"c5b0e4e4-c0dd-441f-992f-a632a50a9951","system_id":"levelo_inurba_marseille","lat":43.27617,"lon":5.36107,"is_reserved":false,"is_disabled":false,"rental_uris":{"android":"levelo://app?vid=c5b0e4e4-c0dd-441f-992f-a632a50a9951","ios":"levelo://app?vid=c5b0e4e4-c0dd-441f-992f-a632a50a9951"},"vehicle_type_id":"4","last_reported":1768272717,"current_range_meters":6800,"station_id":"ce4bgj92rcd13ifvqbe0","pricing_plan_id":"cebpf4jnsgd1na2vs0mg"},{"bike_id":"b576c42d-717a-495a-aad1-2c56e4d372a6","system_id":"levelo_inurba_marseille","lat":43.23157,"lon":5.4372,"is_reserved":false,"is_disabled":false,"rental_uris":{"android":"levelo://app?vid=b576c42d-717a-495a-aad1-2c56e4d372a6","ios":"levelo://app?vid=b576c42d-717a-495a-aad1-2c56e4d372a6"},"vehicle_type_id":"4","last_reported":1768272717,"current_range_meters":6800,"station_id":"ce4bhmp2rcd13ifvqgog","pricing_plan_id":"cebpf4jnsgd1na2vs0mg"},{"bike_id":"c68e5b51-42cb-4a64-aebf-ab50b3da91bd","system_id":"levelo_inurba_marseille","lat":43.28107,"lon":5.37836,"is_reserved":false,"is_disabled":true,"rental_uris":{"android":"levelo://app?vid=c68e5b51-42cb-4a64-aebf-ab50b3da91bd","ios":"levelo://app?vid=c68e5b51-42cb-4a64-aebf-ab50b3da91bd"},"vehicle_type_id":"4","last_reported":1768272717,"current_range_meters":6800,"station_id":"ce4bha12rcd13ifvqee0","pricing_plan_id":"cebpf4jnsgd1na2vs0mg"},{"bike_id":"9bd81498-1c2d-46cc-b134-62e2c3cd9ba1","system_id":"levelo_inurba_marseille","lat":43.28865,"lon":5.42517,"is_reserved":false,"is_disabled":false,"rental_uris":{"android":"levelo://app?vid=9bd81498-1c2d-46cc-b134-62e2c3cd9ba1","ios":"levelo://app?vid=9bd81498-1c2d-46cc-b134-62e2c3cd9ba1"},"vehicle_type_id":"4","last_reported":1768272717,"current_range_meters":6800,"station_id":"st_d3b462108ojc7389ooeg","pricing_plan_id":"cebpf4jnsgd1na2vs0mg"},{"bike_id":"8d59aeae-65fb-4f87-be33-4e3c60111d67","system_id":"levelo_inurba_marseille","lat":43.28349,"lon":5.38117,"is_reserved":false,"is_disabled":false,"rental_uris":{"android":"levelo://app?vid=8d59aeae-65fb-4f87-be33-4e3c60111d67","ios":"levelo://app?vid=8d59aeae-65fb-4f87-be33-4e3c60111d67"},"vehicle_type_id":"4","last_reported":1768272717,"current_range_meters":6800,"station_id":"ce4bh412rcd13ifvqdr0","pricing_plan_id":"cebpf4jnsgd1na2vs0mg"},{"bike_id":"6ab62250-5818-43ed-b656-9cf3ea931848","system_id":"levelo_inurba_marseille","lat":43.28289,"lon":5.35071,"is_reserved":false,"is_disabled":false,"rental_uris":{"android":"levelo://app?vid=6ab62250-5818-43ed-b656-9cf3ea931848","ios":"levelo://app?vid=6ab62250-5818-43ed-b656-9cf3ea931848"},"vehicle_type_id":"4","last_reported":1768272717,"current_range_meters":6800,"station_id":"ce4bhbp2rcd13ifvqerg","pricing_plan_id":"cebpf4jnsgd1na2vs0mg"},{"bike_id":"9c6ac982-85bd-4de8-bac0-c36b3d884f3d","system_id":"levelo_inurba_marseille","lat":43.32105,"lon":5.3678,"is_reserved":false,"is_disabled":false,"rental_uris":{"android":"levelo://app?vid=9c6ac982-85bd-4de8-bac0-c36b3d884f3d","ios":"levelo://app?vid=9c6ac982-85bd-4de8-bac0-c36b3d884f3d"},"vehicle_type_id":"4","last_reported":1768272717,"current_range_meters":6800,"station_id":"ce4bhrh2rcd13ifvqhug","pricing_plan_id":"cebpf4jnsgd1na2vs0mg"},{"bike_id":"93333de3-883c-4541-9c29-e18589b5ed71","system_id":"levelo_inurba_marseille","lat":43.23783,"lon":5.36634,"is_reserved":false,"is_disabled":false,"rental_uris":{"android":"levelo://app?vid=93333de3-883c-4541-9c29-e18589b5ed71","ios":"levelo://app?vid=93333de3-883c-4541-9c29-e18589b5ed71"},"vehicle_type_id":"4","last_reported":1768272717,"current_range_meters":6800,"station_id":"st_d3nk18o9ro0c73en2l3g","pricing_plan_id":"cebpf4jnsgd1na2vs0mg"},{"bike_id":"cdb7f885-d79c-4a7f-be8b-87d7e51ae524","system_id":"levelo_inurba_marseille","lat":43.30666,"lon":5.40504,"is_reserved":false,"is_disabled":false,"rental_uris":{"android":"levelo://app?vid=cdb7f885-d79c-4a7f-be8b-87d7e51ae524","ios":"levelo://app?vid=cdb7f885-d79c-4a7f-be8b-87d7e51ae524"},"vehicle_type_id":"4","last_reported":1768272717,"current_range_meters":6800,"station_id":"ce4bh112rcd13ifvqda0","pricing_plan_id":"cebpf4jnsgd1na2vs0mg"},{"bike_id":"74218321-6d0c-4786-880a-fc8d534dbb20","system_id":"levelo_inurba_marseille","lat":43.29269,"lon":5.40125,"is_reserved":false,"is_disabled":false,"rental_uris":{"android":"levelo://app?vid=74218321-6d0c-4786-880a-fc8d534dbb20","ios":"levelo://app?vid=74218321-6d0c-4786-880a-fc8d534dbb20"},"vehicle_type_id":"4","last_reported":1768272717,"current_range_meters":6800,"station_id":"ce4bh312rcd13ifvqdk0","pricing_plan_id":"cebpf4jnsgd1na2vs0mg"},{"bike_id":"73995964-5fd9-40f3-be62-12151c415e47","system_id":"levelo_inurba_marseille","lat":43.25006,"lon":5.38962,"is_reserved":false,"is_disabled":false,"rental_uris":{"android":"levelo://app?vid=73995964-5fd9-40f3-be62-12151c415e47","ios":"levelo://app?vid=73995964-5fd9-40f3-be62-12151c415e47"},"vehicle_type_id":"4","last_reported":1768272717,"current_range_meters":7200,"station_id":"ce4bhgp2rcd13ifvqfd0","pricing_plan_id":"cebpf4jnsgd1na2vs0mg"},{"bike_id":"724de0f9-0a1e-4ba0-a5b2-659a4663c10c","system_id":"levelo_inurba_marseille","lat":43.25067,"lon":5.39489,"is_reserved":false,"is_disabled":false,"rental_uris":{"android":"levelo://app?vid=724de0f9-0a1e-4ba0-a5b2-659a4663c10c","ios":"levelo://app?vid=724de0f9-0a1e-4ba0-a5b2-659a4663c10c"},"vehicle_type_id":"4","last_reported":1768272717,"current_range_meters":7200,"station_id":"ce4bhm12rcd13ifvqgkg","pricing_plan_id":"cebpf4jnsgd1na2vs0mg"},{"bike_id":"0fafc9bc-eab3-4497-b4de-e36867104d5a","system_id":"levelo_inurba_marseille","lat":43.26065,"lon":5.39398,"is_reserved":false,"is_disabled":false,"rental_uris":{"android":"levelo://app?vid=0fafc9bc-eab3-4497-b4de-e36867104d5a","ios":"levelo://app?vid=0fafc9bc-eab3-4497-b4de-e36867104d5a"},"vehicle_type_id":"4","last_reported":1768272717,"current_range_meters":7200,"station_id":"ce4bhh92rcd13ifvqfj0","pricing_plan_id":"cebpf4jnsgd1na2vs0mg"},{"bike_id":"15b21ccb-bd0e-47c3-8259-e27d2855772d","system_id":"levelo_inurba_marseille","lat":43.24586,"lon":5.38403,"is_reserved":false,"is_disabled":false,"rental_uris":{"android":"levelo://app?vid=15b21ccb-bd0e-47c3-8259-e27d2855772d","ios":"levelo://app?vid=15b21ccb-bd0e-47c3-8259-e27d2855772d"},"vehicle_type_id":"4","last_reported":1768272717,"current_range_meters":7200,"station_id":"","pricing_plan_id":"cebpf4jnsgd1na2vs0mg"},{"bike_id":"c4fcc189-751d-4eb2-af69-d5ccf6bfb543","system_id":"levelo_inurba_marseille","lat":43.2848,"lon":5.48399,"is_reserved":false,"is_disabled":false,"rental_uris":{"android":"levelo://app?vid=c4fcc189-751d-4eb2-af69-d5ccf6bfb543","ios":"levelo://app?vid=c4fcc189-751d-4eb2-af69-d5ccf6bfb543"},"vehicle_type_id":"4","last_reported":1768272717,"current_range_meters":7200,"station_id":"","pricing_plan_id":"cebpf4jnsgd1na2vs0mg"},{"bike_id":"4fcf8939-d9e5-44a3-8f16-b04dcd32071a","system_id":"levelo_inurba_marseille","lat":43.24158,"lon":5.36402,"is_reserved":false,"is_disabled":false,"rental_uris":{"android":"levelo://app?vid=4fcf8939-d9e5-44a3-8f16-b04dcd32071a","ios":"levelo://app?vid=4fcf8939-d9e5-44a3-8f16-b04dcd32071a"},"vehicle_type_id":"4","last_reported":1768272717,"current_range_meters":7200,"station_id":"cpo36qri1sfpv3e86is0","pricing_plan_id":"cebpf4jnsgd1na2vs0mg"},{"bike_id":"aa71df00-ac67-458a-bb07-9f22d4867495","system_id":"levelo_inurba_marseille","lat":43.24407,"lon":5.37083,"is_reserved":false,"is_disabled":false,"rental_uris":{"android":"levelo://app?vid=aa71df00-ac67-458a-bb07-9f22d4867495","ios":"levelo://app?vid=aa71df00-ac67-458a-bb07-9f22d4867495"},"vehicle_type_id":"4","last_reported":1768272717,"current_range_meters":7200,"station_id":"ce4bhhh2rcd13ifvqfk0","pricing_plan_id":"cebpf4jnsgd1na2vs0mg"},{"bike_id":"889365ac-dd9e-4bc8-95c4-120ab5729ad1","system_id":"levelo_inurba_marseille","lat":43.25598,"lon":5.383,"is_reserved":false,"is_disabled":false,"rental_uris":{"android":"levelo://app?vid=889365ac-dd9e-4bc8-95c4-120ab5729ad1","ios":"levelo://app?vid=889365ac-dd9e-4bc8-95c4-120ab5729ad1"},"vehicle_type_id":"4","last_reported":1768272717,"current_range_meters":7200,"station_id":"ce4bhih2rcd13ifvqfs0","pricing_plan_id":"cebpf4jnsgd1na2vs0mg"},{"bike_id":"84e16006-5628-4350-aeb6-7f7c09d8818d","system_id":"levelo_inurba_marseille","lat":43.23942,"lon":5.36668,"is_reserved":false,"is_disabled":false,"rental_uris":{"android":"levelo://app?vid=84e16006-5628-4350-aeb6-7f7c09d8818d","ios":"levelo://app?vid=84e16006-5628-4350-aeb6-7f7c09d8818d"},"vehicle_type_id":"4","last_reported":1768272717,"current_range_meters":7200,"station_id":"ce4bhi12rcd13ifvqfp0","pricing_plan_id":"cebpf4jnsgd1na2vs0mg"},{"bike_id":"ba9aa4b5-9ae3-4347-ba16-0b79f803aee5","system_id":"levelo_inurba_marseille","lat":43.29821,"lon":5.40942,"is_reserved":false,"is_disabled":false,"rental_uris":{"android":"levelo://app?vid=ba9aa4b5-9ae3-4347-ba16-0b79f803aee5","ios":"levelo://app?vid=ba9aa4b5-9ae3-4347-ba16-0b79f803aee5"},"vehicle_type_id":"4","last_reported":1768272717,"current_range_meters":7200,"station_id":"","pricing_plan_id":"cebpf4jnsgd1na2vs0mg"},{"bike_id":"c4719649-1dbc-4c5a-b782-8fce65146957","system_id":"levelo_inurba_marseille","lat":43.28552,"lon":5.44078,"is_reserved":false,"is_disabled":false,"rental_uris":{"android":"levelo://app?vid=c4719649-1dbc-4c5a-b782-8fce65146957","ios":"levelo://app?vid=c4719649-1dbc-4c5a-b782-8fce65146957"},"vehicle_type_id":"4","last_reported":1768272717,"current_range_meters":7200,"station_id":"st_d3j3df2ikq2c7380ej80","pricing_plan_id":"cebpf4jnsgd1na2vs0mg"},{"bike_id":"63fc7043-c019-4251-abc3-87e8519908fa","system_id":"levelo_inurba_marseille","lat":43.26684,"lon":5.3828,"is_reserved":false,"is_disabled":true,"rental_uris":{"android":"levelo://app?vid=63fc7043-c019-4251-abc3-87e8519908fa","ios":"levelo://app?vid=63fc7043-c019-4251-abc3-87e8519908fa"},"vehicle_type_id":"4","last_reported":1768272717,"current_range_meters":7200,"station_id":"ce4bhg92rcd13ifvqf90","pricing_plan_id":"cebpf4jnsgd1na2vs0mg"},{"bike_id":"fbaef028-ec74-4c9f-8bef-75df8753715b","system_id":"levelo_inurba_marseille","lat":43.2903,"lon":5.37045,"is_reserved":false,"is_disabled":false,"rental_uris":{"android":"levelo://app?vid=fbaef028-ec74-4c9f-8bef-75df8753715b","ios":"levelo://app?vid=fbaef028-ec74-4c9f-8bef-75df8753715b"},"vehicle_type_id":"4","last_reported":1768272717,"current_range_meters":7200,"station_id":"","pricing_plan_id":"cebpf4jnsgd1na2vs0mg"},{"bike_id":"a714f418-ed3b-4b59-9c3d-b14acbf5c7c6","system_id":"levelo_inurba_marseille","lat":43.25086,"lon":5.39522,"is_reserved":false,"is_disabled":false,"rental_uris":{"android":"levelo://app?vid=a714f418-ed3b-4b59-9c3d-b14acbf5c7c6","ios":"levelo://app?vid=a714f418-ed3b-4b59-9c3d-b14acbf5c7c6"},"vehicle_type_id":"4","last_reported":1768272717,"current_range_meters":7200,"station_id":"ce4bhm12rcd13ifvqgkg","pricing_plan_id":"cebpf4jnsgd1na2vs0mg"},{"bike_id":"918504fc-3c6d-40f6-9a45-6d6ceb846aa6","system_id":"levelo_inurba_marseille","lat":43.28649,"lon":5.36423,"is_reserved":false,"is_disabled":false,"rental_uris":{"android":"levelo://app?vid=918504fc-3c6d-40f6-9a45-6d6ceb846aa6","ios":"levelo://app?vid=918504fc-3c6d-40f6-9a45-6d6ceb846aa6"},"vehicle_type_id":"4","last_reported":1768272717,"current_range_meters":7200,"station_id":"","pricing_plan_id":"cebpf4jnsgd1na2vs0mg"},{"bike_id":"63b1856a-5e73-4949-8313-642a7aae66aa","system_id":"levelo_inurba_marseille","lat":43.229112,"lon":5.353806,"is_reserved":false,"is_disabled":false,"rental_uris":{"android":"levelo://app?vid=63b1856a-5e73-4949-8313-642a7aae66aa","ios":"levelo://app?vid=63b1856a-5e73-4949-8313-642a7aae66aa"},"vehicle_type_id":"4","last_reported":1768272717,"current_range_meters":7200,"station_id":"cpo3532slgdg3j2ikp40","pricing_plan_id":"cebpf4jnsgd1na2vs0mg"},{"bike_id":"a5fdd8c3-d5e0-4c98-a5d1-c952389257b2","system_id":"levelo_inurba_marseille","lat":43.24618,"lon":5.43154,"is_reserved":false,"is_disabled":false,"rental_uris":{"android":"levelo://app?vid=a5fdd8c3-d5e0-4c98-a5d1-c952389257b2","ios":"levelo://app?vid=a5fdd8c3-d5e0-4c98-a5d1-c952389257b2"},"vehicle_type_id":"4","last_reported":1768272717,"current_range_meters":7200,"station_id":"st_d2m6c4gdas8pm72e190g","pricing_plan_id":"cebpf4jnsgd1na2vs0mg"},{"bike_id":"1b1a670a-fcf4-4828-aa79-e1b72cfec18c","system_id":"levelo_inurba_marseille","lat":43.2319,"lon":5.35533,"is_reserved":false,"is_disabled":false,"rental_uris":{"android":"levelo://app?vid=1b1a670a-fcf4-4828-aa79-e1b72cfec18c","ios":"levelo://app?vid=1b1a670a-fcf4-4828-aa79-e1b72cfec18c"},"vehicle_type_id":"4","last_reported":1768272717,"current_range_meters":7200,"station_id":"ce4bhu92rcd13ifvqi70","pricing_plan_id":"cebpf4jnsgd1na2vs0mg"},{"bike_id":"b659a5a2-a6de-438e-b560-ec4a8dc93085","system_id":"levelo_inurba_marseille","lat":43.26202,"lon":5.40428,"is_reserved":false,"is_disabled":false,"rental_uris":{"android":"levelo://app?vid=b659a5a2-a6de-438e-b560-ec4a8dc93085","ios":"levelo://app?vid=b659a5a2-a6de-438e-b560-ec4a8dc93085"},"vehicle_type_id":"4","last_reported":1768272717,"current_range_meters":7200,"station_id":"ce4bhmh2rcd13ifvqgmg","pricing_plan_id":"cebpf4jnsgd1na2vs0mg"},{"bike_id":"b60c8777-50a1-4187-b012-61c8b2392d61","system_id":"levelo_inurba_marseille","lat":43.24165,"lon":5.36395,"is_reserved":false,"is_disabled":false,"rental_uris":{"android":"levelo://app?vid=b60c8777-50a1-4187-b012-61c8b2392d61","ios":"levelo://app?vid=b60c8777-50a1-4187-b012-61c8b2392d61"},"vehicle_type_id":"4","last_reported":1768272717,"current_range_meters":7200,"station_id":"cpo36qri1sfpv3e86is0","pricing_plan_id":"cebpf4jnsgd1na2vs0mg"},{"bike_id":"d0c8f902-6830-431b-898a-189fb6a9cd6c","system_id":"levelo_inurba_marseille","lat":43.298461,"lon":5.362823,"is_reserved":false,"is_disabled":false,"rental_uris":{"android":"levelo://app?vid=d0c8f902-6830-431b-898a-189fb6a9cd6c","ios":"levelo://app?vid=d0c8f902-6830-431b-898a-189fb6a9cd6c"},"vehicle_type_id":"4","last_reported":1768272717,"current_range_meters":7200,"station_id":"ce4bgpp2rcd13ifvqc3g","pricing_plan_id":"cebpf4jnsgd1na2vs0mg"},{"bike_id":"73159171-0e70-4889-87e6-07eac0d40625","system_id":"levelo_inurba_marseille","lat":43.22557,"lon":5.41654,"is_reserved":false,"is_disabled":false,"rental_uris":{"android":"levelo://app?vid=73159171-0e70-4889-87e6-07eac0d40625","ios":"levelo://app?vid=73159171-0e70-4889-87e6-07eac0d40625"},"vehicle_type_id":"4","last_reported":1768272717,"current_range_meters":7200,"station_id":"st_d2o4gvlbi1j2169b742g","pricing_plan_id":"cebpf4jnsgd1na2vs0mg"},{"bike_id":"b563b9ee-f431-483e-9b3a-89ae67e2e8da","system_id":"levelo_inurba_marseille","lat":43.26189,"lon":5.37938,"is_reserved":false,"is_disabled":false,"rental_uris":{"android":"levelo://app?vid=b563b9ee-f431-483e-9b3a-89ae67e2e8da","ios":"levelo://app?vid=b563b9ee-f431-483e-9b3a-89ae67e2e8da"},"vehicle_type_id":"4","last_reported":1768272717,"current_range_meters":8000,"station_id":"ce4bhjp2rcd13ifvqg90","pricing_plan_id":"cebpf4jnsgd1na2vs0mg"},{"bike_id":"c52a3b2e-2d80-494e-a251-95eca3abe920","system_id":"levelo_inurba_marseille","lat":43.308913,"lon":5.371957,"is_reserved":false,"is_disabled":false,"rental_uris":{"android":"levelo://app?vid=c52a3b2e-2d80-494e-a251-95eca3abe920","ios":"levelo://app?vid=c52a3b2e-2d80-494e-a251-95eca3abe920"},"vehicle_type_id":"4","last_reported":1768272717,"current_range_meters":8000,"station_id":"","pricing_plan_id":"cebpf4jnsgd1na2vs0mg"},{"bike_id":"64e147a8-1bbb-419c-b69b-662d9db7e72a","system_id":"levelo_inurba_marseille","lat":43.258619,"lon":5.399086,"is_reserved":false,"is_disabled":true,"rental_uris":{"android":"levelo://app?vid=64e147a8-1bbb-419c-b69b-662d9db7e72a","ios":"levelo://app?vid=64e147a8-1bbb-419c-b69b-662d9db7e72a"},"vehicle_type_id":"4","last_reported":1768272717,"current_range_meters":8000,"station_id":"ce4bhl92rcd13ifvqghg","pricing_plan_id":"cebpf4jnsgd1na2vs0mg"},{"bike_id":"27b3abd6-2aee-4c97-99b7-697f173ccf0c","system_id":"levelo_inurba_marseille","lat":43.29274,"lon":5.40133,"is_reserved":false,"is_disabled":false,"rental_uris":{"android":"levelo://app?vid=27b3abd6-2aee-4c97-99b7-697f173ccf0c","ios":"levelo://app?vid=27b3abd6-2aee-4c97-99b7-697f173ccf0c"},"vehicle_type_id":"4","last_reported":1768272717,"current_range_meters":8000,"station_id":"ce4bh312rcd13ifvqdk0","pricing_plan_id":"cebpf4jnsgd1na2vs0mg"},{"bike_id":"ce421665-3c26-4baa-b8ec-61eb8aef5e07","system_id":"levelo_inurba_marseille","lat":43.28068,"lon":5.40744,"is_reserved":false,"is_disabled":false,"rental_uris":{"android":"levelo://app?vid=ce421665-3c26-4baa-b8ec-61eb8aef5e07","ios":"levelo://app?vid=ce421665-3c26-4baa-b8ec-61eb8aef5e07"},"vehicle_type_id":"4","last_reported":1768272717,"current_range_meters":8000,"station_id":"","pricing_plan_id":"cebpf4jnsgd1na2vs0mg"},{"bike_id":"f177f7bc-1ed5-42e0-a608-82886412a4e4","system_id":"levelo_inurba_marseille","lat":43.23963,"lon":5.36623,"is_reserved":false,"is_disabled":false,"rental_uris":{"android":"levelo://app?vid=f177f7bc-1ed5-42e0-a608-82886412a4e4","ios":"levelo://app?vid=f177f7bc-1ed5-42e0-a608-82886412a4e4"},"vehicle_type_id":"4","last_reported":1768272717,"current_range_meters":8000,"station_id":"ce4bhi12rcd13ifvqfp0","pricing_plan_id":"cebpf4jnsgd1na2vs0mg"},{"bike_id":"e0390093-e93c-4352-a447-1922bd291a25","system_id":"levelo_inurba_marseille","lat":43.241593,"lon":5.364043,"is_reserved":false,"is_disabled":false,"rental_uris":{"android":"levelo://app?vid=e0390093-e93c-4352-a447-1922bd291a25","ios":"levelo://app?vid=e0390093-e93c-4352-a447-1922bd291a25"},"vehicle_type_id":"4","last_reported":1768272717,"current_range_meters":8000,"station_id":"cpo36qri1sfpv3e86is0","pricing_plan_id":"cebpf4jnsgd1na2vs0mg"},{"bike_id":"22bd3aa4-6a09-4e15-b76b-1206c0918c27","system_id":"levelo_inurba_marseille","lat":43.29701,"lon":5.37695,"is_reserved":false,"is_disabled":false,"rental_uris":{"android":"levelo://app?vid=22bd3aa4-6a09-4e15-b76b-1206c0918c27","ios":"levelo://app?vid=22bd3aa4-6a09-4e15-b76b-1206c0918c27"},"vehicle_type_id":"4","last_reported":1768272717,"current_range_meters":8000,"station_id":"ce4bgkh2rcd13ifvqbl0","pricing_plan_id":"cebpf4jnsgd1na2vs0mg"},{"bike_id":"31211425-ab3b-46e7-8e98-291e2e842674","system_id":"levelo_inurba_marseille","lat":43.31331,"lon":5.39712,"is_reserved":false,"is_disabled":false,"rental_uris":{"android":"levelo://app?vid=31211425-ab3b-46e7-8e98-291e2e842674","ios":"levelo://app?vid=31211425-ab3b-46e7-8e98-291e2e842674"},"vehicle_type_id":"4","last_reported":1768272717,"current_range_meters":8000,"station_id":"ce4bgvp2rcd13ifvqcu0","pricing_plan_id":"cebpf4jnsgd1na2vs0mg"},{"bike_id":"e7f880b9-9ced-4dbf-8dbc-b70fe3a8fb49","system_id":"levelo_inurba_marseille","lat":43.32356,"lon":5.36731,"is_reserved":false,"is_disabled":false,"rental_uris":{"android":"levelo://app?vid=e7f880b9-9ced-4dbf-8dbc-b70fe3a8fb49","ios":"levelo://app?vid=e7f880b9-9ced-4dbf-8dbc-b70fe3a8fb49"},"vehicle_type_id":"4","last_reported":1768272717,"current_range_meters":8000,"station_id":"ce4bhsh2rcd13ifvqi2g","pricing_plan_id":"cebpf4jnsgd1na2vs0mg"},{"bike_id":"312681fa-4d84-401f-8387-2d987d0df7e0","system_id":"levelo_inurba_marseille","lat":43.32339,"lon":5.36733,"is_reserved":false,"is_disabled":false,"rental_uris":{"android":"levelo://app?vid=312681fa-4d84-401f-8387-2d987d0df7e0","ios":"levelo://app?vid=312681fa-4d84-401f-8387-2d987d0df7e0"},"vehicle_type_id":"4","last_reported":1768272717,"current_range_meters":8000,"station_id":"ce4bhsh2rcd13ifvqi2g","pricing_plan_id":"cebpf4jnsgd1na2vs0mg"},{"bike_id":"378babbb-f455-4392-b7b1-63d0b2114d6f","system_id":"levelo_inurba_marseille","lat":43.27613,"lon":5.3611,"is_reserved":false,"is_disabled":false,"rental_uris":{"android":"levelo://app?vid=378babbb-f455-4392-b7b1-63d0b2114d6f","ios":"levelo://app?vid=378babbb-f455-4392-b7b1-63d0b2114d6f"},"vehicle_type_id":"4","last_reported":1768272717,"current_range_meters":8000,"station_id":"ce4bgj92rcd13ifvqbe0","pricing_plan_id":"cebpf4jnsgd1na2vs0mg"},{"bike_id":"2cc9db73-43c9-4a56-a963-4c4c6878c41f","system_id":"levelo_inurba_marseille","lat":43.23842,"lon":5.36647,"is_reserved":false,"is_disabled":false,"rental_uris":{"android":"levelo://app?vid=2cc9db73-43c9-4a56-a963-4c4c6878c41f","ios":"levelo://app?vid=2cc9db73-43c9-4a56-a963-4c4c6878c41f"},"vehicle_type_id":"4","last_reported":1768272717,"current_range_meters":8000,"station_id":"","pricing_plan_id":"cebpf4jnsgd1na2vs0mg"},{"bike_id":"f6684380-cdae-4758-b97f-d5b74e7a1986","system_id":"levelo_inurba_marseille","lat":43.23193,"lon":5.35554,"is_reserved":false,"is_disabled":false,"rental_uris":{"android":"levelo://app?vid=f6684380-cdae-4758-b97f-d5b74e7a1986","ios":"levelo://app?vid=f6684380-cdae-4758-b97f-d5b74e7a1986"},"vehicle_type_id":"4","last_reported":1768272717,"current_range_meters":8000,"station_id":"ce4bhu92rcd13ifvqi70","pricing_plan_id":"cebpf4jnsgd1na2vs0mg"},{"bike_id":"f36b7ae2-2030-496c-8dc8-4dc2101ff9b9","system_id":"levelo_inurba_marseille","lat":43.2455,"lon":5.39514,"is_reserved":false,"is_disabled":false,"rental_uris":{"android":"levelo://app?vid=f36b7ae2-2030-496c-8dc8-4dc2101ff9b9","ios":"levelo://app?vid=f36b7ae2-2030-496c-8dc8-4dc2101ff9b9"},"vehicle_type_id":"4","last_reported":1768272717,"current_range_meters":8000,"station_id":"ce4bhlp2rcd13ifvqgjg","pricing_plan_id":"cebpf4jnsgd1na2vs0mg"},{"bike_id":"c982d76b-7fd6-451c-9063-ebda7a233a9e","system_id":"levelo_inurba_marseille","lat":43.26939,"lon":5.40266,"is_reserved":false,"is_disabled":false,"rental_uris":{"android":"levelo://app?vid=c982d76b-7fd6-451c-9063-ebda7a233a9e","ios":"levelo://app?vid=c982d76b-7fd6-451c-9063-ebda7a233a9e"},"vehicle_type_id":"4","last_reported":1768272717,"current_range_meters":8000,"station_id":"cjm6bp8fraef2m0cb0m0","pricing_plan_id":"cebpf4jnsgd1na2vs0mg"},{"bike_id":"98381cda-b3a9-4a41-913e-3012641b7216","system_id":"levelo_inurba_marseille","lat":43.29831,"lon":5.37655,"is_reserved":false,"is_disabled":false,"rental_uris":{"android":"levelo://app?vid=98381cda-b3a9-4a41-913e-3012641b7216","ios":"levelo://app?vid=98381cda-b3a9-4a41-913e-3012641b7216"},"vehicle_type_id":"4","last_reported":1768272717,"current_range_meters":8000,"station_id":"","pricing_plan_id":"cebpf4jnsgd1na2vs0mg"},{"bike_id":"84691fb4-70bf-46e9-8813-b4dc41ca24a9","system_id":"levelo_inurba_marseille","lat":43.295349,"lon":5.385402,"is_reserved":false,"is_disabled":false,"rental_uris":{"android":"levelo://app?vid=84691fb4-70bf-46e9-8813-b4dc41ca24a9","ios":"levelo://app?vid=84691fb4-70bf-46e9-8813-b4dc41ca24a9"},"vehicle_type_id":"4","last_reported":1768272717,"current_range_meters":8000,"station_id":"ce4bgih2rcd13ifvqba0","pricing_plan_id":"cebpf4jnsgd1na2vs0mg"},{"bike_id":"f72a0330-2774-442c-a3bd-2da9f092a731","system_id":"levelo_inurba_marseille","lat":43.32365,"lon":5.36757,"is_reserved":false,"is_disabled":false,"rental_uris":{"android":"levelo://app?vid=f72a0330-2774-442c-a3bd-2da9f092a731","ios":"levelo://app?vid=f72a0330-2774-442c-a3bd-2da9f092a731"},"vehicle_type_id":"4","last_reported":1768272717,"current_range_meters":8000,"station_id":"ce4bhsh2rcd13ifvqi2g","pricing_plan_id":"cebpf4jnsgd1na2vs0mg"},{"bike_id":"a9418b74-9322-477b-8429-064391c7246b","system_id":"levelo_inurba_marseille","lat":43.31251,"lon":5.40197,"is_reserved":false,"is_disabled":false,"rental_uris":{"android":"levelo://app?vid=a9418b74-9322-477b-8429-064391c7246b","ios":"levelo://app?vid=a9418b74-9322-477b-8429-064391c7246b"},"vehicle_type_id":"4","last_reported":1768272717,"current_range_meters":8000,"station_id":"ce4bh092rcd13ifvqd30","pricing_plan_id":"cebpf4jnsgd1na2vs0mg"},{"bike_id":"af0b862d-1b21-408c-b115-209a492a88a8","system_id":"levelo_inurba_marseille","lat":43.32363,"lon":5.36738,"is_reserved":false,"is_disabled":false,"rental_uris":{"android":"levelo://app?vid=af0b862d-1b21-408c-b115-209a492a88a8","ios":"levelo://app?vid=af0b862d-1b21-408c-b115-209a492a88a8"},"vehicle_type_id":"4","last_reported":1768272717,"current_range_meters":8400,"station_id":"ce4bhsh2rcd13ifvqi2g","pricing_plan_id":"cebpf4jnsgd1na2vs0mg"},{"bike_id":"00d16bfc-9775-4fa3-8546-0643a2a32193","system_id":"levelo_inurba_marseille","lat":43.25345,"lon":5.42163,"is_reserved":false,"is_disabled":false,"rental_uris":{"android":"levelo://app?vid=00d16bfc-9775-4fa3-8546-0643a2a32193","ios":"levelo://app?vid=00d16bfc-9775-4fa3-8546-0643a2a32193"},"vehicle_type_id":"4","last_reported":1768272717,"current_range_meters":8400,"station_id":"st_d2m65c5bi1j21697t3ng","pricing_plan_id":"cebpf4jnsgd1na2vs0mg"},{"bike_id":"6846db8e-90fb-4e30-93fa-8789900d77b9","system_id":"levelo_inurba_marseille","lat":43.25919,"lon":5.40881,"is_reserved":false,"is_disabled":false,"rental_uris":{"android":"levelo://app?vid=6846db8e-90fb-4e30-93fa-8789900d77b9","ios":"levelo://app?vid=6846db8e-90fb-4e30-93fa-8789900d77b9"},"vehicle_type_id":"4","last_reported":1768272717,"current_range_meters":8400,"station_id":"ce4bhm92rcd13ifvqglg","pricing_plan_id":"cebpf4jnsgd1na2vs0mg"},{"bike_id":"bf7eb17f-e033-4dd4-b291-6a38c091e73e","system_id":"levelo_inurba_marseille","lat":43.28786,"lon":5.35884,"is_reserved":false,"is_disabled":false,"rental_uris":{"android":"levelo://app?vid=bf7eb17f-e033-4dd4-b291-6a38c091e73e","ios":"levelo://app?vid=bf7eb17f-e033-4dd4-b291-6a38c091e73e"},"vehicle_type_id":"4","last_reported":1768272717,"current_range_meters":8400,"station_id":"ce4bhb12rcd13ifvqem0","pricing_plan_id":"cebpf4jnsgd1na2vs0mg"},{"bike_id":"d3d19adc-b45e-4447-85e5-f8c0941e5b6e","system_id":"levelo_inurba_marseille","lat":43.282097,"lon":5.390547,"is_reserved":false,"is_disabled":false,"rental_uris":{"android":"levelo://app?vid=d3d19adc-b45e-4447-85e5-f8c0941e5b6e","ios":"levelo://app?vid=d3d19adc-b45e-4447-85e5-f8c0941e5b6e"},"vehicle_type_id":"4","last_reported":1768272717,"current_range_meters":8400,"station_id":"ce4bhn92rcd13ifvqgsg","pricing_plan_id":"cebpf4jnsgd1na2vs0mg"},{"bike_id":"50df1513-8882-4403-8f50-7facfcd0de34","system_id":"levelo_inurba_marseille","lat":43.24163,"lon":5.36404,"is_reserved":false,"is_disabled":false,"rental_uris":{"android":"levelo://app?vid=50df1513-8882-4403-8f50-7facfcd0de34","ios":"levelo://app?vid=50df1513-8882-4403-8f50-7facfcd0de34"},"vehicle_type_id":"4","last_reported":1768272717,"current_range_meters":8400,"station_id":"cpo36qri1sfpv3e86is0","pricing_plan_id":"cebpf4jnsgd1na2vs0mg"},{"bike_id":"ae5ab41f-85c7-457c-9c88-c663abc209c5","system_id":"levelo_inurba_marseille","lat":43.2887,"lon":5.39363,"is_reserved":false,"is_disabled":false,"rental_uris":{"android":"levelo://app?vid=ae5ab41f-85c7-457c-9c88-c663abc209c5","ios":"levelo://app?vid=ae5ab41f-85c7-457c-9c88-c663abc209c5"},"vehicle_type_id":"4","last_reported":1768272717,"current_range_meters":8400,"station_id":"ce4bh2p2rcd13ifvqdi0","pricing_plan_id":"cebpf4jnsgd1na2vs0mg"},{"bike_id":"dc2113b1-2f8d-4c2f-ab99-e0406a41f773","system_id":"levelo_inurba_marseille","lat":43.24799,"lon":5.37475,"is_reserved":false,"is_disabled":false,"rental_uris":{"android":"levelo://app?vid=dc2113b1-2f8d-4c2f-ab99-e0406a41f773","ios":"levelo://app?vid=dc2113b1-2f8d-4c2f-ab99-e0406a41f773"},"vehicle_type_id":"4","last_reported":1768272717,"current_range_meters":8400,"station_id":"ce4bhgh2rcd13ifvqfb0","pricing_plan_id":"cebpf4jnsgd1na2vs0mg"},{"bike_id":"ded514cb-f8da-4dd8-96ba-183321bbe975","system_id":"levelo_inurba_marseille","lat":43.27839,"lon":5.392075,"is_reserved":false,"is_disabled":false,"rental_uris":{"android":"levelo://app?vid=ded514cb-f8da-4dd8-96ba-183321bbe975","ios":"levelo://app?vid=ded514cb-f8da-4dd8-96ba-183321bbe975"},"vehicle_type_id":"4","last_reported":1768272717,"current_range_meters":8400,"station_id":"ce4bhjp2rcd13ifvqga0","pricing_plan_id":"cebpf4jnsgd1na2vs0mg"},{"bike_id":"29b1656a-cfc4-41bd-94a0-2dce72db0285","system_id":"levelo_inurba_marseille","lat":43.31412,"lon":5.38493,"is_reserved":false,"is_disabled":false,"rental_uris":{"android":"levelo://app?vid=29b1656a-cfc4-41bd-94a0-2dce72db0285","ios":"levelo://app?vid=29b1656a-cfc4-41bd-94a0-2dce72db0285"},"vehicle_type_id":"4","last_reported":1768272717,"current_range_meters":8400,"station_id":"","pricing_plan_id":"cebpf4jnsgd1na2vs0mg"},{"bike_id":"d21624bd-c474-47d2-a770-cf5d5a2cb126","system_id":"levelo_inurba_marseille","lat":43.24473,"lon":5.42543,"is_reserved":false,"is_disabled":false,"rental_uris":{"android":"levelo://app?vid=d21624bd-c474-47d2-a770-cf5d5a2cb126","ios":"levelo://app?vid=d21624bd-c474-47d2-a770-cf5d5a2cb126"},"vehicle_type_id":"4","last_reported":1768272717,"current_range_meters":8400,"station_id":"st_d4a3vfp97mjs738cd8kg","pricing_plan_id":"cebpf4jnsgd1na2vs0mg"},{"bike_id":"0d6ce8d3-c7df-42f1-9a86-ed0f9419410a","system_id":"levelo_inurba_marseille","lat":43.27926,"lon":5.3958,"is_reserved":false,"is_disabled":false,"rental_uris":{"android":"levelo://app?vid=0d6ce8d3-c7df-42f1-9a86-ed0f9419410a","ios":"levelo://app?vid=0d6ce8d3-c7df-42f1-9a86-ed0f9419410a"},"vehicle_type_id":"4","last_reported":1768272717,"current_range_meters":8400,"station_id":"ce4bhf92rcd13ifvqf40","pricing_plan_id":"cebpf4jnsgd1na2vs0mg"},{"bike_id":"cb7933d8-d861-42e2-9166-370355de4b93","system_id":"levelo_inurba_marseille","lat":43.25719,"lon":5.4111,"is_reserved":false,"is_disabled":false,"rental_uris":{"android":"levelo://app?vid=cb7933d8-d861-42e2-9166-370355de4b93","ios":"levelo://app?vid=cb7933d8-d861-42e2-9166-370355de4b93"},"vehicle_type_id":"4","last_reported":1768272717,"current_range_meters":8400,"station_id":"ce4bhkp2rcd13ifvqgd0","pricing_plan_id":"cebpf4jnsgd1na2vs0mg"},{"bike_id":"40a5f518-4ec1-4f9c-ada8-7bc0d6856aa5","system_id":"levelo_inurba_marseille","lat":43.24171,"lon":5.36398,"is_reserved":false,"is_disabled":false,"rental_uris":{"android":"levelo://app?vid=40a5f518-4ec1-4f9c-ada8-7bc0d6856aa5","ios":"levelo://app?vid=40a5f518-4ec1-4f9c-ada8-7bc0d6856aa5"},"vehicle_type_id":"4","last_reported":1768272717,"current_range_meters":8400,"station_id":"cpo36qri1sfpv3e86is0","pricing_plan_id":"cebpf4jnsgd1na2vs0mg"},{"bike_id":"c5a7a59f-31c6-43a5-a0bc-5cfbe9aff231","system_id":"levelo_inurba_marseille","lat":43.240788,"lon":5.37767,"is_reserved":false,"is_disabled":false,"rental_uris":{"android":"levelo://app?vid=c5a7a59f-31c6-43a5-a0bc-5cfbe9aff231","ios":"levelo://app?vid=c5a7a59f-31c6-43a5-a0bc-5cfbe9aff231"},"vehicle_type_id":"4","last_reported":1768272717,"current_range_meters":8400,"station_id":"ce4bhnp2rcd13ifvqgvg","pricing_plan_id":"cebpf4jnsgd1na2vs0mg"},{"bike_id":"38b438f4-46fe-42dc-8a68-9107ea5ad058","system_id":"levelo_inurba_marseille","lat":43.292552,"lon":5.409078,"is_reserved":false,"is_disabled":false,"rental_uris":{"android":"levelo://app?vid=38b438f4-46fe-42dc-8a68-9107ea5ad058","ios":"levelo://app?vid=38b438f4-46fe-42dc-8a68-9107ea5ad058"},"vehicle_type_id":"4","last_reported":1768272717,"current_range_meters":8400,"station_id":"ce4bh192rcd13ifvqdc0","pricing_plan_id":"cebpf4jnsgd1na2vs0mg"},{"bike_id":"ad4f3498-acf6-4b3e-97fe-f0441404f1d9","system_id":"levelo_inurba_marseille","lat":43.27834,"lon":5.392,"is_reserved":false,"is_disabled":false,"rental_uris":{"android":"levelo://app?vid=ad4f3498-acf6-4b3e-97fe-f0441404f1d9","ios":"levelo://app?vid=ad4f3498-acf6-4b3e-97fe-f0441404f1d9"},"vehicle_type_id":"4","last_reported":1768272717,"current_range_meters":8400,"station_id":"ce4bhjp2rcd13ifvqga0","pricing_plan_id":"cebpf4jnsgd1na2vs0mg"},{"bike_id":"54e3878d-bcb6-4cc9-8446-e62a75e67dcb","system_id":"levelo_inurba_marseille","lat":43.23182,"lon":5.39971,"is_reserved":false,"is_disabled":false,"rental_uris":{"android":"levelo://app?vid=54e3878d-bcb6-4cc9-8446-e62a75e67dcb","ios":"levelo://app?vid=54e3878d-bcb6-4cc9-8446-e62a75e67dcb"},"vehicle_type_id":"4","last_reported":1768272717,"current_range_meters":8400,"station_id":"ce4bhn12rcd13ifvqgqg","pricing_plan_id":"cebpf4jnsgd1na2vs0mg"},{"bike_id":"a9b85f8e-ceb6-4095-87f5-8a21bb1df22a","system_id":"levelo_inurba_marseille","lat":43.264877,"lon":5.395429,"is_reserved":false,"is_disabled":false,"rental_uris":{"android":"levelo://app?vid=a9b85f8e-ceb6-4095-87f5-8a21bb1df22a","ios":"levelo://app?vid=a9b85f8e-ceb6-4095-87f5-8a21bb1df22a"},"vehicle_type_id":"4","last_reported":1768272717,"current_range_meters":8400,"station_id":"ce4bhi12rcd13ifvqfq0","pricing_plan_id":"cebpf4jnsgd1na2vs0mg"},{"bike_id":"c07b2509-7bf4-4660-ac84-a23bb9f415fc","system_id":"levelo_inurba_marseille","lat":43.31116,"lon":5.3777,"is_reserved":false,"is_disabled":false,"rental_uris":{"android":"levelo://app?vid=c07b2509-7bf4-4660-ac84-a23bb9f415fc","ios":"levelo://app?vid=c07b2509-7bf4-4660-ac84-a23bb9f415fc"},"vehicle_type_id":"4","last_reported":1768272717,"current_range_meters":8400,"station_id":"ce4bgt92rcd13ifvqcg0","pricing_plan_id":"cebpf4jnsgd1na2vs0mg"},{"bike_id":"573219be-8449-4b0b-914b-5825e3035243","system_id":"levelo_inurba_marseille","lat":43.23191,"lon":5.35549,"is_reserved":false,"is_disabled":false,"rental_uris":{"android":"levelo://app?vid=573219be-8449-4b0b-914b-5825e3035243","ios":"levelo://app?vid=573219be-8449-4b0b-914b-5825e3035243"},"vehicle_type_id":"4","last_reported":1768272717,"current_range_meters":8400,"station_id":"ce4bhu92rcd13ifvqi70","pricing_plan_id":"cebpf4jnsgd1na2vs0mg"},{"bike_id":"370e2e9a-fd2e-429e-9ffb-8038aba29ce3","system_id":"levelo_inurba_marseille","lat":43.313246,"lon":5.397088,"is_reserved":false,"is_disabled":false,"rental_uris":{"android":"levelo://app?vid=370e2e9a-fd2e-429e-9ffb-8038aba29ce3","ios":"levelo://app?vid=370e2e9a-fd2e-429e-9ffb-8038aba29ce3"},"vehicle_type_id":"4","last_reported":1768272717,"current_range_meters":8800,"station_id":"ce4bgvp2rcd13ifvqcu0","pricing_plan_id":"cebpf4jnsgd1na2vs0mg"},{"bike_id":"5f8fee54-d2a5-449a-bb41-fb1b767b5315","system_id":"levelo_inurba_marseille","lat":43.26544,"lon":5.37279,"is_reserved":false,"is_disabled":false,"rental_uris":{"android":"levelo://app?vid=5f8fee54-d2a5-449a-bb41-fb1b767b5315","ios":"levelo://app?vid=5f8fee54-d2a5-449a-bb41-fb1b767b5315"},"vehicle_type_id":"4","last_reported":1768272717,"current_range_meters":8800,"station_id":"ce4bhg12rcd13ifvqf70","pricing_plan_id":"cebpf4jnsgd1na2vs0mg"},{"bike_id":"dfd9537f-7c3c-4e2a-9175-f512c9b451eb","system_id":"levelo_inurba_marseille","lat":43.31181,"lon":5.38716,"is_reserved":false,"is_disabled":false,"rental_uris":{"android":"levelo://app?vid=dfd9537f-7c3c-4e2a-9175-f512c9b451eb","ios":"levelo://app?vid=dfd9537f-7c3c-4e2a-9175-f512c9b451eb"},"vehicle_type_id":"4","last_reported":1768272717,"current_range_meters":8800,"station_id":"ce4bgv12rcd13ifvqcp0","pricing_plan_id":"cebpf4jnsgd1na2vs0mg"},{"bike_id":"d06fb8ff-b65e-46fe-ba3f-114fbfe14af3","system_id":"levelo_inurba_marseille","lat":43.26694,"lon":5.39943,"is_reserved":false,"is_disabled":false,"rental_uris":{"android":"levelo://app?vid=d06fb8ff-b65e-46fe-ba3f-114fbfe14af3","ios":"levelo://app?vid=d06fb8ff-b65e-46fe-ba3f-114fbfe14af3"},"vehicle_type_id":"4","last_reported":1768272717,"current_range_meters":8800,"station_id":"","pricing_plan_id":"cebpf4jnsgd1na2vs0mg"},{"bike_id":"4c9ec99c-df7c-41bf-8b16-07391af7868c","system_id":"levelo_inurba_marseille","lat":43.26943,"lon":5.38645,"is_reserved":false,"is_disabled":false,"rental_uris":{"android":"levelo://app?vid=4c9ec99c-df7c-41bf-8b16-07391af7868c","ios":"levelo://app?vid=4c9ec99c-df7c-41bf-8b16-07391af7868c"},"vehicle_type_id":"4","last_reported":1768272717,"current_range_meters":8800,"station_id":"ce4bhh92rcd13ifvqfh0","pricing_plan_id":"cebpf4jnsgd1na2vs0mg"},{"bike_id":"51e89195-8b4b-4f5e-a89d-fb7217b1f1c1","system_id":"levelo_inurba_marseille","lat":43.30527,"lon":5.38394,"is_reserved":false,"is_disabled":false,"rental_uris":{"android":"levelo://app?vid=51e89195-8b4b-4f5e-a89d-fb7217b1f1c1","ios":"levelo://app?vid=51e89195-8b4b-4f5e-a89d-fb7217b1f1c1"},"vehicle_type_id":"4","last_reported":1768272717,"current_range_meters":8800,"station_id":"ce4bgg92rcd13ifvqb30","pricing_plan_id":"cebpf4jnsgd1na2vs0mg"},{"bike_id":"9b1adbdc-a09f-4c2c-967f-18b3146ce981","system_id":"levelo_inurba_marseille","lat":43.27614,"lon":5.36112,"is_reserved":false,"is_disabled":false,"rental_uris":{"android":"levelo://app?vid=9b1adbdc-a09f-4c2c-967f-18b3146ce981","ios":"levelo://app?vid=9b1adbdc-a09f-4c2c-967f-18b3146ce981"},"vehicle_type_id":"4","last_reported":1768272717,"current_range_meters":8800,"station_id":"ce4bgj92rcd13ifvqbe0","pricing_plan_id":"cebpf4jnsgd1na2vs0mg"},{"bike_id":"f7d36b9d-bf7c-43f6-b8d1-8e54d4f4e01e","system_id":"levelo_inurba_marseille","lat":43.315151,"lon":5.380328,"is_reserved":false,"is_disabled":false,"rental_uris":{"android":"levelo://app?vid=f7d36b9d-bf7c-43f6-b8d1-8e54d4f4e01e","ios":"levelo://app?vid=f7d36b9d-bf7c-43f6-b8d1-8e54d4f4e01e"},"vehicle_type_id":"4","last_reported":1768272717,"current_range_meters":8800,"station_id":"ce4bghh2rcd13ifvqb60","pricing_plan_id":"cebpf4jnsgd1na2vs0mg"},{"bike_id":"88de65bc-f1ab-4009-9187-4c5979b992e7","system_id":"levelo_inurba_marseille","lat":43.29041,"lon":5.38996,"is_reserved":false,"is_disabled":false,"rental_uris":{"android":"levelo://app?vid=88de65bc-f1ab-4009-9187-4c5979b992e7","ios":"levelo://app?vid=88de65bc-f1ab-4009-9187-4c5979b992e7"},"vehicle_type_id":"4","last_reported":1768272717,"current_range_meters":8800,"station_id":"","pricing_plan_id":"cebpf4jnsgd1na2vs0mg"},{"bike_id":"b088ad58-7f41-4ab8-80da-21ba2cb9e467","system_id":"levelo_inurba_marseille","lat":43.2255,"lon":5.41627,"is_reserved":false,"is_disabled":false,"rental_uris":{"android":"levelo://app?vid=b088ad58-7f41-4ab8-80da-21ba2cb9e467","ios":"levelo://app?vid=b088ad58-7f41-4ab8-80da-21ba2cb9e467"},"vehicle_type_id":"4","last_reported":1768272717,"current_range_meters":8800,"station_id":"st_d2o4gvlbi1j2169b742g","pricing_plan_id":"cebpf4jnsgd1na2vs0mg"},{"bike_id":"b504ef34-c6d7-4334-b53f-bf4ef4ea41bc","system_id":"levelo_inurba_marseille","lat":43.2378,"lon":5.36629,"is_reserved":false,"is_disabled":false,"rental_uris":{"android":"levelo://app?vid=b504ef34-c6d7-4334-b53f-bf4ef4ea41bc","ios":"levelo://app?vid=b504ef34-c6d7-4334-b53f-bf4ef4ea41bc"},"vehicle_type_id":"4","last_reported":1768272717,"current_range_meters":8800,"station_id":"st_d3nk18o9ro0c73en2l3g","pricing_plan_id":"cebpf4jnsgd1na2vs0mg"},{"bike_id":"e171e7e2-3bd5-4df8-ba94-8c663077fc99","system_id":"levelo_inurba_marseille","lat":43.32521,"lon":5.36877,"is_reserved":false,"is_disabled":false,"rental_uris":{"android":"levelo://app?vid=e171e7e2-3bd5-4df8-ba94-8c663077fc99","ios":"levelo://app?vid=e171e7e2-3bd5-4df8-ba94-8c663077fc99"},"vehicle_type_id":"4","last_reported":1768272717,"current_range_meters":8800,"station_id":"","pricing_plan_id":"cebpf4jnsgd1na2vs0mg"},{"bike_id":"a5e4775c-fe09-4d93-916a-5022170bcc25","system_id":"levelo_inurba_marseille","lat":43.24164,"lon":5.36399,"is_reserved":false,"is_disabled":false,"rental_uris":{"android":"levelo://app?vid=a5e4775c-fe09-4d93-916a-5022170bcc25","ios":"levelo://app?vid=a5e4775c-fe09-4d93-916a-5022170bcc25"},"vehicle_type_id":"4","last_reported":1768272717,"current_range_meters":8800,"station_id":"cpo36qri1sfpv3e86is0","pricing_plan_id":"cebpf4jnsgd1na2vs0mg"},{"bike_id":"94d55ad1-df2a-4464-8082-c30dde836fb0","system_id":"levelo_inurba_marseille","lat":43.237773,"lon":5.366308,"is_reserved":false,"is_disabled":false,"rental_uris":{"android":"levelo://app?vid=94d55ad1-df2a-4464-8082-c30dde836fb0","ios":"levelo://app?vid=94d55ad1-df2a-4464-8082-c30dde836fb0"},"vehicle_type_id":"4","last_reported":1768272717,"current_range_meters":8800,"station_id":"st_d3nk18o9ro0c73en2l3g","pricing_plan_id":"cebpf4jnsgd1na2vs0mg"},{"bike_id":"99b93979-92e5-446d-b4df-9823566bc6be","system_id":"levelo_inurba_marseille","lat":43.28554,"lon":5.39519,"is_reserved":false,"is_disabled":false,"rental_uris":{"android":"levelo://app?vid=99b93979-92e5-446d-b4df-9823566bc6be","ios":"levelo://app?vid=99b93979-92e5-446d-b4df-9823566bc6be"},"vehicle_type_id":"4","last_reported":1768272717,"current_range_meters":8800,"station_id":"ce4bh292rcd13ifvqdg0","pricing_plan_id":"cebpf4jnsgd1na2vs0mg"},{"bike_id":"352c9ae4-be27-46f4-b169-0b6057cefca1","system_id":"levelo_inurba_marseille","lat":43.26556,"lon":5.40339,"is_reserved":false,"is_disabled":false,"rental_uris":{"android":"levelo://app?vid=352c9ae4-be27-46f4-b169-0b6057cefca1","ios":"levelo://app?vid=352c9ae4-be27-46f4-b169-0b6057cefca1"},"vehicle_type_id":"4","last_reported":1768272717,"current_range_meters":8800,"station_id":"ce4bhmp2rcd13ifvqgng","pricing_plan_id":"cebpf4jnsgd1na2vs0mg"},{"bike_id":"6ad2ac5d-0d69-4ff0-8680-3b5339e0db0c","system_id":"levelo_inurba_marseille","lat":43.26696,"lon":5.3827,"is_reserved":false,"is_disabled":true,"rental_uris":{"android":"levelo://app?vid=6ad2ac5d-0d69-4ff0-8680-3b5339e0db0c","ios":"levelo://app?vid=6ad2ac5d-0d69-4ff0-8680-3b5339e0db0c"},"vehicle_type_id":"4","last_reported":1768272717,"current_range_meters":9200,"station_id":"ce4bhg92rcd13ifvqf90","pricing_plan_id":"cebpf4jnsgd1na2vs0mg"},{"bike_id":"dda038f7-07c0-4d6c-8466-8d667f6d8821","system_id":"levelo_inurba_marseille","lat":43.248135,"lon":5.374613,"is_reserved":false,"is_disabled":false,"rental_uris":{"android":"levelo://app?vid=dda038f7-07c0-4d6c-8466-8d667f6d8821","ios":"levelo://app?vid=dda038f7-07c0-4d6c-8466-8d667f6d8821"},"vehicle_type_id":"4","last_reported":1768272717,"current_range_meters":9200,"station_id":"ce4bhgh2rcd13ifvqfb0","pricing_plan_id":"cebpf4jnsgd1na2vs0mg"},{"bike_id":"459ceeec-6531-408e-af1d-7d8585dacaef","system_id":"levelo_inurba_marseille","lat":43.255104,"lon":5.376453,"is_reserved":false,"is_disabled":false,"rental_uris":{"android":"levelo://app?vid=459ceeec-6531-408e-af1d-7d8585dacaef","ios":"levelo://app?vid=459ceeec-6531-408e-af1d-7d8585dacaef"},"vehicle_type_id":"4","last_reported":1768272717,"current_range_meters":9200,"station_id":"ce4bhh12rcd13ifvqff0","pricing_plan_id":"cebpf4jnsgd1na2vs0mg"},{"bike_id":"dc2e72fe-caf4-4d2f-991e-42441efcbc35","system_id":"levelo_inurba_marseille","lat":43.24471,"lon":5.42538,"is_reserved":false,"is_disabled":false,"rental_uris":{"android":"levelo://app?vid=dc2e72fe-caf4-4d2f-991e-42441efcbc35","ios":"levelo://app?vid=dc2e72fe-caf4-4d2f-991e-42441efcbc35"},"vehicle_type_id":"4","last_reported":1768272717,"current_range_meters":9200,"station_id":"st_d4a3vfp97mjs738cd8kg","pricing_plan_id":"cebpf4jnsgd1na2vs0mg"},{"bike_id":"3fc2f826-122c-439d-8604-0275eee5b8bf","system_id":"levelo_inurba_marseille","lat":43.31273,"lon":5.4018,"is_reserved":false,"is_disabled":false,"rental_uris":{"android":"levelo://app?vid=3fc2f826-122c-439d-8604-0275eee5b8bf","ios":"levelo://app?vid=3fc2f826-122c-439d-8604-0275eee5b8bf"},"vehicle_type_id":"4","last_reported":1768272717,"current_range_meters":9200,"station_id":"ce4bh092rcd13ifvqd30","pricing_plan_id":"cebpf4jnsgd1na2vs0mg"},{"bike_id":"99475782-9f22-4001-a2ed-de835e3c7087","system_id":"levelo_inurba_marseille","lat":43.292587,"lon":5.409115,"is_reserved":false,"is_disabled":true,"rental_uris":{"android":"levelo://app?vid=99475782-9f22-4001-a2ed-de835e3c7087","ios":"levelo://app?vid=99475782-9f22-4001-a2ed-de835e3c7087"},"vehicle_type_id":"4","last_reported":1768272717,"current_range_meters":9200,"station_id":"ce4bh192rcd13ifvqdc0","pricing_plan_id":"cebpf4jnsgd1na2vs0mg"},{"bike_id":"8125e88c-461b-4905-b86d-3923932af4fb","system_id":"levelo_inurba_marseille","lat":43.27999,"lon":5.40015,"is_reserved":false,"is_disabled":false,"rental_uris":{"android":"levelo://app?vid=8125e88c-461b-4905-b86d-3923932af4fb","ios":"levelo://app?vid=8125e88c-461b-4905-b86d-3923932af4fb"},"vehicle_type_id":"4","last_reported":1768272717,"current_range_meters":9200,"station_id":"ce4bho92rcd13ifvqh4g","pricing_plan_id":"cebpf4jnsgd1na2vs0mg"},{"bike_id":"d1c5b49a-4fa1-4e78-bac4-444e2e35828b","system_id":"levelo_inurba_marseille","lat":43.30381,"lon":5.42496,"is_reserved":false,"is_disabled":false,"rental_uris":{"android":"levelo://app?vid=d1c5b49a-4fa1-4e78-bac4-444e2e35828b","ios":"levelo://app?vid=d1c5b49a-4fa1-4e78-bac4-444e2e35828b"},"vehicle_type_id":"4","last_reported":1768272717,"current_range_meters":9200,"station_id":"ce4bhoh2rcd13ifvqh6g","pricing_plan_id":"cebpf4jnsgd1na2vs0mg"},{"bike_id":"1a410dc3-ec66-418e-b61d-e6ababbd00ea","system_id":"levelo_inurba_marseille","lat":43.25514,"lon":5.37659,"is_reserved":false,"is_disabled":false,"rental_uris":{"android":"levelo://app?vid=1a410dc3-ec66-418e-b61d-e6ababbd00ea","ios":"levelo://app?vid=1a410dc3-ec66-418e-b61d-e6ababbd00ea"},"vehicle_type_id":"4","last_reported":1768272717,"current_range_meters":9200,"station_id":"ce4bhh12rcd13ifvqff0","pricing_plan_id":"cebpf4jnsgd1na2vs0mg"},{"bike_id":"dbca4029-d08e-4725-b682-eaca4b614f30","system_id":"levelo_inurba_marseille","lat":43.3235,"lon":5.36761,"is_reserved":false,"is_disabled":false,"rental_uris":{"android":"levelo://app?vid=dbca4029-d08e-4725-b682-eaca4b614f30","ios":"levelo://app?vid=dbca4029-d08e-4725-b682-eaca4b614f30"},"vehicle_type_id":"4","last_reported":1768272717,"current_range_meters":9200,"station_id":"ce4bhsh2rcd13ifvqi2g","pricing_plan_id":"cebpf4jnsgd1na2vs0mg"},{"bike_id":"091e6954-b559-4456-982e-b3a574d25621","system_id":"levelo_inurba_marseille","lat":43.29162,"lon":5.37154,"is_reserved":false,"is_disabled":false,"rental_uris":{"android":"levelo://app?vid=091e6954-b559-4456-982e-b3a574d25621","ios":"levelo://app?vid=091e6954-b559-4456-982e-b3a574d25621"},