{"last_updated":1700762927,"ttl":30,"version":"2.2","data":{"bikes":[{"bike_id":"6c55c867-4620-4e4c-8cd9-7cb2b197e3bb","system_id":"levelo_inurba_marseille","lat":43.314811,"lon":5.373103,"is_reserved":false,"is_disabled":false,"rental_uris":{"android":"levelo://app?vid=6c55c867-4620-4e4c-8cd9-7cb2b197e3bb","ios":"levelo://app?vid=6c55c867-4620-4e4c-8cd9-7cb2b197e3bb"},"vehicle_type_id":"4","last_reported":1700762927,"current_range_meters":4800,"station_id":"ce4bgt12rcd13ifvqcd0","pricing_plan_id":"free"},{"bike_id":"acf2e61c-da7a-4535-afce-6dae5cd5d176","system_id":"levelo_inurba_marseille","lat":43.3082,"lon":5.37647,"is_reserved":false,"is_disabled":false,"rental_uris":{"android":"levelo://app?vid=acf2e61c-da7a-4535-afce-6dae5cd5d176","ios":"levelo://app?vid=acf2e61c-da7a-4535-afce-6dae5cd5d176"},"vehicle_type_id":"4","last_reported":1700762927,"current_range_meters":6800,"station_id":"ce4bgv92rcd13ifvqcq0","pricing_plan_id":"free"},{"bike_id":"cb831096-b78a-4b81-9642-df22882295e9","system_id":"levelo_inurba_marseille","lat":43.308189,"lon":5.376513,"is_reserved":false,"is_disabled":false,"rental_uris":{"android":"levelo://app?vid=cb831096-b78a-4b81-9642-df22882295e9","ios":"levelo://app?vid=cb831096-b78a-4b81-9642-df22882295e9"},"vehicle_type_id":"4","last_reported":1700762927,"current_range_meters":20000,"station_id":"ce4bgv92rcd13ifvqcq0","pricing_plan_id":"free"},{"bike_id":"6fcce630-29c2-4b73-bc36-8c2607fc088a","system_id":"levelo_inurba_marseille","lat":43.307945,"lon":5.376487,"is_reserved":false,"is_disabled":false,"rental_uris":{"android":"levelo://app?vid=6fcce630-29c2-4b73-bc36-8c2607fc088a","ios":"levelo://app?vid=6fcce630-29c2-4b73-bc36-8c2607fc088a"},"vehicle_type_id":"4","last_reported":1700762927,"current_range_meters":21600,"station_id":"ce4bgv92rcd13ifvqcq0","pricing_plan_id":"free"},{"bike_id":"de532231-e6fe-4e4d-a9ff-8e37f7899b24","system_id":"levelo_inurba_marseille","lat":43.317075,"lon":5.377367,"is_reserved":false,"is_disabled":false,"rental_uris":{"android":"levelo://app?vid=de532231-e6fe-4e4d-a9ff-8e37f7899b24","ios":"levelo://app?vid=de532231-e6fe-4e4d-a9ff-8e37f7899b24"},"vehicle_type_id":"4","last_reported":1700762927,"current_range_meters":0,"station_id":"ce4bgth2rcd13ifvqch0","pricing_plan_id":"free"},{"bike_id":"6688d18a-76b3-4d1f-a5d7-ff5674d61b67","system_id":"levelo_inurba_marseille","lat":43.303195,"lon":5.366405,"is_reserved":false,"is_disabled":false,"rental_uris":{"android":"levelo://app?vid=6688d18a-76b3-4d1f-a5d7-ff5674d61b67","ios":"levelo://app?vid=6688d18a-76b3-4d1f-a5d7-ff5674d61b67"},"vehicle_type_id":"4","last_reported":1700762927,"current_range_meters":0,"station_id":"","pricing_plan_id":"free"},{"bike_id":"0327687b-f51e-4077-bf49-2ec73a6de092","system_id":"levelo_inurba_marseille","lat":43.322255,"lon":5.375597,"is_reserved":false,"is_disabled":false,"rental_uris":{"android":"levelo://app?vid=0327687b-f51e-4077-bf49-2ec73a6de092","ios":"levelo://app?vid=0327687b-f51e-4077-bf49-2ec73a6de092"},"vehicle_type_id":"4","last_reported":1700762927,"current_range_meters":11200,"station_id":"","pricing_plan_id":"free"},{"bike_id":"fcc7f0fe-6f09-466d-8d83-6515b572fe07","system_id":"levelo_inurba_marseille","lat":43.308012,"lon":5.381511,"is_reserved":false,"is_disabled":false,"rental_uris":{"android":"levelo://app?vid=fcc7f0fe-6f09-466d-8d83-6515b572fe07","ios":"levelo://app?vid=fcc7f0fe-6f09-466d-8d83-6515b572fe07"},"vehicle_type_id":"4","last_reported":1700762927,"current_range_meters":0,"station_id":"ce4bgt12rcd13ifvqce0","pricing_plan_id":"free"},{"bike_id":"c8eafb20-185f-456a-94d8-d3347bfe44aa","system_id":"levelo_inurba_marseille","lat":43.30459,"lon":5.37908,"is_reserved":false,"is_disabled":false,"rental_uris":{"android":"levelo://app?vid=c8eafb20-185f-456a-94d8-d3347bfe44aa","ios":"levelo://app?vid=c8eafb20-185f-456a-94d8-d3347bfe44aa"},"vehicle_type_id":"4","last_reported":1700762927,"current_range_meters":18800,"station_id":"ce4bgup2rcd13ifvqcn0","pricing_plan_id":"free"},{"bike_id":"2888839b-7fb0-4b25-8de1-151cd6fc8773","system_id":"levelo_inurba_marseille","lat":43.30143,"lon":5.37413,"is_reserved":false,"is_disabled":false,"rental_uris":{"android":"levelo://app?vid=2888839b-7fb0-4b25-8de1-151cd6fc8773","ios":"levelo://app?vid=2888839b-7fb0-4b25-8de1-151cd6fc8773"},"vehicle_type_id":"4","last_reported":1700762927,"current_range_meters":0,"station_id":"ce4bgs92rcd13ifvqcc0","pricing_plan_id":"free"},{"bike_id":"ee53e993-6574-4640-8b08-cba87bf0bac8","system_id":"levelo_inurba_marseille","lat":43.302784,"lon":5.377158,"is_reserved":false,"is_disabled":false,"rental_uris":{"android":"levelo://app?vid=ee53e993-6574-4640-8b08-cba87bf0bac8","ios":"levelo://app?vid=ee53e993-6574-4640-8b08-cba87bf0bac8"},"vehicle_type_id":"4","last_reported":1700762927,"current_range_meters":3200,"station_id":"ce4bguh2rcd13ifvqcj0","pricing_plan_id":"free"},{"bike_id":"9b3ea4d2-5552-45d6-a8fe-0138f9039a41","system_id":"levelo_inurba_marseille","lat":43.31997,"lon":5.3816,"is_reserved":false,"is_disabled":false,"rental_uris":{"android":"levelo://app?vid=9b3ea4d2-5552-45d6-a8fe-0138f9039a41","ios":"levelo://app?vid=9b3ea4d2-5552-45d6-a8fe-0138f9039a41"},"vehicle_type_id":"4","last_reported":1700762927,"current_range_meters":16800,"station_id":"ce4bhr12rcd13ifvqhpg","pricing_plan_id":"free"},{"bike_id":"e646bcb1-79a7-4ebe-a422-497b426895f3","system_id":"levelo_inurba_marseille","lat":43.3136,"lon":5.38489,"is_reserved":false,"is_disabled":false,"rental_uris":{"android":"levelo://app?vid=e646bcb1-79a7-4ebe-a422-497b426895f3","ios":"levelo://app?vid=e646bcb1-79a7-4ebe-a422-497b426895f3"},"vehicle_type_id":"4","last_reported":1700762927,"current_range_meters":16400,"station_id":"ce4bgt92rcd13ifvqcf0","pricing_plan_id":"free"},{"bike_id":"6d04b9b1-b049-48aa-ba06-d8fb637da80b","system_id":"levelo_inurba_marseille","lat":43.299724,"lon":5.371829,"is_reserved":false,"is_disabled":false,"rental_uris":{"android":"levelo://app?vid=6d04b9b1-b049-48aa-ba06-d8fb637da80b","ios":"levelo://app?vid=6d04b9b1-b049-48aa-ba06-d8fb637da80b"},"vehicle_type_id":"4","last_reported":1700762927,"current_range_meters":400,"station_id":"ce4bgr92rcd13ifvqc7g","pricing_plan_id":"free"},{"bike_id":"e834251b-eb13-4607-884c-0cf76c7202b4","system_id":"levelo_inurba_marseille","lat":43.298433,"lon":5.362774,"is_reserved":false,"is_disabled":false,"rental_uris":{"android":"levelo://app?vid=e834251b-eb13-4607-884c-0cf76c7202b4","ios":"levelo://app?vid=e834251b-eb13-4607-884c-0cf76c7202b4"},"vehicle_type_id":"4","last_reported":1700762927,"current_range_meters":24000,"station_id":"ce4bgpp2rcd13ifvqc3g","pricing_plan_id":"free"},{"bike_id":"5ad6fb52-2fb8-4164-bb97-6c0faf35e158","system_id":"levelo_inurba_marseille","lat":43.298433,"lon":5.362774,"is_reserved":false,"is_disabled":false,"rental_uris":{"android":"levelo://app?vid=5ad6fb52-2fb8-4164-bb97-6c0faf35e158","ios":"levelo://app?vid=5ad6fb52-2fb8-4164-bb97-6c0faf35e158"},"vehicle_type_id":"4","last_reported":1700762927,"current_range_meters":31200,"station_id":"ce4bgpp2rcd13ifvqc3g","pricing_plan_id":"free"},{"bike_id":"7f1357bc-e13e-4ff2-85f7-1cf18873a753","system_id":"levelo_inurba_marseille","lat":43.298433,"lon":5.362774,"is_reserved":false,"is_disabled":false,"rental_uris":{"android":"levelo://app?vid=7f1357bc-e13e-4ff2-85f7-1cf18873a753","ios":"levelo://app?vid=7f1357bc-e13e-4ff2-85f7-1cf18873a753"},"vehicle_type_id":"4","last_reported":1700762927,"current_range_meters":0,"station_id":"ce4bgpp2rcd13ifvqc3g","pricing_plan_id":"free"},{"bike_id":"cca6a99d-8ca3-4826-9957-5903d176dc86","system_id":"levelo_inurba_marseille","lat":43.322872,"lon":5.382756,"is_reserved":false,"is_disabled":false,"rental_uris":{"android":"levelo://app?vid=cca6a99d-8ca3-4826-9957-5903d176dc86","ios":"levelo://app?vid=cca6a99d-8ca3-4826-9957-5903d176dc86"},"vehicle_type_id":"4","last_reported":1700762927,"current_range_meters":13600,"station_id":"ce4bhr12rcd13ifvqhqg","pricing_plan_id":"free"},{"bike_id":"ddd3fff7-fc57-48f9-825f-f47d18d1dbee","system_id":"levelo_inurba_marseille","lat":43.32832,"lon":5.3668,"is_reserved":false,"is_disabled":false,"rental_uris":{"android":"levelo://app?vid=ddd3fff7-fc57-48f9-825f-f47d18d1dbee","ios":"levelo://app?vid=ddd3fff7-fc57-48f9-825f-f47d18d1dbee"},"vehicle_type_id":"4","last_reported":1700762927,"current_range_meters":3600,"station_id":"ce4bhs92rcd13ifvqi0g","pricing_plan_id":"free"},{"bike_id":"4d7509f5-9559-42ca-a60d-bef9e80f0981","system_id":"levelo_inurba_marseille","lat":43.299597,"lon":5.37915,"is_reserved":false,"is_disabled":false,"rental_uris":{"android":"levelo://app?vid=4d7509f5-9559-42ca-a60d-bef9e80f0981","ios":"levelo://app?vid=4d7509f5-9559-42ca-a60d-bef9e80f0981"},"vehicle_type_id":"4","last_reported":1700762927,"current_range_meters":0,"station_id":"","pricing_plan_id":"free"},{"bike_id":"22ec6679-7af6-4ebe-a07b-d546e1c5d821","system_id":"levelo_inurba_marseille","lat":43.2968,"lon":5.37291,"is_reserved":false,"is_disabled":false,"rental_uris":{"android":"levelo://app?vid=22ec6679-7af6-4ebe-a07b-d546e1c5d821","ios":"levelo://app?vid=22ec6679-7af6-4ebe-a07b-d546e1c5d821"},"vehicle_type_id":"4","last_reported":1700762927,"current_range_meters":23600,"station_id":"ce4bgk12rcd13ifvqbj0","pricing_plan_id":"free"},{"bike_id":"9b08bd7e-5fb3-4e1b-9ddf-51fe2542d627","system_id":"levelo_inurba_marseille","lat":43.29599,"lon":5.368015,"is_reserved":false,"is_disabled":false,"rental_uris":{"android":"levelo://app?vid=9b08bd7e-5fb3-4e1b-9ddf-51fe2542d627","ios":"levelo://app?vid=9b08bd7e-5fb3-4e1b-9ddf-51fe2542d627"},"vehicle_type_id":"4","last_reported":1700762927,"current_range_meters":23200,"station_id":"","pricing_plan_id":"free"},{"bike_id":"2b72d520-0cfb-45b2-9e43-f9dcb1d4b349","system_id":"levelo_inurba_marseille","lat":43.317557,"lon":5.390173,"is_reserved":false,"is_disabled":false,"rental_uris":{"android":"levelo://app?vid=2b72d520-0cfb-45b2-9e43-f9dcb1d4b349","ios":"levelo://app?vid=2b72d520-0cfb-45b2-9e43-f9dcb1d4b349"},"vehicle_type_id":"4","last_reported":1700762927,"current_range_meters":6800,"station_id":"ce4bhqp2rcd13ifvqhng","pricing_plan_id":"free"},{"bike_id":"ea080739-67fe-4b29-ad93-68fd11146174","system_id":"levelo_inurba_marseille","lat":43.317555,"lon":5.390255,"is_reserved":false,"is_disabled":false,"rental_uris":{"android":"levelo://app?vid=ea080739-67fe-4b29-ad93-68fd11146174","ios":"levelo://app?vid=ea080739-67fe-4b29-ad93-68fd11146174"},"vehicle_type_id":"4","last_reported":1700762927,"current_range_meters":0,"station_id":"ce4bhqp2rcd13ifvqhng","pricing_plan_id":"free"},{"bike_id":"61a1f0c6-6c92-4546-8ac2-405970705f14","system_id":"levelo_inurba_marseille","lat":43.299028,"lon":5.381509,"is_reserved":false,"is_disabled":false,"rental_uris":{"android":"levelo://app?vid=61a1f0c6-6c92-4546-8ac2-405970705f14","ios":"levelo://app?vid=61a1f0c6-6c92-4546-8ac2-405970705f14"},"vehicle_type_id":"4","last_reported":1700762927,"current_range_meters":17600,"station_id":"ce4bgj12rcd13ifvqbc0","pricing_plan_id":"free"},{"bike_id":"d0bf0cf6-974a-463d-9b26-f222cb98caaf","system_id":"levelo_inurba_marseille","lat":43.296263,"lon":5.377094,"is_reserved":false,"is_disabled":false,"rental_uris":{"android":"levelo://app?vid=d0bf0cf6-974a-463d-9b26-f222cb98caaf","ios":"levelo://app?vid=d0bf0cf6-974a-463d-9b26-f222cb98caaf"},"vehicle_type_id":"4","last_reported":1700762927,"current_range_meters":28000,"station_id":"ce4bgi92rcd13ifvqb90","pricing_plan_id":"free"},{"bike_id":"eb5baccf-938e-4389-b500-55a6f91ed938","system_id":"levelo_inurba_marseille","lat":43.299724,"lon":5.384848,"is_reserved":false,"is_disabled":false,"rental_uris":{"android":"levelo://app?vid=eb5baccf-938e-4389-b500-55a6f91ed938","ios":"levelo://app?vid=eb5baccf-938e-4389-b500-55a6f91ed938"},"vehicle_type_id":"4","last_reported":1700762927,"current_range_meters":5600,"station_id":"ce4bgj92rcd13ifvqbd0","pricing_plan_id":"free"},{"bike_id":"6b621983-5e9e-42f7-990d-ad5a093820d2","system_id":"levelo_inurba_marseille","lat":43.293801,"lon":5.363066,"is_reserved":false,"is_disabled":false,"rental_uris":{"android":"levelo://app?vid=6b621983-5e9e-42f7-990d-ad5a093820d2","ios":"levelo://app?vid=6b621983-5e9e-42f7-990d-ad5a093820d2"},"vehicle_type_id":"4","last_reported":1700762927,"current_range_meters":7600,"station_id":"","pricing_plan_id":"free"},{"bike_id":"16e53fa9-c31e-4dab-81e8-3981aa006e28","system_id":"levelo_inurba_marseille","lat":43.29602,"lon":5.381084,"is_reserved":false,"is_disabled":false,"rental_uris":{"android":"levelo://app?vid=16e53fa9-c31e-4dab-81e8-3981aa006e28","ios":"levelo://app?vid=16e53fa9-c31e-4dab-81e8-3981aa006e28"},"vehicle_type_id":"4","last_reported":1700762927,"current_range_meters":15200,"station_id":"ce4bgl12rcd13ifvqbo0","pricing_plan_id":"free"},{"bike_id":"b5f01f17-f504-46f6-b872-3e92f852032e","system_id":"levelo_inurba_marseille","lat":43.293259,"lon":5.371586,"is_reserved":false,"is_disabled":false,"rental_uris":{"android":"levelo://app?vid=b5f01f17-f504-46f6-b872-3e92f852032e","ios":"levelo://app?vid=b5f01f17-f504-46f6-b872-3e92f852032e"},"vehicle_type_id":"4","last_reported":1700762927,"current_range_meters":3600,"station_id":"ce4bgh92rcd13ifvqb40","pricing_plan_id":"free"},{"bike_id":"c0dd00ba-bf63-4ead-a1b9-ee1773b7b290","system_id":"levelo_inurba_marseille","lat":43.293009,"lon":5.374584,"is_reserved":false,"is_disabled":false,"rental_uris":{"android":"levelo://app?vid=c0dd00ba-bf63-4ead-a1b9-ee1773b7b290","ios":"levelo://app?vid=c0dd00ba-bf63-4ead-a1b9-ee1773b7b290"},"vehicle_type_id":"4","last_reported":1700762927,"current_range_meters":9200,"station_id":"ce4bgi12rcd13ifvqb70","pricing_plan_id":"free"},{"bike_id":"b664086b-eac2-4b9a-8068-eaed9265637d","system_id":"levelo_inurba_marseille","lat":43.29388,"lon":5.3787,"is_reserved":false,"is_disabled":false,"rental_uris":{"android":"levelo://app?vid=b664086b-eac2-4b9a-8068-eaed9265637d","ios":"levelo://app?vid=b664086b-eac2-4b9a-8068-eaed9265637d"},"vehicle_type_id":"4","last_reported":1700762927,"current_range_meters":4400,"station_id":"","pricing_plan_id":"free"},{"bike_id":"2515f3e1-77b0-44c7-b732-8443ee65131a","system_id":"levelo_inurba_marseille","lat":43.292311,"lon":5.360731,"is_reserved":false,"is_disabled":false,"rental_uris":{"android":"levelo://app?vid=2515f3e1-77b0-44c7-b732-8443ee65131a","ios":"levelo://app?vid=2515f3e1-77b0-44c7-b732-8443ee65131a"},"vehicle_type_id":"4","last_reported":1700762927,"current_range_meters":15600,"station_id":"ce4bhbh2rcd13ifvqeqg","pricing_plan_id":"free"},{"bike_id":"5785a27e-58ee-4957-90d2-3961315467e1","system_id":"levelo_inurba_marseille","lat":43.298764,"lon":5.388973,"is_reserved":false,"is_disabled":false,"rental_uris":{"android":"levelo://app?vid=5785a27e-58ee-4957-90d2-3961315467e1","ios":"levelo://app?vid=5785a27e-58ee-4957-90d2-3961315467e1"},"vehicle_type_id":"4","last_reported":1700762927,"current_range_meters":7600,"station_id":"ce4bh392rcd13ifvqdl0","pricing_plan_id":"free"},{"bike_id":"01b484f1-1173-4215-a49d-ac4b2894269a","system_id":"levelo_inurba_marseille","lat":43.298764,"lon":5.388973,"is_reserved":false,"is_disabled":false,"rental_uris":{"android":"levelo://app?vid=01b484f1-1173-4215-a49d-ac4b2894269a","ios":"levelo://app?vid=01b484f1-1173-4215-a49d-ac4b2894269a"},"vehicle_type_id":"4","last_reported":1700762927,"current_range_meters":3200,"station_id":"ce4bh392rcd13ifvqdl0","pricing_plan_id":"free"},{"bike_id":"5242f698-2224-48d8-9a51-214dad2e0193","system_id":"levelo_inurba_marseille","lat":43.291671,"lon":5.371575,"is_reserved":false,"is_disabled":false,"rental_uris":{"android":"levelo://app?vid=5242f698-2224-48d8-9a51-214dad2e0193","ios":"levelo://app?vid=5242f698-2224-48d8-9a51-214dad2e0193"},"vehicle_type_id":"4","last_reported":1700762927,"current_range_meters":4000,"station_id":"ce4bha92rcd13ifvqeh0","pricing_plan_id":"free"},{"bike_id":"3087b5a6-a0c1-4bdb-b051-08d5601b6498","system_id":"levelo_inurba_marseille","lat":43.30889,"lon":5.39629,"is_reserved":false,"is_disabled":false,"rental_uris":{"android":"levelo://app?vid=3087b5a6-a0c1-4bdb-b051-08d5601b6498","ios":"levelo://app?vid=3087b5a6-a0c1-4bdb-b051-08d5601b6498"},"vehicle_type_id":"4","last_reported":1700762927,"current_range_meters":27600,"station_id":"ce4bh012rcd13ifvqcv0","pricing_plan_id":"free"},{"bike_id":"41f502f9-2728-46f8-b644-df684c491d80","system_id":"levelo_inurba_marseille","lat":43.309047,"lon":5.396551,"is_reserved":false,"is_disabled":false,"rental_uris":{"android":"levelo://app?vid=41f502f9-2728-46f8-b644-df684c491d80","ios":"levelo://app?vid=41f502f9-2728-46f8-b644-df684c491d80"},"vehicle_type_id":"4","last_reported":1700762927,"current_range_meters":31200,"station_id":"ce4bh012rcd13ifvqcv0","pricing_plan_id":"free"},{"bike_id":"ace733c1-dd64-42e0-aa6d-15abe732c982","system_id":"levelo_inurba_marseille","lat":43.309047,"lon":5.396551,"is_reserved":false,"is_disabled":false,"rental_uris":{"android":"levelo://app?vid=ace733c1-dd64-42e0-aa6d-15abe732c982","ios":"levelo://app?vid=ace733c1-dd64-42e0-aa6d-15abe732c982"},"vehicle_type_id":"4","last_reported":1700762927,"current_range_meters":30400,"station_id":"ce4bh012rcd13ifvqcv0","pricing_plan_id":"free"},{"bike_id":"9fc6f411-db28-443a-a839-94131d931a30","system_id":"levelo_inurba_marseille","lat":43.30885,"lon":5.39634,"is_reserved":false,"is_disabled":false,"rental_uris":{"android":"levelo://app?vid=9fc6f411-db28-443a-a839-94131d931a30","ios":"levelo://app?vid=9fc6f411-db28-443a-a839-94131d931a30"},"vehicle_type_id":"4","last_reported":1700762927,"current_range_meters":0,"station_id":"","pricing_plan_id":"free"},{"bike_id":"23e31f18-ea91-4b23-b713-efa682233fdc","system_id":"levelo_inurba_marseille","lat":43.309,"lon":5.39645,"is_reserved":false,"is_disabled":false,"rental_uris":{"android":"levelo://app?vid=23e31f18-ea91-4b23-b713-efa682233fdc","ios":"levelo://app?vid=23e31f18-ea91-4b23-b713-efa682233fdc"},"vehicle_type_id":"4","last_reported":1700762927,"current_range_meters":31200,"station_id":"ce4bh012rcd13ifvqcv0","pricing_plan_id":"free"},{"bike_id":"d449de61-9601-45a0-b3f8-eda74045c90b","system_id":"levelo_inurba_marseille","lat":43.31329,"lon":5.39691,"is_reserved":false,"is_disabled":false,"rental_uris":{"android":"levelo://app?vid=d449de61-9601-45a0-b3f8-eda74045c90b","ios":"levelo://app?vid=d449de61-9601-45a0-b3f8-eda74045c90b"},"vehicle_type_id":"4","last_reported":1700762927,"current_range_meters":31200,"station_id":"ce4bgvp2rcd13ifvqcu0","pricing_plan_id":"free"},{"bike_id":"26e807fd-59c1-46e5-ab9a-d4bbb6af95d0","system_id":"levelo_inurba_marseille","lat":43.313291,"lon":5.396838,"is_reserved":false,"is_disabled":false,"rental_uris":{"android":"levelo://app?vid=26e807fd-59c1-46e5-ab9a-d4bbb6af95d0","ios":"levelo://app?vid=26e807fd-59c1-46e5-ab9a-d4bbb6af95d0"},"vehicle_type_id":"4","last_reported":1700762927,"current_range_meters":30800,"station_id":"ce4bgvp2rcd13ifvqcu0","pricing_plan_id":"free"},{"bike_id":"bfeda098-ec27-4ff7-ba82-cc314a7b5c10","system_id":"levelo_inurba_marseille","lat":43.31325,"lon":5.39695,"is_reserved":false,"is_disabled":false,"rental_uris":{"android":"levelo://app?vid=bfeda098-ec27-4ff7-ba82-cc314a7b5c10","ios":"levelo://app?vid=bfeda098-ec27-4ff7-ba82-cc314a7b5c10"},"vehicle_type_id":"4","last_reported":1700762927,"current_range_meters":18400,"station_id":"ce4bgvp2rcd13ifvqcu0","pricing_plan_id":"free"},{"bike_id":"72d3541b-d0ba-4970-8e11-62588791666b","system_id":"levelo_inurba_marseille","lat":43.309038,"lon":5.396546,"is_reserved":false,"is_disabled":false,"rental_uris":{"android":"levelo://app?vid=72d3541b-d0ba-4970-8e11-62588791666b","ios":"levelo://app?vid=72d3541b-d0ba-4970-8e11-62588791666b"},"vehicle_type_id":"4","last_reported":1700762927,"current_range_meters":26800,"station_id":"ce4bh012rcd13ifvqcv0","pricing_plan_id":"free"},{"bike_id":"70331c2c-fa66-4c04-953a-9a9db3ae8af9","system_id":"levelo_inurba_marseille","lat":43.31324,"lon":5.39697,"is_reserved":false,"is_disabled":false,"rental_uris":{"android":"levelo://app?vid=70331c2c-fa66-4c04-953a-9a9db3ae8af9","ios":"levelo://app?vid=70331c2c-fa66-4c04-953a-9a9db3ae8af9"},"vehicle_type_id":"4","last_reported":1700762927,"current_range_meters":30000,"station_id":"ce4bgvp2rcd13ifvqcu0","pricing_plan_id":"free"},{"bike_id":"5486fa1f-ba4a-44da-86ab-931b276a9040","system_id":"levelo_inurba_marseille","lat":43.309038,"lon":5.396546,"is_reserved":false,"is_disabled":false,"rental_uris":{"android":"levelo://app?vid=5486fa1f-ba4a-44da-86ab-931b276a9040","ios":"levelo://app?vid=5486fa1f-ba4a-44da-86ab-931b276a9040"},"vehicle_type_id":"4","last_reported":1700762927,"current_range_meters":30400,"station_id":"ce4bh012rcd13ifvqcv0","pricing_plan_id":"free"},{"bike_id":"1d10a1b1-d55f-4279-928a-9c6858f32ca9","system_id":"levelo_inurba_marseille","lat":43.33211,"lon":5.38112,"is_reserved":false,"is_disabled":false,"rental_uris":{"android":"levelo://app?vid=1d10a1b1-d55f-4279-928a-9c6858f32ca9","ios":"levelo://app?vid=1d10a1b1-d55f-4279-928a-9c6858f32ca9"},"vehicle_type_id":"4","last_reported":1700762927,"current_range_meters":0,"station_id":"","pricing_plan_id":"free"},{"bike_id":"897799e3-d052-411e-a3d2-b3955e246700","system_id":"levelo_inurba_marseille","lat":43.30879,"lon":5.39661,"is_reserved":false,"is_disabled":false,"rental_uris":{"android":"levelo://app?vid=897799e3-d052-411e-a3d2-b3955e246700","ios":"levelo://app?vid=897799e3-d052-411e-a3d2-b3955e246700"},"vehicle_type_id":"4","last_reported":1700762927,"current_range_meters":13600,"station_id":"ce4bh012rcd13ifvqcv0","pricing_plan_id":"free"},{"bike_id":"f337da88-d79a-4173-8793-dc3fcde61426","system_id":"levelo_inurba_marseille","lat":43.29529,"lon":5.385581,"is_reserved":false,"is_disabled":false,"rental_uris":{"android":"levelo://app?vid=f337da88-d79a-4173-8793-dc3fcde61426","ios":"levelo://app?vid=f337da88-d79a-4173-8793-dc3fcde61426"},"vehicle_type_id":"4","last_reported":1700762927,"current_range_meters":3200,"station_id":"ce4bgih2rcd13ifvqba0","pricing_plan_id":"free"},{"bike_id":"f4c861eb-1ab9-4285-a4ba-6520d0c1e64f","system_id":"levelo_inurba_marseille","lat":43.28934,"lon":5.36405,"is_reserved":false,"is_disabled":false,"rental_uris":{"android":"levelo://app?vid=f4c861eb-1ab9-4285-a4ba-6520d0c1e64f","ios":"levelo://app?vid=f4c861eb-1ab9-4285-a4ba-6520d0c1e64f"},"vehicle_type_id":"4","last_reported":1700762927,"current_range_meters":25200,"station_id":"ce4bhc92rcd13ifvqetg","pricing_plan_id":"free"},{"bike_id":"98fd1123-c422-4e9e-bec4-aa1b100f2673","system_id":"levelo_inurba_marseille","lat":43.292644,"lon":5.384257,"is_reserved":false,"is_disabled":false,"rental_uris":{"android":"levelo://app?vid=98fd1123-c422-4e9e-bec4-aa1b100f2673","ios":"levelo://app?vid=98fd1123-c422-4e9e-bec4-aa1b100f2673"},"vehicle_type_id":"4","last_reported":1700762927,"current_range_meters":18000,"station_id":"ce4bh692rcd13ifvqea0","pricing_plan_id":"free"},{"bike_id":"e585230a-53f5-4f7d-bf93-fe2d5c446e87","system_id":"levelo_inurba_marseille","lat":43.33044,"lon":5.38918,"is_reserved":false,"is_disabled":false,"rental_uris":{"android":"levelo://app?vid=e585230a-53f5-4f7d-bf93-fe2d5c446e87","ios":"levelo://app?vid=e585230a-53f5-4f7d-bf93-fe2d5c446e87"},"vehicle_type_id":"4","last_reported":1700762927,"current_range_meters":400,"station_id":"ce4bhr92rcd13ifvqhrg","pricing_plan_id":"free"},{"bike_id":"68587ea7-7a35-42f1-9ee2-9288a7cf14eb","system_id":"levelo_inurba_marseille","lat":43.290104,"lon":5.356111,"is_reserved":false,"is_disabled":false,"rental_uris":{"android":"levelo://app?vid=68587ea7-7a35-42f1-9ee2-9288a7cf14eb","ios":"levelo://app?vid=68587ea7-7a35-42f1-9ee2-9288a7cf14eb"},"vehicle_type_id":"4","last_reported":1700762927,"current_range_meters":27200,"station_id":"ce4bhb92rcd13ifvqen0","pricing_plan_id":"free"},{"bike_id":"abbb8182-1a78-4d70-b671-161ac834f0fc","system_id":"levelo_inurba_marseille","lat":43.33102,"lon":5.38912,"is_reserved":false,"is_disabled":false,"rental_uris":{"android":"levelo://app?vid=abbb8182-1a78-4d70-b671-161ac834f0fc","ios":"levelo://app?vid=abbb8182-1a78-4d70-b671-161ac834f0fc"},"vehicle_type_id":"4","last_reported":1700762927,"current_range_meters":0,"station_id":"","pricing_plan_id":"free"},{"bike_id":"0d2191c9-a283-4b25-9e47-a81bcc8799e7","system_id":"levelo_inurba_marseille","lat":43.295169,"lon":5.390426,"is_reserved":false,"is_disabled":false,"rental_uris":{"android":"levelo://app?vid=0d2191c9-a283-4b25-9e47-a81bcc8799e7","ios":"levelo://app?vid=0d2191c9-a283-4b25-9e47-a81bcc8799e7"},"vehicle_type_id":"4","last_reported":1700762927,"current_range_meters":400,"station_id":"ce4bh3p2rcd13ifvqdp0","pricing_plan_id":"free"},{"bike_id":"b4bc6c19-20e6-4b1e-b989-40d4ba171e93","system_id":"levelo_inurba_marseille","lat":43.33061,"lon":5.39054,"is_reserved":false,"is_disabled":false,"rental_uris":{"android":"levelo://app?vid=b4bc6c19-20e6-4b1e-b989-40d4ba171e93","ios":"levelo://app?vid=b4bc6c19-20e6-4b1e-b989-40d4ba171e93"},"vehicle_type_id":"4","last_reported":1700762927,"current_range_meters":7200,"station_id":"","pricing_plan_id":"free"},{"bike_id":"3daaa533-3335-4c6e-a5d5-755f521e5ccd","system_id":"levelo_inurba_marseille","lat":43.33742,"lon":5.37444,"is_reserved":false,"is_disabled":false,"rental_uris":{"android":"levelo://app?vid=3daaa533-3335-4c6e-a5d5-755f521e5ccd","ios":"levelo://app?vid=3daaa533-3335-4c6e-a5d5-755f521e5ccd"},"vehicle_type_id":"4","last_reported":1700762927,"current_range_meters":23600,"station_id":"","pricing_plan_id":"free"},{"bike_id":"589f525b-b94e-4074-a55f-170f20400e33","system_id":"levelo_inurba_marseille","lat":43.317104,"lon":5.436818,"is_reserved":false,"is_disabled":false,"rental_uris":{"android":"levelo://app?vid=589f525b-b94e-4074-a55f-170f20400e33","ios":"levelo://app?vid=589f525b-b94e-4074-a55f-170f20400e33"},"vehicle_type_id":"4","last_reported":1700762927,"current_range_meters":8000,"station_id":"ce4bhp92rcd13ifvqhcg","pricing_plan_id":"free"},{"bike_id":"20240788-4ebe-4559-a31b-375fba031e86","system_id":"levelo_inurba_marseille","lat":43.309371,"lon":5.401449,"is_reserved":false,"is_disabled":false,"rental_uris":{"android":"levelo://app?vid=20240788-4ebe-4559-a31b-375fba031e86","ios":"levelo://app?vid=20240788-4ebe-4559-a31b-375fba031e86"},"vehicle_type_id":"4","last_reported":1700762927,"current_range_meters":3600,"station_id":"ce4bgvp2rcd13ifvqct0","pricing_plan_id":"free"},{"bike_id":"df6f803b-87c3-484d-90f0-4ec1a71b130e","system_id":"levelo_inurba_marseille","lat":43.309371,"lon":5.401449,"is_reserved":false,"is_disabled":false,"rental_uris":{"android":"levelo://app?vid=df6f803b-87c3-484d-90f0-4ec1a71b130e","ios":"levelo://app?vid=df6f803b-87c3-484d-90f0-4ec1a71b130e"},"vehicle_type_id":"4","last_reported":1700762927,"current_range_meters":800,"station_id":"ce4bgvp2rcd13ifvqct0","pricing_plan_id":"free"},{"bike_id":"a893e8a4-4ad4-4559-9b44-43a3796f5654","system_id":"levelo_inurba_marseille","lat":43.3376,"lon":5.37492,"is_reserved":false,"is_disabled":false,"rental_uris":{"android":"levelo://app?vid=a893e8a4-4ad4-4559-9b44-43a3796f5654","ios":"levelo://app?vid=a893e8a4-4ad4-4559-9b44-43a3796f5654"},"vehicle_type_id":"4","last_reported":1700762927,"current_range_meters":26000,"station_id":"","pricing_plan_id":"free"},{"bike_id":"2809694f-8340-4ed1-8497-0abec68390d4","system_id":"levelo_inurba_marseille","lat":43.286591,"lon":5.363346,"is_reserved":false,"is_disabled":false,"rental_uris":{"android":"levelo://app?vid=2809694f-8340-4ed1-8497-0abec68390d4","ios":"levelo://app?vid=2809694f-8340-4ed1-8497-0abec68390d4"},"vehicle_type_id":"4","last_reported":1700762927,"current_range_meters":4000,"station_id":"ce4bhah2rcd13ifvqej0","pricing_plan_id":"free"},{"bike_id":"fdeb165a-9821-4e25-85c6-c2824b992e3f","system_id":"levelo_inurba_marseille","lat":43.298681,"lon":5.397225,"is_reserved":false,"is_disabled":false,"rental_uris":{"android":"levelo://app?vid=fdeb165a-9821-4e25-85c6-c2824b992e3f","ios":"levelo://app?vid=fdeb165a-9821-4e25-85c6-c2824b992e3f"},"vehicle_type_id":"4","last_reported":1700762927,"current_range_meters":7200,"station_id":"ce4bh0h2rcd13ifvqd50","pricing_plan_id":"free"},{"bike_id":"3d25ff84-a57d-4c25-abc2-42013c334fd8","system_id":"levelo_inurba_marseille","lat":43.302759,"lon":5.400793,"is_reserved":false,"is_disabled":false,"rental_uris":{"android":"levelo://app?vid=3d25ff84-a57d-4c25-abc2-42013c334fd8","ios":"levelo://app?vid=3d25ff84-a57d-4c25-abc2-42013c334fd8"},"vehicle_type_id":"4","last_reported":1700762927,"current_range_meters":2800,"station_id":"ce4bgvh2rcd13ifvqcs0","pricing_plan_id":"free"},{"bike_id":"a9b41ebc-3b5c-48d7-af03-67c666841f4a","system_id":"levelo_inurba_marseille","lat":43.30258,"lon":5.4006,"is_reserved":false,"is_disabled":false,"rental_uris":{"android":"levelo://app?vid=a9b41ebc-3b5c-48d7-af03-67c666841f4a","ios":"levelo://app?vid=a9b41ebc-3b5c-48d7-af03-67c666841f4a"},"vehicle_type_id":"4","last_reported":1700762927,"current_range_meters":20400,"station_id":"","pricing_plan_id":"free"},{"bike_id":"029c50e0-c6f5-4568-aa4e-d386a0bec503","system_id":"levelo_inurba_marseille","lat":43.28923,"lon":5.38387,"is_reserved":false,"is_disabled":false,"rental_uris":{"android":"levelo://app?vid=029c50e0-c6f5-4568-aa4e-d386a0bec503","ios":"levelo://app?vid=029c50e0-c6f5-4568-aa4e-d386a0bec503"},"vehicle_type_id":"4","last_reported":1700762927,"current_range_meters":8400,"station_id":"ce4bh612rcd13ifvqe6g","pricing_plan_id":"free"},{"bike_id":"de0a8d25-d0f3-46c7-9be3-c11b14f5b2ef","system_id":"levelo_inurba_marseille","lat":43.302759,"lon":5.400793,"is_reserved":false,"is_disabled":false,"rental_uris":{"android":"levelo://app?vid=de0a8d25-d0f3-46c7-9be3-c11b14f5b2ef","ios":"levelo://app?vid=de0a8d25-d0f3-46c7-9be3-c11b14f5b2ef"},"vehicle_type_id":"4","last_reported":1700762927,"current_range_meters":6400,"station_id":"ce4bgvh2rcd13ifvqcs0","pricing_plan_id":"free"},{"bike_id":"56985abb-f16c-4555-bd01-39e26a34e865","system_id":"levelo_inurba_marseille","lat":43.316495,"lon":5.404376,"is_reserved":false,"is_disabled":false,"rental_uris":{"android":"levelo://app?vid=56985abb-f16c-4555-bd01-39e26a34e865","ios":"levelo://app?vid=56985abb-f16c-4555-bd01-39e26a34e865"},"vehicle_type_id":"4","last_reported":1700762927,"current_range_meters":13200,"station_id":"ce4bh012rcd13ifvqd00","pricing_plan_id":"free"},{"bike_id":"f613f66e-a1d9-4b70-b6be-38c33c046367","system_id":"levelo_inurba_marseille","lat":43.316517,"lon":5.404375,"is_reserved":false,"is_disabled":false,"rental_uris":{"android":"levelo://app?vid=f613f66e-a1d9-4b70-b6be-38c33c046367","ios":"levelo://app?vid=f613f66e-a1d9-4b70-b6be-38c33c046367"},"vehicle_type_id":"4","last_reported":1700762927,"current_range_meters":18000,"station_id":"ce4bh012rcd13ifvqd00","pricing_plan_id":"free"},{"bike_id":"077ce095-22d7-4fcd-919a-efe6be116ec0","system_id":"levelo_inurba_marseille","lat":43.29187,"lon":5.39309,"is_reserved":false,"is_disabled":false,"rental_uris":{"android":"levelo://app?vid=077ce095-22d7-4fcd-919a-efe6be116ec0","ios":"levelo://app?vid=077ce095-22d7-4fcd-919a-efe6be116ec0"},"vehicle_type_id":"4","last_reported":1700762927,"current_range_meters":0,"station_id":"ce4bh192rcd13ifvqdd0","pricing_plan_id":"free"},{"bike_id":"d066467a-0544-48c0-b266-f19c933fb634","system_id":"levelo_inurba_marseille","lat":43.284538,"lon":5.358657,"is_reserved":false,"is_disabled":false,"rental_uris":{"android":"levelo://app?vid=d066467a-0544-48c0-b266-f19c933fb634","ios":"levelo://app?vid=d066467a-0544-48c0-b266-f19c933fb634"},"vehicle_type_id":"4","last_reported":1700762927,"current_range_meters":11600,"station_id":"ce4bhah2rcd13ifvqei0","pricing_plan_id":"free"},{"bike_id":"883951d0-8ad2-4001-82c8-46ba040b7804","system_id":"levelo_inurba_marseille","lat":43.294314,"lon":5.397498,"is_reserved":false,"is_disabled":false,"rental_uris":{"android":"levelo://app?vid=883951d0-8ad2-4001-82c8-46ba040b7804","ios":"levelo://app?vid=883951d0-8ad2-4001-82c8-46ba040b7804"},"vehicle_type_id":"4","last_reported":1700762927,"current_range_meters":10800,"station_id":"ce4bh3h2rcd13ifvqdo0","pricing_plan_id":"free"},{"bike_id":"8868443c-e3cb-418b-9eea-e0aa4b806d26","system_id":"levelo_inurba_marseille","lat":43.285856,"lon":5.350771,"is_reserved":false,"is_disabled":false,"rental_uris":{"android":"levelo://app?vid=8868443c-e3cb-418b-9eea-e0aa4b806d26","ios":"levelo://app?vid=8868443c-e3cb-418b-9eea-e0aa4b806d26"},"vehicle_type_id":"4","last_reported":1700762927,"current_range_meters":14800,"station_id":"ce4bhch2rcd13ifvqeug","pricing_plan_id":"free"},{"bike_id":"d3ff4789-252e-482b-8ad0-dc9f2252937d","system_id":"levelo_inurba_marseille","lat":43.28616,"lon":5.35106,"is_reserved":false,"is_disabled":false,"rental_uris":{"android":"levelo://app?vid=d3ff4789-252e-482b-8ad0-dc9f2252937d","ios":"levelo://app?vid=d3ff4789-252e-482b-8ad0-dc9f2252937d"},"vehicle_type_id":"4","last_reported":1700762927,"current_range_meters":3200,"station_id":"ce4bhch2rcd13ifvqeug","pricing_plan_id":"free"},{"bike_id":"99e020eb-2fb5-45a2-8f56-400a0356143c","system_id":"levelo_inurba_marseille","lat":43.294314,"lon":5.397498,"is_reserved":false,"is_disabled":false,"rental_uris":{"android":"levelo://app?vid=99e020eb-2fb5-45a2-8f56-400a0356143c","ios":"levelo://app?vid=99e020eb-2fb5-45a2-8f56-400a0356143c"},"vehicle_type_id":"4","last_reported":1700762927,"current_range_meters":1200,"station_id":"ce4bh3h2rcd13ifvqdo0","pricing_plan_id":"free"},{"bike_id":"adbd441f-44c4-4168-877a-9278b4bd7ceb","system_id":"levelo_inurba_marseille","lat":43.331647,"lon":5.39778,"is_reserved":false,"is_disabled":false,"rental_uris":{"android":"levelo://app?vid=adbd441f-44c4-4168-877a-9278b4bd7ceb","ios":"levelo://app?vid=adbd441f-44c4-4168-877a-9278b4bd7ceb"},"vehicle_type_id":"4","last_reported":1700762927,"current_range_meters":16800,"station_id":"","pricing_plan_id":"free"},{"bike_id":"d9785b0c-0523-4b8b-9f28-f29210b1a5eb","system_id":"levelo_inurba_marseille","lat":43.323464,"lon":5.406297,"is_reserved":false,"is_disabled":false,"rental_uris":{"android":"levelo://app?vid=d9785b0c-0523-4b8b-9f28-f29210b1a5eb","ios":"levelo://app?vid=d9785b0c-0523-4b8b-9f28-f29210b1a5eb"},"vehicle_type_id":"4","last_reported":1700762927,"current_range_meters":17600,"station_id":"ce4bhq92rcd13ifvqhjg","pricing_plan_id":"free"},{"bike_id":"a4abcf15-375c-4b2f-98d7-acf3c475577e","system_id":"levelo_inurba_marseille","lat":43.284787,"lon":5.384116,"is_reserved":false,"is_disabled":false,"rental_uris":{"android":"levelo://app?vid=a4abcf15-375c-4b2f-98d7-acf3c475577e","ios":"levelo://app?vid=a4abcf15-375c-4b2f-98d7-acf3c475577e"},"vehicle_type_id":"4","last_reported":1700762927,"current_range_meters":0,"station_id":"ce4bh512rcd13ifvqe3g","pricing_plan_id":"free"},{"bike_id":"b154d2fe-aed9-4757-a702-225578c98795","system_id":"levelo_inurba_marseille","lat":43.28476,"lon":5.38404,"is_reserved":false,"is_disabled":false,"rental_uris":{"android":"levelo://app?vid=b154d2fe-aed9-4757-a702-225578c98795","ios":"levelo://app?vid=b154d2fe-aed9-4757-a702-225578c98795"},"vehicle_type_id":"4","last_reported":1700762927,"current_range_meters":8400,"station_id":"ce4bh512rcd13ifvqe3g","pricing_plan_id":"free"},{"bike_id":"8d73880e-5118-4c93-9301-6c98ae47fef2","system_id":"levelo_inurba_marseille","lat":43.288501,"lon":5.393087,"is_reserved":false,"is_disabled":false,"rental_uris":{"android":"levelo://app?vid=8d73880e-5118-4c93-9301-6c98ae47fef2","ios":"levelo://app?vid=8d73880e-5118-4c93-9301-6c98ae47fef2"},"vehicle_type_id":"4","last_reported":1700762927,"current_range_meters":2000,"station_id":"ce4bh2p2rcd13ifvqdi0","pricing_plan_id":"free"},{"bike_id":"e2284003-4e46-4e0a-93e7-73d05c3666d9","system_id":"levelo_inurba_marseille","lat":43.33479,"lon":5.39788,"is_reserved":false,"is_disabled":false,"rental_uris":{"android":"levelo://app?vid=e2284003-4e46-4e0a-93e7-73d05c3666d9","ios":"levelo://app?vid=e2284003-4e46-4e0a-93e7-73d05c3666d9"},"vehicle_type_id":"4","last_reported":1700762927,"current_range_meters":26000,"station_id":"","pricing_plan_id":"free"},{"bike_id":"7b4f30ba-5973-43e2-b053-d3f64c6b93dc","system_id":"levelo_inurba_marseille","lat":43.289363,"lon":5.396322,"is_reserved":false,"is_disabled":false,"rental_uris":{"android":"levelo://app?vid=7b4f30ba-5973-43e2-b053-d3f64c6b93dc","ios":"levelo://app?vid=7b4f30ba-5973-43e2-b053-d3f64c6b93dc"},"vehicle_type_id":"4","last_reported":1700762927,"current_range_meters":8000,"station_id":"ce4bh3h2rcd13ifvqdn0","pricing_plan_id":"free"},{"bike_id":"388df873-de33-4a01-9297-f50a91bb9185","system_id":"levelo_inurba_marseille","lat":43.289363,"lon":5.396322,"is_reserved":false,"is_disabled":false,"rental_uris":{"android":"levelo://app?vid=388df873-de33-4a01-9297-f50a91bb9185","ios":"levelo://app?vid=388df873-de33-4a01-9297-f50a91bb9185"},"vehicle_type_id":"4","last_reported":1700762927,"current_range_meters":3600,"station_id":"ce4bh3h2rcd13ifvqdn0","pricing_plan_id":"free"},{"bike_id":"9f406700-c6fa-44c2-b209-2e781c68762e","system_id":"levelo_inurba_marseille","lat":43.28627,"lon":5.39143,"is_reserved":false,"is_disabled":false,"rental_uris":{"android":"levelo://app?vid=9f406700-c6fa-44c2-b209-2e781c68762e","ios":"levelo://app?vid=9f406700-c6fa-44c2-b209-2e781c68762e"},"vehicle_type_id":"4","last_reported":1700762927,"current_range_meters":7200,"station_id":"","pricing_plan_id":"free"},{"bike_id":"1e4c1914-7700-4c8d-b06d-37c91f77b99d","system_id":"levelo_inurba_marseille","lat":43.283494,"lon":5.380945,"is_reserved":false,"is_disabled":false,"rental_uris":{"android":"levelo://app?vid=1e4c1914-7700-4c8d-b06d-37c91f77b99d","ios":"levelo://app?vid=1e4c1914-7700-4c8d-b06d-37c91f77b99d"},"vehicle_type_id":"4","last_reported":1700762927,"current_range_meters":4000,"station_id":"ce4bh412rcd13ifvqdr0","pricing_plan_id":"free"},{"bike_id":"788914ca-f87f-4241-b0dd-2104d13863db","system_id":"levelo_inurba_marseille","lat":43.282754,"lon":5.350519,"is_reserved":false,"is_disabled":false,"rental_uris":{"android":"levelo://app?vid=788914ca-f87f-4241-b0dd-2104d13863db","ios":"levelo://app?vid=788914ca-f87f-4241-b0dd-2104d13863db"},"vehicle_type_id":"4","last_reported":1700762927,"current_range_meters":800,"station_id":"ce4bhbp2rcd13ifvqerg","pricing_plan_id":"free"},{"bike_id":"857c10bc-5c00-4848-aed1-ce3268427462","system_id":"levelo_inurba_marseille","lat":43.28039,"lon":5.369297,"is_reserved":false,"is_disabled":false,"rental_uris":{"android":"levelo://app?vid=857c10bc-5c00-4848-aed1-ce3268427462","ios":"levelo://app?vid=857c10bc-5c00-4848-aed1-ce3268427462"},"vehicle_type_id":"4","last_reported":1700762927,"current_range_meters":19200,"station_id":"ce4bha12rcd13ifvqef0","pricing_plan_id":"free"},{"bike_id":"372eb93b-80ec-49ae-a74c-b0f24b6b592b","system_id":"levelo_inurba_marseille","lat":43.28035,"lon":5.3694,"is_reserved":false,"is_disabled":false,"rental_uris":{"android":"levelo://app?vid=372eb93b-80ec-49ae-a74c-b0f24b6b592b","ios":"levelo://app?vid=372eb93b-80ec-49ae-a74c-b0f24b6b592b"},"vehicle_type_id":"4","last_reported":1700762927,"current_range_meters":21600,"station_id":"ce4bha12rcd13ifvqef0","pricing_plan_id":"free"},{"bike_id":"bf26e76c-a35b-40d6-9bf5-43b8c19c7962","system_id":"levelo_inurba_marseille","lat":43.29041,"lon":5.399634,"is_reserved":false,"is_disabled":false,"rental_uris":{"android":"levelo://app?vid=bf26e76c-a35b-40d6-9bf5-43b8c19c7962","ios":"levelo://app?vid=bf26e76c-a35b-40d6-9bf5-43b8c19c7962"},"vehicle_type_id":"4","last_reported":1700762927,"current_range_meters":27600,"station_id":"ce4bh392rcd13ifvqdm0","pricing_plan_id":"free"},{"bike_id":"9a63d390-a04f-48e6-b490-3264a1ed5378","system_id":"levelo_inurba_marseille","lat":43.30417,"lon":5.41277,"is_reserved":false,"is_disabled":false,"rental_uris":{"android":"levelo://app?vid=9a63d390-a04f-48e6-b490-3264a1ed5378","ios":"levelo://app?vid=9a63d390-a04f-48e6-b490-3264a1ed5378"},"vehicle_type_id":"4","last_reported":1700762927,"current_range_meters":12400,"station_id":"ce4bhop2rcd13ifvqh8g","pricing_plan_id":"free"},{"bike_id":"88a624b1-b633-4b62-b141-f367a382c638","system_id":"levelo_inurba_marseille","lat":43.30414,"lon":5.4128,"is_reserved":false,"is_disabled":false,"rental_uris":{"android":"levelo://app?vid=88a624b1-b633-4b62-b141-f367a382c638","ios":"levelo://app?vid=88a624b1-b633-4b62-b141-f367a382c638"},"vehicle_type_id":"4","last_reported":1700762927,"current_range_meters":15600,"station_id":"ce4bhop2rcd13ifvqh8g","pricing_plan_id":"free"},{"bike_id":"8e360a99-579d-498b-8373-2b154126c995","system_id":"levelo_inurba_marseille","lat":43.304188,"lon":5.412904,"is_reserved":false,"is_disabled":false,"rental_uris":{"android":"levelo://app?vid=8e360a99-579d-498b-8373-2b154126c995","ios":"levelo://app?vid=8e360a99-579d-498b-8373-2b154126c995"},"vehicle_type_id":"4","last_reported":1700762927,"current_range_meters":30400,"station_id":"ce4bhop2rcd13ifvqh8g","pricing_plan_id":"free"},{"bike_id":"72c07305-8b7f-4920-bb30-e8e9c15c0348","system_id":"levelo_inurba_marseille","lat":43.304188,"lon":5.412904,"is_reserved":false,"is_disabled":false,"rental_uris":{"android":"levelo://app?vid=72c07305-8b7f-4920-bb30-e8e9c15c0348","ios":"levelo://app?vid=72c07305-8b7f-4920-bb30-e8e9c15c0348"},"vehicle_type_id":"4","last_reported":1700762927,"current_range_meters":23200,"station_id":"ce4bhop2rcd13ifvqh8g","pricing_plan_id":"free"},{"bike_id":"01c93ddb-da14-4fef-a292-7a08f650026c","system_id":"levelo_inurba_marseille","lat":43.28706,"lon":5.39989,"is_reserved":false,"is_disabled":false,"rental_uris":{"android":"levelo://app?vid=01c93ddb-da14-4fef-a292-7a08f650026c","ios":"levelo://app?vid=01c93ddb-da14-4fef-a292-7a08f650026c"},"vehicle_type_id":"4","last_reported":1700762927,"current_range_meters":0,"station_id":"ce4bho92rcd13ifvqh3g","pricing_plan_id":"free"},{"bike_id":"6e2c2465-4e40-4aae-912b-ca1fbcdf1978","system_id":"levelo_inurba_marseille","lat":43.32712,"lon":5.4124,"is_reserved":false,"is_disabled":false,"rental_uris":{"android":"levelo://app?vid=6e2c2465-4e40-4aae-912b-ca1fbcdf1978","ios":"levelo://app?vid=6e2c2465-4e40-4aae-912b-ca1fbcdf1978"},"vehicle_type_id":"4","last_reported":1700762927,"current_range_meters":0,"station_id":"","pricing_plan_id":"free"},{"bike_id":"7bbfc148-02e3-4cbe-9a15-23dfb7c3f2be","system_id":"levelo_inurba_marseille","lat":43.320045,"lon":5.415046,"is_reserved":false,"is_disabled":false,"rental_uris":{"android":"levelo://app?vid=7bbfc148-02e3-4cbe-9a15-23dfb7c3f2be","ios":"levelo://app?vid=7bbfc148-02e3-4cbe-9a15-23dfb7c3f2be"},"vehicle_type_id":"4","last_reported":1700762927,"current_range_meters":2800,"station_id":"ce4bhq92rcd13ifvqhkg","pricing_plan_id":"free"},{"bike_id":"a8e2b52b-9ba9-4b70-bcb4-1e1ad46ab6fe","system_id":"levelo_inurba_marseille","lat":43.29939,"lon":5.41321,"is_reserved":false,"is_disabled":false,"rental_uris":{"android":"levelo://app?vid=a8e2b52b-9ba9-4b70-bcb4-1e1ad46ab6fe","ios":"levelo://app?vid=a8e2b52b-9ba9-4b70-bcb4-1e1ad46ab6fe"},"vehicle_type_id":"4","last_reported":1700762927,"current_range_meters":30800,"station_id":"ce4bhp12rcd13ifvqh9g","pricing_plan_id":"free"},{"bike_id":"7011775b-c0e4-46dc-8231-7485425aba5f","system_id":"levelo_inurba_marseille","lat":43.29938,"lon":5.41321,"is_reserved":false,"is_disabled":false,"rental_uris":{"android":"levelo://app?vid=7011775b-c0e4-46dc-8231-7485425aba5f","ios":"levelo://app?vid=7011775b-c0e4-46dc-8231-7485425aba5f"},"vehicle_type_id":"4","last_reported":1700762927,"current_range_meters":26400,"station_id":"ce4bhp12rcd13ifvqh9g","pricing_plan_id":"free"},{"bike_id":"1b8d6db2-1c2e-47cf-a19c-297e6f4adc24","system_id":"levelo_inurba_marseille","lat":43.279577,"lon":5.387137,"is_reserved":false,"is_disabled":false,"rental_uris":{"android":"levelo://app?vid=1b8d6db2-1c2e-47cf-a19c-297e6f4adc24","ios":"levelo://app?vid=1b8d6db2-1c2e-47cf-a19c-297e6f4adc24"},"vehicle_type_id":"4","last_reported":1700762927,"current_range_meters":0,"station_id":"ce4bhg12rcd13ifvqf80","pricing_plan_id":"free"},{"bike_id":"6135f93c-5635-485e-9145-3457c49a0da5","system_id":"levelo_inurba_marseille","lat":43.320045,"lon":5.415046,"is_reserved":false,"is_disabled":false,"rental_uris":{"android":"levelo://app?vid=6135f93c-5635-485e-9145-3457c49a0da5","ios":"levelo://app?vid=6135f93c-5635-485e-9145-3457c49a0da5"},"vehicle_type_id":"4","last_reported":1700762927,"current_range_meters":9600,"station_id":"ce4bhq92rcd13ifvqhkg","pricing_plan_id":"free"},{"bike_id":"cf7c6503-d761-4e4a-b826-f55f74848caf","system_id":"levelo_inurba_marseille","lat":43.34882,"lon":5.37507,"is_reserved":false,"is_disabled":false,"rental_uris":{"android":"levelo://app?vid=cf7c6503-d761-4e4a-b826-f55f74848caf","ios":"levelo://app?vid=cf7c6503-d761-4e4a-b826-f55f74848caf"},"vehicle_type_id":"4","last_reported":1700762927,"current_range_meters":0,"station_id":"","pricing_plan_id":"free"},{"bike_id":"470f93ef-0532-47fb-b025-03b0200d2369","system_id":"levelo_inurba_marseille","lat":43.292571,"lon":5.409107,"is_reserved":false,"is_disabled":false,"rental_uris":{"android":"levelo://app?vid=470f93ef-0532-47fb-b025-03b0200d2369","ios":"levelo://app?vid=470f93ef-0532-47fb-b025-03b0200d2369"},"vehicle_type_id":"4","last_reported":1700762927,"current_range_meters":26800,"station_id":"ce4bh192rcd13ifvqdc0","pricing_plan_id":"free"},{"bike_id":"c9287eef-4295-4266-ab6d-4a7b00697f2c","system_id":"levelo_inurba_marseille","lat":43.292571,"lon":5.409107,"is_reserved":false,"is_disabled":false,"rental_uris":{"android":"levelo://app?vid=c9287eef-4295-4266-ab6d-4a7b00697f2c","ios":"levelo://app?vid=c9287eef-4295-4266-ab6d-4a7b00697f2c"},"vehicle_type_id":"4","last_reported":1700762927,"current_range_meters":20800,"station_id":"ce4bh192rcd13ifvqdc0","pricing_plan_id":"free"},{"bike_id":"cc0a7134-9611-436f-a747-69ba5aeaa6ab","system_id":"levelo_inurba_marseille","lat":43.292569,"lon":5.409107,"is_reserved":false,"is_disabled":false,"rental_uris":{"android":"levelo://app?vid=cc0a7134-9611-436f-a747-69ba5aeaa6ab","ios":"levelo://app?vid=cc0a7134-9611-436f-a747-69ba5aeaa6ab"},"vehicle_type_id":"4","last_reported":1700762927,"current_range_meters":16000,"station_id":"ce4bh192rcd13ifvqdc0","pricing_plan_id":"free"},{"bike_id":"afacb242-8d12-4225-84aa-1433e3885f76","system_id":"levelo_inurba_marseille","lat":43.29255,"lon":5.40917,"is_reserved":false,"is_disabled":false,"rental_uris":{"android":"levelo://app?vid=afacb242-8d12-4225-84aa-1433e3885f76","ios":"levelo://app?vid=afacb242-8d12-4225-84aa-1433e3885f76"},"vehicle_type_id":"4","last_reported":1700762927,"current_range_meters":12800,"station_id":"ce4bh192rcd13ifvqdc0","pricing_plan_id":"free"},{"bike_id":"ed4c961b-6de9-48ec-a3bf-9e2c0442740b","system_id":"levelo_inurba_marseille","lat":43.27618,"lon":5.361009,"is_reserved":false,"is_disabled":false,"rental_uris":{"android":"levelo://app?vid=ed4c961b-6de9-48ec-a3bf-9e2c0442740b","ios":"levelo://app?vid=ed4c961b-6de9-48ec-a3bf-9e2c0442740b"},"vehicle_type_id":"4","last_reported":1700762927,"current_range_meters":8800,"station_id":"ce4bgj92rcd13ifvqbe0","pricing_plan_id":"free"},{"bike_id":"f667d8ae-2c7d-42fb-9ead-3c9f9cd8b0ba","system_id":"levelo_inurba_marseille","lat":43.27618,"lon":5.361009,"is_reserved":false,"is_disabled":false,"rental_uris":{"android":"levelo://app?vid=f667d8ae-2c7d-42fb-9ead-3c9f9cd8b0ba","ios":"levelo://app?vid=f667d8ae-2c7d-42fb-9ead-3c9f9cd8b0ba"},"vehicle_type_id":"4","last_reported":1700762927,"current_range_meters":2000,"station_id":"ce4bgj92rcd13ifvqbe0","pricing_plan_id":"free"},{"bike_id":"5e95cc5e-d9ff-4099-b6e5-3df4bbd0c3e1","system_id":"levelo_inurba_marseille","lat":43.303837,"lon":5.418724,"is_reserved":false,"is_disabled":false,"rental_uris":{"android":"levelo://app?vid=5e95cc5e-d9ff-4099-b6e5-3df4bbd0c3e1","ios":"levelo://app?vid=5e95cc5e-d9ff-4099-b6e5-3df4bbd0c3e1"},"vehicle_type_id":"4","last_reported":1700762927,"current_range_meters":800,"station_id":"ce4bhop2rcd13ifvqh7g","pricing_plan_id":"free"},{"bike_id":"292df432-9394-4e14-ac2d-bdfb1b986edc","system_id":"levelo_inurba_marseille","lat":43.303837,"lon":5.418724,"is_reserved":false,"is_disabled":false,"rental_uris":{"android":"levelo://app?vid=292df432-9394-4e14-ac2d-bdfb1b986edc","ios":"levelo://app?vid=292df432-9394-4e14-ac2d-bdfb1b986edc"},"vehicle_type_id":"4","last_reported":1700762927,"current_range_meters":19600,"station_id":"ce4bhop2rcd13ifvqh7g","pricing_plan_id":"free"},{"bike_id":"424d1480-d607-4664-b6fa-ecbf4c63abd0","system_id":"levelo_inurba_marseille","lat":43.278176,"lon":5.392069,"is_reserved":false,"is_disabled":false,"rental_uris":{"android":"levelo://app?vid=424d1480-d607-4664-b6fa-ecbf4c63abd0","ios":"levelo://app?vid=424d1480-d607-4664-b6fa-ecbf4c63abd0"},"vehicle_type_id":"4","last_reported":1700762927,"current_range_meters":0,"station_id":"ce4bhjp2rcd13ifvqga0","pricing_plan_id":"free"},{"bike_id":"2b73aed9-dfdb-4fc5-a0be-63d14ec98482","system_id":"levelo_inurba_marseille","lat":43.33612,"lon":5.410321,"is_reserved":false,"is_disabled":false,"rental_uris":{"android":"levelo://app?vid=2b73aed9-dfdb-4fc5-a0be-63d14ec98482","ios":"levelo://app?vid=2b73aed9-dfdb-4fc5-a0be-63d14ec98482"},"vehicle_type_id":"4","last_reported":1700762927,"current_range_meters":3200,"station_id":"ce4bhqh2rcd13ifvqhmg","pricing_plan_id":"free"},{"bike_id":"a07c2d75-3c21-42ab-b08a-c12647aeebf7","system_id":"levelo_inurba_marseille","lat":43.317121,"lon":5.423936,"is_reserved":false,"is_disabled":false,"rental_uris":{"android":"levelo://app?vid=a07c2d75-3c21-42ab-b08a-c12647aeebf7","ios":"levelo://app?vid=a07c2d75-3c21-42ab-b08a-c12647aeebf7"},"vehicle_type_id":"4","last_reported":1700762927,"current_range_meters":26000,"station_id":"ce4bhp92rcd13ifvqhbg","pricing_plan_id":"free"},{"bike_id":"0f0dde2f-b34e-4cb3-8428-609aae5bacdd","system_id":"levelo_inurba_marseille","lat":43.317121,"lon":5.423936,"is_reserved":false,"is_disabled":false,"rental_uris":{"android":"levelo://app?vid=0f0dde2f-b34e-4cb3-8428-609aae5bacdd","ios":"levelo://app?vid=0f0dde2f-b34e-4cb3-8428-609aae5bacdd"},"vehicle_type_id":"4","last_reported":1700762927,"current_range_meters":30000,"station_id":"ce4bhp92rcd13ifvqhbg","pricing_plan_id":"free"},{"bike_id":"4b12f683-24c4-4384-8fa1-dc8758836f6a","system_id":"levelo_inurba_marseille","lat":43.273129,"lon":5.390725,"is_reserved":false,"is_disabled":false,"rental_uris":{"android":"levelo://app?vid=4b12f683-24c4-4384-8fa1-dc8758836f6a","ios":"levelo://app?vid=4b12f683-24c4-4384-8fa1-dc8758836f6a"},"vehicle_type_id":"4","last_reported":1700762927,"current_range_meters":25200,"station_id":"ce4bhgp2rcd13ifvqfe0","pricing_plan_id":"free"},{"bike_id":"8e38d2b5-32fa-40ca-9a1f-984ce976bea5","system_id":"levelo_inurba_marseille","lat":43.273125,"lon":5.390731,"is_reserved":false,"is_disabled":false,"rental_uris":{"android":"levelo://app?vid=8e38d2b5-32fa-40ca-9a1f-984ce976bea5","ios":"levelo://app?vid=8e38d2b5-32fa-40ca-9a1f-984ce976bea5"},"vehicle_type_id":"4","last_reported":1700762927,"current_range_meters":2000,"station_id":"ce4bhgp2rcd13ifvqfe0","pricing_plan_id":"free"},{"bike_id":"d7910308-9c4d-4a6a-8156-ff59203f679b","system_id":"levelo_inurba_marseille","lat":43.295523,"lon":5.422926,"is_reserved":false,"is_disabled":false,"rental_uris":{"android":"levelo://app?vid=d7910308-9c4d-4a6a-8156-ff59203f679b","ios":"levelo://app?vid=d7910308-9c4d-4a6a-8156-ff59203f679b"},"vehicle_type_id":"4","last_reported":1700762927,"current_range_meters":20000,"station_id":"ce4bhph2rcd13ifvqhdg","pricing_plan_id":"free"},{"bike_id":"aac6da5d-e32f-4895-b760-2c82e416f441","system_id":"levelo_inurba_marseille","lat":43.29554,"lon":5.42296,"is_reserved":false,"is_disabled":false,"rental_uris":{"android":"levelo://app?vid=aac6da5d-e32f-4895-b760-2c82e416f441","ios":"levelo://app?vid=aac6da5d-e32f-4895-b760-2c82e416f441"},"vehicle_type_id":"4","last_reported":1700762927,"current_range_meters":10800,"station_id":"ce4bhph2rcd13ifvqhdg","pricing_plan_id":"free"},{"bike_id":"48c1fbfb-e6c4-4c56-a75c-55416f8bb4c3","system_id":"levelo_inurba_marseille","lat":43.27194,"lon":5.39293,"is_reserved":false,"is_disabled":false,"rental_uris":{"android":"levelo://app?vid=48c1fbfb-e6c4-4c56-a75c-55416f8bb4c3","ios":"levelo://app?vid=48c1fbfb-e6c4-4c56-a75c-55416f8bb4c3"},"vehicle_type_id":"4","last_reported":1700762927,"current_range_meters":25200,"station_id":"","pricing_plan_id":"free"},{"bike_id":"2781e141-723b-48e5-9bc3-3316e9732e11","system_id":"levelo_inurba_marseille","lat":43.278128,"lon":5.407195,"is_reserved":false,"is_disabled":false,"rental_uris":{"android":"levelo://app?vid=2781e141-723b-48e5-9bc3-3316e9732e11","ios":"levelo://app?vid=2781e141-723b-48e5-9bc3-3316e9732e11"},"vehicle_type_id":"4","last_reported":1700762927,"current_range_meters":11600,"station_id":"ce4bhnh2rcd13ifvqgtg","pricing_plan_id":"free"},{"bike_id":"5ea0847c-3261-4870-9561-717b6a72c31f","system_id":"levelo_inurba_marseille","lat":43.269467,"lon":5.386439,"is_reserved":false,"is_disabled":false,"rental_uris":{"android":"levelo://app?vid=5ea0847c-3261-4870-9561-717b6a72c31f","ios":"levelo://app?vid=5ea0847c-3261-4870-9561-717b6a72c31f"},"vehicle_type_id":"4","last_reported":1700762927,"current_range_meters":18400,"station_id":"ce4bhh92rcd13ifvqfh0","pricing_plan_id":"free"},{"bike_id":"202ee6ce-b6c0-4e2a-b4be-fba8bd6e2179","system_id":"levelo_inurba_marseille","lat":43.27946,"lon":5.41049,"is_reserved":false,"is_disabled":false,"rental_uris":{"android":"levelo://app?vid=202ee6ce-b6c0-4e2a-b4be-fba8bd6e2179","ios":"levelo://app?vid=202ee6ce-b6c0-4e2a-b4be-fba8bd6e2179"},"vehicle_type_id":"4","last_reported":1700762927,"current_range_meters":20800,"station_id":"ce4bhnp2rcd13ifvqh0g","pricing_plan_id":"free"},{"bike_id":"9a31796c-56e5-4649-82c7-f77894f07c18","system_id":"levelo_inurba_marseille","lat":43.26684,"lon":5.38271,"is_reserved":false,"is_disabled":false,"rental_uris":{"android":"levelo://app?vid=9a31796c-56e5-4649-82c7-f77894f07c18","ios":"levelo://app?vid=9a31796c-56e5-4649-82c7-f77894f07c18"},"vehicle_type_id":"4","last_reported":1700762927,"current_range_meters":0,"station_id":"ce4bhg92rcd13ifvqf90","pricing_plan_id":"free"},{"bike_id":"28e8ce00-6b21-4e06-9930-c7c4408cc650","system_id":"levelo_inurba_marseille","lat":43.326174,"lon":5.430584,"is_reserved":false,"is_disabled":false,"rental_uris":{"android":"levelo://app?vid=28e8ce00-6b21-4e06-9930-c7c4408cc650","ios":"levelo://app?vid=28e8ce00-6b21-4e06-9930-c7c4408cc650"},"vehicle_type_id":"4","last_reported":1700762927,"current_range_meters":2000,"station_id":"","pricing_plan_id":"free"},{"bike_id":"2b5f0b27-ae58-4e9e-bd76-c585f78e8a73","system_id":"levelo_inurba_marseille","lat":43.26386,"lon":5.37454,"is_reserved":false,"is_disabled":false,"rental_uris":{"android":"levelo://app?vid=2b5f0b27-ae58-4e9e-bd76-c585f78e8a73","ios":"levelo://app?vid=2b5f0b27-ae58-4e9e-bd76-c585f78e8a73"},"vehicle_type_id":"4","last_reported":1700762927,"current_range_meters":17600,"station_id":"","pricing_plan_id":"free"},{"bike_id":"5a72c296-5d91-4ac5-a88b-5369e1512138","system_id":"levelo_inurba_marseille","lat":43.308051,"lon":5.43527,"is_reserved":false,"is_disabled":false,"rental_uris":{"android":"levelo://app?vid=5a72c296-5d91-4ac5-a88b-5369e1512138","ios":"levelo://app?vid=5a72c296-5d91-4ac5-a88b-5369e1512138"},"vehicle_type_id":"4","last_reported":1700762927,"current_range_meters":31200,"station_id":"ce4bhph2rcd13ifvqheg","pricing_plan_id":"free"},{"bike_id":"777bffc9-38a2-4e86-843b-6b912eba8041","system_id":"levelo_inurba_marseille","lat":43.26567,"lon":5.39008,"is_reserved":false,"is_disabled":false,"rental_uris":{"android":"levelo://app?vid=777bffc9-38a2-4e86-843b-6b912eba8041","ios":"levelo://app?vid=777bffc9-38a2-4e86-843b-6b912eba8041"},"vehicle_type_id":"4","last_reported":1700762927,"current_range_meters":11600,"station_id":"ce4bhe12rcd13ifvqf30","pricing_plan_id":"free"},{"bike_id":"17af3d86-5acb-47f6-ba57-f8e5e2eee243","system_id":"levelo_inurba_marseille","lat":43.26949,"lon":5.40262,"is_reserved":false,"is_disabled":false,"rental_uris":{"android":"levelo://app?vid=17af3d86-5acb-47f6-ba57-f8e5e2eee243","ios":"levelo://app?vid=17af3d86-5acb-47f6-ba57-f8e5e2eee243"},"vehicle_type_id":"4","last_reported":1700762927,"current_range_meters":4400,"station_id":"cjm6bp8fraef2m0cb0m0","pricing_plan_id":"free"},{"bike_id":"34b04c4a-8da2-40bc-855d-f5752ec6c618","system_id":"levelo_inurba_marseille","lat":43.26949,"lon":5.40262,"is_reserved":false,"is_disabled":false,"rental_uris":{"android":"levelo://app?vid=34b04c4a-8da2-40bc-855d-f5752ec6c618","ios":"levelo://app?vid=34b04c4a-8da2-40bc-855d-f5752ec6c618"},"vehicle_type_id":"4","last_reported":1700762927,"current_range_meters":0,"station_id":"cjm6bp8fraef2m0cb0m0","pricing_plan_id":"free"},{"bike_id":"df6c34a5-f11f-4a3e-9f1c-7c3158ac0298","system_id":"levelo_inurba_marseille","lat":43.26941,"lon":5.40256,"is_reserved":false,"is_disabled":false,"rental_uris":{"android":"levelo://app?vid=df6c34a5-f11f-4a3e-9f1c-7c3158ac0298","ios":"levelo://app?vid=df6c34a5-f11f-4a3e-9f1c-7c3158ac0298"},"vehicle_type_id":"4","last_reported":1700762927,"current_range_meters":9200,"station_id":"cjm6bp8fraef2m0cb0m0","pricing_plan_id":"free"},{"bike_id":"dfb89860-b0c2-4f7f-b611-a6a910e2686a","system_id":"levelo_inurba_marseille","lat":43.269049,"lon":5.402671,"is_reserved":false,"is_disabled":false,"rental_uris":{"android":"levelo://app?vid=dfb89860-b0c2-4f7f-b611-a6a910e2686a","ios":"levelo://app?vid=dfb89860-b0c2-4f7f-b611-a6a910e2686a"},"vehicle_type_id":"4","last_reported":1700762927,"current_range_meters":11200,"station_id":"cjm6bp8fraef2m0cb0m0","pricing_plan_id":"free"},{"bike_id":"f7190d0e-6463-4feb-a473-7f39aba327f9","system_id":"levelo_inurba_marseille","lat":43.261782,"lon":5.374515,"is_reserved":false,"is_disabled":false,"rental_uris":{"android":"levelo://app?vid=f7190d0e-6463-4feb-a473-7f39aba327f9","ios":"levelo://app?vid=f7190d0e-6463-4feb-a473-7f39aba327f9"},"vehicle_type_id":"4","last_reported":1700762927,"current_range_meters":18400,"station_id":"ce4bhgp2rcd13ifvqfc0","pricing_plan_id":"free"},{"bike_id":"bff709aa-9908-467c-9b91-161de7b65ca1","system_id":"levelo_inurba_marseille","lat":43.31715,"lon":5.43705,"is_reserved":false,"is_disabled":false,"rental_uris":{"android":"levelo://app?vid=bff709aa-9908-467c-9b91-161de7b65ca1","ios":"levelo://app?vid=bff709aa-9908-467c-9b91-161de7b65ca1"},"vehicle_type_id":"4","last_reported":1700762927,"current_range_meters":0,"station_id":"ce4bhp92rcd13ifvqhcg","pricing_plan_id":"free"},{"bike_id":"44c74862-b1b9-4b42-9366-9e8d41a8c3a4","system_id":"levelo_inurba_marseille","lat":43.262012,"lon":5.379307,"is_reserved":false,"is_disabled":false,"rental_uris":{"android":"levelo://app?vid=44c74862-b1b9-4b42-9366-9e8d41a8c3a4","ios":"levelo://app?vid=44c74862-b1b9-4b42-9366-9e8d41a8c3a4"},"vehicle_type_id":"4","last_reported":1700762927,"current_range_meters":7200,"station_id":"ce4bhjp2rcd13ifvqg90","pricing_plan_id":"free"},{"bike_id":"20650c99-8e22-4500-9d54-d01ffda1269c","system_id":"levelo_inurba_marseille","lat":43.27173,"lon":5.40991,"is_reserved":false,"is_disabled":false,"rental_uris":{"android":"levelo://app?vid=20650c99-8e22-4500-9d54-d01ffda1269c","ios":"levelo://app?vid=20650c99-8e22-4500-9d54-d01ffda1269c"},"vehicle_type_id":"4","last_reported":1700762927,"current_range_meters":0,"station_id":"ce4bhl12rcd13ifvqgf0","pricing_plan_id":"free"},{"bike_id":"cb16d7ee-4d8d-44c4-bc7a-142b1234ab63","system_id":"levelo_inurba_marseille","lat":43.31725,"lon":5.43786,"is_reserved":false,"is_disabled":false,"rental_uris":{"android":"levelo://app?vid=cb16d7ee-4d8d-44c4-bc7a-142b1234ab63","ios":"levelo://app?vid=cb16d7ee-4d8d-44c4-bc7a-142b1234ab63"},"vehicle_type_id":"4","last_reported":1700762927,"current_range_meters":0,"station_id":"","pricing_plan_id":"free"},{"bike_id":"d0bb53f7-f1b8-4609-a668-27efdac67f66","system_id":"levelo_inurba_marseille","lat":43.26301,"lon":5.38842,"is_reserved":false,"is_disabled":false,"rental_uris":{"android":"levelo://app?vid=d0bb53f7-f1b8-4609-a668-27efdac67f66","ios":"levelo://app?vid=d0bb53f7-f1b8-4609-a668-27efdac67f66"},"vehicle_type_id":"4","last_reported":1700762927,"current_range_meters":0,"station_id":"","pricing_plan_id":"free"},{"bike_id":"c8e0aad3-4462-4f8b-93ce-b770998879ce","system_id":"levelo_inurba_marseille","lat":43.29895,"lon":5.43662,"is_reserved":false,"is_disabled":false,"rental_uris":{"android":"levelo://app?vid=c8e0aad3-4462-4f8b-93ce-b770998879ce","ios":"levelo://app?vid=c8e0aad3-4462-4f8b-93ce-b770998879ce"},"vehicle_type_id":"4","last_reported":1700762927,"current_range_meters":31200,"station_id":"ce4bhpp2rcd13ifvqhfg","pricing_plan_id":"free"},{"bike_id":"895de8b6-6f51-45cd-a58a-c7983d56547d","system_id":"levelo_inurba_marseille","lat":43.298768,"lon":5.43643,"is_reserved":false,"is_disabled":false,"rental_uris":{"android":"levelo://app?vid=895de8b6-6f51-45cd-a58a-c7983d56547d","ios":"levelo://app?vid=895de8b6-6f51-45cd-a58a-c7983d56547d"},"vehicle_type_id":"4","last_reported":1700762927,"current_range_meters":30400,"station_id":"ce4bhpp2rcd13ifvqhfg","pricing_plan_id":"free"},{"bike_id":"dcc24d23-92af-4468-857a-21629885d848","system_id":"levelo_inurba_marseille","lat":43.298768,"lon":5.43643,"is_reserved":false,"is_disabled":false,"rental_uris":{"android":"levelo://app?vid=dcc24d23-92af-4468-857a-21629885d848","ios":"levelo://app?vid=dcc24d23-92af-4468-857a-21629885d848"},"vehicle_type_id":"4","last_reported":1700762927,"current_range_meters":6400,"station_id":"ce4bhpp2rcd13ifvqhfg","pricing_plan_id":"free"},{"bike_id":"33df9ef6-e796-4189-a05a-75ef9fcb1ce8","system_id":"levelo_inurba_marseille","lat":43.281548,"lon":5.42643,"is_reserved":false,"is_disabled":false,"rental_uris":{"android":"levelo://app?vid=33df9ef6-e796-4189-a05a-75ef9fcb1ce8","ios":"levelo://app?vid=33df9ef6-e796-4189-a05a-75ef9fcb1ce8"},"vehicle_type_id":"4","last_reported":1700762927,"current_range_meters":6800,"station_id":"ce4bhnh2rcd13ifvqgug","pricing_plan_id":"free"},{"bike_id":"4f42384b-07a1-448f-a459-6c4498e43d8a","system_id":"levelo_inurba_marseille","lat":43.28157,"lon":5.42646,"is_reserved":false,"is_disabled":false,"rental_uris":{"android":"levelo://app?vid=4f42384b-07a1-448f-a459-6c4498e43d8a","ios":"levelo://app?vid=4f42384b-07a1-448f-a459-6c4498e43d8a"},"vehicle_type_id":"4","last_reported":1700762927,"current_range_meters":400,"station_id":"ce4bhnh2rcd13ifvqgug","pricing_plan_id":"free"},{"bike_id":"62005033-34f8-4fd1-a00b-cd0882c149c5","system_id":"levelo_inurba_marseille","lat":43.2607,"lon":5.393983,"is_reserved":false,"is_disabled":false,"rental_uris":{"android":"levelo://app?vid=62005033-34f8-4fd1-a00b-cd0882c149c5","ios":"levelo://app?vid=62005033-34f8-4fd1-a00b-cd0882c149c5"},"vehicle_type_id":"4","last_reported":1700762927,"current_range_meters":12800,"station_id":"ce4bhh92rcd13ifvqfj0","pricing_plan_id":"free"},{"bike_id":"f66b51e9-c4a3-4f45-9226-938d4bff2e55","system_id":"levelo_inurba_marseille","lat":43.26089,"lon":5.3976,"is_reserved":false,"is_disabled":false,"rental_uris":{"android":"levelo://app?vid=f66b51e9-c4a3-4f45-9226-938d4bff2e55","ios":"levelo://app?vid=f66b51e9-c4a3-4f45-9226-938d4bff2e55"},"vehicle_type_id":"4","last_reported":1700762927,"current_range_meters":29200,"station_id":"ce4bhi12rcd13ifvqfq0","pricing_plan_id":"free"},{"bike_id":"4e026cf8-9d7f-480c-86b2-b8a0b393d65c","system_id":"levelo_inurba_marseille","lat":43.260909,"lon":5.397591,"is_reserved":false,"is_disabled":false,"rental_uris":{"android":"levelo://app?vid=4e026cf8-9d7f-480c-86b2-b8a0b393d65c","ios":"levelo://app?vid=4e026cf8-9d7f-480c-86b2-b8a0b393d65c"},"vehicle_type_id":"4","last_reported":1700762927,"current_range_meters":12400,"station_id":"ce4bhi12rcd13ifvqfq0","pricing_plan_id":"free"},{"bike_id":"5196ca80-a02e-498e-89f3-bd6f7422bd14","system_id":"levelo_inurba_marseille","lat":43.25583,"lon":5.38237,"is_reserved":false,"is_disabled":false,"rental_uris":{"android":"levelo://app?vid=5196ca80-a02e-498e-89f3-bd6f7422bd14","ios":"levelo://app?vid=5196ca80-a02e-498e-89f3-bd6f7422bd14"},"vehicle_type_id":"4","last_reported":1700762927,"current_range_meters":25200,"station_id":"ce4bhih2rcd13ifvqfs0","pricing_plan_id":"free"},{"bike_id":"0b938667-6ce3-4005-a540-9bccfd7ca7d8","system_id":"levelo_inurba_marseille","lat":43.25825,"lon":5.39434,"is_reserved":false,"is_disabled":false,"rental_uris":{"android":"levelo://app?vid=0b938667-6ce3-4005-a540-9bccfd7ca7d8","ios":"levelo://app?vid=0b938667-6ce3-4005-a540-9bccfd7ca7d8"},"vehicle_type_id":"4","last_reported":1700762927,"current_range_meters":0,"station_id":"ce4bhip2rcd13ifvqft0","pricing_plan_id":"free"},{"bike_id":"3a1f9022-bd46-49cc-bf47-98ffb6823c2e","system_id":"levelo_inurba_marseille","lat":43.25578,"lon":5.38237,"is_reserved":false,"is_disabled":false,"rental_uris":{"android":"levelo://app?vid=3a1f9022-bd46-49cc-bf47-98ffb6823c2e","ios":"levelo://app?vid=3a1f9022-bd46-49cc-bf47-98ffb6823c2e"},"vehicle_type_id":"4","last_reported":1700762927,"current_range_meters":16000,"station_id":"ce4bhih2rcd13ifvqfs0","pricing_plan_id":"free"},{"bike_id":"b58271b7-1ca2-4c49-8f3e-52f83be1885d","system_id":"levelo_inurba_marseille","lat":43.258224,"lon":5.394369,"is_reserved":false,"is_disabled":false,"rental_uris":{"android":"levelo://app?vid=b58271b7-1ca2-4c49-8f3e-52f83be1885d","ios":"levelo://app?vid=b58271b7-1ca2-4c49-8f3e-52f83be1885d"},"vehicle_type_id":"4","last_reported":1700762927,"current_range_meters":28400,"station_id":"ce4bhip2rcd13ifvqft0","pricing_plan_id":"free"},{"bike_id":"d5d0c9ce-8392-4660-bfe9-dba3ab2a79bf","system_id":"levelo_inurba_marseille","lat":43.258224,"lon":5.394369,"is_reserved":false,"is_disabled":false,"rental_uris":{"android":"levelo://app?vid=d5d0c9ce-8392-4660-bfe9-dba3ab2a79bf","ios":"levelo://app?vid=d5d0c9ce-8392-4660-bfe9-dba3ab2a79bf"},"vehicle_type_id":"4","last_reported":1700762927,"current_range_meters":11200,"station_id":"ce4bhip2rcd13ifvqft0","pricing_plan_id":"free"},{"bike_id":"dd5d645c-9d98-4157-8771-f7c1f93b7e61","system_id":"levelo_inurba_marseille","lat":43.270721,"lon":5.422764,"is_reserved":false,"is_disabled":false,"rental_uris":{"android":"levelo://app?vid=dd5d645c-9d98-4157-8771-f7c1f93b7e61","ios":"levelo://app?vid=dd5d645c-9d98-4157-8771-f7c1f93b7e61"},"vehicle_type_id":"4","last_reported":1700762927,"current_range_meters":5200,"station_id":"ce4bhk92rcd13ifvqgb0","pricing_plan_id":"free"},{"bike_id":"1d751b92-5a10-4893-a4e3-1fbf93092a62","system_id":"levelo_inurba_marseille","lat":43.258658,"lon":5.398935,"is_reserved":false,"is_disabled":false,"rental_uris":{"android":"levelo://app?vid=1d751b92-5a10-4893-a4e3-1fbf93092a62","ios":"levelo://app?vid=1d751b92-5a10-4893-a4e3-1fbf93092a62"},"vehicle_type_id":"4","last_reported":1700762927,"current_range_meters":14000,"station_id":"ce4bhl92rcd13ifvqghg","pricing_plan_id":"free"},{"bike_id":"6716617d-429c-4ae1-a5d3-5ad1dd0483f9","system_id":"levelo_inurba_marseille","lat":43.258658,"lon":5.398935,"is_reserved":false,"is_disabled":false,"rental_uris":{"android":"levelo://app?vid=6716617d-429c-4ae1-a5d3-5ad1dd0483f9","ios":"levelo://app?vid=6716617d-429c-4ae1-a5d3-5ad1dd0483f9"},"vehicle_type_id":"4","last_reported":1700762927,"current_range_meters":400,"station_id":"ce4bhl92rcd13ifvqghg","pricing_plan_id":"free"},{"bike_id":"11494382-ce2e-44c2-806d-9f1bc6755b0a","system_id":"levelo_inurba_marseille","lat":43.250009,"lon":5.389195,"is_reserved":false,"is_disabled":false,"rental_uris":{"android":"levelo://app?vid=11494382-ce2e-44c2-806d-9f1bc6755b0a","ios":"levelo://app?vid=11494382-ce2e-44c2-806d-9f1bc6755b0a"},"vehicle_type_id":"4","last_reported":1700762927,"current_range_meters":24000,"station_id":"ce4bhgp2rcd13ifvqfd0","pricing_plan_id":"free"},{"bike_id":"0b67df30-66ff-4a9f-9610-f98ef7917120","system_id":"levelo_inurba_marseille","lat":43.2479,"lon":5.374457,"is_reserved":false,"is_disabled":false,"rental_uris":{"android":"levelo://app?vid=0b67df30-66ff-4a9f-9610-f98ef7917120","ios":"levelo://app?vid=0b67df30-66ff-4a9f-9610-f98ef7917120"},"vehicle_type_id":"4","last_reported":1700762927,"current_range_meters":9600,"station_id":"ce4bhgh2rcd13ifvqfb0","pricing_plan_id":"free"},{"bike_id":"03a6b57e-196d-4361-a53d-18c000089aa6","system_id":"levelo_inurba_marseille","lat":43.250966,"lon":5.395186,"is_reserved":false,"is_disabled":false,"rental_uris":{"android":"levelo://app?vid=03a6b57e-196d-4361-a53d-18c000089aa6","ios":"levelo://app?vid=03a6b57e-196d-4361-a53d-18c000089aa6"},"vehicle_type_id":"4","last_reported":1700762927,"current_range_meters":6400,"station_id":"ce4bhm12rcd13ifvqgkg","pricing_plan_id":"free"},{"bike_id":"efa187b0-d8d1-49c9-acc3-4b60600e5901","system_id":"levelo_inurba_marseille","lat":43.25088,"lon":5.39529,"is_reserved":false,"is_disabled":false,"rental_uris":{"android":"levelo://app?vid=efa187b0-d8d1-49c9-acc3-4b60600e5901","ios":"levelo://app?vid=efa187b0-d8d1-49c9-acc3-4b60600e5901"},"vehicle_type_id":"4","last_reported":1700762927,"current_range_meters":5200,"station_id":"ce4bhm12rcd13ifvqgkg","pricing_plan_id":"free"},{"bike_id":"b80925c1-effd-4120-a0b5-9ff7eadaaa2d","system_id":"levelo_inurba_marseille","lat":43.25086,"lon":5.39523,"is_reserved":false,"is_disabled":false,"rental_uris":{"android":"levelo://app?vid=b80925c1-effd-4120-a0b5-9ff7eadaaa2d","ios":"levelo://app?vid=b80925c1-effd-4120-a0b5-9ff7eadaaa2d"},"vehicle_type_id":"4","last_reported":1700762927,"current_range_meters":30800,"station_id":"ce4bhm12rcd13ifvqgkg","pricing_plan_id":"free"},{"bike_id":"c610d0d9-cbbc-4f97-8ef7-13bc64b1a6b6","system_id":"levelo_inurba_marseille","lat":43.24658,"lon":5.3816,"is_reserved":false,"is_disabled":false,"rental_uris":{"android":"levelo://app?vid=c610d0d9-cbbc-4f97-8ef7-13bc64b1a6b6","ios":"levelo://app?vid=c610d0d9-cbbc-4f97-8ef7-13bc64b1a6b6"},"vehicle_type_id":"4","last_reported":1700762927,"current_range_meters":16400,"station_id":"ce4bhih2rcd13ifvqfr0","pricing_plan_id":"free"},{"bike_id":"629d29db-5858-4125-80f7-e5fe8af2d04b","system_id":"levelo_inurba_marseille","lat":43.25102,"lon":5.403214,"is_reserved":false,"is_disabled":false,"rental_uris":{"android":"levelo://app?vid=629d29db-5858-4125-80f7-e5fe8af2d04b","ios":"levelo://app?vid=629d29db-5858-4125-80f7-e5fe8af2d04b"},"vehicle_type_id":"4","last_reported":1700762927,"current_range_meters":800,"station_id":"ce4bhlh2rcd13ifvqgig","pricing_plan_id":"free"},{"bike_id":"e68545fb-4ac4-40af-8bbe-e46447688418","system_id":"levelo_inurba_marseille","lat":43.25102,"lon":5.403214,"is_reserved":false,"is_disabled":false,"rental_uris":{"android":"levelo://app?vid=e68545fb-4ac4-40af-8bbe-e46447688418","ios":"levelo://app?vid=e68545fb-4ac4-40af-8bbe-e46447688418"},"vehicle_type_id":"4","last_reported":1700762927,"current_range_meters":800,"station_id":"ce4bhlh2rcd13ifvqgig","pricing_plan_id":"free"},{"bike_id":"89b5b3ea-a0a0-443d-840c-24bbc2935b3a","system_id":"levelo_inurba_marseille","lat":43.25105,"lon":5.40321,"is_reserved":false,"is_disabled":false,"rental_uris":{"android":"levelo://app?vid=89b5b3ea-a0a0-443d-840c-24bbc2935b3a","ios":"levelo://app?vid=89b5b3ea-a0a0-443d-840c-24bbc2935b3a"},"vehicle_type_id":"4","last_reported":1700762927,"current_range_meters":6800,"station_id":"ce4bhlh2rcd13ifvqgig","pricing_plan_id":"free"},{"bike_id":"9526d937-c982-461b-addb-61ea09e6e71d","system_id":"levelo_inurba_marseille","lat":43.25105,"lon":5.40323,"is_reserved":false,"is_disabled":false,"rental_uris":{"android":"levelo://app?vid=9526d937-c982-461b-addb-61ea09e6e71d","ios":"levelo://app?vid=9526d937-c982-461b-addb-61ea09e6e71d"},"vehicle_type_id":"4","last_reported":1700762927,"current_range_meters":400,"station_id":"ce4bhlh2rcd13ifvqgig","pricing_plan_id":"free"},{"bike_id":"64767d19-726c-4e82-b52b-eeb289ae8540","system_id":"levelo_inurba_marseille","lat":43.25102,"lon":5.403214,"is_reserved":false,"is_disabled":false,"rental_uris":{"android":"levelo://app?vid=64767d19-726c-4e82-b52b-eeb289ae8540","ios":"levelo://app?vid=64767d19-726c-4e82-b52b-eeb289ae8540"},"vehicle_type_id":"4","last_reported":1700762927,"current_range_meters":8400,"station_id":"ce4bhlh2rcd13ifvqgig","pricing_plan_id":"free"},{"bike_id":"c4db6c00-0b4b-499c-a987-e15238075f65","system_id":"levelo_inurba_marseille","lat":43.24655,"lon":5.38894,"is_reserved":false,"is_disabled":false,"rental_uris":{"android":"levelo://app?vid=c4db6c00-0b4b-499c-a987-e15238075f65","ios":"levelo://app?vid=c4db6c00-0b4b-499c-a987-e15238075f65"},"vehicle_type_id":"4","last_reported":1700762927,"current_range_meters":2000,"station_id":"","pricing_plan_id":"free"},{"bike_id":"fb002053-0192-48fc-a8e8-72417b50f02a","system_id":"levelo_inurba_marseille","lat":43.245581,"lon":5.395069,"is_reserved":false,"is_disabled":false,"rental_uris":{"android":"levelo://app?vid=fb002053-0192-48fc-a8e8-72417b50f02a","ios":"levelo://app?vid=fb002053-0192-48fc-a8e8-72417b50f02a"},"vehicle_type_id":"4","last_reported":1700762927,"current_range_meters":26000,"station_id":"ce4bhlp2rcd13ifvqgjg","pricing_plan_id":"free"},{"bike_id":"d7927755-62c6-43c8-8602-9751792ee59d","system_id":"levelo_inurba_marseille","lat":43.245581,"lon":5.395069,"is_reserved":false,"is_disabled":false,"rental_uris":{"android":"levelo://app?vid=d7927755-62c6-43c8-8602-9751792ee59d","ios":"levelo://app?vid=d7927755-62c6-43c8-8602-9751792ee59d"},"vehicle_type_id":"4","last_reported":1700762927,"current_range_meters":15600,"station_id":"ce4bhlp2rcd13ifvqgjg","pricing_plan_id":"free"},{"bike_id":"f3d0e2aa-83b1-4bf2-8a48-5c677091e940","system_id":"levelo_inurba_marseille","lat":43.240623,"lon":5.377642,"is_reserved":false,"is_disabled":false,"rental_uris":{"android":"levelo://app?vid=f3d0e2aa-83b1-4bf2-8a48-5c677091e940","ios":"levelo://app?vid=f3d0e2aa-83b1-4bf2-8a48-5c677091e940"},"vehicle_type_id":"4","last_reported":1700762927,"current_range_meters":24000,"station_id":"ce4bhnp2rcd13ifvqgvg","pricing_plan_id":"free"},{"bike_id":"74946933-b2b7-48eb-9ae2-890f844b8c5f","system_id":"levelo_inurba_marseille","lat":43.239588,"lon":5.366238,"is_reserved":false,"is_disabled":false,"rental_uris":{"android":"levelo://app?vid=74946933-b2b7-48eb-9ae2-890f844b8c5f","ios":"levelo://app?vid=74946933-b2b7-48eb-9ae2-890f844b8c5f"},"vehicle_type_id":"4","last_reported":1700762927,"current_range_meters":28800,"station_id":"ce4bhi12rcd13ifvqfp0","pricing_plan_id":"free"},{"bike_id":"4ca74aac-a103-4b68-b4a6-27881d713399","system_id":"levelo_inurba_marseille","lat":43.239588,"lon":5.366238,"is_reserved":false,"is_disabled":false,"rental_uris":{"android":"levelo://app?vid=4ca74aac-a103-4b68-b4a6-27881d713399","ios":"levelo://app?vid=4ca74aac-a103-4b68-b4a6-27881d713399"},"vehicle_type_id":"4","last_reported":1700762927,"current_range_meters":12000,"station_id":"ce4bhi12rcd13ifvqfp0","pricing_plan_id":"free"},{"bike_id":"96abc39f-ad07-4d7e-b3ae-73676f3f3c58","system_id":"levelo_inurba_marseille","lat":43.239588,"lon":5.366238,"is_reserved":false,"is_disabled":false,"rental_uris":{"android":"levelo://app?vid=96abc39f-ad07-4d7e-b3ae-73676f3f3c58","ios":"levelo://app?vid=96abc39f-ad07-4d7e-b3ae-73676f3f3c58"},"vehicle_type_id":"4","last_reported":1700762927,"current_range_meters":19600,"station_id":"ce4bhi12rcd13ifvqfp0","pricing_plan_id":"free"},{"bike_id":"ec0ae06a-418c-40e7-bfed-2ce435e44142","system_id":"levelo_inurba_marseille","lat":43.239588,"lon":5.366238,"is_reserved":false,"is_disabled":false,"rental_uris":{"android":"levelo://app?vid=ec0ae06a-418c-40e7-bfed-2ce435e44142","ios":"levelo://app?vid=ec0ae06a-418c-40e7-bfed-2ce435e44142"},"vehicle_type_id":"4","last_reported":1700762927,"current_range_meters":11600,"station_id":"ce4bhi12rcd13ifvqfp0","pricing_plan_id":"free"},{"bike_id":"4c434a78-92e8-423b-942f-5c940f305e63","system_id":"levelo_inurba_marseille","lat":43.239588,"lon":5.366238,"is_reserved":false,"is_disabled":false,"rental_uris":{"android":"levelo://app?vid=4c434a78-92e8-423b-942f-5c940f305e63","ios":"levelo://app?vid=4c434a78-92e8-423b-942f-5c940f305e63"},"vehicle_type_id":"4","last_reported":1700762927,"current_range_meters":6400,"station_id":"ce4bhi12rcd13ifvqfp0","pricing_plan_id":"free"},{"bike_id":"48696721-7d72-4e6d-a69f-9339b8fc83e7","system_id":"levelo_inurba_marseille","lat":43.239588,"lon":5.366238,"is_reserved":false,"is_disabled":false,"rental_uris":{"android":"levelo://app?vid=48696721-7d72-4e6d-a69f-9339b8fc83e7","ios":"levelo://app?vid=48696721-7d72-4e6d-a69f-9339b8fc83e7"},"vehicle_type_id":"4","last_reported":1700762927,"current_range_meters":6400,"station_id":"ce4bhi12rcd13ifvqfp0","pricing_plan_id":"free"},{"bike_id":"2c54862c-aff6-45d6-97d9-752ba2ae7638","system_id":"levelo_inurba_marseille","lat":43.239588,"lon":5.366238,"is_reserved":false,"is_disabled":false,"rental_uris":{"android":"levelo://app?vid=2c54862c-aff6-45d6-97d9-752ba2ae7638","ios":"levelo://app?vid=2c54862c-aff6-45d6-97d9-752ba2ae7638"},"vehicle_type_id":"4","last_reported":1700762927,"current_range_meters":2400,"station_id":"ce4bhi12rcd13ifvqfp0","pricing_plan_id":"free"},{"bike_id":"92467384-89bb-4cba-b408-b94f63527936","system_id":"levelo_inurba_marseille","lat":43.239588,"lon":5.366238,"is_reserved":false,"is_disabled":false,"rental_uris":{"android":"levelo://app?vid=92467384-89bb-4cba-b408-b94f63527936","ios":"levelo://app?vid=92467384-89bb-4cba-b408-b94f63527936"},"vehicle_type_id":"4","last_reported":1700762927,"current_range_meters":6400,"station_id":"ce4bhi12rcd13ifvqfp0","pricing_plan_id":"free"},{"bike_id":"f5364310-c4ab-44b7-bd09-78f44da00b63","system_id":"levelo_inurba_marseille","lat":43.239588,"lon":5.366238,"is_reserved":false,"is_disabled":false,"rental_uris":{"android":"levelo://app?vid=f5364310-c4ab-44b7-bd09-78f44da00b63","ios":"levelo://app?vid=f5364310-c4ab-44b7-bd09-78f44da00b63"},"vehicle_type_id":"4","last_reported":1700762927,"current_range_meters":13200,"station_id":"ce4bhi12rcd13ifvqfp0","pricing_plan_id":"free"},{"bike_id":"5af44420-f288-487d-abf9-5f4de05fc437","system_id":"levelo_inurba_marseille","lat":43.239588,"lon":5.366238,"is_reserved":false,"is_disabled":false,"rental_uris":{"android":"levelo://app?vid=5af44420-f288-487d-abf9-5f4de05fc437","ios":"levelo://app?vid=5af44420-f288-487d-abf9-5f4de05fc437"},"vehicle_type_id":"4","last_reported":1700762927,"current_range_meters":28000,"station_id":"ce4bhi12rcd13ifvqfp0","pricing_plan_id":"free"},{"bike_id":"616d88d5-8ee8-48bd-a886-360c4769bb70","system_id":"levelo_inurba_marseille","lat":43.24178,"lon":5.39725,"is_reserved":false,"is_disabled":false,"rental_uris":{"android":"levelo://app?vid=616d88d5-8ee8-48bd-a886-360c4769bb70","ios":"levelo://app?vid=616d88d5-8ee8-48bd-a886-360c4769bb70"},"vehicle_type_id":"4","last_reported":1700762927,"current_range_meters":12800,"station_id":"ce4bhn12rcd13ifvqgpg","pricing_plan_id":"free"},{"bike_id":"8b9f999b-91a0-4a46-b30d-7e729987032d","system_id":"levelo_inurba_marseille","lat":43.241782,"lon":5.397261,"is_reserved":false,"is_disabled":false,"rental_uris":{"android":"levelo://app?vid=8b9f999b-91a0-4a46-b30d-7e729987032d","ios":"levelo://app?vid=8b9f999b-91a0-4a46-b30d-7e729987032d"},"vehicle_type_id":"4","last_reported":1700762927,"current_range_meters":18400,"station_id":"ce4bhn12rcd13ifvqgpg","pricing_plan_id":"free"},{"bike_id":"375a79a5-1b3f-4595-959f-964b1b9945f2","system_id":"levelo_inurba_marseille","lat":43.241775,"lon":5.397295,"is_reserved":false,"is_disabled":false,"rental_uris":{"android":"levelo://app?vid=375a79a5-1b3f-4595-959f-964b1b9945f2","ios":"levelo://app?vid=375a79a5-1b3f-4595-959f-964b1b9945f2"},"vehicle_type_id":"4","last_reported":1700762927,"current_range_meters":6400,"station_id":"ce4bhn12rcd13ifvqgpg","pricing_plan_id":"free"},{"bike_id":"1858e10d-4d41-4957-bcd0-49c9e64f2b5d","system_id":"levelo_inurba_marseille","lat":43.24178,"lon":5.39733,"is_reserved":false,"is_disabled":false,"rental_uris":{"android":"levelo://app?vid=1858e10d-4d41-4957-bcd0-49c9e64f2b5d","ios":"levelo://app?vid=1858e10d-4d41-4957-bcd0-49c9e64f2b5d"},"vehicle_type_id":"4","last_reported":1700762927,"current_range_meters":8800,"station_id":"ce4bhn12rcd13ifvqgpg","pricing_plan_id":"free"},{"bike_id":"425d3457-d7b1-4bd6-af05-1b26bfd08345","system_id":"levelo_inurba_marseille","lat":43.231923,"lon":5.355545,"is_reserved":false,"is_disabled":false,"rental_uris":{"android":"levelo://app?vid=425d3457-d7b1-4bd6-af05-1b26bfd08345","ios":"levelo://app?vid=425d3457-d7b1-4bd6-af05-1b26bfd08345"},"vehicle_type_id":"4","last_reported":1700762927,"current_range_meters":30400,"station_id":"ce4bhu92rcd13ifvqi70","pricing_plan_id":"free"},{"bike_id":"c3facbb7-06a8-412a-9a80-52aeb0503e18","system_id":"levelo_inurba_marseille","lat":43.231923,"lon":5.355545,"is_reserved":false,"is_disabled":false,"rental_uris":{"android":"levelo://app?vid=c3facbb7-06a8-412a-9a80-52aeb0503e18","ios":"levelo://app?vid=c3facbb7-06a8-412a-9a80-52aeb0503e18"},"vehicle_type_id":"4","last_reported":1700762927,"current_range_meters":30800,"station_id":"ce4bhu92rcd13ifvqi70","pricing_plan_id":"free"},{"bike_id":"34700193-2b37-4988-81ab-1abafccd9969","system_id":"levelo_inurba_marseille","lat":43.231923,"lon":5.355545,"is_reserved":false,"is_disabled":false,"rental_uris":{"android":"levelo://app?vid=34700193-2b37-4988-81ab-1abafccd9969","ios":"levelo://app?vid=34700193-2b37-4988-81ab-1abafccd9969"},"vehicle_type_id":"4","last_reported":1700762927,"current_range_meters":28800,"station_id":"ce4bhu92rcd13ifvqi70","pricing_plan_id":"free"},{"bike_id":"15098f4a-57e6-48e8-846b-97856909e7a5","system_id":"levelo_inurba_marseille","lat":43.231919,"lon":5.355532,"is_reserved":false,"is_disabled":false,"rental_uris":{"android":"levelo://app?vid=15098f4a-57e6-48e8-846b-97856909e7a5","ios":"levelo://app?vid=15098f4a-57e6-48e8-846b-97856909e7a5"},"vehicle_type_id":"4","last_reported":1700762927,"current_range_meters":20000,"station_id":"ce4bhu92rcd13ifvqi70","pricing_plan_id":"free"},{"bike_id":"aeb874ed-5a67-45f7-94cd-1c1e110219bc","system_id":"levelo_inurba_marseille","lat":43.231919,"lon":5.355532,"is_reserved":false,"is_disabled":false,"rental_uris":{"android":"levelo://app?vid=aeb874ed-5a67-45f7-94cd-1c1e110219bc","ios":"levelo://app?vid=aeb874ed-5a67-45f7-94cd-1c1e110219bc"},"vehicle_type_id":"4","last_reported":1700762927,"current_range_meters":31600,"station_id":"ce4bhu92rcd13ifvqi70","pricing_plan_id":"free"},{"bike_id":"9c2bf53e-bbf1-4349-bc38-b78a298e6986","system_id":"levelo_inurba_marseille","lat":43.231793,"lon":5.400044,"is_reserved":false,"is_disabled":false,"rental_uris":{"android":"levelo://app?vid=9c2bf53e-bbf1-4349-bc38-b78a298e6986","ios":"levelo://app?vid=9c2bf53e-bbf1-4349-bc38-b78a298e6986"},"vehicle_type_id":"4","last_reported":1700762927,"current_range_meters":15600,"station_id":"ce4bhn12rcd13ifvqgqg","pricing_plan_id":"free"},{"bike_id":"42b71bb2-3e67-452d-bdb5-18d18eec3243","system_id":"levelo_inurba_marseille","lat":43.231794,"lon":5.400052,"is_reserved":false,"is_disabled":false,"rental_uris":{"android":"levelo://app?vid=42b71bb2-3e67-452d-bdb5-18d18eec3243","ios":"levelo://app?vid=42b71bb2-3e67-452d-bdb5-18d18eec3243"},"vehicle_type_id":"4","last_reported":1700762927,"current_range_meters":26800,"station_id":"ce4bhn12rcd13ifvqgqg","pricing_plan_id":"free"},{"bike_id":"ba6d79c0-6a21-43e4-a3e7-c61b28164239","system_id":"levelo_inurba_marseille","lat":43.231793,"lon":5.400044,"is_reserved":false,"is_disabled":false,"rental_uris":{"android":"levelo://app?vid=ba6d79c0-6a21-43e4-a3e7-c61b28164239","ios":"levelo://app?vid=ba6d79c0-6a21-43e4-a3e7-c61b28164239"},"vehicle_type_id":"4","last_reported":1700762927,"current_range_meters":400,"station_id":"ce4bhn12rcd13ifvqgqg","pricing_plan_id":"free"},{"bike_id":"62d0079e-a6d1-4abb-8137-335ef37b5185","system_id":"levelo_inurba_marseille","lat":43.2318,"lon":5.39981,"is_reserved":false,"is_disabled":false,"rental_uris":{"android":"levelo://app?vid=62d0079e-a6d1-4abb-8137-335ef37b5185","ios":"levelo://app?vid=62d0079e-a6d1-4abb-8137-335ef37b5185"},"vehicle_type_id":"4","last_reported":1700762927,"current_range_meters":24800,"station_id":"ce4bhn12rcd13ifvqgqg","pricing_plan_id":"free"},{"bike_id":"0d65e76d-9880-4e2c-a36d-b8425499c90e","system_id":"levelo_inurba_marseille","lat":43.231793,"lon":5.400044,"is_reserved":false,"is_disabled":false,"rental_uris":{"android":"levelo://app?vid=0d65e76d-9880-4e2c-a36d-b8425499c90e","ios":"levelo://app?vid=0d65e76d-9880-4e2c-a36d-b8425499c90e"},"vehicle_type_id":"4","last_reported":1700762927,"current_range_meters":21600,"station_id":"ce4bhn12rcd13ifvqgqg","pricing_plan_id":"free"},{"bike_id":"0ac3e6f0-b012-41ac-a04d-1110541c6da0","system_id":"levelo_inurba_marseille","lat":43.231794,"lon":5.400052,"is_reserved":false,"is_disabled":false,"rental_uris":{"android":"levelo://app?vid=0ac3e6f0-b012-41ac-a04d-1110541c6da0","ios":"levelo://app?vid=0ac3e6f0-b012-41ac-a04d-1110541c6da0"},"vehicle_type_id":"4","last_reported":1700762927,"current_range_meters":29600,"station_id":"ce4bhn12rcd13ifvqgqg","pricing_plan_id":"free"},{"bike_id":"b1ff8538-de6b-4362-8b24-b9288098290c","system_id":"levelo_inurba_marseille","lat":43.231793,"lon":5.400044,"is_reserved":false,"is_disabled":false,"rental_uris":{"android":"levelo://app?vid=b1ff8538-de6b-4362-8b24-b9288098290c","ios":"levelo://app?vid=b1ff8538-de6b-4362-8b24-b9288098290c"},"vehicle_type_id":"4","last_reported":1700762927,"current_range_meters":14400,"station_id":"ce4bhn12rcd13ifvqgqg","pricing_plan_id":"free"},{"bike_id":"0781b68f-f7ce-4993-97f3-a63d398915f6","system_id":"levelo_inurba_marseille","lat":43.231793,"lon":5.400044,"is_reserved":false,"is_disabled":false,"rental_uris":{"android":"levelo://app?vid=0781b68f-f7ce-4993-97f3-a63d398915f6","ios":"levelo://app?vid=0781b68f-f7ce-4993-97f3-a63d398915f6"},"vehicle_type_id":"4","last_reported":1700762927,"current_range_meters":10800,"station_id":"ce4bhn12rcd13ifvqgqg","pricing_plan_id":"free"},{"bike_id":"df7e6c4d-a3bc-48a2-a471-a72390a84d34","system_id":"levelo_inurba_marseille","lat":43.231793,"lon":5.400044,"is_reserved":false,"is_disabled":false,"rental_uris":{"android":"levelo://app?vid=df7e6c4d-a3bc-48a2-a471-a72390a84d34","ios":"levelo://app?vid=df7e6c4d-a3bc-48a2-a471-a72390a84d34"},"vehicle_type_id":"4","last_reported":1700762927,"current_range_meters":26000,"station_id":"ce4bhn12rcd13ifvqgqg","pricing_plan_id":"free"},{"bike_id":"bfef33e7-e071-4d70-b1cc-05a6160336e4","system_id":"levelo_inurba_marseille","lat":43.231793,"lon":5.400044,"is_reserved":false,"is_disabled":false,"rental_uris":{"android":"levelo://app?vid=bfef33e7-e071-4d70-b1cc-05a6160336e4","ios":"levelo://app?vid=bfef33e7-e071-4d70-b1cc-05a6160336e4"},"vehicle_type_id":"4","last_reported":1700762927,"current_range_meters":23600,"station_id":"ce4bhn12rcd13ifvqgqg","pricing_plan_id":"free"},{"bike_id":"d3b8a9d5-8f94-4141-9ce6-0e001b35d74c","system_id":"levelo_inurba_marseille","lat":43.231793,"lon":5.400044,"is_reserved":false,"is_disabled":false,"rental_uris":{"android":"levelo://app?vid=d3b8a9d5-8f94-4141-9ce6-0e001b35d74c","ios":"levelo://app?vid=d3b8a9d5-8f94-4141-9ce6-0e001b35d74c"},"vehicle_type_id":"4","last_reported":1700762927,"current_range_meters":0,"station_id":"ce4bhn12rcd13ifvqgqg","pricing_plan_id":"free"},{"bike_id":"a81e840e-2b44-4793-bc6a-d8c7fec1ba93","system_id":"levelo_inurba_marseille","lat":43.231562,"lon":5.436933,"is_reserved":false,"is_disabled":false,"rental_uris":{"android":"levelo://app?vid=a81e840e-2b44-4793-bc6a-d8c7fec1ba93","ios":"levelo://app?vid=a81e840e-2b44-4793-bc6a-d8c7fec1ba93"},"vehicle_type_id":"4","last_reported":1700762927,"current_range_meters":800,"station_id":"ce4bhmp2rcd13ifvqgog","pricing_plan_id":"free"}]}}