{"last_updated":1736777392,"ttl":60,"version":"2.2","data":{"bikes":[{"bike_id":"2f4e0253-da65-48c9-961b-7746ab2ffb8d","system_id":"levelo_inurba_marseille","lat":43.32483,"lon":5.36591,"is_reserved":false,"is_disabled":false,"rental_uris":{"android":"levelo://app?vid=2f4e0253-da65-48c9-961b-7746ab2ffb8d","ios":"levelo://app?vid=2f4e0253-da65-48c9-961b-7746ab2ffb8d"},"vehicle_type_id":"4","last_reported":1736777392,"current_range_meters":38800,"station_id":"ce4bhs12rcd13ifvqhvg","pricing_plan_id":"cebpf4jnsgd1na2vs0mg"},{"bike_id":"bd0d77ed-7352-46d9-acc6-75ae60247142","system_id":"levelo_inurba_marseille","lat":43.27492,"lon":5.4247,"is_reserved":false,"is_disabled":false,"rental_uris":{"android":"levelo://app?vid=bd0d77ed-7352-46d9-acc6-75ae60247142","ios":"levelo://app?vid=bd0d77ed-7352-46d9-acc6-75ae60247142"},"vehicle_type_id":"4","last_reported":1736777392,"current_range_meters":16400,"station_id":"ce4bhn92rcd13ifvqgrg","pricing_plan_id":"cebpf4jnsgd1na2vs0mg"},{"bike_id":"7d0d9ed5-be93-403c-9034-97996642f4e5","system_id":"levelo_inurba_marseille","lat":43.266742,"lon":5.382614,"is_reserved":false,"is_disabled":false,"rental_uris":{"android":"levelo://app?vid=7d0d9ed5-be93-403c-9034-97996642f4e5","ios":"levelo://app?vid=7d0d9ed5-be93-403c-9034-97996642f4e5"},"vehicle_type_id":"4","last_reported":1736777392,"current_range_meters":24000,"station_id":"ce4bhg92rcd13ifvqf90","pricing_plan_id":"cebpf4jnsgd1na2vs0mg"},{"bike_id":"381d68d8-d990-4e4d-8ce4-1c321f0e5923","system_id":"levelo_inurba_marseille","lat":43.29626,"lon":5.40601,"is_reserved":false,"is_disabled":false,"rental_uris":{"android":"levelo://app?vid=381d68d8-d990-4e4d-8ce4-1c321f0e5923","ios":"levelo://app?vid=381d68d8-d990-4e4d-8ce4-1c321f0e5923"},"vehicle_type_id":"4","last_reported":1736777392,"current_range_meters":22000,"station_id":"ce4bh0h2rcd13ifvqd60","pricing_plan_id":"cebpf4jnsgd1na2vs0mg"},{"bike_id":"07bc85c0-570a-4eb0-bb38-55d45fa69f2b","system_id":"levelo_inurba_marseille","lat":43.3137,"lon":5.38506,"is_reserved":false,"is_disabled":false,"rental_uris":{"android":"levelo://app?vid=07bc85c0-570a-4eb0-bb38-55d45fa69f2b","ios":"levelo://app?vid=07bc85c0-570a-4eb0-bb38-55d45fa69f2b"},"vehicle_type_id":"4","last_reported":1736777392,"current_range_meters":32400,"station_id":"ce4bgt92rcd13ifvqcf0","pricing_plan_id":"cebpf4jnsgd1na2vs0mg"},{"bike_id":"8422842a-2675-44f5-a261-b5a060f85da5","system_id":"levelo_inurba_marseille","lat":43.29364,"lon":5.37843,"is_reserved":false,"is_disabled":false,"rental_uris":{"android":"levelo://app?vid=8422842a-2675-44f5-a261-b5a060f85da5","ios":"levelo://app?vid=8422842a-2675-44f5-a261-b5a060f85da5"},"vehicle_type_id":"4","last_reported":1736777392,"current_range_meters":30800,"station_id":"ce4bgjh2rcd13ifvqbf0","pricing_plan_id":"cebpf4jnsgd1na2vs0mg"},{"bike_id":"8df66f74-b7b1-4730-a851-ab6b59f101e6","system_id":"levelo_inurba_marseille","lat":43.28617,"lon":5.35103,"is_reserved":false,"is_disabled":false,"rental_uris":{"android":"levelo://app?vid=8df66f74-b7b1-4730-a851-ab6b59f101e6","ios":"levelo://app?vid=8df66f74-b7b1-4730-a851-ab6b59f101e6"},"vehicle_type_id":"4","last_reported":1736777392,"current_range_meters":34000,"station_id":"ce4bhch2rcd13ifvqeug","pricing_plan_id":"cebpf4jnsgd1na2vs0mg"},{"bike_id":"1fe216ea-541b-4236-a53c-06de114152ee","system_id":"levelo_inurba_marseille","lat":43.29261,"lon":5.38447,"is_reserved":false,"is_disabled":false,"rental_uris":{"android":"levelo://app?vid=1fe216ea-541b-4236-a53c-06de114152ee","ios":"levelo://app?vid=1fe216ea-541b-4236-a53c-06de114152ee"},"vehicle_type_id":"4","last_reported":1736777392,"current_range_meters":28800,"station_id":"ce4bh692rcd13ifvqea0","pricing_plan_id":"cebpf4jnsgd1na2vs0mg"},{"bike_id":"40369775-7739-4bec-a80b-ef9ad7dc7c2e","system_id":"levelo_inurba_marseille","lat":43.306433,"lon":5.380137,"is_reserved":false,"is_disabled":false,"rental_uris":{"android":"levelo://app?vid=40369775-7739-4bec-a80b-ef9ad7dc7c2e","ios":"levelo://app?vid=40369775-7739-4bec-a80b-ef9ad7dc7c2e"},"vehicle_type_id":"4","last_reported":1736777392,"current_range_meters":25200,"station_id":"","pricing_plan_id":"cebpf4jnsgd1na2vs0mg"},{"bike_id":"69947bd9-fb8b-4615-9f4f-cf2c6d4d285b","system_id":"levelo_inurba_marseille","lat":43.29792,"lon":5.37097,"is_reserved":false,"is_disabled":false,"rental_uris":{"android":"levelo://app?vid=69947bd9-fb8b-4615-9f4f-cf2c6d4d285b","ios":"levelo://app?vid=69947bd9-fb8b-4615-9f4f-cf2c6d4d285b"},"vehicle_type_id":"4","last_reported":1736777392,"current_range_meters":38400,"station_id":"ce4bgop2rcd13ifvqc1g","pricing_plan_id":"cebpf4jnsgd1na2vs0mg"},{"bike_id":"5bb5758f-37be-496e-ac0a-3712e6b43125","system_id":"levelo_inurba_marseille","lat":43.26209,"lon":5.37942,"is_reserved":false,"is_disabled":false,"rental_uris":{"android":"levelo://app?vid=5bb5758f-37be-496e-ac0a-3712e6b43125","ios":"levelo://app?vid=5bb5758f-37be-496e-ac0a-3712e6b43125"},"vehicle_type_id":"4","last_reported":1736777392,"current_range_meters":38800,"station_id":"ce4bhjp2rcd13ifvqg90","pricing_plan_id":"cebpf4jnsgd1na2vs0mg"},{"bike_id":"fbdc1be9-0896-4827-9983-8a84e7013511","system_id":"levelo_inurba_marseille","lat":43.25145,"lon":5.40337,"is_reserved":false,"is_disabled":false,"rental_uris":{"android":"levelo://app?vid=fbdc1be9-0896-4827-9983-8a84e7013511","ios":"levelo://app?vid=fbdc1be9-0896-4827-9983-8a84e7013511"},"vehicle_type_id":"4","last_reported":1736777392,"current_range_meters":37600,"station_id":"ce4bhlh2rcd13ifvqgig","pricing_plan_id":"cebpf4jnsgd1na2vs0mg"},{"bike_id":"08414dc8-ca1a-4c55-a1fd-bdd61f70b47b","system_id":"levelo_inurba_marseille","lat":43.24673,"lon":5.38154,"is_reserved":false,"is_disabled":false,"rental_uris":{"android":"levelo://app?vid=08414dc8-ca1a-4c55-a1fd-bdd61f70b47b","ios":"levelo://app?vid=08414dc8-ca1a-4c55-a1fd-bdd61f70b47b"},"vehicle_type_id":"4","last_reported":1736777392,"current_range_meters":26800,"station_id":"ce4bhih2rcd13ifvqfr0","pricing_plan_id":"cebpf4jnsgd1na2vs0mg"},{"bike_id":"037e95d4-e3d1-4b9f-91c0-12e59c6d01e4","system_id":"levelo_inurba_marseille","lat":43.26955,"lon":5.38624,"is_reserved":false,"is_disabled":false,"rental_uris":{"android":"levelo://app?vid=037e95d4-e3d1-4b9f-91c0-12e59c6d01e4","ios":"levelo://app?vid=037e95d4-e3d1-4b9f-91c0-12e59c6d01e4"},"vehicle_type_id":"4","last_reported":1736777392,"current_range_meters":38800,"station_id":"ce4bhh92rcd13ifvqfh0","pricing_plan_id":"cebpf4jnsgd1na2vs0mg"},{"bike_id":"660b2e55-75a7-43af-ad92-d6e9be442618","system_id":"levelo_inurba_marseille","lat":43.30321,"lon":5.36904,"is_reserved":false,"is_disabled":false,"rental_uris":{"android":"levelo://app?vid=660b2e55-75a7-43af-ad92-d6e9be442618","ios":"levelo://app?vid=660b2e55-75a7-43af-ad92-d6e9be442618"},"vehicle_type_id":"4","last_reported":1736777392,"current_range_meters":30000,"station_id":"ce4bgqh2rcd13ifvqc5g","pricing_plan_id":"cebpf4jnsgd1na2vs0mg"},{"bike_id":"796f2184-9f90-40b3-a96d-92ade0a98940","system_id":"levelo_inurba_marseille","lat":43.27502,"lon":5.4245,"is_reserved":false,"is_disabled":false,"rental_uris":{"android":"levelo://app?vid=796f2184-9f90-40b3-a96d-92ade0a98940","ios":"levelo://app?vid=796f2184-9f90-40b3-a96d-92ade0a98940"},"vehicle_type_id":"4","last_reported":1736777392,"current_range_meters":4400,"station_id":"ce4bhn92rcd13ifvqgrg","pricing_plan_id":"cebpf4jnsgd1na2vs0mg"},{"bike_id":"b5c8f85c-e9ae-462e-b017-013eb2d5b68f","system_id":"levelo_inurba_marseille","lat":43.23145,"lon":5.4372,"is_reserved":false,"is_disabled":false,"rental_uris":{"android":"levelo://app?vid=b5c8f85c-e9ae-462e-b017-013eb2d5b68f","ios":"levelo://app?vid=b5c8f85c-e9ae-462e-b017-013eb2d5b68f"},"vehicle_type_id":"4","last_reported":1736777392,"current_range_meters":26800,"station_id":"ce4bhmp2rcd13ifvqgog","pricing_plan_id":"cebpf4jnsgd1na2vs0mg"},{"bike_id":"2a884132-1669-4598-b703-30cbbe589560","system_id":"levelo_inurba_marseille","lat":43.3256,"lon":5.41436,"is_reserved":false,"is_disabled":false,"rental_uris":{"android":"levelo://app?vid=2a884132-1669-4598-b703-30cbbe589560","ios":"levelo://app?vid=2a884132-1669-4598-b703-30cbbe589560"},"vehicle_type_id":"4","last_reported":1736777392,"current_range_meters":39200,"station_id":"ce4bhq12rcd13ifvqhhg","pricing_plan_id":"cebpf4jnsgd1na2vs0mg"},{"bike_id":"639a3884-51cf-48bc-b586-11035b68cac1","system_id":"levelo_inurba_marseille","lat":43.27069,"lon":5.40256,"is_reserved":false,"is_disabled":false,"rental_uris":{"android":"levelo://app?vid=639a3884-51cf-48bc-b586-11035b68cac1","ios":"levelo://app?vid=639a3884-51cf-48bc-b586-11035b68cac1"},"vehicle_type_id":"4","last_reported":1736777392,"current_range_meters":3600,"station_id":"ce4bhk92rcd13ifvqgc0","pricing_plan_id":"cebpf4jnsgd1na2vs0mg"},{"bike_id":"25201559-3be6-490e-b049-639df5366fcd","system_id":"levelo_inurba_marseille","lat":43.29966,"lon":5.38486,"is_reserved":false,"is_disabled":true,"rental_uris":{"android":"levelo://app?vid=25201559-3be6-490e-b049-639df5366fcd","ios":"levelo://app?vid=25201559-3be6-490e-b049-639df5366fcd"},"vehicle_type_id":"4","last_reported":1736777392,"current_range_meters":38800,"station_id":"ce4bgj92rcd13ifvqbd0","pricing_plan_id":"cebpf4jnsgd1na2vs0mg"},{"bike_id":"94440fca-9d66-4315-a057-b48311229f6d","system_id":"levelo_inurba_marseille","lat":43.3361,"lon":5.41027,"is_reserved":false,"is_disabled":true,"rental_uris":{"android":"levelo://app?vid=94440fca-9d66-4315-a057-b48311229f6d","ios":"levelo://app?vid=94440fca-9d66-4315-a057-b48311229f6d"},"vehicle_type_id":"4","last_reported":1736777392,"current_range_meters":38000,"station_id":"ce4bhqh2rcd13ifvqhmg","pricing_plan_id":"cebpf4jnsgd1na2vs0mg"},{"bike_id":"4598cfca-c4ff-4190-a334-2c913a2bdef3","system_id":"levelo_inurba_marseille","lat":43.26193,"lon":5.37449,"is_reserved":false,"is_disabled":false,"rental_uris":{"android":"levelo://app?vid=4598cfca-c4ff-4190-a334-2c913a2bdef3","ios":"levelo://app?vid=4598cfca-c4ff-4190-a334-2c913a2bdef3"},"vehicle_type_id":"4","last_reported":1736777392,"current_range_meters":20800,"station_id":"ce4bhgp2rcd13ifvqfc0","pricing_plan_id":"cebpf4jnsgd1na2vs0mg"},{"bike_id":"19c592e6-5402-4a0c-931d-b8a83923c2aa","system_id":"levelo_inurba_marseille","lat":43.30177,"lon":5.37404,"is_reserved":false,"is_disabled":false,"rental_uris":{"android":"levelo://app?vid=19c592e6-5402-4a0c-931d-b8a83923c2aa","ios":"levelo://app?vid=19c592e6-5402-4a0c-931d-b8a83923c2aa"},"vehicle_type_id":"4","last_reported":1736777392,"current_range_meters":38800,"station_id":"ce4bgs92rcd13ifvqcc0","pricing_plan_id":"cebpf4jnsgd1na2vs0mg"},{"bike_id":"6a8dc65c-8c47-4239-8815-8efa2acdc338","system_id":"levelo_inurba_marseille","lat":43.27991,"lon":5.41651,"is_reserved":false,"is_disabled":true,"rental_uris":{"android":"levelo://app?vid=6a8dc65c-8c47-4239-8815-8efa2acdc338","ios":"levelo://app?vid=6a8dc65c-8c47-4239-8815-8efa2acdc338"},"vehicle_type_id":"4","last_reported":1736777392,"current_range_meters":3600,"station_id":"ce4bho12rcd13ifvqh1g","pricing_plan_id":"cebpf4jnsgd1na2vs0mg"},{"bike_id":"ded20d35-e780-428a-86ea-981fc64b28d2","system_id":"levelo_inurba_marseille","lat":43.29543,"lon":5.42267,"is_reserved":false,"is_disabled":false,"rental_uris":{"android":"levelo://app?vid=ded20d35-e780-428a-86ea-981fc64b28d2","ios":"levelo://app?vid=ded20d35-e780-428a-86ea-981fc64b28d2"},"vehicle_type_id":"4","last_reported":1736777392,"current_range_meters":22800,"station_id":"ce4bhph2rcd13ifvqhdg","pricing_plan_id":"cebpf4jnsgd1na2vs0mg"},{"bike_id":"94d00723-79f7-443c-bc62-0c89ddbb1d1c","system_id":"levelo_inurba_marseille","lat":43.28168,"lon":5.42658,"is_reserved":false,"is_disabled":true,"rental_uris":{"android":"levelo://app?vid=94d00723-79f7-443c-bc62-0c89ddbb1d1c","ios":"levelo://app?vid=94d00723-79f7-443c-bc62-0c89ddbb1d1c"},"vehicle_type_id":"4","last_reported":1736777392,"current_range_meters":20800,"station_id":"ce4bhnh2rcd13ifvqgug","pricing_plan_id":"cebpf4jnsgd1na2vs0mg"},{"bike_id":"625f9337-8713-4637-982a-e8cda5d97431","system_id":"levelo_inurba_marseille","lat":43.24646,"lon":5.38896,"is_reserved":false,"is_disabled":false,"rental_uris":{"android":"levelo://app?vid=625f9337-8713-4637-982a-e8cda5d97431","ios":"levelo://app?vid=625f9337-8713-4637-982a-e8cda5d97431"},"vehicle_type_id":"4","last_reported":1736777392,"current_range_meters":37600,"station_id":"ce4bhg12rcd13ifvqf60","pricing_plan_id":"cebpf4jnsgd1na2vs0mg"},{"bike_id":"1d1453ac-9920-4217-9a89-34f1fcade485","system_id":"levelo_inurba_marseille","lat":43.23154,"lon":5.43716,"is_reserved":false,"is_disabled":false,"rental_uris":{"android":"levelo://app?vid=1d1453ac-9920-4217-9a89-34f1fcade485","ios":"levelo://app?vid=1d1453ac-9920-4217-9a89-34f1fcade485"},"vehicle_type_id":"4","last_reported":1736777392,"current_range_meters":8400,"station_id":"ce4bhmp2rcd13ifvqgog","pricing_plan_id":"cebpf4jnsgd1na2vs0mg"},{"bike_id":"936740fb-9b34-4884-80d6-b102868533e7","system_id":"levelo_inurba_marseille","lat":43.32472,"lon":5.36572,"is_reserved":false,"is_disabled":false,"rental_uris":{"android":"levelo://app?vid=936740fb-9b34-4884-80d6-b102868533e7","ios":"levelo://app?vid=936740fb-9b34-4884-80d6-b102868533e7"},"vehicle_type_id":"4","last_reported":1736777392,"current_range_meters":38400,"station_id":"ce4bhs12rcd13ifvqhvg","pricing_plan_id":"cebpf4jnsgd1na2vs0mg"},{"bike_id":"e35d110b-0ca6-4c99-b711-04ba364d3860","system_id":"levelo_inurba_marseille","lat":43.23194,"lon":5.35554,"is_reserved":false,"is_disabled":false,"rental_uris":{"android":"levelo://app?vid=e35d110b-0ca6-4c99-b711-04ba364d3860","ios":"levelo://app?vid=e35d110b-0ca6-4c99-b711-04ba364d3860"},"vehicle_type_id":"4","last_reported":1736777392,"current_range_meters":38000,"station_id":"ce4bhu92rcd13ifvqi70","pricing_plan_id":"cebpf4jnsgd1na2vs0mg"},{"bike_id":"0dd2659a-1ff1-4820-a795-481dd0bba32c","system_id":"levelo_inurba_marseille","lat":43.29717,"lon":5.36613,"is_reserved":false,"is_disabled":false,"rental_uris":{"android":"levelo://app?vid=0dd2659a-1ff1-4820-a795-481dd0bba32c","ios":"levelo://app?vid=0dd2659a-1ff1-4820-a795-481dd0bba32c"},"vehicle_type_id":"4","last_reported":1736777392,"current_range_meters":38000,"station_id":"ce4bgn12rcd13ifvqbt0","pricing_plan_id":"cebpf4jnsgd1na2vs0mg"},{"bike_id":"c54f06f7-fe86-4c62-afba-a3896be9173e","system_id":"levelo_inurba_marseille","lat":43.262031,"lon":5.379264,"is_reserved":false,"is_disabled":false,"rental_uris":{"android":"levelo://app?vid=c54f06f7-fe86-4c62-afba-a3896be9173e","ios":"levelo://app?vid=c54f06f7-fe86-4c62-afba-a3896be9173e"},"vehicle_type_id":"4","last_reported":1736777392,"current_range_meters":19600,"station_id":"ce4bhjp2rcd13ifvqg90","pricing_plan_id":"cebpf4jnsgd1na2vs0mg"},{"bike_id":"4ab80d9f-a6aa-413f-b2d8-93576da9c6b3","system_id":"levelo_inurba_marseille","lat":43.26207,"lon":5.37444,"is_reserved":false,"is_disabled":false,"rental_uris":{"android":"levelo://app?vid=4ab80d9f-a6aa-413f-b2d8-93576da9c6b3","ios":"levelo://app?vid=4ab80d9f-a6aa-413f-b2d8-93576da9c6b3"},"vehicle_type_id":"4","last_reported":1736777392,"current_range_meters":25200,"station_id":"ce4bhgp2rcd13ifvqfc0","pricing_plan_id":"cebpf4jnsgd1na2vs0mg"},{"bike_id":"1c0fabe0-1baf-486c-b285-feeb21489cf1","system_id":"levelo_inurba_marseille","lat":43.27059,"lon":5.42263,"is_reserved":false,"is_disabled":false,"rental_uris":{"android":"levelo://app?vid=1c0fabe0-1baf-486c-b285-feeb21489cf1","ios":"levelo://app?vid=1c0fabe0-1baf-486c-b285-feeb21489cf1"},"vehicle_type_id":"4","last_reported":1736777392,"current_range_meters":30400,"station_id":"ce4bhk92rcd13ifvqgb0","pricing_plan_id":"cebpf4jnsgd1na2vs0mg"},{"bike_id":"6b750947-fb43-40e2-9931-495446cc2b3f","system_id":"levelo_inurba_marseille","lat":43.22933,"lon":5.3537,"is_reserved":false,"is_disabled":false,"rental_uris":{"android":"levelo://app?vid=6b750947-fb43-40e2-9931-495446cc2b3f","ios":"levelo://app?vid=6b750947-fb43-40e2-9931-495446cc2b3f"},"vehicle_type_id":"4","last_reported":1736777392,"current_range_meters":28800,"station_id":"cpo3532slgdg3j2ikp40","pricing_plan_id":"cebpf4jnsgd1na2vs0mg"},{"bike_id":"c8e997c0-8580-4d0f-8d9f-0766596381e1","system_id":"levelo_inurba_marseille","lat":43.34012,"lon":5.37561,"is_reserved":false,"is_disabled":true,"rental_uris":{"android":"levelo://app?vid=c8e997c0-8580-4d0f-8d9f-0766596381e1","ios":"levelo://app?vid=c8e997c0-8580-4d0f-8d9f-0766596381e1"},"vehicle_type_id":"4","last_reported":1736777392,"current_range_meters":0,"station_id":"","pricing_plan_id":"cebpf4jnsgd1na2vs0mg"},{"bike_id":"5642eab1-0db7-43fd-a713-6d2dc36ef87c","system_id":"levelo_inurba_marseille","lat":43.30892,"lon":5.36836,"is_reserved":false,"is_disabled":false,"rental_uris":{"android":"levelo://app?vid=5642eab1-0db7-43fd-a713-6d2dc36ef87c","ios":"levelo://app?vid=5642eab1-0db7-43fd-a713-6d2dc36ef87c"},"vehicle_type_id":"4","last_reported":1736777392,"current_range_meters":32400,"station_id":"ce4bgn92rcd13ifvqbvg","pricing_plan_id":"cebpf4jnsgd1na2vs0mg"},{"bike_id":"fdfb0b60-d7fc-4b7e-aa09-c8c737b35e7f","system_id":"levelo_inurba_marseille","lat":43.30314,"lon":5.36896,"is_reserved":false,"is_disabled":false,"rental_uris":{"android":"levelo://app?vid=fdfb0b60-d7fc-4b7e-aa09-c8c737b35e7f","ios":"levelo://app?vid=fdfb0b60-d7fc-4b7e-aa09-c8c737b35e7f"},"vehicle_type_id":"4","last_reported":1736777392,"current_range_meters":19200,"station_id":"ce4bgqh2rcd13ifvqc5g","pricing_plan_id":"cebpf4jnsgd1na2vs0mg"},{"bike_id":"ba5df164-d25c-4a1c-8679-1bd1a1db0642","system_id":"levelo_inurba_marseille","lat":43.33749,"lon":5.39192,"is_reserved":false,"is_disabled":false,"rental_uris":{"android":"levelo://app?vid=ba5df164-d25c-4a1c-8679-1bd1a1db0642","ios":"levelo://app?vid=ba5df164-d25c-4a1c-8679-1bd1a1db0642"},"vehicle_type_id":"4","last_reported":1736777392,"current_range_meters":38800,"station_id":"ce4bhr92rcd13ifvqhsg","pricing_plan_id":"cebpf4jnsgd1na2vs0mg"},{"bike_id":"11f8911a-8720-432e-b830-8b59af40bd6e","system_id":"levelo_inurba_marseille","lat":43.309039,"lon":5.368483,"is_reserved":false,"is_disabled":false,"rental_uris":{"android":"levelo://app?vid=11f8911a-8720-432e-b830-8b59af40bd6e","ios":"levelo://app?vid=11f8911a-8720-432e-b830-8b59af40bd6e"},"vehicle_type_id":"4","last_reported":1736777392,"current_range_meters":38800,"station_id":"ce4bgn92rcd13ifvqbvg","pricing_plan_id":"cebpf4jnsgd1na2vs0mg"},{"bike_id":"33025aef-d46a-49a9-ae4d-a9eefd59357c","system_id":"levelo_inurba_marseille","lat":43.24656,"lon":5.38892,"is_reserved":false,"is_disabled":false,"rental_uris":{"android":"levelo://app?vid=33025aef-d46a-49a9-ae4d-a9eefd59357c","ios":"levelo://app?vid=33025aef-d46a-49a9-ae4d-a9eefd59357c"},"vehicle_type_id":"4","last_reported":1736777392,"current_range_meters":38800,"station_id":"ce4bhg12rcd13ifvqf60","pricing_plan_id":"cebpf4jnsgd1na2vs0mg"},{"bike_id":"7dd5dd5e-1d75-4c5b-b5b8-248a34302cca","system_id":"levelo_inurba_marseille","lat":43.30462,"lon":5.37898,"is_reserved":false,"is_disabled":true,"rental_uris":{"android":"levelo://app?vid=7dd5dd5e-1d75-4c5b-b5b8-248a34302cca","ios":"levelo://app?vid=7dd5dd5e-1d75-4c5b-b5b8-248a34302cca"},"vehicle_type_id":"4","last_reported":1736777392,"current_range_meters":26800,"station_id":"ce4bgup2rcd13ifvqcn0","pricing_plan_id":"cebpf4jnsgd1na2vs0mg"},{"bike_id":"d912dc3c-ecc3-4af2-8b7b-cb91a53c7e64","system_id":"levelo_inurba_marseille","lat":43.26039,"lon":5.37556,"is_reserved":false,"is_disabled":false,"rental_uris":{"android":"levelo://app?vid=d912dc3c-ecc3-4af2-8b7b-cb91a53c7e64","ios":"levelo://app?vid=d912dc3c-ecc3-4af2-8b7b-cb91a53c7e64"},"vehicle_type_id":"4","last_reported":1736777392,"current_range_meters":37600,"station_id":"ce4bhgh2rcd13ifvqfa0","pricing_plan_id":"cebpf4jnsgd1na2vs0mg"},{"bike_id":"bd255206-629d-478d-936a-2269036dc566","system_id":"levelo_inurba_marseille","lat":43.30303,"lon":5.37702,"is_reserved":false,"is_disabled":false,"rental_uris":{"android":"levelo://app?vid=bd255206-629d-478d-936a-2269036dc566","ios":"levelo://app?vid=bd255206-629d-478d-936a-2269036dc566"},"vehicle_type_id":"4","last_reported":1736777392,"current_range_meters":38000,"station_id":"ce4bguh2rcd13ifvqcj0","pricing_plan_id":"cebpf4jnsgd1na2vs0mg"},{"bike_id":"d8327471-e10e-4e1d-a46b-c43156fc0620","system_id":"levelo_inurba_marseille","lat":43.26777,"lon":5.39423,"is_reserved":false,"is_disabled":false,"rental_uris":{"android":"levelo://app?vid=d8327471-e10e-4e1d-a46b-c43156fc0620","ios":"levelo://app?vid=d8327471-e10e-4e1d-a46b-c43156fc0620"},"vehicle_type_id":"4","last_reported":1736777392,"current_range_meters":37600,"station_id":"ce4bhh12rcd13ifvqfg0","pricing_plan_id":"cebpf4jnsgd1na2vs0mg"},{"bike_id":"50a12261-c33b-44b9-9629-279533804444","system_id":"levelo_inurba_marseille","lat":43.26816,"lon":5.40259,"is_reserved":false,"is_disabled":false,"rental_uris":{"android":"levelo://app?vid=50a12261-c33b-44b9-9629-279533804444","ios":"levelo://app?vid=50a12261-c33b-44b9-9629-279533804444"},"vehicle_type_id":"4","last_reported":1736777392,"current_range_meters":37600,"station_id":"ce501612rcd8frsf0b60","pricing_plan_id":"cebpf4jnsgd1na2vs0mg"},{"bike_id":"20226923-5b5a-4a0d-82ff-ca35493c45d2","system_id":"levelo_inurba_marseille","lat":43.29809,"lon":5.38091,"is_reserved":false,"is_disabled":false,"rental_uris":{"android":"levelo://app?vid=20226923-5b5a-4a0d-82ff-ca35493c45d2","ios":"levelo://app?vid=20226923-5b5a-4a0d-82ff-ca35493c45d2"},"vehicle_type_id":"4","last_reported":1736777392,"current_range_meters":38800,"station_id":"ce4bgip2rcd13ifvqbb0","pricing_plan_id":"cebpf4jnsgd1na2vs0mg"},{"bike_id":"5372dfef-da71-4e3b-8377-854fdc0e47f5","system_id":"levelo_inurba_marseille","lat":43.324752,"lon":5.365783,"is_reserved":false,"is_disabled":false,"rental_uris":{"android":"levelo://app?vid=5372dfef-da71-4e3b-8377-854fdc0e47f5","ios":"levelo://app?vid=5372dfef-da71-4e3b-8377-854fdc0e47f5"},"vehicle_type_id":"4","last_reported":1736777392,"current_range_meters":32000,"station_id":"ce4bhs12rcd13ifvqhvg","pricing_plan_id":"cebpf4jnsgd1na2vs0mg"},{"bike_id":"6ba8d844-4be9-4966-b91c-0b5bcfe6a94b","system_id":"levelo_inurba_marseille","lat":43.2915,"lon":5.37159,"is_reserved":false,"is_disabled":true,"rental_uris":{"android":"levelo://app?vid=6ba8d844-4be9-4966-b91c-0b5bcfe6a94b","ios":"levelo://app?vid=6ba8d844-4be9-4966-b91c-0b5bcfe6a94b"},"vehicle_type_id":"4","last_reported":1736777392,"current_range_meters":38800,"station_id":"ce4bha92rcd13ifvqeh0","pricing_plan_id":"cebpf4jnsgd1na2vs0mg"},{"bike_id":"0edce83f-b96e-4b0a-af3a-d85300d10ec7","system_id":"levelo_inurba_marseille","lat":43.30924,"lon":5.36843,"is_reserved":false,"is_disabled":false,"rental_uris":{"android":"levelo://app?vid=0edce83f-b96e-4b0a-af3a-d85300d10ec7","ios":"levelo://app?vid=0edce83f-b96e-4b0a-af3a-d85300d10ec7"},"vehicle_type_id":"4","last_reported":1736777392,"current_range_meters":36800,"station_id":"ce4bgn92rcd13ifvqbvg","pricing_plan_id":"cebpf4jnsgd1na2vs0mg"},{"bike_id":"54b13b92-b1a6-48b1-b1cd-8dce469c44c5","system_id":"levelo_inurba_marseille","lat":43.30086,"lon":5.39077,"is_reserved":false,"is_disabled":false,"rental_uris":{"android":"levelo://app?vid=54b13b92-b1a6-48b1-b1cd-8dce469c44c5","ios":"levelo://app?vid=54b13b92-b1a6-48b1-b1cd-8dce469c44c5"},"vehicle_type_id":"4","last_reported":1736777392,"current_range_meters":17200,"station_id":"ce4bh192rcd13ifvqdb0","pricing_plan_id":"cebpf4jnsgd1na2vs0mg"},{"bike_id":"e742bbf0-91a8-43d5-8e46-c3e4773553dc","system_id":"levelo_inurba_marseille","lat":43.26565,"lon":5.39016,"is_reserved":false,"is_disabled":false,"rental_uris":{"android":"levelo://app?vid=e742bbf0-91a8-43d5-8e46-c3e4773553dc","ios":"levelo://app?vid=e742bbf0-91a8-43d5-8e46-c3e4773553dc"},"vehicle_type_id":"4","last_reported":1736777392,"current_range_meters":34000,"station_id":"ce4bhe12rcd13ifvqf30","pricing_plan_id":"cebpf4jnsgd1na2vs0mg"},{"bike_id":"426ee80e-06b0-4d0f-86a5-ea8ad64aaa11","system_id":"levelo_inurba_marseille","lat":43.2891,"lon":5.4377,"is_reserved":false,"is_disabled":false,"rental_uris":{"android":"levelo://app?vid=426ee80e-06b0-4d0f-86a5-ea8ad64aaa11","ios":"levelo://app?vid=426ee80e-06b0-4d0f-86a5-ea8ad64aaa11"},"vehicle_type_id":"4","last_reported":1736777392,"current_range_meters":8800,"station_id":"","pricing_plan_id":"cebpf4jnsgd1na2vs0mg"},{"bike_id":"b29dca30-1f99-4556-8d02-1cd94cfb8ea1","system_id":"levelo_inurba_marseille","lat":43.29938,"lon":5.36531,"is_reserved":false,"is_disabled":false,"rental_uris":{"android":"levelo://app?vid=b29dca30-1f99-4556-8d02-1cd94cfb8ea1","ios":"levelo://app?vid=b29dca30-1f99-4556-8d02-1cd94cfb8ea1"},"vehicle_type_id":"4","last_reported":1736777392,"current_range_meters":9200,"station_id":"ce4bgm92rcd13ifvqbr0","pricing_plan_id":"cebpf4jnsgd1na2vs0mg"},{"bike_id":"9814023a-fbfd-430e-a624-071e90fc1982","system_id":"levelo_inurba_marseille","lat":43.27424,"lon":5.39386,"is_reserved":false,"is_disabled":false,"rental_uris":{"android":"levelo://app?vid=9814023a-fbfd-430e-a624-071e90fc1982","ios":"levelo://app?vid=9814023a-fbfd-430e-a624-071e90fc1982"},"vehicle_type_id":"4","last_reported":1736777392,"current_range_meters":27200,"station_id":"ce4bhdp2rcd13ifvqf20","pricing_plan_id":"cebpf4jnsgd1na2vs0mg"},{"bike_id":"969e27ab-5a9e-459e-9526-3b57e6f57682","system_id":"levelo_inurba_marseille","lat":43.22931,"lon":5.35382,"is_reserved":false,"is_disabled":false,"rental_uris":{"android":"levelo://app?vid=969e27ab-5a9e-459e-9526-3b57e6f57682","ios":"levelo://app?vid=969e27ab-5a9e-459e-9526-3b57e6f57682"},"vehicle_type_id":"4","last_reported":1736777392,"current_range_meters":36800,"station_id":"cpo3532slgdg3j2ikp40","pricing_plan_id":"cebpf4jnsgd1na2vs0mg"},{"bike_id":"0b6993d8-d7c7-433f-8cb7-8219979fd337","system_id":"levelo_inurba_marseille","lat":43.27409,"lon":5.39394,"is_reserved":false,"is_disabled":false,"rental_uris":{"android":"levelo://app?vid=0b6993d8-d7c7-433f-8cb7-8219979fd337","ios":"levelo://app?vid=0b6993d8-d7c7-433f-8cb7-8219979fd337"},"vehicle_type_id":"4","last_reported":1736777392,"current_range_meters":38800,"station_id":"ce4bhdp2rcd13ifvqf20","pricing_plan_id":"cebpf4jnsgd1na2vs0mg"},{"bike_id":"e6150580-61d3-4a64-8f36-c72aec658bfe","system_id":"levelo_inurba_marseille","lat":43.28617,"lon":5.37072,"is_reserved":false,"is_disabled":false,"rental_uris":{"android":"levelo://app?vid=e6150580-61d3-4a64-8f36-c72aec658bfe","ios":"levelo://app?vid=e6150580-61d3-4a64-8f36-c72aec658bfe"},"vehicle_type_id":"4","last_reported":1736777392,"current_range_meters":30800,"station_id":"ce4bht12rcd13ifvqi60","pricing_plan_id":"cebpf4jnsgd1na2vs0mg"},{"bike_id":"fafa25b0-e75e-49ae-865e-60291b28c72d","system_id":"levelo_inurba_marseille","lat":43.28631,"lon":5.35091,"is_reserved":false,"is_disabled":false,"rental_uris":{"android":"levelo://app?vid=fafa25b0-e75e-49ae-865e-60291b28c72d","ios":"levelo://app?vid=fafa25b0-e75e-49ae-865e-60291b28c72d"},"vehicle_type_id":"4","last_reported":1736777392,"current_range_meters":26800,"station_id":"ce4bhch2rcd13ifvqeug","pricing_plan_id":"cebpf4jnsgd1na2vs0mg"},{"bike_id":"f4dbc556-58b0-4dfd-be99-18a51c032520","system_id":"levelo_inurba_marseille","lat":43.24172,"lon":5.39701,"is_reserved":false,"is_disabled":false,"rental_uris":{"android":"levelo://app?vid=f4dbc556-58b0-4dfd-be99-18a51c032520","ios":"levelo://app?vid=f4dbc556-58b0-4dfd-be99-18a51c032520"},"vehicle_type_id":"4","last_reported":1736777392,"current_range_meters":30800,"station_id":"ce4bhn12rcd13ifvqgpg","pricing_plan_id":"cebpf4jnsgd1na2vs0mg"},{"bike_id":"d6063853-841f-4cf0-af24-a68595e0fab2","system_id":"levelo_inurba_marseille","lat":43.23183,"lon":5.39981,"is_reserved":false,"is_disabled":false,"rental_uris":{"android":"levelo://app?vid=d6063853-841f-4cf0-af24-a68595e0fab2","ios":"levelo://app?vid=d6063853-841f-4cf0-af24-a68595e0fab2"},"vehicle_type_id":"4","last_reported":1736777392,"current_range_meters":24400,"station_id":"ce4bhn12rcd13ifvqgqg","pricing_plan_id":"cebpf4jnsgd1na2vs0mg"},{"bike_id":"7d739312-cd66-4b6f-b060-fbaf1c17fa28","system_id":"levelo_inurba_marseille","lat":43.2769,"lon":5.3888,"is_reserved":false,"is_disabled":false,"rental_uris":{"android":"levelo://app?vid=7d739312-cd66-4b6f-b060-fbaf1c17fa28","ios":"levelo://app?vid=7d739312-cd66-4b6f-b060-fbaf1c17fa28"},"vehicle_type_id":"4","last_reported":1736777392,"current_range_meters":16400,"station_id":"ce4bhi12rcd13ifvqfo0","pricing_plan_id":"cebpf4jnsgd1na2vs0mg"},{"bike_id":"b43b7b34-35a8-4f3d-902b-ab77a73f48bd","system_id":"levelo_inurba_marseille","lat":43.29931,"lon":5.36529,"is_reserved":false,"is_disabled":false,"rental_uris":{"android":"levelo://app?vid=b43b7b34-35a8-4f3d-902b-ab77a73f48bd","ios":"levelo://app?vid=b43b7b34-35a8-4f3d-902b-ab77a73f48bd"},"vehicle_type_id":"4","last_reported":1736777392,"current_range_meters":10800,"station_id":"ce4bgm92rcd13ifvqbr0","pricing_plan_id":"cebpf4jnsgd1na2vs0mg"},{"bike_id":"f51f3616-6c33-4a5f-8b28-980818697bb0","system_id":"levelo_inurba_marseille","lat":43.23182,"lon":5.39992,"is_reserved":false,"is_disabled":false,"rental_uris":{"android":"levelo://app?vid=f51f3616-6c33-4a5f-8b28-980818697bb0","ios":"levelo://app?vid=f51f3616-6c33-4a5f-8b28-980818697bb0"},"vehicle_type_id":"4","last_reported":1736777392,"current_range_meters":37600,"station_id":"ce4bhn12rcd13ifvqgqg","pricing_plan_id":"cebpf4jnsgd1na2vs0mg"},{"bike_id":"38a88ea6-a94b-4e4b-81db-6e3ebb97fafa","system_id":"levelo_inurba_marseille","lat":43.24669,"lon":5.38162,"is_reserved":false,"is_disabled":false,"rental_uris":{"android":"levelo://app?vid=38a88ea6-a94b-4e4b-81db-6e3ebb97fafa","ios":"levelo://app?vid=38a88ea6-a94b-4e4b-81db-6e3ebb97fafa"},"vehicle_type_id":"4","last_reported":1736777392,"current_range_meters":38800,"station_id":"ce4bhih2rcd13ifvqfr0","pricing_plan_id":"cebpf4jnsgd1na2vs0mg"},{"bike_id":"c3a10ae5-72c4-4176-823b-7d65b74f2282","system_id":"levelo_inurba_marseille","lat":43.30188,"lon":5.36604,"is_reserved":false,"is_disabled":false,"rental_uris":{"android":"levelo://app?vid=c3a10ae5-72c4-4176-823b-7d65b74f2282","ios":"levelo://app?vid=c3a10ae5-72c4-4176-823b-7d65b74f2282"},"vehicle_type_id":"4","last_reported":1736777392,"current_range_meters":14400,"station_id":"ce4bgrh2rcd13ifvqc8g","pricing_plan_id":"cebpf4jnsgd1na2vs0mg"},{"bike_id":"d16284aa-fa71-49b9-82f2-16dc864a2eea","system_id":"levelo_inurba_marseille","lat":43.26699,"lon":5.38261,"is_reserved":false,"is_disabled":false,"rental_uris":{"android":"levelo://app?vid=d16284aa-fa71-49b9-82f2-16dc864a2eea","ios":"levelo://app?vid=d16284aa-fa71-49b9-82f2-16dc864a2eea"},"vehicle_type_id":"4","last_reported":1736777392,"current_range_meters":38800,"station_id":"ce4bhg92rcd13ifvqf90","pricing_plan_id":"cebpf4jnsgd1na2vs0mg"},{"bike_id":"b673a416-174d-4d10-a85a-f5b9c81a969a","system_id":"levelo_inurba_marseille","lat":43.30608,"lon":5.37217,"is_reserved":false,"is_disabled":false,"rental_uris":{"android":"levelo://app?vid=b673a416-174d-4d10-a85a-f5b9c81a969a","ios":"levelo://app?vid=b673a416-174d-4d10-a85a-f5b9c81a969a"},"vehicle_type_id":"4","last_reported":1736777392,"current_range_meters":9600,"station_id":"ce4bgqh2rcd13ifvqc4g","pricing_plan_id":"cebpf4jnsgd1na2vs0mg"},{"bike_id":"65cf28ba-a69d-4f58-92bd-bef1a2a1102d","system_id":"levelo_inurba_marseille","lat":43.27224,"lon":5.39181,"is_reserved":false,"is_disabled":false,"rental_uris":{"android":"levelo://app?vid=65cf28ba-a69d-4f58-92bd-bef1a2a1102d","ios":"levelo://app?vid=65cf28ba-a69d-4f58-92bd-bef1a2a1102d"},"vehicle_type_id":"4","last_reported":1736777392,"current_range_meters":33200,"station_id":"ce4bhhp2rcd13ifvqfm0","pricing_plan_id":"cebpf4jnsgd1na2vs0mg"},{"bike_id":"4d8c4785-1136-4f0a-8cb0-66e5e465df19","system_id":"levelo_inurba_marseille","lat":43.24656,"lon":5.3819,"is_reserved":false,"is_disabled":false,"rental_uris":{"android":"levelo://app?vid=4d8c4785-1136-4f0a-8cb0-66e5e465df19","ios":"levelo://app?vid=4d8c4785-1136-4f0a-8cb0-66e5e465df19"},"vehicle_type_id":"4","last_reported":1736777392,"current_range_meters":31200,"station_id":"ce4bhih2rcd13ifvqfr0","pricing_plan_id":"cebpf4jnsgd1na2vs0mg"},{"bike_id":"755e5c0a-8de7-4ee5-9d4e-5ec609711170","system_id":"levelo_inurba_marseille","lat":43.295966,"lon":5.381002,"is_reserved":false,"is_disabled":true,"rental_uris":{"android":"levelo://app?vid=755e5c0a-8de7-4ee5-9d4e-5ec609711170","ios":"levelo://app?vid=755e5c0a-8de7-4ee5-9d4e-5ec609711170"},"vehicle_type_id":"4","last_reported":1736777392,"current_range_meters":35600,"station_id":"ce4bgl12rcd13ifvqbo0","pricing_plan_id":"cebpf4jnsgd1na2vs0mg"},{"bike_id":"1a87cc03-0973-4d1e-bc7b-bc45b69336e9","system_id":"levelo_inurba_marseille","lat":43.28706,"lon":5.39988,"is_reserved":false,"is_disabled":true,"rental_uris":{"android":"levelo://app?vid=1a87cc03-0973-4d1e-bc7b-bc45b69336e9","ios":"levelo://app?vid=1a87cc03-0973-4d1e-bc7b-bc45b69336e9"},"vehicle_type_id":"4","last_reported":1736777392,"current_range_meters":2000,"station_id":"ce4bho92rcd13ifvqh3g","pricing_plan_id":"cebpf4jnsgd1na2vs0mg"},{"bike_id":"f651011c-09df-4f8b-abec-30977567ef31","system_id":"levelo_inurba_marseille","lat":43.2622,"lon":5.37456,"is_reserved":false,"is_disabled":false,"rental_uris":{"android":"levelo://app?vid=f651011c-09df-4f8b-abec-30977567ef31","ios":"levelo://app?vid=f651011c-09df-4f8b-abec-30977567ef31"},"vehicle_type_id":"4","last_reported":1736777392,"current_range_meters":23200,"station_id":"ce4bhgp2rcd13ifvqfc0","pricing_plan_id":"cebpf4jnsgd1na2vs0mg"},{"bike_id":"9c8c0f19-6acd-4047-9b73-cd2d2daf7c61","system_id":"levelo_inurba_marseille","lat":43.32111,"lon":5.36783,"is_reserved":false,"is_disabled":false,"rental_uris":{"android":"levelo://app?vid=9c8c0f19-6acd-4047-9b73-cd2d2daf7c61","ios":"levelo://app?vid=9c8c0f19-6acd-4047-9b73-cd2d2daf7c61"},"vehicle_type_id":"4","last_reported":1736777392,"current_range_meters":38800,"station_id":"ce4bhrh2rcd13ifvqhug","pricing_plan_id":"cebpf4jnsgd1na2vs0mg"},{"bike_id":"45910403-43fe-46b0-8271-3ee82162b96d","system_id":"levelo_inurba_marseille","lat":43.28459,"lon":5.35891,"is_reserved":false,"is_disabled":false,"rental_uris":{"android":"levelo://app?vid=45910403-43fe-46b0-8271-3ee82162b96d","ios":"levelo://app?vid=45910403-43fe-46b0-8271-3ee82162b96d"},"vehicle_type_id":"4","last_reported":1736777392,"current_range_meters":14000,"station_id":"ce4bhah2rcd13ifvqei0","pricing_plan_id":"cebpf4jnsgd1na2vs0mg"},{"bike_id":"66669991-8208-401c-b97e-4e67c0b08aa6","system_id":"levelo_inurba_marseille","lat":43.31695,"lon":5.37762,"is_reserved":false,"is_disabled":false,"rental_uris":{"android":"levelo://app?vid=66669991-8208-401c-b97e-4e67c0b08aa6","ios":"levelo://app?vid=66669991-8208-401c-b97e-4e67c0b08aa6"},"vehicle_type_id":"4","last_reported":1736777392,"current_range_meters":30400,"station_id":"ce4bgth2rcd13ifvqch0","pricing_plan_id":"cebpf4jnsgd1na2vs0mg"},{"bike_id":"8fd6403a-176e-4007-a97c-e03dc19c490e","system_id":"levelo_inurba_marseille","lat":43.3034,"lon":5.40416,"is_reserved":false,"is_disabled":false,"rental_uris":{"android":"levelo://app?vid=8fd6403a-176e-4007-a97c-e03dc19c490e","ios":"levelo://app?vid=8fd6403a-176e-4007-a97c-e03dc19c490e"},"vehicle_type_id":"4","last_reported":1736777392,"current_range_meters":39200,"station_id":"ce4bh012rcd13ifvqd10","pricing_plan_id":"cebpf4jnsgd1na2vs0mg"},{"bike_id":"3b74a056-c0cf-4f44-8772-22ed33115fcd","system_id":"levelo_inurba_marseille","lat":43.23177,"lon":5.39993,"is_reserved":false,"is_disabled":false,"rental_uris":{"android":"levelo://app?vid=3b74a056-c0cf-4f44-8772-22ed33115fcd","ios":"levelo://app?vid=3b74a056-c0cf-4f44-8772-22ed33115fcd"},"vehicle_type_id":"4","last_reported":1736777392,"current_range_meters":12000,"station_id":"ce4bhn12rcd13ifvqgqg","pricing_plan_id":"cebpf4jnsgd1na2vs0mg"},{"bike_id":"240acad0-e678-4858-979a-5658758ce154","system_id":"levelo_inurba_marseille","lat":43.32334,"lon":5.40622,"is_reserved":false,"is_disabled":false,"rental_uris":{"android":"levelo://app?vid=240acad0-e678-4858-979a-5658758ce154","ios":"levelo://app?vid=240acad0-e678-4858-979a-5658758ce154"},"vehicle_type_id":"4","last_reported":1736777392,"current_range_meters":29600,"station_id":"ce4bhq92rcd13ifvqhjg","pricing_plan_id":"cebpf4jnsgd1na2vs0mg"},{"bike_id":"c5e011b5-3ec1-4dfb-b3d1-b25cf4454153","system_id":"levelo_inurba_marseille","lat":43.30908,"lon":5.36841,"is_reserved":false,"is_disabled":false,"rental_uris":{"android":"levelo://app?vid=c5e011b5-3ec1-4dfb-b3d1-b25cf4454153","ios":"levelo://app?vid=c5e011b5-3ec1-4dfb-b3d1-b25cf4454153"},"vehicle_type_id":"4","last_reported":1736777392,"current_range_meters":38800,"station_id":"ce4bgn92rcd13ifvqbvg","pricing_plan_id":"cebpf4jnsgd1na2vs0mg"},{"bike_id":"b8fc1ebd-7ccb-496d-a7a8-e2a045373448","system_id":"levelo_inurba_marseille","lat":43.299107,"lon":5.381397,"is_reserved":false,"is_disabled":false,"rental_uris":{"android":"levelo://app?vid=b8fc1ebd-7ccb-496d-a7a8-e2a045373448","ios":"levelo://app?vid=b8fc1ebd-7ccb-496d-a7a8-e2a045373448"},"vehicle_type_id":"4","last_reported":1736777392,"current_range_meters":34800,"station_id":"ce4bgj12rcd13ifvqbc0","pricing_plan_id":"cebpf4jnsgd1na2vs0mg"},{"bike_id":"42f86aa8-8cfb-4712-99e5-2741cb722fe5","system_id":"levelo_inurba_marseille","lat":43.25913,"lon":5.40944,"is_reserved":false,"is_disabled":false,"rental_uris":{"android":"levelo://app?vid=42f86aa8-8cfb-4712-99e5-2741cb722fe5","ios":"levelo://app?vid=42f86aa8-8cfb-4712-99e5-2741cb722fe5"},"vehicle_type_id":"4","last_reported":1736777392,"current_range_meters":7200,"station_id":"ce4bhm92rcd13ifvqglg","pricing_plan_id":"cebpf4jnsgd1na2vs0mg"},{"bike_id":"51bb6953-dea8-4e82-96bf-52696267905f","system_id":"levelo_inurba_marseille","lat":43.23053,"lon":5.35492,"is_reserved":false,"is_disabled":false,"rental_uris":{"android":"levelo://app?vid=51bb6953-dea8-4e82-96bf-52696267905f","ios":"levelo://app?vid=51bb6953-dea8-4e82-96bf-52696267905f"},"vehicle_type_id":"4","last_reported":1736777392,"current_range_meters":12800,"station_id":"cpo3342slgdg3j2ifvpg","pricing_plan_id":"cebpf4jnsgd1na2vs0mg"},{"bike_id":"4e71e5ec-1e90-4b63-9152-6a9ea80e2150","system_id":"levelo_inurba_marseille","lat":43.23152,"lon":5.43722,"is_reserved":false,"is_disabled":false,"rental_uris":{"android":"levelo://app?vid=4e71e5ec-1e90-4b63-9152-6a9ea80e2150","ios":"levelo://app?vid=4e71e5ec-1e90-4b63-9152-6a9ea80e2150"},"vehicle_type_id":"4","last_reported":1736777392,"current_range_meters":28400,"station_id":"ce4bhmp2rcd13ifvqgog","pricing_plan_id":"cebpf4jnsgd1na2vs0mg"},{"bike_id":"697c0a33-e8a3-4893-bc01-c44ca5d914a9","system_id":"levelo_inurba_marseille","lat":43.27432,"lon":5.39406,"is_reserved":false,"is_disabled":false,"rental_uris":{"android":"levelo://app?vid=697c0a33-e8a3-4893-bc01-c44ca5d914a9","ios":"levelo://app?vid=697c0a33-e8a3-4893-bc01-c44ca5d914a9"},"vehicle_type_id":"4","last_reported":1736777392,"current_range_meters":38000,"station_id":"ce4bhdp2rcd13ifvqf20","pricing_plan_id":"cebpf4jnsgd1na2vs0mg"},{"bike_id":"dc388f0e-5ba4-4401-b2b7-3e59da087469","system_id":"levelo_inurba_marseille","lat":43.28617,"lon":5.35105,"is_reserved":false,"is_disabled":false,"rental_uris":{"android":"levelo://app?vid=dc388f0e-5ba4-4401-b2b7-3e59da087469","ios":"levelo://app?vid=dc388f0e-5ba4-4401-b2b7-3e59da087469"},"vehicle_type_id":"4","last_reported":1736777392,"current_range_meters":11600,"station_id":"ce4bhch2rcd13ifvqeug","pricing_plan_id":"cebpf4jnsgd1na2vs0mg"},{"bike_id":"02d80f06-d79c-4ffe-a4ee-17b582a49295","system_id":"levelo_inurba_marseille","lat":43.28933,"lon":5.36635,"is_reserved":false,"is_disabled":false,"rental_uris":{"android":"levelo://app?vid=02d80f06-d79c-4ffe-a4ee-17b582a49295","ios":"levelo://app?vid=02d80f06-d79c-4ffe-a4ee-17b582a49295"},"vehicle_type_id":"4","last_reported":1736777392,"current_range_meters":39200,"station_id":"ce4bhap2rcd13ifvqek0","pricing_plan_id":"cebpf4jnsgd1na2vs0mg"},{"bike_id":"50c67084-341b-43bf-812a-a38db4c86efa","system_id":"levelo_inurba_marseille","lat":43.30192,"lon":5.3663,"is_reserved":false,"is_disabled":false,"rental_uris":{"android":"levelo://app?vid=50c67084-341b-43bf-812a-a38db4c86efa","ios":"levelo://app?vid=50c67084-341b-43bf-812a-a38db4c86efa"},"vehicle_type_id":"4","last_reported":1736777392,"current_range_meters":38800,"station_id":"ce4bgrh2rcd13ifvqc8g","pricing_plan_id":"cebpf4jnsgd1na2vs0mg"},{"bike_id":"c84c60ce-c7f6-42eb-bb3c-f11a697bd396","system_id":"levelo_inurba_marseille","lat":43.29969,"lon":5.38526,"is_reserved":false,"is_disabled":true,"rental_uris":{"android":"levelo://app?vid=c84c60ce-c7f6-42eb-bb3c-f11a697bd396","ios":"levelo://app?vid=c84c60ce-c7f6-42eb-bb3c-f11a697bd396"},"vehicle_type_id":"4","last_reported":1736777392,"current_range_meters":38400,"station_id":"ce4bgj92rcd13ifvqbd0","pricing_plan_id":"cebpf4jnsgd1na2vs0mg"},{"bike_id":"5b6f32ca-27c0-4ddf-ba56-69f237bfef76","system_id":"levelo_inurba_marseille","lat":43.28612,"lon":5.35112,"is_reserved":false,"is_disabled":false,"rental_uris":{"android":"levelo://app?vid=5b6f32ca-27c0-4ddf-ba56-69f237bfef76","ios":"levelo://app?vid=5b6f32ca-27c0-4ddf-ba56-69f237bfef76"},"vehicle_type_id":"4","last_reported":1736777392,"current_range_meters":34800,"station_id":"ce4bhch2rcd13ifvqeug","pricing_plan_id":"cebpf4jnsgd1na2vs0mg"},{"bike_id":"73bc5cae-0471-45f2-8a8b-bf0cfa579d63","system_id":"levelo_inurba_marseille","lat":43.31499,"lon":5.3727,"is_reserved":false,"is_disabled":false,"rental_uris":{"android":"levelo://app?vid=73bc5cae-0471-45f2-8a8b-bf0cfa579d63","ios":"levelo://app?vid=73bc5cae-0471-45f2-8a8b-bf0cfa579d63"},"vehicle_type_id":"4","last_reported":1736777392,"current_range_meters":38800,"station_id":"ce4bgt12rcd13ifvqcd0","pricing_plan_id":"cebpf4jnsgd1na2vs0mg"},{"bike_id":"9d39d4db-cf30-4dae-bd29-ddfa39940b1d","system_id":"levelo_inurba_marseille","lat":43.25927,"lon":5.40896,"is_reserved":false,"is_disabled":false,"rental_uris":{"android":"levelo://app?vid=9d39d4db-cf30-4dae-bd29-ddfa39940b1d","ios":"levelo://app?vid=9d39d4db-cf30-4dae-bd29-ddfa39940b1d"},"vehicle_type_id":"4","last_reported":1736777392,"current_range_meters":26800,"station_id":"ce4bhm92rcd13ifvqglg","pricing_plan_id":"cebpf4jnsgd1na2vs0mg"},{"bike_id":"b55bad1f-ac87-4b3e-aeb0-eb44d902eff4","system_id":"levelo_inurba_marseille","lat":43.23155,"lon":5.43713,"is_reserved":false,"is_disabled":false,"rental_uris":{"android":"levelo://app?vid=b55bad1f-ac87-4b3e-aeb0-eb44d902eff4","ios":"levelo://app?vid=b55bad1f-ac87-4b3e-aeb0-eb44d902eff4"},"vehicle_type_id":"4","last_reported":1736777392,"current_range_meters":16400,"station_id":"ce4bhmp2rcd13ifvqgog","pricing_plan_id":"cebpf4jnsgd1na2vs0mg"},{"bike_id":"bb66f2ca-ee74-4e0b-82cb-a826f7a41bf4","system_id":"levelo_inurba_marseille","lat":43.240826,"lon":5.377586,"is_reserved":false,"is_disabled":false,"rental_uris":{"android":"levelo://app?vid=bb66f2ca-ee74-4e0b-82cb-a826f7a41bf4","ios":"levelo://app?vid=bb66f2ca-ee74-4e0b-82cb-a826f7a41bf4"},"vehicle_type_id":"4","last_reported":1736777392,"current_range_meters":21600,"station_id":"ce4bhnp2rcd13ifvqgvg","pricing_plan_id":"cebpf4jnsgd1na2vs0mg"},{"bike_id":"85ec7523-a398-424f-b100-23f016dd845e","system_id":"levelo_inurba_marseille","lat":43.24063,"lon":5.3772,"is_reserved":false,"is_disabled":false,"rental_uris":{"android":"levelo://app?vid=85ec7523-a398-424f-b100-23f016dd845e","ios":"levelo://app?vid=85ec7523-a398-424f-b100-23f016dd845e"},"vehicle_type_id":"4","last_reported":1736777392,"current_range_meters":13600,"station_id":"ce4bhnp2rcd13ifvqgvg","pricing_plan_id":"cebpf4jnsgd1na2vs0mg"},{"bike_id":"c1c51f67-6348-4482-a3d4-31704cefaf37","system_id":"levelo_inurba_marseille","lat":43.28616,"lon":5.35105,"is_reserved":false,"is_disabled":false,"rental_uris":{"android":"levelo://app?vid=c1c51f67-6348-4482-a3d4-31704cefaf37","ios":"levelo://app?vid=c1c51f67-6348-4482-a3d4-31704cefaf37"},"vehicle_type_id":"4","last_reported":1736777392,"current_range_meters":33200,"station_id":"ce4bhch2rcd13ifvqeug","pricing_plan_id":"cebpf4jnsgd1na2vs0mg"},{"bike_id":"9e98724c-6216-4084-98a9-d4af7a4032b3","system_id":"levelo_inurba_marseille","lat":43.2954,"lon":5.37484,"is_reserved":false,"is_disabled":false,"rental_uris":{"android":"levelo://app?vid=9e98724c-6216-4084-98a9-d4af7a4032b3","ios":"levelo://app?vid=9e98724c-6216-4084-98a9-d4af7a4032b3"},"vehicle_type_id":"4","last_reported":1736777392,"current_range_meters":38000,"station_id":"ce4bgkp2rcd13ifvqbmg","pricing_plan_id":"cebpf4jnsgd1na2vs0mg"},{"bike_id":"322399c8-b9e9-43a7-a0a7-e9daaffb0dcd","system_id":"levelo_inurba_marseille","lat":43.25091,"lon":5.39522,"is_reserved":false,"is_disabled":false,"rental_uris":{"android":"levelo://app?vid=322399c8-b9e9-43a7-a0a7-e9daaffb0dcd","ios":"levelo://app?vid=322399c8-b9e9-43a7-a0a7-e9daaffb0dcd"},"vehicle_type_id":"4","last_reported":1736777392,"current_range_meters":12400,"station_id":"ce4bhm12rcd13ifvqgkg","pricing_plan_id":"cebpf4jnsgd1na2vs0mg"},{"bike_id":"88902d91-b819-48cf-a55f-ab04a4bc19a7","system_id":"levelo_inurba_marseille","lat":43.28358,"lon":5.38093,"is_reserved":false,"is_disabled":false,"rental_uris":{"android":"levelo://app?vid=88902d91-b819-48cf-a55f-ab04a4bc19a7","ios":"levelo://app?vid=88902d91-b819-48cf-a55f-ab04a4bc19a7"},"vehicle_type_id":"4","last_reported":1736777392,"current_range_meters":30400,"station_id":"ce4bh412rcd13ifvqdr0","pricing_plan_id":"cebpf4jnsgd1na2vs0mg"},{"bike_id":"34cf7072-966d-4837-b7d2-7a4102ab36c4","system_id":"levelo_inurba_marseille","lat":43.28477,"lon":5.38415,"is_reserved":false,"is_disabled":false,"rental_uris":{"android":"levelo://app?vid=34cf7072-966d-4837-b7d2-7a4102ab36c4","ios":"levelo://app?vid=34cf7072-966d-4837-b7d2-7a4102ab36c4"},"vehicle_type_id":"4","last_reported":1736777392,"current_range_meters":36000,"station_id":"ce4bh512rcd13ifvqe3g","pricing_plan_id":"cebpf4jnsgd1na2vs0mg"},{"bike_id":"f109b9df-cdeb-4d7e-887d-3237167c921b","system_id":"levelo_inurba_marseille","lat":43.2968,"lon":5.37293,"is_reserved":false,"is_disabled":false,"rental_uris":{"android":"levelo://app?vid=f109b9df-cdeb-4d7e-887d-3237167c921b","ios":"levelo://app?vid=f109b9df-cdeb-4d7e-887d-3237167c921b"},"vehicle_type_id":"4","last_reported":1736777392,"current_range_meters":11200,"station_id":"ce4bgk12rcd13ifvqbj0","pricing_plan_id":"cebpf4jnsgd1na2vs0mg"},{"bike_id":"6ec2ebfc-0551-4872-b827-af987cc201ce","system_id":"levelo_inurba_marseille","lat":43.28718,"lon":5.37913,"is_reserved":false,"is_disabled":false,"rental_uris":{"android":"levelo://app?vid=6ec2ebfc-0551-4872-b827-af987cc201ce","ios":"levelo://app?vid=6ec2ebfc-0551-4872-b827-af987cc201ce"},"vehicle_type_id":"4","last_reported":1736777392,"current_range_meters":39200,"station_id":"ce4bh9p2rcd13ifvqec0","pricing_plan_id":"cebpf4jnsgd1na2vs0mg"},{"bike_id":"a754abf4-87cb-4915-a97f-0b4d0e8971f5","system_id":"levelo_inurba_marseille","lat":43.2861,"lon":5.35117,"is_reserved":false,"is_disabled":false,"rental_uris":{"android":"levelo://app?vid=a754abf4-87cb-4915-a97f-0b4d0e8971f5","ios":"levelo://app?vid=a754abf4-87cb-4915-a97f-0b4d0e8971f5"},"vehicle_type_id":"4","last_reported":1736777392,"current_range_meters":33200,"station_id":"ce4bhch2rcd13ifvqeug","pricing_plan_id":"cebpf4jnsgd1na2vs0mg"},{"bike_id":"b51b8509-c21e-40ac-802b-edd56e55cdd0","system_id":"levelo_inurba_marseille","lat":43.30358,"lon":5.4188,"is_reserved":false,"is_disabled":true,"rental_uris":{"android":"levelo://app?vid=b51b8509-c21e-40ac-802b-edd56e55cdd0","ios":"levelo://app?vid=b51b8509-c21e-40ac-802b-edd56e55cdd0"},"vehicle_type_id":"4","last_reported":1736777392,"current_range_meters":24000,"station_id":"ce4bhop2rcd13ifvqh7g","pricing_plan_id":"cebpf4jnsgd1na2vs0mg"},{"bike_id":"4a106783-466c-42d0-acfc-8fac5663e215","system_id":"levelo_inurba_marseille","lat":43.24996,"lon":5.38924,"is_reserved":false,"is_disabled":false,"rental_uris":{"android":"levelo://app?vid=4a106783-466c-42d0-acfc-8fac5663e215","ios":"levelo://app?vid=4a106783-466c-42d0-acfc-8fac5663e215"},"vehicle_type_id":"4","last_reported":1736777392,"current_range_meters":26000,"station_id":"ce4bhgp2rcd13ifvqfd0","pricing_plan_id":"cebpf4jnsgd1na2vs0mg"},{"bike_id":"bd8f6ac6-fec5-4bd4-ac32-792527847345","system_id":"levelo_inurba_marseille","lat":43.2621,"lon":5.37447,"is_reserved":false,"is_disabled":true,"rental_uris":{"android":"levelo://app?vid=bd8f6ac6-fec5-4bd4-ac32-792527847345","ios":"levelo://app?vid=bd8f6ac6-fec5-4bd4-ac32-792527847345"},"vehicle_type_id":"4","last_reported":1736777392,"current_range_meters":0,"station_id":"ce4bhgp2rcd13ifvqfc0","pricing_plan_id":"cebpf4jnsgd1na2vs0mg"},{"bike_id":"78fc2529-851e-44ea-9e17-e5a76c9197b1","system_id":"levelo_inurba_marseille","lat":43.29711,"lon":5.37694,"is_reserved":false,"is_disabled":true,"rental_uris":{"android":"levelo://app?vid=78fc2529-851e-44ea-9e17-e5a76c9197b1","ios":"levelo://app?vid=78fc2529-851e-44ea-9e17-e5a76c9197b1"},"vehicle_type_id":"4","last_reported":1736777392,"current_range_meters":38000,"station_id":"ce4bgkh2rcd13ifvqbl0","pricing_plan_id":"cebpf4jnsgd1na2vs0mg"},{"bike_id":"afa0e0de-f011-4a8c-8b9d-d09162465574","system_id":"levelo_inurba_marseille","lat":43.28703,"lon":5.38072,"is_reserved":false,"is_disabled":false,"rental_uris":{"android":"levelo://app?vid=afa0e0de-f011-4a8c-8b9d-d09162465574","ios":"levelo://app?vid=afa0e0de-f011-4a8c-8b9d-d09162465574"},"vehicle_type_id":"4","last_reported":1736777392,"current_range_meters":38400,"station_id":"ce4bgl12rcd13ifvqbo0","pricing_plan_id":"cebpf4jnsgd1na2vs0mg"},{"bike_id":"066d9ccf-9bcd-426a-a804-cc6d7dd3810b","system_id":"levelo_inurba_marseille","lat":43.28488,"lon":5.38545,"is_reserved":false,"is_disabled":false,"rental_uris":{"android":"levelo://app?vid=066d9ccf-9bcd-426a-a804-cc6d7dd3810b","ios":"levelo://app?vid=066d9ccf-9bcd-426a-a804-cc6d7dd3810b"},"vehicle_type_id":"4","last_reported":1736777392,"current_range_meters":39200,"station_id":"ce4bh8p2rcd13ifvqeb0","pricing_plan_id":"cebpf4jnsgd1na2vs0mg"},{"bike_id":"77ae10e7-5e30-46c6-94f1-809ddc5cbb44","system_id":"levelo_inurba_marseille","lat":43.29987,"lon":5.38515,"is_reserved":false,"is_disabled":false,"rental_uris":{"android":"levelo://app?vid=77ae10e7-5e30-46c6-94f1-809ddc5cbb44","ios":"levelo://app?vid=77ae10e7-5e30-46c6-94f1-809ddc5cbb44"},"vehicle_type_id":"4","last_reported":1736777392,"current_range_meters":38800,"station_id":"ce4bgj92rcd13ifvqbd0","pricing_plan_id":"cebpf4jnsgd1na2vs0mg"},{"bike_id":"73329ed2-206f-420e-bfc0-e4b8be13f754","system_id":"levelo_inurba_marseille","lat":43.299774,"lon":5.371869,"is_reserved":false,"is_disabled":false,"rental_uris":{"android":"levelo://app?vid=73329ed2-206f-420e-bfc0-e4b8be13f754","ios":"levelo://app?vid=73329ed2-206f-420e-bfc0-e4b8be13f754"},"vehicle_type_id":"4","last_reported":1736777392,"current_range_meters":14800,"station_id":"ce4bhi12rcd13ifvqfq0","pricing_plan_id":"cebpf4jnsgd1na2vs0mg"},{"bike_id":"81894d57-6961-4ca9-8a73-3302ecbe940c","system_id":"levelo_inurba_marseille","lat":43.24815,"lon":5.37461,"is_reserved":false,"is_disabled":false,"rental_uris":{"android":"levelo://app?vid=81894d57-6961-4ca9-8a73-3302ecbe940c","ios":"levelo://app?vid=81894d57-6961-4ca9-8a73-3302ecbe940c"},"vehicle_type_id":"4","last_reported":1736777392,"current_range_meters":9200,"station_id":"ce4bhgh2rcd13ifvqfb0","pricing_plan_id":"cebpf4jnsgd1na2vs0mg"},{"bike_id":"9a81ccfe-91c2-4f68-9e12-13b9ce6412b2","system_id":"levelo_inurba_marseille","lat":43.29893,"lon":5.43658,"is_reserved":false,"is_disabled":false,"rental_uris":{"android":"levelo://app?vid=9a81ccfe-91c2-4f68-9e12-13b9ce6412b2","ios":"levelo://app?vid=9a81ccfe-91c2-4f68-9e12-13b9ce6412b2"},"vehicle_type_id":"4","last_reported":1736777392,"current_range_meters":27600,"station_id":"ce4bhpp2rcd13ifvqhfg","pricing_plan_id":"cebpf4jnsgd1na2vs0mg"},{"bike_id":"fa6bdd57-fcb5-40f3-96fb-42364802d044","system_id":"levelo_inurba_marseille","lat":43.29257,"lon":5.38448,"is_reserved":false,"is_disabled":false,"rental_uris":{"android":"levelo://app?vid=fa6bdd57-fcb5-40f3-96fb-42364802d044","ios":"levelo://app?vid=fa6bdd57-fcb5-40f3-96fb-42364802d044"},"vehicle_type_id":"4","last_reported":1736777392,"current_range_meters":30800,"station_id":"ce4bh692rcd13ifvqea0","pricing_plan_id":"cebpf4jnsgd1na2vs0mg"},{"bike_id":"45324790-abcf-4a91-8b9e-6b7c17eae013","system_id":"levelo_inurba_marseille","lat":43.27374,"lon":5.3626,"is_reserved":false,"is_disabled":false,"rental_uris":{"android":"levelo://app?vid=45324790-abcf-4a91-8b9e-6b7c17eae013","ios":"levelo://app?vid=45324790-abcf-4a91-8b9e-6b7c17eae013"},"vehicle_type_id":"4","last_reported":1736777392,"current_range_meters":9600,"station_id":"ce4bhbh2rcd13ifvqeo0","pricing_plan_id":"cebpf4jnsgd1na2vs0mg"},{"bike_id":"9e1250e5-644f-45e3-880a-c212f4ae8aef","system_id":"levelo_inurba_marseille","lat":43.28411,"lon":5.3752,"is_reserved":false,"is_disabled":false,"rental_uris":{"android":"levelo://app?vid=9e1250e5-644f-45e3-880a-c212f4ae8aef","ios":"levelo://app?vid=9e1250e5-644f-45e3-880a-c212f4ae8aef"},"vehicle_type_id":"4","last_reported":1736777392,"current_range_meters":14400,"station_id":"ce4bh412rcd13ifvqds0","pricing_plan_id":"cebpf4jnsgd1na2vs0mg"},{"bike_id":"7476b1a7-9f8e-4e12-8475-dea2c1e3cd09","system_id":"levelo_inurba_marseille","lat":43.29052,"lon":5.37168,"is_reserved":false,"is_disabled":false,"rental_uris":{"android":"levelo://app?vid=7476b1a7-9f8e-4e12-8475-dea2c1e3cd09","ios":"levelo://app?vid=7476b1a7-9f8e-4e12-8475-dea2c1e3cd09"},"vehicle_type_id":"4","last_reported":1736777392,"current_range_meters":38400,"station_id":"ce4bh5p2rcd13ifvqe4g","pricing_plan_id":"cebpf4jnsgd1na2vs0mg"},{"bike_id":"a17445c0-f8eb-415e-b48f-ec399823d2d1","system_id":"levelo_inurba_marseille","lat":43.24082,"lon":5.37759,"is_reserved":false,"is_disabled":false,"rental_uris":{"android":"levelo://app?vid=a17445c0-f8eb-415e-b48f-ec399823d2d1","ios":"levelo://app?vid=a17445c0-f8eb-415e-b48f-ec399823d2d1"},"vehicle_type_id":"4","last_reported":1736777392,"current_range_meters":20000,"station_id":"ce4bhnp2rcd13ifvqgvg","pricing_plan_id":"cebpf4jnsgd1na2vs0mg"},{"bike_id":"89b0c7fc-d137-4790-bf0e-99b4ad2bb6bb","system_id":"levelo_inurba_marseille","lat":43.27374,"lon":5.36249,"is_reserved":false,"is_disabled":false,"rental_uris":{"android":"levelo://app?vid=89b0c7fc-d137-4790-bf0e-99b4ad2bb6bb","ios":"levelo://app?vid=89b0c7fc-d137-4790-bf0e-99b4ad2bb6bb"},"vehicle_type_id":"4","last_reported":1736777392,"current_range_meters":30000,"station_id":"ce4bhbh2rcd13ifvqeo0","pricing_plan_id":"cebpf4jnsgd1na2vs0mg"},{"bike_id":"efe350e8-f531-4cdc-a1a8-c3f24970caff","system_id":"levelo_inurba_marseille","lat":43.28934,"lon":5.36635,"is_reserved":false,"is_disabled":false,"rental_uris":{"android":"levelo://app?vid=efe350e8-f531-4cdc-a1a8-c3f24970caff","ios":"levelo://app?vid=efe350e8-f531-4cdc-a1a8-c3f24970caff"},"vehicle_type_id":"4","last_reported":1736777392,"current_range_meters":30000,"station_id":"ce4bhap2rcd13ifvqek0","pricing_plan_id":"cebpf4jnsgd1na2vs0mg"},{"bike_id":"ed2f7727-4629-4ce4-956b-8a1a93145cdd","system_id":"levelo_inurba_marseille","lat":43.29899,"lon":5.39735,"is_reserved":false,"is_disabled":false,"rental_uris":{"android":"levelo://app?vid=ed2f7727-4629-4ce4-956b-8a1a93145cdd","ios":"levelo://app?vid=ed2f7727-4629-4ce4-956b-8a1a93145cdd"},"vehicle_type_id":"4","last_reported":1736777392,"current_range_meters":23200,"station_id":"ce4bh0h2rcd13ifvqd50","pricing_plan_id":"cebpf4jnsgd1na2vs0mg"},{"bike_id":"bc25e3ed-d031-4a9e-b649-ad61acfed1e5","system_id":"levelo_inurba_marseille","lat":43.288423,"lon":5.35844,"is_reserved":false,"is_disabled":false,"rental_uris":{"android":"levelo://app?vid=bc25e3ed-d031-4a9e-b649-ad61acfed1e5","ios":"levelo://app?vid=bc25e3ed-d031-4a9e-b649-ad61acfed1e5"},"vehicle_type_id":"4","last_reported":1736777392,"current_range_meters":32000,"station_id":"ce4bhb12rcd13ifvqem0","pricing_plan_id":"cebpf4jnsgd1na2vs0mg"},{"bike_id":"fed252d4-8a96-4918-8909-8c985d1de4fb","system_id":"levelo_inurba_marseille","lat":43.32486,"lon":5.36586,"is_reserved":false,"is_disabled":false,"rental_uris":{"android":"levelo://app?vid=fed252d4-8a96-4918-8909-8c985d1de4fb","ios":"levelo://app?vid=fed252d4-8a96-4918-8909-8c985d1de4fb"},"vehicle_type_id":"4","last_reported":1736777392,"current_range_meters":24400,"station_id":"ce4bhs12rcd13ifvqhvg","pricing_plan_id":"cebpf4jnsgd1na2vs0mg"},{"bike_id":"1ff4d6af-d168-4206-80a1-8f85ab0c0a00","system_id":"levelo_inurba_marseille","lat":43.25884,"lon":5.39913,"is_reserved":false,"is_disabled":false,"rental_uris":{"android":"levelo://app?vid=1ff4d6af-d168-4206-80a1-8f85ab0c0a00","ios":"levelo://app?vid=1ff4d6af-d168-4206-80a1-8f85ab0c0a00"},"vehicle_type_id":"4","last_reported":1736777392,"current_range_meters":38800,"station_id":"ce4bhl92rcd13ifvqghg","pricing_plan_id":"cebpf4jnsgd1na2vs0mg"},{"bike_id":"d6746c47-66da-40e6-89b2-ffb61e96b3c9","system_id":"levelo_inurba_marseille","lat":43.30893,"lon":5.37178,"is_reserved":false,"is_disabled":false,"rental_uris":{"android":"levelo://app?vid=d6746c47-66da-40e6-89b2-ffb61e96b3c9","ios":"levelo://app?vid=d6746c47-66da-40e6-89b2-ffb61e96b3c9"},"vehicle_type_id":"4","last_reported":1736777392,"current_range_meters":33600,"station_id":"ce4bguh2rcd13ifvqckg","pricing_plan_id":"cebpf4jnsgd1na2vs0mg"},{"bike_id":"55e10a13-573c-4876-a3f3-1d7244726716","system_id":"levelo_inurba_marseille","lat":43.24811,"lon":5.37453,"is_reserved":false,"is_disabled":false,"rental_uris":{"android":"levelo://app?vid=55e10a13-573c-4876-a3f3-1d7244726716","ios":"levelo://app?vid=55e10a13-573c-4876-a3f3-1d7244726716"},"vehicle_type_id":"4","last_reported":1736777392,"current_range_meters":38800,"station_id":"ce4bhgh2rcd13ifvqfb0","pricing_plan_id":"cebpf4jnsgd1na2vs0mg"},{"bike_id":"92798966-bd49-4b5c-85d9-0f20e392e34e","system_id":"levelo_inurba_marseille","lat":43.26938,"lon":5.38646,"is_reserved":false,"is_disabled":false,"rental_uris":{"android":"levelo://app?vid=92798966-bd49-4b5c-85d9-0f20e392e34e","ios":"levelo://app?vid=92798966-bd49-4b5c-85d9-0f20e392e34e"},"vehicle_type_id":"4","last_reported":1736777392,"current_range_meters":30000,"station_id":"ce4bhh92rcd13ifvqfh0","pricing_plan_id":"cebpf4jnsgd1na2vs0mg"},{"bike_id":"021fac5c-2036-4a66-a35d-d5233ae6635e","system_id":"levelo_inurba_marseille","lat":43.24806,"lon":5.37452,"is_reserved":false,"is_disabled":false,"rental_uris":{"android":"levelo://app?vid=021fac5c-2036-4a66-a35d-d5233ae6635e","ios":"levelo://app?vid=021fac5c-2036-4a66-a35d-d5233ae6635e"},"vehicle_type_id":"4","last_reported":1736777392,"current_range_meters":30400,"station_id":"ce4bhgh2rcd13ifvqfb0","pricing_plan_id":"cebpf4jnsgd1na2vs0mg"},{"bike_id":"bbe418f9-edcd-4096-92a5-9824c80806f0","system_id":"levelo_inurba_marseille","lat":43.27391,"lon":5.39402,"is_reserved":false,"is_disabled":false,"rental_uris":{"android":"levelo://app?vid=bbe418f9-edcd-4096-92a5-9824c80806f0","ios":"levelo://app?vid=bbe418f9-edcd-4096-92a5-9824c80806f0"},"vehicle_type_id":"4","last_reported":1736777392,"current_range_meters":30000,"station_id":"ce4bhdp2rcd13ifvqf20","pricing_plan_id":"cebpf4jnsgd1na2vs0mg"},{"bike_id":"e4ebeaff-fae3-4309-b664-a828a50e412f","system_id":"levelo_inurba_marseille","lat":43.25503,"lon":5.37649,"is_reserved":false,"is_disabled":false,"rental_uris":{"android":"levelo://app?vid=e4ebeaff-fae3-4309-b664-a828a50e412f","ios":"levelo://app?vid=e4ebeaff-fae3-4309-b664-a828a50e412f"},"vehicle_type_id":"4","last_reported":1736777392,"current_range_meters":17200,"station_id":"ce4bhh12rcd13ifvqff0","pricing_plan_id":"cebpf4jnsgd1na2vs0mg"},{"bike_id":"476f41db-3d59-43ab-93e3-66f344a533de","system_id":"levelo_inurba_marseille","lat":43.29192,"lon":5.35804,"is_reserved":false,"is_disabled":false,"rental_uris":{"android":"levelo://app?vid=476f41db-3d59-43ab-93e3-66f344a533de","ios":"levelo://app?vid=476f41db-3d59-43ab-93e3-66f344a533de"},"vehicle_type_id":"4","last_reported":1736777392,"current_range_meters":4000,"station_id":"ce4bhb12rcd13ifvqel0","pricing_plan_id":"cebpf4jnsgd1na2vs0mg"},{"bike_id":"c7a817d3-63e5-4652-8814-98e74bb31058","system_id":"levelo_inurba_marseille","lat":43.23964,"lon":5.36642,"is_reserved":false,"is_disabled":false,"rental_uris":{"android":"levelo://app?vid=c7a817d3-63e5-4652-8814-98e74bb31058","ios":"levelo://app?vid=c7a817d3-63e5-4652-8814-98e74bb31058"},"vehicle_type_id":"4","last_reported":1736777392,"current_range_meters":11200,"station_id":"ce4bhi12rcd13ifvqfp0","pricing_plan_id":"cebpf4jnsgd1na2vs0mg"},{"bike_id":"da950a92-0c19-4e5b-886c-e16f8792a730","system_id":"levelo_inurba_marseille","lat":43.33754,"lon":5.37469,"is_reserved":false,"is_disabled":false,"rental_uris":{"android":"levelo://app?vid=da950a92-0c19-4e5b-886c-e16f8792a730","ios":"levelo://app?vid=da950a92-0c19-4e5b-886c-e16f8792a730"},"vehicle_type_id":"4","last_reported":1736777392,"current_range_meters":35200,"station_id":"","pricing_plan_id":"cebpf4jnsgd1na2vs0mg"},{"bike_id":"488e5d3f-7080-456a-8875-7f1a5dce4fa1","system_id":"levelo_inurba_marseille","lat":43.30142,"lon":5.38785,"is_reserved":false,"is_disabled":true,"rental_uris":{"android":"levelo://app?vid=488e5d3f-7080-456a-8875-7f1a5dce4fa1","ios":"levelo://app?vid=488e5d3f-7080-456a-8875-7f1a5dce4fa1"},"vehicle_type_id":"4","last_reported":1736777392,"current_range_meters":28000,"station_id":"ce4bghh2rcd13ifvqb60","pricing_plan_id":"cebpf4jnsgd1na2vs0mg"},{"bike_id":"295bd26f-64bb-4f9a-b1ce-9227768f18ec","system_id":"levelo_inurba_marseille","lat":43.2914,"lon":5.37163,"is_reserved":false,"is_disabled":true,"rental_uris":{"android":"levelo://app?vid=295bd26f-64bb-4f9a-b1ce-9227768f18ec","ios":"levelo://app?vid=295bd26f-64bb-4f9a-b1ce-9227768f18ec"},"vehicle_type_id":"4","last_reported":1736777392,"current_range_meters":28800,"station_id":"ce4bha92rcd13ifvqeh0","pricing_plan_id":"cebpf4jnsgd1na2vs0mg"},{"bike_id":"1bff2bac-4883-4019-adbe-2dc598af8aad","system_id":"levelo_inurba_marseille","lat":43.27425,"lon":5.39395,"is_reserved":false,"is_disabled":false,"rental_uris":{"android":"levelo://app?vid=1bff2bac-4883-4019-adbe-2dc598af8aad","ios":"levelo://app?vid=1bff2bac-4883-4019-adbe-2dc598af8aad"},"vehicle_type_id":"4","last_reported":1736777392,"current_range_meters":21600,"station_id":"ce4bhdp2rcd13ifvqf20","pricing_plan_id":"cebpf4jnsgd1na2vs0mg"},{"bike_id":"ae29e0de-7b5a-45d6-ace3-313c5e88010a","system_id":"levelo_inurba_marseille","lat":43.27987,"lon":5.41655,"is_reserved":false,"is_disabled":true,"rental_uris":{"android":"levelo://app?vid=ae29e0de-7b5a-45d6-ace3-313c5e88010a","ios":"levelo://app?vid=ae29e0de-7b5a-45d6-ace3-313c5e88010a"},"vehicle_type_id":"4","last_reported":1736777392,"current_range_meters":0,"station_id":"ce4bho12rcd13ifvqh1g","pricing_plan_id":"cebpf4jnsgd1na2vs0mg"},{"bike_id":"e492506c-9c66-4c53-b523-191cde052ae7","system_id":"levelo_inurba_marseille","lat":43.28842,"lon":5.39321,"is_reserved":false,"is_disabled":false,"rental_uris":{"android":"levelo://app?vid=e492506c-9c66-4c53-b523-191cde052ae7","ios":"levelo://app?vid=e492506c-9c66-4c53-b523-191cde052ae7"},"vehicle_type_id":"4","last_reported":1736777392,"current_range_meters":38800,"station_id":"ce4bh2p2rcd13ifvqdi0","pricing_plan_id":"cebpf4jnsgd1na2vs0mg"},{"bike_id":"572f0254-11cf-4ef2-b3f9-66737ed8298a","system_id":"levelo_inurba_marseille","lat":43.28421,"lon":5.34987,"is_reserved":false,"is_disabled":true,"rental_uris":{"android":"levelo://app?vid=572f0254-11cf-4ef2-b3f9-66737ed8298a","ios":"levelo://app?vid=572f0254-11cf-4ef2-b3f9-66737ed8298a"},"vehicle_type_id":"4","last_reported":1736777392,"current_range_meters":0,"station_id":"ce4bhbh2rcd13ifvqepg","pricing_plan_id":"cebpf4jnsgd1na2vs0mg"},{"bike_id":"5e762b1b-b8de-4f44-8971-339a5eccc653","system_id":"levelo_inurba_marseille","lat":43.25844,"lon":5.40967,"is_reserved":false,"is_disabled":false,"rental_uris":{"android":"levelo://app?vid=5e762b1b-b8de-4f44-8971-339a5eccc653","ios":"levelo://app?vid=5e762b1b-b8de-4f44-8971-339a5eccc653"},"vehicle_type_id":"4","last_reported":1736777392,"current_range_meters":23200,"station_id":"ce4bhm92rcd13ifvqglg","pricing_plan_id":"cebpf4jnsgd1na2vs0mg"},{"bike_id":"60c48e84-151f-4edd-83cd-789ff87c7f63","system_id":"levelo_inurba_marseille","lat":43.28706,"lon":5.37394,"is_reserved":false,"is_disabled":true,"rental_uris":{"android":"levelo://app?vid=60c48e84-151f-4edd-83cd-789ff87c7f63","ios":"levelo://app?vid=60c48e84-151f-4edd-83cd-789ff87c7f63"},"vehicle_type_id":"4","last_reported":1736777392,"current_range_meters":34800,"station_id":"ce4bh3p2rcd13ifvqdq0","pricing_plan_id":"cebpf4jnsgd1na2vs0mg"},{"bike_id":"57a21f9e-3de0-4fcc-9826-872e5b0f29c6","system_id":"levelo_inurba_marseille","lat":43.30785,"lon":5.3799,"is_reserved":false,"is_disabled":false,"rental_uris":{"android":"levelo://app?vid=57a21f9e-3de0-4fcc-9826-872e5b0f29c6","ios":"levelo://app?vid=57a21f9e-3de0-4fcc-9826-872e5b0f29c6"},"vehicle_type_id":"4","last_reported":1736777392,"current_range_meters":9600,"station_id":"","pricing_plan_id":"cebpf4jnsgd1na2vs0mg"},{"bike_id":"ab2e837d-5386-45c6-8b53-dbaa4b603cca","system_id":"levelo_inurba_marseille","lat":43.29823,"lon":5.38077,"is_reserved":false,"is_disabled":false,"rental_uris":{"android":"levelo://app?vid=ab2e837d-5386-45c6-8b53-dbaa4b603cca","ios":"levelo://app?vid=ab2e837d-5386-45c6-8b53-dbaa4b603cca"},"vehicle_type_id":"4","last_reported":1736777392,"current_range_meters":23200,"station_id":"ce4bgip2rcd13ifvqbb0","pricing_plan_id":"cebpf4jnsgd1na2vs0mg"},{"bike_id":"b172b595-2634-4bcb-b25f-be6d639ca6e4","system_id":"levelo_inurba_marseille","lat":43.29532,"lon":5.38534,"is_reserved":false,"is_disabled":false,"rental_uris":{"android":"levelo://app?vid=b172b595-2634-4bcb-b25f-be6d639ca6e4","ios":"levelo://app?vid=b172b595-2634-4bcb-b25f-be6d639ca6e4"},"vehicle_type_id":"4","last_reported":1736777392,"current_range_meters":19600,"station_id":"ce4bgih2rcd13ifvqba0","pricing_plan_id":"cebpf4jnsgd1na2vs0mg"},{"bike_id":"516c4e2c-abe0-4ece-9dbf-27a809b81003","system_id":"levelo_inurba_marseille","lat":43.272,"lon":5.39201,"is_reserved":false,"is_disabled":false,"rental_uris":{"android":"levelo://app?vid=516c4e2c-abe0-4ece-9dbf-27a809b81003","ios":"levelo://app?vid=516c4e2c-abe0-4ece-9dbf-27a809b81003"},"vehicle_type_id":"4","last_reported":1736777392,"current_range_meters":39200,"station_id":"ce4bhhp2rcd13ifvqfm0","pricing_plan_id":"cebpf4jnsgd1na2vs0mg"},{"bike_id":"42ecc464-da44-487e-b0da-d25d9d2043d6","system_id":"levelo_inurba_marseille","lat":43.25727,"lon":5.41114,"is_reserved":false,"is_disabled":false,"rental_uris":{"android":"levelo://app?vid=42ecc464-da44-487e-b0da-d25d9d2043d6","ios":"levelo://app?vid=42ecc464-da44-487e-b0da-d25d9d2043d6"},"vehicle_type_id":"4","last_reported":1736777392,"current_range_meters":38800,"station_id":"ce4bhkp2rcd13ifvqgd0","pricing_plan_id":"cebpf4jnsgd1na2vs0mg"},{"bike_id":"de05f028-7450-4792-8d5b-e268410faa9d","system_id":"levelo_inurba_marseille","lat":43.32104,"lon":5.3678,"is_reserved":false,"is_disabled":false,"rental_uris":{"android":"levelo://app?vid=de05f028-7450-4792-8d5b-e268410faa9d","ios":"levelo://app?vid=de05f028-7450-4792-8d5b-e268410faa9d"},"vehicle_type_id":"4","last_reported":1736777392,"current_range_meters":32800,"station_id":"ce4bhrh2rcd13ifvqhug","pricing_plan_id":"cebpf4jnsgd1na2vs0mg"},{"bike_id":"65e8b99d-cb00-44f8-a57f-7740743f51e0","system_id":"levelo_inurba_marseille","lat":43.25005,"lon":5.38923,"is_reserved":false,"is_disabled":false,"rental_uris":{"android":"levelo://app?vid=65e8b99d-cb00-44f8-a57f-7740743f51e0","ios":"levelo://app?vid=65e8b99d-cb00-44f8-a57f-7740743f51e0"},"vehicle_type_id":"4","last_reported":1736777392,"current_range_meters":24000,"station_id":"ce4bhgp2rcd13ifvqfd0","pricing_plan_id":"cebpf4jnsgd1na2vs0mg"},{"bike_id":"e7bed24c-76b8-4bfe-8ea5-51efa81df6c2","system_id":"levelo_inurba_marseille","lat":43.27507,"lon":5.42446,"is_reserved":false,"is_disabled":true,"rental_uris":{"android":"levelo://app?vid=e7bed24c-76b8-4bfe-8ea5-51efa81df6c2","ios":"levelo://app?vid=e7bed24c-76b8-4bfe-8ea5-51efa81df6c2"},"vehicle_type_id":"4","last_reported":1736777392,"current_range_meters":0,"station_id":"ce4bhn92rcd13ifvqgrg","pricing_plan_id":"cebpf4jnsgd1na2vs0mg"},{"bike_id":"ea4c7416-6f72-4315-85a1-e18e99e580af","system_id":"levelo_inurba_marseille","lat":43.31294,"lon":5.36835,"is_reserved":false,"is_disabled":false,"rental_uris":{"android":"levelo://app?vid=ea4c7416-6f72-4315-85a1-e18e99e580af","ios":"levelo://app?vid=ea4c7416-6f72-4315-85a1-e18e99e580af"},"vehicle_type_id":"4","last_reported":1736777392,"current_range_meters":28800,"station_id":"","pricing_plan_id":"cebpf4jnsgd1na2vs0mg"},{"bike_id":"3db2fa11-1dd9-4dc9-ae46-77da55522d93","system_id":"levelo_inurba_marseille","lat":43.2511,"lon":5.40339,"is_reserved":false,"is_disabled":false,"rental_uris":{"android":"levelo://app?vid=3db2fa11-1dd9-4dc9-ae46-77da55522d93","ios":"levelo://app?vid=3db2fa11-1dd9-4dc9-ae46-77da55522d93"},"vehicle_type_id":"4","last_reported":1736777392,"current_range_meters":38800,"station_id":"ce4bhlh2rcd13ifvqgig","pricing_plan_id":"cebpf4jnsgd1na2vs0mg"},{"bike_id":"91bb17d9-d9cc-4a1c-b55a-c9991fde6c5b","system_id":"levelo_inurba_marseille","lat":43.325347,"lon":5.414313,"is_reserved":false,"is_disabled":false,"rental_uris":{"android":"levelo://app?vid=91bb17d9-d9cc-4a1c-b55a-c9991fde6c5b","ios":"levelo://app?vid=91bb17d9-d9cc-4a1c-b55a-c9991fde6c5b"},"vehicle_type_id":"4","last_reported":1736777392,"current_range_meters":35200,"station_id":"ce4bhq12rcd13ifvqhhg","pricing_plan_id":"cebpf4jnsgd1na2vs0mg"},{"bike_id":"b52b7fb2-7786-4441-827f-0bdc4b671e91","system_id":"levelo_inurba_marseille","lat":43.32529,"lon":5.41461,"is_reserved":false,"is_disabled":false,"rental_uris":{"android":"levelo://app?vid=b52b7fb2-7786-4441-827f-0bdc4b671e91","ios":"levelo://app?vid=b52b7fb2-7786-4441-827f-0bdc4b671e91"},"vehicle_type_id":"4","last_reported":1736777392,"current_range_meters":39200,"station_id":"ce4bhq12rcd13ifvqhhg","pricing_plan_id":"cebpf4jnsgd1na2vs0mg"},{"bike_id":"34d1187a-0d2f-42da-8bcd-6376169d385a","system_id":"levelo_inurba_marseille","lat":43.25933,"lon":5.40902,"is_reserved":false,"is_disabled":false,"rental_uris":{"android":"levelo://app?vid=34d1187a-0d2f-42da-8bcd-6376169d385a","ios":"levelo://app?vid=34d1187a-0d2f-42da-8bcd-6376169d385a"},"vehicle_type_id":"4","last_reported":1736777392,"current_range_meters":2800,"station_id":"ce4bhm92rcd13ifvqglg","pricing_plan_id":"cebpf4jnsgd1na2vs0mg"},{"bike_id":"b704bf42-2bc7-4506-b669-8ca7a3330fef","system_id":"levelo_inurba_marseille","lat":43.28155,"lon":5.42632,"is_reserved":false,"is_disabled":true,"rental_uris":{"android":"levelo://app?vid=b704bf42-2bc7-4506-b669-8ca7a3330fef","ios":"levelo://app?vid=b704bf42-2bc7-4506-b669-8ca7a3330fef"},"vehicle_type_id":"4","last_reported":1736777392,"current_range_meters":24800,"station_id":"ce4bhnh2rcd13ifvqgug","pricing_plan_id":"cebpf4jnsgd1na2vs0mg"},{"bike_id":"018e6111-d88e-4099-907b-4616ba9839f7","system_id":"levelo_inurba_marseille","lat":43.29108,"lon":5.38125,"is_reserved":false,"is_disabled":false,"rental_uris":{"android":"levelo://app?vid=018e6111-d88e-4099-907b-4616ba9839f7","ios":"levelo://app?vid=018e6111-d88e-4099-907b-4616ba9839f7"},"vehicle_type_id":"4","last_reported":1736777392,"current_range_meters":30400,"station_id":"ce4bh512rcd13ifvqe2g","pricing_plan_id":"cebpf4jnsgd1na2vs0mg"},{"bike_id":"874acfed-96ea-40cf-845b-50a1f948531e","system_id":"levelo_inurba_marseille","lat":43.28156,"lon":5.42638,"is_reserved":false,"is_disabled":false,"rental_uris":{"android":"levelo://app?vid=874acfed-96ea-40cf-845b-50a1f948531e","ios":"levelo://app?vid=874acfed-96ea-40cf-845b-50a1f948531e"},"vehicle_type_id":"4","last_reported":1736777392,"current_range_meters":36000,"station_id":"ce4bhnh2rcd13ifvqgug","pricing_plan_id":"cebpf4jnsgd1na2vs0mg"},{"bike_id":"f7f85359-0e25-43d0-b2b4-6a1f63729315","system_id":"levelo_inurba_marseille","lat":43.29357,"lon":5.37841,"is_reserved":false,"is_disabled":false,"rental_uris":{"android":"levelo://app?vid=f7f85359-0e25-43d0-b2b4-6a1f63729315","ios":"levelo://app?vid=f7f85359-0e25-43d0-b2b4-6a1f63729315"},"vehicle_type_id":"4","last_reported":1736777392,"current_range_meters":38800,"station_id":"ce4bgjh2rcd13ifvqbf0","pricing_plan_id":"cebpf4jnsgd1na2vs0mg"},{"bike_id":"f62a7ed4-7c80-4ed8-9568-a4dea62069d1","system_id":"levelo_inurba_marseille","lat":43.28114,"lon":5.3965,"is_reserved":false,"is_disabled":false,"rental_uris":{"android":"levelo://app?vid=f62a7ed4-7c80-4ed8-9568-a4dea62069d1","ios":"levelo://app?vid=f62a7ed4-7c80-4ed8-9568-a4dea62069d1"},"vehicle_type_id":"4","last_reported":1736777392,"current_range_meters":28400,"station_id":"ce4bho12rcd13ifvqh2g","pricing_plan_id":"cebpf4jnsgd1na2vs0mg"},{"bike_id":"3c2f038f-0243-4569-835b-f3dc31d9887d","system_id":"levelo_inurba_marseille","lat":43.31168,"lon":5.38725,"is_reserved":false,"is_disabled":false,"rental_uris":{"android":"levelo://app?vid=3c2f038f-0243-4569-835b-f3dc31d9887d","ios":"levelo://app?vid=3c2f038f-0243-4569-835b-f3dc31d9887d"},"vehicle_type_id":"4","last_reported":1736777392,"current_range_meters":35200,"station_id":"ce4bgv12rcd13ifvqcp0","pricing_plan_id":"cebpf4jnsgd1na2vs0mg"},{"bike_id":"0f5aa17d-39c9-4258-b7d4-e488616e00ec","system_id":"levelo_inurba_marseille","lat":43.26576,"lon":5.39038,"is_reserved":false,"is_disabled":false,"rental_uris":{"android":"levelo://app?vid=0f5aa17d-39c9-4258-b7d4-e488616e00ec","ios":"levelo://app?vid=0f5aa17d-39c9-4258-b7d4-e488616e00ec"},"vehicle_type_id":"4","last_reported":1736777392,"current_range_meters":8400,"station_id":"ce4bhe12rcd13ifvqf30","pricing_plan_id":"cebpf4jnsgd1na2vs0mg"},{"bike_id":"b7e4d286-bf95-44b9-9094-8f6366cbca55","system_id":"levelo_inurba_marseille","lat":43.250043,"lon":5.389334,"is_reserved":false,"is_disabled":false,"rental_uris":{"android":"levelo://app?vid=b7e4d286-bf95-44b9-9094-8f6366cbca55","ios":"levelo://app?vid=b7e4d286-bf95-44b9-9094-8f6366cbca55"},"vehicle_type_id":"4","last_reported":1736777392,"current_range_meters":36400,"station_id":"ce4bhgp2rcd13ifvqfd0","pricing_plan_id":"cebpf4jnsgd1na2vs0mg"},{"bike_id":"302aecf2-f0cb-4a7b-84ab-a06b45364ca9","system_id":"levelo_inurba_marseille","lat":43.28822,"lon":5.35865,"is_reserved":false,"is_disabled":false,"rental_uris":{"android":"levelo://app?vid=302aecf2-f0cb-4a7b-84ab-a06b45364ca9","ios":"levelo://app?vid=302aecf2-f0cb-4a7b-84ab-a06b45364ca9"},"vehicle_type_id":"4","last_reported":1736777392,"current_range_meters":24400,"station_id":"ce4bhb12rcd13ifvqem0","pricing_plan_id":"cebpf4jnsgd1na2vs0mg"},{"bike_id":"66c74e61-5f94-4d34-8844-39c7d31204c9","system_id":"levelo_inurba_marseille","lat":43.24178,"lon":5.39722,"is_reserved":false,"is_disabled":false,"rental_uris":{"android":"levelo://app?vid=66c74e61-5f94-4d34-8844-39c7d31204c9","ios":"levelo://app?vid=66c74e61-5f94-4d34-8844-39c7d31204c9"},"vehicle_type_id":"4","last_reported":1736777392,"current_range_meters":27600,"station_id":"ce4bhn12rcd13ifvqgpg","pricing_plan_id":"cebpf4jnsgd1na2vs0mg"},{"bike_id":"31240ca4-9f64-4406-9c52-14b4354e548c","system_id":"levelo_inurba_marseille","lat":43.28606,"lon":5.35111,"is_reserved":false,"is_disabled":false,"rental_uris":{"android":"levelo://app?vid=31240ca4-9f64-4406-9c52-14b4354e548c","ios":"levelo://app?vid=31240ca4-9f64-4406-9c52-14b4354e548c"},"vehicle_type_id":"4","last_reported":1736777392,"current_range_meters":32800,"station_id":"ce4bhch2rcd13ifvqeug","pricing_plan_id":"cebpf4jnsgd1na2vs0mg"},{"bike_id":"089a04ef-15a2-4c09-98ee-41fc60bacc6d","system_id":"levelo_inurba_marseille","lat":43.32478,"lon":5.36581,"is_reserved":false,"is_disabled":false,"rental_uris":{"android":"levelo://app?vid=089a04ef-15a2-4c09-98ee-41fc60bacc6d","ios":"levelo://app?vid=089a04ef-15a2-4c09-98ee-41fc60bacc6d"},"vehicle_type_id":"4","last_reported":1736777392,"current_range_meters":38000,"station_id":"ce4bhs12rcd13ifvqhvg","pricing_plan_id":"cebpf4jnsgd1na2vs0mg"},{"bike_id":"e5d0f0d2-9359-4ccb-8c91-6142813c7436","system_id":"levelo_inurba_marseille","lat":43.29292,"lon":5.37464,"is_reserved":false,"is_disabled":false,"rental_uris":{"android":"levelo://app?vid=e5d0f0d2-9359-4ccb-8c91-6142813c7436","ios":"levelo://app?vid=e5d0f0d2-9359-4ccb-8c91-6142813c7436"},"vehicle_type_id":"4","last_reported":1736777392,"current_range_meters":21600,"station_id":"ce4bgi12rcd13ifvqb70","pricing_plan_id":"cebpf4jnsgd1na2vs0mg"},{"bike_id":"d9b042e2-bbf3-47bf-851f-426caf4d0e01","system_id":"levelo_inurba_marseille","lat":43.24819,"lon":5.37456,"is_reserved":false,"is_disabled":false,"rental_uris":{"android":"levelo://app?vid=d9b042e2-bbf3-47bf-851f-426caf4d0e01","ios":"levelo://app?vid=d9b042e2-bbf3-47bf-851f-426caf4d0e01"},"vehicle_type_id":"4","last_reported":1736777392,"current_range_meters":33600,"station_id":"ce4bhgh2rcd13ifvqfb0","pricing_plan_id":"cebpf4jnsgd1na2vs0mg"},{"bike_id":"28cdbc2d-da0d-4533-ae53-a07a7e9c391b","system_id":"levelo_inurba_marseille","lat":43.30889,"lon":5.37196,"is_reserved":false,"is_disabled":false,"rental_uris":{"android":"levelo://app?vid=28cdbc2d-da0d-4533-ae53-a07a7e9c391b","ios":"levelo://app?vid=28cdbc2d-da0d-4533-ae53-a07a7e9c391b"},"vehicle_type_id":"4","last_reported":1736777392,"current_range_meters":35200,"station_id":"ce4bguh2rcd13ifvqckg","pricing_plan_id":"cebpf4jnsgd1na2vs0mg"},{"bike_id":"440408fa-9829-4ebe-b684-3ba9d7ce9e01","system_id":"levelo_inurba_marseille","lat":43.2732,"lon":5.39063,"is_reserved":false,"is_disabled":false,"rental_uris":{"android":"levelo://app?vid=440408fa-9829-4ebe-b684-3ba9d7ce9e01","ios":"levelo://app?vid=440408fa-9829-4ebe-b684-3ba9d7ce9e01"},"vehicle_type_id":"4","last_reported":1736777392,"current_range_meters":38800,"station_id":"ce4bhgp2rcd13ifvqfe0","pricing_plan_id":"cebpf4jnsgd1na2vs0mg"},{"bike_id":"fbb672a1-550b-4490-afc3-0e09cf578463","system_id":"levelo_inurba_marseille","lat":43.29611,"lon":5.37732,"is_reserved":false,"is_disabled":false,"rental_uris":{"android":"levelo://app?vid=fbb672a1-550b-4490-afc3-0e09cf578463","ios":"levelo://app?vid=fbb672a1-550b-4490-afc3-0e09cf578463"},"vehicle_type_id":"4","last_reported":1736777392,"current_range_meters":22400,"station_id":"ce4bgi92rcd13ifvqb90","pricing_plan_id":"cebpf4jnsgd1na2vs0mg"},{"bike_id":"5f2cf356-122a-4d24-85ba-e38bc4612223","system_id":"levelo_inurba_marseille","lat":43.25577,"lon":5.38244,"is_reserved":false,"is_disabled":false,"rental_uris":{"android":"levelo://app?vid=5f2cf356-122a-4d24-85ba-e38bc4612223","ios":"levelo://app?vid=5f2cf356-122a-4d24-85ba-e38bc4612223"},"vehicle_type_id":"4","last_reported":1736777392,"current_range_meters":24800,"station_id":"ce4bhih2rcd13ifvqfs0","pricing_plan_id":"cebpf4jnsgd1na2vs0mg"},{"bike_id":"434fa424-7441-410d-b08c-939a8d4b42cd","system_id":"levelo_inurba_marseille","lat":43.28705,"lon":5.3999,"is_reserved":false,"is_disabled":false,"rental_uris":{"android":"levelo://app?vid=434fa424-7441-410d-b08c-939a8d4b42cd","ios":"levelo://app?vid=434fa424-7441-410d-b08c-939a8d4b42cd"},"vehicle_type_id":"4","last_reported":1736777392,"current_range_meters":38800,"station_id":"ce4bho92rcd13ifvqh3g","pricing_plan_id":"cebpf4jnsgd1na2vs0mg"},{"bike_id":"11f01b7b-c2a8-40ef-b67d-696681ee9c7f","system_id":"levelo_inurba_marseille","lat":43.30608,"lon":5.37221,"is_reserved":false,"is_disabled":false,"rental_uris":{"android":"levelo://app?vid=11f01b7b-c2a8-40ef-b67d-696681ee9c7f","ios":"levelo://app?vid=11f01b7b-c2a8-40ef-b67d-696681ee9c7f"},"vehicle_type_id":"4","last_reported":1736777392,"current_range_meters":38000,"station_id":"ce4bgqh2rcd13ifvqc4g","pricing_plan_id":"cebpf4jnsgd1na2vs0mg"},{"bike_id":"3325c830-05fd-4240-bfc3-c4b6699ea35f","system_id":"levelo_inurba_marseille","lat":43.25004,"lon":5.38937,"is_reserved":false,"is_disabled":false,"rental_uris":{"android":"levelo://app?vid=3325c830-05fd-4240-bfc3-c4b6699ea35f","ios":"levelo://app?vid=3325c830-05fd-4240-bfc3-c4b6699ea35f"},"vehicle_type_id":"4","last_reported":1736777392,"current_range_meters":21600,"station_id":"ce4bhgp2rcd13ifvqfd0","pricing_plan_id":"cebpf4jnsgd1na2vs0mg"},{"bike_id":"3c3c287f-e835-4040-bdb7-259026d8f5b9","system_id":"levelo_inurba_marseille","lat":43.29023,"lon":5.38127,"is_reserved":false,"is_disabled":true,"rental_uris":{"android":"levelo://app?vid=3c3c287f-e835-4040-bdb7-259026d8f5b9","ios":"levelo://app?vid=3c3c287f-e835-4040-bdb7-259026d8f5b9"},"vehicle_type_id":"4","last_reported":1736777392,"current_range_meters":800,"station_id":"ce4bh4p2rcd13ifvqe1g","pricing_plan_id":"cebpf4jnsgd1na2vs0mg"},{"bike_id":"bb9e99ce-48a1-4551-a814-d1c67643e278","system_id":"levelo_inurba_marseille","lat":43.23148,"lon":5.43703,"is_reserved":false,"is_disabled":true,"rental_uris":{"android":"levelo://app?vid=bb9e99ce-48a1-4551-a814-d1c67643e278","ios":"levelo://app?vid=bb9e99ce-48a1-4551-a814-d1c67643e278"},"vehicle_type_id":"4","last_reported":1736777392,"current_range_meters":0,"station_id":"ce4bhmp2rcd13ifvqgog","pricing_plan_id":"cebpf4jnsgd1na2vs0mg"},{"bike_id":"16833343-c45a-4aeb-bf79-1be93a70c331","system_id":"levelo_inurba_marseille","lat":43.29939,"lon":5.36539,"is_reserved":false,"is_disabled":false,"rental_uris":{"android":"levelo://app?vid=16833343-c45a-4aeb-bf79-1be93a70c331","ios":"levelo://app?vid=16833343-c45a-4aeb-bf79-1be93a70c331"},"vehicle_type_id":"4","last_reported":1736777392,"current_range_meters":37600,"station_id":"ce4bgm92rcd13ifvqbr0","pricing_plan_id":"cebpf4jnsgd1na2vs0mg"},{"bike_id":"41922604-c7b8-4e93-9da5-3903771d7233","system_id":"levelo_inurba_marseille","lat":43.24824,"lon":5.374532,"is_reserved":false,"is_disabled":false,"rental_uris":{"android":"levelo://app?vid=41922604-c7b8-4e93-9da5-3903771d7233","ios":"levelo://app?vid=41922604-c7b8-4e93-9da5-3903771d7233"},"vehicle_type_id":"4","last_reported":1736777392,"current_range_meters":26800,"station_id":"ce4bhgh2rcd13ifvqfb0","pricing_plan_id":"cebpf4jnsgd1na2vs0mg"},{"bike_id":"3e8932f1-3ca1-4c27-a5ed-41c36dc84be9","system_id":"levelo_inurba_marseille","lat":43.25585,"lon":5.38241,"is_reserved":false,"is_disabled":false,"rental_uris":{"android":"levelo://app?vid=3e8932f1-3ca1-4c27-a5ed-41c36dc84be9","ios":"levelo://app?vid=3e8932f1-3ca1-4c27-a5ed-41c36dc84be9"},"vehicle_type_id":"4","last_reported":1736777392,"current_range_meters":19600,"station_id":"ce4bhih2rcd13ifvqfs0","pricing_plan_id":"cebpf4jnsgd1na2vs0mg"},{"bike_id":"057fac3f-cc13-4b3a-b6eb-dee67d717701","system_id":"levelo_inurba_marseille","lat":43.29848,"lon":5.36282,"is_reserved":false,"is_disabled":false,"rental_uris":{"android":"levelo://app?vid=057fac3f-cc13-4b3a-b6eb-dee67d717701","ios":"levelo://app?vid=057fac3f-cc13-4b3a-b6eb-dee67d717701"},"vehicle_type_id":"4","last_reported":1736777392,"current_range_meters":31200,"station_id":"ce4bgpp2rcd13ifvqc3g","pricing_plan_id":"cebpf4jnsgd1na2vs0mg"},{"bike_id":"f4adad4f-7aa5-4610-baa3-fcb8ef974df8","system_id":"levelo_inurba_marseille","lat":43.28925,"lon":5.36637,"is_reserved":false,"is_disabled":false,"rental_uris":{"android":"levelo://app?vid=f4adad4f-7aa5-4610-baa3-fcb8ef974df8","ios":"levelo://app?vid=f4adad4f-7aa5-4610-baa3-fcb8ef974df8"},"vehicle_type_id":"4","last_reported":1736777392,"current_range_meters":39200,"station_id":"ce4bhap2rcd13ifvqek0","pricing_plan_id":"cebpf4jnsgd1na2vs0mg"},{"bike_id":"c579a565-0252-4f11-a4e1-4bba6903db2e","system_id":"levelo_inurba_marseille","lat":43.28937,"lon":5.36391,"is_reserved":false,"is_disabled":false,"rental_uris":{"android":"levelo://app?vid=c579a565-0252-4f11-a4e1-4bba6903db2e","ios":"levelo://app?vid=c579a565-0252-4f11-a4e1-4bba6903db2e"},"vehicle_type_id":"4","last_reported":1736777392,"current_range_meters":30400,"station_id":"ce4bhc92rcd13ifvqetg","pricing_plan_id":"cebpf4jnsgd1na2vs0mg"},{"bike_id":"6f8d5613-68e8-453b-9903-0b6c2da05e2d","system_id":"levelo_inurba_marseille","lat":43.2417,"lon":5.36396,"is_reserved":false,"is_disabled":false,"rental_uris":{"android":"levelo://app?vid=6f8d5613-68e8-453b-9903-0b6c2da05e2d","ios":"levelo://app?vid=6f8d5613-68e8-453b-9903-0b6c2da05e2d"},"vehicle_type_id":"4","last_reported":1736777392,"current_range_meters":32000,"station_id":"cpo36qri1sfpv3e86is0","pricing_plan_id":"cebpf4jnsgd1na2vs0mg"},{"bike_id":"04d788bf-6a1e-4994-a7a2-ad85dcb4ea1c","system_id":"levelo_inurba_marseille","lat":43.26694,"lon":5.38264,"is_reserved":false,"is_disabled":false,"rental_uris":{"android":"levelo://app?vid=04d788bf-6a1e-4994-a7a2-ad85dcb4ea1c","ios":"levelo://app?vid=04d788bf-6a1e-4994-a7a2-ad85dcb4ea1c"},"vehicle_type_id":"4","last_reported":1736777392,"current_range_meters":39200,"station_id":"ce4bhg92rcd13ifvqf90","pricing_plan_id":"cebpf4jnsgd1na2vs0mg"},{"bike_id":"255cc0c6-67fd-4ee3-b6f8-109d99a3cfea","system_id":"levelo_inurba_marseille","lat":43.288523,"lon":5.35857,"is_reserved":false,"is_disabled":false,"rental_uris":{"android":"levelo://app?vid=255cc0c6-67fd-4ee3-b6f8-109d99a3cfea","ios":"levelo://app?vid=255cc0c6-67fd-4ee3-b6f8-109d99a3cfea"},"vehicle_type_id":"4","last_reported":1736777392,"current_range_meters":28800,"station_id":"ce4bhb12rcd13ifvqem0","pricing_plan_id":"cebpf4jnsgd1na2vs0mg"},{"bike_id":"2130fc74-9dbc-4976-b04b-ed38d5ae8110","system_id":"levelo_inurba_marseille","lat":43.24076,"lon":5.37734,"is_reserved":false,"is_disabled":false,"rental_uris":{"android":"levelo://app?vid=2130fc74-9dbc-4976-b04b-ed38d5ae8110","ios":"levelo://app?vid=2130fc74-9dbc-4976-b04b-ed38d5ae8110"},"vehicle_type_id":"4","last_reported":1736777392,"current_range_meters":36400,"station_id":"ce4bhnp2rcd13ifvqgvg","pricing_plan_id":"cebpf4jnsgd1na2vs0mg"},{"bike_id":"3fe1c7ab-6535-4a87-a5c5-4dc2bdd2f69f","system_id":"levelo_inurba_marseille","lat":43.30908,"lon":5.36869,"is_reserved":false,"is_disabled":false,"rental_uris":{"android":"levelo://app?vid=3fe1c7ab-6535-4a87-a5c5-4dc2bdd2f69f","ios":"levelo://app?vid=3fe1c7ab-6535-4a87-a5c5-4dc2bdd2f69f"},"vehicle_type_id":"4","last_reported":1736777392,"current_range_meters":38800,"station_id":"ce4bgn92rcd13ifvqbvg","pricing_plan_id":"cebpf4jnsgd1na2vs0mg"},{"bike_id":"85603f95-286b-4848-8682-ec6ae6094237","system_id":"levelo_inurba_marseille","lat":43.27069,"lon":5.40258,"is_reserved":false,"is_disabled":true,"rental_uris":{"android":"levelo://app?vid=85603f95-286b-4848-8682-ec6ae6094237","ios":"levelo://app?vid=85603f95-286b-4848-8682-ec6ae6094237"},"vehicle_type_id":"4","last_reported":1736777392,"current_range_meters":3600,"station_id":"ce4bhk92rcd13ifvqgc0","pricing_plan_id":"cebpf4jnsgd1na2vs0mg"},{"bike_id":"55178c83-e8c1-42d0-85eb-2ae9bbbd47cf","system_id":"levelo_inurba_marseille","lat":43.231951,"lon":5.355501,"is_reserved":false,"is_disabled":false,"rental_uris":{"android":"levelo://app?vid=55178c83-e8c1-42d0-85eb-2ae9bbbd47cf","ios":"levelo://app?vid=55178c83-e8c1-42d0-85eb-2ae9bbbd47cf"},"vehicle_type_id":"4","last_reported":1736777392,"current_range_meters":38000,"station_id":"ce4bhu92rcd13ifvqi70","pricing_plan_id":"cebpf4jnsgd1na2vs0mg"},{"bike_id":"8b88170d-e695-4530-8583-a66b3ec41a93","system_id":"levelo_inurba_marseille","lat":43.33614,"lon":5.41028,"is_reserved":false,"is_disabled":true,"rental_uris":{"android":"levelo://app?vid=8b88170d-e695-4530-8583-a66b3ec41a93","ios":"levelo://app?vid=8b88170d-e695-4530-8583-a66b3ec41a93"},"vehicle_type_id":"4","last_reported":1736777392,"current_range_meters":4000,"station_id":"ce4bhqh2rcd13ifvqhmg","pricing_plan_id":"cebpf4jnsgd1na2vs0mg"},{"bike_id":"697e4ab4-20ea-4bca-b40d-c28710132512","system_id":"levelo_inurba_marseille","lat":43.310834,"lon":5.424311,"is_reserved":false,"is_disabled":false,"rental_uris":{"android":"levelo://app?vid=697e4ab4-20ea-4bca-b40d-c28710132512","ios":"levelo://app?vid=697e4ab4-20ea-4bca-b40d-c28710132512"},"vehicle_type_id":"4","last_reported":1736777392,"current_range_meters":39200,"station_id":"ce4bhp92rcd13ifvqhag","pricing_plan_id":"cebpf4jnsgd1na2vs0mg"},{"bike_id":"2ac93fc2-cc8c-4c58-a43d-c721e48d0900","system_id":"levelo_inurba_marseille","lat":43.31699,"lon":5.37742,"is_reserved":false,"is_disabled":false,"rental_uris":{"android":"levelo://app?vid=2ac93fc2-cc8c-4c58-a43d-c721e48d0900","ios":"levelo://app?vid=2ac93fc2-cc8c-4c58-a43d-c721e48d0900"},"vehicle_type_id":"4","last_reported":1736777392,"current_range_meters":38800,"station_id":"ce4bgth2rcd13ifvqch0","pricing_plan_id":"cebpf4jnsgd1na2vs0mg"},{"bike_id":"02ceda23-41e6-4d3e-9a59-3334cb8e3115","system_id":"levelo_inurba_marseille","lat":43.2582,"lon":5.39431,"is_reserved":false,"is_disabled":false,"rental_uris":{"android":"levelo://app?vid=02ceda23-41e6-4d3e-9a59-3334cb8e3115","ios":"levelo://app?vid=02ceda23-41e6-4d3e-9a59-3334cb8e3115"},"vehicle_type_id":"4","last_reported":1736777392,"current_range_meters":36800,"station_id":"ce4bhip2rcd13ifvqft0","pricing_plan_id":"cebpf4jnsgd1na2vs0mg"},{"bike_id":"00150a96-dc89-46f4-959b-3cf2fa6e1a39","system_id":"levelo_inurba_marseille","lat":43.25007,"lon":5.38919,"is_reserved":false,"is_disabled":false,"rental_uris":{"android":"levelo://app?vid=00150a96-dc89-46f4-959b-3cf2fa6e1a39","ios":"levelo://app?vid=00150a96-dc89-46f4-959b-3cf2fa6e1a39"},"vehicle_type_id":"4","last_reported":1736777392,"current_range_meters":33600,"station_id":"ce4bhgp2rcd13ifvqfd0","pricing_plan_id":"cebpf4jnsgd1na2vs0mg"},{"bike_id":"ac386460-d734-49dc-a07d-5765a2b45256","system_id":"levelo_inurba_marseille","lat":43.29715,"lon":5.37697,"is_reserved":false,"is_disabled":false,"rental_uris":{"android":"levelo://app?vid=ac386460-d734-49dc-a07d-5765a2b45256","ios":"levelo://app?vid=ac386460-d734-49dc-a07d-5765a2b45256"},"vehicle_type_id":"4","last_reported":1736777392,"current_range_meters":38400,"station_id":"ce4bgkh2rcd13ifvqbl0","pricing_plan_id":"cebpf4jnsgd1na2vs0mg"},{"bike_id":"615a8105-b137-4bc1-bde3-fbaaa249b939","system_id":"levelo_inurba_marseille","lat":43.26071,"lon":5.39398,"is_reserved":false,"is_disabled":false,"rental_uris":{"android":"levelo://app?vid=615a8105-b137-4bc1-bde3-fbaaa249b939","ios":"levelo://app?vid=615a8105-b137-4bc1-bde3-fbaaa249b939"},"vehicle_type_id":"4","last_reported":1736777392,"current_range_meters":38800,"station_id":"ce4bhh92rcd13ifvqfj0","pricing_plan_id":"cebpf4jnsgd1na2vs0mg"},{"bike_id":"2c184bc4-e6b4-46a0-97b5-69c9149768ba","system_id":"levelo_inurba_marseille","lat":43.2979,"lon":5.371,"is_reserved":false,"is_disabled":false,"rental_uris":{"android":"levelo://app?vid=2c184bc4-e6b4-46a0-97b5-69c9149768ba","ios":"levelo://app?vid=2c184bc4-e6b4-46a0-97b5-69c9149768ba"},"vehicle_type_id":"4","last_reported":1736777392,"current_range_meters":38800,"station_id":"ce4bgop2rcd13ifvqc1g","pricing_plan_id":"cebpf4jnsgd1na2vs0mg"},{"bike_id":"377730c6-0336-4c78-9c46-cdee41ff19a9","system_id":"levelo_inurba_marseille","lat":43.279449,"lon":5.411024,"is_reserved":false,"is_disabled":false,"rental_uris":{"android":"levelo://app?vid=377730c6-0336-4c78-9c46-cdee41ff19a9","ios":"levelo://app?vid=377730c6-0336-4c78-9c46-cdee41ff19a9"},"vehicle_type_id":"4","last_reported":1736777392,"current_range_meters":38800,"station_id":"ce4bhnp2rcd13ifvqh0g","pricing_plan_id":"cebpf4jnsgd1na2vs0mg"},{"bike_id":"fbb2190c-a09c-4ad9-8ac6-58dffbcbb3cb","system_id":"levelo_inurba_marseille","lat":43.28155,"lon":5.42646,"is_reserved":false,"is_disabled":false,"rental_uris":{"android":"levelo://app?vid=fbb2190c-a09c-4ad9-8ac6-58dffbcbb3cb","ios":"levelo://app?vid=fbb2190c-a09c-4ad9-8ac6-58dffbcbb3cb"},"vehicle_type_id":"4","last_reported":1736777392,"current_range_meters":10800,"station_id":"ce4bhnh2rcd13ifvqgug","pricing_plan_id":"cebpf4jnsgd1na2vs0mg"},{"bike_id":"1a1bbce5-7b4d-4365-9610-075b8edac38a","system_id":"levelo_inurba_marseille","lat":43.27624,"lon":5.36117,"is_reserved":false,"is_disabled":false,"rental_uris":{"android":"levelo://app?vid=1a1bbce5-7b4d-4365-9610-075b8edac38a","ios":"levelo://app?vid=1a1bbce5-7b4d-4365-9610-075b8edac38a"},"vehicle_type_id":"4","last_reported":1736777392,"current_range_meters":38800,"station_id":"ce4bgj92rcd13ifvqbe0","pricing_plan_id":"cebpf4jnsgd1na2vs0mg"},{"bike_id":"00c5f1e4-0ecf-4674-9b58-44566f11180e","system_id":"levelo_inurba_marseille","lat":43.30417,"lon":5.39751,"is_reserved":false,"is_disabled":false,"rental_uris":{"android":"levelo://app?vid=00c5f1e4-0ecf-4674-9b58-44566f11180e","ios":"levelo://app?vid=00c5f1e4-0ecf-4674-9b58-44566f11180e"},"vehicle_type_id":"4","last_reported":1736777392,"current_range_meters":27200,"station_id":"ce4bh092rcd13ifvqd20","pricing_plan_id":"cebpf4jnsgd1na2vs0mg"},{"bike_id":"a39168b9-7e71-400e-8e34-965a870d57bc","system_id":"levelo_inurba_marseille","lat":43.29686,"lon":5.37696,"is_reserved":false,"is_disabled":false,"rental_uris":{"android":"levelo://app?vid=a39168b9-7e71-400e-8e34-965a870d57bc","ios":"levelo://app?vid=a39168b9-7e71-400e-8e34-965a870d57bc"},"vehicle_type_id":"4","last_reported":1736777392,"current_range_meters":39200,"station_id":"ce4bgkh2rcd13ifvqbl0","pricing_plan_id":"cebpf4jnsgd1na2vs0mg"},{"bike_id":"a91220e0-54fa-4573-b362-8ecd3d2bd7b3","system_id":"levelo_inurba_marseille","lat":43.29797,"lon":5.4041,"is_reserved":false,"is_disabled":false,"rental_uris":{"android":"levelo://app?vid=a91220e0-54fa-4573-b362-8ecd3d2bd7b3","ios":"levelo://app?vid=a91220e0-54fa-4573-b362-8ecd3d2bd7b3"},"vehicle_type_id":"4","last_reported":1736777392,"current_range_meters":24800,"station_id":"ce4bh112rcd13ifvqd90","pricing_plan_id":"cebpf4jnsgd1na2vs0mg"},{"bike_id":"ae4337d8-99fa-4c8c-9435-8df72c27fb45","system_id":"levelo_inurba_marseille","lat":43.29889,"lon":5.38158,"is_reserved":false,"is_disabled":false,"rental_uris":{"android":"levelo://app?vid=ae4337d8-99fa-4c8c-9435-8df72c27fb45","ios":"levelo://app?vid=ae4337d8-99fa-4c8c-9435-8df72c27fb45"},"vehicle_type_id":"4","last_reported":1736777392,"current_range_meters":38000,"station_id":"ce4bgj12rcd13ifvqbc0","pricing_plan_id":"cebpf4jnsgd1na2vs0mg"},{"bike_id":"675afeb0-5825-43be-a72d-fca09ccbe95f","system_id":"levelo_inurba_marseille","lat":43.31698,"lon":5.3776,"is_reserved":false,"is_disabled":false,"rental_uris":{"android":"levelo://app?vid=675afeb0-5825-43be-a72d-fca09ccbe95f","ios":"levelo://app?vid=675afeb0-5825-43be-a72d-fca09ccbe95f"},"vehicle_type_id":"4","last_reported":1736777392,"current_range_meters":36400,"station_id":"ce4bgth2rcd13ifvqch0","pricing_plan_id":"cebpf4jnsgd1na2vs0mg"},{"bike_id":"61911470-828b-4dbb-acb0-a97b63735e54","system_id":"levelo_inurba_marseille","lat":43.32362,"lon":5.3675,"is_reserved":false,"is_disabled":false,"rental_uris":{"android":"levelo://app?vid=61911470-828b-4dbb-acb0-a97b63735e54","ios":"levelo://app?vid=61911470-828b-4dbb-acb0-a97b63735e54"},"vehicle_type_id":"4","last_reported":1736777392,"current_range_meters":38800,"station_id":"ce4bhsh2rcd13ifvqi2g","pricing_plan_id":"cebpf4jnsgd1na2vs0mg"},{"bike_id":"5b7f4893-459b-444b-9a33-b9f402a9f955","system_id":"levelo_inurba_marseille","lat":43.31488,"lon":5.37309,"is_reserved":false,"is_disabled":false,"rental_uris":{"android":"levelo://app?vid=5b7f4893-459b-444b-9a33-b9f402a9f955","ios":"levelo://app?vid=5b7f4893-459b-444b-9a33-b9f402a9f955"},"vehicle_type_id":"4","last_reported":1736777392,"current_range_meters":38400,"station_id":"ce4bgt12rcd13ifvqcd0","pricing_plan_id":"cebpf4jnsgd1na2vs0mg"},{"bike_id":"b31c05a9-6487-4217-80a6-25821a78c060","system_id":"levelo_inurba_marseille","lat":43.23184,"lon":5.35576,"is_reserved":false,"is_disabled":false,"rental_uris":{"android":"levelo://app?vid=b31c05a9-6487-4217-80a6-25821a78c060","ios":"levelo://app?vid=b31c05a9-6487-4217-80a6-25821a78c060"},"vehicle_type_id":"4","last_reported":1736777392,"current_range_meters":34800,"station_id":"ce4bhu92rcd13ifvqi70","pricing_plan_id":"cebpf4jnsgd1na2vs0mg"},{"bike_id":"ae7d5a92-8dcd-4370-80f5-2ee3d2abb22b","system_id":"levelo_inurba_marseille","lat":43.29262,"lon":5.38445,"is_reserved":false,"is_disabled":false,"rental_uris":{"android":"levelo://app?vid=ae7d5a92-8dcd-4370-80f5-2ee3d2abb22b","ios":"levelo://app?vid=ae7d5a92-8dcd-4370-80f5-2ee3d2abb22b"},"vehicle_type_id":"4","last_reported":1736777392,"current_range_meters":28000,"station_id":"ce4bh692rcd13ifvqea0","pricing_plan_id":"cebpf4jnsgd1na2vs0mg"},{"bike_id":"4a4d296c-e71a-4d73-8515-0b49a9079d8d","system_id":"levelo_inurba_marseille","lat":43.23188,"lon":5.39975,"is_reserved":false,"is_disabled":false,"rental_uris":{"android":"levelo://app?vid=4a4d296c-e71a-4d73-8515-0b49a9079d8d","ios":"levelo://app?vid=4a4d296c-e71a-4d73-8515-0b49a9079d8d"},"vehicle_type_id":"4","last_reported":1736777392,"current_range_meters":33200,"station_id":"ce4bhn12rcd13ifvqgqg","pricing_plan_id":"cebpf4jnsgd1na2vs0mg"},{"bike_id":"f92eccaa-b498-4971-8e79-c49742bfb4e0","system_id":"levelo_inurba_marseille","lat":43.26171,"lon":5.37946,"is_reserved":false,"is_disabled":false,"rental_uris":{"android":"levelo://app?vid=f92eccaa-b498-4971-8e79-c49742bfb4e0","ios":"levelo://app?vid=f92eccaa-b498-4971-8e79-c49742bfb4e0"},"vehicle_type_id":"4","last_reported":1736777392,"current_range_meters":38800,"station_id":"ce4bhjp2rcd13ifvqg90","pricing_plan_id":"cebpf4jnsgd1na2vs0mg"},{"bike_id":"6704bf0c-e15b-457a-9d80-44d8deeeaf1f","system_id":"levelo_inurba_marseille","lat":43.24391,"lon":5.37056,"is_reserved":false,"is_disabled":false,"rental_uris":{"android":"levelo://app?vid=6704bf0c-e15b-457a-9d80-44d8deeeaf1f","ios":"levelo://app?vid=6704bf0c-e15b-457a-9d80-44d8deeeaf1f"},"vehicle_type_id":"4","last_reported":1736777392,"current_range_meters":20400,"station_id":"ce4bhhh2rcd13ifvqfk0","pricing_plan_id":"cebpf4jnsgd1na2vs0mg"},{"bike_id":"12a77688-55d2-40a5-9210-63376f169f15","system_id":"levelo_inurba_marseille","lat":43.24996,"lon":5.3893,"is_reserved":false,"is_disabled":false,"rental_uris":{"android":"levelo://app?vid=12a77688-55d2-40a5-9210-63376f169f15","ios":"levelo://app?vid=12a77688-55d2-40a5-9210-63376f169f15"},"vehicle_type_id":"4","last_reported":1736777392,"current_range_meters":22400,"station_id":"ce4bhgp2rcd13ifvqfd0","pricing_plan_id":"cebpf4jnsgd1na2vs0mg"},{"bike_id":"56a376b2-9d09-4fc3-ab34-e5cf9024bfad","system_id":"levelo_inurba_marseille","lat":43.29821,"lon":5.38095,"is_reserved":false,"is_disabled":false,"rental_uris":{"android":"levelo://app?vid=56a376b2-9d09-4fc3-ab34-e5cf9024bfad","ios":"levelo://app?vid=56a376b2-9d09-4fc3-ab34-e5cf9024bfad"},"vehicle_type_id":"4","last_reported":1736777392,"current_range_meters":38800,"station_id":"ce4bgip2rcd13ifvqbb0","pricing_plan_id":"cebpf4jnsgd1na2vs0mg"},{"bike_id":"39dc6c59-3352-4eee-97e6-b5f226833557","system_id":"levelo_inurba_marseille","lat":43.33608,"lon":5.40999,"is_reserved":false,"is_disabled":true,"rental_uris":{"android":"levelo://app?vid=39dc6c59-3352-4eee-97e6-b5f226833557","ios":"levelo://app?vid=39dc6c59-3352-4eee-97e6-b5f226833557"},"vehicle_type_id":"4","last_reported":1736777392,"current_range_meters":27600,"station_id":"ce4bhqh2rcd13ifvqhmg","pricing_plan_id":"cebpf4jnsgd1na2vs0mg"},{"bike_id":"d30e621d-83ff-4238-81a9-2c600efebed3","system_id":"levelo_inurba_marseille","lat":43.26028,"lon":5.37555,"is_reserved":false,"is_disabled":true,"rental_uris":{"android":"levelo://app?vid=d30e621d-83ff-4238-81a9-2c600efebed3","ios":"levelo://app?vid=d30e621d-83ff-4238-81a9-2c600efebed3"},"vehicle_type_id":"4","last_reported":1736777392,"current_range_meters":2000,"station_id":"ce4bhgh2rcd13ifvqfa0","pricing_plan_id":"cebpf4jnsgd1na2vs0mg"},{"bike_id":"5bfcbf8b-f2b4-40c1-a14b-05dc88809a6c","system_id":"levelo_inurba_marseille","lat":43.26558,"lon":5.38996,"is_reserved":false,"is_disabled":true,"rental_uris":{"android":"levelo://app?vid=5bfcbf8b-f2b4-40c1-a14b-05dc88809a6c","ios":"levelo://app?vid=5bfcbf8b-f2b4-40c1-a14b-05dc88809a6c"},"vehicle_type_id":"4","last_reported":1736777392,"current_range_meters":1600,"station_id":"ce4bhe12rcd13ifvqf30","pricing_plan_id":"cebpf4jnsgd1na2vs0mg"},{"bike_id":"a11c5928-aaae-4809-8142-5efa51614d2d","system_id":"levelo_inurba_marseille","lat":43.26806,"lon":5.40252,"is_reserved":false,"is_disabled":false,"rental_uris":{"android":"levelo://app?vid=a11c5928-aaae-4809-8142-5efa51614d2d","ios":"levelo://app?vid=a11c5928-aaae-4809-8142-5efa51614d2d"},"vehicle_type_id":"4","last_reported":1736777392,"current_range_meters":30000,"station_id":"ce501612rcd8frsf0b60","pricing_plan_id":"cebpf4jnsgd1na2vs0mg"},