{"last_updated":1730585343,"ttl":60,"version":"2.2","data":{"bikes":[{"bike_id":"daa5500f-6039-4d77-bf02-00710b3acec6","system_id":"levelo_inurba_marseille","lat":43.25931,"lon":5.40912,"is_reserved":false,"is_disabled":false,"rental_uris":{"android":"levelo://app?vid=daa5500f-6039-4d77-bf02-00710b3acec6","ios":"levelo://app?vid=daa5500f-6039-4d77-bf02-00710b3acec6"},"vehicle_type_id":"4","last_reported":1730585343,"current_range_meters":8000,"station_id":"ce4bhm92rcd13ifvqglg","pricing_plan_id":"cebpf4jnsgd1na2vs0mg"},{"bike_id":"2acfc2b2-8dbb-4e8e-88cd-56d90f75bbc8","system_id":"levelo_inurba_marseille","lat":43.278129,"lon":5.407171,"is_reserved":false,"is_disabled":false,"rental_uris":{"android":"levelo://app?vid=2acfc2b2-8dbb-4e8e-88cd-56d90f75bbc8","ios":"levelo://app?vid=2acfc2b2-8dbb-4e8e-88cd-56d90f75bbc8"},"vehicle_type_id":"4","last_reported":1730585343,"current_range_meters":38800,"station_id":"ce4bhnh2rcd13ifvqgtg","pricing_plan_id":"cebpf4jnsgd1na2vs0mg"},{"bike_id":"bbedcf01-8d16-416e-bedd-d7dbe6c10a70","system_id":"levelo_inurba_marseille","lat":43.29026,"lon":5.3814,"is_reserved":false,"is_disabled":false,"rental_uris":{"android":"levelo://app?vid=bbedcf01-8d16-416e-bedd-d7dbe6c10a70","ios":"levelo://app?vid=bbedcf01-8d16-416e-bedd-d7dbe6c10a70"},"vehicle_type_id":"4","last_reported":1730585343,"current_range_meters":8800,"station_id":"ce4bh4p2rcd13ifvqe1g","pricing_plan_id":"cebpf4jnsgd1na2vs0mg"},{"bike_id":"5662c3ec-16ac-4646-ad92-7b800105b64d","system_id":"levelo_inurba_marseille","lat":43.25113,"lon":5.40332,"is_reserved":false,"is_disabled":false,"rental_uris":{"android":"levelo://app?vid=5662c3ec-16ac-4646-ad92-7b800105b64d","ios":"levelo://app?vid=5662c3ec-16ac-4646-ad92-7b800105b64d"},"vehicle_type_id":"4","last_reported":1730585343,"current_range_meters":9200,"station_id":"ce4bhlh2rcd13ifvqgig","pricing_plan_id":"cebpf4jnsgd1na2vs0mg"},{"bike_id":"b3291122-c7a5-4136-9d27-54c339264b6a","system_id":"levelo_inurba_marseille","lat":43.316791,"lon":5.404746,"is_reserved":false,"is_disabled":false,"rental_uris":{"android":"levelo://app?vid=b3291122-c7a5-4136-9d27-54c339264b6a","ios":"levelo://app?vid=b3291122-c7a5-4136-9d27-54c339264b6a"},"vehicle_type_id":"4","last_reported":1730585343,"current_range_meters":6800,"station_id":"ce4bh012rcd13ifvqd00","pricing_plan_id":"cebpf4jnsgd1na2vs0mg"},{"bike_id":"cd88c41b-7339-4670-9a9f-41c1c103206a","system_id":"levelo_inurba_marseille","lat":43.30883,"lon":5.37191,"is_reserved":false,"is_disabled":false,"rental_uris":{"android":"levelo://app?vid=cd88c41b-7339-4670-9a9f-41c1c103206a","ios":"levelo://app?vid=cd88c41b-7339-4670-9a9f-41c1c103206a"},"vehicle_type_id":"4","last_reported":1730585343,"current_range_meters":38000,"station_id":"ce4bguh2rcd13ifvqckg","pricing_plan_id":"cebpf4jnsgd1na2vs0mg"},{"bike_id":"f09a2e3e-a687-4ccb-9ce7-accc19389448","system_id":"levelo_inurba_marseille","lat":43.23962,"lon":5.36629,"is_reserved":false,"is_disabled":false,"rental_uris":{"android":"levelo://app?vid=f09a2e3e-a687-4ccb-9ce7-accc19389448","ios":"levelo://app?vid=f09a2e3e-a687-4ccb-9ce7-accc19389448"},"vehicle_type_id":"4","last_reported":1730585343,"current_range_meters":38800,"station_id":"ce4bhi12rcd13ifvqfp0","pricing_plan_id":"cebpf4jnsgd1na2vs0mg"},{"bike_id":"37063947-a07e-4679-957d-4b507daa086a","system_id":"levelo_inurba_marseille","lat":43.29967,"lon":5.38494,"is_reserved":false,"is_disabled":false,"rental_uris":{"android":"levelo://app?vid=37063947-a07e-4679-957d-4b507daa086a","ios":"levelo://app?vid=37063947-a07e-4679-957d-4b507daa086a"},"vehicle_type_id":"4","last_reported":1730585343,"current_range_meters":36800,"station_id":"ce4bgj92rcd13ifvqbd0","pricing_plan_id":"cebpf4jnsgd1na2vs0mg"},{"bike_id":"540128b1-96f9-4005-b699-c92d6a3e66df","system_id":"levelo_inurba_marseille","lat":43.29531,"lon":5.38533,"is_reserved":false,"is_disabled":false,"rental_uris":{"android":"levelo://app?vid=540128b1-96f9-4005-b699-c92d6a3e66df","ios":"levelo://app?vid=540128b1-96f9-4005-b699-c92d6a3e66df"},"vehicle_type_id":"4","last_reported":1730585343,"current_range_meters":30000,"station_id":"ce4bgih2rcd13ifvqba0","pricing_plan_id":"cebpf4jnsgd1na2vs0mg"},{"bike_id":"578eb1da-bafd-4680-a32e-1e17baa994e5","system_id":"levelo_inurba_marseille","lat":43.27918,"lon":5.39574,"is_reserved":false,"is_disabled":false,"rental_uris":{"android":"levelo://app?vid=578eb1da-bafd-4680-a32e-1e17baa994e5","ios":"levelo://app?vid=578eb1da-bafd-4680-a32e-1e17baa994e5"},"vehicle_type_id":"4","last_reported":1730585343,"current_range_meters":38800,"station_id":"ce4bhf92rcd13ifvqf40","pricing_plan_id":"cebpf4jnsgd1na2vs0mg"},{"bike_id":"463a5fa2-247f-46f7-a9ca-b55d6029c4c8","system_id":"levelo_inurba_marseille","lat":43.27493,"lon":5.42449,"is_reserved":false,"is_disabled":false,"rental_uris":{"android":"levelo://app?vid=463a5fa2-247f-46f7-a9ca-b55d6029c4c8","ios":"levelo://app?vid=463a5fa2-247f-46f7-a9ca-b55d6029c4c8"},"vehicle_type_id":"4","last_reported":1730585343,"current_range_meters":40000,"station_id":"ce4bhn92rcd13ifvqgrg","pricing_plan_id":"cebpf4jnsgd1na2vs0mg"},{"bike_id":"58a97ccd-c78e-42ea-bbe5-395d87745a47","system_id":"levelo_inurba_marseille","lat":43.29589,"lon":5.38101,"is_reserved":false,"is_disabled":false,"rental_uris":{"android":"levelo://app?vid=58a97ccd-c78e-42ea-bbe5-395d87745a47","ios":"levelo://app?vid=58a97ccd-c78e-42ea-bbe5-395d87745a47"},"vehicle_type_id":"4","last_reported":1730585343,"current_range_meters":39200,"station_id":"ce4bgl12rcd13ifvqbo0","pricing_plan_id":"cebpf4jnsgd1na2vs0mg"},{"bike_id":"06bb3136-de31-411d-a1e3-31b723768622","system_id":"levelo_inurba_marseille","lat":43.29534,"lon":5.38542,"is_reserved":false,"is_disabled":false,"rental_uris":{"android":"levelo://app?vid=06bb3136-de31-411d-a1e3-31b723768622","ios":"levelo://app?vid=06bb3136-de31-411d-a1e3-31b723768622"},"vehicle_type_id":"4","last_reported":1730585343,"current_range_meters":38800,"station_id":"ce4bgih2rcd13ifvqba0","pricing_plan_id":"cebpf4jnsgd1na2vs0mg"},{"bike_id":"8396e040-54c6-47e1-b837-5ab9eebefaa2","system_id":"levelo_inurba_marseille","lat":43.29528,"lon":5.38549,"is_reserved":false,"is_disabled":false,"rental_uris":{"android":"levelo://app?vid=8396e040-54c6-47e1-b837-5ab9eebefaa2","ios":"levelo://app?vid=8396e040-54c6-47e1-b837-5ab9eebefaa2"},"vehicle_type_id":"4","last_reported":1730585343,"current_range_meters":6400,"station_id":"ce4bgih2rcd13ifvqba0","pricing_plan_id":"cebpf4jnsgd1na2vs0mg"},{"bike_id":"7c742342-036e-4e20-af2f-732ff5eef3fe","system_id":"levelo_inurba_marseille","lat":43.30596,"lon":5.3721,"is_reserved":false,"is_disabled":false,"rental_uris":{"android":"levelo://app?vid=7c742342-036e-4e20-af2f-732ff5eef3fe","ios":"levelo://app?vid=7c742342-036e-4e20-af2f-732ff5eef3fe"},"vehicle_type_id":"4","last_reported":1730585343,"current_range_meters":34800,"station_id":"ce4bgqh2rcd13ifvqc4g","pricing_plan_id":"cebpf4jnsgd1na2vs0mg"},{"bike_id":"16869cb2-a83c-40e2-9d7b-80e1114c2015","system_id":"levelo_inurba_marseille","lat":43.22927,"lon":5.35376,"is_reserved":false,"is_disabled":false,"rental_uris":{"android":"levelo://app?vid=16869cb2-a83c-40e2-9d7b-80e1114c2015","ios":"levelo://app?vid=16869cb2-a83c-40e2-9d7b-80e1114c2015"},"vehicle_type_id":"4","last_reported":1730585343,"current_range_meters":38800,"station_id":"cpo3532slgdg3j2ikp40","pricing_plan_id":"cebpf4jnsgd1na2vs0mg"},{"bike_id":"4e147afd-2c63-4068-8a04-c050968dadca","system_id":"levelo_inurba_marseille","lat":43.29556,"lon":5.4229,"is_reserved":false,"is_disabled":false,"rental_uris":{"android":"levelo://app?vid=4e147afd-2c63-4068-8a04-c050968dadca","ios":"levelo://app?vid=4e147afd-2c63-4068-8a04-c050968dadca"},"vehicle_type_id":"4","last_reported":1730585343,"current_range_meters":24800,"station_id":"ce4bhph2rcd13ifvqhdg","pricing_plan_id":"cebpf4jnsgd1na2vs0mg"},{"bike_id":"5818a6ac-2d40-4bf0-a920-aefa2e8a89fa","system_id":"levelo_inurba_marseille","lat":43.26487,"lon":5.39553,"is_reserved":false,"is_disabled":false,"rental_uris":{"android":"levelo://app?vid=5818a6ac-2d40-4bf0-a920-aefa2e8a89fa","ios":"levelo://app?vid=5818a6ac-2d40-4bf0-a920-aefa2e8a89fa"},"vehicle_type_id":"4","last_reported":1730585343,"current_range_meters":27200,"station_id":"ce4bhi12rcd13ifvqfq0","pricing_plan_id":"cebpf4jnsgd1na2vs0mg"},{"bike_id":"39e48f94-e636-4fd8-a174-0a1f227ded4f","system_id":"levelo_inurba_marseille","lat":43.29256,"lon":5.38449,"is_reserved":false,"is_disabled":false,"rental_uris":{"android":"levelo://app?vid=39e48f94-e636-4fd8-a174-0a1f227ded4f","ios":"levelo://app?vid=39e48f94-e636-4fd8-a174-0a1f227ded4f"},"vehicle_type_id":"4","last_reported":1730585343,"current_range_meters":16800,"station_id":"ce4bh692rcd13ifvqea0","pricing_plan_id":"cebpf4jnsgd1na2vs0mg"},{"bike_id":"ad6fe96e-3332-410a-8646-ece0965352c2","system_id":"levelo_inurba_marseille","lat":43.26656,"lon":5.425419,"is_reserved":false,"is_disabled":false,"rental_uris":{"android":"levelo://app?vid=ad6fe96e-3332-410a-8646-ece0965352c2","ios":"levelo://app?vid=ad6fe96e-3332-410a-8646-ece0965352c2"},"vehicle_type_id":"4","last_reported":1730585343,"current_range_meters":10800,"station_id":"","pricing_plan_id":"cebpf4jnsgd1na2vs0mg"},{"bike_id":"3aae935e-f19b-4b82-860a-9e86c4796487","system_id":"levelo_inurba_marseille","lat":43.25858,"lon":5.39903,"is_reserved":false,"is_disabled":false,"rental_uris":{"android":"levelo://app?vid=3aae935e-f19b-4b82-860a-9e86c4796487","ios":"levelo://app?vid=3aae935e-f19b-4b82-860a-9e86c4796487"},"vehicle_type_id":"4","last_reported":1730585343,"current_range_meters":7200,"station_id":"ce4bhl92rcd13ifvqghg","pricing_plan_id":"cebpf4jnsgd1na2vs0mg"},{"bike_id":"09cd329c-1fa7-4b20-a274-2cdef2d8cd4f","system_id":"levelo_inurba_marseille","lat":43.24072,"lon":5.3776,"is_reserved":false,"is_disabled":false,"rental_uris":{"android":"levelo://app?vid=09cd329c-1fa7-4b20-a274-2cdef2d8cd4f","ios":"levelo://app?vid=09cd329c-1fa7-4b20-a274-2cdef2d8cd4f"},"vehicle_type_id":"4","last_reported":1730585343,"current_range_meters":38800,"station_id":"ce4bhnp2rcd13ifvqgvg","pricing_plan_id":"cebpf4jnsgd1na2vs0mg"},{"bike_id":"c1255d20-fb24-4aa2-8074-dc3eb74a12df","system_id":"levelo_inurba_marseille","lat":43.28696,"lon":5.37399,"is_reserved":false,"is_disabled":false,"rental_uris":{"android":"levelo://app?vid=c1255d20-fb24-4aa2-8074-dc3eb74a12df","ios":"levelo://app?vid=c1255d20-fb24-4aa2-8074-dc3eb74a12df"},"vehicle_type_id":"4","last_reported":1730585343,"current_range_meters":21600,"station_id":"ce4bh3p2rcd13ifvqdq0","pricing_plan_id":"cebpf4jnsgd1na2vs0mg"},{"bike_id":"3c330f08-508b-4866-b688-f0374209e3dc","system_id":"levelo_inurba_marseille","lat":43.25116,"lon":5.4032,"is_reserved":false,"is_disabled":false,"rental_uris":{"android":"levelo://app?vid=3c330f08-508b-4866-b688-f0374209e3dc","ios":"levelo://app?vid=3c330f08-508b-4866-b688-f0374209e3dc"},"vehicle_type_id":"4","last_reported":1730585343,"current_range_meters":17600,"station_id":"ce4bhlh2rcd13ifvqgig","pricing_plan_id":"cebpf4jnsgd1na2vs0mg"},{"bike_id":"40a0df66-1640-4ca8-b679-3dd5aaaa8983","system_id":"levelo_inurba_marseille","lat":43.29591,"lon":5.38096,"is_reserved":false,"is_disabled":false,"rental_uris":{"android":"levelo://app?vid=40a0df66-1640-4ca8-b679-3dd5aaaa8983","ios":"levelo://app?vid=40a0df66-1640-4ca8-b679-3dd5aaaa8983"},"vehicle_type_id":"4","last_reported":1730585343,"current_range_meters":38800,"station_id":"ce4bgl12rcd13ifvqbo0","pricing_plan_id":"cebpf4jnsgd1na2vs0mg"},{"bike_id":"6535e471-b2bd-4843-8ca0-ee6c16f1d74f","system_id":"levelo_inurba_marseille","lat":43.29532,"lon":5.38541,"is_reserved":false,"is_disabled":false,"rental_uris":{"android":"levelo://app?vid=6535e471-b2bd-4843-8ca0-ee6c16f1d74f","ios":"levelo://app?vid=6535e471-b2bd-4843-8ca0-ee6c16f1d74f"},"vehicle_type_id":"4","last_reported":1730585343,"current_range_meters":36800,"station_id":"ce4bgih2rcd13ifvqba0","pricing_plan_id":"cebpf4jnsgd1na2vs0mg"},{"bike_id":"777a12eb-37e9-439a-ad68-3523d47c077e","system_id":"levelo_inurba_marseille","lat":43.28723,"lon":5.37946,"is_reserved":false,"is_disabled":false,"rental_uris":{"android":"levelo://app?vid=777a12eb-37e9-439a-ad68-3523d47c077e","ios":"levelo://app?vid=777a12eb-37e9-439a-ad68-3523d47c077e"},"vehicle_type_id":"4","last_reported":1730585343,"current_range_meters":9600,"station_id":"ce4bh9p2rcd13ifvqec0","pricing_plan_id":"cebpf4jnsgd1na2vs0mg"},{"bike_id":"41e69a9b-66f4-4c88-9e8e-24877c19a722","system_id":"levelo_inurba_marseille","lat":43.26548,"lon":5.37288,"is_reserved":false,"is_disabled":false,"rental_uris":{"android":"levelo://app?vid=41e69a9b-66f4-4c88-9e8e-24877c19a722","ios":"levelo://app?vid=41e69a9b-66f4-4c88-9e8e-24877c19a722"},"vehicle_type_id":"4","last_reported":1730585343,"current_range_meters":38800,"station_id":"ce4bhg12rcd13ifvqf70","pricing_plan_id":"cebpf4jnsgd1na2vs0mg"},{"bike_id":"22cb7bf5-d924-4c42-b792-42240584238f","system_id":"levelo_inurba_marseille","lat":43.231497,"lon":5.43715,"is_reserved":false,"is_disabled":false,"rental_uris":{"android":"levelo://app?vid=22cb7bf5-d924-4c42-b792-42240584238f","ios":"levelo://app?vid=22cb7bf5-d924-4c42-b792-42240584238f"},"vehicle_type_id":"4","last_reported":1730585343,"current_range_meters":38800,"station_id":"ce4bhmp2rcd13ifvqgog","pricing_plan_id":"cebpf4jnsgd1na2vs0mg"},{"bike_id":"f3644f25-acbb-49ac-ab9c-e91b11f01fa4","system_id":"levelo_inurba_marseille","lat":43.25871,"lon":5.39903,"is_reserved":false,"is_disabled":false,"rental_uris":{"android":"levelo://app?vid=f3644f25-acbb-49ac-ab9c-e91b11f01fa4","ios":"levelo://app?vid=f3644f25-acbb-49ac-ab9c-e91b11f01fa4"},"vehicle_type_id":"4","last_reported":1730585343,"current_range_meters":28400,"station_id":"ce4bhl92rcd13ifvqghg","pricing_plan_id":"cebpf4jnsgd1na2vs0mg"},{"bike_id":"eeda0a49-c95e-447a-b118-263faeb6a58f","system_id":"levelo_inurba_marseille","lat":43.29357,"lon":5.37179,"is_reserved":false,"is_disabled":false,"rental_uris":{"android":"levelo://app?vid=eeda0a49-c95e-447a-b118-263faeb6a58f","ios":"levelo://app?vid=eeda0a49-c95e-447a-b118-263faeb6a58f"},"vehicle_type_id":"4","last_reported":1730585343,"current_range_meters":38400,"station_id":"","pricing_plan_id":"cebpf4jnsgd1na2vs0mg"},{"bike_id":"dc7f1fc9-111b-4f98-9712-78d4fc030980","system_id":"levelo_inurba_marseille","lat":43.24807,"lon":5.37459,"is_reserved":false,"is_disabled":false,"rental_uris":{"android":"levelo://app?vid=dc7f1fc9-111b-4f98-9712-78d4fc030980","ios":"levelo://app?vid=dc7f1fc9-111b-4f98-9712-78d4fc030980"},"vehicle_type_id":"4","last_reported":1730585343,"current_range_meters":30400,"station_id":"ce4bhgh2rcd13ifvqfb0","pricing_plan_id":"cebpf4jnsgd1na2vs0mg"},{"bike_id":"460ef19d-97b4-4a1f-832f-e4cb6b8cbf80","system_id":"levelo_inurba_marseille","lat":43.29257,"lon":5.38446,"is_reserved":false,"is_disabled":false,"rental_uris":{"android":"levelo://app?vid=460ef19d-97b4-4a1f-832f-e4cb6b8cbf80","ios":"levelo://app?vid=460ef19d-97b4-4a1f-832f-e4cb6b8cbf80"},"vehicle_type_id":"4","last_reported":1730585343,"current_range_meters":10800,"station_id":"ce4bh692rcd13ifvqea0","pricing_plan_id":"cebpf4jnsgd1na2vs0mg"},{"bike_id":"32d84800-a86a-4295-80d8-5f10bcad7318","system_id":"levelo_inurba_marseille","lat":43.31323,"lon":5.39696,"is_reserved":false,"is_disabled":false,"rental_uris":{"android":"levelo://app?vid=32d84800-a86a-4295-80d8-5f10bcad7318","ios":"levelo://app?vid=32d84800-a86a-4295-80d8-5f10bcad7318"},"vehicle_type_id":"4","last_reported":1730585343,"current_range_meters":32800,"station_id":"ce4bgvp2rcd13ifvqcu0","pricing_plan_id":"cebpf4jnsgd1na2vs0mg"},{"bike_id":"19a6d47e-53d7-42cf-9934-34fc3fd9053c","system_id":"levelo_inurba_marseille","lat":43.32291,"lon":5.38267,"is_reserved":false,"is_disabled":false,"rental_uris":{"android":"levelo://app?vid=19a6d47e-53d7-42cf-9934-34fc3fd9053c","ios":"levelo://app?vid=19a6d47e-53d7-42cf-9934-34fc3fd9053c"},"vehicle_type_id":"4","last_reported":1730585343,"current_range_meters":38800,"station_id":"ce4bhr12rcd13ifvqhqg","pricing_plan_id":"cebpf4jnsgd1na2vs0mg"},{"bike_id":"6e2c93b7-ebb4-422a-b427-e48707211c9b","system_id":"levelo_inurba_marseille","lat":43.30415,"lon":5.41291,"is_reserved":false,"is_disabled":false,"rental_uris":{"android":"levelo://app?vid=6e2c93b7-ebb4-422a-b427-e48707211c9b","ios":"levelo://app?vid=6e2c93b7-ebb4-422a-b427-e48707211c9b"},"vehicle_type_id":"4","last_reported":1730585343,"current_range_meters":25600,"station_id":"ce4bhop2rcd13ifvqh8g","pricing_plan_id":"cebpf4jnsgd1na2vs0mg"},{"bike_id":"7f39b1a9-937f-4de6-9cb9-6fb824b11a9d","system_id":"levelo_inurba_marseille","lat":43.29271,"lon":5.36835,"is_reserved":false,"is_disabled":false,"rental_uris":{"android":"levelo://app?vid=7f39b1a9-937f-4de6-9cb9-6fb824b11a9d","ios":"levelo://app?vid=7f39b1a9-937f-4de6-9cb9-6fb824b11a9d"},"vehicle_type_id":"4","last_reported":1730585343,"current_range_meters":28800,"station_id":"ce4bhbp2rcd13ifvqesg","pricing_plan_id":"cebpf4jnsgd1na2vs0mg"},{"bike_id":"698ea456-e6e0-47cd-be00-8bce225ba3a1","system_id":"levelo_inurba_marseille","lat":43.25497,"lon":5.3765,"is_reserved":false,"is_disabled":false,"rental_uris":{"android":"levelo://app?vid=698ea456-e6e0-47cd-be00-8bce225ba3a1","ios":"levelo://app?vid=698ea456-e6e0-47cd-be00-8bce225ba3a1"},"vehicle_type_id":"4","last_reported":1730585343,"current_range_meters":32000,"station_id":"ce4bhh12rcd13ifvqff0","pricing_plan_id":"cebpf4jnsgd1na2vs0mg"},{"bike_id":"3a6aedc3-73e9-4917-8207-e8992e5b1294","system_id":"levelo_inurba_marseille","lat":43.29528,"lon":5.38553,"is_reserved":false,"is_disabled":false,"rental_uris":{"android":"levelo://app?vid=3a6aedc3-73e9-4917-8207-e8992e5b1294","ios":"levelo://app?vid=3a6aedc3-73e9-4917-8207-e8992e5b1294"},"vehicle_type_id":"4","last_reported":1730585343,"current_range_meters":16800,"station_id":"ce4bgih2rcd13ifvqba0","pricing_plan_id":"cebpf4jnsgd1na2vs0mg"},{"bike_id":"a38e5ed3-48f2-455c-8a34-9c0136444dee","system_id":"levelo_inurba_marseille","lat":43.30141,"lon":5.39894,"is_reserved":false,"is_disabled":false,"rental_uris":{"android":"levelo://app?vid=a38e5ed3-48f2-455c-8a34-9c0136444dee","ios":"levelo://app?vid=a38e5ed3-48f2-455c-8a34-9c0136444dee"},"vehicle_type_id":"4","last_reported":1730585343,"current_range_meters":24800,"station_id":"ce4bh0h2rcd13ifvqd40","pricing_plan_id":"cebpf4jnsgd1na2vs0mg"},{"bike_id":"7ca7398d-064f-4241-a5e2-f25f744c467b","system_id":"levelo_inurba_marseille","lat":43.29532,"lon":5.38544,"is_reserved":false,"is_disabled":false,"rental_uris":{"android":"levelo://app?vid=7ca7398d-064f-4241-a5e2-f25f744c467b","ios":"levelo://app?vid=7ca7398d-064f-4241-a5e2-f25f744c467b"},"vehicle_type_id":"4","last_reported":1730585343,"current_range_meters":38800,"station_id":"ce4bgih2rcd13ifvqba0","pricing_plan_id":"cebpf4jnsgd1na2vs0mg"},{"bike_id":"dba3c29b-3433-4dd1-a290-c8b09348f9fc","system_id":"levelo_inurba_marseille","lat":43.26059,"lon":5.39404,"is_reserved":false,"is_disabled":false,"rental_uris":{"android":"levelo://app?vid=dba3c29b-3433-4dd1-a290-c8b09348f9fc","ios":"levelo://app?vid=dba3c29b-3433-4dd1-a290-c8b09348f9fc"},"vehicle_type_id":"4","last_reported":1730585343,"current_range_meters":31200,"station_id":"ce4bhh92rcd13ifvqfj0","pricing_plan_id":"cebpf4jnsgd1na2vs0mg"},{"bike_id":"6323ae90-eaed-4799-998b-6223d9f08d3d","system_id":"levelo_inurba_marseille","lat":43.29197,"lon":5.39314,"is_reserved":false,"is_disabled":false,"rental_uris":{"android":"levelo://app?vid=6323ae90-eaed-4799-998b-6223d9f08d3d","ios":"levelo://app?vid=6323ae90-eaed-4799-998b-6223d9f08d3d"},"vehicle_type_id":"4","last_reported":1730585343,"current_range_meters":38800,"station_id":"ce4bh192rcd13ifvqdd0","pricing_plan_id":"cebpf4jnsgd1na2vs0mg"},{"bike_id":"b7b5256a-3513-4a72-bfed-a2b06a6e4c02","system_id":"levelo_inurba_marseille","lat":43.28457,"lon":5.35882,"is_reserved":false,"is_disabled":false,"rental_uris":{"android":"levelo://app?vid=b7b5256a-3513-4a72-bfed-a2b06a6e4c02","ios":"levelo://app?vid=b7b5256a-3513-4a72-bfed-a2b06a6e4c02"},"vehicle_type_id":"4","last_reported":1730585343,"current_range_meters":36400,"station_id":"ce4bhah2rcd13ifvqei0","pricing_plan_id":"cebpf4jnsgd1na2vs0mg"},{"bike_id":"99d7c7dc-2e91-4267-811b-4302f16a1504","system_id":"levelo_inurba_marseille","lat":43.25111,"lon":5.40322,"is_reserved":false,"is_disabled":false,"rental_uris":{"android":"levelo://app?vid=99d7c7dc-2e91-4267-811b-4302f16a1504","ios":"levelo://app?vid=99d7c7dc-2e91-4267-811b-4302f16a1504"},"vehicle_type_id":"4","last_reported":1730585343,"current_range_meters":6000,"station_id":"ce4bhlh2rcd13ifvqgig","pricing_plan_id":"cebpf4jnsgd1na2vs0mg"},{"bike_id":"2fecd123-2276-416f-a249-18b8dca5a399","system_id":"levelo_inurba_marseille","lat":43.32366,"lon":5.38891,"is_reserved":false,"is_disabled":false,"rental_uris":{"android":"levelo://app?vid=2fecd123-2276-416f-a249-18b8dca5a399","ios":"levelo://app?vid=2fecd123-2276-416f-a249-18b8dca5a399"},"vehicle_type_id":"4","last_reported":1730585343,"current_range_meters":16000,"station_id":"ce4bhqp2rcd13ifvqhog","pricing_plan_id":"cebpf4jnsgd1na2vs0mg"},{"bike_id":"4899b940-b73b-4e8c-9a0c-8e2aa73c6dcb","system_id":"levelo_inurba_marseille","lat":43.29553,"lon":5.42291,"is_reserved":false,"is_disabled":false,"rental_uris":{"android":"levelo://app?vid=4899b940-b73b-4e8c-9a0c-8e2aa73c6dcb","ios":"levelo://app?vid=4899b940-b73b-4e8c-9a0c-8e2aa73c6dcb"},"vehicle_type_id":"4","last_reported":1730585343,"current_range_meters":9200,"station_id":"ce4bhph2rcd13ifvqhdg","pricing_plan_id":"cebpf4jnsgd1na2vs0mg"},{"bike_id":"0c0f8257-7d6d-4383-9b6a-d393fdfc974e","system_id":"levelo_inurba_marseille","lat":43.29628,"lon":5.37717,"is_reserved":false,"is_disabled":false,"rental_uris":{"android":"levelo://app?vid=0c0f8257-7d6d-4383-9b6a-d393fdfc974e","ios":"levelo://app?vid=0c0f8257-7d6d-4383-9b6a-d393fdfc974e"},"vehicle_type_id":"4","last_reported":1730585343,"current_range_meters":22400,"station_id":"ce4bgi92rcd13ifvqb90","pricing_plan_id":"cebpf4jnsgd1na2vs0mg"},{"bike_id":"73c275bf-7a27-4795-a2af-ee837a10340a","system_id":"levelo_inurba_marseille","lat":43.29191,"lon":5.39329,"is_reserved":false,"is_disabled":false,"rental_uris":{"android":"levelo://app?vid=73c275bf-7a27-4795-a2af-ee837a10340a","ios":"levelo://app?vid=73c275bf-7a27-4795-a2af-ee837a10340a"},"vehicle_type_id":"4","last_reported":1730585343,"current_range_meters":39200,"station_id":"ce4bh192rcd13ifvqdd0","pricing_plan_id":"cebpf4jnsgd1na2vs0mg"},{"bike_id":"ea6eac24-7b51-434a-8f51-d28eece06440","system_id":"levelo_inurba_marseille","lat":43.28809,"lon":5.36095,"is_reserved":false,"is_disabled":false,"rental_uris":{"android":"levelo://app?vid=ea6eac24-7b51-434a-8f51-d28eece06440","ios":"levelo://app?vid=ea6eac24-7b51-434a-8f51-d28eece06440"},"vehicle_type_id":"4","last_reported":1730585343,"current_range_meters":11600,"station_id":"","pricing_plan_id":"cebpf4jnsgd1na2vs0mg"},{"bike_id":"de77c2b5-da72-4876-8627-94d6e7fc04db","system_id":"levelo_inurba_marseille","lat":43.29978,"lon":5.38495,"is_reserved":false,"is_disabled":false,"rental_uris":{"android":"levelo://app?vid=de77c2b5-da72-4876-8627-94d6e7fc04db","ios":"levelo://app?vid=de77c2b5-da72-4876-8627-94d6e7fc04db"},"vehicle_type_id":"4","last_reported":1730585343,"current_range_meters":38800,"station_id":"ce4bgj92rcd13ifvqbd0","pricing_plan_id":"cebpf4jnsgd1na2vs0mg"},{"bike_id":"fd745846-a6ee-4099-aff7-8de6e0f5c52a","system_id":"levelo_inurba_marseille","lat":43.29606,"lon":5.38091,"is_reserved":false,"is_disabled":false,"rental_uris":{"android":"levelo://app?vid=fd745846-a6ee-4099-aff7-8de6e0f5c52a","ios":"levelo://app?vid=fd745846-a6ee-4099-aff7-8de6e0f5c52a"},"vehicle_type_id":"4","last_reported":1730585343,"current_range_meters":38800,"station_id":"ce4bgl12rcd13ifvqbo0","pricing_plan_id":"cebpf4jnsgd1na2vs0mg"},{"bike_id":"520350f2-c65e-4497-bfef-444f70664ef3","system_id":"levelo_inurba_marseille","lat":43.28022,"lon":5.36944,"is_reserved":false,"is_disabled":false,"rental_uris":{"android":"levelo://app?vid=520350f2-c65e-4497-bfef-444f70664ef3","ios":"levelo://app?vid=520350f2-c65e-4497-bfef-444f70664ef3"},"vehicle_type_id":"4","last_reported":1730585343,"current_range_meters":16400,"station_id":"ce4bha12rcd13ifvqef0","pricing_plan_id":"cebpf4jnsgd1na2vs0mg"},{"bike_id":"ec06eaa7-22dc-4d4a-8fc9-175b31684f56","system_id":"levelo_inurba_marseille","lat":43.28346,"lon":5.38106,"is_reserved":false,"is_disabled":false,"rental_uris":{"android":"levelo://app?vid=ec06eaa7-22dc-4d4a-8fc9-175b31684f56","ios":"levelo://app?vid=ec06eaa7-22dc-4d4a-8fc9-175b31684f56"},"vehicle_type_id":"4","last_reported":1730585343,"current_range_meters":36000,"station_id":"ce4bh412rcd13ifvqdr0","pricing_plan_id":"cebpf4jnsgd1na2vs0mg"},{"bike_id":"a1f78ab3-4e75-44e2-a948-d2b63dc06c7f","system_id":"levelo_inurba_marseille","lat":43.313236,"lon":5.396892,"is_reserved":false,"is_disabled":false,"rental_uris":{"android":"levelo://app?vid=a1f78ab3-4e75-44e2-a948-d2b63dc06c7f","ios":"levelo://app?vid=a1f78ab3-4e75-44e2-a948-d2b63dc06c7f"},"vehicle_type_id":"4","last_reported":1730585343,"current_range_meters":38800,"station_id":"ce4bgvp2rcd13ifvqcu0","pricing_plan_id":"cebpf4jnsgd1na2vs0mg"},{"bike_id":"c8893d8e-f81f-4744-85fb-448d69741653","system_id":"levelo_inurba_marseille","lat":43.27619,"lon":5.36112,"is_reserved":false,"is_disabled":false,"rental_uris":{"android":"levelo://app?vid=c8893d8e-f81f-4744-85fb-448d69741653","ios":"levelo://app?vid=c8893d8e-f81f-4744-85fb-448d69741653"},"vehicle_type_id":"4","last_reported":1730585343,"current_range_meters":9600,"station_id":"ce4bgj92rcd13ifvqbe0","pricing_plan_id":"cebpf4jnsgd1na2vs0mg"},{"bike_id":"a1d1b687-7f26-438c-96d8-8c7a2326e189","system_id":"levelo_inurba_marseille","lat":43.29018,"lon":5.38143,"is_reserved":false,"is_disabled":false,"rental_uris":{"android":"levelo://app?vid=a1d1b687-7f26-438c-96d8-8c7a2326e189","ios":"levelo://app?vid=a1d1b687-7f26-438c-96d8-8c7a2326e189"},"vehicle_type_id":"4","last_reported":1730585343,"current_range_meters":30400,"station_id":"ce4bh4p2rcd13ifvqe1g","pricing_plan_id":"cebpf4jnsgd1na2vs0mg"},{"bike_id":"28a1f131-18c7-4a58-81ac-573655f32bef","system_id":"levelo_inurba_marseille","lat":43.287,"lon":5.37385,"is_reserved":false,"is_disabled":false,"rental_uris":{"android":"levelo://app?vid=28a1f131-18c7-4a58-81ac-573655f32bef","ios":"levelo://app?vid=28a1f131-18c7-4a58-81ac-573655f32bef"},"vehicle_type_id":"4","last_reported":1730585343,"current_range_meters":34800,"station_id":"ce4bh3p2rcd13ifvqdq0","pricing_plan_id":"cebpf4jnsgd1na2vs0mg"},{"bike_id":"0a82093f-c563-43bd-960d-e5b6b25c2b85","system_id":"levelo_inurba_marseille","lat":43.31686,"lon":5.40481,"is_reserved":false,"is_disabled":false,"rental_uris":{"android":"levelo://app?vid=0a82093f-c563-43bd-960d-e5b6b25c2b85","ios":"levelo://app?vid=0a82093f-c563-43bd-960d-e5b6b25c2b85"},"vehicle_type_id":"4","last_reported":1730585343,"current_range_meters":38800,"station_id":"ce4bh012rcd13ifvqd00","pricing_plan_id":"cebpf4jnsgd1na2vs0mg"},{"bike_id":"7c55d11d-361c-4ffe-bd81-32f4c680c5c2","system_id":"levelo_inurba_marseille","lat":43.29254,"lon":5.40909,"is_reserved":false,"is_disabled":false,"rental_uris":{"android":"levelo://app?vid=7c55d11d-361c-4ffe-bd81-32f4c680c5c2","ios":"levelo://app?vid=7c55d11d-361c-4ffe-bd81-32f4c680c5c2"},"vehicle_type_id":"4","last_reported":1730585343,"current_range_meters":38800,"station_id":"ce4bh192rcd13ifvqdc0","pricing_plan_id":"cebpf4jnsgd1na2vs0mg"},{"bike_id":"a3c1ea99-81ca-44a3-adcc-660ccf96cdbb","system_id":"levelo_inurba_marseille","lat":43.30085,"lon":5.3908,"is_reserved":false,"is_disabled":false,"rental_uris":{"android":"levelo://app?vid=a3c1ea99-81ca-44a3-adcc-660ccf96cdbb","ios":"levelo://app?vid=a3c1ea99-81ca-44a3-adcc-660ccf96cdbb"},"vehicle_type_id":"4","last_reported":1730585343,"current_range_meters":34000,"station_id":"ce4bh192rcd13ifvqdb0","pricing_plan_id":"cebpf4jnsgd1na2vs0mg"},{"bike_id":"60b2fd11-3cbf-4232-bd92-7ecebd78b656","system_id":"levelo_inurba_marseille","lat":43.28346,"lon":5.38102,"is_reserved":false,"is_disabled":false,"rental_uris":{"android":"levelo://app?vid=60b2fd11-3cbf-4232-bd92-7ecebd78b656","ios":"levelo://app?vid=60b2fd11-3cbf-4232-bd92-7ecebd78b656"},"vehicle_type_id":"4","last_reported":1730585343,"current_range_meters":38800,"station_id":"ce4bh412rcd13ifvqdr0","pricing_plan_id":"cebpf4jnsgd1na2vs0mg"},{"bike_id":"322ce835-bf2d-4910-9fcc-f8bce4efd4df","system_id":"levelo_inurba_marseille","lat":43.28339,"lon":5.38108,"is_reserved":false,"is_disabled":false,"rental_uris":{"android":"levelo://app?vid=322ce835-bf2d-4910-9fcc-f8bce4efd4df","ios":"levelo://app?vid=322ce835-bf2d-4910-9fcc-f8bce4efd4df"},"vehicle_type_id":"4","last_reported":1730585343,"current_range_meters":22400,"station_id":"ce4bh412rcd13ifvqdr0","pricing_plan_id":"cebpf4jnsgd1na2vs0mg"},{"bike_id":"23165fa6-a2fa-4033-aeda-16e5232b0817","system_id":"levelo_inurba_marseille","lat":43.29531,"lon":5.38538,"is_reserved":false,"is_disabled":false,"rental_uris":{"android":"levelo://app?vid=23165fa6-a2fa-4033-aeda-16e5232b0817","ios":"levelo://app?vid=23165fa6-a2fa-4033-aeda-16e5232b0817"},"vehicle_type_id":"4","last_reported":1730585343,"current_range_meters":30400,"station_id":"ce4bgih2rcd13ifvqba0","pricing_plan_id":"cebpf4jnsgd1na2vs0mg"},{"bike_id":"54337fac-085e-4782-bad6-db9a84abd2e2","system_id":"levelo_inurba_marseille","lat":43.31708,"lon":5.37758,"is_reserved":false,"is_disabled":false,"rental_uris":{"android":"levelo://app?vid=54337fac-085e-4782-bad6-db9a84abd2e2","ios":"levelo://app?vid=54337fac-085e-4782-bad6-db9a84abd2e2"},"vehicle_type_id":"4","last_reported":1730585343,"current_range_meters":38800,"station_id":"ce4bgth2rcd13ifvqch0","pricing_plan_id":"cebpf4jnsgd1na2vs0mg"},{"bike_id":"6e569ca9-a99d-4788-9007-a9473932a6e9","system_id":"levelo_inurba_marseille","lat":43.31693,"lon":5.40466,"is_reserved":false,"is_disabled":false,"rental_uris":{"android":"levelo://app?vid=6e569ca9-a99d-4788-9007-a9473932a6e9","ios":"levelo://app?vid=6e569ca9-a99d-4788-9007-a9473932a6e9"},"vehicle_type_id":"4","last_reported":1730585343,"current_range_meters":38800,"station_id":"ce4bh012rcd13ifvqd00","pricing_plan_id":"cebpf4jnsgd1na2vs0mg"},{"bike_id":"9bb862c9-c637-4042-97f6-604acd293a94","system_id":"levelo_inurba_marseille","lat":43.27836,"lon":5.39215,"is_reserved":false,"is_disabled":false,"rental_uris":{"android":"levelo://app?vid=9bb862c9-c637-4042-97f6-604acd293a94","ios":"levelo://app?vid=9bb862c9-c637-4042-97f6-604acd293a94"},"vehicle_type_id":"4","last_reported":1730585343,"current_range_meters":24800,"station_id":"ce4bhjp2rcd13ifvqga0","pricing_plan_id":"cebpf4jnsgd1na2vs0mg"},{"bike_id":"284b634a-3108-4cea-9c6a-384ea8777116","system_id":"levelo_inurba_marseille","lat":43.29974,"lon":5.38487,"is_reserved":false,"is_disabled":false,"rental_uris":{"android":"levelo://app?vid=284b634a-3108-4cea-9c6a-384ea8777116","ios":"levelo://app?vid=284b634a-3108-4cea-9c6a-384ea8777116"},"vehicle_type_id":"4","last_reported":1730585343,"current_range_meters":18000,"station_id":"ce4bgj92rcd13ifvqbd0","pricing_plan_id":"cebpf4jnsgd1na2vs0mg"},{"bike_id":"de4a7730-1804-4924-9b3e-30c98c74b72d","system_id":"levelo_inurba_marseille","lat":43.29417,"lon":5.38621,"is_reserved":false,"is_disabled":false,"rental_uris":{"android":"levelo://app?vid=de4a7730-1804-4924-9b3e-30c98c74b72d","ios":"levelo://app?vid=de4a7730-1804-4924-9b3e-30c98c74b72d"},"vehicle_type_id":"4","last_reported":1730585343,"current_range_meters":38800,"station_id":"ce4bh2h2rcd13ifvqdh0","pricing_plan_id":"cebpf4jnsgd1na2vs0mg"},{"bike_id":"d69eef29-33f1-400b-9dbd-e583b4f600d8","system_id":"levelo_inurba_marseille","lat":43.24656,"lon":5.38893,"is_reserved":false,"is_disabled":false,"rental_uris":{"android":"levelo://app?vid=d69eef29-33f1-400b-9dbd-e583b4f600d8","ios":"levelo://app?vid=d69eef29-33f1-400b-9dbd-e583b4f600d8"},"vehicle_type_id":"4","last_reported":1730585343,"current_range_meters":40000,"station_id":"ce4bhg12rcd13ifvqf60","pricing_plan_id":"cebpf4jnsgd1na2vs0mg"},{"bike_id":"d80ee6bf-df0f-4866-ab58-fcd2bd676383","system_id":"levelo_inurba_marseille","lat":43.28718,"lon":5.37948,"is_reserved":false,"is_disabled":false,"rental_uris":{"android":"levelo://app?vid=d80ee6bf-df0f-4866-ab58-fcd2bd676383","ios":"levelo://app?vid=d80ee6bf-df0f-4866-ab58-fcd2bd676383"},"vehicle_type_id":"4","last_reported":1730585343,"current_range_meters":39200,"station_id":"ce4bh9p2rcd13ifvqec0","pricing_plan_id":"cebpf4jnsgd1na2vs0mg"},{"bike_id":"6517ecb3-babe-42f1-bd67-3aad8440b1bc","system_id":"levelo_inurba_marseille","lat":43.29522,"lon":5.38539,"is_reserved":false,"is_disabled":false,"rental_uris":{"android":"levelo://app?vid=6517ecb3-babe-42f1-bd67-3aad8440b1bc","ios":"levelo://app?vid=6517ecb3-babe-42f1-bd67-3aad8440b1bc"},"vehicle_type_id":"4","last_reported":1730585343,"current_range_meters":38000,"station_id":"ce4bgih2rcd13ifvqba0","pricing_plan_id":"cebpf4jnsgd1na2vs0mg"},{"bike_id":"41fb5ec2-0b49-4c2f-91a3-9e58592aba84","system_id":"levelo_inurba_marseille","lat":43.30588,"lon":5.39349,"is_reserved":false,"is_disabled":false,"rental_uris":{"android":"levelo://app?vid=41fb5ec2-0b49-4c2f-91a3-9e58592aba84","ios":"levelo://app?vid=41fb5ec2-0b49-4c2f-91a3-9e58592aba84"},"vehicle_type_id":"4","last_reported":1730585343,"current_range_meters":38800,"station_id":"ce4bh0p2rcd13ifvqd80","pricing_plan_id":"cebpf4jnsgd1na2vs0mg"},{"bike_id":"50fb1de7-3d0d-4262-8340-17108e94fdbc","system_id":"levelo_inurba_marseille","lat":43.24809,"lon":5.37457,"is_reserved":false,"is_disabled":false,"rental_uris":{"android":"levelo://app?vid=50fb1de7-3d0d-4262-8340-17108e94fdbc","ios":"levelo://app?vid=50fb1de7-3d0d-4262-8340-17108e94fdbc"},"vehicle_type_id":"4","last_reported":1730585343,"current_range_meters":24400,"station_id":"ce4bhgh2rcd13ifvqfb0","pricing_plan_id":"cebpf4jnsgd1na2vs0mg"},{"bike_id":"aca68451-e49b-4826-ab8c-20545451df2a","system_id":"levelo_inurba_marseille","lat":43.262133,"lon":5.374354,"is_reserved":false,"is_disabled":false,"rental_uris":{"android":"levelo://app?vid=aca68451-e49b-4826-ab8c-20545451df2a","ios":"levelo://app?vid=aca68451-e49b-4826-ab8c-20545451df2a"},"vehicle_type_id":"4","last_reported":1730585343,"current_range_meters":27600,"station_id":"ce4bhgp2rcd13ifvqfc0","pricing_plan_id":"cebpf4jnsgd1na2vs0mg"},{"bike_id":"59e7cf94-cc6e-4fe2-8597-1c02dd9f2aee","system_id":"levelo_inurba_marseille","lat":43.28673,"lon":5.38665,"is_reserved":false,"is_disabled":false,"rental_uris":{"android":"levelo://app?vid=59e7cf94-cc6e-4fe2-8597-1c02dd9f2aee","ios":"levelo://app?vid=59e7cf94-cc6e-4fe2-8597-1c02dd9f2aee"},"vehicle_type_id":"4","last_reported":1730585343,"current_range_meters":3200,"station_id":"ce4bh492rcd13ifvqdug","pricing_plan_id":"cebpf4jnsgd1na2vs0mg"},{"bike_id":"d4986541-9a9b-4a5b-bb55-b01d5cb4582e","system_id":"levelo_inurba_marseille","lat":43.29265,"lon":5.38444,"is_reserved":false,"is_disabled":false,"rental_uris":{"android":"levelo://app?vid=d4986541-9a9b-4a5b-bb55-b01d5cb4582e","ios":"levelo://app?vid=d4986541-9a9b-4a5b-bb55-b01d5cb4582e"},"vehicle_type_id":"4","last_reported":1730585343,"current_range_meters":6400,"station_id":"ce4bh692rcd13ifvqea0","pricing_plan_id":"cebpf4jnsgd1na2vs0mg"},{"bike_id":"a2575e9a-deb3-4ec8-bc88-3a47bf2b627e","system_id":"levelo_inurba_marseille","lat":43.29255,"lon":5.38437,"is_reserved":false,"is_disabled":false,"rental_uris":{"android":"levelo://app?vid=a2575e9a-deb3-4ec8-bc88-3a47bf2b627e","ios":"levelo://app?vid=a2575e9a-deb3-4ec8-bc88-3a47bf2b627e"},"vehicle_type_id":"4","last_reported":1730585343,"current_range_meters":33600,"station_id":"ce4bh692rcd13ifvqea0","pricing_plan_id":"cebpf4jnsgd1na2vs0mg"},{"bike_id":"8365c946-beae-47ce-87c4-1094a86c3535","system_id":"levelo_inurba_marseille","lat":43.25118,"lon":5.40324,"is_reserved":false,"is_disabled":false,"rental_uris":{"android":"levelo://app?vid=8365c946-beae-47ce-87c4-1094a86c3535","ios":"levelo://app?vid=8365c946-beae-47ce-87c4-1094a86c3535"},"vehicle_type_id":"4","last_reported":1730585343,"current_range_meters":28800,"station_id":"ce4bhlh2rcd13ifvqgig","pricing_plan_id":"cebpf4jnsgd1na2vs0mg"},{"bike_id":"8ff74fc6-3719-48fe-ad07-35f2cba81534","system_id":"levelo_inurba_marseille","lat":43.29417,"lon":5.38619,"is_reserved":false,"is_disabled":false,"rental_uris":{"android":"levelo://app?vid=8ff74fc6-3719-48fe-ad07-35f2cba81534","ios":"levelo://app?vid=8ff74fc6-3719-48fe-ad07-35f2cba81534"},"vehicle_type_id":"4","last_reported":1730585343,"current_range_meters":26800,"station_id":"ce4bh2h2rcd13ifvqdh0","pricing_plan_id":"cebpf4jnsgd1na2vs0mg"},{"bike_id":"6e1fac28-e571-4551-a4f3-49b4ce0525f2","system_id":"levelo_inurba_marseille","lat":43.29414,"lon":5.38619,"is_reserved":false,"is_disabled":false,"rental_uris":{"android":"levelo://app?vid=6e1fac28-e571-4551-a4f3-49b4ce0525f2","ios":"levelo://app?vid=6e1fac28-e571-4551-a4f3-49b4ce0525f2"},"vehicle_type_id":"4","last_reported":1730585343,"current_range_meters":14400,"station_id":"ce4bh2h2rcd13ifvqdh0","pricing_plan_id":"cebpf4jnsgd1na2vs0mg"},{"bike_id":"32785eff-17a6-4feb-81c4-8c993957e7d2","system_id":"levelo_inurba_marseille","lat":43.29892,"lon":5.43669,"is_reserved":false,"is_disabled":false,"rental_uris":{"android":"levelo://app?vid=32785eff-17a6-4feb-81c4-8c993957e7d2","ios":"levelo://app?vid=32785eff-17a6-4feb-81c4-8c993957e7d2"},"vehicle_type_id":"4","last_reported":1730585343,"current_range_meters":14400,"station_id":"ce4bhpp2rcd13ifvqhfg","pricing_plan_id":"cebpf4jnsgd1na2vs0mg"},{"bike_id":"1b760ddd-e34d-491f-9c82-3266310982c8","system_id":"levelo_inurba_marseille","lat":43.26559,"lon":5.37285,"is_reserved":false,"is_disabled":false,"rental_uris":{"android":"levelo://app?vid=1b760ddd-e34d-491f-9c82-3266310982c8","ios":"levelo://app?vid=1b760ddd-e34d-491f-9c82-3266310982c8"},"vehicle_type_id":"4","last_reported":1730585343,"current_range_meters":6800,"station_id":"ce4bhg12rcd13ifvqf70","pricing_plan_id":"cebpf4jnsgd1na2vs0mg"},{"bike_id":"17359b12-5042-48a6-beb8-ec476e761019","system_id":"levelo_inurba_marseille","lat":43.29199,"lon":5.39318,"is_reserved":false,"is_disabled":false,"rental_uris":{"android":"levelo://app?vid=17359b12-5042-48a6-beb8-ec476e761019","ios":"levelo://app?vid=17359b12-5042-48a6-beb8-ec476e761019"},"vehicle_type_id":"4","last_reported":1730585343,"current_range_meters":8400,"station_id":"ce4bh192rcd13ifvqdd0","pricing_plan_id":"cebpf4jnsgd1na2vs0mg"},{"bike_id":"0e7dc9ac-472a-4a66-8349-cd60c3504f74","system_id":"levelo_inurba_marseille","lat":43.29914,"lon":5.38024,"is_reserved":false,"is_disabled":false,"rental_uris":{"android":"levelo://app?vid=0e7dc9ac-472a-4a66-8349-cd60c3504f74","ios":"levelo://app?vid=0e7dc9ac-472a-4a66-8349-cd60c3504f74"},"vehicle_type_id":"4","last_reported":1730585343,"current_range_meters":38400,"station_id":"","pricing_plan_id":"cebpf4jnsgd1na2vs0mg"},{"bike_id":"f06c7249-7b13-41ee-9e09-1b09878a1aee","system_id":"levelo_inurba_marseille","lat":43.29421,"lon":5.38617,"is_reserved":false,"is_disabled":false,"rental_uris":{"android":"levelo://app?vid=f06c7249-7b13-41ee-9e09-1b09878a1aee","ios":"levelo://app?vid=f06c7249-7b13-41ee-9e09-1b09878a1aee"},"vehicle_type_id":"4","last_reported":1730585343,"current_range_meters":38800,"station_id":"ce4bh2h2rcd13ifvqdh0","pricing_plan_id":"cebpf4jnsgd1na2vs0mg"},{"bike_id":"c6176e72-1317-4a2a-99f4-9a0c6661ef54","system_id":"levelo_inurba_marseille","lat":43.29981,"lon":5.384905,"is_reserved":false,"is_disabled":false,"rental_uris":{"android":"levelo://app?vid=c6176e72-1317-4a2a-99f4-9a0c6661ef54","ios":"levelo://app?vid=c6176e72-1317-4a2a-99f4-9a0c6661ef54"},"vehicle_type_id":"4","last_reported":1730585343,"current_range_meters":25200,"station_id":"ce4bgj92rcd13ifvqbd0","pricing_plan_id":"cebpf4jnsgd1na2vs0mg"},{"bike_id":"38f76228-741a-4f06-9884-77f77e60cf4a","system_id":"levelo_inurba_marseille","lat":43.23072,"lon":5.40496,"is_reserved":false,"is_disabled":false,"rental_uris":{"android":"levelo://app?vid=38f76228-741a-4f06-9884-77f77e60cf4a","ios":"levelo://app?vid=38f76228-741a-4f06-9884-77f77e60cf4a"},"vehicle_type_id":"4","last_reported":1730585343,"current_range_meters":8400,"station_id":"","pricing_plan_id":"cebpf4jnsgd1na2vs0mg"},{"bike_id":"55f9175c-b528-4bd1-8ba2-c3100dc8688b","system_id":"levelo_inurba_marseille","lat":43.29532,"lon":5.3854,"is_reserved":false,"is_disabled":false,"rental_uris":{"android":"levelo://app?vid=55f9175c-b528-4bd1-8ba2-c3100dc8688b","ios":"levelo://app?vid=55f9175c-b528-4bd1-8ba2-c3100dc8688b"},"vehicle_type_id":"4","last_reported":1730585343,"current_range_meters":36800,"station_id":"ce4bgih2rcd13ifvqba0","pricing_plan_id":"cebpf4jnsgd1na2vs0mg"},{"bike_id":"61497ec0-6b91-4085-893e-2dc4cbab5392","system_id":"levelo_inurba_marseille","lat":43.32367,"lon":5.38894,"is_reserved":false,"is_disabled":false,"rental_uris":{"android":"levelo://app?vid=61497ec0-6b91-4085-893e-2dc4cbab5392","ios":"levelo://app?vid=61497ec0-6b91-4085-893e-2dc4cbab5392"},"vehicle_type_id":"4","last_reported":1730585343,"current_range_meters":26000,"station_id":"ce4bhqp2rcd13ifvqhog","pricing_plan_id":"cebpf4jnsgd1na2vs0mg"},{"bike_id":"fe482b33-3949-4b1e-a00e-afd6c09217c2","system_id":"levelo_inurba_marseille","lat":43.29969,"lon":5.38503,"is_reserved":false,"is_disabled":false,"rental_uris":{"android":"levelo://app?vid=fe482b33-3949-4b1e-a00e-afd6c09217c2","ios":"levelo://app?vid=fe482b33-3949-4b1e-a00e-afd6c09217c2"},"vehicle_type_id":"4","last_reported":1730585343,"current_range_meters":33600,"station_id":"ce4bgj92rcd13ifvqbd0","pricing_plan_id":"cebpf4jnsgd1na2vs0mg"},{"bike_id":"6b7a3137-f431-40ec-9caf-addf256082a5","system_id":"levelo_inurba_marseille","lat":43.29042,"lon":5.3997,"is_reserved":false,"is_disabled":false,"rental_uris":{"android":"levelo://app?vid=6b7a3137-f431-40ec-9caf-addf256082a5","ios":"levelo://app?vid=6b7a3137-f431-40ec-9caf-addf256082a5"},"vehicle_type_id":"4","last_reported":1730585343,"current_range_meters":6400,"station_id":"ce4bh392rcd13ifvqdm0","pricing_plan_id":"cebpf4jnsgd1na2vs0mg"},{"bike_id":"e55d8d6f-7394-4584-af8a-c65aaa7989ef","system_id":"levelo_inurba_marseille","lat":43.26064,"lon":5.39392,"is_reserved":false,"is_disabled":false,"rental_uris":{"android":"levelo://app?vid=e55d8d6f-7394-4584-af8a-c65aaa7989ef","ios":"levelo://app?vid=e55d8d6f-7394-4584-af8a-c65aaa7989ef"},"vehicle_type_id":"4","last_reported":1730585343,"current_range_meters":8400,"station_id":"ce4bhh92rcd13ifvqfj0","pricing_plan_id":"cebpf4jnsgd1na2vs0mg"},{"bike_id":"d7df330f-2e6d-491d-97a5-2ece7726ef8c","system_id":"levelo_inurba_marseille","lat":43.299084,"lon":5.382992,"is_reserved":false,"is_disabled":false,"rental_uris":{"android":"levelo://app?vid=d7df330f-2e6d-491d-97a5-2ece7726ef8c","ios":"levelo://app?vid=d7df330f-2e6d-491d-97a5-2ece7726ef8c"},"vehicle_type_id":"4","last_reported":1730585343,"current_range_meters":32000,"station_id":"","pricing_plan_id":"cebpf4jnsgd1na2vs0mg"},{"bike_id":"d3f56f17-ac1a-464c-b9d7-9bc3311153ab","system_id":"levelo_inurba_marseille","lat":43.24658,"lon":5.38158,"is_reserved":false,"is_disabled":false,"rental_uris":{"android":"levelo://app?vid=d3f56f17-ac1a-464c-b9d7-9bc3311153ab","ios":"levelo://app?vid=d3f56f17-ac1a-464c-b9d7-9bc3311153ab"},"vehicle_type_id":"4","last_reported":1730585343,"current_range_meters":8000,"station_id":"ce4bhih2rcd13ifvqfr0","pricing_plan_id":"cebpf4jnsgd1na2vs0mg"},{"bike_id":"c9836de4-dae6-4bfc-aef6-8b7c0c537e63","system_id":"levelo_inurba_marseille","lat":43.25874,"lon":5.39901,"is_reserved":false,"is_disabled":false,"rental_uris":{"android":"levelo://app?vid=c9836de4-dae6-4bfc-aef6-8b7c0c537e63","ios":"levelo://app?vid=c9836de4-dae6-4bfc-aef6-8b7c0c537e63"},"vehicle_type_id":"4","last_reported":1730585343,"current_range_meters":11200,"station_id":"ce4bhl92rcd13ifvqghg","pricing_plan_id":"cebpf4jnsgd1na2vs0mg"},{"bike_id":"71286159-f5aa-4dd9-a7e0-021fa712524c","system_id":"levelo_inurba_marseille","lat":43.26556,"lon":5.3728,"is_reserved":false,"is_disabled":false,"rental_uris":{"android":"levelo://app?vid=71286159-f5aa-4dd9-a7e0-021fa712524c","ios":"levelo://app?vid=71286159-f5aa-4dd9-a7e0-021fa712524c"},"vehicle_type_id":"4","last_reported":1730585343,"current_range_meters":20400,"station_id":"ce4bhg12rcd13ifvqf70","pricing_plan_id":"cebpf4jnsgd1na2vs0mg"},{"bike_id":"e712b4bf-48ef-4b84-aa58-a26dceb1077d","system_id":"levelo_inurba_marseille","lat":43.246604,"lon":5.381762,"is_reserved":false,"is_disabled":false,"rental_uris":{"android":"levelo://app?vid=e712b4bf-48ef-4b84-aa58-a26dceb1077d","ios":"levelo://app?vid=e712b4bf-48ef-4b84-aa58-a26dceb1077d"},"vehicle_type_id":"4","last_reported":1730585343,"current_range_meters":34800,"station_id":"ce4bhih2rcd13ifvqfr0","pricing_plan_id":"cebpf4jnsgd1na2vs0mg"},{"bike_id":"49f0f2d2-d3bb-4098-8c41-801a52b040be","system_id":"levelo_inurba_marseille","lat":43.28341,"lon":5.38108,"is_reserved":false,"is_disabled":false,"rental_uris":{"android":"levelo://app?vid=49f0f2d2-d3bb-4098-8c41-801a52b040be","ios":"levelo://app?vid=49f0f2d2-d3bb-4098-8c41-801a52b040be"},"vehicle_type_id":"4","last_reported":1730585343,"current_range_meters":38800,"station_id":"ce4bh412rcd13ifvqdr0","pricing_plan_id":"cebpf4jnsgd1na2vs0mg"},{"bike_id":"f515690b-cf5f-4a34-8065-f1987ef14bb3","system_id":"levelo_inurba_marseille","lat":43.30459,"lon":5.37902,"is_reserved":false,"is_disabled":false,"rental_uris":{"android":"levelo://app?vid=f515690b-cf5f-4a34-8065-f1987ef14bb3","ios":"levelo://app?vid=f515690b-cf5f-4a34-8065-f1987ef14bb3"},"vehicle_type_id":"4","last_reported":1730585343,"current_range_meters":38400,"station_id":"ce4bgup2rcd13ifvqco0","pricing_plan_id":"cebpf4jnsgd1na2vs0mg"},{"bike_id":"6338020e-474a-4c99-b365-eea26fe54739","system_id":"levelo_inurba_marseille","lat":43.32288,"lon":5.38278,"is_reserved":false,"is_disabled":false,"rental_uris":{"android":"levelo://app?vid=6338020e-474a-4c99-b365-eea26fe54739","ios":"levelo://app?vid=6338020e-474a-4c99-b365-eea26fe54739"},"vehicle_type_id":"4","last_reported":1730585343,"current_range_meters":38800,"station_id":"ce4bhr12rcd13ifvqhqg","pricing_plan_id":"cebpf4jnsgd1na2vs0mg"},{"bike_id":"3cc80ee9-2790-4698-ba87-e0a476c104f2","system_id":"levelo_inurba_marseille","lat":43.29265,"lon":5.38449,"is_reserved":false,"is_disabled":false,"rental_uris":{"android":"levelo://app?vid=3cc80ee9-2790-4698-ba87-e0a476c104f2","ios":"levelo://app?vid=3cc80ee9-2790-4698-ba87-e0a476c104f2"},"vehicle_type_id":"4","last_reported":1730585343,"current_range_meters":27600,"station_id":"ce4bh692rcd13ifvqea0","pricing_plan_id":"cebpf4jnsgd1na2vs0mg"},{"bike_id":"a21f1907-7db8-4b80-b61f-0c4273201872","system_id":"levelo_inurba_marseille","lat":43.28369,"lon":5.38627,"is_reserved":false,"is_disabled":false,"rental_uris":{"android":"levelo://app?vid=a21f1907-7db8-4b80-b61f-0c4273201872","ios":"levelo://app?vid=a21f1907-7db8-4b80-b61f-0c4273201872"},"vehicle_type_id":"4","last_reported":1730585343,"current_range_meters":28800,"station_id":"ce4bh492rcd13ifvqdvg","pricing_plan_id":"cebpf4jnsgd1na2vs0mg"},{"bike_id":"ccf8f0af-3836-45e1-85d1-316001fc9f42","system_id":"levelo_inurba_marseille","lat":43.28705,"lon":5.37378,"is_reserved":false,"is_disabled":false,"rental_uris":{"android":"levelo://app?vid=ccf8f0af-3836-45e1-85d1-316001fc9f42","ios":"levelo://app?vid=ccf8f0af-3836-45e1-85d1-316001fc9f42"},"vehicle_type_id":"4","last_reported":1730585343,"current_range_meters":21600,"station_id":"ce4bh3p2rcd13ifvqdq0","pricing_plan_id":"cebpf4jnsgd1na2vs0mg"},{"bike_id":"b9965119-1567-44c5-b18d-a2be2b632fbc","system_id":"levelo_inurba_marseille","lat":43.29163,"lon":5.37161,"is_reserved":false,"is_disabled":false,"rental_uris":{"android":"levelo://app?vid=b9965119-1567-44c5-b18d-a2be2b632fbc","ios":"levelo://app?vid=b9965119-1567-44c5-b18d-a2be2b632fbc"},"vehicle_type_id":"4","last_reported":1730585343,"current_range_meters":36800,"station_id":"ce4bha92rcd13ifvqeh0","pricing_plan_id":"cebpf4jnsgd1na2vs0mg"},{"bike_id":"d521a3ba-948a-4134-922f-3cffe91850df","system_id":"levelo_inurba_marseille","lat":43.29097,"lon":5.38147,"is_reserved":false,"is_disabled":false,"rental_uris":{"android":"levelo://app?vid=d521a3ba-948a-4134-922f-3cffe91850df","ios":"levelo://app?vid=d521a3ba-948a-4134-922f-3cffe91850df"},"vehicle_type_id":"4","last_reported":1730585343,"current_range_meters":38800,"station_id":"ce4bh512rcd13ifvqe2g","pricing_plan_id":"cebpf4jnsgd1na2vs0mg"},{"bike_id":"355ca52e-438b-476e-b77f-32a71a706438","system_id":"levelo_inurba_marseille","lat":43.30085,"lon":5.39069,"is_reserved":false,"is_disabled":false,"rental_uris":{"android":"levelo://app?vid=355ca52e-438b-476e-b77f-32a71a706438","ios":"levelo://app?vid=355ca52e-438b-476e-b77f-32a71a706438"},"vehicle_type_id":"4","last_reported":1730585343,"current_range_meters":39200,"station_id":"ce4bh192rcd13ifvqdb0","pricing_plan_id":"cebpf4jnsgd1na2vs0mg"},{"bike_id":"92724032-217a-478a-997f-f20c7f32bd79","system_id":"levelo_inurba_marseille","lat":43.29876,"lon":5.38916,"is_reserved":false,"is_disabled":false,"rental_uris":{"android":"levelo://app?vid=92724032-217a-478a-997f-f20c7f32bd79","ios":"levelo://app?vid=92724032-217a-478a-997f-f20c7f32bd79"},"vehicle_type_id":"4","last_reported":1730585343,"current_range_meters":34000,"station_id":"ce4bh392rcd13ifvqdl0","pricing_plan_id":"cebpf4jnsgd1na2vs0mg"},{"bike_id":"7d1d8b3c-0803-4bf6-9721-d7161499653f","system_id":"levelo_inurba_marseille","lat":43.24073,"lon":5.37764,"is_reserved":false,"is_disabled":false,"rental_uris":{"android":"levelo://app?vid=7d1d8b3c-0803-4bf6-9721-d7161499653f","ios":"levelo://app?vid=7d1d8b3c-0803-4bf6-9721-d7161499653f"},"vehicle_type_id":"4","last_reported":1730585343,"current_range_meters":28000,"station_id":"ce4bhnp2rcd13ifvqgvg","pricing_plan_id":"cebpf4jnsgd1na2vs0mg"},{"bike_id":"f35cd096-8317-409a-9875-97da0ea574d4","system_id":"levelo_inurba_marseille","lat":43.3254,"lon":5.41461,"is_reserved":false,"is_disabled":false,"rental_uris":{"android":"levelo://app?vid=f35cd096-8317-409a-9875-97da0ea574d4","ios":"levelo://app?vid=f35cd096-8317-409a-9875-97da0ea574d4"},"vehicle_type_id":"4","last_reported":1730585343,"current_range_meters":6000,"station_id":"ce4bhq12rcd13ifvqhhg","pricing_plan_id":"cebpf4jnsgd1na2vs0mg"},{"bike_id":"eebc77bc-ad92-499e-81c0-e8c6d3838057","system_id":"levelo_inurba_marseille","lat":43.2942,"lon":5.38624,"is_reserved":false,"is_disabled":false,"rental_uris":{"android":"levelo://app?vid=eebc77bc-ad92-499e-81c0-e8c6d3838057","ios":"levelo://app?vid=eebc77bc-ad92-499e-81c0-e8c6d3838057"},"vehicle_type_id":"4","last_reported":1730585343,"current_range_meters":38800,"station_id":"ce4bh2h2rcd13ifvqdh0","pricing_plan_id":"cebpf4jnsgd1na2vs0mg"},{"bike_id":"f4622af2-cc27-4776-a601-c8ad676c80e5","system_id":"levelo_inurba_marseille","lat":43.29529,"lon":5.38553,"is_reserved":false,"is_disabled":false,"rental_uris":{"android":"levelo://app?vid=f4622af2-cc27-4776-a601-c8ad676c80e5","ios":"levelo://app?vid=f4622af2-cc27-4776-a601-c8ad676c80e5"},"vehicle_type_id":"4","last_reported":1730585343,"current_range_meters":26800,"station_id":"ce4bgih2rcd13ifvqba0","pricing_plan_id":"cebpf4jnsgd1na2vs0mg"},{"bike_id":"3be81d7e-56b2-4757-bcd3-709293d05611","system_id":"levelo_inurba_marseille","lat":43.30274,"lon":5.37708,"is_reserved":false,"is_disabled":false,"rental_uris":{"android":"levelo://app?vid=3be81d7e-56b2-4757-bcd3-709293d05611","ios":"levelo://app?vid=3be81d7e-56b2-4757-bcd3-709293d05611"},"vehicle_type_id":"4","last_reported":1730585343,"current_range_meters":27200,"station_id":"ce4bguh2rcd13ifvqcj0","pricing_plan_id":"cebpf4jnsgd1na2vs0mg"},{"bike_id":"1ddde7ff-3953-4942-bfab-1d2712b93546","system_id":"levelo_inurba_marseille","lat":43.31714,"lon":5.37767,"is_reserved":false,"is_disabled":false,"rental_uris":{"android":"levelo://app?vid=1ddde7ff-3953-4942-bfab-1d2712b93546","ios":"levelo://app?vid=1ddde7ff-3953-4942-bfab-1d2712b93546"},"vehicle_type_id":"4","last_reported":1730585343,"current_range_meters":35200,"station_id":"ce4bgth2rcd13ifvqch0","pricing_plan_id":"cebpf4jnsgd1na2vs0mg"},{"bike_id":"7261abbc-bef1-40b4-8225-29e060af6a97","system_id":"levelo_inurba_marseille","lat":43.2799,"lon":5.41659,"is_reserved":false,"is_disabled":false,"rental_uris":{"android":"levelo://app?vid=7261abbc-bef1-40b4-8225-29e060af6a97","ios":"levelo://app?vid=7261abbc-bef1-40b4-8225-29e060af6a97"},"vehicle_type_id":"4","last_reported":1730585343,"current_range_meters":38800,"station_id":"ce4bho12rcd13ifvqh1g","pricing_plan_id":"cebpf4jnsgd1na2vs0mg"},{"bike_id":"1cf2d4b5-ecca-459f-b664-a87019bb9c56","system_id":"levelo_inurba_marseille","lat":43.31361,"lon":5.38495,"is_reserved":false,"is_disabled":false,"rental_uris":{"android":"levelo://app?vid=1cf2d4b5-ecca-459f-b664-a87019bb9c56","ios":"levelo://app?vid=1cf2d4b5-ecca-459f-b664-a87019bb9c56"},"vehicle_type_id":"4","last_reported":1730585343,"current_range_meters":35600,"station_id":"ce4bgt92rcd13ifvqcf0","pricing_plan_id":"cebpf4jnsgd1na2vs0mg"},{"bike_id":"18402065-9e87-476b-95ad-30853de181a0","system_id":"levelo_inurba_marseille","lat":43.32449,"lon":5.45546,"is_reserved":false,"is_disabled":false,"rental_uris":{"android":"levelo://app?vid=18402065-9e87-476b-95ad-30853de181a0","ios":"levelo://app?vid=18402065-9e87-476b-95ad-30853de181a0"},"vehicle_type_id":"4","last_reported":1730585343,"current_range_meters":6400,"station_id":"","pricing_plan_id":"cebpf4jnsgd1na2vs0mg"},{"bike_id":"9434b448-4f32-4c1e-9bd8-224ca4a36485","system_id":"levelo_inurba_marseille","lat":43.29278,"lon":5.40123,"is_reserved":false,"is_disabled":false,"rental_uris":{"android":"levelo://app?vid=9434b448-4f32-4c1e-9bd8-224ca4a36485","ios":"levelo://app?vid=9434b448-4f32-4c1e-9bd8-224ca4a36485"},"vehicle_type_id":"4","last_reported":1730585343,"current_range_meters":33600,"station_id":"ce4bh312rcd13ifvqdk0","pricing_plan_id":"cebpf4jnsgd1na2vs0mg"},{"bike_id":"43c9b72e-cbf6-417e-affd-3fc6b5fef531","system_id":"levelo_inurba_marseille","lat":43.29253,"lon":5.38438,"is_reserved":false,"is_disabled":false,"rental_uris":{"android":"levelo://app?vid=43c9b72e-cbf6-417e-affd-3fc6b5fef531","ios":"levelo://app?vid=43c9b72e-cbf6-417e-affd-3fc6b5fef531"},"vehicle_type_id":"4","last_reported":1730585343,"current_range_meters":38800,"station_id":"ce4bh692rcd13ifvqea0","pricing_plan_id":"cebpf4jnsgd1na2vs0mg"},{"bike_id":"4eb01b0d-49fc-48ee-b782-54d621657f1b","system_id":"levelo_inurba_marseille","lat":43.31885,"lon":5.40734,"is_reserved":false,"is_disabled":false,"rental_uris":{"android":"levelo://app?vid=4eb01b0d-49fc-48ee-b782-54d621657f1b","ios":"levelo://app?vid=4eb01b0d-49fc-48ee-b782-54d621657f1b"},"vehicle_type_id":"4","last_reported":1730585343,"current_range_meters":34800,"station_id":"ce4bhq12rcd13ifvqhig","pricing_plan_id":"cebpf4jnsgd1na2vs0mg"},{"bike_id":"ff759631-9747-4e89-8485-4a4b07c62c2b","system_id":"levelo_inurba_marseille","lat":43.29422,"lon":5.38622,"is_reserved":false,"is_disabled":false,"rental_uris":{"android":"levelo://app?vid=ff759631-9747-4e89-8485-4a4b07c62c2b","ios":"levelo://app?vid=ff759631-9747-4e89-8485-4a4b07c62c2b"},"vehicle_type_id":"4","last_reported":1730585343,"current_range_meters":38000,"station_id":"ce4bh2h2rcd13ifvqdh0","pricing_plan_id":"cebpf4jnsgd1na2vs0mg"},{"bike_id":"9f3178e5-569d-4c41-89b0-b8d0ab45dbf4","system_id":"levelo_inurba_marseille","lat":43.3188,"lon":5.40729,"is_reserved":false,"is_disabled":false,"rental_uris":{"android":"levelo://app?vid=9f3178e5-569d-4c41-89b0-b8d0ab45dbf4","ios":"levelo://app?vid=9f3178e5-569d-4c41-89b0-b8d0ab45dbf4"},"vehicle_type_id":"4","last_reported":1730585343,"current_range_meters":30000,"station_id":"ce4bhq12rcd13ifvqhig","pricing_plan_id":"cebpf4jnsgd1na2vs0mg"},{"bike_id":"f72e94dc-d42a-4a5e-8ec4-42788c4c65b2","system_id":"levelo_inurba_marseille","lat":43.27173,"lon":5.40995,"is_reserved":false,"is_disabled":false,"rental_uris":{"android":"levelo://app?vid=f72e94dc-d42a-4a5e-8ec4-42788c4c65b2","ios":"levelo://app?vid=f72e94dc-d42a-4a5e-8ec4-42788c4c65b2"},"vehicle_type_id":"4","last_reported":1730585343,"current_range_meters":30400,"station_id":"ce4bhl12rcd13ifvqgf0","pricing_plan_id":"cebpf4jnsgd1na2vs0mg"},{"bike_id":"c7a6a60a-ebc3-43dc-847c-5817f23f3b49","system_id":"levelo_inurba_marseille","lat":43.25723,"lon":5.41105,"is_reserved":false,"is_disabled":false,"rental_uris":{"android":"levelo://app?vid=c7a6a60a-ebc3-43dc-847c-5817f23f3b49","ios":"levelo://app?vid=c7a6a60a-ebc3-43dc-847c-5817f23f3b49"},"vehicle_type_id":"4","last_reported":1730585343,"current_range_meters":8800,"station_id":"ce4bhkp2rcd13ifvqgd0","pricing_plan_id":"cebpf4jnsgd1na2vs0mg"},{"bike_id":"783383f5-2d80-471f-91f9-f76f30194918","system_id":"levelo_inurba_marseille","lat":43.29591,"lon":5.38088,"is_reserved":false,"is_disabled":false,"rental_uris":{"android":"levelo://app?vid=783383f5-2d80-471f-91f9-f76f30194918","ios":"levelo://app?vid=783383f5-2d80-471f-91f9-f76f30194918"},"vehicle_type_id":"4","last_reported":1730585343,"current_range_meters":24400,"station_id":"ce4bgl12rcd13ifvqbo0","pricing_plan_id":"cebpf4jnsgd1na2vs0mg"},{"bike_id":"1b22afb1-e566-455d-9848-d8ff891e663e","system_id":"levelo_inurba_marseille","lat":43.25118,"lon":5.40311,"is_reserved":false,"is_disabled":false,"rental_uris":{"android":"levelo://app?vid=1b22afb1-e566-455d-9848-d8ff891e663e","ios":"levelo://app?vid=1b22afb1-e566-455d-9848-d8ff891e663e"},"vehicle_type_id":"4","last_reported":1730585343,"current_range_meters":32000,"station_id":"ce4bhlh2rcd13ifvqgig","pricing_plan_id":"cebpf4jnsgd1na2vs0mg"},{"bike_id":"850c91ae-1f4d-4484-a5f9-e32dfca724ff","system_id":"levelo_inurba_marseille","lat":43.29251,"lon":5.38439,"is_reserved":false,"is_disabled":false,"rental_uris":{"android":"levelo://app?vid=850c91ae-1f4d-4484-a5f9-e32dfca724ff","ios":"levelo://app?vid=850c91ae-1f4d-4484-a5f9-e32dfca724ff"},"vehicle_type_id":"4","last_reported":1730585343,"current_range_meters":32400,"station_id":"ce4bh692rcd13ifvqea0","pricing_plan_id":"cebpf4jnsgd1na2vs0mg"},{"bike_id":"8a1a733a-6176-43e5-b055-d601cf830be6","system_id":"levelo_inurba_marseille","lat":43.29245,"lon":5.38441,"is_reserved":false,"is_disabled":false,"rental_uris":{"android":"levelo://app?vid=8a1a733a-6176-43e5-b055-d601cf830be6","ios":"levelo://app?vid=8a1a733a-6176-43e5-b055-d601cf830be6"},"vehicle_type_id":"4","last_reported":1730585343,"current_range_meters":22000,"station_id":"ce4bh692rcd13ifvqea0","pricing_plan_id":"cebpf4jnsgd1na2vs0mg"},{"bike_id":"3bb2c3ab-0ad2-4bb0-8e2d-9a7d1f91d989","system_id":"levelo_inurba_marseille","lat":43.29975,"lon":5.38477,"is_reserved":false,"is_disabled":false,"rental_uris":{"android":"levelo://app?vid=3bb2c3ab-0ad2-4bb0-8e2d-9a7d1f91d989","ios":"levelo://app?vid=3bb2c3ab-0ad2-4bb0-8e2d-9a7d1f91d989"},"vehicle_type_id":"4","last_reported":1730585343,"current_range_meters":36400,"station_id":"ce4bgj92rcd13ifvqbd0","pricing_plan_id":"cebpf4jnsgd1na2vs0mg"},{"bike_id":"c1e3f1fb-a976-4c88-946a-c0964acf9cad","system_id":"levelo_inurba_marseille","lat":43.27566,"lon":5.38423,"is_reserved":false,"is_disabled":false,"rental_uris":{"android":"levelo://app?vid=c1e3f1fb-a976-4c88-946a-c0964acf9cad","ios":"levelo://app?vid=c1e3f1fb-a976-4c88-946a-c0964acf9cad"},"vehicle_type_id":"4","last_reported":1730585343,"current_range_meters":38000,"station_id":"ce4bhh92rcd13ifvqfi0","pricing_plan_id":"cebpf4jnsgd1na2vs0mg"},{"bike_id":"d8b4fbd5-7764-42f5-a8fb-df401852c903","system_id":"levelo_inurba_marseille","lat":43.29024,"lon":5.38635,"is_reserved":false,"is_disabled":false,"rental_uris":{"android":"levelo://app?vid=d8b4fbd5-7764-42f5-a8fb-df401852c903","ios":"levelo://app?vid=d8b4fbd5-7764-42f5-a8fb-df401852c903"},"vehicle_type_id":"4","last_reported":1730585343,"current_range_meters":26000,"station_id":"ce4bh4p2rcd13ifvqe0g","pricing_plan_id":"cebpf4jnsgd1na2vs0mg"},{"bike_id":"a13b8184-b576-4f43-b068-5d3404ded1dc","system_id":"levelo_inurba_marseille","lat":43.2621,"lon":5.37449,"is_reserved":false,"is_disabled":false,"rental_uris":{"android":"levelo://app?vid=a13b8184-b576-4f43-b068-5d3404ded1dc","ios":"levelo://app?vid=a13b8184-b576-4f43-b068-5d3404ded1dc"},"vehicle_type_id":"4","last_reported":1730585343,"current_range_meters":38000,"station_id":"ce4bhgp2rcd13ifvqfc0","pricing_plan_id":"cebpf4jnsgd1na2vs0mg"},{"bike_id":"e4076913-25a7-4304-83b4-9b1933c6ed9b","system_id":"levelo_inurba_marseille","lat":43.28004,"lon":5.4,"is_reserved":false,"is_disabled":false,"rental_uris":{"android":"levelo://app?vid=e4076913-25a7-4304-83b4-9b1933c6ed9b","ios":"levelo://app?vid=e4076913-25a7-4304-83b4-9b1933c6ed9b"},"vehicle_type_id":"4","last_reported":1730585343,"current_range_meters":38800,"station_id":"ce4bho92rcd13ifvqh4g","pricing_plan_id":"cebpf4jnsgd1na2vs0mg"},{"bike_id":"c556fa49-b1bf-4288-b7eb-204f11b2e0ee","system_id":"levelo_inurba_marseille","lat":43.29414,"lon":5.38631,"is_reserved":false,"is_disabled":false,"rental_uris":{"android":"levelo://app?vid=c556fa49-b1bf-4288-b7eb-204f11b2e0ee","ios":"levelo://app?vid=c556fa49-b1bf-4288-b7eb-204f11b2e0ee"},"vehicle_type_id":"4","last_reported":1730585343,"current_range_meters":38000,"station_id":"ce4bh2h2rcd13ifvqdh0","pricing_plan_id":"cebpf4jnsgd1na2vs0mg"},{"bike_id":"3bed397a-2ca1-4a83-b1bb-a8d7a58982cc","system_id":"levelo_inurba_marseille","lat":43.29569,"lon":5.37517,"is_reserved":false,"is_disabled":false,"rental_uris":{"android":"levelo://app?vid=3bed397a-2ca1-4a83-b1bb-a8d7a58982cc","ios":"levelo://app?vid=3bed397a-2ca1-4a83-b1bb-a8d7a58982cc"},"vehicle_type_id":"4","last_reported":1730585343,"current_range_meters":36800,"station_id":"ce4bgh92rcd13ifvqb50","pricing_plan_id":"cebpf4jnsgd1na2vs0mg"},{"bike_id":"a60a708b-eab6-435c-9e38-019fbfa7891c","system_id":"levelo_inurba_marseille","lat":43.293,"lon":5.37174,"is_reserved":false,"is_disabled":false,"rental_uris":{"android":"levelo://app?vid=a60a708b-eab6-435c-9e38-019fbfa7891c","ios":"levelo://app?vid=a60a708b-eab6-435c-9e38-019fbfa7891c"},"vehicle_type_id":"4","last_reported":1730585343,"current_range_meters":18000,"station_id":"ce4bgh92rcd13ifvqb40","pricing_plan_id":"cebpf4jnsgd1na2vs0mg"},{"bike_id":"3e83e42e-84a1-4fa6-80cb-e77919db3747","system_id":"levelo_inurba_marseille","lat":43.25119,"lon":5.40324,"is_reserved":false,"is_disabled":false,"rental_uris":{"android":"levelo://app?vid=3e83e42e-84a1-4fa6-80cb-e77919db3747","ios":"levelo://app?vid=3e83e42e-84a1-4fa6-80cb-e77919db3747"},"vehicle_type_id":"4","last_reported":1730585343,"current_range_meters":22000,"station_id":"ce4bhlh2rcd13ifvqgig","pricing_plan_id":"cebpf4jnsgd1na2vs0mg"},{"bike_id":"6e6c1416-464f-4f03-9742-bebcc8a06f1e","system_id":"levelo_inurba_marseille","lat":43.31758,"lon":5.39019,"is_reserved":false,"is_disabled":false,"rental_uris":{"android":"levelo://app?vid=6e6c1416-464f-4f03-9742-bebcc8a06f1e","ios":"levelo://app?vid=6e6c1416-464f-4f03-9742-bebcc8a06f1e"},"vehicle_type_id":"4","last_reported":1730585343,"current_range_meters":28400,"station_id":"ce4bhqp2rcd13ifvqhng","pricing_plan_id":"cebpf4jnsgd1na2vs0mg"},{"bike_id":"68ee4823-8219-4e40-934b-3c46becc94f7","system_id":"levelo_inurba_marseille","lat":43.31073,"lon":5.38349,"is_reserved":false,"is_disabled":false,"rental_uris":{"android":"levelo://app?vid=68ee4823-8219-4e40-934b-3c46becc94f7","ios":"levelo://app?vid=68ee4823-8219-4e40-934b-3c46becc94f7"},"vehicle_type_id":"4","last_reported":1730585343,"current_range_meters":33200,"station_id":"ce4bgv92rcd13ifvqcr0","pricing_plan_id":"cebpf4jnsgd1na2vs0mg"},{"bike_id":"c14b910d-c438-4986-9edc-d74caf84b8bd","system_id":"levelo_inurba_marseille","lat":43.25823,"lon":5.39436,"is_reserved":false,"is_disabled":false,"rental_uris":{"android":"levelo://app?vid=c14b910d-c438-4986-9edc-d74caf84b8bd","ios":"levelo://app?vid=c14b910d-c438-4986-9edc-d74caf84b8bd"},"vehicle_type_id":"4","last_reported":1730585343,"current_range_meters":40000,"station_id":"ce4bhip2rcd13ifvqft0","pricing_plan_id":"cebpf4jnsgd1na2vs0mg"},{"bike_id":"c22788c5-a588-473b-9c95-09acf28753ea","system_id":"levelo_inurba_marseille","lat":43.28851,"lon":5.39309,"is_reserved":false,"is_disabled":false,"rental_uris":{"android":"levelo://app?vid=c22788c5-a588-473b-9c95-09acf28753ea","ios":"levelo://app?vid=c22788c5-a588-473b-9c95-09acf28753ea"},"vehicle_type_id":"4","last_reported":1730585343,"current_range_meters":35200,"station_id":"ce4bh2p2rcd13ifvqdi0","pricing_plan_id":"cebpf4jnsgd1na2vs0mg"},{"bike_id":"4b775463-cf5a-40b4-8149-f6b055abd79c","system_id":"levelo_inurba_marseille","lat":43.26487,"lon":5.39555,"is_reserved":false,"is_disabled":false,"rental_uris":{"android":"levelo://app?vid=4b775463-cf5a-40b4-8149-f6b055abd79c","ios":"levelo://app?vid=4b775463-cf5a-40b4-8149-f6b055abd79c"},"vehicle_type_id":"4","last_reported":1730585343,"current_range_meters":38800,"station_id":"ce4bhi12rcd13ifvqfq0","pricing_plan_id":"cebpf4jnsgd1na2vs0mg"},{"bike_id":"e374d142-a715-47ad-8c08-653848b5df25","system_id":"levelo_inurba_marseille","lat":43.29796,"lon":5.38091,"is_reserved":false,"is_disabled":false,"rental_uris":{"android":"levelo://app?vid=e374d142-a715-47ad-8c08-653848b5df25","ios":"levelo://app?vid=e374d142-a715-47ad-8c08-653848b5df25"},"vehicle_type_id":"4","last_reported":1730585343,"current_range_meters":38000,"station_id":"ce4bgip2rcd13ifvqbb0","pricing_plan_id":"cebpf4jnsgd1na2vs0mg"},{"bike_id":"5bed4c60-b912-42f6-b099-933c6ebb8aca","system_id":"levelo_inurba_marseille","lat":43.25824,"lon":5.39429,"is_reserved":false,"is_disabled":false,"rental_uris":{"android":"levelo://app?vid=5bed4c60-b912-42f6-b099-933c6ebb8aca","ios":"levelo://app?vid=5bed4c60-b912-42f6-b099-933c6ebb8aca"},"vehicle_type_id":"4","last_reported":1730585343,"current_range_meters":38000,"station_id":"ce4bhip2rcd13ifvqft0","pricing_plan_id":"cebpf4jnsgd1na2vs0mg"},{"bike_id":"b9c605ab-d847-4d81-a947-5a3aa7b39be1","system_id":"levelo_inurba_marseille","lat":43.2988,"lon":5.38906,"is_reserved":false,"is_disabled":false,"rental_uris":{"android":"levelo://app?vid=b9c605ab-d847-4d81-a947-5a3aa7b39be1","ios":"levelo://app?vid=b9c605ab-d847-4d81-a947-5a3aa7b39be1"},"vehicle_type_id":"4","last_reported":1730585343,"current_range_meters":31200,"station_id":"ce4bh392rcd13ifvqdl0","pricing_plan_id":"cebpf4jnsgd1na2vs0mg"},{"bike_id":"631b7075-137a-4ae3-a6c3-e104f00b6db4","system_id":"levelo_inurba_marseille","lat":43.28031,"lon":5.36946,"is_reserved":false,"is_disabled":false,"rental_uris":{"android":"levelo://app?vid=631b7075-137a-4ae3-a6c3-e104f00b6db4","ios":"levelo://app?vid=631b7075-137a-4ae3-a6c3-e104f00b6db4"},"vehicle_type_id":"4","last_reported":1730585343,"current_range_meters":24000,"station_id":"ce4bha12rcd13ifvqef0","pricing_plan_id":"cebpf4jnsgd1na2vs0mg"},{"bike_id":"f118037d-843f-4c64-a315-ff73f4369886","system_id":"levelo_inurba_marseille","lat":43.30098,"lon":5.39072,"is_reserved":false,"is_disabled":false,"rental_uris":{"android":"levelo://app?vid=f118037d-843f-4c64-a315-ff73f4369886","ios":"levelo://app?vid=f118037d-843f-4c64-a315-ff73f4369886"},"vehicle_type_id":"4","last_reported":1730585343,"current_range_meters":39200,"station_id":"ce4bh192rcd13ifvqdb0","pricing_plan_id":"cebpf4jnsgd1na2vs0mg"},{"bike_id":"8c67d340-801d-46e5-b910-2f8aff3ff078","system_id":"levelo_inurba_marseille","lat":43.33327,"lon":5.37055,"is_reserved":false,"is_disabled":false,"rental_uris":{"android":"levelo://app?vid=8c67d340-801d-46e5-b910-2f8aff3ff078","ios":"levelo://app?vid=8c67d340-801d-46e5-b910-2f8aff3ff078"},"vehicle_type_id":"4","last_reported":1730585343,"current_range_meters":8400,"station_id":"","pricing_plan_id":"cebpf4jnsgd1na2vs0mg"},{"bike_id":"1237d480-ed8b-4271-ba17-f88842fad96f","system_id":"levelo_inurba_marseille","lat":43.29419,"lon":5.38627,"is_reserved":false,"is_disabled":false,"rental_uris":{"android":"levelo://app?vid=1237d480-ed8b-4271-ba17-f88842fad96f","ios":"levelo://app?vid=1237d480-ed8b-4271-ba17-f88842fad96f"},"vehicle_type_id":"4","last_reported":1730585343,"current_range_meters":38800,"station_id":"ce4bh2h2rcd13ifvqdh0","pricing_plan_id":"cebpf4jnsgd1na2vs0mg"},{"bike_id":"54cc4ec6-c46d-4e95-9bf2-2a04f02a40ab","system_id":"levelo_inurba_marseille","lat":43.28417,"lon":5.3751,"is_reserved":false,"is_disabled":false,"rental_uris":{"android":"levelo://app?vid=54cc4ec6-c46d-4e95-9bf2-2a04f02a40ab","ios":"levelo://app?vid=54cc4ec6-c46d-4e95-9bf2-2a04f02a40ab"},"vehicle_type_id":"4","last_reported":1730585343,"current_range_meters":33600,"station_id":"ce4bh412rcd13ifvqds0","pricing_plan_id":"cebpf4jnsgd1na2vs0mg"},{"bike_id":"921069e2-e506-477e-8730-9e0ff76dae61","system_id":"levelo_inurba_marseille","lat":43.2407,"lon":5.37763,"is_reserved":false,"is_disabled":false,"rental_uris":{"android":"levelo://app?vid=921069e2-e506-477e-8730-9e0ff76dae61","ios":"levelo://app?vid=921069e2-e506-477e-8730-9e0ff76dae61"},"vehicle_type_id":"4","last_reported":1730585343,"current_range_meters":38400,"station_id":"ce4bhnp2rcd13ifvqgvg","pricing_plan_id":"cebpf4jnsgd1na2vs0mg"},{"bike_id":"e2634b22-5f17-4345-a889-22a44b7f45e9","system_id":"levelo_inurba_marseille","lat":43.27994,"lon":5.40016,"is_reserved":false,"is_disabled":false,"rental_uris":{"android":"levelo://app?vid=e2634b22-5f17-4345-a889-22a44b7f45e9","ios":"levelo://app?vid=e2634b22-5f17-4345-a889-22a44b7f45e9"},"vehicle_type_id":"4","last_reported":1730585343,"current_range_meters":21600,"station_id":"ce4bho92rcd13ifvqh4g","pricing_plan_id":"cebpf4jnsgd1na2vs0mg"},{"bike_id":"1ae70553-660a-46a6-bdc1-546ebe9e96ef","system_id":"levelo_inurba_marseille","lat":43.29957,"lon":5.38502,"is_reserved":false,"is_disabled":false,"rental_uris":{"android":"levelo://app?vid=1ae70553-660a-46a6-bdc1-546ebe9e96ef","ios":"levelo://app?vid=1ae70553-660a-46a6-bdc1-546ebe9e96ef"},"vehicle_type_id":"4","last_reported":1730585343,"current_range_meters":19200,"station_id":"ce4bgj92rcd13ifvqbd0","pricing_plan_id":"cebpf4jnsgd1na2vs0mg"},{"bike_id":"704eba55-73fe-495c-8b3d-68b1d87c8902","system_id":"levelo_inurba_marseille","lat":43.29798,"lon":5.40414,"is_reserved":false,"is_disabled":false,"rental_uris":{"android":"levelo://app?vid=704eba55-73fe-495c-8b3d-68b1d87c8902","ios":"levelo://app?vid=704eba55-73fe-495c-8b3d-68b1d87c8902"},"vehicle_type_id":"4","last_reported":1730585343,"current_range_meters":27200,"station_id":"ce4bh112rcd13ifvqd90","pricing_plan_id":"cebpf4jnsgd1na2vs0mg"},{"bike_id":"3c90fc8f-ed1d-4e88-8797-d27a0c30fd70","system_id":"levelo_inurba_marseille","lat":43.25721,"lon":5.41114,"is_reserved":false,"is_disabled":false,"rental_uris":{"android":"levelo://app?vid=3c90fc8f-ed1d-4e88-8797-d27a0c30fd70","ios":"levelo://app?vid=3c90fc8f-ed1d-4e88-8797-d27a0c30fd70"},"vehicle_type_id":"4","last_reported":1730585343,"current_range_meters":38800,"station_id":"ce4bhkp2rcd13ifvqgd0","pricing_plan_id":"cebpf4jnsgd1na2vs0mg"},{"bike_id":"825cfe45-70ff-4566-ba39-694d6c1d5057","system_id":"levelo_inurba_marseille","lat":43.294228,"lon":5.386095,"is_reserved":false,"is_disabled":false,"rental_uris":{"android":"levelo://app?vid=825cfe45-70ff-4566-ba39-694d6c1d5057","ios":"levelo://app?vid=825cfe45-70ff-4566-ba39-694d6c1d5057"},"vehicle_type_id":"4","last_reported":1730585343,"current_range_meters":37600,"station_id":"ce4bh2h2rcd13ifvqdh0","pricing_plan_id":"cebpf4jnsgd1na2vs0mg"},{"bike_id":"6c50fb96-7979-4581-be6e-6348d110c83a","system_id":"levelo_inurba_marseille","lat":43.3009,"lon":5.39069,"is_reserved":false,"is_disabled":false,"rental_uris":{"android":"levelo://app?vid=6c50fb96-7979-4581-be6e-6348d110c83a","ios":"levelo://app?vid=6c50fb96-7979-4581-be6e-6348d110c83a"},"vehicle_type_id":"4","last_reported":1730585343,"current_range_meters":35200,"station_id":"ce4bh192rcd13ifvqdb0","pricing_plan_id":"cebpf4jnsgd1na2vs0mg"},{"bike_id":"1b76da04-24af-4551-be92-5b5e0e7c5288","system_id":"levelo_inurba_marseille","lat":43.27488,"lon":5.42456,"is_reserved":false,"is_disabled":false,"rental_uris":{"android":"levelo://app?vid=1b76da04-24af-4551-be92-5b5e0e7c5288","ios":"levelo://app?vid=1b76da04-24af-4551-be92-5b5e0e7c5288"},"vehicle_type_id":"4","last_reported":1730585343,"current_range_meters":37600,"station_id":"ce4bhn92rcd13ifvqgrg","pricing_plan_id":"cebpf4jnsgd1na2vs0mg"},{"bike_id":"a93c236a-7c64-4cfc-8060-bc9296e0086e","system_id":"levelo_inurba_marseille","lat":43.29414,"lon":5.38621,"is_reserved":false,"is_disabled":false,"rental_uris":{"android":"levelo://app?vid=a93c236a-7c64-4cfc-8060-bc9296e0086e","ios":"levelo://app?vid=a93c236a-7c64-4cfc-8060-bc9296e0086e"},"vehicle_type_id":"4","last_reported":1730585343,"current_range_meters":24800,"station_id":"ce4bh2h2rcd13ifvqdh0","pricing_plan_id":"cebpf4jnsgd1na2vs0mg"},{"bike_id":"540e2233-9952-44d3-9e22-d0acfe51609d","system_id":"levelo_inurba_marseille","lat":43.30429,"lon":5.38897,"is_reserved":false,"is_disabled":false,"rental_uris":{"android":"levelo://app?vid=540e2233-9952-44d3-9e22-d0acfe51609d","ios":"levelo://app?vid=540e2233-9952-44d3-9e22-d0acfe51609d"},"vehicle_type_id":"4","last_reported":1730585343,"current_range_meters":31200,"station_id":"ce4bgk12rcd13ifvqbi0","pricing_plan_id":"cebpf4jnsgd1na2vs0mg"},{"bike_id":"5af0abe4-9506-4388-acca-6c9a99e40361","system_id":"levelo_inurba_marseille","lat":43.29527,"lon":5.38548,"is_reserved":false,"is_disabled":false,"rental_uris":{"android":"levelo://app?vid=5af0abe4-9506-4388-acca-6c9a99e40361","ios":"levelo://app?vid=5af0abe4-9506-4388-acca-6c9a99e40361"},"vehicle_type_id":"4","last_reported":1730585343,"current_range_meters":18000,"station_id":"ce4bgih2rcd13ifvqba0","pricing_plan_id":"cebpf4jnsgd1na2vs0mg"},{"bike_id":"cdf14336-e98f-458b-8f9c-c0f3e810299c","system_id":"levelo_inurba_marseille","lat":43.29529,"lon":5.38536,"is_reserved":false,"is_disabled":false,"rental_uris":{"android":"levelo://app?vid=cdf14336-e98f-458b-8f9c-c0f3e810299c","ios":"levelo://app?vid=cdf14336-e98f-458b-8f9c-c0f3e810299c"},"vehicle_type_id":"4","last_reported":1730585343,"current_range_meters":37600,"station_id":"ce4bgih2rcd13ifvqba0","pricing_plan_id":"cebpf4jnsgd1na2vs0mg"},{"bike_id":"d5324ca5-5a3a-4892-bb8c-7dbf331e6ea6","system_id":"levelo_inurba_marseille","lat":43.32482,"lon":5.365673,"is_reserved":false,"is_disabled":false,"rental_uris":{"android":"levelo://app?vid=d5324ca5-5a3a-4892-bb8c-7dbf331e6ea6","ios":"levelo://app?vid=d5324ca5-5a3a-4892-bb8c-7dbf331e6ea6"},"vehicle_type_id":"4","last_reported":1730585343,"current_range_meters":23200,"station_id":"ce4bhs12rcd13ifvqhvg","pricing_plan_id":"cebpf4jnsgd1na2vs0mg"},{"bike_id":"9bbbe19a-7daa-40b3-a509-1dd46e7fbb90","system_id":"levelo_inurba_marseille","lat":43.29536,"lon":5.3854,"is_reserved":false,"is_disabled":false,"rental_uris":{"android":"levelo://app?vid=9bbbe19a-7daa-40b3-a509-1dd46e7fbb90","ios":"levelo://app?vid=9bbbe19a-7daa-40b3-a509-1dd46e7fbb90"},"vehicle_type_id":"4","last_reported":1730585343,"current_range_meters":36800,"station_id":"ce4bgih2rcd13ifvqba0","pricing_plan_id":"cebpf4jnsgd1na2vs0mg"},{"bike_id":"ca6c76fa-d30f-457a-8842-f2eb8dfc7ce6","system_id":"levelo_inurba_marseille","lat":43.29537,"lon":5.38543,"is_reserved":false,"is_disabled":false,"rental_uris":{"android":"levelo://app?vid=ca6c76fa-d30f-457a-8842-f2eb8dfc7ce6","ios":"levelo://app?vid=ca6c76fa-d30f-457a-8842-f2eb8dfc7ce6"},"vehicle_type_id":"4","last_reported":1730585343,"current_range_meters":38000,"station_id":"ce4bgih2rcd13ifvqba0","pricing_plan_id":"cebpf4jnsgd1na2vs0mg"},{"bike_id":"9f176231-d37b-4c06-9ab3-4b630d7ab80a","system_id":"levelo_inurba_marseille","lat":43.29027,"lon":5.3864,"is_reserved":false,"is_disabled":false,"rental_uris":{"android":"levelo://app?vid=9f176231-d37b-4c06-9ab3-4b630d7ab80a","ios":"levelo://app?vid=9f176231-d37b-4c06-9ab3-4b630d7ab80a"},"vehicle_type_id":"4","last_reported":1730585343,"current_range_meters":38800,"station_id":"ce4bh4p2rcd13ifvqe0g","pricing_plan_id":"cebpf4jnsgd1na2vs0mg"},{"bike_id":"c444a074-7c44-4a1f-8718-a834c4163766","system_id":"levelo_inurba_marseille","lat":43.27829,"lon":5.39209,"is_reserved":false,"is_disabled":false,"rental_uris":{"android":"levelo://app?vid=c444a074-7c44-4a1f-8718-a834c4163766","ios":"levelo://app?vid=c444a074-7c44-4a1f-8718-a834c4163766"},"vehicle_type_id":"4","last_reported":1730585343,"current_range_meters":30800,"station_id":"ce4bhjp2rcd13ifvqga0","pricing_plan_id":"cebpf4jnsgd1na2vs0mg"},{"bike_id":"92ce6d4a-e55a-47e8-9fd5-0286331b069e","system_id":"levelo_inurba_marseille","lat":43.25726,"lon":5.41106,"is_reserved":false,"is_disabled":false,"rental_uris":{"android":"levelo://app?vid=92ce6d4a-e55a-47e8-9fd5-0286331b069e","ios":"levelo://app?vid=92ce6d4a-e55a-47e8-9fd5-0286331b069e"},"vehicle_type_id":"4","last_reported":1730585343,"current_range_meters":30000,"station_id":"ce4bhkp2rcd13ifvqgd0","pricing_plan_id":"cebpf4jnsgd1na2vs0mg"},{"bike_id":"c2cf1ca5-0693-4565-b6b4-580010c52027","system_id":"levelo_inurba_marseille","lat":43.278126,"lon":5.407082,"is_reserved":false,"is_disabled":false,"rental_uris":{"android":"levelo://app?vid=c2cf1ca5-0693-4565-b6b4-580010c52027","ios":"levelo://app?vid=c2cf1ca5-0693-4565-b6b4-580010c52027"},"vehicle_type_id":"4","last_reported":1730585343,"current_range_meters":38800,"station_id":"ce4bhnh2rcd13ifvqgtg","pricing_plan_id":"cebpf4jnsgd1na2vs0mg"},{"bike_id":"f98fbbe6-5ff1-4d3d-93bb-442d12188b85","system_id":"levelo_inurba_marseille","lat":43.25577,"lon":5.3823,"is_reserved":false,"is_disabled":false,"rental_uris":{"android":"levelo://app?vid=f98fbbe6-5ff1-4d3d-93bb-442d12188b85","ios":"levelo://app?vid=f98fbbe6-5ff1-4d3d-93bb-442d12188b85"},"vehicle_type_id":"4","last_reported":1730585343,"current_range_meters":12800,"station_id":"ce4bhih2rcd13ifvqfs0","pricing_plan_id":"cebpf4jnsgd1na2vs0mg"},{"bike_id":"597e8901-3fab-452d-af30-93619cdb310e","system_id":"levelo_inurba_marseille","lat":43.30281,"lon":5.37694,"is_reserved":false,"is_disabled":false,"rental_uris":{"android":"levelo://app?vid=597e8901-3fab-452d-af30-93619cdb310e","ios":"levelo://app?vid=597e8901-3fab-452d-af30-93619cdb310e"},"vehicle_type_id":"4","last_reported":1730585343,"current_range_meters":38000,"station_id":"ce4bguh2rcd13ifvqcj0","pricing_plan_id":"cebpf4jnsgd1na2vs0mg"},{"bike_id":"bced097d-5c21-493a-8928-de61a680c76c","system_id":"levelo_inurba_marseille","lat":43.29729,"lon":5.37163,"is_reserved":false,"is_disabled":false,"rental_uris":{"android":"levelo://app?vid=bced097d-5c21-493a-8928-de61a680c76c","ios":"levelo://app?vid=bced097d-5c21-493a-8928-de61a680c76c"},"vehicle_type_id":"4","last_reported":1730585343,"current_range_meters":8400,"station_id":"","pricing_plan_id":"cebpf4jnsgd1na2vs0mg"},{"bike_id":"477d9759-9655-4541-82c7-c27c886d0ee2","system_id":"levelo_inurba_marseille","lat":43.2781,"lon":5.40721,"is_reserved":false,"is_disabled":false,"rental_uris":{"android":"levelo://app?vid=477d9759-9655-4541-82c7-c27c886d0ee2","ios":"levelo://app?vid=477d9759-9655-4541-82c7-c27c886d0ee2"},"vehicle_type_id":"4","last_reported":1730585343,"current_range_meters":38800,"station_id":"ce4bhnh2rcd13ifvqgtg","pricing_plan_id":"cebpf4jnsgd1na2vs0mg"},{"bike_id":"c45bf95e-28b1-42f0-bd82-40d8a1a09e86","system_id":"levelo_inurba_marseille","lat":43.29415,"lon":5.38631,"is_reserved":false,"is_disabled":false,"rental_uris":{"android":"levelo://app?vid=c45bf95e-28b1-42f0-bd82-40d8a1a09e86","ios":"levelo://app?vid=c45bf95e-28b1-42f0-bd82-40d8a1a09e86"},"vehicle_type_id":"4","last_reported":1730585343,"current_range_meters":26800,"station_id":"ce4bh2h2rcd13ifvqdh0","pricing_plan_id":"cebpf4jnsgd1na2vs0mg"},{"bike_id":"9e492aab-dca3-48d6-8f69-adeb0808e9b3","system_id":"levelo_inurba_marseille","lat":43.28425,"lon":5.34979,"is_reserved":false,"is_disabled":false,"rental_uris":{"android":"levelo://app?vid=9e492aab-dca3-48d6-8f69-adeb0808e9b3","ios":"levelo://app?vid=9e492aab-dca3-48d6-8f69-adeb0808e9b3"},"vehicle_type_id":"4","last_reported":1730585343,"current_range_meters":14800,"station_id":"ce4bhbh2rcd13ifvqepg","pricing_plan_id":"cebpf4jnsgd1na2vs0mg"},{"bike_id":"ab9cb399-eeb7-4811-b418-db73fb440597","system_id":"levelo_inurba_marseille","lat":43.26198,"lon":5.37928,"is_reserved":false,"is_disabled":false,"rental_uris":{"android":"levelo://app?vid=ab9cb399-eeb7-4811-b418-db73fb440597","ios":"levelo://app?vid=ab9cb399-eeb7-4811-b418-db73fb440597"},"vehicle_type_id":"4","last_reported":1730585343,"current_range_meters":38000,"station_id":"ce4bhjp2rcd13ifvqg90","pricing_plan_id":"cebpf4jnsgd1na2vs0mg"},{"bike_id":"834c7fa5-91cd-4487-8c58-c6208a6bc3b3","system_id":"levelo_inurba_marseille","lat":43.2942,"lon":5.38632,"is_reserved":false,"is_disabled":false,"rental_uris":{"android":"levelo://app?vid=834c7fa5-91cd-4487-8c58-c6208a6bc3b3","ios":"levelo://app?vid=834c7fa5-91cd-4487-8c58-c6208a6bc3b3"},"vehicle_type_id":"4","last_reported":1730585343,"current_range_meters":31200,"station_id":"ce4bh2h2rcd13ifvqdh0","pricing_plan_id":"cebpf4jnsgd1na2vs0mg"},{"bike_id":"fac07fca-53b2-43df-92dd-ea955a9c8337","system_id":"levelo_inurba_marseille","lat":43.29973,"lon":5.38501,"is_reserved":false,"is_disabled":false,"rental_uris":{"android":"levelo://app?vid=fac07fca-53b2-43df-92dd-ea955a9c8337","ios":"levelo://app?vid=fac07fca-53b2-43df-92dd-ea955a9c8337"},"vehicle_type_id":"4","last_reported":1730585343,"current_range_meters":38800,"station_id":"ce4bgj92rcd13ifvqbd0","pricing_plan_id":"cebpf4jnsgd1na2vs0mg"},{"bike_id":"600318fb-daf2-4836-8cfc-aaaf401910e2","system_id":"levelo_inurba_marseille","lat":43.29795,"lon":5.38106,"is_reserved":false,"is_disabled":false,"rental_uris":{"android":"levelo://app?vid=600318fb-daf2-4836-8cfc-aaaf401910e2","ios":"levelo://app?vid=600318fb-daf2-4836-8cfc-aaaf401910e2"},"vehicle_type_id":"4","last_reported":1730585343,"current_range_meters":35200,"station_id":"ce4bgip2rcd13ifvqbb0","pricing_plan_id":"cebpf4jnsgd1na2vs0mg"},{"bike_id":"aea6877e-7988-4006-87d7-08a72f9d3a89","system_id":"levelo_inurba_marseille","lat":43.29537,"lon":5.3854,"is_reserved":false,"is_disabled":false,"rental_uris":{"android":"levelo://app?vid=aea6877e-7988-4006-87d7-08a72f9d3a89","ios":"levelo://app?vid=aea6877e-7988-4006-87d7-08a72f9d3a89"},"vehicle_type_id":"4","last_reported":1730585343,"current_range_meters":30000,"station_id":"ce4bgih2rcd13ifvqba0","pricing_plan_id":"cebpf4jnsgd1na2vs0mg"},{"bike_id":"ed74772b-e9f6-455d-8824-3d9ecfe9b2f3","system_id":"levelo_inurba_marseille","lat":43.29534,"lon":5.38546,"is_reserved":false,"is_disabled":false,"rental_uris":{"android":"levelo://app?vid=ed74772b-e9f6-455d-8824-3d9ecfe9b2f3","ios":"levelo://app?vid=ed74772b-e9f6-455d-8824-3d9ecfe9b2f3"},"vehicle_type_id":"4","last_reported":1730585343,"current_range_meters":28800,"station_id":"ce4bgih2rcd13ifvqba0","pricing_plan_id":"cebpf4jnsgd1na2vs0mg"},{"bike_id":"fef4fd4f-d477-4d67-89fd-ababd437e640","system_id":"levelo_inurba_marseille","lat":43.29241,"lon":5.36676,"is_reserved":false,"is_disabled":false,"rental_uris":{"android":"levelo://app?vid=fef4fd4f-d477-4d67-89fd-ababd437e640","ios":"levelo://app?vid=fef4fd4f-d477-4d67-89fd-ababd437e640"},"vehicle_type_id":"4","last_reported":1730585343,"current_range_meters":35200,"station_id":"","pricing_plan_id":"cebpf4jnsgd1na2vs0mg"},{"bike_id":"5e7aef04-5f8f-4931-b686-969187b73c69","system_id":"levelo_inurba_marseille","lat":43.27367,"lon":5.36257,"is_reserved":false,"is_disabled":false,"rental_uris":{"android":"levelo://app?vid=5e7aef04-5f8f-4931-b686-969187b73c69","ios":"levelo://app?vid=5e7aef04-5f8f-4931-b686-969187b73c69"},"vehicle_type_id":"4","last_reported":1730585343,"current_range_meters":36400,"station_id":"ce4bhbh2rcd13ifvqeo0","pricing_plan_id":"cebpf4jnsgd1na2vs0mg"},{"bike_id":"b27b6b18-d801-4b0b-a4e3-bc55bc4a9aed","system_id":"levelo_inurba_marseille","lat":43.25721,"lon":5.41115,"is_reserved":false,"is_disabled":false,"rental_uris":{"android":"levelo://app?vid=b27b6b18-d801-4b0b-a4e3-bc55bc4a9aed","ios":"levelo://app?vid=b27b6b18-d801-4b0b-a4e3-bc55bc4a9aed"},"vehicle_type_id":"4","last_reported":1730585343,"current_range_meters":36400,"station_id":"ce4bhkp2rcd13ifvqgd0","pricing_plan_id":"cebpf4jnsgd1na2vs0mg"},{"bike_id":"bf4fc4b0-da91-4001-b8c3-8696ff4892a9","system_id":"levelo_inurba_marseille","lat":43.29881,"lon":5.389094,"is_reserved":false,"is_disabled":false,"rental_uris":{"android":"levelo://app?vid=bf4fc4b0-da91-4001-b8c3-8696ff4892a9","ios":"levelo://app?vid=bf4fc4b0-da91-4001-b8c3-8696ff4892a9"},"vehicle_type_id":"4","last_reported":1730585343,"current_range_meters":35200,"station_id":"ce4bh392rcd13ifvqdl0","pricing_plan_id":"cebpf4jnsgd1na2vs0mg"},{"bike_id":"2921df27-5f4d-405e-8967-ba024d0dbdcf","system_id":"levelo_inurba_marseille","lat":43.3044,"lon":5.3889,"is_reserved":false,"is_disabled":false,"rental_uris":{"android":"levelo://app?vid=2921df27-5f4d-405e-8967-ba024d0dbdcf","ios":"levelo://app?vid=2921df27-5f4d-405e-8967-ba024d0dbdcf"},"vehicle_type_id":"4","last_reported":1730585343,"current_range_meters":38000,"station_id":"ce4bgk12rcd13ifvqbi0","pricing_plan_id":"cebpf4jnsgd1na2vs0mg"},{"bike_id":"f58456e3-7a9e-4429-90f3-eefd70581764","system_id":"levelo_inurba_marseille","lat":43.29529,"lon":5.3853,"is_reserved":false,"is_disabled":false,"rental_uris":{"android":"levelo://app?vid=f58456e3-7a9e-4429-90f3-eefd70581764","ios":"levelo://app?vid=f58456e3-7a9e-4429-90f3-eefd70581764"},"vehicle_type_id":"4","last_reported":1730585343,"current_range_meters":38800,"station_id":"ce4bgih2rcd13ifvqba0","pricing_plan_id":"cebpf4jnsgd1na2vs0mg"},{"bike_id":"7c5bfcc8-7e47-44d5-834d-fc401b7520cd","system_id":"levelo_inurba_marseille","lat":43.27961,"lon":5.38726,"is_reserved":false,"is_disabled":false,"rental_uris":{"android":"levelo://app?vid=7c5bfcc8-7e47-44d5-834d-fc401b7520cd","ios":"levelo://app?vid=7c5bfcc8-7e47-44d5-834d-fc401b7520cd"},"vehicle_type_id":"4","last_reported":1730585343,"current_range_meters":38000,"station_id":"ce4bhg12rcd13ifvqf80","pricing_plan_id":"cebpf4jnsgd1na2vs0mg"},{"bike_id":"1a303e70-d1b0-4563-b13a-3d40fa7c1ccd","system_id":"levelo_inurba_marseille","lat":43.32291,"lon":5.38267,"is_reserved":false,"is_disabled":false,"rental_uris":{"android":"levelo://app?vid=1a303e70-d1b0-4563-b13a-3d40fa7c1ccd","ios":"levelo://app?vid=1a303e70-d1b0-4563-b13a-3d40fa7c1ccd"},"vehicle_type_id":"4","last_reported":1730585343,"current_range_meters":38800,"station_id":"ce4bhr12rcd13ifvqhqg","pricing_plan_id":"cebpf4jnsgd1na2vs0mg"},{"bike_id":"a0b17023-773c-4f3a-9db5-0e164cb95ed0","system_id":"levelo_inurba_marseille","lat":43.28935,"lon":5.364,"is_reserved":false,"is_disabled":false,"rental_uris":{"android":"levelo://app?vid=a0b17023-773c-4f3a-9db5-0e164cb95ed0","ios":"levelo://app?vid=a0b17023-773c-4f3a-9db5-0e164cb95ed0"},"vehicle_type_id":"4","last_reported":1730585343,"current_range_meters":31200,"station_id":"ce4bhc92rcd13ifvqetg","pricing_plan_id":"cebpf4jnsgd1na2vs0mg"},{"bike_id":"45a9d9a7-83a5-4e18-b464-0249954955c8","system_id":"levelo_inurba_marseille","lat":43.23154,"lon":5.43702,"is_reserved":false,"is_disabled":false,"rental_uris":{"android":"levelo://app?vid=45a9d9a7-83a5-4e18-b464-0249954955c8","ios":"levelo://app?vid=45a9d9a7-83a5-4e18-b464-0249954955c8"},"vehicle_type_id":"4","last_reported":1730585343,"current_range_meters":38800,"station_id":"ce4bhmp2rcd13ifvqgog","pricing_plan_id":"cebpf4jnsgd1na2vs0mg"},{"bike_id":"3392ced6-c439-4b12-afb8-5665ace49ebd","system_id":"levelo_inurba_marseille","lat":43.29874,"lon":5.38911,"is_reserved":false,"is_disabled":false,"rental_uris":{"android":"levelo://app?vid=3392ced6-c439-4b12-afb8-5665ace49ebd","ios":"levelo://app?vid=3392ced6-c439-4b12-afb8-5665ace49ebd"},"vehicle_type_id":"4","last_reported":1730585343,"current_range_meters":22800,"station_id":"ce4bh392rcd13ifvqdl0","pricing_plan_id":"cebpf4jnsgd1na2vs0mg"},{"bike_id":"a13a6f27-c8b2-42b7-996f-8e1c0665131f","system_id":"levelo_inurba_marseille","lat":43.25111,"lon":5.40323,"is_reserved":false,"is_disabled":false,"rental_uris":{"android":"levelo://app?vid=a13a6f27-c8b2-42b7-996f-8e1c0665131f","ios":"levelo://app?vid=a13a6f27-c8b2-42b7-996f-8e1c0665131f"},"vehicle_type_id":"4","last_reported":1730585343,"current_range_meters":28000,"station_id":"ce4bhlh2rcd13ifvqgig","pricing_plan_id":"cebpf4jnsgd1na2vs0mg"},{"bike_id":"87d02c11-da85-418b-bd83-e38accdc20fd","system_id":"levelo_inurba_marseille","lat":43.312805,"lon":5.401744,"is_reserved":false,"is_disabled":false,"rental_uris":{"android":"levelo://app?vid=87d02c11-da85-418b-bd83-e38accdc20fd","ios":"levelo://app?vid=87d02c11-da85-418b-bd83-e38accdc20fd"},"vehicle_type_id":"4","last_reported":1730585343,"current_range_meters":6800,"station_id":"ce4bh092rcd13ifvqd30","pricing_plan_id":"cebpf4jnsgd1na2vs0mg"},{"bike_id":"b38e72c1-9547-4584-9ba0-b046d95ffa99","system_id":"levelo_inurba_marseille","lat":43.31323,"lon":5.39698,"is_reserved":false,"is_disabled":false,"rental_uris":{"android":"levelo://app?vid=b38e72c1-9547-4584-9ba0-b046d95ffa99","ios":"levelo://app?vid=b38e72c1-9547-4584-9ba0-b046d95ffa99"},"vehicle_type_id":"4","last_reported":1730585343,"current_range_meters":25600,"station_id":"ce4bgvp2rcd13ifvqcu0","pricing_plan_id":"cebpf4jnsgd1na2vs0mg"},{"bike_id":"7c8e2182-8d5d-442a-9864-1cd9e1711753","system_id":"levelo_inurba_marseille","lat":43.31278,"lon":5.40153,"is_reserved":false,"is_disabled":false,"rental_uris":{"android":"levelo://app?vid=7c8e2182-8d5d-442a-9864-1cd9e1711753","ios":"levelo://app?vid=7c8e2182-8d5d-442a-9864-1cd9e1711753"},"vehicle_type_id":"4","last_reported":1730585343,"current_range_meters":22800,"station_id":"ce4bh092rcd13ifvqd30","pricing_plan_id":"cebpf4jnsgd1na2vs0mg"},{"bike_id":"e89fcef0-0a65-4cd8-a020-f18e3f1e75b5","system_id":"levelo_inurba_marseille","lat":43.30887,"lon":5.39637,"is_reserved":false,"is_disabled":false,"rental_uris":{"android":"levelo://app?vid=e89fcef0-0a65-4cd8-a020-f18e3f1e75b5","ios":"levelo://app?vid=e89fcef0-0a65-4cd8-a020-f18e3f1e75b5"},"vehicle_type_id":"4","last_reported":1730585343,"current_range_meters":38400,"station_id":"ce4bh012rcd13ifvqcv0","pricing_plan_id":"cebpf4jnsgd1na2vs0mg"},{"bike_id":"a59a0526-a09b-4e1f-b799-4240ee0b7745","system_id":"levelo_inurba_marseille","lat":43.29027,"lon":5.38137,"is_reserved":false,"is_disabled":false,"rental_uris":{"android":"levelo://app?vid=a59a0526-a09b-4e1f-b799-4240ee0b7745","ios":"levelo://app?vid=a59a0526-a09b-4e1f-b799-4240ee0b7745"},"vehicle_type_id":"4","last_reported":1730585343,"current_range_meters":38400,"station_id":"ce4bh4p2rcd13ifvqe1g","pricing_plan_id":"cebpf4jnsgd1na2vs0mg"},{"bike_id":"38c95b48-2ed0-4b15-83d2-b17eba329b3d","system_id":"levelo_inurba_marseille","lat":43.26608,"lon":5.388,"is_reserved":false,"is_disabled":false,"rental_uris":{"android":"levelo://app?vid=38c95b48-2ed0-4b15-83d2-b17eba329b3d","ios":"levelo://app?vid=38c95b48-2ed0-4b15-83d2-b17eba329b3d"},"vehicle_type_id":"4","last_reported":1730585343,"current_range_meters":18000,"station_id":"","pricing_plan_id":"cebpf4jnsgd1na2vs0mg"},{"bike_id":"201fc713-5186-4def-808a-7ac085271e4c","system_id":"levelo_inurba_marseille","lat":43.29033,"lon":5.39967,"is_reserved":false,"is_disabled":false,"rental_uris":{"android":"levelo://app?vid=201fc713-5186-4def-808a-7ac085271e4c","ios":"levelo://app?vid=201fc713-5186-4def-808a-7ac085271e4c"},"vehicle_type_id":"4","last_reported":1730585343,"current_range_meters":36000,"station_id":"ce4bh392rcd13ifvqdm0","pricing_plan_id":"cebpf4jnsgd1na2vs0mg"},{"bike_id":"584739c2-9b20-43be-9fe0-48968a1451db","system_id":"levelo_inurba_marseille","lat":43.29684,"lon":5.3729,"is_reserved":false,"is_disabled":false,"rental_uris":{"android":"levelo://app?vid=584739c2-9b20-43be-9fe0-48968a1451db","ios":"levelo://app?vid=584739c2-9b20-43be-9fe0-48968a1451db"},"vehicle_type_id":"4","last_reported":1730585343,"current_range_meters":39200,"station_id":"ce4bgk12rcd13ifvqbj0","pricing_plan_id":"cebpf4jnsgd1na2vs0mg"},{"bike_id":"707668fb-7003-4ab3-a5a0-97919e7d4e84","system_id":"levelo_inurba_marseille","lat":43.26564,"lon":5.39009,"is_reserved":false,"is_disabled":false,"rental_uris":{"android":"levelo://app?vid=707668fb-7003-4ab3-a5a0-97919e7d4e84","ios":"levelo://app?vid=707668fb-7003-4ab3-a5a0-97919e7d4e84"},"vehicle_type_id":"4","last_reported":1730585343,"current_range_meters":38800,"station_id":"ce4bhe12rcd13ifvqf30","pricing_plan_id":"cebpf4jnsgd1na2vs0mg"},{"bike_id":"ac6e4d7c-4cf4-4233-aca4-0f9953ecb824","system_id":"levelo_inurba_marseille","lat":43.31992,"lon":5.38148,"is_reserved":false,"is_disabled":false,"rental_uris":{"android":"levelo://app?vid=ac6e4d7c-4cf4-4233-aca4-0f9953ecb824","ios":"levelo://app?vid=ac6e4d7c-4cf4-4233-aca4-0f9953ecb824"},"vehicle_type_id":"4","last_reported":1730585343,"current_range_meters":40000,"station_id":"ce4bhr12rcd13ifvqhpg","pricing_plan_id":"cebpf4jnsgd1na2vs0mg"},{"bike_id":"addf2f83-4208-4130-bd37-d3cf23df67f0","system_id":"levelo_inurba_marseille","lat":43.26493,"lon":5.39554,"is_reserved":false,"is_disabled":false,"rental_uris":{"android":"levelo://app?vid=addf2f83-4208-4130-bd37-d3cf23df67f0","ios":"levelo://app?vid=addf2f83-4208-4130-bd37-d3cf23df67f0"},"vehicle_type_id":"4","last_reported":1730585343,"current_range_meters":37600,"station_id":"ce4bhi12rcd13ifvqfq0","pricing_plan_id":"cebpf4jnsgd1na2vs0mg"},{"bike_id":"cbaf1f9d-4b0b-4c3e-b8a6-d8542d46a272","system_id":"levelo_inurba_marseille","lat":43.29163,"lon":5.37142,"is_reserved":false,"is_disabled":false,"rental_uris":{"android":"levelo://app?vid=cbaf1f9d-4b0b-4c3e-b8a6-d8542d46a272","ios":"levelo://app?vid=cbaf1f9d-4b0b-4c3e-b8a6-d8542d46a272"},"vehicle_type_id":"4","last_reported":1730585343,"current_range_meters":6000,"station_id":"ce4bha92rcd13ifvqeh0","pricing_plan_id":"cebpf4jnsgd1na2vs0mg"},{"bike_id":"381a043a-18db-41cc-8193-fcd7aa35e13c","system_id":"levelo_inurba_marseille","lat":43.28417,"lon":5.37529,"is_reserved":false,"is_disabled":false,"rental_uris":{"android":"levelo://app?vid=381a043a-18db-41cc-8193-fcd7aa35e13c","ios":"levelo://app?vid=381a043a-18db-41cc-8193-fcd7aa35e13c"},"vehicle_type_id":"4","last_reported":1730585343,"current_range_meters":3600,"station_id":"ce4bh412rcd13ifvqds0","pricing_plan_id":"cebpf4jnsgd1na2vs0mg"},{"bike_id":"b8b5f7e2-f80a-4b08-87ae-2845aa87323f","system_id":"levelo_inurba_marseille","lat":43.29422,"lon":5.38627,"is_reserved":false,"is_disabled":false,"rental_uris":{"android":"levelo://app?vid=b8b5f7e2-f80a-4b08-87ae-2845aa87323f","ios":"levelo://app?vid=b8b5f7e2-f80a-4b08-87ae-2845aa87323f"},"vehicle_type_id":"4","last_reported":1730585343,"current_range_meters":5600,"station_id":"ce4bh2h2rcd13ifvqdh0","pricing_plan_id":"cebpf4jnsgd1na2vs0mg"},{"bike_id":"ee5cb0b7-2e02-4203-afd7-77f30cc97f43","system_id":"levelo_inurba_marseille","lat":43.2927,"lon":5.38413,"is_reserved":false,"is_disabled":false,"rental_uris":{"android":"levelo://app?vid=ee5cb0b7-2e02-4203-afd7-77f30cc97f43","ios":"levelo://app?vid=ee5cb0b7-2e02-4203-afd7-77f30cc97f43"},"vehicle_type_id":"4","last_reported":1730585343,"current_range_meters":5600,"station_id":"ce4bh692rcd13ifvqea0","pricing_plan_id":"cebpf4jnsgd1na2vs0mg"},{"bike_id":"02bf43f1-2ce4-4fae-b237-bdfecedc0a96","system_id":"levelo_inurba_marseille","lat":43.29595,"lon":5.38095,"is_reserved":false,"is_disabled":false,"rental_uris":{"android":"levelo://app?vid=02bf43f1-2ce4-4fae-b237-bdfecedc0a96","ios":"levelo://app?vid=02bf43f1-2ce4-4fae-b237-bdfecedc0a96"},"vehicle_type_id":"4","last_reported":1730585343,"current_range_meters":22400,"station_id":"ce4bgl12rcd13ifvqbo0","pricing_plan_id":"cebpf4jnsgd1na2vs0mg"},{"bike_id":"4e102afb-87cc-41ce-9657-968d7babfd2e","system_id":"levelo_inurba_marseille","lat":43.30945,"lon":5.39031,"is_reserved":false,"is_disabled":false,"rental_uris":{"android":"levelo://app?vid=4e102afb-87cc-41ce-9657-968d7babfd2e","ios":"levelo://app?vid=4e102afb-87cc-41ce-9657-968d7babfd2e"},"vehicle_type_id":"4","last_reported":1730585343,"current_range_meters":27200,"station_id":"ce4bgup2rcd13ifvqco0","pricing_plan_id":"cebpf4jnsgd1na2vs0mg"},{"bike_id":"624ea377-5dea-4048-b627-85e487e6ffae","system_id":"levelo_inurba_marseille","lat":43.29534,"lon":5.38542,"is_reserved":false,"is_disabled":false,"rental_uris":{"android":"levelo://app?vid=624ea377-5dea-4048-b627-85e487e6ffae","ios":"levelo://app?vid=624ea377-5dea-4048-b627-85e487e6ffae"},"vehicle_type_id":"4","last_reported":1730585343,"current_range_meters":17200,"station_id":"ce4bgih2rcd13ifvqba0","pricing_plan_id":"cebpf4jnsgd1na2vs0mg"},{"bike_id":"fb4cb51b-c697-4387-a8a1-decb4150a4b0","system_id":"levelo_inurba_marseille","lat":43.24664,"lon":5.38163,"is_reserved":false,"is_disabled":false,"rental_uris":{"android":"levelo://app?vid=fb4cb51b-c697-4387-a8a1-decb4150a4b0","ios":"levelo://app?vid=fb4cb51b-c697-4387-a8a1-decb4150a4b0"},"vehicle_type_id":"4","last_reported":1730585343,"current_range_meters":36000,"station_id":"ce4bhih2rcd13ifvqfr0","pricing_plan_id":"cebpf4jnsgd1na2vs0mg"},{"bike_id":"9aca62b1-4fce-45c0-a939-1c87758eecab","system_id":"levelo_inurba_marseille","lat":43.28107,"lon":5.37842,"is_reserved":false,"is_disabled":false,"rental_uris":{"android":"levelo://app?vid=9aca62b1-4fce-45c0-a939-1c87758eecab","ios":"levelo://app?vid=9aca62b1-4fce-45c0-a939-1c87758eecab"},"vehicle_type_id":"4","last_reported":1730585343,"current_range_meters":39200,"station_id":"ce4bha12rcd13ifvqee0","pricing_plan_id":"cebpf4jnsgd1na2vs0mg"},{"bike_id":"f191f511-eaf6-415b-8493-5b60d550a3ed","system_id":"levelo_inurba_marseille","lat":43.29441,"lon":5.39752,"is_reserved":false,"is_disabled":false,"rental_uris":{"android":"levelo://app?vid=f191f511-eaf6-415b-8493-5b60d550a3ed","ios":"levelo://app?vid=f191f511-eaf6-415b-8493-5b60d550a3ed"},"vehicle_type_id":"4","last_reported":1730585343,"current_range_meters":6400,"station_id":"ce4bh3h2rcd13ifvqdo0","pricing_plan_id":"cebpf4jnsgd1na2vs0mg"},{"bike_id":"17ebbbcb-2cf9-4746-aa3c-b67cb03f093d","system_id":"levelo_inurba_marseille","lat":43.34136,"lon":5.40903,"is_reserved":false,"is_disabled":false,"rental_uris":{"android":"levelo://app?vid=17ebbbcb-2cf9-4746-aa3c-b67cb03f093d","ios":"levelo://app?vid=17ebbbcb-2cf9-4746-aa3c-b67cb03f093d"},"vehicle_type_id":"4","last_reported":1730585343,"current_range_meters":39200,"station_id":"ce4bhqh2rcd13ifvqhlg","pricing_plan_id":"cebpf4jnsgd1na2vs0mg"},{"bike_id":"b66ece50-bc4f-4a5d-b2a3-ef5f9aba4661","system_id":"levelo_inurba_marseille","lat":43.29264,"lon":5.36852,"is_reserved":false,"is_disabled":false,"rental_uris":{"android":"levelo://app?vid=b66ece50-bc4f-4a5d-b2a3-ef5f9aba4661","ios":"levelo://app?vid=b66ece50-bc4f-4a5d-b2a3-ef5f9aba4661"},"vehicle_type_id":"4","last_reported":1730585343,"current_range_meters":38800,"station_id":"ce4bhbp2rcd13ifvqesg","pricing_plan_id":"cebpf4jnsgd1na2vs0mg"},{"bike_id":"92222de1-df3e-42c2-890e-cded35712e9c","system_id":"levelo_inurba_marseille","lat":43.30187,"lon":5.36609,"is_reserved":false,"is_disabled":false,"rental_uris":{"android":"levelo://app?vid=92222de1-df3e-42c2-890e-cded35712e9c","ios":"levelo://app?vid=92222de1-df3e-42c2-890e-cded35712e9c"},"vehicle_type_id":"4","last_reported":1730585343,"current_range_meters":38400,"station_id":"ce4bgrh2rcd13ifvqc8g","pricing_plan_id":"cebpf4jnsgd1na2vs0mg"},{"bike_id":"329f43b7-a693-46cb-bcc1-077241db95f3","system_id":"levelo_inurba_marseille","lat":43.28369,"lon":5.38631,"is_reserved":false,"is_disabled":false,"rental_uris":{"android":"levelo://app?vid=329f43b7-a693-46cb-bcc1-077241db95f3","ios":"levelo://app?vid=329f43b7-a693-46cb-bcc1-077241db95f3"},"vehicle_type_id":"4","last_reported":1730585343,"current_range_meters":37600,"station_id":"ce4bh492rcd13ifvqdvg","pricing_plan_id":"cebpf4jnsgd1na2vs0mg"},{"bike_id":"3e9b85d7-96fb-4b65-9acd-5723483a3709","system_id":"levelo_inurba_marseille","lat":43.31712,"lon":5.37756,"is_reserved":false,"is_disabled":false,"rental_uris":{"android":"levelo://app?vid=3e9b85d7-96fb-4b65-9acd-5723483a3709","ios":"levelo://app?vid=3e9b85d7-96fb-4b65-9acd-5723483a3709"},"vehicle_type_id":"4","last_reported":1730585343,"current_range_meters":23200,"station_id":"ce4bgth2rcd13ifvqch0","pricing_plan_id":"cebpf4jnsgd1na2vs0mg"},