{"last_updated":1770190590,"ttl":60,"version":"2.2","data":{"bikes":[{"bike_id":"71ce7c29-66f8-4b11-98a4-bc706c27b258","system_id":"levelo_inurba_marseille","lat":43.31162,"lon":5.38723,"is_reserved":false,"is_disabled":false,"rental_uris":{"android":"levelo://app?vid=71ce7c29-66f8-4b11-98a4-bc706c27b258","ios":"levelo://app?vid=71ce7c29-66f8-4b11-98a4-bc706c27b258"},"vehicle_type_id":"4","last_reported":1770190590,"current_range_meters":400,"station_id":"ce4bgv12rcd13ifvqcp0","pricing_plan_id":"cebpf4jnsgd1na2vs0mg"},{"bike_id":"d0db6cbd-a31d-41fe-9f27-70ac8c367b5d","system_id":"levelo_inurba_marseille","lat":43.29066,"lon":5.36558,"is_reserved":false,"is_disabled":false,"rental_uris":{"android":"levelo://app?vid=d0db6cbd-a31d-41fe-9f27-70ac8c367b5d","ios":"levelo://app?vid=d0db6cbd-a31d-41fe-9f27-70ac8c367b5d"},"vehicle_type_id":"4","last_reported":1770190590,"current_range_meters":2800,"station_id":"","pricing_plan_id":"cebpf4jnsgd1na2vs0mg"},{"bike_id":"f12d6760-e358-4d82-854a-6fbf57735a7c","system_id":"levelo_inurba_marseille","lat":43.30455,"lon":5.37915,"is_reserved":false,"is_disabled":false,"rental_uris":{"android":"levelo://app?vid=f12d6760-e358-4d82-854a-6fbf57735a7c","ios":"levelo://app?vid=f12d6760-e358-4d82-854a-6fbf57735a7c"},"vehicle_type_id":"4","last_reported":1770190590,"current_range_meters":2800,"station_id":"ce4bgup2rcd13ifvqcn0","pricing_plan_id":"cebpf4jnsgd1na2vs0mg"},{"bike_id":"eb1b2124-84d2-467d-b1f5-56516dcfd958","system_id":"levelo_inurba_marseille","lat":43.21174,"lon":5.35067,"is_reserved":false,"is_disabled":false,"rental_uris":{"android":"levelo://app?vid=eb1b2124-84d2-467d-b1f5-56516dcfd958","ios":"levelo://app?vid=eb1b2124-84d2-467d-b1f5-56516dcfd958"},"vehicle_type_id":"4","last_reported":1770190590,"current_range_meters":2800,"station_id":"st_cvj6sg6p6f1abm77japg","pricing_plan_id":"cebpf4jnsgd1na2vs0mg"},{"bike_id":"02b06200-6f0c-4fbe-a288-f34e85c983a1","system_id":"levelo_inurba_marseille","lat":43.23788,"lon":5.36639,"is_reserved":false,"is_disabled":false,"rental_uris":{"android":"levelo://app?vid=02b06200-6f0c-4fbe-a288-f34e85c983a1","ios":"levelo://app?vid=02b06200-6f0c-4fbe-a288-f34e85c983a1"},"vehicle_type_id":"4","last_reported":1770190590,"current_range_meters":2800,"station_id":"st_d3nk18o9ro0c73en2l3g","pricing_plan_id":"cebpf4jnsgd1na2vs0mg"},{"bike_id":"5fe36a80-b06e-4eaa-aa58-eb5a181145b0","system_id":"levelo_inurba_marseille","lat":43.29619,"lon":5.37727,"is_reserved":false,"is_disabled":false,"rental_uris":{"android":"levelo://app?vid=5fe36a80-b06e-4eaa-aa58-eb5a181145b0","ios":"levelo://app?vid=5fe36a80-b06e-4eaa-aa58-eb5a181145b0"},"vehicle_type_id":"4","last_reported":1770190590,"current_range_meters":2800,"station_id":"ce4bgi92rcd13ifvqb90","pricing_plan_id":"cebpf4jnsgd1na2vs0mg"},{"bike_id":"c5bd6cc5-a57f-4cc8-bde5-35559d658c9b","system_id":"levelo_inurba_marseille","lat":43.27493,"lon":5.42462,"is_reserved":false,"is_disabled":false,"rental_uris":{"android":"levelo://app?vid=c5bd6cc5-a57f-4cc8-bde5-35559d658c9b","ios":"levelo://app?vid=c5bd6cc5-a57f-4cc8-bde5-35559d658c9b"},"vehicle_type_id":"4","last_reported":1770190590,"current_range_meters":2800,"station_id":"ce4bhn92rcd13ifvqgrg","pricing_plan_id":"cebpf4jnsgd1na2vs0mg"},{"bike_id":"5d2a7df9-4ddf-4885-8075-b7755ef05fb8","system_id":"levelo_inurba_marseille","lat":43.2303,"lon":5.40289,"is_reserved":false,"is_disabled":false,"rental_uris":{"android":"levelo://app?vid=5d2a7df9-4ddf-4885-8075-b7755ef05fb8","ios":"levelo://app?vid=5d2a7df9-4ddf-4885-8075-b7755ef05fb8"},"vehicle_type_id":"4","last_reported":1770190590,"current_range_meters":2800,"station_id":"","pricing_plan_id":"cebpf4jnsgd1na2vs0mg"},{"bike_id":"413ca1e5-515a-4601-b78b-8729f8f0fbfd","system_id":"levelo_inurba_marseille","lat":43.30123,"lon":5.43122,"is_reserved":false,"is_disabled":false,"rental_uris":{"android":"levelo://app?vid=413ca1e5-515a-4601-b78b-8729f8f0fbfd","ios":"levelo://app?vid=413ca1e5-515a-4601-b78b-8729f8f0fbfd"},"vehicle_type_id":"4","last_reported":1770190590,"current_range_meters":2800,"station_id":"st_d3js3co5814s73ftftug","pricing_plan_id":"cebpf4jnsgd1na2vs0mg"},{"bike_id":"088b1b0f-daac-437a-8ad0-736437c0b93b","system_id":"levelo_inurba_marseille","lat":43.30396,"lon":5.40573,"is_reserved":false,"is_disabled":false,"rental_uris":{"android":"levelo://app?vid=088b1b0f-daac-437a-8ad0-736437c0b93b","ios":"levelo://app?vid=088b1b0f-daac-437a-8ad0-736437c0b93b"},"vehicle_type_id":"4","last_reported":1770190590,"current_range_meters":2800,"station_id":"","pricing_plan_id":"cebpf4jnsgd1na2vs0mg"},{"bike_id":"03cfe8ff-bad7-4324-a169-164f68b4c260","system_id":"levelo_inurba_marseille","lat":43.337444,"lon":5.374475,"is_reserved":false,"is_disabled":false,"rental_uris":{"android":"levelo://app?vid=03cfe8ff-bad7-4324-a169-164f68b4c260","ios":"levelo://app?vid=03cfe8ff-bad7-4324-a169-164f68b4c260"},"vehicle_type_id":"4","last_reported":1770190590,"current_range_meters":2800,"station_id":"","pricing_plan_id":"cebpf4jnsgd1na2vs0mg"},{"bike_id":"d96b5276-ddb9-4dda-bf61-4ae90512437d","system_id":"levelo_inurba_marseille","lat":43.2417,"lon":5.36391,"is_reserved":false,"is_disabled":false,"rental_uris":{"android":"levelo://app?vid=d96b5276-ddb9-4dda-bf61-4ae90512437d","ios":"levelo://app?vid=d96b5276-ddb9-4dda-bf61-4ae90512437d"},"vehicle_type_id":"4","last_reported":1770190590,"current_range_meters":2800,"station_id":"cpo36qri1sfpv3e86is0","pricing_plan_id":"cebpf4jnsgd1na2vs0mg"},{"bike_id":"de2e04e1-b43a-43af-80dc-59a38bc60c60","system_id":"levelo_inurba_marseille","lat":43.27208,"lon":5.39188,"is_reserved":false,"is_disabled":false,"rental_uris":{"android":"levelo://app?vid=de2e04e1-b43a-43af-80dc-59a38bc60c60","ios":"levelo://app?vid=de2e04e1-b43a-43af-80dc-59a38bc60c60"},"vehicle_type_id":"4","last_reported":1770190590,"current_range_meters":2800,"station_id":"ce4bhhp2rcd13ifvqfm0","pricing_plan_id":"cebpf4jnsgd1na2vs0mg"},{"bike_id":"34e4497e-004e-4d33-b563-df43c3f1dff0","system_id":"levelo_inurba_marseille","lat":43.29153,"lon":5.38841,"is_reserved":false,"is_disabled":false,"rental_uris":{"android":"levelo://app?vid=34e4497e-004e-4d33-b563-df43c3f1dff0","ios":"levelo://app?vid=34e4497e-004e-4d33-b563-df43c3f1dff0"},"vehicle_type_id":"4","last_reported":1770190590,"current_range_meters":2800,"station_id":"ce4bh4p2rcd13ifvqe0g","pricing_plan_id":"cebpf4jnsgd1na2vs0mg"},{"bike_id":"9e66015c-433f-4305-9df5-f55dba59c3f5","system_id":"levelo_inurba_marseille","lat":43.28339,"lon":5.38103,"is_reserved":false,"is_disabled":true,"rental_uris":{"android":"levelo://app?vid=9e66015c-433f-4305-9df5-f55dba59c3f5","ios":"levelo://app?vid=9e66015c-433f-4305-9df5-f55dba59c3f5"},"vehicle_type_id":"4","last_reported":1770190590,"current_range_meters":2800,"station_id":"ce4bh412rcd13ifvqdr0","pricing_plan_id":"cebpf4jnsgd1na2vs0mg"},{"bike_id":"a65e804d-b438-4a7a-bf4b-6565130f6ac8","system_id":"levelo_inurba_marseille","lat":43.29767,"lon":5.38115,"is_reserved":false,"is_disabled":false,"rental_uris":{"android":"levelo://app?vid=a65e804d-b438-4a7a-bf4b-6565130f6ac8","ios":"levelo://app?vid=a65e804d-b438-4a7a-bf4b-6565130f6ac8"},"vehicle_type_id":"4","last_reported":1770190590,"current_range_meters":2800,"station_id":"ce4bgip2rcd13ifvqbb0","pricing_plan_id":"cebpf4jnsgd1na2vs0mg"},{"bike_id":"fc14d7d5-8f10-4ee6-bed0-23d969d945c4","system_id":"levelo_inurba_marseille","lat":43.296317,"lon":5.405954,"is_reserved":false,"is_disabled":false,"rental_uris":{"android":"levelo://app?vid=fc14d7d5-8f10-4ee6-bed0-23d969d945c4","ios":"levelo://app?vid=fc14d7d5-8f10-4ee6-bed0-23d969d945c4"},"vehicle_type_id":"4","last_reported":1770190590,"current_range_meters":2800,"station_id":"ce4bh0h2rcd13ifvqd60","pricing_plan_id":"cebpf4jnsgd1na2vs0mg"},{"bike_id":"7de714e1-e1e3-4cef-a665-bf94e4caea8c","system_id":"levelo_inurba_marseille","lat":43.22561,"lon":5.4163,"is_reserved":false,"is_disabled":false,"rental_uris":{"android":"levelo://app?vid=7de714e1-e1e3-4cef-a665-bf94e4caea8c","ios":"levelo://app?vid=7de714e1-e1e3-4cef-a665-bf94e4caea8c"},"vehicle_type_id":"4","last_reported":1770190590,"current_range_meters":3200,"station_id":"st_d2o4gvlbi1j2169b742g","pricing_plan_id":"cebpf4jnsgd1na2vs0mg"},{"bike_id":"d46ff533-0eee-4665-b81c-0e20854ee49c","system_id":"levelo_inurba_marseille","lat":43.29957,"lon":5.36512,"is_reserved":false,"is_disabled":false,"rental_uris":{"android":"levelo://app?vid=d46ff533-0eee-4665-b81c-0e20854ee49c","ios":"levelo://app?vid=d46ff533-0eee-4665-b81c-0e20854ee49c"},"vehicle_type_id":"4","last_reported":1770190590,"current_range_meters":3200,"station_id":"ce4bgm92rcd13ifvqbr0","pricing_plan_id":"cebpf4jnsgd1na2vs0mg"},{"bike_id":"ce24aee7-35fa-4a11-bc8f-4e8ab67f92b4","system_id":"levelo_inurba_marseille","lat":43.31483,"lon":5.37301,"is_reserved":false,"is_disabled":false,"rental_uris":{"android":"levelo://app?vid=ce24aee7-35fa-4a11-bc8f-4e8ab67f92b4","ios":"levelo://app?vid=ce24aee7-35fa-4a11-bc8f-4e8ab67f92b4"},"vehicle_type_id":"4","last_reported":1770190590,"current_range_meters":3200,"station_id":"ce4bgt12rcd13ifvqcd0","pricing_plan_id":"cebpf4jnsgd1na2vs0mg"},{"bike_id":"77ee2386-41ea-476e-b76b-f435873f6247","system_id":"levelo_inurba_marseille","lat":43.243876,"lon":5.370565,"is_reserved":false,"is_disabled":false,"rental_uris":{"android":"levelo://app?vid=77ee2386-41ea-476e-b76b-f435873f6247","ios":"levelo://app?vid=77ee2386-41ea-476e-b76b-f435873f6247"},"vehicle_type_id":"4","last_reported":1770190590,"current_range_meters":3200,"station_id":"ce4bhhh2rcd13ifvqfk0","pricing_plan_id":"cebpf4jnsgd1na2vs0mg"},{"bike_id":"549d637b-91c5-48ec-83fa-865a463b6a4b","system_id":"levelo_inurba_marseille","lat":43.23213,"lon":5.35659,"is_reserved":false,"is_disabled":false,"rental_uris":{"android":"levelo://app?vid=549d637b-91c5-48ec-83fa-865a463b6a4b","ios":"levelo://app?vid=549d637b-91c5-48ec-83fa-865a463b6a4b"},"vehicle_type_id":"4","last_reported":1770190590,"current_range_meters":3200,"station_id":"ce4bhu92rcd13ifvqi70","pricing_plan_id":"cebpf4jnsgd1na2vs0mg"},{"bike_id":"edcb87a3-89fd-4c81-b16f-a9efdb1bc6b7","system_id":"levelo_inurba_marseille","lat":43.272543,"lon":5.382759,"is_reserved":false,"is_disabled":true,"rental_uris":{"android":"levelo://app?vid=edcb87a3-89fd-4c81-b16f-a9efdb1bc6b7","ios":"levelo://app?vid=edcb87a3-89fd-4c81-b16f-a9efdb1bc6b7"},"vehicle_type_id":"4","last_reported":1770190590,"current_range_meters":3200,"station_id":"","pricing_plan_id":"cebpf4jnsgd1na2vs0mg"},{"bike_id":"c6736af4-c262-4297-ab24-6463c6c38162","system_id":"levelo_inurba_marseille","lat":43.31327,"lon":5.39692,"is_reserved":false,"is_disabled":false,"rental_uris":{"android":"levelo://app?vid=c6736af4-c262-4297-ab24-6463c6c38162","ios":"levelo://app?vid=c6736af4-c262-4297-ab24-6463c6c38162"},"vehicle_type_id":"4","last_reported":1770190590,"current_range_meters":3200,"station_id":"ce4bgvp2rcd13ifvqcu0","pricing_plan_id":"cebpf4jnsgd1na2vs0mg"},{"bike_id":"046cbdeb-0034-4bf7-a8f7-6f44c90a617b","system_id":"levelo_inurba_marseille","lat":43.293475,"lon":5.383346,"is_reserved":false,"is_disabled":false,"rental_uris":{"android":"levelo://app?vid=046cbdeb-0034-4bf7-a8f7-6f44c90a617b","ios":"levelo://app?vid=046cbdeb-0034-4bf7-a8f7-6f44c90a617b"},"vehicle_type_id":"4","last_reported":1770190590,"current_range_meters":3200,"station_id":"","pricing_plan_id":"cebpf4jnsgd1na2vs0mg"},{"bike_id":"7814070b-5995-4f3f-8a57-e91ef38bf810","system_id":"levelo_inurba_marseille","lat":43.29959,"lon":5.38508,"is_reserved":false,"is_disabled":false,"rental_uris":{"android":"levelo://app?vid=7814070b-5995-4f3f-8a57-e91ef38bf810","ios":"levelo://app?vid=7814070b-5995-4f3f-8a57-e91ef38bf810"},"vehicle_type_id":"4","last_reported":1770190590,"current_range_meters":3600,"station_id":"ce4bgj92rcd13ifvqbd0","pricing_plan_id":"cebpf4jnsgd1na2vs0mg"},{"bike_id":"fd4003f9-ae57-43d9-af54-09e855d38b22","system_id":"levelo_inurba_marseille","lat":43.28469,"lon":5.44098,"is_reserved":false,"is_disabled":false,"rental_uris":{"android":"levelo://app?vid=fd4003f9-ae57-43d9-af54-09e855d38b22","ios":"levelo://app?vid=fd4003f9-ae57-43d9-af54-09e855d38b22"},"vehicle_type_id":"4","last_reported":1770190590,"current_range_meters":3600,"station_id":"","pricing_plan_id":"cebpf4jnsgd1na2vs0mg"},{"bike_id":"e5e09432-51e2-4e4c-90db-5548743d89de","system_id":"levelo_inurba_marseille","lat":43.29016,"lon":5.37552,"is_reserved":false,"is_disabled":false,"rental_uris":{"android":"levelo://app?vid=e5e09432-51e2-4e4c-90db-5548743d89de","ios":"levelo://app?vid=e5e09432-51e2-4e4c-90db-5548743d89de"},"vehicle_type_id":"4","last_reported":1770190590,"current_range_meters":3600,"station_id":"ce4bh692rcd13ifvqe90","pricing_plan_id":"cebpf4jnsgd1na2vs0mg"},{"bike_id":"c8d284e7-9027-4039-8a8f-ec00af1ca7b7","system_id":"levelo_inurba_marseille","lat":43.26949,"lon":5.38635,"is_reserved":false,"is_disabled":false,"rental_uris":{"android":"levelo://app?vid=c8d284e7-9027-4039-8a8f-ec00af1ca7b7","ios":"levelo://app?vid=c8d284e7-9027-4039-8a8f-ec00af1ca7b7"},"vehicle_type_id":"4","last_reported":1770190590,"current_range_meters":3600,"station_id":"ce4bhh92rcd13ifvqfh0","pricing_plan_id":"cebpf4jnsgd1na2vs0mg"},{"bike_id":"deb9e4eb-a481-4dbd-9838-7e21c4114a77","system_id":"levelo_inurba_marseille","lat":43.24638,"lon":5.388769,"is_reserved":false,"is_disabled":false,"rental_uris":{"android":"levelo://app?vid=deb9e4eb-a481-4dbd-9838-7e21c4114a77","ios":"levelo://app?vid=deb9e4eb-a481-4dbd-9838-7e21c4114a77"},"vehicle_type_id":"4","last_reported":1770190590,"current_range_meters":3600,"station_id":"ce4bhg12rcd13ifvqf60","pricing_plan_id":"cebpf4jnsgd1na2vs0mg"},{"bike_id":"811dab78-1623-4fb0-b2a5-b9e02c438a16","system_id":"levelo_inurba_marseille","lat":43.29025,"lon":5.3756,"is_reserved":false,"is_disabled":false,"rental_uris":{"android":"levelo://app?vid=811dab78-1623-4fb0-b2a5-b9e02c438a16","ios":"levelo://app?vid=811dab78-1623-4fb0-b2a5-b9e02c438a16"},"vehicle_type_id":"4","last_reported":1770190590,"current_range_meters":3600,"station_id":"ce4bh692rcd13ifvqe90","pricing_plan_id":"cebpf4jnsgd1na2vs0mg"},{"bike_id":"f8e7e4d9-f87a-42a2-9144-b6886b943f25","system_id":"levelo_inurba_marseille","lat":43.24992,"lon":5.38942,"is_reserved":false,"is_disabled":false,"rental_uris":{"android":"levelo://app?vid=f8e7e4d9-f87a-42a2-9144-b6886b943f25","ios":"levelo://app?vid=f8e7e4d9-f87a-42a2-9144-b6886b943f25"},"vehicle_type_id":"4","last_reported":1770190590,"current_range_meters":4000,"station_id":"ce4bhgp2rcd13ifvqfd0","pricing_plan_id":"cebpf4jnsgd1na2vs0mg"},{"bike_id":"ebc53733-0421-4ce5-9420-ec08c5aee5da","system_id":"levelo_inurba_marseille","lat":43.29597,"lon":5.38106,"is_reserved":false,"is_disabled":false,"rental_uris":{"android":"levelo://app?vid=ebc53733-0421-4ce5-9420-ec08c5aee5da","ios":"levelo://app?vid=ebc53733-0421-4ce5-9420-ec08c5aee5da"},"vehicle_type_id":"4","last_reported":1770190590,"current_range_meters":4000,"station_id":"ce4bgl12rcd13ifvqbo0","pricing_plan_id":"cebpf4jnsgd1na2vs0mg"},{"bike_id":"151047fe-b117-41cf-9416-4f91d0d3c1a9","system_id":"levelo_inurba_marseille","lat":43.31856,"lon":5.36908,"is_reserved":false,"is_disabled":false,"rental_uris":{"android":"levelo://app?vid=151047fe-b117-41cf-9416-4f91d0d3c1a9","ios":"levelo://app?vid=151047fe-b117-41cf-9416-4f91d0d3c1a9"},"vehicle_type_id":"4","last_reported":1770190590,"current_range_meters":4000,"station_id":"","pricing_plan_id":"cebpf4jnsgd1na2vs0mg"},{"bike_id":"dcaa4a8f-eeeb-4a65-b90b-db85565e00da","system_id":"levelo_inurba_marseille","lat":43.24166,"lon":5.36394,"is_reserved":false,"is_disabled":false,"rental_uris":{"android":"levelo://app?vid=dcaa4a8f-eeeb-4a65-b90b-db85565e00da","ios":"levelo://app?vid=dcaa4a8f-eeeb-4a65-b90b-db85565e00da"},"vehicle_type_id":"4","last_reported":1770190590,"current_range_meters":4000,"station_id":"cpo36qri1sfpv3e86is0","pricing_plan_id":"cebpf4jnsgd1na2vs0mg"},{"bike_id":"67949cb0-ad73-42aa-8494-c2a7d6735f87","system_id":"levelo_inurba_marseille","lat":43.31216,"lon":5.3685,"is_reserved":false,"is_disabled":false,"rental_uris":{"android":"levelo://app?vid=67949cb0-ad73-42aa-8494-c2a7d6735f87","ios":"levelo://app?vid=67949cb0-ad73-42aa-8494-c2a7d6735f87"},"vehicle_type_id":"4","last_reported":1770190590,"current_range_meters":4000,"station_id":"ce4bgl92rcd13ifvqbq0","pricing_plan_id":"cebpf4jnsgd1na2vs0mg"},{"bike_id":"32082ba1-0cf8-45e5-b7d3-4e7f21189841","system_id":"levelo_inurba_marseille","lat":43.30594,"lon":5.39355,"is_reserved":false,"is_disabled":false,"rental_uris":{"android":"levelo://app?vid=32082ba1-0cf8-45e5-b7d3-4e7f21189841","ios":"levelo://app?vid=32082ba1-0cf8-45e5-b7d3-4e7f21189841"},"vehicle_type_id":"4","last_reported":1770190590,"current_range_meters":4000,"station_id":"ce4bh0p2rcd13ifvqd80","pricing_plan_id":"cebpf4jnsgd1na2vs0mg"},{"bike_id":"c3ba0fed-3d29-4191-b8a3-c899b1e9e5ad","system_id":"levelo_inurba_marseille","lat":43.25573,"lon":5.38235,"is_reserved":false,"is_disabled":false,"rental_uris":{"android":"levelo://app?vid=c3ba0fed-3d29-4191-b8a3-c899b1e9e5ad","ios":"levelo://app?vid=c3ba0fed-3d29-4191-b8a3-c899b1e9e5ad"},"vehicle_type_id":"4","last_reported":1770190590,"current_range_meters":4000,"station_id":"ce4bhih2rcd13ifvqfs0","pricing_plan_id":"cebpf4jnsgd1na2vs0mg"},{"bike_id":"172d2cec-1955-407b-b653-dc2f5150b5a3","system_id":"levelo_inurba_marseille","lat":43.28433,"lon":5.39188,"is_reserved":false,"is_disabled":false,"rental_uris":{"android":"levelo://app?vid=172d2cec-1955-407b-b653-dc2f5150b5a3","ios":"levelo://app?vid=172d2cec-1955-407b-b653-dc2f5150b5a3"},"vehicle_type_id":"4","last_reported":1770190590,"current_range_meters":4000,"station_id":"ce4bhoh2rcd13ifvqh5g","pricing_plan_id":"cebpf4jnsgd1na2vs0mg"},{"bike_id":"afaec708-9928-47f6-a985-ddad527f53b1","system_id":"levelo_inurba_marseille","lat":43.28722,"lon":5.36096,"is_reserved":false,"is_disabled":false,"rental_uris":{"android":"levelo://app?vid=afaec708-9928-47f6-a985-ddad527f53b1","ios":"levelo://app?vid=afaec708-9928-47f6-a985-ddad527f53b1"},"vehicle_type_id":"4","last_reported":1770190590,"current_range_meters":4000,"station_id":"cki0cbj6b192h4jlfktg","pricing_plan_id":"cebpf4jnsgd1na2vs0mg"},{"bike_id":"0132a3cf-69fe-4c36-a3f5-853ddb5ead41","system_id":"levelo_inurba_marseille","lat":43.24787,"lon":5.37485,"is_reserved":false,"is_disabled":false,"rental_uris":{"android":"levelo://app?vid=0132a3cf-69fe-4c36-a3f5-853ddb5ead41","ios":"levelo://app?vid=0132a3cf-69fe-4c36-a3f5-853ddb5ead41"},"vehicle_type_id":"4","last_reported":1770190590,"current_range_meters":4000,"station_id":"ce4bhgh2rcd13ifvqfb0","pricing_plan_id":"cebpf4jnsgd1na2vs0mg"},{"bike_id":"ef30bb24-f45f-400c-9967-a2a3b2da1488","system_id":"levelo_inurba_marseille","lat":43.28279,"lon":5.39447,"is_reserved":false,"is_disabled":false,"rental_uris":{"android":"levelo://app?vid=ef30bb24-f45f-400c-9967-a2a3b2da1488","ios":"levelo://app?vid=ef30bb24-f45f-400c-9967-a2a3b2da1488"},"vehicle_type_id":"4","last_reported":1770190590,"current_range_meters":4000,"station_id":"","pricing_plan_id":"cebpf4jnsgd1na2vs0mg"},{"bike_id":"33b4983b-12f9-44d8-b800-0a8b8c975eef","system_id":"levelo_inurba_marseille","lat":43.281514,"lon":5.426548,"is_reserved":false,"is_disabled":false,"rental_uris":{"android":"levelo://app?vid=33b4983b-12f9-44d8-b800-0a8b8c975eef","ios":"levelo://app?vid=33b4983b-12f9-44d8-b800-0a8b8c975eef"},"vehicle_type_id":"4","last_reported":1770190590,"current_range_meters":4000,"station_id":"ce4bhnh2rcd13ifvqgug","pricing_plan_id":"cebpf4jnsgd1na2vs0mg"},{"bike_id":"7d77e81f-db60-4a2b-9ea3-f632f0f24e98","system_id":"levelo_inurba_marseille","lat":43.30147,"lon":5.38093,"is_reserved":false,"is_disabled":false,"rental_uris":{"android":"levelo://app?vid=7d77e81f-db60-4a2b-9ea3-f632f0f24e98","ios":"levelo://app?vid=7d77e81f-db60-4a2b-9ea3-f632f0f24e98"},"vehicle_type_id":"4","last_reported":1770190590,"current_range_meters":4000,"station_id":"ce4bgjp2rcd13ifvqbh0","pricing_plan_id":"cebpf4jnsgd1na2vs0mg"},{"bike_id":"3496e3d5-ade9-4ef3-89c7-6224a9796381","system_id":"levelo_inurba_marseille","lat":43.23191,"lon":5.35571,"is_reserved":false,"is_disabled":false,"rental_uris":{"android":"levelo://app?vid=3496e3d5-ade9-4ef3-89c7-6224a9796381","ios":"levelo://app?vid=3496e3d5-ade9-4ef3-89c7-6224a9796381"},"vehicle_type_id":"4","last_reported":1770190590,"current_range_meters":4400,"station_id":"ce4bhu92rcd13ifvqi70","pricing_plan_id":"cebpf4jnsgd1na2vs0mg"},{"bike_id":"2bf19671-0061-46e9-83e3-55d71bb70148","system_id":"levelo_inurba_marseille","lat":43.22931,"lon":5.35388,"is_reserved":false,"is_disabled":false,"rental_uris":{"android":"levelo://app?vid=2bf19671-0061-46e9-83e3-55d71bb70148","ios":"levelo://app?vid=2bf19671-0061-46e9-83e3-55d71bb70148"},"vehicle_type_id":"4","last_reported":1770190590,"current_range_meters":4400,"station_id":"cpo3532slgdg3j2ikp40","pricing_plan_id":"cebpf4jnsgd1na2vs0mg"},{"bike_id":"9e057795-08d0-428c-a4d6-14e223435515","system_id":"levelo_inurba_marseille","lat":43.24602,"lon":5.3738,"is_reserved":false,"is_disabled":false,"rental_uris":{"android":"levelo://app?vid=9e057795-08d0-428c-a4d6-14e223435515","ios":"levelo://app?vid=9e057795-08d0-428c-a4d6-14e223435515"},"vehicle_type_id":"4","last_reported":1770190590,"current_range_meters":4400,"station_id":"","pricing_plan_id":"cebpf4jnsgd1na2vs0mg"},{"bike_id":"40954e61-dd73-4b29-8cc4-cc138532c8aa","system_id":"levelo_inurba_marseille","lat":43.29228,"lon":5.42519,"is_reserved":false,"is_disabled":false,"rental_uris":{"android":"levelo://app?vid=40954e61-dd73-4b29-8cc4-cc138532c8aa","ios":"levelo://app?vid=40954e61-dd73-4b29-8cc4-cc138532c8aa"},"vehicle_type_id":"4","last_reported":1770190590,"current_range_meters":4400,"station_id":"","pricing_plan_id":"cebpf4jnsgd1na2vs0mg"},{"bike_id":"a3c884d6-ca06-4e21-8494-0863fcdb6b67","system_id":"levelo_inurba_marseille","lat":43.310453,"lon":5.371723,"is_reserved":false,"is_disabled":false,"rental_uris":{"android":"levelo://app?vid=a3c884d6-ca06-4e21-8494-0863fcdb6b67","ios":"levelo://app?vid=a3c884d6-ca06-4e21-8494-0863fcdb6b67"},"vehicle_type_id":"4","last_reported":1770190590,"current_range_meters":4400,"station_id":"st_d4kl2rp97mjs73e7tdfg","pricing_plan_id":"cebpf4jnsgd1na2vs0mg"},{"bike_id":"09dac929-9f41-465e-a067-c7854d903423","system_id":"levelo_inurba_marseille","lat":43.301274,"lon":5.374309,"is_reserved":false,"is_disabled":false,"rental_uris":{"android":"levelo://app?vid=09dac929-9f41-465e-a067-c7854d903423","ios":"levelo://app?vid=09dac929-9f41-465e-a067-c7854d903423"},"vehicle_type_id":"4","last_reported":1770190590,"current_range_meters":4400,"station_id":"ce4bgs92rcd13ifvqcc0","pricing_plan_id":"cebpf4jnsgd1na2vs0mg"},{"bike_id":"5396fda1-c3a0-4d51-8ba0-cfe497a166d7","system_id":"levelo_inurba_marseille","lat":43.26557,"lon":5.38986,"is_reserved":false,"is_disabled":false,"rental_uris":{"android":"levelo://app?vid=5396fda1-c3a0-4d51-8ba0-cfe497a166d7","ios":"levelo://app?vid=5396fda1-c3a0-4d51-8ba0-cfe497a166d7"},"vehicle_type_id":"4","last_reported":1770190590,"current_range_meters":4400,"station_id":"ce4bhe12rcd13ifvqf30","pricing_plan_id":"cebpf4jnsgd1na2vs0mg"},{"bike_id":"084de81f-eee0-4ad2-a562-b4c451bf85f0","system_id":"levelo_inurba_marseille","lat":43.27948,"lon":5.38708,"is_reserved":false,"is_disabled":false,"rental_uris":{"android":"levelo://app?vid=084de81f-eee0-4ad2-a562-b4c451bf85f0","ios":"levelo://app?vid=084de81f-eee0-4ad2-a562-b4c451bf85f0"},"vehicle_type_id":"4","last_reported":1770190590,"current_range_meters":4400,"station_id":"ce4bhg12rcd13ifvqf80","pricing_plan_id":"cebpf4jnsgd1na2vs0mg"},{"bike_id":"a3187843-b85c-41a1-aa14-9274fed66704","system_id":"levelo_inurba_marseille","lat":43.2902,"lon":5.37544,"is_reserved":false,"is_disabled":true,"rental_uris":{"android":"levelo://app?vid=a3187843-b85c-41a1-aa14-9274fed66704","ios":"levelo://app?vid=a3187843-b85c-41a1-aa14-9274fed66704"},"vehicle_type_id":"4","last_reported":1770190590,"current_range_meters":4400,"station_id":"ce4bh692rcd13ifvqe90","pricing_plan_id":"cebpf4jnsgd1na2vs0mg"},{"bike_id":"e1b3cad6-dccc-4f80-892b-59b83fe43b75","system_id":"levelo_inurba_marseille","lat":43.29572,"lon":5.36721,"is_reserved":false,"is_disabled":false,"rental_uris":{"android":"levelo://app?vid=e1b3cad6-dccc-4f80-892b-59b83fe43b75","ios":"levelo://app?vid=e1b3cad6-dccc-4f80-892b-59b83fe43b75"},"vehicle_type_id":"4","last_reported":1770190590,"current_range_meters":4800,"station_id":"ce4bgph2rcd13ifvqc2g","pricing_plan_id":"cebpf4jnsgd1na2vs0mg"},{"bike_id":"3492d7e4-2dea-4cd5-b457-298b87f5c159","system_id":"levelo_inurba_marseille","lat":43.24483,"lon":5.42539,"is_reserved":false,"is_disabled":false,"rental_uris":{"android":"levelo://app?vid=3492d7e4-2dea-4cd5-b457-298b87f5c159","ios":"levelo://app?vid=3492d7e4-2dea-4cd5-b457-298b87f5c159"},"vehicle_type_id":"4","last_reported":1770190590,"current_range_meters":4800,"station_id":"st_d4a3vfp97mjs738cd8kg","pricing_plan_id":"cebpf4jnsgd1na2vs0mg"},{"bike_id":"bcbaa8a6-886f-4091-ae26-8ec7b68ef274","system_id":"levelo_inurba_marseille","lat":43.23797,"lon":5.36617,"is_reserved":false,"is_disabled":false,"rental_uris":{"android":"levelo://app?vid=bcbaa8a6-886f-4091-ae26-8ec7b68ef274","ios":"levelo://app?vid=bcbaa8a6-886f-4091-ae26-8ec7b68ef274"},"vehicle_type_id":"4","last_reported":1770190590,"current_range_meters":4800,"station_id":"st_d3nk18o9ro0c73en2l3g","pricing_plan_id":"cebpf4jnsgd1na2vs0mg"},{"bike_id":"fb9831b1-2115-4efa-aab5-d8711b935c09","system_id":"levelo_inurba_marseille","lat":43.27499,"lon":5.42465,"is_reserved":false,"is_disabled":false,"rental_uris":{"android":"levelo://app?vid=fb9831b1-2115-4efa-aab5-d8711b935c09","ios":"levelo://app?vid=fb9831b1-2115-4efa-aab5-d8711b935c09"},"vehicle_type_id":"4","last_reported":1770190590,"current_range_meters":4800,"station_id":"ce4bhn92rcd13ifvqgrg","pricing_plan_id":"cebpf4jnsgd1na2vs0mg"},{"bike_id":"85858777-ff00-4d43-ac5a-d7845abcbfdd","system_id":"levelo_inurba_marseille","lat":43.27486,"lon":5.42466,"is_reserved":false,"is_disabled":false,"rental_uris":{"android":"levelo://app?vid=85858777-ff00-4d43-ac5a-d7845abcbfdd","ios":"levelo://app?vid=85858777-ff00-4d43-ac5a-d7845abcbfdd"},"vehicle_type_id":"4","last_reported":1770190590,"current_range_meters":4800,"station_id":"ce4bhn92rcd13ifvqgrg","pricing_plan_id":"cebpf4jnsgd1na2vs0mg"},{"bike_id":"c6e323e3-4052-4940-8ba6-87e1847b0dcf","system_id":"levelo_inurba_marseille","lat":43.2593,"lon":5.40892,"is_reserved":false,"is_disabled":false,"rental_uris":{"android":"levelo://app?vid=c6e323e3-4052-4940-8ba6-87e1847b0dcf","ios":"levelo://app?vid=c6e323e3-4052-4940-8ba6-87e1847b0dcf"},"vehicle_type_id":"4","last_reported":1770190590,"current_range_meters":4800,"station_id":"ce4bhm92rcd13ifvqglg","pricing_plan_id":"cebpf4jnsgd1na2vs0mg"},{"bike_id":"d6fcfbb6-741a-47e6-b08d-f5036f90a3ce","system_id":"levelo_inurba_marseille","lat":43.24481,"lon":5.42532,"is_reserved":false,"is_disabled":false,"rental_uris":{"android":"levelo://app?vid=d6fcfbb6-741a-47e6-b08d-f5036f90a3ce","ios":"levelo://app?vid=d6fcfbb6-741a-47e6-b08d-f5036f90a3ce"},"vehicle_type_id":"4","last_reported":1770190590,"current_range_meters":4800,"station_id":"st_d4a3vfp97mjs738cd8kg","pricing_plan_id":"cebpf4jnsgd1na2vs0mg"},{"bike_id":"1a7a92c2-ba00-4401-85e8-50b8bbada9bf","system_id":"levelo_inurba_marseille","lat":43.25089,"lon":5.39514,"is_reserved":false,"is_disabled":false,"rental_uris":{"android":"levelo://app?vid=1a7a92c2-ba00-4401-85e8-50b8bbada9bf","ios":"levelo://app?vid=1a7a92c2-ba00-4401-85e8-50b8bbada9bf"},"vehicle_type_id":"4","last_reported":1770190590,"current_range_meters":4800,"station_id":"ce4bhm12rcd13ifvqgkg","pricing_plan_id":"cebpf4jnsgd1na2vs0mg"},{"bike_id":"1564de53-27c0-4f8d-afd8-5839a0935eea","system_id":"levelo_inurba_marseille","lat":43.29764,"lon":5.37025,"is_reserved":false,"is_disabled":false,"rental_uris":{"android":"levelo://app?vid=1564de53-27c0-4f8d-afd8-5839a0935eea","ios":"levelo://app?vid=1564de53-27c0-4f8d-afd8-5839a0935eea"},"vehicle_type_id":"4","last_reported":1770190590,"current_range_meters":4800,"station_id":"","pricing_plan_id":"cebpf4jnsgd1na2vs0mg"},{"bike_id":"31d6b64e-48b2-4cc2-af49-c56a6b394847","system_id":"levelo_inurba_marseille","lat":43.27887,"lon":5.37998,"is_reserved":false,"is_disabled":true,"rental_uris":{"android":"levelo://app?vid=31d6b64e-48b2-4cc2-af49-c56a6b394847","ios":"levelo://app?vid=31d6b64e-48b2-4cc2-af49-c56a6b394847"},"vehicle_type_id":"4","last_reported":1770190590,"current_range_meters":5600,"station_id":"ce4bhf92rcd13ifvqf50","pricing_plan_id":"cebpf4jnsgd1na2vs0mg"},{"bike_id":"ec12566a-9d48-438d-80ed-97edb63a2c03","system_id":"levelo_inurba_marseille","lat":43.244645,"lon":5.425325,"is_reserved":false,"is_disabled":false,"rental_uris":{"android":"levelo://app?vid=ec12566a-9d48-438d-80ed-97edb63a2c03","ios":"levelo://app?vid=ec12566a-9d48-438d-80ed-97edb63a2c03"},"vehicle_type_id":"4","last_reported":1770190590,"current_range_meters":5600,"station_id":"st_d4a3vfp97mjs738cd8kg","pricing_plan_id":"cebpf4jnsgd1na2vs0mg"},{"bike_id":"7f77f6a6-911c-44cf-97f5-71224b3633e0","system_id":"levelo_inurba_marseille","lat":43.252265,"lon":5.380314,"is_reserved":false,"is_disabled":false,"rental_uris":{"android":"levelo://app?vid=7f77f6a6-911c-44cf-97f5-71224b3633e0","ios":"levelo://app?vid=7f77f6a6-911c-44cf-97f5-71224b3633e0"},"vehicle_type_id":"4","last_reported":1770190590,"current_range_meters":5600,"station_id":"","pricing_plan_id":"cebpf4jnsgd1na2vs0mg"},{"bike_id":"5268a57b-c5c9-446a-87ff-ede823dc6bfa","system_id":"levelo_inurba_marseille","lat":43.28565,"lon":5.39492,"is_reserved":false,"is_disabled":false,"rental_uris":{"android":"levelo://app?vid=5268a57b-c5c9-446a-87ff-ede823dc6bfa","ios":"levelo://app?vid=5268a57b-c5c9-446a-87ff-ede823dc6bfa"},"vehicle_type_id":"4","last_reported":1770190590,"current_range_meters":5600,"station_id":"ce4bh292rcd13ifvqdg0","pricing_plan_id":"cebpf4jnsgd1na2vs0mg"},{"bike_id":"6911c53c-b00c-45fb-be18-12fed0f35fcb","system_id":"levelo_inurba_marseille","lat":43.29084,"lon":5.39967,"is_reserved":false,"is_disabled":false,"rental_uris":{"android":"levelo://app?vid=6911c53c-b00c-45fb-be18-12fed0f35fcb","ios":"levelo://app?vid=6911c53c-b00c-45fb-be18-12fed0f35fcb"},"vehicle_type_id":"4","last_reported":1770190590,"current_range_meters":5600,"station_id":"ce4bh392rcd13ifvqdm0","pricing_plan_id":"cebpf4jnsgd1na2vs0mg"},{"bike_id":"30b0a66c-3c65-486d-80e4-7dd9acfc4ef3","system_id":"levelo_inurba_marseille","lat":43.2654,"lon":5.37292,"is_reserved":false,"is_disabled":false,"rental_uris":{"android":"levelo://app?vid=30b0a66c-3c65-486d-80e4-7dd9acfc4ef3","ios":"levelo://app?vid=30b0a66c-3c65-486d-80e4-7dd9acfc4ef3"},"vehicle_type_id":"4","last_reported":1770190590,"current_range_meters":5600,"station_id":"ce4bhg12rcd13ifvqf70","pricing_plan_id":"cebpf4jnsgd1na2vs0mg"},{"bike_id":"5b3811ef-5681-4c18-aac4-a62920f9a85c","system_id":"levelo_inurba_marseille","lat":43.28473,"lon":5.515,"is_reserved":false,"is_disabled":false,"rental_uris":{"android":"levelo://app?vid=5b3811ef-5681-4c18-aac4-a62920f9a85c","ios":"levelo://app?vid=5b3811ef-5681-4c18-aac4-a62920f9a85c"},"vehicle_type_id":"4","last_reported":1770190590,"current_range_meters":5600,"station_id":"","pricing_plan_id":"cebpf4jnsgd1na2vs0mg"},{"bike_id":"88b224d2-edc5-49b3-91a3-3a72f6dd79ef","system_id":"levelo_inurba_marseille","lat":43.30138,"lon":5.38099,"is_reserved":false,"is_disabled":false,"rental_uris":{"android":"levelo://app?vid=88b224d2-edc5-49b3-91a3-3a72f6dd79ef","ios":"levelo://app?vid=88b224d2-edc5-49b3-91a3-3a72f6dd79ef"},"vehicle_type_id":"4","last_reported":1770190590,"current_range_meters":5600,"station_id":"ce4bgjp2rcd13ifvqbh0","pricing_plan_id":"cebpf4jnsgd1na2vs0mg"},{"bike_id":"43ca8e85-7cf6-4340-82c1-9bd124a4bf8e","system_id":"levelo_inurba_marseille","lat":43.3025,"lon":5.40048,"is_reserved":false,"is_disabled":false,"rental_uris":{"android":"levelo://app?vid=43ca8e85-7cf6-4340-82c1-9bd124a4bf8e","ios":"levelo://app?vid=43ca8e85-7cf6-4340-82c1-9bd124a4bf8e"},"vehicle_type_id":"4","last_reported":1770190590,"current_range_meters":5600,"station_id":"ce4bgvh2rcd13ifvqcs0","pricing_plan_id":"cebpf4jnsgd1na2vs0mg"},{"bike_id":"17a7ef5f-37cf-4df1-96fd-43414a4a3efa","system_id":"levelo_inurba_marseille","lat":43.2848,"lon":5.38464,"is_reserved":false,"is_disabled":false,"rental_uris":{"android":"levelo://app?vid=17a7ef5f-37cf-4df1-96fd-43414a4a3efa","ios":"levelo://app?vid=17a7ef5f-37cf-4df1-96fd-43414a4a3efa"},"vehicle_type_id":"4","last_reported":1770190590,"current_range_meters":5600,"station_id":"ce4bh512rcd13ifvqe3g","pricing_plan_id":"cebpf4jnsgd1na2vs0mg"},{"bike_id":"3d5a03fb-e4b9-4149-beb1-0649d28789b9","system_id":"levelo_inurba_marseille","lat":43.28919,"lon":5.3964,"is_reserved":false,"is_disabled":false,"rental_uris":{"android":"levelo://app?vid=3d5a03fb-e4b9-4149-beb1-0649d28789b9","ios":"levelo://app?vid=3d5a03fb-e4b9-4149-beb1-0649d28789b9"},"vehicle_type_id":"4","last_reported":1770190590,"current_range_meters":6000,"station_id":"ce4bh3h2rcd13ifvqdn0","pricing_plan_id":"cebpf4jnsgd1na2vs0mg"},{"bike_id":"2ac609ee-0449-449f-a5ec-493d35e659ec","system_id":"levelo_inurba_marseille","lat":43.30184,"lon":5.37404,"is_reserved":false,"is_disabled":false,"rental_uris":{"android":"levelo://app?vid=2ac609ee-0449-449f-a5ec-493d35e659ec","ios":"levelo://app?vid=2ac609ee-0449-449f-a5ec-493d35e659ec"},"vehicle_type_id":"4","last_reported":1770190590,"current_range_meters":6000,"station_id":"ce4bgpp2rcd13ifvqc3g","pricing_plan_id":"cebpf4jnsgd1na2vs0mg"},{"bike_id":"632c8ebe-3ba9-4dd4-84a1-20554a097fc1","system_id":"levelo_inurba_marseille","lat":43.29523,"lon":5.38537,"is_reserved":false,"is_disabled":false,"rental_uris":{"android":"levelo://app?vid=632c8ebe-3ba9-4dd4-84a1-20554a097fc1","ios":"levelo://app?vid=632c8ebe-3ba9-4dd4-84a1-20554a097fc1"},"vehicle_type_id":"4","last_reported":1770190590,"current_range_meters":6000,"station_id":"ce4bgih2rcd13ifvqba0","pricing_plan_id":"cebpf4jnsgd1na2vs0mg"},{"bike_id":"5fd3a5b9-86db-4ecc-8faf-240fc41f2714","system_id":"levelo_inurba_marseille","lat":43.26556,"lon":5.39009,"is_reserved":false,"is_disabled":false,"rental_uris":{"android":"levelo://app?vid=5fd3a5b9-86db-4ecc-8faf-240fc41f2714","ios":"levelo://app?vid=5fd3a5b9-86db-4ecc-8faf-240fc41f2714"},"vehicle_type_id":"4","last_reported":1770190590,"current_range_meters":6000,"station_id":"ce4bhe12rcd13ifvqf30","pricing_plan_id":"cebpf4jnsgd1na2vs0mg"},{"bike_id":"191a99ed-49ff-4737-8f82-7264bf56cc6c","system_id":"levelo_inurba_marseille","lat":43.24992,"lon":5.38949,"is_reserved":false,"is_disabled":false,"rental_uris":{"android":"levelo://app?vid=191a99ed-49ff-4737-8f82-7264bf56cc6c","ios":"levelo://app?vid=191a99ed-49ff-4737-8f82-7264bf56cc6c"},"vehicle_type_id":"4","last_reported":1770190590,"current_range_meters":6000,"station_id":"ce4bhgp2rcd13ifvqfd0","pricing_plan_id":"cebpf4jnsgd1na2vs0mg"},{"bike_id":"5de5e604-6504-4a1a-966a-dc6c49a789b3","system_id":"levelo_inurba_marseille","lat":43.29588,"lon":5.36752,"is_reserved":false,"is_disabled":false,"rental_uris":{"android":"levelo://app?vid=5de5e604-6504-4a1a-966a-dc6c49a789b3","ios":"levelo://app?vid=5de5e604-6504-4a1a-966a-dc6c49a789b3"},"vehicle_type_id":"4","last_reported":1770190590,"current_range_meters":6000,"station_id":"ce4bgph2rcd13ifvqc2g","pricing_plan_id":"cebpf4jnsgd1na2vs0mg"},{"bike_id":"4f17a483-36fe-499f-8941-095013509c22","system_id":"levelo_inurba_marseille","lat":43.24672,"lon":5.38169,"is_reserved":false,"is_disabled":false,"rental_uris":{"android":"levelo://app?vid=4f17a483-36fe-499f-8941-095013509c22","ios":"levelo://app?vid=4f17a483-36fe-499f-8941-095013509c22"},"vehicle_type_id":"4","last_reported":1770190590,"current_range_meters":6000,"station_id":"ce4bhih2rcd13ifvqfr0","pricing_plan_id":"cebpf4jnsgd1na2vs0mg"},{"bike_id":"3d94dd16-8b60-4eb7-b7c6-afda16d791e8","system_id":"levelo_inurba_marseille","lat":43.30279,"lon":5.37723,"is_reserved":false,"is_disabled":false,"rental_uris":{"android":"levelo://app?vid=3d94dd16-8b60-4eb7-b7c6-afda16d791e8","ios":"levelo://app?vid=3d94dd16-8b60-4eb7-b7c6-afda16d791e8"},"vehicle_type_id":"4","last_reported":1770190590,"current_range_meters":6000,"station_id":"ce4bguh2rcd13ifvqcj0","pricing_plan_id":"cebpf4jnsgd1na2vs0mg"},{"bike_id":"1b5a9ce0-a712-4e6e-83a1-5b3d08083ec7","system_id":"levelo_inurba_marseille","lat":43.23201,"lon":5.35545,"is_reserved":false,"is_disabled":false,"rental_uris":{"android":"levelo://app?vid=1b5a9ce0-a712-4e6e-83a1-5b3d08083ec7","ios":"levelo://app?vid=1b5a9ce0-a712-4e6e-83a1-5b3d08083ec7"},"vehicle_type_id":"4","last_reported":1770190590,"current_range_meters":6000,"station_id":"ce4bhu92rcd13ifvqi70","pricing_plan_id":"cebpf4jnsgd1na2vs0mg"},{"bike_id":"dd17fa9b-9f65-4321-bf2a-4ec51a394942","system_id":"levelo_inurba_marseille","lat":43.286133,"lon":5.351047,"is_reserved":false,"is_disabled":false,"rental_uris":{"android":"levelo://app?vid=dd17fa9b-9f65-4321-bf2a-4ec51a394942","ios":"levelo://app?vid=dd17fa9b-9f65-4321-bf2a-4ec51a394942"},"vehicle_type_id":"4","last_reported":1770190590,"current_range_meters":6000,"station_id":"ce4bhch2rcd13ifvqeug","pricing_plan_id":"cebpf4jnsgd1na2vs0mg"},{"bike_id":"1ddd8646-25ce-4a23-bebd-ffa64b7ebd8c","system_id":"levelo_inurba_marseille","lat":43.2893,"lon":5.39648,"is_reserved":false,"is_disabled":false,"rental_uris":{"android":"levelo://app?vid=1ddd8646-25ce-4a23-bebd-ffa64b7ebd8c","ios":"levelo://app?vid=1ddd8646-25ce-4a23-bebd-ffa64b7ebd8c"},"vehicle_type_id":"4","last_reported":1770190590,"current_range_meters":6000,"station_id":"ce4bh3h2rcd13ifvqdn0","pricing_plan_id":"cebpf4jnsgd1na2vs0mg"},{"bike_id":"8e312380-e745-433d-90b9-ff07a309073d","system_id":"levelo_inurba_marseille","lat":43.248099,"lon":5.374479,"is_reserved":false,"is_disabled":false,"rental_uris":{"android":"levelo://app?vid=8e312380-e745-433d-90b9-ff07a309073d","ios":"levelo://app?vid=8e312380-e745-433d-90b9-ff07a309073d"},"vehicle_type_id":"4","last_reported":1770190590,"current_range_meters":6400,"station_id":"ce4bhgh2rcd13ifvqfb0","pricing_plan_id":"cebpf4jnsgd1na2vs0mg"},{"bike_id":"c056efdd-bfd4-4d90-a2c4-30f136ba140c","system_id":"levelo_inurba_marseille","lat":43.33501,"lon":5.37511,"is_reserved":false,"is_disabled":false,"rental_uris":{"android":"levelo://app?vid=c056efdd-bfd4-4d90-a2c4-30f136ba140c","ios":"levelo://app?vid=c056efdd-bfd4-4d90-a2c4-30f136ba140c"},"vehicle_type_id":"4","last_reported":1770190590,"current_range_meters":6400,"station_id":"","pricing_plan_id":"cebpf4jnsgd1na2vs0mg"},{"bike_id":"c7b717b4-df4f-4bb4-9862-2a130f4d753d","system_id":"levelo_inurba_marseille","lat":43.30173,"lon":5.38102,"is_reserved":false,"is_disabled":false,"rental_uris":{"android":"levelo://app?vid=c7b717b4-df4f-4bb4-9862-2a130f4d753d","ios":"levelo://app?vid=c7b717b4-df4f-4bb4-9862-2a130f4d753d"},"vehicle_type_id":"4","last_reported":1770190590,"current_range_meters":6400,"station_id":"ce4bgjp2rcd13ifvqbh0","pricing_plan_id":"cebpf4jnsgd1na2vs0mg"},{"bike_id":"73d7fb99-d853-42ce-a7a8-f1ef6eca6976","system_id":"levelo_inurba_marseille","lat":43.30887,"lon":5.39626,"is_reserved":false,"is_disabled":false,"rental_uris":{"android":"levelo://app?vid=73d7fb99-d853-42ce-a7a8-f1ef6eca6976","ios":"levelo://app?vid=73d7fb99-d853-42ce-a7a8-f1ef6eca6976"},"vehicle_type_id":"4","last_reported":1770190590,"current_range_meters":6400,"station_id":"ce4bh012rcd13ifvqcv0","pricing_plan_id":"cebpf4jnsgd1na2vs0mg"},{"bike_id":"659b2fe8-8a06-4a27-93de-c9d7bd01e359","system_id":"levelo_inurba_marseille","lat":43.296535,"lon":5.376658,"is_reserved":false,"is_disabled":false,"rental_uris":{"android":"levelo://app?vid=659b2fe8-8a06-4a27-93de-c9d7bd01e359","ios":"levelo://app?vid=659b2fe8-8a06-4a27-93de-c9d7bd01e359"},"vehicle_type_id":"4","last_reported":1770190590,"current_range_meters":6400,"station_id":"ce4bgi92rcd13ifvqb90","pricing_plan_id":"cebpf4jnsgd1na2vs0mg"},{"bike_id":"ba3390f5-14ed-4160-abcf-8bea19885613","system_id":"levelo_inurba_marseille","lat":43.28492,"lon":5.48426,"is_reserved":false,"is_disabled":false,"rental_uris":{"android":"levelo://app?vid=ba3390f5-14ed-4160-abcf-8bea19885613","ios":"levelo://app?vid=ba3390f5-14ed-4160-abcf-8bea19885613"},"vehicle_type_id":"4","last_reported":1770190590,"current_range_meters":6400,"station_id":"st_d3svhcjqgbts73a3dn0g","pricing_plan_id":"cebpf4jnsgd1na2vs0mg"},{"bike_id":"8a572f97-bd4f-41ad-aafc-4182500530a4","system_id":"levelo_inurba_marseille","lat":43.2995,"lon":5.37748,"is_reserved":false,"is_disabled":false,"rental_uris":{"android":"levelo://app?vid=8a572f97-bd4f-41ad-aafc-4182500530a4","ios":"levelo://app?vid=8a572f97-bd4f-41ad-aafc-4182500530a4"},"vehicle_type_id":"4","last_reported":1770190590,"current_range_meters":6400,"station_id":"","pricing_plan_id":"cebpf4jnsgd1na2vs0mg"},{"bike_id":"852a0598-2717-496d-a13e-313bd41e7f62","system_id":"levelo_inurba_marseille","lat":43.28183,"lon":5.426354,"is_reserved":false,"is_disabled":false,"rental_uris":{"android":"levelo://app?vid=852a0598-2717-496d-a13e-313bd41e7f62","ios":"levelo://app?vid=852a0598-2717-496d-a13e-313bd41e7f62"},"vehicle_type_id":"4","last_reported":1770190590,"current_range_meters":6400,"station_id":"ce4bhnh2rcd13ifvqgug","pricing_plan_id":"cebpf4jnsgd1na2vs0mg"},{"bike_id":"30ca31b5-ccff-4679-8760-7ca90f0da37f","system_id":"levelo_inurba_marseille","lat":43.27195,"lon":5.39184,"is_reserved":false,"is_disabled":false,"rental_uris":{"android":"levelo://app?vid=30ca31b5-ccff-4679-8760-7ca90f0da37f","ios":"levelo://app?vid=30ca31b5-ccff-4679-8760-7ca90f0da37f"},"vehicle_type_id":"4","last_reported":1770190590,"current_range_meters":6400,"station_id":"ce4bhhp2rcd13ifvqfm0","pricing_plan_id":"cebpf4jnsgd1na2vs0mg"},{"bike_id":"a239aec5-b1d0-4fa0-baf3-82bbdaaacd0d","system_id":"levelo_inurba_marseille","lat":43.28479,"lon":5.38422,"is_reserved":false,"is_disabled":false,"rental_uris":{"android":"levelo://app?vid=a239aec5-b1d0-4fa0-baf3-82bbdaaacd0d","ios":"levelo://app?vid=a239aec5-b1d0-4fa0-baf3-82bbdaaacd0d"},"vehicle_type_id":"4","last_reported":1770190590,"current_range_meters":6400,"station_id":"ce4bh512rcd13ifvqe3g","pricing_plan_id":"cebpf4jnsgd1na2vs0mg"},{"bike_id":"5addcc29-5435-4f9f-8ead-83b0c4b9434c","system_id":"levelo_inurba_marseille","lat":43.245452,"lon":5.395196,"is_reserved":false,"is_disabled":false,"rental_uris":{"android":"levelo://app?vid=5addcc29-5435-4f9f-8ead-83b0c4b9434c","ios":"levelo://app?vid=5addcc29-5435-4f9f-8ead-83b0c4b9434c"},"vehicle_type_id":"4","last_reported":1770190590,"current_range_meters":6400,"station_id":"","pricing_plan_id":"cebpf4jnsgd1na2vs0mg"},{"bike_id":"215f9ed1-feb7-42e4-86fc-1e0b8283e1ac","system_id":"levelo_inurba_marseille","lat":43.28488,"lon":5.3844,"is_reserved":false,"is_disabled":false,"rental_uris":{"android":"levelo://app?vid=215f9ed1-feb7-42e4-86fc-1e0b8283e1ac","ios":"levelo://app?vid=215f9ed1-feb7-42e4-86fc-1e0b8283e1ac"},"vehicle_type_id":"4","last_reported":1770190590,"current_range_meters":6400,"station_id":"ce4bh512rcd13ifvqe3g","pricing_plan_id":"cebpf4jnsgd1na2vs0mg"},{"bike_id":"fdc74734-8708-4513-9519-5478f60a2254","system_id":"levelo_inurba_marseille","lat":43.248135,"lon":5.374554,"is_reserved":false,"is_disabled":false,"rental_uris":{"android":"levelo://app?vid=fdc74734-8708-4513-9519-5478f60a2254","ios":"levelo://app?vid=fdc74734-8708-4513-9519-5478f60a2254"},"vehicle_type_id":"4","last_reported":1770190590,"current_range_meters":6400,"station_id":"ce4bhgh2rcd13ifvqfb0","pricing_plan_id":"cebpf4jnsgd1na2vs0mg"},{"bike_id":"ceccb5f8-d8b6-4fa1-af3d-94eb1cee5d93","system_id":"levelo_inurba_marseille","lat":43.24658,"lon":5.38167,"is_reserved":false,"is_disabled":true,"rental_uris":{"android":"levelo://app?vid=ceccb5f8-d8b6-4fa1-af3d-94eb1cee5d93","ios":"levelo://app?vid=ceccb5f8-d8b6-4fa1-af3d-94eb1cee5d93"},"vehicle_type_id":"4","last_reported":1770190590,"current_range_meters":6400,"station_id":"ce4bhih2rcd13ifvqfr0","pricing_plan_id":"cebpf4jnsgd1na2vs0mg"},{"bike_id":"068098b6-2917-46c3-bbcd-2f4568f90c7b","system_id":"levelo_inurba_marseille","lat":43.28602,"lon":5.35097,"is_reserved":false,"is_disabled":true,"rental_uris":{"android":"levelo://app?vid=068098b6-2917-46c3-bbcd-2f4568f90c7b","ios":"levelo://app?vid=068098b6-2917-46c3-bbcd-2f4568f90c7b"},"vehicle_type_id":"4","last_reported":1770190590,"current_range_meters":6400,"station_id":"","pricing_plan_id":"cebpf4jnsgd1na2vs0mg"},{"bike_id":"a1d40264-31fa-4368-a92c-3f50c8a64b96","system_id":"levelo_inurba_marseille","lat":43.23149,"lon":5.43704,"is_reserved":false,"is_disabled":false,"rental_uris":{"android":"levelo://app?vid=a1d40264-31fa-4368-a92c-3f50c8a64b96","ios":"levelo://app?vid=a1d40264-31fa-4368-a92c-3f50c8a64b96"},"vehicle_type_id":"4","last_reported":1770190590,"current_range_meters":6400,"station_id":"ce4bhmp2rcd13ifvqgog","pricing_plan_id":"cebpf4jnsgd1na2vs0mg"},{"bike_id":"d863964b-1765-40d1-8b0c-d4f383cfb831","system_id":"levelo_inurba_marseille","lat":43.29927,"lon":5.36545,"is_reserved":false,"is_disabled":false,"rental_uris":{"android":"levelo://app?vid=d863964b-1765-40d1-8b0c-d4f383cfb831","ios":"levelo://app?vid=d863964b-1765-40d1-8b0c-d4f383cfb831"},"vehicle_type_id":"4","last_reported":1770190590,"current_range_meters":6400,"station_id":"ce4bgm92rcd13ifvqbr0","pricing_plan_id":"cebpf4jnsgd1na2vs0mg"},{"bike_id":"ccad5bb8-727e-4e27-b0cc-7b2f496ea109","system_id":"levelo_inurba_marseille","lat":43.29555,"lon":5.42283,"is_reserved":false,"is_disabled":false,"rental_uris":{"android":"levelo://app?vid=ccad5bb8-727e-4e27-b0cc-7b2f496ea109","ios":"levelo://app?vid=ccad5bb8-727e-4e27-b0cc-7b2f496ea109"},"vehicle_type_id":"4","last_reported":1770190590,"current_range_meters":6400,"station_id":"ce4bhph2rcd13ifvqhdg","pricing_plan_id":"cebpf4jnsgd1na2vs0mg"},{"bike_id":"b0de10e1-c8dd-4794-bb07-685c2b13619b","system_id":"levelo_inurba_marseille","lat":43.24948,"lon":5.40527,"is_reserved":false,"is_disabled":false,"rental_uris":{"android":"levelo://app?vid=b0de10e1-c8dd-4794-bb07-685c2b13619b","ios":"levelo://app?vid=b0de10e1-c8dd-4794-bb07-685c2b13619b"},"vehicle_type_id":"4","last_reported":1770190590,"current_range_meters":6400,"station_id":"st_d2ngiaodas8pm72gd1h0","pricing_plan_id":"cebpf4jnsgd1na2vs0mg"},{"bike_id":"93f4d712-ad08-479a-b0bf-bd98e32fd86e","system_id":"levelo_inurba_marseille","lat":43.30259,"lon":5.37181,"is_reserved":false,"is_disabled":false,"rental_uris":{"android":"levelo://app?vid=93f4d712-ad08-479a-b0bf-bd98e32fd86e","ios":"levelo://app?vid=93f4d712-ad08-479a-b0bf-bd98e32fd86e"},"vehicle_type_id":"4","last_reported":1770190590,"current_range_meters":6800,"station_id":"ce4bgs12rcd13ifvqcag","pricing_plan_id":"cebpf4jnsgd1na2vs0mg"},{"bike_id":"de14d46e-f5b1-470f-9398-73f70931d4fe","system_id":"levelo_inurba_marseille","lat":43.28277,"lon":5.35076,"is_reserved":false,"is_disabled":false,"rental_uris":{"android":"levelo://app?vid=de14d46e-f5b1-470f-9398-73f70931d4fe","ios":"levelo://app?vid=de14d46e-f5b1-470f-9398-73f70931d4fe"},"vehicle_type_id":"4","last_reported":1770190590,"current_range_meters":6800,"station_id":"ce4bhbp2rcd13ifvqerg","pricing_plan_id":"cebpf4jnsgd1na2vs0mg"},{"bike_id":"b55dd3bb-ee2e-446c-9e16-d8dee6c4cf53","system_id":"levelo_inurba_marseille","lat":43.30647,"lon":5.40077,"is_reserved":false,"is_disabled":false,"rental_uris":{"android":"levelo://app?vid=b55dd3bb-ee2e-446c-9e16-d8dee6c4cf53","ios":"levelo://app?vid=b55dd3bb-ee2e-446c-9e16-d8dee6c4cf53"},"vehicle_type_id":"4","last_reported":1770190590,"current_range_meters":6800,"station_id":"ce4bh112rcd13ifvqda0","pricing_plan_id":"cebpf4jnsgd1na2vs0mg"},{"bike_id":"25ed47fc-271f-4de7-a2a6-6e589391bb92","system_id":"levelo_inurba_marseille","lat":43.28405,"lon":5.34994,"is_reserved":false,"is_disabled":false,"rental_uris":{"android":"levelo://app?vid=25ed47fc-271f-4de7-a2a6-6e589391bb92","ios":"levelo://app?vid=25ed47fc-271f-4de7-a2a6-6e589391bb92"},"vehicle_type_id":"4","last_reported":1770190590,"current_range_meters":6800,"station_id":"ce4bhbh2rcd13ifvqepg","pricing_plan_id":"cebpf4jnsgd1na2vs0mg"},{"bike_id":"242256f5-f0bd-4204-9565-2087ceacdda5","system_id":"levelo_inurba_marseille","lat":43.2256,"lon":5.41625,"is_reserved":false,"is_disabled":false,"rental_uris":{"android":"levelo://app?vid=242256f5-f0bd-4204-9565-2087ceacdda5","ios":"levelo://app?vid=242256f5-f0bd-4204-9565-2087ceacdda5"},"vehicle_type_id":"4","last_reported":1770190590,"current_range_meters":6800,"station_id":"st_d2o4gvlbi1j2169b742g","pricing_plan_id":"cebpf4jnsgd1na2vs0mg"},{"bike_id":"30018880-defb-4e1d-b4b9-524f673acfb8","system_id":"levelo_inurba_marseille","lat":43.29763,"lon":5.4279,"is_reserved":false,"is_disabled":false,"rental_uris":{"android":"levelo://app?vid=30018880-defb-4e1d-b4b9-524f673acfb8","ios":"levelo://app?vid=30018880-defb-4e1d-b4b9-524f673acfb8"},"vehicle_type_id":"4","last_reported":1770190590,"current_range_meters":6800,"station_id":"st_d3md5207bmas73dh9klg","pricing_plan_id":"cebpf4jnsgd1na2vs0mg"},{"bike_id":"c214f81c-e58b-4475-ad7c-a9d63d7d79c5","system_id":"levelo_inurba_marseille","lat":43.295474,"lon":5.422894,"is_reserved":false,"is_disabled":false,"rental_uris":{"android":"levelo://app?vid=c214f81c-e58b-4475-ad7c-a9d63d7d79c5","ios":"levelo://app?vid=c214f81c-e58b-4475-ad7c-a9d63d7d79c5"},"vehicle_type_id":"4","last_reported":1770190590,"current_range_meters":6800,"station_id":"ce4bhph2rcd13ifvqhdg","pricing_plan_id":"cebpf4jnsgd1na2vs0mg"},{"bike_id":"a8c22487-8662-4b4c-ad3e-edccba99e631","system_id":"levelo_inurba_marseille","lat":43.31358,"lon":5.38501,"is_reserved":false,"is_disabled":false,"rental_uris":{"android":"levelo://app?vid=a8c22487-8662-4b4c-ad3e-edccba99e631","ios":"levelo://app?vid=a8c22487-8662-4b4c-ad3e-edccba99e631"},"vehicle_type_id":"4","last_reported":1770190590,"current_range_meters":6800,"station_id":"ce4bgt92rcd13ifvqcf0","pricing_plan_id":"cebpf4jnsgd1na2vs0mg"},{"bike_id":"03957cd6-ee2d-47d1-948d-c3da3284d226","system_id":"levelo_inurba_marseille","lat":43.2893,"lon":5.3637,"is_reserved":false,"is_disabled":false,"rental_uris":{"android":"levelo://app?vid=03957cd6-ee2d-47d1-948d-c3da3284d226","ios":"levelo://app?vid=03957cd6-ee2d-47d1-948d-c3da3284d226"},"vehicle_type_id":"4","last_reported":1770190590,"current_range_meters":6800,"station_id":"ce4bhc92rcd13ifvqetg","pricing_plan_id":"cebpf4jnsgd1na2vs0mg"},{"bike_id":"efea85db-b1c8-46f7-b3e0-9fa246910aa6","system_id":"levelo_inurba_marseille","lat":43.23217,"lon":5.40019,"is_reserved":false,"is_disabled":false,"rental_uris":{"android":"levelo://app?vid=efea85db-b1c8-46f7-b3e0-9fa246910aa6","ios":"levelo://app?vid=efea85db-b1c8-46f7-b3e0-9fa246910aa6"},"vehicle_type_id":"4","last_reported":1770190590,"current_range_meters":6800,"station_id":"ce4bhn12rcd13ifvqgqg","pricing_plan_id":"cebpf4jnsgd1na2vs0mg"},{"bike_id":"ad450168-32bc-48e5-981d-10198d96911f","system_id":"levelo_inurba_marseille","lat":43.24165,"lon":5.36398,"is_reserved":false,"is_disabled":false,"rental_uris":{"android":"levelo://app?vid=ad450168-32bc-48e5-981d-10198d96911f","ios":"levelo://app?vid=ad450168-32bc-48e5-981d-10198d96911f"},"vehicle_type_id":"4","last_reported":1770190590,"current_range_meters":6800,"station_id":"cpo36qri1sfpv3e86is0","pricing_plan_id":"cebpf4jnsgd1na2vs0mg"},{"bike_id":"ebba26c1-d972-435d-916e-842f076cbf3d","system_id":"levelo_inurba_marseille","lat":43.27955,"lon":5.38697,"is_reserved":false,"is_disabled":false,"rental_uris":{"android":"levelo://app?vid=ebba26c1-d972-435d-916e-842f076cbf3d","ios":"levelo://app?vid=ebba26c1-d972-435d-916e-842f076cbf3d"},"vehicle_type_id":"4","last_reported":1770190590,"current_range_meters":6800,"station_id":"ce4bhg12rcd13ifvqf80","pricing_plan_id":"cebpf4jnsgd1na2vs0mg"},{"bike_id":"d5d98457-3377-411c-bbd5-111f6add1380","system_id":"levelo_inurba_marseille","lat":43.25907,"lon":5.39432,"is_reserved":false,"is_disabled":false,"rental_uris":{"android":"levelo://app?vid=d5d98457-3377-411c-bbd5-111f6add1380","ios":"levelo://app?vid=d5d98457-3377-411c-bbd5-111f6add1380"},"vehicle_type_id":"4","last_reported":1770190590,"current_range_meters":6800,"station_id":"","pricing_plan_id":"cebpf4jnsgd1na2vs0mg"},{"bike_id":"c269eff6-7414-4fb8-b35a-8132e5c63b79","system_id":"levelo_inurba_marseille","lat":43.24998,"lon":5.38931,"is_reserved":false,"is_disabled":false,"rental_uris":{"android":"levelo://app?vid=c269eff6-7414-4fb8-b35a-8132e5c63b79","ios":"levelo://app?vid=c269eff6-7414-4fb8-b35a-8132e5c63b79"},"vehicle_type_id":"4","last_reported":1770190590,"current_range_meters":6800,"station_id":"ce4bhgp2rcd13ifvqfd0","pricing_plan_id":"cebpf4jnsgd1na2vs0mg"},{"bike_id":"988afa8e-d306-4003-baf9-728102144f56","system_id":"levelo_inurba_marseille","lat":43.26753,"lon":5.38326,"is_reserved":false,"is_disabled":false,"rental_uris":{"android":"levelo://app?vid=988afa8e-d306-4003-baf9-728102144f56","ios":"levelo://app?vid=988afa8e-d306-4003-baf9-728102144f56"},"vehicle_type_id":"4","last_reported":1770190590,"current_range_meters":7200,"station_id":"","pricing_plan_id":"cebpf4jnsgd1na2vs0mg"},{"bike_id":"e306f84e-f4a5-4da5-b221-959aa771268b","system_id":"levelo_inurba_marseille","lat":43.2407,"lon":5.37764,"is_reserved":false,"is_disabled":false,"rental_uris":{"android":"levelo://app?vid=e306f84e-f4a5-4da5-b221-959aa771268b","ios":"levelo://app?vid=e306f84e-f4a5-4da5-b221-959aa771268b"},"vehicle_type_id":"4","last_reported":1770190590,"current_range_meters":7200,"station_id":"ce4bhnp2rcd13ifvqgvg","pricing_plan_id":"cebpf4jnsgd1na2vs0mg"},{"bike_id":"1a0c4790-88aa-43f7-ad73-1d79fcd05302","system_id":"levelo_inurba_marseille","lat":43.26422,"lon":5.39037,"is_reserved":false,"is_disabled":false,"rental_uris":{"android":"levelo://app?vid=1a0c4790-88aa-43f7-ad73-1d79fcd05302","ios":"levelo://app?vid=1a0c4790-88aa-43f7-ad73-1d79fcd05302"},"vehicle_type_id":"4","last_reported":1770190590,"current_range_meters":7200,"station_id":"","pricing_plan_id":"cebpf4jnsgd1na2vs0mg"},{"bike_id":"30a564fc-cc84-4416-a8a0-217a2d812352","system_id":"levelo_inurba_marseille","lat":43.31701,"lon":5.40474,"is_reserved":false,"is_disabled":false,"rental_uris":{"android":"levelo://app?vid=30a564fc-cc84-4416-a8a0-217a2d812352","ios":"levelo://app?vid=30a564fc-cc84-4416-a8a0-217a2d812352"},"vehicle_type_id":"4","last_reported":1770190590,"current_range_meters":7200,"station_id":"ce4bh012rcd13ifvqd00","pricing_plan_id":"cebpf4jnsgd1na2vs0mg"},{"bike_id":"9d79ec10-3ed1-4035-8609-ff591e4f54d3","system_id":"levelo_inurba_marseille","lat":43.2557,"lon":5.38236,"is_reserved":false,"is_disabled":false,"rental_uris":{"android":"levelo://app?vid=9d79ec10-3ed1-4035-8609-ff591e4f54d3","ios":"levelo://app?vid=9d79ec10-3ed1-4035-8609-ff591e4f54d3"},"vehicle_type_id":"4","last_reported":1770190590,"current_range_meters":7200,"station_id":"ce4bhih2rcd13ifvqfs0","pricing_plan_id":"cebpf4jnsgd1na2vs0mg"},{"bike_id":"9a41c992-8ec6-4c5f-9787-da9fbb815a48","system_id":"levelo_inurba_marseille","lat":43.25551,"lon":5.38254,"is_reserved":false,"is_disabled":false,"rental_uris":{"android":"levelo://app?vid=9a41c992-8ec6-4c5f-9787-da9fbb815a48","ios":"levelo://app?vid=9a41c992-8ec6-4c5f-9787-da9fbb815a48"},"vehicle_type_id":"4","last_reported":1770190590,"current_range_meters":7200,"station_id":"ce4bhih2rcd13ifvqfs0","pricing_plan_id":"cebpf4jnsgd1na2vs0mg"},{"bike_id":"9b56e182-4134-4f9f-b48f-caf7dd28724d","system_id":"levelo_inurba_marseille","lat":43.28541,"lon":5.44111,"is_reserved":false,"is_disabled":false,"rental_uris":{"android":"levelo://app?vid=9b56e182-4134-4f9f-b48f-caf7dd28724d","ios":"levelo://app?vid=9b56e182-4134-4f9f-b48f-caf7dd28724d"},"vehicle_type_id":"4","last_reported":1770190590,"current_range_meters":7200,"station_id":"st_d3j3df2ikq2c7380ej80","pricing_plan_id":"cebpf4jnsgd1na2vs0mg"},{"bike_id":"7b2df10f-d97d-4068-9983-8f53d0a78517","system_id":"levelo_inurba_marseille","lat":43.28864,"lon":5.425336,"is_reserved":false,"is_disabled":false,"rental_uris":{"android":"levelo://app?vid=7b2df10f-d97d-4068-9983-8f53d0a78517","ios":"levelo://app?vid=7b2df10f-d97d-4068-9983-8f53d0a78517"},"vehicle_type_id":"4","last_reported":1770190590,"current_range_meters":7200,"station_id":"st_d3b462108ojc7389ooeg","pricing_plan_id":"cebpf4jnsgd1na2vs0mg"},{"bike_id":"b4959117-dde4-4349-ae80-78726090a6a9","system_id":"levelo_inurba_marseille","lat":43.28839,"lon":5.35823,"is_reserved":false,"is_disabled":false,"rental_uris":{"android":"levelo://app?vid=b4959117-dde4-4349-ae80-78726090a6a9","ios":"levelo://app?vid=b4959117-dde4-4349-ae80-78726090a6a9"},"vehicle_type_id":"4","last_reported":1770190590,"current_range_meters":7200,"station_id":"ce4bhb12rcd13ifvqem0","pricing_plan_id":"cebpf4jnsgd1na2vs0mg"},{"bike_id":"6af9c093-c8f8-4e82-9b76-84ead01f4f13","system_id":"levelo_inurba_marseille","lat":43.26562,"lon":5.40317,"is_reserved":false,"is_disabled":false,"rental_uris":{"android":"levelo://app?vid=6af9c093-c8f8-4e82-9b76-84ead01f4f13","ios":"levelo://app?vid=6af9c093-c8f8-4e82-9b76-84ead01f4f13"},"vehicle_type_id":"4","last_reported":1770190590,"current_range_meters":7200,"station_id":"ce4bhmp2rcd13ifvqgng","pricing_plan_id":"cebpf4jnsgd1na2vs0mg"},{"bike_id":"7999c078-c419-4cc8-a8dd-39d1ef479de7","system_id":"levelo_inurba_marseille","lat":43.26936,"lon":5.3865,"is_reserved":false,"is_disabled":false,"rental_uris":{"android":"levelo://app?vid=7999c078-c419-4cc8-a8dd-39d1ef479de7","ios":"levelo://app?vid=7999c078-c419-4cc8-a8dd-39d1ef479de7"},"vehicle_type_id":"4","last_reported":1770190590,"current_range_meters":7200,"station_id":"ce4bhh92rcd13ifvqfh0","pricing_plan_id":"cebpf4jnsgd1na2vs0mg"},{"bike_id":"8fb4838b-c5bd-4cb2-8c92-fceeea48a889","system_id":"levelo_inurba_marseille","lat":43.29546,"lon":5.4228,"is_reserved":false,"is_disabled":false,"rental_uris":{"android":"levelo://app?vid=8fb4838b-c5bd-4cb2-8c92-fceeea48a889","ios":"levelo://app?vid=8fb4838b-c5bd-4cb2-8c92-fceeea48a889"},"vehicle_type_id":"4","last_reported":1770190590,"current_range_meters":7200,"station_id":"ce4bhph2rcd13ifvqhdg","pricing_plan_id":"cebpf4jnsgd1na2vs0mg"},{"bike_id":"04ab4868-a773-4da8-b9a9-f5fedd6e47ae","system_id":"levelo_inurba_marseille","lat":43.25736,"lon":5.41124,"is_reserved":false,"is_disabled":false,"rental_uris":{"android":"levelo://app?vid=04ab4868-a773-4da8-b9a9-f5fedd6e47ae","ios":"levelo://app?vid=04ab4868-a773-4da8-b9a9-f5fedd6e47ae"},"vehicle_type_id":"4","last_reported":1770190590,"current_range_meters":7200,"station_id":"ce4bhkp2rcd13ifvqgd0","pricing_plan_id":"cebpf4jnsgd1na2vs0mg"},{"bike_id":"ef4aafd7-31d8-4f9b-97f1-b8af2e53c15d","system_id":"levelo_inurba_marseille","lat":43.29882,"lon":5.43658,"is_reserved":false,"is_disabled":false,"rental_uris":{"android":"levelo://app?vid=ef4aafd7-31d8-4f9b-97f1-b8af2e53c15d","ios":"levelo://app?vid=ef4aafd7-31d8-4f9b-97f1-b8af2e53c15d"},"vehicle_type_id":"4","last_reported":1770190590,"current_range_meters":7200,"station_id":"ce4bhpp2rcd13ifvqhfg","pricing_plan_id":"cebpf4jnsgd1na2vs0mg"},{"bike_id":"758f5dcd-9c21-4cea-9f03-8bf6f36aae52","system_id":"levelo_inurba_marseille","lat":43.29037,"lon":5.39962,"is_reserved":false,"is_disabled":false,"rental_uris":{"android":"levelo://app?vid=758f5dcd-9c21-4cea-9f03-8bf6f36aae52","ios":"levelo://app?vid=758f5dcd-9c21-4cea-9f03-8bf6f36aae52"},"vehicle_type_id":"4","last_reported":1770190590,"current_range_meters":7200,"station_id":"ce4bh392rcd13ifvqdm0","pricing_plan_id":"cebpf4jnsgd1na2vs0mg"},{"bike_id":"aa2256ac-d863-48b8-9941-f828dd93a588","system_id":"levelo_inurba_marseille","lat":43.29837,"lon":5.36269,"is_reserved":false,"is_disabled":false,"rental_uris":{"android":"levelo://app?vid=aa2256ac-d863-48b8-9941-f828dd93a588","ios":"levelo://app?vid=aa2256ac-d863-48b8-9941-f828dd93a588"},"vehicle_type_id":"4","last_reported":1770190590,"current_range_meters":7200,"station_id":"ce4bgpp2rcd13ifvqc3g","pricing_plan_id":"cebpf4jnsgd1na2vs0mg"},{"bike_id":"5e807b02-332e-4b72-9f71-9d692fc0e07f","system_id":"levelo_inurba_marseille","lat":43.32034,"lon":5.41539,"is_reserved":false,"is_disabled":false,"rental_uris":{"android":"levelo://app?vid=5e807b02-332e-4b72-9f71-9d692fc0e07f","ios":"levelo://app?vid=5e807b02-332e-4b72-9f71-9d692fc0e07f"},"vehicle_type_id":"4","last_reported":1770190590,"current_range_meters":7200,"station_id":"ce4bhq92rcd13ifvqhkg","pricing_plan_id":"cebpf4jnsgd1na2vs0mg"},{"bike_id":"5db40262-c973-4b13-b2a9-ee1639ccf6b3","system_id":"levelo_inurba_marseille","lat":43.24807,"lon":5.37458,"is_reserved":false,"is_disabled":false,"rental_uris":{"android":"levelo://app?vid=5db40262-c973-4b13-b2a9-ee1639ccf6b3","ios":"levelo://app?vid=5db40262-c973-4b13-b2a9-ee1639ccf6b3"},"vehicle_type_id":"4","last_reported":1770190590,"current_range_meters":8000,"station_id":"ce4bhgh2rcd13ifvqfb0","pricing_plan_id":"cebpf4jnsgd1na2vs0mg"},{"bike_id":"73b6626a-125d-4b63-8d66-3e6a9851d390","system_id":"levelo_inurba_marseille","lat":43.22564,"lon":5.41626,"is_reserved":false,"is_disabled":false,"rental_uris":{"android":"levelo://app?vid=73b6626a-125d-4b63-8d66-3e6a9851d390","ios":"levelo://app?vid=73b6626a-125d-4b63-8d66-3e6a9851d390"},"vehicle_type_id":"4","last_reported":1770190590,"current_range_meters":8000,"station_id":"st_d2o4gvlbi1j2169b742g","pricing_plan_id":"cebpf4jnsgd1na2vs0mg"},{"bike_id":"3c99789b-6c82-4ce6-99da-375aef3d9931","system_id":"levelo_inurba_marseille","lat":43.32645,"lon":5.40982,"is_reserved":false,"is_disabled":false,"rental_uris":{"android":"levelo://app?vid=3c99789b-6c82-4ce6-99da-375aef3d9931","ios":"levelo://app?vid=3c99789b-6c82-4ce6-99da-375aef3d9931"},"vehicle_type_id":"4","last_reported":1770190590,"current_range_meters":8000,"station_id":"ce4bhpp2rcd13ifvqhgg","pricing_plan_id":"cebpf4jnsgd1na2vs0mg"},{"bike_id":"f33f4c4d-abc5-448a-b712-14c3307b8770","system_id":"levelo_inurba_marseille","lat":43.31218,"lon":5.36874,"is_reserved":false,"is_disabled":true,"rental_uris":{"android":"levelo://app?vid=f33f4c4d-abc5-448a-b712-14c3307b8770","ios":"levelo://app?vid=f33f4c4d-abc5-448a-b712-14c3307b8770"},"vehicle_type_id":"4","last_reported":1770190590,"current_range_meters":8000,"station_id":"ce4bgl92rcd13ifvqbq0","pricing_plan_id":"cebpf4jnsgd1na2vs0mg"},{"bike_id":"1b876b25-6b22-4962-82d4-862e433d9f63","system_id":"levelo_inurba_marseille","lat":43.28673,"lon":5.38686,"is_reserved":false,"is_disabled":true,"rental_uris":{"android":"levelo://app?vid=1b876b25-6b22-4962-82d4-862e433d9f63","ios":"levelo://app?vid=1b876b25-6b22-4962-82d4-862e433d9f63"},"vehicle_type_id":"4","last_reported":1770190590,"current_range_meters":8000,"station_id":"ce4bh492rcd13ifvqdug","pricing_plan_id":"cebpf4jnsgd1na2vs0mg"},{"bike_id":"8e2f4441-d4a9-421a-863a-8c4e85979fa3","system_id":"levelo_inurba_marseille","lat":43.28552,"lon":5.35141,"is_reserved":false,"is_disabled":false,"rental_uris":{"android":"levelo://app?vid=8e2f4441-d4a9-421a-863a-8c4e85979fa3","ios":"levelo://app?vid=8e2f4441-d4a9-421a-863a-8c4e85979fa3"},"vehicle_type_id":"4","last_reported":1770190590,"current_range_meters":8000,"station_id":"ce4bhch2rcd13ifvqeug","pricing_plan_id":"cebpf4jnsgd1na2vs0mg"},{"bike_id":"68b12eb7-cbac-4d21-9d68-9311fe198434","system_id":"levelo_inurba_marseille","lat":43.29014,"lon":5.38651,"is_reserved":false,"is_disabled":true,"rental_uris":{"android":"levelo://app?vid=68b12eb7-cbac-4d21-9d68-9311fe198434","ios":"levelo://app?vid=68b12eb7-cbac-4d21-9d68-9311fe198434"},"vehicle_type_id":"4","last_reported":1770190590,"current_range_meters":8000,"station_id":"ce4bh4p2rcd13ifvqe0g","pricing_plan_id":"cebpf4jnsgd1na2vs0mg"},{"bike_id":"f8c22a06-2c62-42d7-9468-3ee1c5f4d980","system_id":"levelo_inurba_marseille","lat":43.24066,"lon":5.3773,"is_reserved":false,"is_disabled":false,"rental_uris":{"android":"levelo://app?vid=f8c22a06-2c62-42d7-9468-3ee1c5f4d980","ios":"levelo://app?vid=f8c22a06-2c62-42d7-9468-3ee1c5f4d980"},"vehicle_type_id":"4","last_reported":1770190590,"current_range_meters":8000,"station_id":"ce4bhnp2rcd13ifvqgvg","pricing_plan_id":"cebpf4jnsgd1na2vs0mg"},{"bike_id":"dbeef5c7-4028-4d99-a76c-21cebff9483e","system_id":"levelo_inurba_marseille","lat":43.33526,"lon":5.37471,"is_reserved":false,"is_disabled":false,"rental_uris":{"android":"levelo://app?vid=dbeef5c7-4028-4d99-a76c-21cebff9483e","ios":"levelo://app?vid=dbeef5c7-4028-4d99-a76c-21cebff9483e"},"vehicle_type_id":"4","last_reported":1770190590,"current_range_meters":8000,"station_id":"st_d46tts09ee8s73dlu43g","pricing_plan_id":"cebpf4jnsgd1na2vs0mg"},{"bike_id":"b420895b-0efa-4e27-b05b-8564aace2dfd","system_id":"levelo_inurba_marseille","lat":43.28626,"lon":5.35125,"is_reserved":false,"is_disabled":false,"rental_uris":{"android":"levelo://app?vid=b420895b-0efa-4e27-b05b-8564aace2dfd","ios":"levelo://app?vid=b420895b-0efa-4e27-b05b-8564aace2dfd"},"vehicle_type_id":"4","last_reported":1770190590,"current_range_meters":8000,"station_id":"ce4bhch2rcd13ifvqeug","pricing_plan_id":"cebpf4jnsgd1na2vs0mg"},{"bike_id":"425b6705-005a-49d5-9d47-e6a239d20f8c","system_id":"levelo_inurba_marseille","lat":43.26559,"lon":5.37297,"is_reserved":false,"is_disabled":false,"rental_uris":{"android":"levelo://app?vid=425b6705-005a-49d5-9d47-e6a239d20f8c","ios":"levelo://app?vid=425b6705-005a-49d5-9d47-e6a239d20f8c"},"vehicle_type_id":"4","last_reported":1770190590,"current_range_meters":8000,"station_id":"ce4bhg12rcd13ifvqf70","pricing_plan_id":"cebpf4jnsgd1na2vs0mg"},{"bike_id":"accb8c02-c051-4487-8a31-ace5e51dcf21","system_id":"levelo_inurba_marseille","lat":43.30532,"lon":5.3671,"is_reserved":false,"is_disabled":false,"rental_uris":{"android":"levelo://app?vid=accb8c02-c051-4487-8a31-ace5e51dcf21","ios":"levelo://app?vid=accb8c02-c051-4487-8a31-ace5e51dcf21"},"vehicle_type_id":"4","last_reported":1770190590,"current_range_meters":8000,"station_id":"ce4bgrp2rcd13ifvqc9g","pricing_plan_id":"cebpf4jnsgd1na2vs0mg"},{"bike_id":"3e5887c0-fa1d-4fbc-90fe-a5d260d18a33","system_id":"levelo_inurba_marseille","lat":43.23398,"lon":5.41277,"is_reserved":false,"is_disabled":false,"rental_uris":{"android":"levelo://app?vid=3e5887c0-fa1d-4fbc-90fe-a5d260d18a33","ios":"levelo://app?vid=3e5887c0-fa1d-4fbc-90fe-a5d260d18a33"},"vehicle_type_id":"4","last_reported":1770190590,"current_range_meters":8000,"station_id":"","pricing_plan_id":"cebpf4jnsgd1na2vs0mg"},{"bike_id":"5ffc162c-3876-4a49-af02-3661f44effbb","system_id":"levelo_inurba_marseille","lat":43.28468,"lon":5.4843,"is_reserved":false,"is_disabled":false,"rental_uris":{"android":"levelo://app?vid=5ffc162c-3876-4a49-af02-3661f44effbb","ios":"levelo://app?vid=5ffc162c-3876-4a49-af02-3661f44effbb"},"vehicle_type_id":"4","last_reported":1770190590,"current_range_meters":8000,"station_id":"st_d3svhcjqgbts73a3dn0g","pricing_plan_id":"cebpf4jnsgd1na2vs0mg"},{"bike_id":"6be43c1f-db2c-43c9-a648-234cc72c5193","system_id":"levelo_inurba_marseille","lat":43.31548,"lon":5.40675,"is_reserved":false,"is_disabled":false,"rental_uris":{"android":"levelo://app?vid=6be43c1f-db2c-43c9-a648-234cc72c5193","ios":"levelo://app?vid=6be43c1f-db2c-43c9-a648-234cc72c5193"},"vehicle_type_id":"4","last_reported":1770190590,"current_range_meters":8000,"station_id":"","pricing_plan_id":"cebpf4jnsgd1na2vs0mg"},{"bike_id":"f57600aa-3553-4c5b-8eb9-2131032f6811","system_id":"levelo_inurba_marseille","lat":43.282202,"lon":5.390631,"is_reserved":false,"is_disabled":true,"rental_uris":{"android":"levelo://app?vid=f57600aa-3553-4c5b-8eb9-2131032f6811","ios":"levelo://app?vid=f57600aa-3553-4c5b-8eb9-2131032f6811"},"vehicle_type_id":"4","last_reported":1770190590,"current_range_meters":8000,"station_id":"ce4bhn92rcd13ifvqgsg","pricing_plan_id":"cebpf4jnsgd1na2vs0mg"},{"bike_id":"9438ade5-ce17-4668-a146-5805485616f4","system_id":"levelo_inurba_marseille","lat":43.31711,"lon":5.42415,"is_reserved":false,"is_disabled":false,"rental_uris":{"android":"levelo://app?vid=9438ade5-ce17-4668-a146-5805485616f4","ios":"levelo://app?vid=9438ade5-ce17-4668-a146-5805485616f4"},"vehicle_type_id":"4","last_reported":1770190590,"current_range_meters":8400,"station_id":"ce4bhp92rcd13ifvqhbg","pricing_plan_id":"cebpf4jnsgd1na2vs0mg"},{"bike_id":"626974d3-ace9-41dd-9dbe-f4621ca953aa","system_id":"levelo_inurba_marseille","lat":43.29442,"lon":5.40972,"is_reserved":false,"is_disabled":false,"rental_uris":{"android":"levelo://app?vid=626974d3-ace9-41dd-9dbe-f4621ca953aa","ios":"levelo://app?vid=626974d3-ace9-41dd-9dbe-f4621ca953aa"},"vehicle_type_id":"4","last_reported":1770190590,"current_range_meters":8400,"station_id":"","pricing_plan_id":"cebpf4jnsgd1na2vs0mg"},{"bike_id":"9e39f06a-5187-4721-8520-99f35d6327aa","system_id":"levelo_inurba_marseille","lat":43.30606,"lon":5.372014,"is_reserved":false,"is_disabled":false,"rental_uris":{"android":"levelo://app?vid=9e39f06a-5187-4721-8520-99f35d6327aa","ios":"levelo://app?vid=9e39f06a-5187-4721-8520-99f35d6327aa"},"vehicle_type_id":"4","last_reported":1770190590,"current_range_meters":8400,"station_id":"ce4bgqh2rcd13ifvqc4g","pricing_plan_id":"cebpf4jnsgd1na2vs0mg"},{"bike_id":"7ab80b7e-a203-442c-b352-62055b06df4d","system_id":"levelo_inurba_marseille","lat":43.31032,"lon":5.37182,"is_reserved":false,"is_disabled":false,"rental_uris":{"android":"levelo://app?vid=7ab80b7e-a203-442c-b352-62055b06df4d","ios":"levelo://app?vid=7ab80b7e-a203-442c-b352-62055b06df4d"},"vehicle_type_id":"4","last_reported":1770190590,"current_range_meters":8400,"station_id":"st_d4kl2rp97mjs73e7tdfg","pricing_plan_id":"cebpf4jnsgd1na2vs0mg"},{"bike_id":"61c4cbe2-eed4-41e6-a6ff-be907a5d72ed","system_id":"levelo_inurba_marseille","lat":43.24995,"lon":5.38939,"is_reserved":false,"is_disabled":false,"rental_uris":{"android":"levelo://app?vid=61c4cbe2-eed4-41e6-a6ff-be907a5d72ed","ios":"levelo://app?vid=61c4cbe2-eed4-41e6-a6ff-be907a5d72ed"},"vehicle_type_id":"4","last_reported":1770190590,"current_range_meters":8400,"station_id":"ce4bhgp2rcd13ifvqfd0","pricing_plan_id":"cebpf4jnsgd1na2vs0mg"},{"bike_id":"6db922d0-a066-49c9-8c98-476035aaa96d","system_id":"levelo_inurba_marseille","lat":43.2928,"lon":5.37998,"is_reserved":false,"is_disabled":false,"rental_uris":{"android":"levelo://app?vid=6db922d0-a066-49c9-8c98-476035aaa96d","ios":"levelo://app?vid=6db922d0-a066-49c9-8c98-476035aaa96d"},"vehicle_type_id":"4","last_reported":1770190590,"current_range_meters":8400,"station_id":"","pricing_plan_id":"cebpf4jnsgd1na2vs0mg"},{"bike_id":"00caf871-d060-428c-ac0e-50b1b6f0a41f","system_id":"levelo_inurba_marseille","lat":43.29527,"lon":5.38545,"is_reserved":false,"is_disabled":false,"rental_uris":{"android":"levelo://app?vid=00caf871-d060-428c-ac0e-50b1b6f0a41f","ios":"levelo://app?vid=00caf871-d060-428c-ac0e-50b1b6f0a41f"},"vehicle_type_id":"4","last_reported":1770190590,"current_range_meters":8400,"station_id":"ce4bgih2rcd13ifvqba0","pricing_plan_id":"cebpf4jnsgd1na2vs0mg"},{"bike_id":"5161d449-7be3-43a5-9b1a-278ec962ecdc","system_id":"levelo_inurba_marseille","lat":43.24668,"lon":5.38165,"is_reserved":false,"is_disabled":false,"rental_uris":{"android":"levelo://app?vid=5161d449-7be3-43a5-9b1a-278ec962ecdc","ios":"levelo://app?vid=5161d449-7be3-43a5-9b1a-278ec962ecdc"},"vehicle_type_id":"4","last_reported":1770190590,"current_range_meters":8400,"station_id":"ce4bhih2rcd13ifvqfr0","pricing_plan_id":"cebpf4jnsgd1na2vs0mg"},{"bike_id":"708d8107-a502-4715-8ee8-97e259938ef7","system_id":"levelo_inurba_marseille","lat":43.24157,"lon":5.36398,"is_reserved":false,"is_disabled":false,"rental_uris":{"android":"levelo://app?vid=708d8107-a502-4715-8ee8-97e259938ef7","ios":"levelo://app?vid=708d8107-a502-4715-8ee8-97e259938ef7"},"vehicle_type_id":"4","last_reported":1770190590,"current_range_meters":8400,"station_id":"cpo36qri1sfpv3e86is0","pricing_plan_id":"cebpf4jnsgd1na2vs0mg"},{"bike_id":"7c65d8a4-3bb8-4534-9506-49fc01052868","system_id":"levelo_inurba_marseille","lat":43.29627,"lon":5.38022,"is_reserved":false,"is_disabled":false,"rental_uris":{"android":"levelo://app?vid=7c65d8a4-3bb8-4534-9506-49fc01052868","ios":"levelo://app?vid=7c65d8a4-3bb8-4534-9506-49fc01052868"},"vehicle_type_id":"4","last_reported":1770190590,"current_range_meters":8400,"station_id":"ce4bgl12rcd13ifvqbo0","pricing_plan_id":"cebpf4jnsgd1na2vs0mg"},{"bike_id":"605a645e-761d-4a85-acd6-fe955761eefa","system_id":"levelo_inurba_marseille","lat":43.29587,"lon":5.38391,"is_reserved":false,"is_disabled":false,"rental_uris":{"android":"levelo://app?vid=605a645e-761d-4a85-acd6-fe955761eefa","ios":"levelo://app?vid=605a645e-761d-4a85-acd6-fe955761eefa"},"vehicle_type_id":"4","last_reported":1770190590,"current_range_meters":8400,"station_id":"","pricing_plan_id":"cebpf4jnsgd1na2vs0mg"},{"bike_id":"88810ee2-b0e0-4fac-8c89-e19581fecd66","system_id":"levelo_inurba_marseille","lat":43.29301,"lon":5.37468,"is_reserved":false,"is_disabled":false,"rental_uris":{"android":"levelo://app?vid=88810ee2-b0e0-4fac-8c89-e19581fecd66","ios":"levelo://app?vid=88810ee2-b0e0-4fac-8c89-e19581fecd66"},"vehicle_type_id":"4","last_reported":1770190590,"current_range_meters":8400,"station_id":"ce4bgi12rcd13ifvqb70","pricing_plan_id":"cebpf4jnsgd1na2vs0mg"},{"bike_id":"97259061-f08f-497c-ad93-5a24dc67386d","system_id":"levelo_inurba_marseille","lat":43.29932,"lon":5.36534,"is_reserved":false,"is_disabled":false,"rental_uris":{"android":"levelo://app?vid=97259061-f08f-497c-ad93-5a24dc67386d","ios":"levelo://app?vid=97259061-f08f-497c-ad93-5a24dc67386d"},"vehicle_type_id":"4","last_reported":1770190590,"current_range_meters":8400,"station_id":"ce4bgm92rcd13ifvqbr0","pricing_plan_id":"cebpf4jnsgd1na2vs0mg"},{"bike_id":"b4cfbf57-a93e-425f-a941-524ddb09395b","system_id":"levelo_inurba_marseille","lat":43.240752,"lon":5.377545,"is_reserved":false,"is_disabled":false,"rental_uris":{"android":"levelo://app?vid=b4cfbf57-a93e-425f-a941-524ddb09395b","ios":"levelo://app?vid=b4cfbf57-a93e-425f-a941-524ddb09395b"},"vehicle_type_id":"4","last_reported":1770190590,"current_range_meters":8400,"station_id":"ce4bhnp2rcd13ifvqgvg","pricing_plan_id":"cebpf4jnsgd1na2vs0mg"},{"bike_id":"860be1dd-4230-44a6-8544-02714a801b33","system_id":"levelo_inurba_marseille","lat":43.2749,"lon":5.424623,"is_reserved":false,"is_disabled":false,"rental_uris":{"android":"levelo://app?vid=860be1dd-4230-44a6-8544-02714a801b33","ios":"levelo://app?vid=860be1dd-4230-44a6-8544-02714a801b33"},"vehicle_type_id":"4","last_reported":1770190590,"current_range_meters":8400,"station_id":"ce4bhn92rcd13ifvqgrg","pricing_plan_id":"cebpf4jnsgd1na2vs0mg"},{"bike_id":"896abb6d-730f-4936-89dd-69c91d64aca6","system_id":"levelo_inurba_marseille","lat":43.29568,"lon":5.37507,"is_reserved":false,"is_disabled":false,"rental_uris":{"android":"levelo://app?vid=896abb6d-730f-4936-89dd-69c91d64aca6","ios":"levelo://app?vid=896abb6d-730f-4936-89dd-69c91d64aca6"},"vehicle_type_id":"4","last_reported":1770190590,"current_range_meters":8400,"station_id":"ce4bgh92rcd13ifvqb50","pricing_plan_id":"cebpf4jnsgd1na2vs0mg"},{"bike_id":"da4d19a5-63fa-471e-bc87-bb23db14643b","system_id":"levelo_inurba_marseille","lat":43.29547,"lon":5.42509,"is_reserved":false,"is_disabled":false,"rental_uris":{"android":"levelo://app?vid=da4d19a5-63fa-471e-bc87-bb23db14643b","ios":"levelo://app?vid=da4d19a5-63fa-471e-bc87-bb23db14643b"},"vehicle_type_id":"4","last_reported":1770190590,"current_range_meters":8400,"station_id":"","pricing_plan_id":"cebpf4jnsgd1na2vs0mg"},{"bike_id":"809dfd22-afa1-4754-8327-1cac66519aa2","system_id":"levelo_inurba_marseille","lat":43.28274,"lon":5.35066,"is_reserved":false,"is_disabled":true,"rental_uris":{"android":"levelo://app?vid=809dfd22-afa1-4754-8327-1cac66519aa2","ios":"levelo://app?vid=809dfd22-afa1-4754-8327-1cac66519aa2"},"vehicle_type_id":"4","last_reported":1770190590,"current_range_meters":8400,"station_id":"ce4bhbp2rcd13ifvqerg","pricing_plan_id":"cebpf4jnsgd1na2vs0mg"},{"bike_id":"a5c1703c-0b2d-4e6b-b820-25e716f1e211","system_id":"levelo_inurba_marseille","lat":43.28481,"lon":5.48394,"is_reserved":false,"is_disabled":false,"rental_uris":{"android":"levelo://app?vid=a5c1703c-0b2d-4e6b-b820-25e716f1e211","ios":"levelo://app?vid=a5c1703c-0b2d-4e6b-b820-25e716f1e211"},"vehicle_type_id":"4","last_reported":1770190590,"current_range_meters":8400,"station_id":"st_d3svhcjqgbts73a3dn0g","pricing_plan_id":"cebpf4jnsgd1na2vs0mg"},{"bike_id":"a2d20eba-b11c-4a10-8201-1f672b69f4a3","system_id":"levelo_inurba_marseille","lat":43.3108,"lon":5.38372,"is_reserved":false,"is_disabled":false,"rental_uris":{"android":"levelo://app?vid=a2d20eba-b11c-4a10-8201-1f672b69f4a3","ios":"levelo://app?vid=a2d20eba-b11c-4a10-8201-1f672b69f4a3"},"vehicle_type_id":"4","last_reported":1770190590,"current_range_meters":8800,"station_id":"ce4bgv92rcd13ifvqcr0","pricing_plan_id":"cebpf4jnsgd1na2vs0mg"},{"bike_id":"c792842a-7b0f-4b1e-b3b1-03c063f1666e","system_id":"levelo_inurba_marseille","lat":43.30969,"lon":5.39045,"is_reserved":false,"is_disabled":true,"rental_uris":{"android":"levelo://app?vid=c792842a-7b0f-4b1e-b3b1-03c063f1666e","ios":"levelo://app?vid=c792842a-7b0f-4b1e-b3b1-03c063f1666e"},"vehicle_type_id":"4","last_reported":1770190590,"current_range_meters":8800,"station_id":"ce4bgup2rcd13ifvqco0","pricing_plan_id":"cebpf4jnsgd1na2vs0mg"},{"bike_id":"31a22661-eea5-4387-90b0-8b86565c6826","system_id":"levelo_inurba_marseille","lat":43.29689,"lon":5.36631,"is_reserved":false,"is_disabled":false,"rental_uris":{"android":"levelo://app?vid=31a22661-eea5-4387-90b0-8b86565c6826","ios":"levelo://app?vid=31a22661-eea5-4387-90b0-8b86565c6826"},"vehicle_type_id":"4","last_reported":1770190590,"current_range_meters":8800,"station_id":"ce4bgn12rcd13ifvqbt0","pricing_plan_id":"cebpf4jnsgd1na2vs0mg"},{"bike_id":"85f809a7-4937-473c-b5d3-364e2bce9de9","system_id":"levelo_inurba_marseille","lat":43.299,"lon":5.43672,"is_reserved":false,"is_disabled":false,"rental_uris":{"android":"levelo://app?vid=85f809a7-4937-473c-b5d3-364e2bce9de9","ios":"levelo://app?vid=85f809a7-4937-473c-b5d3-364e2bce9de9"},"vehicle_type_id":"4","last_reported":1770190590,"current_range_meters":8800,"station_id":"ce4bhpp2rcd13ifvqhfg","pricing_plan_id":"cebpf4jnsgd1na2vs0mg"},{"bike_id":"6ea1d326-6eb6-428c-98d2-fdd14ece0720","system_id":"levelo_inurba_marseille","lat":43.24663,"lon":5.38168,"is_reserved":false,"is_disabled":false,"rental_uris":{"android":"levelo://app?vid=6ea1d326-6eb6-428c-98d2-fdd14ece0720","ios":"levelo://app?vid=6ea1d326-6eb6-428c-98d2-fdd14ece0720"},"vehicle_type_id":"4","last_reported":1770190590,"current_range_meters":8800,"station_id":"ce4bhih2rcd13ifvqfr0","pricing_plan_id":"cebpf4jnsgd1na2vs0mg"},{"bike_id":"91c21601-5efe-4644-9a24-675b91c6816e","system_id":"levelo_inurba_marseille","lat":43.24645,"lon":5.38898,"is_reserved":false,"is_disabled":false,"rental_uris":{"android":"levelo://app?vid=91c21601-5efe-4644-9a24-675b91c6816e","ios":"levelo://app?vid=91c21601-5efe-4644-9a24-675b91c6816e"},"vehicle_type_id":"4","last_reported":1770190590,"current_range_meters":8800,"station_id":"ce4bhg12rcd13ifvqf60","pricing_plan_id":"cebpf4jnsgd1na2vs0mg"},{"bike_id":"38b03880-e66b-4b95-b637-939655c58052","system_id":"levelo_inurba_marseille","lat":43.255373,"lon":5.416848,"is_reserved":false,"is_disabled":false,"rental_uris":{"android":"levelo://app?vid=38b03880-e66b-4b95-b637-939655c58052","ios":"levelo://app?vid=38b03880-e66b-4b95-b637-939655c58052"},"vehicle_type_id":"4","last_reported":1770190590,"current_range_meters":8800,"station_id":"","pricing_plan_id":"cebpf4jnsgd1na2vs0mg"},{"bike_id":"ebbfd063-58fd-4307-a838-fa90eb146640","system_id":"levelo_inurba_marseille","lat":43.29456,"lon":5.39728,"is_reserved":false,"is_disabled":false,"rental_uris":{"android":"levelo://app?vid=ebbfd063-58fd-4307-a838-fa90eb146640","ios":"levelo://app?vid=ebbfd063-58fd-4307-a838-fa90eb146640"},"vehicle_type_id":"4","last_reported":1770190590,"current_range_meters":8800,"station_id":"ce4bh3h2rcd13ifvqdo0","pricing_plan_id":"cebpf4jnsgd1na2vs0mg"},{"bike_id":"d72c8d0b-6864-4eb2-b074-4484e5b3c2c1","system_id":"levelo_inurba_marseille","lat":43.28475,"lon":5.48395,"is_reserved":false,"is_disabled":false,"rental_uris":{"android":"levelo://app?vid=d72c8d0b-6864-4eb2-b074-4484e5b3c2c1","ios":"levelo://app?vid=d72c8d0b-6864-4eb2-b074-4484e5b3c2c1"},"vehicle_type_id":"4","last_reported":1770190590,"current_range_meters":8800,"station_id":"st_d3svhcjqgbts73a3dn0g","pricing_plan_id":"cebpf4jnsgd1na2vs0mg"},{"bike_id":"4579b338-5060-422e-b270-d368c9f0f2b7","system_id":"levelo_inurba_marseille","lat":43.30785,"lon":5.38163,"is_reserved":false,"is_disabled":false,"rental_uris":{"android":"levelo://app?vid=4579b338-5060-422e-b270-d368c9f0f2b7","ios":"levelo://app?vid=4579b338-5060-422e-b270-d368c9f0f2b7"},"vehicle_type_id":"4","last_reported":1770190590,"current_range_meters":8800,"station_id":"ce4bgt12rcd13ifvqce0","pricing_plan_id":"cebpf4jnsgd1na2vs0mg"},{"bike_id":"1643c16f-732f-480d-bbd4-9ce2438a469f","system_id":"levelo_inurba_marseille","lat":43.30543,"lon":5.38439,"is_reserved":false,"is_disabled":true,"rental_uris":{"android":"levelo://app?vid=1643c16f-732f-480d-bbd4-9ce2438a469f","ios":"levelo://app?vid=1643c16f-732f-480d-bbd4-9ce2438a469f"},"vehicle_type_id":"4","last_reported":1770190590,"current_range_meters":8800,"station_id":"ce4bgg92rcd13ifvqb30","pricing_plan_id":"cebpf4jnsgd1na2vs0mg"},{"bike_id":"2dd8cab3-19da-46fd-8cda-b2a3e690cfba","system_id":"levelo_inurba_marseille","lat":43.22908,"lon":5.3541,"is_reserved":false,"is_disabled":false,"rental_uris":{"android":"levelo://app?vid=2dd8cab3-19da-46fd-8cda-b2a3e690cfba","ios":"levelo://app?vid=2dd8cab3-19da-46fd-8cda-b2a3e690cfba"},"vehicle_type_id":"4","last_reported":1770190590,"current_range_meters":8800,"station_id":"cpo3532slgdg3j2ikp40","pricing_plan_id":"cebpf4jnsgd1na2vs0mg"},{"bike_id":"ae31df1c-c3f6-4879-abd7-99d899c9ca05","system_id":"levelo_inurba_marseille","lat":43.31111,"lon":5.38485,"is_reserved":false,"is_disabled":false,"rental_uris":{"android":"levelo://app?vid=ae31df1c-c3f6-4879-abd7-99d899c9ca05","ios":"levelo://app?vid=ae31df1c-c3f6-4879-abd7-99d899c9ca05"},"vehicle_type_id":"4","last_reported":1770190590,"current_range_meters":8800,"station_id":"","pricing_plan_id":"cebpf4jnsgd1na2vs0mg"},{"bike_id":"ef64cb18-c8a8-4251-87f8-703e259c4330","system_id":"levelo_inurba_marseille","lat":43.47654,"lon":5.48969,"is_reserved":false,"is_disabled":false,"rental_uris":{"android":"levelo://app?vid=ef64cb18-c8a8-4251-87f8-703e259c4330","ios":"levelo://app?vid=ef64cb18-c8a8-4251-87f8-703e259c4330"},"vehicle_type_id":"4","last_reported":1770190590,"current_range_meters":8800,"station_id":"","pricing_plan_id":"cebpf4jnsgd1na2vs0mg"},{"bike_id":"e55375b7-3afd-47f8-a340-f83f485617be","system_id":"levelo_inurba_marseille","lat":43.29933,"lon":5.36545,"is_reserved":false,"is_disabled":false,"rental_uris":{"android":"levelo://app?vid=e55375b7-3afd-47f8-a340-f83f485617be","ios":"levelo://app?vid=e55375b7-3afd-47f8-a340-f83f485617be"},"vehicle_type_id":"4","last_reported":1770190590,"current_range_meters":8800,"station_id":"ce4bgm92rcd13ifvqbr0","pricing_plan_id":"cebpf4jnsgd1na2vs0mg"},{"bike_id":"6b2f8803-9c28-4df8-a226-517617e199e5","system_id":"levelo_inurba_marseille","lat":43.27989,"lon":5.41675,"is_reserved":false,"is_disabled":false,"rental_uris":{"android":"levelo://app?vid=6b2f8803-9c28-4df8-a226-517617e199e5","ios":"levelo://app?vid=6b2f8803-9c28-4df8-a226-517617e199e5"},"vehicle_type_id":"4","last_reported":1770190590,"current_range_meters":9200,"station_id":"ce4bho12rcd13ifvqh1g","pricing_plan_id":"cebpf4jnsgd1na2vs0mg"},{"bike_id":"1794fc4b-f1e9-4439-acd6-7a3c137a2b38","system_id":"levelo_inurba_marseille","lat":43.23784,"lon":5.36666,"is_reserved":false,"is_disabled":false,"rental_uris":{"android":"levelo://app?vid=1794fc4b-f1e9-4439-acd6-7a3c137a2b38","ios":"levelo://app?vid=1794fc4b-f1e9-4439-acd6-7a3c137a2b38"},"vehicle_type_id":"4","last_reported":1770190590,"current_range_meters":9200,"station_id":"st_d3nk18o9ro0c73en2l3g","pricing_plan_id":"cebpf4jnsgd1na2vs0mg"},{"bike_id":"2591904e-06ba-41fc-9be8-a05710181037","system_id":"levelo_inurba_marseille","lat":43.29877,"lon":5.38919,"is_reserved":false,"is_disabled":false,"rental_uris":{"android":"levelo://app?vid=2591904e-06ba-41fc-9be8-a05710181037","ios":"levelo://app?vid=2591904e-06ba-41fc-9be8-a05710181037"},"vehicle_type_id":"4","last_reported":1770190590,"current_range_meters":9200,"station_id":"ce4bh392rcd13ifvqdl0","pricing_plan_id":"cebpf4jnsgd1na2vs0mg"},{"bike_id":"e0273df0-72b9-442b-b91e-2c1520fdaec1","system_id":"levelo_inurba_marseille","lat":43.292301,"lon":5.376474,"is_reserved":false,"is_disabled":false,"rental_uris":{"android":"levelo://app?vid=e0273df0-72b9-442b-b91e-2c1520fdaec1","ios":"levelo://app?vid=e0273df0-72b9-442b-b91e-2c1520fdaec1"},"vehicle_type_id":"4","last_reported":1770190590,"current_range_meters":9200,"station_id":"ce4bgi12rcd13ifvqb80","pricing_plan_id":"cebpf4jnsgd1na2vs0mg"},{"bike_id":"8e7f7dcc-7fc1-4fa3-8f7a-9b4596de5459","system_id":"levelo_inurba_marseille","lat":43.28454,"lon":5.35892,"is_reserved":false,"is_disabled":true,"rental_uris":{"android":"levelo://app?vid=8e7f7dcc-7fc1-4fa3-8f7a-9b4596de5459","ios":"levelo://app?vid=8e7f7dcc-7fc1-4fa3-8f7a-9b4596de5459"},"vehicle_type_id":"4","last_reported":1770190590,"current_range_meters":9200,"station_id":"ce4bhah2rcd13ifvqei0","pricing_plan_id":"cebpf4jnsgd1na2vs0mg"},{"bike_id":"941d0b03-9ae1-4106-9296-775ca1406222","system_id":"levelo_inurba_marseille","lat":43.28298,"lon":5.42421,"is_reserved":false,"is_disabled":false,"rental_uris":{"android":"levelo://app?vid=941d0b03-9ae1-4106-9296-775ca1406222","ios":"levelo://app?vid=941d0b03-9ae1-4106-9296-775ca1406222"},"vehicle_type_id":"4","last_reported":1770190590,"current_range_meters":9200,"station_id":"","pricing_plan_id":"cebpf4jnsgd1na2vs0mg"},{"bike_id":"8565b715-b328-42ac-a521-214aed9a02f1","system_id":"levelo_inurba_marseille","lat":43.24075,"lon":5.377602,"is_reserved":false,"is_disabled":false,"rental_uris":{"android":"levelo://app?vid=8565b715-b328-42ac-a521-214aed9a02f1","ios":"levelo://app?vid=8565b715-b328-42ac-a521-214aed9a02f1"},"vehicle_type_id":"4","last_reported":1770190590,"current_range_meters":9200,"station_id":"ce4bhnp2rcd13ifvqgvg","pricing_plan_id":"cebpf4jnsgd1na2vs0mg"},{"bike_id":"8e8bb48b-6c0d-4b22-92d1-f9f841f8c712","system_id":"levelo_inurba_marseille","lat":43.25572,"lon":5.38227,"is_reserved":false,"is_disabled":false,"rental_uris":{"android":"levelo://app?vid=8e8bb48b-6c0d-4b22-92d1-f9f841f8c712","ios":"levelo://app?vid=8e8bb48b-6c0d-4b22-92d1-f9f841f8c712"},"vehicle_type_id":"4","last_reported":1770190590,"current_range_meters":9200,"station_id":"ce4bhih2rcd13ifvqfs0","pricing_plan_id":"cebpf4jnsgd1na2vs0mg"},{"bike_id":"1fcc3065-5585-4a97-beb5-b244cde0b270","system_id":"levelo_inurba_marseille","lat":43.290027,"lon":5.3814,"is_reserved":false,"is_disabled":false,"rental_uris":{"android":"levelo://app?vid=1fcc3065-5585-4a97-beb5-b244cde0b270","ios":"levelo://app?vid=1fcc3065-5585-4a97-beb5-b244cde0b270"},"vehicle_type_id":"4","last_reported":1770190590,"current_range_meters":9200,"station_id":"ce4bh4p2rcd13ifvqe1g","pricing_plan_id":"cebpf4jnsgd1na2vs0mg"},{"bike_id":"10685603-148c-4c6e-ae8d-c589a1441c21","system_id":"levelo_inurba_marseille","lat":43.299193,"lon":5.375705,"is_reserved":false,"is_disabled":false,"rental_uris":{"android":"levelo://app?vid=10685603-148c-4c6e-ae8d-c589a1441c21","ios":"levelo://app?vid=10685603-148c-4c6e-ae8d-c589a1441c21"},"vehicle_type_id":"4","last_reported":1770190590,"current_range_meters":9200,"station_id":"ce4bgjh2rcd13ifvqbg0","pricing_plan_id":"cebpf4jnsgd1na2vs0mg"},{"bike_id":"c9cf1bda-a378-4513-8aed-b2dba30c86f7","system_id":"levelo_inurba_marseille","lat":43.29548,"lon":5.42282,"is_reserved":false,"is_disabled":false,"rental_uris":{"android":"levelo://app?vid=c9cf1bda-a378-4513-8aed-b2dba30c86f7","ios":"levelo://app?vid=c9cf1bda-a378-4513-8aed-b2dba30c86f7"},"vehicle_type_id":"4","last_reported":1770190590,"current_range_meters":9200,"station_id":"ce4bhph2rcd13ifvqhdg","pricing_plan_id":"cebpf4jnsgd1na2vs0mg"},{"bike_id":"3cc1aabc-a9cc-4581-8270-941be9d523ef","system_id":"levelo_inurba_marseille","lat":43.28657,"lon":5.38667,"is_reserved":false,"is_disabled":false,"rental_uris":{"android":"levelo://app?vid=3cc1aabc-a9cc-4581-8270-941be9d523ef","ios":"levelo://app?vid=3cc1aabc-a9cc-4581-8270-941be9d523ef"},"vehicle_type_id":"4","last_reported":1770190590,"current_range_meters":9200,"station_id":"ce4bh492rcd13ifvqdug","pricing_plan_id":"cebpf4jnsgd1na2vs0mg"},{"bike_id":"b43f880a-9701-4b51-9be5-fc98ff85321b","system_id":"levelo_inurba_marseille","lat":43.25077,"lon":5.40411,"is_reserved":false,"is_disabled":false,"rental_uris":{"android":"levelo://app?vid=b43f880a-9701-4b51-9be5-fc98ff85321b","ios":"levelo://app?vid=b43f880a-9701-4b51-9be5-fc98ff85321b"},"vehicle_type_id":"4","last_reported":1770190590,"current_range_meters":9200,"station_id":"ce4bhlh2rcd13ifvqgig","pricing_plan_id":"cebpf4jnsgd1na2vs0mg"},{"bike_id":"b345239a-a582-4f1b-9c78-faf62467a464","system_id":"levelo_inurba_marseille","lat":43.29701,"lon":5.36631,"is_reserved":false,"is_disabled":true,"rental_uris":{"android":"levelo://app?vid=b345239a-a582-4f1b-9c78-faf62467a464","ios":"levelo://app?vid=b345239a-a582-4f1b-9c78-faf62467a464"},"vehicle_type_id":"4","last_reported":1770190590,"current_range_meters":9200,"station_id":"ce4bgn12rcd13ifvqbt0","pricing_plan_id":"cebpf4jnsgd1na2vs0mg"},{"bike_id":"c1e71f14-e91f-49b0-9bb2-6c712963da21","system_id":"levelo_inurba_marseille","lat":43.29909,"lon":5.43662,"is_reserved":false,"is_disabled":false,"rental_uris":{"android":"levelo://app?vid=c1e71f14-e91f-49b0-9bb2-6c712963da21","ios":"levelo://app?vid=c1e71f14-e91f-49b0-9bb2-6c712963da21"},"vehicle_type_id":"4","last_reported":1770190590,"current_range_meters":9200,"station_id":"ce4bhpp2rcd13ifvqhfg","pricing_plan_id":"cebpf4jnsgd1na2vs0mg"},{"bike_id":"9c97ed08-c8de-49a9-b037-9c50c2f5044c","system_id":"levelo_inurba_marseille","lat":43.2942,"lon":5.41335,"is_reserved":false,"is_disabled":false,"rental_uris":{"android":"levelo://app?vid=9c97ed08-c8de-49a9-b037-9c50c2f5044c","ios":"levelo://app?vid=9c97ed08-c8de-49a9-b037-9c50c2f5044c"},"vehicle_type_id":"4","last_reported":1770190590,"current_range_meters":9200,"station_id":"","pricing_plan_id":"cebpf4jnsgd1na2vs0mg"},{"bike_id":"36e2da96-dc76-439c-aeb6-166c624171c7","system_id":"levelo_inurba_marseille","lat":43.25323,"lon":5.42171,"is_reserved":false,"is_disabled":false,"rental_uris":{"android":"levelo://app?vid=36e2da96-dc76-439c-aeb6-166c624171c7","ios":"levelo://app?vid=36e2da96-dc76-439c-aeb6-166c624171c7"},"vehicle_type_id":"4","last_reported":1770190590,"current_range_meters":9200,"station_id":"st_d2m65c5bi1j21697t3ng","pricing_plan_id":"cebpf4jnsgd1na2vs0mg"},{"bike_id":"0d59add4-4b56-4ced-b456-94533a67403b","system_id":"levelo_inurba_marseille","lat":43.231991,"lon":5.355541,"is_reserved":false,"is_disabled":false,"rental_uris":{"android":"levelo://app?vid=0d59add4-4b56-4ced-b456-94533a67403b","ios":"levelo://app?vid=0d59add4-4b56-4ced-b456-94533a67403b"},"vehicle_type_id":"4","last_reported":1770190590,"current_range_meters":9600,"station_id":"ce4bhu92rcd13ifvqi70","pricing_plan_id":"cebpf4jnsgd1na2vs0mg"},{"bike_id":"35b85e13-b656-4d5f-8d99-0eb657e1727a","system_id":"levelo_inurba_marseille","lat":43.24541,"lon":5.39531,"is_reserved":false,"is_disabled":false,"rental_uris":{"android":"levelo://app?vid=35b85e13-b656-4d5f-8d99-0eb657e1727a","ios":"levelo://app?vid=35b85e13-b656-4d5f-8d99-0eb657e1727a"},"vehicle_type_id":"4","last_reported":1770190590,"current_range_meters":9600,"station_id":"ce4bhlp2rcd13ifvqgjg","pricing_plan_id":"cebpf4jnsgd1na2vs0mg"},{"bike_id":"b0b49840-25bc-4e3e-b3e7-28b0e711fb9b","system_id":"levelo_inurba_marseille","lat":43.28625,"lon":5.35106,"is_reserved":false,"is_disabled":false,"rental_uris":{"android":"levelo://app?vid=b0b49840-25bc-4e3e-b3e7-28b0e711fb9b","ios":"levelo://app?vid=b0b49840-25bc-4e3e-b3e7-28b0e711fb9b"},"vehicle_type_id":"4","last_reported":1770190590,"current_range_meters":9600,"station_id":"ce4bhch2rcd13ifvqeug","pricing_plan_id":"cebpf4jnsgd1na2vs0mg"},{"bike_id":"38ce4780-4113-49b6-a374-22d0ee30bb98","system_id":"levelo_inurba_marseille","lat":43.24077,"lon":5.37755,"is_reserved":false,"is_disabled":false,"rental_uris":{"android":"levelo://app?vid=38ce4780-4113-49b6-a374-22d0ee30bb98","ios":"levelo://app?vid=38ce4780-4113-49b6-a374-22d0ee30bb98"},"vehicle_type_id":"4","last_reported":1770190590,"current_range_meters":9600,"station_id":"ce4bhnp2rcd13ifvqgvg","pricing_plan_id":"cebpf4jnsgd1na2vs0mg"},{"bike_id":"2dbd75cf-8d6a-4b1e-8a51-8d38e5843da1","system_id":"levelo_inurba_marseille","lat":43.31051,"lon":5.37194,"is_reserved":false,"is_disabled":true,"rental_uris":{"android":"levelo://app?vid=2dbd75cf-8d6a-4b1e-8a51-8d38e5843da1","ios":"levelo://app?vid=2dbd75cf-8d6a-4b1e-8a51-8d38e5843da1"},"vehicle_type_id":"4","last_reported":1770190590,"current_range_meters":9600,"station_id":"st_d4kl2rp97mjs73e7tdfg","pricing_plan_id":"cebpf4jnsgd1na2vs0mg"},{"bike_id":"06fb4933-1daf-40d9-9496-d925952f5bef","system_id":"levelo_inurba_marseille","lat":43.302159,"lon":5.386848,"is_reserved":false,"is_disabled":false,"rental_uris":{"android":"levelo://app?vid=06fb4933-1daf-40d9-9496-d925952f5bef","ios":"levelo://app?vid=06fb4933-1daf-40d9-9496-d925952f5bef"},"vehicle_type_id":"4","last_reported":1770190590,"current_range_meters":9600,"station_id":"","pricing_plan_id":"cebpf4jnsgd1na2vs0mg"},{"bike_id":"eb47f48d-6c09-41c8-ae6e-8a7103314f13","system_id":"levelo_inurba_marseille","lat":43.29924,"lon":5.42817,"is_reserved":false,"is_disabled":false,"rental_uris":{"android":"levelo://app?vid=eb47f48d-6c09-41c8-ae6e-8a7103314f13","ios":"levelo://app?vid=eb47f48d-6c09-41c8-ae6e-8a7103314f13"},"vehicle_type_id":"4","last_reported":1770190590,"current_range_meters":9600,"station_id":"","pricing_plan_id":"cebpf4jnsgd1na2vs0mg"},{"bike_id":"3a4b7fad-d353-4ccb-8488-6ee8991487ab","system_id":"levelo_inurba_marseille","lat":43.23187,"lon":5.35573,"is_reserved":false,"is_disabled":false,"rental_uris":{"android":"levelo://app?vid=3a4b7fad-d353-4ccb-8488-6ee8991487ab","ios":"levelo://app?vid=3a4b7fad-d353-4ccb-8488-6ee8991487ab"},"vehicle_type_id":"4","last_reported":1770190590,"current_range_meters":9600,"station_id":"ce4bhu92rcd13ifvqi70","pricing_plan_id":"cebpf4jnsgd1na2vs0mg"},{"bike_id":"38712b4b-754b-41b9-9f4d-8f2f4069c5f1","system_id":"levelo_inurba_marseille","lat":43.29922,"lon":5.37467,"is_reserved":false,"is_disabled":false,"rental_uris":{"android":"levelo://app?vid=38712b4b-754b-41b9-9f4d-8f2f4069c5f1","ios":"levelo://app?vid=38712b4b-754b-41b9-9f4d-8f2f4069c5f1"},"vehicle_type_id":"4","last_reported":1770190590,"current_range_meters":9600,"station_id":"ce4bgjh2rcd13ifvqbg0","pricing_plan_id":"cebpf4jnsgd1na2vs0mg"},{"bike_id":"ed291ead-dc5e-4f55-8111-29198b60f5cf","system_id":"levelo_inurba_marseille","lat":43.23187,"lon":5.39988,"is_reserved":false,"is_disabled":false,"rental_uris":{"android":"levelo://app?vid=ed291ead-dc5e-4f55-8111-29198b60f5cf","ios":"levelo://app?vid=ed291ead-dc5e-4f55-8111-29198b60f5cf"},"vehicle_type_id":"4","last_reported":1770190590,"current_range_meters":9600,"station_id":"ce4bhn12rcd13ifvqgqg","pricing_plan_id":"cebpf4jnsgd1na2vs0mg"},{"bike_id":"fc51e855-ad8d-4375-b820-1407379eb9fd","system_id":"levelo_inurba_marseille","lat":43.3041,"lon":5.38053,"is_reserved":false,"is_disabled":false,"rental_uris":{"android":"levelo://app?vid=fc51e855-ad8d-4375-b820-1407379eb9fd","ios":"levelo://app?vid=fc51e855-ad8d-4375-b820-1407379eb9fd"},"vehicle_type_id":"4","last_reported":1770190590,"current_range_meters":9600,"station_id":"","pricing_plan_id":"cebpf4jnsgd1na2vs0mg"},{"bike_id":"c4da72fb-9d53-4418-828d-f3e1b91d4e60","system_id":"levelo_inurba_marseille","lat":43.281524,"lon":5.426602,"is_reserved":false,"is_disabled":false,"rental_uris":{"android":"levelo://app?vid=c4da72fb-9d53-4418-828d-f3e1b91d4e60","ios":"levelo://app?vid=c4da72fb-9d53-4418-828d-f3e1b91d4e60"},"vehicle_type_id":"4","last_reported":1770190590,"current_range_meters":9600,"station_id":"ce4bhnh2rcd13ifvqgug","pricing_plan_id":"cebpf4jnsgd1na2vs0mg"},{"bike_id":"ccd8b58d-756a-435a-b129-127d52433bcf","system_id":"levelo_inurba_marseille","lat":43.29923,"lon":5.3748,"is_reserved":false,"is_disabled":false,"rental_uris":{"android":"levelo://app?vid=ccd8b58d-756a-435a-b129-127d52433bcf","ios":"levelo://app?vid=ccd8b58d-756a-435a-b129-127d52433bcf"},"vehicle_type_id":"4","last_reported":1770190590,"current_range_meters":9600,"station_id":"ce4bgjh2rcd13ifvqbg0","pricing_plan_id":"cebpf4jnsgd1na2vs0mg"},{"bike_id":"99727a05-398f-43fe-b852-52a7afd5cf39","system_id":"levelo_inurba_marseille","lat":43.25933,"lon":5.40917,"is_reserved":false,"is_disabled":false,"rental_uris":{"android":"levelo://app?vid=99727a05-398f-43fe-b852-52a7afd5cf39","ios":"levelo://app?vid=99727a05-398f-43fe-b852-52a7afd5cf39"},"vehicle_type_id":"4","last_reported":1770190590,"current_range_meters":9600,"station_id":"ce4bhm92rcd13ifvqglg","pricing_plan_id":"cebpf4jnsgd1na2vs0mg"},{"bike_id":"8d08384d-9288-4fce-acda-ab57f0594466","system_id":"levelo_inurba_marseille","lat":43.28915,"lon":5.3841,"is_reserved":false,"is_disabled":true,"rental_uris":{"android":"levelo://app?vid=8d08384d-9288-4fce-acda-ab57f0594466","ios":"levelo://app?vid=8d08384d-9288-4fce-acda-ab57f0594466"},"vehicle_type_id":"4","last_reported":1770190590,"current_range_meters":9600,"station_id":"ce4bh612rcd13ifvqe6g","pricing_plan_id":"cebpf4jnsgd1na2vs0mg"},{"bike_id":"b1729468-93f6-4dd4-a68b-a17efb37c409","system_id":"levelo_inurba_marseille","lat":43.33599,"lon":5.4103,"is_reserved":false,"is_disabled":false,"rental_uris":{"android":"levelo://app?vid=b1729468-93f6-4dd4-a68b-a17efb37c409","ios":"levelo://app?vid=b1729468-93f6-4dd4-a68b-a17efb37c409"},"vehicle_type_id":"4","last_reported":1770190590,"current_range_meters":9600,"station_id":"ce4bhqh2rcd13ifvqhmg","pricing_plan_id":"cebpf4jnsgd1na2vs0mg"},{"bike_id":"c75f082b-931b-4c36-9d5c-c25dfcdb73be","system_id":"levelo_inurba_marseille","lat":43.23152,"lon":5.43709,"is_reserved":false,"is_disabled":false,"rental_uris":{"android":"levelo://app?vid=c75f082b-931b-4c36-9d5c-c25dfcdb73be","ios":"levelo://app?vid=c75f082b-931b-4c36-9d5c-c25dfcdb73be"},"vehicle_type_id":"4","last_reported":1770190590,"current_range_meters":10000,"station_id":"ce4bhmp2rcd13ifvqgog","pricing_plan_id":"cebpf4jnsgd1na2vs0mg"},{"bike_id":"b55cf58b-0b2d-45d8-b9da-9cab3935aa03","system_id":"levelo_inurba_marseille","lat":43.23046,"lon":5.35494,"is_reserved":false,"is_disabled":false,"rental_uris":{"android":"levelo://app?vid=b55cf58b-0b2d-45d8-b9da-9cab3935aa03","ios":"levelo://app?vid=b55cf58b-0b2d-45d8-b9da-9cab3935aa03"},"vehicle_type_id":"4","last_reported":1770190590,"current_range_meters":10000,"station_id":"cpo3342slgdg3j2ifvpg","pricing_plan_id":"cebpf4jnsgd1na2vs0mg"},{"bike_id":"27b91125-8725-4db7-bbdb-0b7821e21970","system_id":"levelo_inurba_marseille","lat":43.233797,"lon":5.412424,"is_reserved":false,"is_disabled":false,"rental_uris":{"android":"levelo://app?vid=27b91125-8725-4db7-bbdb-0b7821e21970","ios":"levelo://app?vid=27b91125-8725-4db7-bbdb-0b7821e21970"},"vehicle_type_id":"4","last_reported":1770190590,"current_range_meters":10000,"station_id":"","pricing_plan_id":"cebpf4jnsgd1na2vs0mg"},{"bike_id":"ae1de003-14b9-4f25-be65-e57a040c0f8a","system_id":"levelo_inurba_marseille","lat":43.26566,"lon":5.3904,"is_reserved":false,"is_disabled":false,"rental_uris":{"android":"levelo://app?vid=ae1de003-14b9-4f25-be65-e57a040c0f8a","ios":"levelo://app?vid=ae1de003-14b9-4f25-be65-e57a040c0f8a"},"vehicle_type_id":"4","last_reported":1770190590,"current_range_meters":10000,"station_id":"ce4bhe12rcd13ifvqf30","pricing_plan_id":"cebpf4jnsgd1na2vs0mg"},