{"last_updated":1762531903,"ttl":60,"version":"2.2","data":{"bikes":[{"bike_id":"571bd3a6-912b-44a3-9841-50c558a61481","system_id":"levelo_inurba_marseille","lat":43.2809,"lon":5.40567,"is_reserved":false,"is_disabled":false,"rental_uris":{"android":"levelo://app?vid=571bd3a6-912b-44a3-9841-50c558a61481","ios":"levelo://app?vid=571bd3a6-912b-44a3-9841-50c558a61481"},"vehicle_type_id":"4","last_reported":1762531903,"current_range_meters":2800,"station_id":"","pricing_plan_id":"cebpf4jnsgd1na2vs0mg"},{"bike_id":"e3945f6f-3604-4d3e-b37b-e311f63a97f5","system_id":"levelo_inurba_marseille","lat":43.26554,"lon":5.37286,"is_reserved":false,"is_disabled":false,"rental_uris":{"android":"levelo://app?vid=e3945f6f-3604-4d3e-b37b-e311f63a97f5","ios":"levelo://app?vid=e3945f6f-3604-4d3e-b37b-e311f63a97f5"},"vehicle_type_id":"4","last_reported":1762531903,"current_range_meters":2800,"station_id":"ce4bhg12rcd13ifvqf70","pricing_plan_id":"cebpf4jnsgd1na2vs0mg"},{"bike_id":"4728fd59-6e4e-40a0-8fe7-b686158e0f81","system_id":"levelo_inurba_marseille","lat":43.30326,"lon":5.40433,"is_reserved":false,"is_disabled":false,"rental_uris":{"android":"levelo://app?vid=4728fd59-6e4e-40a0-8fe7-b686158e0f81","ios":"levelo://app?vid=4728fd59-6e4e-40a0-8fe7-b686158e0f81"},"vehicle_type_id":"4","last_reported":1762531903,"current_range_meters":2800,"station_id":"ce4bh012rcd13ifvqd10","pricing_plan_id":"cebpf4jnsgd1na2vs0mg"},{"bike_id":"0f9fdacf-087a-4afc-bead-70d475b439da","system_id":"levelo_inurba_marseille","lat":43.278272,"lon":5.407281,"is_reserved":false,"is_disabled":false,"rental_uris":{"android":"levelo://app?vid=0f9fdacf-087a-4afc-bead-70d475b439da","ios":"levelo://app?vid=0f9fdacf-087a-4afc-bead-70d475b439da"},"vehicle_type_id":"4","last_reported":1762531903,"current_range_meters":2800,"station_id":"ce4bhnh2rcd13ifvqgtg","pricing_plan_id":"cebpf4jnsgd1na2vs0mg"},{"bike_id":"834b339e-6ffe-454f-b247-6e7f5292379a","system_id":"levelo_inurba_marseille","lat":43.28363,"lon":5.38628,"is_reserved":false,"is_disabled":false,"rental_uris":{"android":"levelo://app?vid=834b339e-6ffe-454f-b247-6e7f5292379a","ios":"levelo://app?vid=834b339e-6ffe-454f-b247-6e7f5292379a"},"vehicle_type_id":"4","last_reported":1762531903,"current_range_meters":2800,"station_id":"ce4bh492rcd13ifvqdvg","pricing_plan_id":"cebpf4jnsgd1na2vs0mg"},{"bike_id":"d1fb971c-4f48-471d-8054-194856e00458","system_id":"levelo_inurba_marseille","lat":43.26803,"lon":5.4027,"is_reserved":false,"is_disabled":false,"rental_uris":{"android":"levelo://app?vid=d1fb971c-4f48-471d-8054-194856e00458","ios":"levelo://app?vid=d1fb971c-4f48-471d-8054-194856e00458"},"vehicle_type_id":"4","last_reported":1762531903,"current_range_meters":3200,"station_id":"ce501612rcd8frsf0b60","pricing_plan_id":"cebpf4jnsgd1na2vs0mg"},{"bike_id":"47abe9c1-d3c3-4efa-84b0-e666ebc060c8","system_id":"levelo_inurba_marseille","lat":43.29849,"lon":5.36284,"is_reserved":false,"is_disabled":false,"rental_uris":{"android":"levelo://app?vid=47abe9c1-d3c3-4efa-84b0-e666ebc060c8","ios":"levelo://app?vid=47abe9c1-d3c3-4efa-84b0-e666ebc060c8"},"vehicle_type_id":"4","last_reported":1762531903,"current_range_meters":3200,"station_id":"ce4bgpp2rcd13ifvqc3g","pricing_plan_id":"cebpf4jnsgd1na2vs0mg"},{"bike_id":"46ea1783-79a5-4ee9-b0e7-3de645166e70","system_id":"levelo_inurba_marseille","lat":43.225676,"lon":5.416245,"is_reserved":false,"is_disabled":false,"rental_uris":{"android":"levelo://app?vid=46ea1783-79a5-4ee9-b0e7-3de645166e70","ios":"levelo://app?vid=46ea1783-79a5-4ee9-b0e7-3de645166e70"},"vehicle_type_id":"4","last_reported":1762531903,"current_range_meters":3200,"station_id":"st_d2o4gvlbi1j2169b742g","pricing_plan_id":"cebpf4jnsgd1na2vs0mg"},{"bike_id":"d3a8c452-bd73-4909-9cfe-f1c0285f3d0c","system_id":"levelo_inurba_marseille","lat":43.28482,"lon":5.48406,"is_reserved":false,"is_disabled":false,"rental_uris":{"android":"levelo://app?vid=d3a8c452-bd73-4909-9cfe-f1c0285f3d0c","ios":"levelo://app?vid=d3a8c452-bd73-4909-9cfe-f1c0285f3d0c"},"vehicle_type_id":"4","last_reported":1762531903,"current_range_meters":4000,"station_id":"","pricing_plan_id":"cebpf4jnsgd1na2vs0mg"},{"bike_id":"5b26ffce-843f-482e-b8c6-a2e0852fae19","system_id":"levelo_inurba_marseille","lat":43.27062,"lon":5.40258,"is_reserved":false,"is_disabled":false,"rental_uris":{"android":"levelo://app?vid=5b26ffce-843f-482e-b8c6-a2e0852fae19","ios":"levelo://app?vid=5b26ffce-843f-482e-b8c6-a2e0852fae19"},"vehicle_type_id":"4","last_reported":1762531903,"current_range_meters":4400,"station_id":"ce4bhk92rcd13ifvqgc0","pricing_plan_id":"cebpf4jnsgd1na2vs0mg"},{"bike_id":"639b3a53-7dac-43e3-bb2f-d9610276f2ef","system_id":"levelo_inurba_marseille","lat":43.30924,"lon":5.40156,"is_reserved":false,"is_disabled":false,"rental_uris":{"android":"levelo://app?vid=639b3a53-7dac-43e3-bb2f-d9610276f2ef","ios":"levelo://app?vid=639b3a53-7dac-43e3-bb2f-d9610276f2ef"},"vehicle_type_id":"4","last_reported":1762531903,"current_range_meters":4400,"station_id":"ce4bgvp2rcd13ifvqct0","pricing_plan_id":"cebpf4jnsgd1na2vs0mg"},{"bike_id":"9b1f41c1-d1d3-4ca8-87de-262689bb283f","system_id":"levelo_inurba_marseille","lat":43.299637,"lon":5.385098,"is_reserved":false,"is_disabled":false,"rental_uris":{"android":"levelo://app?vid=9b1f41c1-d1d3-4ca8-87de-262689bb283f","ios":"levelo://app?vid=9b1f41c1-d1d3-4ca8-87de-262689bb283f"},"vehicle_type_id":"4","last_reported":1762531903,"current_range_meters":4400,"station_id":"ce4bgj92rcd13ifvqbd0","pricing_plan_id":"cebpf4jnsgd1na2vs0mg"},{"bike_id":"3408862b-0d95-4390-80de-30fc7f786e13","system_id":"levelo_inurba_marseille","lat":43.298744,"lon":5.389095,"is_reserved":false,"is_disabled":false,"rental_uris":{"android":"levelo://app?vid=3408862b-0d95-4390-80de-30fc7f786e13","ios":"levelo://app?vid=3408862b-0d95-4390-80de-30fc7f786e13"},"vehicle_type_id":"4","last_reported":1762531903,"current_range_meters":4800,"station_id":"ce4bh392rcd13ifvqdl0","pricing_plan_id":"cebpf4jnsgd1na2vs0mg"},{"bike_id":"6d2bfd78-8c6e-4785-bb8d-90697b508b58","system_id":"levelo_inurba_marseille","lat":43.27621,"lon":5.36114,"is_reserved":false,"is_disabled":false,"rental_uris":{"android":"levelo://app?vid=6d2bfd78-8c6e-4785-bb8d-90697b508b58","ios":"levelo://app?vid=6d2bfd78-8c6e-4785-bb8d-90697b508b58"},"vehicle_type_id":"4","last_reported":1762531903,"current_range_meters":5600,"station_id":"ce4bgj92rcd13ifvqbe0","pricing_plan_id":"cebpf4jnsgd1na2vs0mg"},{"bike_id":"eb74b641-6980-419a-a640-b0444886a532","system_id":"levelo_inurba_marseille","lat":43.292643,"lon":5.384238,"is_reserved":false,"is_disabled":false,"rental_uris":{"android":"levelo://app?vid=eb74b641-6980-419a-a640-b0444886a532","ios":"levelo://app?vid=eb74b641-6980-419a-a640-b0444886a532"},"vehicle_type_id":"4","last_reported":1762531903,"current_range_meters":5600,"station_id":"ce4bh692rcd13ifvqea0","pricing_plan_id":"cebpf4jnsgd1na2vs0mg"},{"bike_id":"dbedb99b-f617-4566-8453-0e780480067d","system_id":"levelo_inurba_marseille","lat":43.29273,"lon":5.3684,"is_reserved":false,"is_disabled":false,"rental_uris":{"android":"levelo://app?vid=dbedb99b-f617-4566-8453-0e780480067d","ios":"levelo://app?vid=dbedb99b-f617-4566-8453-0e780480067d"},"vehicle_type_id":"4","last_reported":1762531903,"current_range_meters":6000,"station_id":"ce4bhbp2rcd13ifvqesg","pricing_plan_id":"cebpf4jnsgd1na2vs0mg"},{"bike_id":"00e2fb23-c60b-44ca-b7e2-27d20839441b","system_id":"levelo_inurba_marseille","lat":43.290205,"lon":5.381306,"is_reserved":false,"is_disabled":false,"rental_uris":{"android":"levelo://app?vid=00e2fb23-c60b-44ca-b7e2-27d20839441b","ios":"levelo://app?vid=00e2fb23-c60b-44ca-b7e2-27d20839441b"},"vehicle_type_id":"4","last_reported":1762531903,"current_range_meters":6000,"station_id":"ce4bgqh2rcd13ifvqc5g","pricing_plan_id":"cebpf4jnsgd1na2vs0mg"},{"bike_id":"fc8334d2-8cc7-48bf-93cc-8304409e8292","system_id":"levelo_inurba_marseille","lat":43.21752,"lon":5.346014,"is_reserved":false,"is_disabled":false,"rental_uris":{"android":"levelo://app?vid=fc8334d2-8cc7-48bf-93cc-8304409e8292","ios":"levelo://app?vid=fc8334d2-8cc7-48bf-93cc-8304409e8292"},"vehicle_type_id":"4","last_reported":1762531903,"current_range_meters":6000,"station_id":"","pricing_plan_id":"cebpf4jnsgd1na2vs0mg"},{"bike_id":"5a300086-b49c-48d3-8bef-e722b003b2b0","system_id":"levelo_inurba_marseille","lat":43.30631,"lon":5.40071,"is_reserved":false,"is_disabled":false,"rental_uris":{"android":"levelo://app?vid=5a300086-b49c-48d3-8bef-e722b003b2b0","ios":"levelo://app?vid=5a300086-b49c-48d3-8bef-e722b003b2b0"},"vehicle_type_id":"4","last_reported":1762531903,"current_range_meters":6000,"station_id":"ce4bh112rcd13ifvqda0","pricing_plan_id":"cebpf4jnsgd1na2vs0mg"},{"bike_id":"0df75365-5c1f-44c2-a207-994e77e245c1","system_id":"levelo_inurba_marseille","lat":43.29799,"lon":5.3811,"is_reserved":false,"is_disabled":false,"rental_uris":{"android":"levelo://app?vid=0df75365-5c1f-44c2-a207-994e77e245c1","ios":"levelo://app?vid=0df75365-5c1f-44c2-a207-994e77e245c1"},"vehicle_type_id":"4","last_reported":1762531903,"current_range_meters":6000,"station_id":"ce4bgip2rcd13ifvqbb0","pricing_plan_id":"cebpf4jnsgd1na2vs0mg"},{"bike_id":"0d291822-f137-4eea-be1e-80afd1948a1b","system_id":"levelo_inurba_marseille","lat":43.30876,"lon":5.39658,"is_reserved":false,"is_disabled":false,"rental_uris":{"android":"levelo://app?vid=0d291822-f137-4eea-be1e-80afd1948a1b","ios":"levelo://app?vid=0d291822-f137-4eea-be1e-80afd1948a1b"},"vehicle_type_id":"4","last_reported":1762531903,"current_range_meters":6000,"station_id":"ce4bh012rcd13ifvqcv0","pricing_plan_id":"cebpf4jnsgd1na2vs0mg"},{"bike_id":"faf02dba-a063-4be7-b738-20d510b602ef","system_id":"levelo_inurba_marseille","lat":43.29827,"lon":5.3828,"is_reserved":false,"is_disabled":false,"rental_uris":{"android":"levelo://app?vid=faf02dba-a063-4be7-b738-20d510b602ef","ios":"levelo://app?vid=faf02dba-a063-4be7-b738-20d510b602ef"},"vehicle_type_id":"4","last_reported":1762531903,"current_range_meters":6400,"station_id":"","pricing_plan_id":"cebpf4jnsgd1na2vs0mg"},{"bike_id":"81dcc136-dea2-46c0-98af-42dbdee92b54","system_id":"levelo_inurba_marseille","lat":43.28476,"lon":5.48399,"is_reserved":false,"is_disabled":false,"rental_uris":{"android":"levelo://app?vid=81dcc136-dea2-46c0-98af-42dbdee92b54","ios":"levelo://app?vid=81dcc136-dea2-46c0-98af-42dbdee92b54"},"vehicle_type_id":"4","last_reported":1762531903,"current_range_meters":6400,"station_id":"","pricing_plan_id":"cebpf4jnsgd1na2vs0mg"},{"bike_id":"874b186c-6ec7-4094-a4dd-a249e7cc9b62","system_id":"levelo_inurba_marseille","lat":43.2773,"lon":5.427,"is_reserved":false,"is_disabled":false,"rental_uris":{"android":"levelo://app?vid=874b186c-6ec7-4094-a4dd-a249e7cc9b62","ios":"levelo://app?vid=874b186c-6ec7-4094-a4dd-a249e7cc9b62"},"vehicle_type_id":"4","last_reported":1762531903,"current_range_meters":6800,"station_id":"","pricing_plan_id":"cebpf4jnsgd1na2vs0mg"},{"bike_id":"74a83f19-4620-4517-be1e-697db6f72f0b","system_id":"levelo_inurba_marseille","lat":43.32352,"lon":5.36739,"is_reserved":false,"is_disabled":false,"rental_uris":{"android":"levelo://app?vid=74a83f19-4620-4517-be1e-697db6f72f0b","ios":"levelo://app?vid=74a83f19-4620-4517-be1e-697db6f72f0b"},"vehicle_type_id":"4","last_reported":1762531903,"current_range_meters":6800,"station_id":"ce4bhsh2rcd13ifvqi2g","pricing_plan_id":"cebpf4jnsgd1na2vs0mg"},{"bike_id":"a0986b7e-5cfa-426f-8c69-c9c870aeebd6","system_id":"levelo_inurba_marseille","lat":43.302543,"lon":5.400748,"is_reserved":false,"is_disabled":false,"rental_uris":{"android":"levelo://app?vid=a0986b7e-5cfa-426f-8c69-c9c870aeebd6","ios":"levelo://app?vid=a0986b7e-5cfa-426f-8c69-c9c870aeebd6"},"vehicle_type_id":"4","last_reported":1762531903,"current_range_meters":7200,"station_id":"ce4bgvh2rcd13ifvqcs0","pricing_plan_id":"cebpf4jnsgd1na2vs0mg"},{"bike_id":"71967476-752a-4f5e-b222-99c0eea95f39","system_id":"levelo_inurba_marseille","lat":43.32319,"lon":5.3842,"is_reserved":false,"is_disabled":false,"rental_uris":{"android":"levelo://app?vid=71967476-752a-4f5e-b222-99c0eea95f39","ios":"levelo://app?vid=71967476-752a-4f5e-b222-99c0eea95f39"},"vehicle_type_id":"4","last_reported":1762531903,"current_range_meters":7200,"station_id":"","pricing_plan_id":"cebpf4jnsgd1na2vs0mg"},{"bike_id":"ec4f5866-c7cf-43b8-b25d-d4730f7ba199","system_id":"levelo_inurba_marseille","lat":43.26032,"lon":5.41729,"is_reserved":false,"is_disabled":false,"rental_uris":{"android":"levelo://app?vid=ec4f5866-c7cf-43b8-b25d-d4730f7ba199","ios":"levelo://app?vid=ec4f5866-c7cf-43b8-b25d-d4730f7ba199"},"vehicle_type_id":"4","last_reported":1762531903,"current_range_meters":7200,"station_id":"","pricing_plan_id":"cebpf4jnsgd1na2vs0mg"},{"bike_id":"ed4b598a-d01a-4674-9ead-76ad5fc4abfc","system_id":"levelo_inurba_marseille","lat":43.3041,"lon":5.41288,"is_reserved":false,"is_disabled":true,"rental_uris":{"android":"levelo://app?vid=ed4b598a-d01a-4674-9ead-76ad5fc4abfc","ios":"levelo://app?vid=ed4b598a-d01a-4674-9ead-76ad5fc4abfc"},"vehicle_type_id":"4","last_reported":1762531903,"current_range_meters":7200,"station_id":"ce4bhop2rcd13ifvqh8g","pricing_plan_id":"cebpf4jnsgd1na2vs0mg"},{"bike_id":"09f12824-0055-41b9-8b9c-a734110ce9ae","system_id":"levelo_inurba_marseille","lat":43.293732,"lon":5.379127,"is_reserved":false,"is_disabled":false,"rental_uris":{"android":"levelo://app?vid=09f12824-0055-41b9-8b9c-a734110ce9ae","ios":"levelo://app?vid=09f12824-0055-41b9-8b9c-a734110ce9ae"},"vehicle_type_id":"4","last_reported":1762531903,"current_range_meters":7200,"station_id":"ce4bgjh2rcd13ifvqbf0","pricing_plan_id":"cebpf4jnsgd1na2vs0mg"},{"bike_id":"fe35e2a4-a39c-496b-846d-5c7efc030cbb","system_id":"levelo_inurba_marseille","lat":43.31073,"lon":5.383511,"is_reserved":false,"is_disabled":false,"rental_uris":{"android":"levelo://app?vid=fe35e2a4-a39c-496b-846d-5c7efc030cbb","ios":"levelo://app?vid=fe35e2a4-a39c-496b-846d-5c7efc030cbb"},"vehicle_type_id":"4","last_reported":1762531903,"current_range_meters":8000,"station_id":"ce4bh612rcd13ifvqe6g","pricing_plan_id":"cebpf4jnsgd1na2vs0mg"},{"bike_id":"3618ddf5-ce5b-4a80-a8ab-26ddf21f2e75","system_id":"levelo_inurba_marseille","lat":43.31708,"lon":5.37741,"is_reserved":false,"is_disabled":false,"rental_uris":{"android":"levelo://app?vid=3618ddf5-ce5b-4a80-a8ab-26ddf21f2e75","ios":"levelo://app?vid=3618ddf5-ce5b-4a80-a8ab-26ddf21f2e75"},"vehicle_type_id":"4","last_reported":1762531903,"current_range_meters":8000,"station_id":"ce4bgth2rcd13ifvqch0","pricing_plan_id":"cebpf4jnsgd1na2vs0mg"},{"bike_id":"a2ec98fc-774b-4d02-bdad-95c66553af49","system_id":"levelo_inurba_marseille","lat":43.31331,"lon":5.39684,"is_reserved":false,"is_disabled":false,"rental_uris":{"android":"levelo://app?vid=a2ec98fc-774b-4d02-bdad-95c66553af49","ios":"levelo://app?vid=a2ec98fc-774b-4d02-bdad-95c66553af49"},"vehicle_type_id":"4","last_reported":1762531903,"current_range_meters":8000,"station_id":"ce4bgvp2rcd13ifvqcu0","pricing_plan_id":"cebpf4jnsgd1na2vs0mg"},{"bike_id":"a6b5c354-bbc4-46b2-9356-4b84838966f9","system_id":"levelo_inurba_marseille","lat":43.306807,"lon":5.403508,"is_reserved":false,"is_disabled":false,"rental_uris":{"android":"levelo://app?vid=a6b5c354-bbc4-46b2-9356-4b84838966f9","ios":"levelo://app?vid=a6b5c354-bbc4-46b2-9356-4b84838966f9"},"vehicle_type_id":"4","last_reported":1762531903,"current_range_meters":8000,"station_id":"","pricing_plan_id":"cebpf4jnsgd1na2vs0mg"},{"bike_id":"aa073d3c-91f3-4920-9d1e-90bf82850b1e","system_id":"levelo_inurba_marseille","lat":43.3376,"lon":5.37439,"is_reserved":false,"is_disabled":false,"rental_uris":{"android":"levelo://app?vid=aa073d3c-91f3-4920-9d1e-90bf82850b1e","ios":"levelo://app?vid=aa073d3c-91f3-4920-9d1e-90bf82850b1e"},"vehicle_type_id":"4","last_reported":1762531903,"current_range_meters":8000,"station_id":"","pricing_plan_id":"cebpf4jnsgd1na2vs0mg"},{"bike_id":"cb49b383-e24c-4da9-b939-83ac47a338c7","system_id":"levelo_inurba_marseille","lat":43.30291,"lon":5.37702,"is_reserved":false,"is_disabled":false,"rental_uris":{"android":"levelo://app?vid=cb49b383-e24c-4da9-b939-83ac47a338c7","ios":"levelo://app?vid=cb49b383-e24c-4da9-b939-83ac47a338c7"},"vehicle_type_id":"4","last_reported":1762531903,"current_range_meters":8000,"station_id":"ce4bguh2rcd13ifvqcj0","pricing_plan_id":"cebpf4jnsgd1na2vs0mg"},{"bike_id":"0ba5da85-3851-48ac-9ea0-b2eebf36d729","system_id":"levelo_inurba_marseille","lat":43.29533,"lon":5.38538,"is_reserved":false,"is_disabled":false,"rental_uris":{"android":"levelo://app?vid=0ba5da85-3851-48ac-9ea0-b2eebf36d729","ios":"levelo://app?vid=0ba5da85-3851-48ac-9ea0-b2eebf36d729"},"vehicle_type_id":"4","last_reported":1762531903,"current_range_meters":8000,"station_id":"ce4bgih2rcd13ifvqba0","pricing_plan_id":"cebpf4jnsgd1na2vs0mg"},{"bike_id":"77807b52-a342-4413-b550-e7560c391773","system_id":"levelo_inurba_marseille","lat":43.31261,"lon":5.40171,"is_reserved":false,"is_disabled":false,"rental_uris":{"android":"levelo://app?vid=77807b52-a342-4413-b550-e7560c391773","ios":"levelo://app?vid=77807b52-a342-4413-b550-e7560c391773"},"vehicle_type_id":"4","last_reported":1762531903,"current_range_meters":8400,"station_id":"ce4bh092rcd13ifvqd30","pricing_plan_id":"cebpf4jnsgd1na2vs0mg"},{"bike_id":"2e9bda71-8565-4234-a1cc-0a8fc51e3b7f","system_id":"levelo_inurba_marseille","lat":43.30911,"lon":5.36856,"is_reserved":false,"is_disabled":false,"rental_uris":{"android":"levelo://app?vid=2e9bda71-8565-4234-a1cc-0a8fc51e3b7f","ios":"levelo://app?vid=2e9bda71-8565-4234-a1cc-0a8fc51e3b7f"},"vehicle_type_id":"4","last_reported":1762531903,"current_range_meters":8400,"station_id":"ce4bgn92rcd13ifvqbvg","pricing_plan_id":"cebpf4jnsgd1na2vs0mg"},{"bike_id":"32c4054d-c111-4f1c-b188-9138aed42210","system_id":"levelo_inurba_marseille","lat":43.31976,"lon":5.41589,"is_reserved":false,"is_disabled":false,"rental_uris":{"android":"levelo://app?vid=32c4054d-c111-4f1c-b188-9138aed42210","ios":"levelo://app?vid=32c4054d-c111-4f1c-b188-9138aed42210"},"vehicle_type_id":"4","last_reported":1762531903,"current_range_meters":8400,"station_id":"","pricing_plan_id":"cebpf4jnsgd1na2vs0mg"},{"bike_id":"59b31ef2-3fe3-46e5-b5a5-685f264695ce","system_id":"levelo_inurba_marseille","lat":43.28466,"lon":5.48409,"is_reserved":false,"is_disabled":false,"rental_uris":{"android":"levelo://app?vid=59b31ef2-3fe3-46e5-b5a5-685f264695ce","ios":"levelo://app?vid=59b31ef2-3fe3-46e5-b5a5-685f264695ce"},"vehicle_type_id":"4","last_reported":1762531903,"current_range_meters":8400,"station_id":"","pricing_plan_id":"cebpf4jnsgd1na2vs0mg"},{"bike_id":"3ffe2c7b-f27f-49bd-95c3-0ecfbf0880d2","system_id":"levelo_inurba_marseille","lat":43.307,"lon":5.38427,"is_reserved":false,"is_disabled":false,"rental_uris":{"android":"levelo://app?vid=3ffe2c7b-f27f-49bd-95c3-0ecfbf0880d2","ios":"levelo://app?vid=3ffe2c7b-f27f-49bd-95c3-0ecfbf0880d2"},"vehicle_type_id":"4","last_reported":1762531903,"current_range_meters":8400,"station_id":"","pricing_plan_id":"cebpf4jnsgd1na2vs0mg"},{"bike_id":"e295cd0e-ed19-4886-8d94-a16ba5052e6e","system_id":"levelo_inurba_marseille","lat":43.27916,"lon":5.39581,"is_reserved":false,"is_disabled":false,"rental_uris":{"android":"levelo://app?vid=e295cd0e-ed19-4886-8d94-a16ba5052e6e","ios":"levelo://app?vid=e295cd0e-ed19-4886-8d94-a16ba5052e6e"},"vehicle_type_id":"4","last_reported":1762531903,"current_range_meters":8400,"station_id":"ce4bhf92rcd13ifvqf40","pricing_plan_id":"cebpf4jnsgd1na2vs0mg"},{"bike_id":"ab3a4d6b-b442-44b9-8f02-c1c222f445ba","system_id":"levelo_inurba_marseille","lat":43.274503,"lon":5.392747,"is_reserved":false,"is_disabled":false,"rental_uris":{"android":"levelo://app?vid=ab3a4d6b-b442-44b9-8f02-c1c222f445ba","ios":"levelo://app?vid=ab3a4d6b-b442-44b9-8f02-c1c222f445ba"},"vehicle_type_id":"4","last_reported":1762531903,"current_range_meters":8800,"station_id":"","pricing_plan_id":"cebpf4jnsgd1na2vs0mg"},{"bike_id":"907a1d4f-2e07-483b-a8f6-eb9c8aa32229","system_id":"levelo_inurba_marseille","lat":43.254908,"lon":5.376496,"is_reserved":false,"is_disabled":false,"rental_uris":{"android":"levelo://app?vid=907a1d4f-2e07-483b-a8f6-eb9c8aa32229","ios":"levelo://app?vid=907a1d4f-2e07-483b-a8f6-eb9c8aa32229"},"vehicle_type_id":"4","last_reported":1762531903,"current_range_meters":8800,"station_id":"ce4bhh12rcd13ifvqff0","pricing_plan_id":"cebpf4jnsgd1na2vs0mg"},{"bike_id":"b3a8a45e-ce4e-406a-8139-4312764ad6fc","system_id":"levelo_inurba_marseille","lat":43.306447,"lon":5.375686,"is_reserved":false,"is_disabled":false,"rental_uris":{"android":"levelo://app?vid=b3a8a45e-ce4e-406a-8139-4312764ad6fc","ios":"levelo://app?vid=b3a8a45e-ce4e-406a-8139-4312764ad6fc"},"vehicle_type_id":"4","last_reported":1762531903,"current_range_meters":8800,"station_id":"ce4bgv92rcd13ifvqcq0","pricing_plan_id":"cebpf4jnsgd1na2vs0mg"},{"bike_id":"b0732b62-19ca-4ec8-88e7-432d75ca293d","system_id":"levelo_inurba_marseille","lat":43.21747,"lon":5.346,"is_reserved":false,"is_disabled":false,"rental_uris":{"android":"levelo://app?vid=b0732b62-19ca-4ec8-88e7-432d75ca293d","ios":"levelo://app?vid=b0732b62-19ca-4ec8-88e7-432d75ca293d"},"vehicle_type_id":"4","last_reported":1762531903,"current_range_meters":8800,"station_id":"","pricing_plan_id":"cebpf4jnsgd1na2vs0mg"},{"bike_id":"c4d1bdaf-791b-43c9-9d15-76c7860e9d14","system_id":"levelo_inurba_marseille","lat":43.28566,"lon":5.39499,"is_reserved":false,"is_disabled":false,"rental_uris":{"android":"levelo://app?vid=c4d1bdaf-791b-43c9-9d15-76c7860e9d14","ios":"levelo://app?vid=c4d1bdaf-791b-43c9-9d15-76c7860e9d14"},"vehicle_type_id":"4","last_reported":1762531903,"current_range_meters":8800,"station_id":"ce4bh292rcd13ifvqdg0","pricing_plan_id":"cebpf4jnsgd1na2vs0mg"},{"bike_id":"810adf9c-8cb6-4f0f-b7a8-504d9b374ee0","system_id":"levelo_inurba_marseille","lat":43.2856,"lon":5.39492,"is_reserved":false,"is_disabled":false,"rental_uris":{"android":"levelo://app?vid=810adf9c-8cb6-4f0f-b7a8-504d9b374ee0","ios":"levelo://app?vid=810adf9c-8cb6-4f0f-b7a8-504d9b374ee0"},"vehicle_type_id":"4","last_reported":1762531903,"current_range_meters":9200,"station_id":"ce4bh292rcd13ifvqdg0","pricing_plan_id":"cebpf4jnsgd1na2vs0mg"},{"bike_id":"319ffc4e-7711-40e6-a5bd-4d90d7a995da","system_id":"levelo_inurba_marseille","lat":43.31079,"lon":5.42474,"is_reserved":false,"is_disabled":false,"rental_uris":{"android":"levelo://app?vid=319ffc4e-7711-40e6-a5bd-4d90d7a995da","ios":"levelo://app?vid=319ffc4e-7711-40e6-a5bd-4d90d7a995da"},"vehicle_type_id":"4","last_reported":1762531903,"current_range_meters":9200,"station_id":"ce4bhp92rcd13ifvqhag","pricing_plan_id":"cebpf4jnsgd1na2vs0mg"},{"bike_id":"62b597ad-0183-45ab-83ea-6b1f25540269","system_id":"levelo_inurba_marseille","lat":43.32748,"lon":5.452125,"is_reserved":false,"is_disabled":false,"rental_uris":{"android":"levelo://app?vid=62b597ad-0183-45ab-83ea-6b1f25540269","ios":"levelo://app?vid=62b597ad-0183-45ab-83ea-6b1f25540269"},"vehicle_type_id":"4","last_reported":1762531903,"current_range_meters":9200,"station_id":"","pricing_plan_id":"cebpf4jnsgd1na2vs0mg"},{"bike_id":"599c4f36-8ed6-4dbc-8e98-814c73a2a5c8","system_id":"levelo_inurba_marseille","lat":43.29791,"lon":5.38108,"is_reserved":false,"is_disabled":false,"rental_uris":{"android":"levelo://app?vid=599c4f36-8ed6-4dbc-8e98-814c73a2a5c8","ios":"levelo://app?vid=599c4f36-8ed6-4dbc-8e98-814c73a2a5c8"},"vehicle_type_id":"4","last_reported":1762531903,"current_range_meters":9600,"station_id":"ce4bgip2rcd13ifvqbb0","pricing_plan_id":"cebpf4jnsgd1na2vs0mg"},{"bike_id":"a35f5d94-3b00-480f-9c18-98b7ae735e71","system_id":"levelo_inurba_marseille","lat":43.23178,"lon":5.40001,"is_reserved":false,"is_disabled":false,"rental_uris":{"android":"levelo://app?vid=a35f5d94-3b00-480f-9c18-98b7ae735e71","ios":"levelo://app?vid=a35f5d94-3b00-480f-9c18-98b7ae735e71"},"vehicle_type_id":"4","last_reported":1762531903,"current_range_meters":9600,"station_id":"ce4bhn12rcd13ifvqgqg","pricing_plan_id":"cebpf4jnsgd1na2vs0mg"},{"bike_id":"f15bc5cc-bf9e-4ae5-b4d9-ff0a9b68c8cf","system_id":"levelo_inurba_marseille","lat":43.23167,"lon":5.43714,"is_reserved":false,"is_disabled":false,"rental_uris":{"android":"levelo://app?vid=f15bc5cc-bf9e-4ae5-b4d9-ff0a9b68c8cf","ios":"levelo://app?vid=f15bc5cc-bf9e-4ae5-b4d9-ff0a9b68c8cf"},"vehicle_type_id":"4","last_reported":1762531903,"current_range_meters":9600,"station_id":"ce4bhmp2rcd13ifvqgog","pricing_plan_id":"cebpf4jnsgd1na2vs0mg"},{"bike_id":"0e20a5d9-0ab3-4e71-a3ef-c9be28fc5551","system_id":"levelo_inurba_marseille","lat":43.28529,"lon":5.44107,"is_reserved":false,"is_disabled":false,"rental_uris":{"android":"levelo://app?vid=0e20a5d9-0ab3-4e71-a3ef-c9be28fc5551","ios":"levelo://app?vid=0e20a5d9-0ab3-4e71-a3ef-c9be28fc5551"},"vehicle_type_id":"4","last_reported":1762531903,"current_range_meters":9600,"station_id":"st_d3j3df2ikq2c7380ej80","pricing_plan_id":"cebpf4jnsgd1na2vs0mg"},{"bike_id":"d457f297-5a55-4cb4-8dd5-81132f3a7bbe","system_id":"levelo_inurba_marseille","lat":43.30893,"lon":5.39656,"is_reserved":false,"is_disabled":false,"rental_uris":{"android":"levelo://app?vid=d457f297-5a55-4cb4-8dd5-81132f3a7bbe","ios":"levelo://app?vid=d457f297-5a55-4cb4-8dd5-81132f3a7bbe"},"vehicle_type_id":"4","last_reported":1762531903,"current_range_meters":10000,"station_id":"ce4bh012rcd13ifvqcv0","pricing_plan_id":"cebpf4jnsgd1na2vs0mg"},{"bike_id":"be1fbea8-36ee-44f1-a4d0-8755f35b2459","system_id":"levelo_inurba_marseille","lat":43.31717,"lon":5.42409,"is_reserved":false,"is_disabled":false,"rental_uris":{"android":"levelo://app?vid=be1fbea8-36ee-44f1-a4d0-8755f35b2459","ios":"levelo://app?vid=be1fbea8-36ee-44f1-a4d0-8755f35b2459"},"vehicle_type_id":"4","last_reported":1762531903,"current_range_meters":10800,"station_id":"ce4bhp92rcd13ifvqhbg","pricing_plan_id":"cebpf4jnsgd1na2vs0mg"},{"bike_id":"1429fa01-256c-4037-bf14-f7e4da268e66","system_id":"levelo_inurba_marseille","lat":43.29907,"lon":5.37463,"is_reserved":false,"is_disabled":false,"rental_uris":{"android":"levelo://app?vid=1429fa01-256c-4037-bf14-f7e4da268e66","ios":"levelo://app?vid=1429fa01-256c-4037-bf14-f7e4da268e66"},"vehicle_type_id":"4","last_reported":1762531903,"current_range_meters":10800,"station_id":"ce4bgjh2rcd13ifvqbg0","pricing_plan_id":"cebpf4jnsgd1na2vs0mg"},{"bike_id":"711b5184-06a1-46c6-b1ad-270408b914a4","system_id":"levelo_inurba_marseille","lat":43.30003,"lon":5.40971,"is_reserved":false,"is_disabled":false,"rental_uris":{"android":"levelo://app?vid=711b5184-06a1-46c6-b1ad-270408b914a4","ios":"levelo://app?vid=711b5184-06a1-46c6-b1ad-270408b914a4"},"vehicle_type_id":"4","last_reported":1762531903,"current_range_meters":10800,"station_id":"","pricing_plan_id":"cebpf4jnsgd1na2vs0mg"},{"bike_id":"cdcdaaee-241e-4fbc-bec9-ecb4f057ca96","system_id":"levelo_inurba_marseille","lat":43.33027,"lon":5.39036,"is_reserved":false,"is_disabled":false,"rental_uris":{"android":"levelo://app?vid=cdcdaaee-241e-4fbc-bec9-ecb4f057ca96","ios":"levelo://app?vid=cdcdaaee-241e-4fbc-bec9-ecb4f057ca96"},"vehicle_type_id":"4","last_reported":1762531903,"current_range_meters":10800,"station_id":"ce4bhr92rcd13ifvqhrg","pricing_plan_id":"cebpf4jnsgd1na2vs0mg"},{"bike_id":"30837460-32a3-4a23-adca-913b3fa417d9","system_id":"levelo_inurba_marseille","lat":43.29848,"lon":5.36273,"is_reserved":false,"is_disabled":false,"rental_uris":{"android":"levelo://app?vid=30837460-32a3-4a23-adca-913b3fa417d9","ios":"levelo://app?vid=30837460-32a3-4a23-adca-913b3fa417d9"},"vehicle_type_id":"4","last_reported":1762531903,"current_range_meters":10800,"station_id":"ce4bgpp2rcd13ifvqc3g","pricing_plan_id":"cebpf4jnsgd1na2vs0mg"},{"bike_id":"735af335-66bf-4340-87fb-78f795989dcc","system_id":"levelo_inurba_marseille","lat":43.29941,"lon":5.38214,"is_reserved":false,"is_disabled":false,"rental_uris":{"android":"levelo://app?vid=735af335-66bf-4340-87fb-78f795989dcc","ios":"levelo://app?vid=735af335-66bf-4340-87fb-78f795989dcc"},"vehicle_type_id":"4","last_reported":1762531903,"current_range_meters":10800,"station_id":"","pricing_plan_id":"cebpf4jnsgd1na2vs0mg"},{"bike_id":"83e8e881-4712-42d8-8ce9-1e6f6d105674","system_id":"levelo_inurba_marseille","lat":43.28218,"lon":5.39056,"is_reserved":false,"is_disabled":false,"rental_uris":{"android":"levelo://app?vid=83e8e881-4712-42d8-8ce9-1e6f6d105674","ios":"levelo://app?vid=83e8e881-4712-42d8-8ce9-1e6f6d105674"},"vehicle_type_id":"4","last_reported":1762531903,"current_range_meters":10800,"station_id":"ce4bhn92rcd13ifvqgsg","pricing_plan_id":"cebpf4jnsgd1na2vs0mg"},{"bike_id":"ec9c40e8-1667-4044-929d-0a9a1d1080f0","system_id":"levelo_inurba_marseille","lat":43.31072,"lon":5.38357,"is_reserved":false,"is_disabled":false,"rental_uris":{"android":"levelo://app?vid=ec9c40e8-1667-4044-929d-0a9a1d1080f0","ios":"levelo://app?vid=ec9c40e8-1667-4044-929d-0a9a1d1080f0"},"vehicle_type_id":"4","last_reported":1762531903,"current_range_meters":10800,"station_id":"ce4bgv92rcd13ifvqcr0","pricing_plan_id":"cebpf4jnsgd1na2vs0mg"},{"bike_id":"8f01e68a-0a05-4db6-b791-b8beaba42366","system_id":"levelo_inurba_marseille","lat":43.29785,"lon":5.38091,"is_reserved":false,"is_disabled":false,"rental_uris":{"android":"levelo://app?vid=8f01e68a-0a05-4db6-b791-b8beaba42366","ios":"levelo://app?vid=8f01e68a-0a05-4db6-b791-b8beaba42366"},"vehicle_type_id":"4","last_reported":1762531903,"current_range_meters":11200,"station_id":"ce4bgip2rcd13ifvqbb0","pricing_plan_id":"cebpf4jnsgd1na2vs0mg"},{"bike_id":"bf54311a-6347-4b36-aaaf-ce1a0ecc323a","system_id":"levelo_inurba_marseille","lat":43.241616,"lon":5.36402,"is_reserved":false,"is_disabled":false,"rental_uris":{"android":"levelo://app?vid=bf54311a-6347-4b36-aaaf-ce1a0ecc323a","ios":"levelo://app?vid=bf54311a-6347-4b36-aaaf-ce1a0ecc323a"},"vehicle_type_id":"4","last_reported":1762531903,"current_range_meters":11200,"station_id":"cpo36qri1sfpv3e86is0","pricing_plan_id":"cebpf4jnsgd1na2vs0mg"},{"bike_id":"5bee8f0f-57fe-4257-a72a-04a4967570b5","system_id":"levelo_inurba_marseille","lat":43.3005,"lon":5.37728,"is_reserved":false,"is_disabled":false,"rental_uris":{"android":"levelo://app?vid=5bee8f0f-57fe-4257-a72a-04a4967570b5","ios":"levelo://app?vid=5bee8f0f-57fe-4257-a72a-04a4967570b5"},"vehicle_type_id":"4","last_reported":1762531903,"current_range_meters":11200,"station_id":"","pricing_plan_id":"cebpf4jnsgd1na2vs0mg"},{"bike_id":"c541d6c6-d855-480d-9416-ad1e26b18f93","system_id":"levelo_inurba_marseille","lat":43.29507,"lon":5.39417,"is_reserved":false,"is_disabled":true,"rental_uris":{"android":"levelo://app?vid=c541d6c6-d855-480d-9416-ad1e26b18f93","ios":"levelo://app?vid=c541d6c6-d855-480d-9416-ad1e26b18f93"},"vehicle_type_id":"4","last_reported":1762531903,"current_range_meters":11200,"station_id":"ce4bh292rcd13ifvqdf0","pricing_plan_id":"cebpf4jnsgd1na2vs0mg"},{"bike_id":"018716a9-e25f-47c6-a624-56aacc45fee4","system_id":"levelo_inurba_marseille","lat":43.270351,"lon":5.402721,"is_reserved":false,"is_disabled":false,"rental_uris":{"android":"levelo://app?vid=018716a9-e25f-47c6-a624-56aacc45fee4","ios":"levelo://app?vid=018716a9-e25f-47c6-a624-56aacc45fee4"},"vehicle_type_id":"4","last_reported":1762531903,"current_range_meters":11600,"station_id":"ce4bhk92rcd13ifvqgc0","pricing_plan_id":"cebpf4jnsgd1na2vs0mg"},{"bike_id":"91195dc3-7219-4139-a8eb-8e52bb6d271e","system_id":"levelo_inurba_marseille","lat":43.23194,"lon":5.35554,"is_reserved":false,"is_disabled":false,"rental_uris":{"android":"levelo://app?vid=91195dc3-7219-4139-a8eb-8e52bb6d271e","ios":"levelo://app?vid=91195dc3-7219-4139-a8eb-8e52bb6d271e"},"vehicle_type_id":"4","last_reported":1762531903,"current_range_meters":11600,"station_id":"ce4bhu92rcd13ifvqi70","pricing_plan_id":"cebpf4jnsgd1na2vs0mg"},{"bike_id":"b6a4fea7-fa81-4df7-b423-ecaf25c39bbb","system_id":"levelo_inurba_marseille","lat":43.29531,"lon":5.39044,"is_reserved":false,"is_disabled":false,"rental_uris":{"android":"levelo://app?vid=b6a4fea7-fa81-4df7-b423-ecaf25c39bbb","ios":"levelo://app?vid=b6a4fea7-fa81-4df7-b423-ecaf25c39bbb"},"vehicle_type_id":"4","last_reported":1762531903,"current_range_meters":11600,"station_id":"ce4bh3p2rcd13ifvqdp0","pricing_plan_id":"cebpf4jnsgd1na2vs0mg"},{"bike_id":"ff52e6d2-0126-428b-8241-f19a2cd5a014","system_id":"levelo_inurba_marseille","lat":43.26953,"lon":5.38639,"is_reserved":false,"is_disabled":true,"rental_uris":{"android":"levelo://app?vid=ff52e6d2-0126-428b-8241-f19a2cd5a014","ios":"levelo://app?vid=ff52e6d2-0126-428b-8241-f19a2cd5a014"},"vehicle_type_id":"4","last_reported":1762531903,"current_range_meters":11600,"station_id":"ce4bhh92rcd13ifvqfh0","pricing_plan_id":"cebpf4jnsgd1na2vs0mg"},{"bike_id":"1633778c-45db-4c62-8566-32131e5804c4","system_id":"levelo_inurba_marseille","lat":43.3127,"lon":5.4018,"is_reserved":false,"is_disabled":false,"rental_uris":{"android":"levelo://app?vid=1633778c-45db-4c62-8566-32131e5804c4","ios":"levelo://app?vid=1633778c-45db-4c62-8566-32131e5804c4"},"vehicle_type_id":"4","last_reported":1762531903,"current_range_meters":11600,"station_id":"ce4bh092rcd13ifvqd30","pricing_plan_id":"cebpf4jnsgd1na2vs0mg"},{"bike_id":"86b00b02-9a68-4788-881e-d04a5ba92beb","system_id":"levelo_inurba_marseille","lat":43.260594,"lon":5.394014,"is_reserved":false,"is_disabled":false,"rental_uris":{"android":"levelo://app?vid=86b00b02-9a68-4788-881e-d04a5ba92beb","ios":"levelo://app?vid=86b00b02-9a68-4788-881e-d04a5ba92beb"},"vehicle_type_id":"4","last_reported":1762531903,"current_range_meters":12000,"station_id":"ce4bhh92rcd13ifvqfj0","pricing_plan_id":"cebpf4jnsgd1na2vs0mg"},{"bike_id":"ec44e195-cde1-4252-aadf-701a64256dd7","system_id":"levelo_inurba_marseille","lat":43.24609,"lon":5.43164,"is_reserved":false,"is_disabled":false,"rental_uris":{"android":"levelo://app?vid=ec44e195-cde1-4252-aadf-701a64256dd7","ios":"levelo://app?vid=ec44e195-cde1-4252-aadf-701a64256dd7"},"vehicle_type_id":"4","last_reported":1762531903,"current_range_meters":12000,"station_id":"st_d2m6c4gdas8pm72e190g","pricing_plan_id":"cebpf4jnsgd1na2vs0mg"},{"bike_id":"d3f25df0-d494-4fd5-ba13-335b21645822","system_id":"levelo_inurba_marseille","lat":43.31689,"lon":5.37799,"is_reserved":false,"is_disabled":false,"rental_uris":{"android":"levelo://app?vid=d3f25df0-d494-4fd5-ba13-335b21645822","ios":"levelo://app?vid=d3f25df0-d494-4fd5-ba13-335b21645822"},"vehicle_type_id":"4","last_reported":1762531903,"current_range_meters":12000,"station_id":"","pricing_plan_id":"cebpf4jnsgd1na2vs0mg"},{"bike_id":"2214147d-b2bc-47a5-8262-b29a2f3cbd90","system_id":"levelo_inurba_marseille","lat":43.28848,"lon":5.42504,"is_reserved":false,"is_disabled":false,"rental_uris":{"android":"levelo://app?vid=2214147d-b2bc-47a5-8262-b29a2f3cbd90","ios":"levelo://app?vid=2214147d-b2bc-47a5-8262-b29a2f3cbd90"},"vehicle_type_id":"4","last_reported":1762531903,"current_range_meters":12000,"station_id":"st_d3b462108ojc7389ooeg","pricing_plan_id":"cebpf4jnsgd1na2vs0mg"},{"bike_id":"1163662a-59d3-4106-af0e-1e2d8bb82520","system_id":"levelo_inurba_marseille","lat":43.25004,"lon":5.38929,"is_reserved":false,"is_disabled":false,"rental_uris":{"android":"levelo://app?vid=1163662a-59d3-4106-af0e-1e2d8bb82520","ios":"levelo://app?vid=1163662a-59d3-4106-af0e-1e2d8bb82520"},"vehicle_type_id":"4","last_reported":1762531903,"current_range_meters":12000,"station_id":"ce4bhgp2rcd13ifvqfd0","pricing_plan_id":"cebpf4jnsgd1na2vs0mg"},{"bike_id":"7d09baa1-048b-4fbb-8a4e-4ebf8ef5b1a3","system_id":"levelo_inurba_marseille","lat":43.28734,"lon":5.37923,"is_reserved":false,"is_disabled":false,"rental_uris":{"android":"levelo://app?vid=7d09baa1-048b-4fbb-8a4e-4ebf8ef5b1a3","ios":"levelo://app?vid=7d09baa1-048b-4fbb-8a4e-4ebf8ef5b1a3"},"vehicle_type_id":"4","last_reported":1762531903,"current_range_meters":12000,"station_id":"ce4bh9p2rcd13ifvqec0","pricing_plan_id":"cebpf4jnsgd1na2vs0mg"},{"bike_id":"06d8a6d4-cde1-4774-80e5-91004a4fe543","system_id":"levelo_inurba_marseille","lat":43.29849,"lon":5.36288,"is_reserved":false,"is_disabled":false,"rental_uris":{"android":"levelo://app?vid=06d8a6d4-cde1-4774-80e5-91004a4fe543","ios":"levelo://app?vid=06d8a6d4-cde1-4774-80e5-91004a4fe543"},"vehicle_type_id":"4","last_reported":1762531903,"current_range_meters":12400,"station_id":"ce4bgpp2rcd13ifvqc3g","pricing_plan_id":"cebpf4jnsgd1na2vs0mg"},{"bike_id":"470fbe84-4292-424a-81a1-ddc5d0fc9959","system_id":"levelo_inurba_marseille","lat":43.33782,"lon":5.37434,"is_reserved":false,"is_disabled":false,"rental_uris":{"android":"levelo://app?vid=470fbe84-4292-424a-81a1-ddc5d0fc9959","ios":"levelo://app?vid=470fbe84-4292-424a-81a1-ddc5d0fc9959"},"vehicle_type_id":"4","last_reported":1762531903,"current_range_meters":12400,"station_id":"","pricing_plan_id":"cebpf4jnsgd1na2vs0mg"},{"bike_id":"23d4b732-c785-4a74-a220-93191f06591d","system_id":"levelo_inurba_marseille","lat":43.21183,"lon":5.35081,"is_reserved":false,"is_disabled":true,"rental_uris":{"android":"levelo://app?vid=23d4b732-c785-4a74-a220-93191f06591d","ios":"levelo://app?vid=23d4b732-c785-4a74-a220-93191f06591d"},"vehicle_type_id":"4","last_reported":1762531903,"current_range_meters":12400,"station_id":"st_cvj6sg6p6f1abm77japg","pricing_plan_id":"cebpf4jnsgd1na2vs0mg"},{"bike_id":"2e0f5b64-65ed-42b3-9deb-fc4f03eedfcc","system_id":"levelo_inurba_marseille","lat":43.28527,"lon":5.44082,"is_reserved":false,"is_disabled":false,"rental_uris":{"android":"levelo://app?vid=2e0f5b64-65ed-42b3-9deb-fc4f03eedfcc","ios":"levelo://app?vid=2e0f5b64-65ed-42b3-9deb-fc4f03eedfcc"},"vehicle_type_id":"4","last_reported":1762531903,"current_range_meters":12400,"station_id":"st_d3j3df2ikq2c7380ej80","pricing_plan_id":"cebpf4jnsgd1na2vs0mg"},{"bike_id":"ada7c068-07f5-4885-8cb5-5c4f9b537ace","system_id":"levelo_inurba_marseille","lat":43.23148,"lon":5.43711,"is_reserved":false,"is_disabled":false,"rental_uris":{"android":"levelo://app?vid=ada7c068-07f5-4885-8cb5-5c4f9b537ace","ios":"levelo://app?vid=ada7c068-07f5-4885-8cb5-5c4f9b537ace"},"vehicle_type_id":"4","last_reported":1762531903,"current_range_meters":12800,"station_id":"ce4bhmp2rcd13ifvqgog","pricing_plan_id":"cebpf4jnsgd1na2vs0mg"},{"bike_id":"f0d99751-b4ba-4b89-bd1c-c89da7167dbd","system_id":"levelo_inurba_marseille","lat":43.2954,"lon":5.39391,"is_reserved":false,"is_disabled":false,"rental_uris":{"android":"levelo://app?vid=f0d99751-b4ba-4b89-bd1c-c89da7167dbd","ios":"levelo://app?vid=f0d99751-b4ba-4b89-bd1c-c89da7167dbd"},"vehicle_type_id":"4","last_reported":1762531903,"current_range_meters":12800,"station_id":"ce4bh292rcd13ifvqdf0","pricing_plan_id":"cebpf4jnsgd1na2vs0mg"},{"bike_id":"52ceef46-74d0-4edd-9bd7-97163d154219","system_id":"levelo_inurba_marseille","lat":43.29863,"lon":5.37476,"is_reserved":false,"is_disabled":false,"rental_uris":{"android":"levelo://app?vid=52ceef46-74d0-4edd-9bd7-97163d154219","ios":"levelo://app?vid=52ceef46-74d0-4edd-9bd7-97163d154219"},"vehicle_type_id":"4","last_reported":1762531903,"current_range_meters":12800,"station_id":"ce4bgjh2rcd13ifvqbg0","pricing_plan_id":"cebpf4jnsgd1na2vs0mg"},{"bike_id":"9fb4c85b-b944-4739-883c-9c9af0aa5a74","system_id":"levelo_inurba_marseille","lat":43.24629,"lon":5.43142,"is_reserved":false,"is_disabled":false,"rental_uris":{"android":"levelo://app?vid=9fb4c85b-b944-4739-883c-9c9af0aa5a74","ios":"levelo://app?vid=9fb4c85b-b944-4739-883c-9c9af0aa5a74"},"vehicle_type_id":"4","last_reported":1762531903,"current_range_meters":13600,"station_id":"st_d2m6c4gdas8pm72e190g","pricing_plan_id":"cebpf4jnsgd1na2vs0mg"},{"bike_id":"55784d6c-7e4f-4ed9-9736-f2c1ae2bff19","system_id":"levelo_inurba_marseille","lat":43.29387,"lon":5.3783,"is_reserved":false,"is_disabled":false,"rental_uris":{"android":"levelo://app?vid=55784d6c-7e4f-4ed9-9736-f2c1ae2bff19","ios":"levelo://app?vid=55784d6c-7e4f-4ed9-9736-f2c1ae2bff19"},"vehicle_type_id":"4","last_reported":1762531903,"current_range_meters":13600,"station_id":"ce4bgjh2rcd13ifvqbf0","pricing_plan_id":"cebpf4jnsgd1na2vs0mg"},{"bike_id":"2c54771e-bc90-4fcb-a7c7-984aebd4a9b2","system_id":"levelo_inurba_marseille","lat":43.301303,"lon":5.387847,"is_reserved":false,"is_disabled":false,"rental_uris":{"android":"levelo://app?vid=2c54771e-bc90-4fcb-a7c7-984aebd4a9b2","ios":"levelo://app?vid=2c54771e-bc90-4fcb-a7c7-984aebd4a9b2"},"vehicle_type_id":"4","last_reported":1762531903,"current_range_meters":13600,"station_id":"ce4bghh2rcd13ifvqb60","pricing_plan_id":"cebpf4jnsgd1na2vs0mg"},{"bike_id":"7c392732-2900-41fd-8c6d-e5b49cdf67b5","system_id":"levelo_inurba_marseille","lat":43.29681,"lon":5.38228,"is_reserved":false,"is_disabled":false,"rental_uris":{"android":"levelo://app?vid=7c392732-2900-41fd-8c6d-e5b49cdf67b5","ios":"levelo://app?vid=7c392732-2900-41fd-8c6d-e5b49cdf67b5"},"vehicle_type_id":"4","last_reported":1762531903,"current_range_meters":13600,"station_id":"","pricing_plan_id":"cebpf4jnsgd1na2vs0mg"},{"bike_id":"e46a9b48-bc27-4642-b66e-e43515cd7ad7","system_id":"levelo_inurba_marseille","lat":43.303799,"lon":5.410109,"is_reserved":false,"is_disabled":false,"rental_uris":{"android":"levelo://app?vid=e46a9b48-bc27-4642-b66e-e43515cd7ad7","ios":"levelo://app?vid=e46a9b48-bc27-4642-b66e-e43515cd7ad7"},"vehicle_type_id":"4","last_reported":1762531903,"current_range_meters":13600,"station_id":"ce4bhop2rcd13ifvqh8g","pricing_plan_id":"cebpf4jnsgd1na2vs0mg"},{"bike_id":"3a6b939b-8483-4a00-8652-d825cdd856d7","system_id":"levelo_inurba_marseille","lat":43.22547,"lon":5.41636,"is_reserved":false,"is_disabled":false,"rental_uris":{"android":"levelo://app?vid=3a6b939b-8483-4a00-8652-d825cdd856d7","ios":"levelo://app?vid=3a6b939b-8483-4a00-8652-d825cdd856d7"},"vehicle_type_id":"4","last_reported":1762531903,"current_range_meters":13600,"station_id":"st_d2o4gvlbi1j2169b742g","pricing_plan_id":"cebpf4jnsgd1na2vs0mg"},{"bike_id":"99a414f9-53f3-43cf-8b81-d519630b1aa6","system_id":"levelo_inurba_marseille","lat":43.31362,"lon":5.38495,"is_reserved":false,"is_disabled":false,"rental_uris":{"android":"levelo://app?vid=99a414f9-53f3-43cf-8b81-d519630b1aa6","ios":"levelo://app?vid=99a414f9-53f3-43cf-8b81-d519630b1aa6"},"vehicle_type_id":"4","last_reported":1762531903,"current_range_meters":14000,"station_id":"ce4bgt92rcd13ifvqcf0","pricing_plan_id":"cebpf4jnsgd1na2vs0mg"},{"bike_id":"d0486e4c-83e2-47ea-b815-83949b2897b4","system_id":"levelo_inurba_marseille","lat":43.25336,"lon":5.42173,"is_reserved":false,"is_disabled":false,"rental_uris":{"android":"levelo://app?vid=d0486e4c-83e2-47ea-b815-83949b2897b4","ios":"levelo://app?vid=d0486e4c-83e2-47ea-b815-83949b2897b4"},"vehicle_type_id":"4","last_reported":1762531903,"current_range_meters":14000,"station_id":"st_d2m65c5bi1j21697t3ng","pricing_plan_id":"cebpf4jnsgd1na2vs0mg"},{"bike_id":"edaee579-c88a-4ac1-a4e3-42cc85c77165","system_id":"levelo_inurba_marseille","lat":43.27169,"lon":5.40989,"is_reserved":false,"is_disabled":false,"rental_uris":{"android":"levelo://app?vid=edaee579-c88a-4ac1-a4e3-42cc85c77165","ios":"levelo://app?vid=edaee579-c88a-4ac1-a4e3-42cc85c77165"},"vehicle_type_id":"4","last_reported":1762531903,"current_range_meters":14000,"station_id":"ce4bhl12rcd13ifvqgf0","pricing_plan_id":"cebpf4jnsgd1na2vs0mg"},{"bike_id":"4bd32429-e252-4697-954c-510ac88f74ba","system_id":"levelo_inurba_marseille","lat":43.29309,"lon":5.37464,"is_reserved":false,"is_disabled":false,"rental_uris":{"android":"levelo://app?vid=4bd32429-e252-4697-954c-510ac88f74ba","ios":"levelo://app?vid=4bd32429-e252-4697-954c-510ac88f74ba"},"vehicle_type_id":"4","last_reported":1762531903,"current_range_meters":14000,"station_id":"ce4bgi12rcd13ifvqb70","pricing_plan_id":"cebpf4jnsgd1na2vs0mg"},{"bike_id":"310115a0-7bf2-4a4a-9d53-56bf6918e4d0","system_id":"levelo_inurba_marseille","lat":43.28468,"lon":5.48396,"is_reserved":false,"is_disabled":false,"rental_uris":{"android":"levelo://app?vid=310115a0-7bf2-4a4a-9d53-56bf6918e4d0","ios":"levelo://app?vid=310115a0-7bf2-4a4a-9d53-56bf6918e4d0"},"vehicle_type_id":"4","last_reported":1762531903,"current_range_meters":14400,"station_id":"st_d3svhcjqgbts73a3dn0g","pricing_plan_id":"cebpf4jnsgd1na2vs0mg"},{"bike_id":"ea44acbb-6978-4804-afc4-489a2c940bab","system_id":"levelo_inurba_marseille","lat":43.2925,"lon":5.40908,"is_reserved":false,"is_disabled":false,"rental_uris":{"android":"levelo://app?vid=ea44acbb-6978-4804-afc4-489a2c940bab","ios":"levelo://app?vid=ea44acbb-6978-4804-afc4-489a2c940bab"},"vehicle_type_id":"4","last_reported":1762531903,"current_range_meters":14400,"station_id":"ce4bh192rcd13ifvqdc0","pricing_plan_id":"cebpf4jnsgd1na2vs0mg"},{"bike_id":"a88522c2-7f31-460d-8b59-1c10109fed19","system_id":"levelo_inurba_marseille","lat":43.31456,"lon":5.37597,"is_reserved":false,"is_disabled":false,"rental_uris":{"android":"levelo://app?vid=a88522c2-7f31-460d-8b59-1c10109fed19","ios":"levelo://app?vid=a88522c2-7f31-460d-8b59-1c10109fed19"},"vehicle_type_id":"4","last_reported":1762531903,"current_range_meters":14400,"station_id":"","pricing_plan_id":"cebpf4jnsgd1na2vs0mg"},{"bike_id":"89f17b2f-d7c7-414e-acbc-d824f6a9f2d1","system_id":"levelo_inurba_marseille","lat":43.231801,"lon":5.399949,"is_reserved":false,"is_disabled":false,"rental_uris":{"android":"levelo://app?vid=89f17b2f-d7c7-414e-acbc-d824f6a9f2d1","ios":"levelo://app?vid=89f17b2f-d7c7-414e-acbc-d824f6a9f2d1"},"vehicle_type_id":"4","last_reported":1762531903,"current_range_meters":14400,"station_id":"ce4bhn12rcd13ifvqgqg","pricing_plan_id":"cebpf4jnsgd1na2vs0mg"},{"bike_id":"1218c316-6bce-4b9f-833f-867efa687a9d","system_id":"levelo_inurba_marseille","lat":43.31882,"lon":5.40747,"is_reserved":false,"is_disabled":false,"rental_uris":{"android":"levelo://app?vid=1218c316-6bce-4b9f-833f-867efa687a9d","ios":"levelo://app?vid=1218c316-6bce-4b9f-833f-867efa687a9d"},"vehicle_type_id":"4","last_reported":1762531903,"current_range_meters":14400,"station_id":"ce4bhq12rcd13ifvqhig","pricing_plan_id":"cebpf4jnsgd1na2vs0mg"},{"bike_id":"3771f242-ebc1-4678-84d4-230be10e9f54","system_id":"levelo_inurba_marseille","lat":43.25326,"lon":5.4216,"is_reserved":false,"is_disabled":false,"rental_uris":{"android":"levelo://app?vid=3771f242-ebc1-4678-84d4-230be10e9f54","ios":"levelo://app?vid=3771f242-ebc1-4678-84d4-230be10e9f54"},"vehicle_type_id":"4","last_reported":1762531903,"current_range_meters":14800,"station_id":"st_d2m65c5bi1j21697t3ng","pricing_plan_id":"cebpf4jnsgd1na2vs0mg"},{"bike_id":"43cfab9e-f547-4304-9999-4a8329474751","system_id":"levelo_inurba_marseille","lat":43.21184,"lon":5.35098,"is_reserved":false,"is_disabled":false,"rental_uris":{"android":"levelo://app?vid=43cfab9e-f547-4304-9999-4a8329474751","ios":"levelo://app?vid=43cfab9e-f547-4304-9999-4a8329474751"},"vehicle_type_id":"4","last_reported":1762531903,"current_range_meters":14800,"station_id":"st_cvj6sg6p6f1abm77japg","pricing_plan_id":"cebpf4jnsgd1na2vs0mg"},{"bike_id":"8177aa2b-34a7-4d92-9bfd-3ffb014e64d3","system_id":"levelo_inurba_marseille","lat":43.29634,"lon":5.377132,"is_reserved":false,"is_disabled":false,"rental_uris":{"android":"levelo://app?vid=8177aa2b-34a7-4d92-9bfd-3ffb014e64d3","ios":"levelo://app?vid=8177aa2b-34a7-4d92-9bfd-3ffb014e64d3"},"vehicle_type_id":"4","last_reported":1762531903,"current_range_meters":14800,"station_id":"ce4bgi92rcd13ifvqb90","pricing_plan_id":"cebpf4jnsgd1na2vs0mg"},{"bike_id":"dff6b6ac-b7da-4e65-b854-fe9dc1ccc19c","system_id":"levelo_inurba_marseille","lat":43.32032,"lon":5.4156,"is_reserved":false,"is_disabled":true,"rental_uris":{"android":"levelo://app?vid=dff6b6ac-b7da-4e65-b854-fe9dc1ccc19c","ios":"levelo://app?vid=dff6b6ac-b7da-4e65-b854-fe9dc1ccc19c"},"vehicle_type_id":"4","last_reported":1762531903,"current_range_meters":14800,"station_id":"ce4bhq92rcd13ifvqhkg","pricing_plan_id":"cebpf4jnsgd1na2vs0mg"},{"bike_id":"e9b5fbb1-2af1-4aea-8723-897d9b7ee5be","system_id":"levelo_inurba_marseille","lat":43.249994,"lon":5.389351,"is_reserved":false,"is_disabled":false,"rental_uris":{"android":"levelo://app?vid=e9b5fbb1-2af1-4aea-8723-897d9b7ee5be","ios":"levelo://app?vid=e9b5fbb1-2af1-4aea-8723-897d9b7ee5be"},"vehicle_type_id":"4","last_reported":1762531903,"current_range_meters":14800,"station_id":"ce4bhgp2rcd13ifvqfd0","pricing_plan_id":"cebpf4jnsgd1na2vs0mg"},{"bike_id":"401209f9-1098-407a-9275-182f209531f6","system_id":"levelo_inurba_marseille","lat":43.29538,"lon":5.42296,"is_reserved":false,"is_disabled":false,"rental_uris":{"android":"levelo://app?vid=401209f9-1098-407a-9275-182f209531f6","ios":"levelo://app?vid=401209f9-1098-407a-9275-182f209531f6"},"vehicle_type_id":"4","last_reported":1762531903,"current_range_meters":14800,"station_id":"ce4bhph2rcd13ifvqhdg","pricing_plan_id":"cebpf4jnsgd1na2vs0mg"},{"bike_id":"4548bfb3-06f4-4b10-aaa4-465cca5b7e05","system_id":"levelo_inurba_marseille","lat":43.28516,"lon":5.44035,"is_reserved":false,"is_disabled":false,"rental_uris":{"android":"levelo://app?vid=4548bfb3-06f4-4b10-aaa4-465cca5b7e05","ios":"levelo://app?vid=4548bfb3-06f4-4b10-aaa4-465cca5b7e05"},"vehicle_type_id":"4","last_reported":1762531903,"current_range_meters":15200,"station_id":"st_d3j3df2ikq2c7380ej80","pricing_plan_id":"cebpf4jnsgd1na2vs0mg"},{"bike_id":"05c639a2-6660-40ed-a12f-85b485fe188e","system_id":"levelo_inurba_marseille","lat":43.29218,"lon":5.35775,"is_reserved":false,"is_disabled":false,"rental_uris":{"android":"levelo://app?vid=05c639a2-6660-40ed-a12f-85b485fe188e","ios":"levelo://app?vid=05c639a2-6660-40ed-a12f-85b485fe188e"},"vehicle_type_id":"4","last_reported":1762531903,"current_range_meters":15200,"station_id":"ce4bhb12rcd13ifvqel0","pricing_plan_id":"cebpf4jnsgd1na2vs0mg"},{"bike_id":"80e9e90e-8b23-462f-bee1-4e4d9e1295b2","system_id":"levelo_inurba_marseille","lat":43.30879,"lon":5.39656,"is_reserved":false,"is_disabled":false,"rental_uris":{"android":"levelo://app?vid=80e9e90e-8b23-462f-bee1-4e4d9e1295b2","ios":"levelo://app?vid=80e9e90e-8b23-462f-bee1-4e4d9e1295b2"},"vehicle_type_id":"4","last_reported":1762531903,"current_range_meters":15200,"station_id":"ce4bh012rcd13ifvqcv0","pricing_plan_id":"cebpf4jnsgd1na2vs0mg"},{"bike_id":"37e9d35d-f13f-4bac-98a6-f88d39b5a885","system_id":"levelo_inurba_marseille","lat":43.31282,"lon":5.4018,"is_reserved":false,"is_disabled":false,"rental_uris":{"android":"levelo://app?vid=37e9d35d-f13f-4bac-98a6-f88d39b5a885","ios":"levelo://app?vid=37e9d35d-f13f-4bac-98a6-f88d39b5a885"},"vehicle_type_id":"4","last_reported":1762531903,"current_range_meters":15200,"station_id":"ce4bh092rcd13ifvqd30","pricing_plan_id":"cebpf4jnsgd1na2vs0mg"},{"bike_id":"9a4b7a79-c3be-440d-9af1-7dcb4eabba92","system_id":"levelo_inurba_marseille","lat":43.29882,"lon":5.38917,"is_reserved":false,"is_disabled":false,"rental_uris":{"android":"levelo://app?vid=9a4b7a79-c3be-440d-9af1-7dcb4eabba92","ios":"levelo://app?vid=9a4b7a79-c3be-440d-9af1-7dcb4eabba92"},"vehicle_type_id":"4","last_reported":1762531903,"current_range_meters":15200,"station_id":"ce4bh392rcd13ifvqdl0","pricing_plan_id":"cebpf4jnsgd1na2vs0mg"},{"bike_id":"7610764b-e582-4cee-948a-b3181b5833e9","system_id":"levelo_inurba_marseille","lat":43.309357,"lon":5.401358,"is_reserved":false,"is_disabled":false,"rental_uris":{"android":"levelo://app?vid=7610764b-e582-4cee-948a-b3181b5833e9","ios":"levelo://app?vid=7610764b-e582-4cee-948a-b3181b5833e9"},"vehicle_type_id":"4","last_reported":1762531903,"current_range_meters":15200,"station_id":"ce4bgvp2rcd13ifvqct0","pricing_plan_id":"cebpf4jnsgd1na2vs0mg"},{"bike_id":"5b03e0a7-e5b7-4bb1-a15f-78dcdc45fd57","system_id":"levelo_inurba_marseille","lat":43.231438,"lon":5.437335,"is_reserved":false,"is_disabled":false,"rental_uris":{"android":"levelo://app?vid=5b03e0a7-e5b7-4bb1-a15f-78dcdc45fd57","ios":"levelo://app?vid=5b03e0a7-e5b7-4bb1-a15f-78dcdc45fd57"},"vehicle_type_id":"4","last_reported":1762531903,"current_range_meters":15200,"station_id":"ce4bhmp2rcd13ifvqgog","pricing_plan_id":"cebpf4jnsgd1na2vs0mg"},{"bike_id":"6f3ecf7d-f4df-46b7-83eb-ecc115385f45","system_id":"levelo_inurba_marseille","lat":43.28338,"lon":5.38103,"is_reserved":false,"is_disabled":false,"rental_uris":{"android":"levelo://app?vid=6f3ecf7d-f4df-46b7-83eb-ecc115385f45","ios":"levelo://app?vid=6f3ecf7d-f4df-46b7-83eb-ecc115385f45"},"vehicle_type_id":"4","last_reported":1762531903,"current_range_meters":15200,"station_id":"ce4bh412rcd13ifvqdr0","pricing_plan_id":"cebpf4jnsgd1na2vs0mg"},{"bike_id":"3d68bfa0-2d3d-4fcd-bd63-f6096b16ab01","system_id":"levelo_inurba_marseille","lat":43.29485,"lon":5.43273,"is_reserved":false,"is_disabled":false,"rental_uris":{"android":"levelo://app?vid=3d68bfa0-2d3d-4fcd-bd63-f6096b16ab01","ios":"levelo://app?vid=3d68bfa0-2d3d-4fcd-bd63-f6096b16ab01"},"vehicle_type_id":"4","last_reported":1762531903,"current_range_meters":15200,"station_id":"","pricing_plan_id":"cebpf4jnsgd1na2vs0mg"},{"bike_id":"bb23c063-e1d1-4a4f-9fcd-fabde1c64b29","system_id":"levelo_inurba_marseille","lat":43.273713,"lon":5.362639,"is_reserved":false,"is_disabled":false,"rental_uris":{"android":"levelo://app?vid=bb23c063-e1d1-4a4f-9fcd-fabde1c64b29","ios":"levelo://app?vid=bb23c063-e1d1-4a4f-9fcd-fabde1c64b29"},"vehicle_type_id":"4","last_reported":1762531903,"current_range_meters":15200,"station_id":"ce4bhbh2rcd13ifvqeo0","pricing_plan_id":"cebpf4jnsgd1na2vs0mg"},{"bike_id":"22918fb7-a391-4f35-8c21-8eb60e2ab03f","system_id":"levelo_inurba_marseille","lat":43.2256,"lon":5.41629,"is_reserved":false,"is_disabled":false,"rental_uris":{"android":"levelo://app?vid=22918fb7-a391-4f35-8c21-8eb60e2ab03f","ios":"levelo://app?vid=22918fb7-a391-4f35-8c21-8eb60e2ab03f"},"vehicle_type_id":"4","last_reported":1762531903,"current_range_meters":16000,"station_id":"st_d2o4gvlbi1j2169b742g","pricing_plan_id":"cebpf4jnsgd1na2vs0mg"},{"bike_id":"d3fa7a4e-0c80-48f1-ac04-7f128cb92aab","system_id":"levelo_inurba_marseille","lat":43.29253,"lon":5.37626,"is_reserved":false,"is_disabled":false,"rental_uris":{"android":"levelo://app?vid=d3fa7a4e-0c80-48f1-ac04-7f128cb92aab","ios":"levelo://app?vid=d3fa7a4e-0c80-48f1-ac04-7f128cb92aab"},"vehicle_type_id":"4","last_reported":1762531903,"current_range_meters":16000,"station_id":"ce4bgi12rcd13ifvqb80","pricing_plan_id":"cebpf4jnsgd1na2vs0mg"},{"bike_id":"9af0687b-3e79-4e11-b844-dd239618aeba","system_id":"levelo_inurba_marseille","lat":43.28868,"lon":5.42528,"is_reserved":false,"is_disabled":false,"rental_uris":{"android":"levelo://app?vid=9af0687b-3e79-4e11-b844-dd239618aeba","ios":"levelo://app?vid=9af0687b-3e79-4e11-b844-dd239618aeba"},"vehicle_type_id":"4","last_reported":1762531903,"current_range_meters":16000,"station_id":"st_d3b462108ojc7389ooeg","pricing_plan_id":"cebpf4jnsgd1na2vs0mg"},{"bike_id":"045ad47d-4bea-406c-a3af-c7fec313e122","system_id":"levelo_inurba_marseille","lat":43.27993,"lon":5.40003,"is_reserved":false,"is_disabled":false,"rental_uris":{"android":"levelo://app?vid=045ad47d-4bea-406c-a3af-c7fec313e122","ios":"levelo://app?vid=045ad47d-4bea-406c-a3af-c7fec313e122"},"vehicle_type_id":"4","last_reported":1762531903,"current_range_meters":16000,"station_id":"ce4bho92rcd13ifvqh4g","pricing_plan_id":"cebpf4jnsgd1na2vs0mg"},{"bike_id":"33fcdbb0-2f2f-418c-a9e2-8bfbd62dc3a5","system_id":"levelo_inurba_marseille","lat":43.30538,"lon":5.367135,"is_reserved":false,"is_disabled":false,"rental_uris":{"android":"levelo://app?vid=33fcdbb0-2f2f-418c-a9e2-8bfbd62dc3a5","ios":"levelo://app?vid=33fcdbb0-2f2f-418c-a9e2-8bfbd62dc3a5"},"vehicle_type_id":"4","last_reported":1762531903,"current_range_meters":16000,"station_id":"ce4bgrp2rcd13ifvqc9g","pricing_plan_id":"cebpf4jnsgd1na2vs0mg"},{"bike_id":"9138cb8d-ef0a-4fd5-9deb-f9e9b98bb1bd","system_id":"levelo_inurba_marseille","lat":43.288632,"lon":5.358579,"is_reserved":false,"is_disabled":false,"rental_uris":{"android":"levelo://app?vid=9138cb8d-ef0a-4fd5-9deb-f9e9b98bb1bd","ios":"levelo://app?vid=9138cb8d-ef0a-4fd5-9deb-f9e9b98bb1bd"},"vehicle_type_id":"4","last_reported":1762531903,"current_range_meters":16000,"station_id":"ce4bhb12rcd13ifvqem0","pricing_plan_id":"cebpf4jnsgd1na2vs0mg"},{"bike_id":"3df6bfda-db80-475a-88ab-b10a24ae6e4f","system_id":"levelo_inurba_marseille","lat":43.23178,"lon":5.39988,"is_reserved":false,"is_disabled":false,"rental_uris":{"android":"levelo://app?vid=3df6bfda-db80-475a-88ab-b10a24ae6e4f","ios":"levelo://app?vid=3df6bfda-db80-475a-88ab-b10a24ae6e4f"},"vehicle_type_id":"4","last_reported":1762531903,"current_range_meters":16400,"station_id":"ce4bhn12rcd13ifvqgqg","pricing_plan_id":"cebpf4jnsgd1na2vs0mg"},{"bike_id":"65d83eaf-428a-43cd-a356-ecaed95948ff","system_id":"levelo_inurba_marseille","lat":43.24843,"lon":5.398,"is_reserved":false,"is_disabled":false,"rental_uris":{"android":"levelo://app?vid=65d83eaf-428a-43cd-a356-ecaed95948ff","ios":"levelo://app?vid=65d83eaf-428a-43cd-a356-ecaed95948ff"},"vehicle_type_id":"4","last_reported":1762531903,"current_range_meters":16400,"station_id":"","pricing_plan_id":"cebpf4jnsgd1na2vs0mg"},{"bike_id":"cbaf6e70-be37-4c92-8bb7-677f9be0a37d","system_id":"levelo_inurba_marseille","lat":43.30139,"lon":5.43127,"is_reserved":false,"is_disabled":false,"rental_uris":{"android":"levelo://app?vid=cbaf6e70-be37-4c92-8bb7-677f9be0a37d","ios":"levelo://app?vid=cbaf6e70-be37-4c92-8bb7-677f9be0a37d"},"vehicle_type_id":"4","last_reported":1762531903,"current_range_meters":16400,"station_id":"st_d3js3co5814s73ftftug","pricing_plan_id":"cebpf4jnsgd1na2vs0mg"},{"bike_id":"6272c3ad-95c2-456b-b507-9046eb558d00","system_id":"levelo_inurba_marseille","lat":43.30604,"lon":5.37231,"is_reserved":false,"is_disabled":false,"rental_uris":{"android":"levelo://app?vid=6272c3ad-95c2-456b-b507-9046eb558d00","ios":"levelo://app?vid=6272c3ad-95c2-456b-b507-9046eb558d00"},"vehicle_type_id":"4","last_reported":1762531903,"current_range_meters":16400,"station_id":"ce4bgqh2rcd13ifvqc4g","pricing_plan_id":"cebpf4jnsgd1na2vs0mg"},{"bike_id":"71363b19-bf5d-43d1-b7c7-f9936f9c7692","system_id":"levelo_inurba_marseille","lat":43.304184,"lon":5.412937,"is_reserved":false,"is_disabled":false,"rental_uris":{"android":"levelo://app?vid=71363b19-bf5d-43d1-b7c7-f9936f9c7692","ios":"levelo://app?vid=71363b19-bf5d-43d1-b7c7-f9936f9c7692"},"vehicle_type_id":"4","last_reported":1762531903,"current_range_meters":16400,"station_id":"ce4bhop2rcd13ifvqh8g","pricing_plan_id":"cebpf4jnsgd1na2vs0mg"},{"bike_id":"c8f5952a-545c-4f38-9d9e-4af8dd44921d","system_id":"levelo_inurba_marseille","lat":43.29044,"lon":5.35922,"is_reserved":false,"is_disabled":false,"rental_uris":{"android":"levelo://app?vid=c8f5952a-545c-4f38-9d9e-4af8dd44921d","ios":"levelo://app?vid=c8f5952a-545c-4f38-9d9e-4af8dd44921d"},"vehicle_type_id":"4","last_reported":1762531903,"current_range_meters":16800,"station_id":"ce4bha92rcd13ifvqeg0","pricing_plan_id":"cebpf4jnsgd1na2vs0mg"},{"bike_id":"46698b7d-6c4c-4218-bf0f-a42e405c9524","system_id":"levelo_inurba_marseille","lat":43.29526,"lon":5.38543,"is_reserved":false,"is_disabled":false,"rental_uris":{"android":"levelo://app?vid=46698b7d-6c4c-4218-bf0f-a42e405c9524","ios":"levelo://app?vid=46698b7d-6c4c-4218-bf0f-a42e405c9524"},"vehicle_type_id":"4","last_reported":1762531903,"current_range_meters":16800,"station_id":"ce4bgih2rcd13ifvqba0","pricing_plan_id":"cebpf4jnsgd1na2vs0mg"},{"bike_id":"88b39b4a-4199-4e60-bece-c6e8e3af76b5","system_id":"levelo_inurba_marseille","lat":43.28416,"lon":5.34985,"is_reserved":false,"is_disabled":false,"rental_uris":{"android":"levelo://app?vid=88b39b4a-4199-4e60-bece-c6e8e3af76b5","ios":"levelo://app?vid=88b39b4a-4199-4e60-bece-c6e8e3af76b5"},"vehicle_type_id":"4","last_reported":1762531903,"current_range_meters":16800,"station_id":"ce4bhbh2rcd13ifvqepg","pricing_plan_id":"cebpf4jnsgd1na2vs0mg"},{"bike_id":"a4155ede-55e0-40bb-a340-eab53bb69843","system_id":"levelo_inurba_marseille","lat":43.29904,"lon":5.37478,"is_reserved":false,"is_disabled":false,"rental_uris":{"android":"levelo://app?vid=a4155ede-55e0-40bb-a340-eab53bb69843","ios":"levelo://app?vid=a4155ede-55e0-40bb-a340-eab53bb69843"},"vehicle_type_id":"4","last_reported":1762531903,"current_range_meters":16800,"station_id":"ce4bgjh2rcd13ifvqbg0","pricing_plan_id":"cebpf4jnsgd1na2vs0mg"},{"bike_id":"1bf477b3-55e6-4f59-a7a7-7034928d8403","system_id":"levelo_inurba_marseille","lat":43.253352,"lon":5.42177,"is_reserved":false,"is_disabled":false,"rental_uris":{"android":"levelo://app?vid=1bf477b3-55e6-4f59-a7a7-7034928d8403","ios":"levelo://app?vid=1bf477b3-55e6-4f59-a7a7-7034928d8403"},"vehicle_type_id":"4","last_reported":1762531903,"current_range_meters":16800,"station_id":"st_d2m65c5bi1j21697t3ng","pricing_plan_id":"cebpf4jnsgd1na2vs0mg"},{"bike_id":"30869e3b-2962-48fa-9259-b98012b71f1b","system_id":"levelo_inurba_marseille","lat":43.326586,"lon":5.409928,"is_reserved":false,"is_disabled":false,"rental_uris":{"android":"levelo://app?vid=30869e3b-2962-48fa-9259-b98012b71f1b","ios":"levelo://app?vid=30869e3b-2962-48fa-9259-b98012b71f1b"},"vehicle_type_id":"4","last_reported":1762531903,"current_range_meters":16800,"station_id":"ce4bhpp2rcd13ifvqhgg","pricing_plan_id":"cebpf4jnsgd1na2vs0mg"},{"bike_id":"68431532-237b-4f73-99e5-6d1fef62e4db","system_id":"levelo_inurba_marseille","lat":43.31144,"lon":5.38732,"is_reserved":false,"is_disabled":false,"rental_uris":{"android":"levelo://app?vid=68431532-237b-4f73-99e5-6d1fef62e4db","ios":"levelo://app?vid=68431532-237b-4f73-99e5-6d1fef62e4db"},"vehicle_type_id":"4","last_reported":1762531903,"current_range_meters":17200,"station_id":"ce4bgv12rcd13ifvqcp0","pricing_plan_id":"cebpf4jnsgd1na2vs0mg"},{"bike_id":"0e0aa2de-4e73-4204-8a5a-8af46c537569","system_id":"levelo_inurba_marseille","lat":43.26948,"lon":5.38917,"is_reserved":false,"is_disabled":false,"rental_uris":{"android":"levelo://app?vid=0e0aa2de-4e73-4204-8a5a-8af46c537569","ios":"levelo://app?vid=0e0aa2de-4e73-4204-8a5a-8af46c537569"},"vehicle_type_id":"4","last_reported":1762531903,"current_range_meters":17200,"station_id":"ce4bhgp2rcd13ifvqfe0","pricing_plan_id":"cebpf4jnsgd1na2vs0mg"},{"bike_id":"aa9c833c-a88b-44d6-86f4-eb0cb2fd0ae5","system_id":"levelo_inurba_marseille","lat":43.29437,"lon":5.39759,"is_reserved":false,"is_disabled":false,"rental_uris":{"android":"levelo://app?vid=aa9c833c-a88b-44d6-86f4-eb0cb2fd0ae5","ios":"levelo://app?vid=aa9c833c-a88b-44d6-86f4-eb0cb2fd0ae5"},"vehicle_type_id":"4","last_reported":1762531903,"current_range_meters":17200,"station_id":"ce4bh3h2rcd13ifvqdo0","pricing_plan_id":"cebpf4jnsgd1na2vs0mg"},{"bike_id":"75d7dc47-dceb-471d-8668-ef13189f4f02","system_id":"levelo_inurba_marseille","lat":43.32357,"lon":5.36751,"is_reserved":false,"is_disabled":false,"rental_uris":{"android":"levelo://app?vid=75d7dc47-dceb-471d-8668-ef13189f4f02","ios":"levelo://app?vid=75d7dc47-dceb-471d-8668-ef13189f4f02"},"vehicle_type_id":"4","last_reported":1762531903,"current_range_meters":17200,"station_id":"ce4bhsh2rcd13ifvqi2g","pricing_plan_id":"cebpf4jnsgd1na2vs0mg"},{"bike_id":"3c9b0d4f-d6a3-4123-a253-328e84f3a0f1","system_id":"levelo_inurba_marseille","lat":43.30147,"lon":5.38075,"is_reserved":false,"is_disabled":false,"rental_uris":{"android":"levelo://app?vid=3c9b0d4f-d6a3-4123-a253-328e84f3a0f1","ios":"levelo://app?vid=3c9b0d4f-d6a3-4123-a253-328e84f3a0f1"},"vehicle_type_id":"4","last_reported":1762531903,"current_range_meters":17200,"station_id":"ce4bgjp2rcd13ifvqbh0","pricing_plan_id":"cebpf4jnsgd1na2vs0mg"},{"bike_id":"a718cc29-6f54-49e3-862a-351d7a32001f","system_id":"levelo_inurba_marseille","lat":43.284886,"lon":5.484132,"is_reserved":false,"is_disabled":false,"rental_uris":{"android":"levelo://app?vid=a718cc29-6f54-49e3-862a-351d7a32001f","ios":"levelo://app?vid=a718cc29-6f54-49e3-862a-351d7a32001f"},"vehicle_type_id":"4","last_reported":1762531903,"current_range_meters":17200,"station_id":"","pricing_plan_id":"cebpf4jnsgd1na2vs0mg"},{"bike_id":"e233227a-2d90-4619-b6ff-b843d3b10f1c","system_id":"levelo_inurba_marseille","lat":43.29254,"lon":5.38451,"is_reserved":false,"is_disabled":false,"rental_uris":{"android":"levelo://app?vid=e233227a-2d90-4619-b6ff-b843d3b10f1c","ios":"levelo://app?vid=e233227a-2d90-4619-b6ff-b843d3b10f1c"},"vehicle_type_id":"4","last_reported":1762531903,"current_range_meters":17200,"station_id":"ce4bh692rcd13ifvqea0","pricing_plan_id":"cebpf4jnsgd1na2vs0mg"},{"bike_id":"00dc79b8-888f-4c87-9691-7984ffaafbdb","system_id":"levelo_inurba_marseille","lat":43.29281,"lon":5.37459,"is_reserved":false,"is_disabled":false,"rental_uris":{"android":"levelo://app?vid=00dc79b8-888f-4c87-9691-7984ffaafbdb","ios":"levelo://app?vid=00dc79b8-888f-4c87-9691-7984ffaafbdb"},"vehicle_type_id":"4","last_reported":1762531903,"current_range_meters":17200,"station_id":"ce4bgi12rcd13ifvqb70","pricing_plan_id":"cebpf4jnsgd1na2vs0mg"},{"bike_id":"d9d5b073-720c-497a-8449-6d284d942c03","system_id":"levelo_inurba_marseille","lat":43.299098,"lon":5.381481,"is_reserved":false,"is_disabled":false,"rental_uris":{"android":"levelo://app?vid=d9d5b073-720c-497a-8449-6d284d942c03","ios":"levelo://app?vid=d9d5b073-720c-497a-8449-6d284d942c03"},"vehicle_type_id":"4","last_reported":1762531903,"current_range_meters":17200,"station_id":"ce4bgj12rcd13ifvqbc0","pricing_plan_id":"cebpf4jnsgd1na2vs0mg"},{"bike_id":"73b7b0fc-dfa4-4fef-941b-7750555342b5","system_id":"levelo_inurba_marseille","lat":43.292633,"lon":5.384445,"is_reserved":false,"is_disabled":false,"rental_uris":{"android":"levelo://app?vid=73b7b0fc-dfa4-4fef-941b-7750555342b5","ios":"levelo://app?vid=73b7b0fc-dfa4-4fef-941b-7750555342b5"},"vehicle_type_id":"4","last_reported":1762531903,"current_range_meters":17200,"station_id":"ce4bh692rcd13ifvqea0","pricing_plan_id":"cebpf4jnsgd1na2vs0mg"},{"bike_id":"c448769d-72a1-4a2a-80b2-791ccf525608","system_id":"levelo_inurba_marseille","lat":43.25719,"lon":5.411174,"is_reserved":false,"is_disabled":false,"rental_uris":{"android":"levelo://app?vid=c448769d-72a1-4a2a-80b2-791ccf525608","ios":"levelo://app?vid=c448769d-72a1-4a2a-80b2-791ccf525608"},"vehicle_type_id":"4","last_reported":1762531903,"current_range_meters":17600,"station_id":"ce4bhkp2rcd13ifvqgd0","pricing_plan_id":"cebpf4jnsgd1na2vs0mg"},{"bike_id":"64a7e14c-46d0-4d8c-91f0-19fb7c8ad288","system_id":"levelo_inurba_marseille","lat":43.305605,"lon":5.36711,"is_reserved":false,"is_disabled":true,"rental_uris":{"android":"levelo://app?vid=64a7e14c-46d0-4d8c-91f0-19fb7c8ad288","ios":"levelo://app?vid=64a7e14c-46d0-4d8c-91f0-19fb7c8ad288"},"vehicle_type_id":"4","last_reported":1762531903,"current_range_meters":17600,"station_id":"ce4bgrp2rcd13ifvqc9g","pricing_plan_id":"cebpf4jnsgd1na2vs0mg"},{"bike_id":"b4ecf0d3-4887-498b-8ab3-f5c1a00df660","system_id":"levelo_inurba_marseille","lat":43.3014,"lon":5.39885,"is_reserved":false,"is_disabled":false,"rental_uris":{"android":"levelo://app?vid=b4ecf0d3-4887-498b-8ab3-f5c1a00df660","ios":"levelo://app?vid=b4ecf0d3-4887-498b-8ab3-f5c1a00df660"},"vehicle_type_id":"4","last_reported":1762531903,"current_range_meters":17600,"station_id":"ce4bh0h2rcd13ifvqd40","pricing_plan_id":"cebpf4jnsgd1na2vs0mg"},{"bike_id":"41154023-95d9-4ce4-ac6d-50c0dd335fe9","system_id":"levelo_inurba_marseille","lat":43.29391,"lon":5.37845,"is_reserved":false,"is_disabled":false,"rental_uris":{"android":"levelo://app?vid=41154023-95d9-4ce4-ac6d-50c0dd335fe9","ios":"levelo://app?vid=41154023-95d9-4ce4-ac6d-50c0dd335fe9"},"vehicle_type_id":"4","last_reported":1762531903,"current_range_meters":17600,"station_id":"ce4bgjh2rcd13ifvqbf0","pricing_plan_id":"cebpf4jnsgd1na2vs0mg"},{"bike_id":"7c6ea6d1-2010-41c4-837d-28cbafdf9295","system_id":"levelo_inurba_marseille","lat":43.2807,"lon":5.39662,"is_reserved":false,"is_disabled":false,"rental_uris":{"android":"levelo://app?vid=7c6ea6d1-2010-41c4-837d-28cbafdf9295","ios":"levelo://app?vid=7c6ea6d1-2010-41c4-837d-28cbafdf9295"},"vehicle_type_id":"4","last_reported":1762531903,"current_range_meters":17600,"station_id":"ce4bho12rcd13ifvqh2g","pricing_plan_id":"cebpf4jnsgd1na2vs0mg"},{"bike_id":"cfdbaf4d-2c1a-406f-9b6c-40050b280f68","system_id":"levelo_inurba_marseille","lat":43.295318,"lon":5.385338,"is_reserved":false,"is_disabled":false,"rental_uris":{"android":"levelo://app?vid=cfdbaf4d-2c1a-406f-9b6c-40050b280f68","ios":"levelo://app?vid=cfdbaf4d-2c1a-406f-9b6c-40050b280f68"},"vehicle_type_id":"4","last_reported":1762531903,"current_range_meters":17600,"station_id":"ce4bgi12rcd13ifvqb70","pricing_plan_id":"cebpf4jnsgd1na2vs0mg"},{"bike_id":"c508dfa6-c4b6-4cea-a4ec-947e346a8310","system_id":"levelo_inurba_marseille","lat":43.33605,"lon":5.41006,"is_reserved":false,"is_disabled":true,"rental_uris":{"android":"levelo://app?vid=c508dfa6-c4b6-4cea-a4ec-947e346a8310","ios":"levelo://app?vid=c508dfa6-c4b6-4cea-a4ec-947e346a8310"},"vehicle_type_id":"4","last_reported":1762531903,"current_range_meters":17600,"station_id":"ce4bhqh2rcd13ifvqhmg","pricing_plan_id":"cebpf4jnsgd1na2vs0mg"},{"bike_id":"86eb639d-6e69-45fc-a7c8-87aa321cbed3","system_id":"levelo_inurba_marseille","lat":43.30135,"lon":5.37418,"is_reserved":false,"is_disabled":false,"rental_uris":{"android":"levelo://app?vid=86eb639d-6e69-45fc-a7c8-87aa321cbed3","ios":"levelo://app?vid=86eb639d-6e69-45fc-a7c8-87aa321cbed3"},"vehicle_type_id":"4","last_reported":1762531903,"current_range_meters":17600,"station_id":"ce4bgs92rcd13ifvqcc0","pricing_plan_id":"cebpf4jnsgd1na2vs0mg"},{"bike_id":"74bb8ce2-1ec5-4414-94bf-bc4889d1e14c","system_id":"levelo_inurba_marseille","lat":43.324754,"lon":5.395379,"is_reserved":false,"is_disabled":false,"rental_uris":{"android":"levelo://app?vid=74bb8ce2-1ec5-4414-94bf-bc4889d1e14c","ios":"levelo://app?vid=74bb8ce2-1ec5-4414-94bf-bc4889d1e14c"},"vehicle_type_id":"4","last_reported":1762531903,"current_range_meters":17600,"station_id":"","pricing_plan_id":"cebpf4jnsgd1na2vs0mg"},{"bike_id":"fd5246bb-a059-4976-a86c-38e1f88b061e","system_id":"levelo_inurba_marseille","lat":43.25011,"lon":5.38922,"is_reserved":false,"is_disabled":false,"rental_uris":{"android":"levelo://app?vid=fd5246bb-a059-4976-a86c-38e1f88b061e","ios":"levelo://app?vid=fd5246bb-a059-4976-a86c-38e1f88b061e"},"vehicle_type_id":"4","last_reported":1762531903,"current_range_meters":18000,"station_id":"ce4bhgp2rcd13ifvqfd0","pricing_plan_id":"cebpf4jnsgd1na2vs0mg"},{"bike_id":"58df984d-f6ad-47ef-818a-7818e887c7c9","system_id":"levelo_inurba_marseille","lat":43.30144,"lon":5.43121,"is_reserved":false,"is_disabled":false,"rental_uris":{"android":"levelo://app?vid=58df984d-f6ad-47ef-818a-7818e887c7c9","ios":"levelo://app?vid=58df984d-f6ad-47ef-818a-7818e887c7c9"},"vehicle_type_id":"4","last_reported":1762531903,"current_range_meters":18000,"station_id":"st_d3js3co5814s73ftftug","pricing_plan_id":"cebpf4jnsgd1na2vs0mg"},{"bike_id":"2c601832-3ad7-45cf-8c15-9179e9fef797","system_id":"levelo_inurba_marseille","lat":43.29857,"lon":5.36291,"is_reserved":false,"is_disabled":false,"rental_uris":{"android":"levelo://app?vid=2c601832-3ad7-45cf-8c15-9179e9fef797","ios":"levelo://app?vid=2c601832-3ad7-45cf-8c15-9179e9fef797"},"vehicle_type_id":"4","last_reported":1762531903,"current_range_meters":18000,"station_id":"ce4bgpp2rcd13ifvqc3g","pricing_plan_id":"cebpf4jnsgd1na2vs0mg"},{"bike_id":"3fa5a410-a934-45f2-98aa-3e192907514a","system_id":"levelo_inurba_marseille","lat":43.25333,"lon":5.42177,"is_reserved":false,"is_disabled":false,"rental_uris":{"android":"levelo://app?vid=3fa5a410-a934-45f2-98aa-3e192907514a","ios":"levelo://app?vid=3fa5a410-a934-45f2-98aa-3e192907514a"},"vehicle_type_id":"4","last_reported":1762531903,"current_range_meters":18000,"station_id":"st_d2m65c5bi1j21697t3ng","pricing_plan_id":"cebpf4jnsgd1na2vs0mg"},{"bike_id":"b6c9ba32-43e3-4aca-80db-06b5ae4b1d06","system_id":"levelo_inurba_marseille","lat":43.284638,"lon":5.358855,"is_reserved":false,"is_disabled":false,"rental_uris":{"android":"levelo://app?vid=b6c9ba32-43e3-4aca-80db-06b5ae4b1d06","ios":"levelo://app?vid=b6c9ba32-43e3-4aca-80db-06b5ae4b1d06"},"vehicle_type_id":"4","last_reported":1762531903,"current_range_meters":18800,"station_id":"ce4bhah2rcd13ifvqei0","pricing_plan_id":"cebpf4jnsgd1na2vs0mg"},{"bike_id":"15c946c1-4534-4349-9701-f756c17d2ecc","system_id":"levelo_inurba_marseille","lat":43.286039,"lon":5.35108,"is_reserved":false,"is_disabled":false,"rental_uris":{"android":"levelo://app?vid=15c946c1-4534-4349-9701-f756c17d2ecc","ios":"levelo://app?vid=15c946c1-4534-4349-9701-f756c17d2ecc"},"vehicle_type_id":"4","last_reported":1762531903,"current_range_meters":18800,"station_id":"ce4bhgp2rcd13ifvqfc0","pricing_plan_id":"cebpf4jnsgd1na2vs0mg"},{"bike_id":"adc728c4-7d88-468c-be89-220c19218372","system_id":"levelo_inurba_marseille","lat":43.31394,"lon":5.37419,"is_reserved":false,"is_disabled":false,"rental_uris":{"android":"levelo://app?vid=adc728c4-7d88-468c-be89-220c19218372","ios":"levelo://app?vid=adc728c4-7d88-468c-be89-220c19218372"},"vehicle_type_id":"4","last_reported":1762531903,"current_range_meters":18800,"station_id":"","pricing_plan_id":"cebpf4jnsgd1na2vs0mg"},{"bike_id":"5098c842-5e48-40e2-b457-cc6766f8dfac","system_id":"levelo_inurba_marseille","lat":43.25734,"lon":5.41113,"is_reserved":false,"is_disabled":false,"rental_uris":{"android":"levelo://app?vid=5098c842-5e48-40e2-b457-cc6766f8dfac","ios":"levelo://app?vid=5098c842-5e48-40e2-b457-cc6766f8dfac"},"vehicle_type_id":"4","last_reported":1762531903,"current_range_meters":18800,"station_id":"ce4bhkp2rcd13ifvqgd0","pricing_plan_id":"cebpf4jnsgd1na2vs0mg"},{"bike_id":"106efc4b-3629-4c83-a1c4-3f4ee9d12cb6","system_id":"levelo_inurba_marseille","lat":43.30902,"lon":5.37303,"is_reserved":false,"is_disabled":false,"rental_uris":{"android":"levelo://app?vid=106efc4b-3629-4c83-a1c4-3f4ee9d12cb6","ios":"levelo://app?vid=106efc4b-3629-4c83-a1c4-3f4ee9d12cb6"},"vehicle_type_id":"4","last_reported":1762531903,"current_range_meters":18800,"station_id":"","pricing_plan_id":"cebpf4jnsgd1na2vs0mg"},{"bike_id":"6dee9c74-544b-407f-8511-dadcb1d0a448","system_id":"levelo_inurba_marseille","lat":43.311845,"lon":5.396125,"is_reserved":false,"is_disabled":false,"rental_uris":{"android":"levelo://app?vid=6dee9c74-544b-407f-8511-dadcb1d0a448","ios":"levelo://app?vid=6dee9c74-544b-407f-8511-dadcb1d0a448"},"vehicle_type_id":"4","last_reported":1762531903,"current_range_meters":18800,"station_id":"","pricing_plan_id":"cebpf4jnsgd1na2vs0mg"},{"bike_id":"d2991a60-dcfa-4252-8f9d-bfff4b1dc433","system_id":"levelo_inurba_marseille","lat":43.31068,"lon":5.37179,"is_reserved":false,"is_disabled":false,"rental_uris":{"android":"levelo://app?vid=d2991a60-dcfa-4252-8f9d-bfff4b1dc433","ios":"levelo://app?vid=d2991a60-dcfa-4252-8f9d-bfff4b1dc433"},"vehicle_type_id":"4","last_reported":1762531903,"current_range_meters":18800,"station_id":"","pricing_plan_id":"cebpf4jnsgd1na2vs0mg"},{"bike_id":"4bce02cb-bdba-488a-a39f-eae80d4c7da8","system_id":"levelo_inurba_marseille","lat":43.28207,"lon":5.39061,"is_reserved":false,"is_disabled":true,"rental_uris":{"android":"levelo://app?vid=4bce02cb-bdba-488a-a39f-eae80d4c7da8","ios":"levelo://app?vid=4bce02cb-bdba-488a-a39f-eae80d4c7da8"},"vehicle_type_id":"4","last_reported":1762531903,"current_range_meters":18800,"station_id":"ce4bhn92rcd13ifvqgsg","pricing_plan_id":"cebpf4jnsgd1na2vs0mg"},{"bike_id":"e156e59e-5684-4eda-a362-063b4e4be926","system_id":"levelo_inurba_marseille","lat":43.29041,"lon":5.35909,"is_reserved":false,"is_disabled":false,"rental_uris":{"android":"levelo://app?vid=e156e59e-5684-4eda-a362-063b4e4be926","ios":"levelo://app?vid=e156e59e-5684-4eda-a362-063b4e4be926"},"vehicle_type_id":"4","last_reported":1762531903,"current_range_meters":19200,"station_id":"ce4bha92rcd13ifvqeg0","pricing_plan_id":"cebpf4jnsgd1na2vs0mg"},{"bike_id":"0e40b977-8772-43e1-98d4-439c6ff7226d","system_id":"levelo_inurba_marseille","lat":43.27368,"lon":5.36251,"is_reserved":false,"is_disabled":false,"rental_uris":{"android":"levelo://app?vid=0e40b977-8772-43e1-98d4-439c6ff7226d","ios":"levelo://app?vid=0e40b977-8772-43e1-98d4-439c6ff7226d"},"vehicle_type_id":"4","last_reported":1762531903,"current_range_meters":19200,"station_id":"ce4bhbh2rcd13ifvqeo0","pricing_plan_id":"cebpf4jnsgd1na2vs0mg"},{"bike_id":"fb620bd7-7d6c-4433-baa5-ca811e4e6d8e","system_id":"levelo_inurba_marseille","lat":43.2418,"lon":5.39725,"is_reserved":false,"is_disabled":false,"rental_uris":{"android":"levelo://app?vid=fb620bd7-7d6c-4433-baa5-ca811e4e6d8e","ios":"levelo://app?vid=fb620bd7-7d6c-4433-baa5-ca811e4e6d8e"},"vehicle_type_id":"4","last_reported":1762531903,"current_range_meters":19200,"station_id":"ce4bhn12rcd13ifvqgpg","pricing_plan_id":"cebpf4jnsgd1na2vs0mg"},{"bike_id":"5ebbfdc4-4988-4f8f-860a-a23e6d29751d","system_id":"levelo_inurba_marseille","lat":43.305334,"lon":5.36535,"is_reserved":false,"is_disabled":false,"rental_uris":{"android":"levelo://app?vid=5ebbfdc4-4988-4f8f-860a-a23e6d29751d","ios":"levelo://app?vid=5ebbfdc4-4988-4f8f-860a-a23e6d29751d"},"vehicle_type_id":"4","last_reported":1762531903,"current_range_meters":19200,"station_id":"ce4bgs12rcd13ifvqcag","pricing_plan_id":"cebpf4jnsgd1na2vs0mg"},{"bike_id":"5acc7ee1-649d-48e4-aa31-e69c130cf52d","system_id":"levelo_inurba_marseille","lat":43.30161,"lon":5.38096,"is_reserved":false,"is_disabled":false,"rental_uris":{"android":"levelo://app?vid=5acc7ee1-649d-48e4-aa31-e69c130cf52d","ios":"levelo://app?vid=5acc7ee1-649d-48e4-aa31-e69c130cf52d"},"vehicle_type_id":"4","last_reported":1762531903,"current_range_meters":19200,"station_id":"ce4bgjp2rcd13ifvqbh0","pricing_plan_id":"cebpf4jnsgd1na2vs0mg"},{"bike_id":"a687018a-85a5-4072-8d5f-9857a9f91fac","system_id":"levelo_inurba_marseille","lat":43.249486,"lon":5.404927,"is_reserved":false,"is_disabled":false,"rental_uris":{"android":"levelo://app?vid=a687018a-85a5-4072-8d5f-9857a9f91fac","ios":"levelo://app?vid=a687018a-85a5-4072-8d5f-9857a9f91fac"},"vehicle_type_id":"4","last_reported":1762531903,"current_range_meters":19200,"station_id":"st_d2ngiaodas8pm72gd1h0","pricing_plan_id":"cebpf4jnsgd1na2vs0mg"},{"bike_id":"252c59af-9435-4e63-a7d5-fce6e7b722e2","system_id":"levelo_inurba_marseille","lat":43.29696,"lon":5.37281,"is_reserved":false,"is_disabled":false,"rental_uris":{"android":"levelo://app?vid=252c59af-9435-4e63-a7d5-fce6e7b722e2","ios":"levelo://app?vid=252c59af-9435-4e63-a7d5-fce6e7b722e2"},"vehicle_type_id":"4","last_reported":1762531903,"current_range_meters":19200,"station_id":"ce4bgk12rcd13ifvqbj0","pricing_plan_id":"cebpf4jnsgd1na2vs0mg"},{"bike_id":"797f14e9-5d7d-4b38-91ff-5abb84764bfd","system_id":"levelo_inurba_marseille","lat":43.27043,"lon":5.40267,"is_reserved":false,"is_disabled":false,"rental_uris":{"android":"levelo://app?vid=797f14e9-5d7d-4b38-91ff-5abb84764bfd","ios":"levelo://app?vid=797f14e9-5d7d-4b38-91ff-5abb84764bfd"},"vehicle_type_id":"4","last_reported":1762531903,"current_range_meters":19200,"station_id":"ce4bhk92rcd13ifvqgc0","pricing_plan_id":"cebpf4jnsgd1na2vs0mg"},{"bike_id":"e270f0db-93b9-4456-a5ae-4ac7765b3816","system_id":"levelo_inurba_marseille","lat":43.30538,"lon":5.36557,"is_reserved":false,"is_disabled":false,"rental_uris":{"android":"levelo://app?vid=e270f0db-93b9-4456-a5ae-4ac7765b3816","ios":"levelo://app?vid=e270f0db-93b9-4456-a5ae-4ac7765b3816"},"vehicle_type_id":"4","last_reported":1762531903,"current_range_meters":19600,"station_id":"ce4bgs12rcd13ifvqcag","pricing_plan_id":"cebpf4jnsgd1na2vs0mg"},{"bike_id":"37fe7d6a-3918-43f0-8c7d-0b47605c87c1","system_id":"levelo_inurba_marseille","lat":43.29184,"lon":5.39316,"is_reserved":false,"is_disabled":false,"rental_uris":{"android":"levelo://app?vid=37fe7d6a-3918-43f0-8c7d-0b47605c87c1","ios":"levelo://app?vid=37fe7d6a-3918-43f0-8c7d-0b47605c87c1"},"vehicle_type_id":"4","last_reported":1762531903,"current_range_meters":19600,"station_id":"ce4bh192rcd13ifvqdd0","pricing_plan_id":"cebpf4jnsgd1na2vs0mg"},{"bike_id":"d9406ae0-a7d7-4070-8130-6f1d39eec4aa","system_id":"levelo_inurba_marseille","lat":43.28605,"lon":5.3706,"is_reserved":false,"is_disabled":false,"rental_uris":{"android":"levelo://app?vid=d9406ae0-a7d7-4070-8130-6f1d39eec4aa","ios":"levelo://app?vid=d9406ae0-a7d7-4070-8130-6f1d39eec4aa"},"vehicle_type_id":"4","last_reported":1762531903,"current_range_meters":19600,"station_id":"ce4bht12rcd13ifvqi60","pricing_plan_id":"cebpf4jnsgd1na2vs0mg"},{"bike_id":"01b612c9-e2ea-4120-a543-ea80b7d0582c","system_id":"levelo_inurba_marseille","lat":43.32671,"lon":5.39208,"is_reserved":false,"is_disabled":false,"rental_uris":{"android":"levelo://app?vid=01b612c9-e2ea-4120-a543-ea80b7d0582c","ios":"levelo://app?vid=01b612c9-e2ea-4120-a543-ea80b7d0582c"},"vehicle_type_id":"4","last_reported":1762531903,"current_range_meters":19600,"station_id":"","pricing_plan_id":"cebpf4jnsgd1na2vs0mg"},{"bike_id":"96c91be6-038a-4010-83a1-aae68301f5af","system_id":"levelo_inurba_marseille","lat":43.29546,"lon":5.42283,"is_reserved":false,"is_disabled":false,"rental_uris":{"android":"levelo://app?vid=96c91be6-038a-4010-83a1-aae68301f5af","ios":"levelo://app?vid=96c91be6-038a-4010-83a1-aae68301f5af"},"vehicle_type_id":"4","last_reported":1762531903,"current_range_meters":19600,"station_id":"ce4bhph2rcd13ifvqhdg","pricing_plan_id":"cebpf4jnsgd1na2vs0mg"},{"bike_id":"309a1e5e-51c8-4860-8bb7-12924ece393e","system_id":"levelo_inurba_marseille","lat":43.31016,"lon":5.37534,"is_reserved":false,"is_disabled":false,"rental_uris":{"android":"levelo://app?vid=309a1e5e-51c8-4860-8bb7-12924ece393e","ios":"levelo://app?vid=309a1e5e-51c8-4860-8bb7-12924ece393e"},"vehicle_type_id":"4","last_reported":1762531903,"current_range_meters":19600,"station_id":"","pricing_plan_id":"cebpf4jnsgd1na2vs0mg"},{"bike_id":"e5b60406-6050-4895-badc-44260999dd59","system_id":"levelo_inurba_marseille","lat":43.292717,"lon":5.38448,"is_reserved":false,"is_disabled":false,"rental_uris":{"android":"levelo://app?vid=e5b60406-6050-4895-badc-44260999dd59","ios":"levelo://app?vid=e5b60406-6050-4895-badc-44260999dd59"},"vehicle_type_id":"4","last_reported":1762531903,"current_range_meters":19600,"station_id":"ce4bh692rcd13ifvqea0","pricing_plan_id":"cebpf4jnsgd1na2vs0mg"},{"bike_id":"6fed337d-58dd-4e60-825e-cee7ab5e51b1","system_id":"levelo_inurba_marseille","lat":43.29494,"lon":5.38538,"is_reserved":false,"is_disabled":false,"rental_uris":{"android":"levelo://app?vid=6fed337d-58dd-4e60-825e-cee7ab5e51b1","ios":"levelo://app?vid=6fed337d-58dd-4e60-825e-cee7ab5e51b1"},"vehicle_type_id":"4","last_reported":1762531903,"current_range_meters":19600,"station_id":"ce4bgih2rcd13ifvqba0","pricing_plan_id":"cebpf4jnsgd1na2vs0mg"},{"bike_id":"46698eac-d714-4743-9e6e-2ad48f59d6a3","system_id":"levelo_inurba_marseille","lat":43.23195,"lon":5.35553,"is_reserved":false,"is_disabled":false,"rental_uris":{"android":"levelo://app?vid=46698eac-d714-4743-9e6e-2ad48f59d6a3","ios":"levelo://app?vid=46698eac-d714-4743-9e6e-2ad48f59d6a3"},"vehicle_type_id":"4","last_reported":1762531903,"current_range_meters":20000,"station_id":"ce4bhu92rcd13ifvqi70","pricing_plan_id":"cebpf4jnsgd1na2vs0mg"},{"bike_id":"b0f69970-e63e-4025-a51c-cfbfd1d67d03","system_id":"levelo_inurba_marseille","lat":43.31715,"lon":5.42398,"is_reserved":false,"is_disabled":false,"rental_uris":{"android":"levelo://app?vid=b0f69970-e63e-4025-a51c-cfbfd1d67d03","ios":"levelo://app?vid=b0f69970-e63e-4025-a51c-cfbfd1d67d03"},"vehicle_type_id":"4","last_reported":1762531903,"current_range_meters":20000,"station_id":"ce4bhp92rcd13ifvqhbg","pricing_plan_id":"cebpf4jnsgd1na2vs0mg"},{"bike_id":"a429371d-e4e4-4776-a1dd-27529722fe58","system_id":"levelo_inurba_marseille","lat":43.260614,"lon":5.393987,"is_reserved":false,"is_disabled":false,"rental_uris":{"android":"levelo://app?vid=a429371d-e4e4-4776-a1dd-27529722fe58","ios":"levelo://app?vid=a429371d-e4e4-4776-a1dd-27529722fe58"},"vehicle_type_id":"4","last_reported":1762531903,"current_range_meters":20000,"station_id":"ce4bhh92rcd13ifvqfj0","pricing_plan_id":"cebpf4jnsgd1na2vs0mg"},{"bike_id":"da601e72-3406-474d-b80e-761edb21dc35","system_id":"levelo_inurba_marseille","lat":43.28459,"lon":5.35884,"is_reserved":false,"is_disabled":false,"rental_uris":{"android":"levelo://app?vid=da601e72-3406-474d-b80e-761edb21dc35","ios":"levelo://app?vid=da601e72-3406-474d-b80e-761edb21dc35"},"vehicle_type_id":"4","last_reported":1762531903,"current_range_meters":20000,"station_id":"ce4bhah2rcd13ifvqei0","pricing_plan_id":"cebpf4jnsgd1na2vs0mg"},{"bike_id":"06b572d6-d95a-4f1a-9a9a-b316897ad6d5","system_id":"levelo_inurba_marseille","lat":43.29545,"lon":5.3752,"is_reserved":false,"is_disabled":false,"rental_uris":{"android":"levelo://app?vid=06b572d6-d95a-4f1a-9a9a-b316897ad6d5","ios":"levelo://app?vid=06b572d6-d95a-4f1a-9a9a-b316897ad6d5"},"vehicle_type_id":"4","last_reported":1762531903,"current_range_meters":20000,"station_id":"ce4bgkp2rcd13ifvqbmg","pricing_plan_id":"cebpf4jnsgd1na2vs0mg"},{"bike_id":"9afb8b0b-88b6-47b9-beae-d037ffedfe9d","system_id":"levelo_inurba_marseille","lat":43.293,"lon":5.37464,"is_reserved":false,"is_disabled":false,"rental_uris":{"android":"levelo://app?vid=9afb8b0b-88b6-47b9-beae-d037ffedfe9d","ios":"levelo://app?vid=9afb8b0b-88b6-47b9-beae-d037ffedfe9d"},"vehicle_type_id":"4","last_reported":1762531903,"current_range_meters":20000,"station_id":"ce4bgi12rcd13ifvqb70","pricing_plan_id":"cebpf4jnsgd1na2vs0mg"},{"bike_id":"7adec675-e622-4cd8-875f-69220c1898e8","system_id":"levelo_inurba_marseille","lat":43.297626,"lon":5.397698,"is_reserved":false,"is_disabled":false,"rental_uris":{"android":"levelo://app?vid=7adec675-e622-4cd8-875f-69220c1898e8","ios":"levelo://app?vid=7adec675-e622-4cd8-875f-69220c1898e8"},"vehicle_type_id":"4","last_reported":1762531903,"current_range_meters":20000,"station_id":"ce4bh0h2rcd13ifvqd50","pricing_plan_id":"cebpf4jnsgd1na2vs0mg"},{"bike_id":"0fe28076-79a4-4c58-8cb9-d4750cea7c8d","system_id":"levelo_inurba_marseille","lat":43.25334,"lon":5.42176,"is_reserved":false,"is_disabled":false,"rental_uris":{"android":"levelo://app?vid=0fe28076-79a4-4c58-8cb9-d4750cea7c8d","ios":"levelo://app?vid=0fe28076-79a4-4c58-8cb9-d4750cea7c8d"},"vehicle_type_id":"4","last_reported":1762531903,"current_range_meters":20000,"station_id":"st_d2m65c5bi1j21697t3ng","pricing_plan_id":"cebpf4jnsgd1na2vs0mg"},{"bike_id":"0f41a4da-48c3-4c26-8017-c0f9690e11d2","system_id":"levelo_inurba_marseille","lat":43.32001,"lon":5.38168,"is_reserved":false,"is_disabled":false,"rental_uris":{"android":"levelo://app?vid=0f41a4da-48c3-4c26-8017-c0f9690e11d2","ios":"levelo://app?vid=0f41a4da-48c3-4c26-8017-c0f9690e11d2"},"vehicle_type_id":"4","last_reported":1762531903,"current_range_meters":20000,"station_id":"ce4bhr12rcd13ifvqhpg","pricing_plan_id":"cebpf4jnsgd1na2vs0mg"},{"bike_id":"f0f4bc71-9531-4b91-8cf7-b4cb2fc63f56","system_id":"levelo_inurba_marseille","lat":43.28465,"lon":5.35896,"is_reserved":false,"is_disabled":false,"rental_uris":{"android":"levelo://app?vid=f0f4bc71-9531-4b91-8cf7-b4cb2fc63f56","ios":"levelo://app?vid=f0f4bc71-9531-4b91-8cf7-b4cb2fc63f56"},"vehicle_type_id":"4","last_reported":1762531903,"current_range_meters":20000,"station_id":"ce4bhah2rcd13ifvqei0","pricing_plan_id":"cebpf4jnsgd1na2vs0mg"},{"bike_id":"0fdc8086-5ae2-438b-a749-651f1d7dff3f","system_id":"levelo_inurba_marseille","lat":43.28463,"lon":5.35896,"is_reserved":false,"is_disabled":false,"rental_uris":{"android":"levelo://app?vid=0fdc8086-5ae2-438b-a749-651f1d7dff3f","ios":"levelo://app?vid=0fdc8086-5ae2-438b-a749-651f1d7dff3f"},"vehicle_type_id":"4","last_reported":1762531903,"current_range_meters":20400,"station_id":"ce4bhah2rcd13ifvqei0","pricing_plan_id":"cebpf4jnsgd1na2vs0mg"},{"bike_id":"115148fd-ab10-4503-af58-70fc04d8d366","system_id":"levelo_inurba_marseille","lat":43.30468,"lon":5.38889,"is_reserved":false,"is_disabled":false,"rental_uris":{"android":"levelo://app?vid=115148fd-ab10-4503-af58-70fc04d8d366","ios":"levelo://app?vid=115148fd-ab10-4503-af58-70fc04d8d366"},"vehicle_type_id":"4","last_reported":1762531903,"current_range_meters":20400,"station_id":"ce4bgk12rcd13ifvqbi0","pricing_plan_id":"cebpf4jnsgd1na2vs0mg"},{"bike_id":"91c87b92-309d-4ebe-ac4c-6763df229d4f","system_id":"levelo_inurba_marseille","lat":43.30644,"lon":5.40099,"is_reserved":false,"is_disabled":false,"rental_uris":{"android":"levelo://app?vid=91c87b92-309d-4ebe-ac4c-6763df229d4f","ios":"levelo://app?vid=91c87b92-309d-4ebe-ac4c-6763df229d4f"},"vehicle_type_id":"4","last_reported":1762531903,"current_range_meters":20000,"station_id":"ce4bh112rcd13ifvqda0","pricing_plan_id":"cebpf4jnsgd1na2vs0mg"},{"bike_id":"3d70791d-0a55-4249-9f52-365d35e9852b","system_id":"levelo_inurba_marseille","lat":43.295274,"lon":5.385366,"is_reserved":false,"is_disabled":false,"rental_uris":{"android":"levelo://app?vid=3d70791d-0a55-4249-9f52-365d35e9852b","ios":"levelo://app?vid=3d70791d-0a55-4249-9f52-365d35e9852b"},"vehicle_type_id":"4","last_reported":1762531903,"current_range_meters":20400,"station_id":"ce4bgih2rcd13ifvqba0","pricing_plan_id":"cebpf4jnsgd1na2vs0mg"},{"bike_id":"9012bcf8-bb63-442b-8823-1b956a32ae9e","system_id":"levelo_inurba_marseille","lat":43.301172,"lon":5.431182,"is_reserved":false,"is_disabled":false,"rental_uris":{"android":"levelo://app?vid=9012bcf8-bb63-442b-8823-1b956a32ae9e","ios":"levelo://app?vid=9012bcf8-bb63-442b-8823-1b956a32ae9e"},"vehicle_type_id":"4","last_reported":1762531903,"current_range_meters":20400,"station_id":"st_d3js3co5814s73ftftug","pricing_plan_id":"cebpf4jnsgd1na2vs0mg"},{"bike_id":"c73c5513-728d-4700-9395-e31e4399cd51","system_id":"levelo_inurba_marseille","lat":43.29176,"lon":5.4023,"is_reserved":false,"is_disabled":false,"rental_uris":{"android":"levelo://app?vid=c73c5513-728d-4700-9395-e31e4399cd51","ios":"levelo://app?vid=c73c5513-728d-4700-9395-e31e4399cd51"},"vehicle_type_id":"4","last_reported":1762531903,"current_range_meters":20400,"station_id":"","pricing_plan_id":"cebpf4jnsgd1na2vs0mg"},{"bike_id":"34fe2289-aa32-4fdd-a343-e3f74c024ddd","system_id":"levelo_inurba_marseille","lat":43.32099,"lon":5.36779,"is_reserved":false,"is_disabled":false,"rental_uris":{"android":"levelo://app?vid=34fe2289-aa32-4fdd-a343-e3f74c024ddd","ios":"levelo://app?vid=34fe2289-aa32-4fdd-a343-e3f74c024ddd"},"vehicle_type_id":"4","last_reported":1762531903,"current_range_meters":20400,"station_id":"ce4bhrh2rcd13ifvqhug","pricing_plan_id":"cebpf4jnsgd1na2vs0mg"},{"bike_id":"0187962f-c10e-4730-b914-fffde5ae7762","system_id":"levelo_inurba_marseille","lat":43.29203,"lon":5.39322,"is_reserved":false,"is_disabled":false,"rental_uris":{"android":"levelo://app?vid=0187962f-c10e-4730-b914-fffde5ae7762","ios":"levelo://app?vid=0187962f-c10e-4730-b914-fffde5ae7762"},"vehicle_type_id":"4","last_reported":1762531903,"current_range_meters":20400,"station_id":"ce4bh192rcd13ifvqdd0","pricing_plan_id":"cebpf4jnsgd1na2vs0mg"},{"bike_id":"b9ac20f2-c5e3-4afd-8b40-095a603c13e7","system_id":"levelo_inurba_marseille","lat":43.26703,"lon":5.41225,"is_reserved":false,"is_disabled":false,"rental_uris":{"android":"levelo://app?vid=b9ac20f2-c5e3-4afd-8b40-095a603c13e7","ios":"levelo://app?vid=b9ac20f2-c5e3-4afd-8b40-095a603c13e7"},"vehicle_type_id":"4","last_reported":1762531903,"current_range_meters":20400,"station_id":"","pricing_plan_id":"cebpf4jnsgd1na2vs0mg"},{"bike_id":"02327e77-7111-436e-b6a0-b06000afb396","system_id":"levelo_inurba_marseille","lat":43.28442,"lon":5.39194,"is_reserved":false,"is_disabled":false,"rental_uris":{"android":"levelo://app?vid=02327e77-7111-436e-b6a0-b06000afb396","ios":"levelo://app?vid=02327e77-7111-436e-b6a0-b06000afb396"},"vehicle_type_id":"4","last_reported":1762531903,"current_range_meters":20800,"station_id":"ce4bhoh2rcd13ifvqh5g","pricing_plan_id":"cebpf4jnsgd1na2vs0mg"},{"bike_id":"be9126c2-f5d0-4ee3-8521-d5bc977adec6","system_id":"levelo_inurba_marseille","lat":43.246487,"lon":5.388913,"is_reserved":false,"is_disabled":false,"rental_uris":{"android":"levelo://app?vid=be9126c2-f5d0-4ee3-8521-d5bc977adec6","ios":"levelo://app?vid=be9126c2-f5d0-4ee3-8521-d5bc977adec6"},"vehicle_type_id":"4","last_reported":1762531903,"current_range_meters":20800,"station_id":"ce4bhg12rcd13ifvqf60","pricing_plan_id":"cebpf4jnsgd1na2vs0mg"},{"bike_id":"66002006-b507-4fe3-88ab-6a552026dee0","system_id":"levelo_inurba_marseille","lat":43.305637,"lon":5.365274,"is_reserved":false,"is_disabled":false,"rental_uris":{"android":"levelo://app?vid=66002006-b507-4fe3-88ab-6a552026dee0","ios":"levelo://app?vid=66002006-b507-4fe3-88ab-6a552026dee0"},"vehicle_type_id":"4","last_reported":1762531903,"current_range_meters":20800,"station_id":"","pricing_plan_id":"cebpf4jnsgd1na2vs0mg"},{"bike_id":"42e3d1b5-4754-4199-a071-d3b0350a2edd","system_id":"levelo_inurba_marseille","lat":43.2954,"lon":5.38546,"is_reserved":false,"is_disabled":false,"rental_uris":{"android":"levelo://app?vid=42e3d1b5-4754-4199-a071-d3b0350a2edd","ios":"levelo://app?vid=42e3d1b5-4754-4199-a071-d3b0350a2edd"},"vehicle_type_id":"4","last_reported":1762531903,"current_range_meters":20800,"station_id":"ce4bgih2rcd13ifvqba0","pricing_plan_id":"cebpf4jnsgd1na2vs0mg"},{"bike_id":"15db09df-59b0-446a-87c5-e354a3319258","system_id":"levelo_inurba_marseille","lat":43.28481,"lon":5.48411,"is_reserved":false,"is_disabled":false,"rental_uris":{"android":"levelo://app?vid=15db09df-59b0-446a-87c5-e354a3319258","ios":"levelo://app?vid=15db09df-59b0-446a-87c5-e354a3319258"},"vehicle_type_id":"4","last_reported":1762531903,"current_range_meters":20800,"station_id":"","pricing_plan_id":"cebpf4jnsgd1na2vs0mg"},{"bike_id":"0459bf9f-ddf9-462d-a5cc-0e51ff37cec4","system_id":"levelo_inurba_marseille","lat":43.30445,"lon":5.38887,"is_reserved":false,"is_disabled":false,"rental_uris":{"android":"levelo://app?vid=0459bf9f-ddf9-462d-a5cc-0e51ff37cec4","ios":"levelo://app?vid=0459bf9f-ddf9-462d-a5cc-0e51ff37cec4"},"vehicle_type_id":"4","last_reported":1762531903,"current_range_meters":20800,"station_id":"ce4bgk12rcd13ifvqbi0","pricing_plan_id":"cebpf4jnsgd1na2vs0mg"},{"bike_id":"b9ccb735-3409-4dc1-8260-269439accb9c","system_id":"levelo_inurba_marseille","lat":43.290976,"lon":5.381499,"is_reserved":false,"is_disabled":false,"rental_uris":{"android":"levelo://app?vid=b9ccb735-3409-4dc1-8260-269439accb9c","ios":"levelo://app?vid=b9ccb735-3409-4dc1-8260-269439accb9c"},"vehicle_type_id":"4","last_reported":1762531903,"current_range_meters":20800,"station_id":"ce4bh512rcd13ifvqe2g","pricing_plan_id":"cebpf4jnsgd1na2vs0mg"},{"bike_id":"d050ce9c-7455-425c-90f9-af0c1f910839","system_id":"levelo_inurba_marseille","lat":43.29275,"lon":5.38448,"is_reserved":false,"is_disabled":false,"rental_uris":{"android":"levelo://app?vid=d050ce9c-7455-425c-90f9-af0c1f910839","ios":"levelo://app?vid=d050ce9c-7455-425c-90f9-af0c1f910839"},"vehicle_type_id":"4","last_reported":1762531903,"current_range_meters":20800,"station_id":"ce4bh692rcd13ifvqea0","pricing_plan_id":"cebpf4jnsgd1na2vs0mg"},{"bike_id":"ca37bec3-b106-4141-af8e-8fcaf742fbc5","system_id":"levelo_inurba_marseille","lat":43.296173,"lon":5.377196,"is_reserved":false,"is_disabled":false,"rental_uris":{"android":"levelo://app?vid=ca37bec3-b106-4141-af8e-8fcaf742fbc5","ios":"levelo://app?vid=ca37bec3-b106-4141-af8e-8fcaf742fbc5"},"vehicle_type_id":"4","last_reported":1762531903,"current_range_meters":20800,"station_id":"ce4bgi92rcd13ifvqb90","pricing_plan_id":"cebpf4jnsgd1na2vs0mg"},{"bike_id":"7625f19c-b4c8-4d73-9b22-4abe54a2bf39","system_id":"levelo_inurba_marseille","lat":43.26228,"lon":5.4045,"is_reserved":false,"is_disabled":false,"rental_uris":{"android":"levelo://app?vid=7625f19c-b4c8-4d73-9b22-4abe54a2bf39","ios":"levelo://app?vid=7625f19c-b4c8-4d73-9b22-4abe54a2bf39"},"vehicle_type_id":"4","last_reported":1762531903,"current_range_meters":20800,"station_id":"ce4bhmh2rcd13ifvqgmg","pricing_plan_id":"cebpf4jnsgd1na2vs0mg"},{"bike_id":"46b2858f-1df9-400f-acae-73b4448ffa29","system_id":"levelo_inurba_marseille","lat":43.30309,"lon":5.36888,"is_reserved":false,"is_disabled":false,"rental_uris":{"android":"levelo://app?vid=46b2858f-1df9-400f-acae-73b4448ffa29","ios":"levelo://app?vid=46b2858f-1df9-400f-acae-73b4448ffa29"},"vehicle_type_id":"4","last_reported":1762531903,"current_range_meters":20800,"station_id":"ce4bgqh2rcd13ifvqc5g","pricing_plan_id":"cebpf4jnsgd1na2vs0mg"},{"bike_id":"62cc43a3-0277-4e3b-a711-b022cff390fc","system_id":"levelo_inurba_marseille","lat":43.31714,"lon":5.43707,"is_reserved":false,"is_disabled":false,"rental_uris":{"android":"levelo://app?vid=62cc43a3-0277-4e3b-a711-b022cff390fc","ios":"levelo://app?vid=62cc43a3-0277-4e3b-a711-b022cff390fc"},"vehicle_type_id":"4","last_reported":1762531903,"current_range_meters":21600,"station_id":"ce4bhp92rcd13ifvqhcg","pricing_plan_id":"cebpf4jnsgd1na2vs0mg"},{"bike_id":"1063fac4-8b5a-4514-a617-a71026d33eb4","system_id":"levelo_inurba_marseille","lat":43.31471,"lon":5.37277,"is_reserved":false,"is_disabled":false,"rental_uris":{"android":"levelo://app?vid=1063fac4-8b5a-4514-a617-a71026d33eb4","ios":"levelo://app?vid=1063fac4-8b5a-4514-a617-a71026d33eb4"},"vehicle_type_id":"4","last_reported":1762531903,"current_range_meters":21600,"station_id":"ce4bgt12rcd13ifvqcd0","pricing_plan_id":"cebpf4jnsgd1na2vs0mg"},{"bike_id":"a52e199a-b6c0-46a6-81c2-ed40b23c08f7","system_id":"levelo_inurba_marseille","lat":43.242124,"lon":5.367317,"is_reserved":false,"is_disabled":false,"rental_uris":{"android":"levelo://app?vid=a52e199a-b6c0-46a6-81c2-ed40b23c08f7","ios":"levelo://app?vid=a52e199a-b6c0-46a6-81c2-ed40b23c08f7"},"vehicle_type_id":"4","last_reported":1762531903,"current_range_meters":21600,"station_id":"","pricing_plan_id":"cebpf4jnsgd1na2vs0mg"},{"bike_id":"22bc4baa-903e-42c7-9021-0757a96a308d","system_id":"levelo_inurba_marseille","lat":43.28364,"lon":5.38104,"is_reserved":false,"is_disabled":false,"rental_uris":{"android":"levelo://app?vid=22bc4baa-903e-42c7-9021-0757a96a308d","ios":"levelo://app?vid=22bc4baa-903e-42c7-9021-0757a96a308d"},"vehicle_type_id":"4","last_reported":1762531903,"current_range_meters":21600,"station_id":"ce4bh412rcd13ifvqdr0","pricing_plan_id":"cebpf4jnsgd1na2vs0mg"},{"bike_id":"a449d9c2-770f-4e07-8b0f-3910ecca82f6","system_id":"levelo_inurba_marseille","lat":43.24952,"lon":5.40486,"is_reserved":false,"is_disabled":false,"rental_uris":{"android":"levelo://app?vid=a449d9c2-770f-4e07-8b0f-3910ecca82f6","ios":"levelo://app?vid=a449d9c2-770f-4e07-8b0f-3910ecca82f6"},"vehicle_type_id":"4","last_reported":1762531903,"current_range_meters":21600,"station_id":"st_d2ngiaodas8pm72gd1h0","pricing_plan_id":"cebpf4jnsgd1na2vs0mg"},{"bike_id":"85a4f4a2-d210-4791-afca-2c7671c5ae82","system_id":"levelo_inurba_marseille","lat":43.29232,"lon":5.36077,"is_reserved":false,"is_disabled":false,"rental_uris":{"android":"levelo://app?vid=85a4f4a2-d210-4791-afca-2c7671c5ae82","ios":"levelo://app?vid=85a4f4a2-d210-4791-afca-2c7671c5ae82"},"vehicle_type_id":"4","last_reported":1762531903,"current_range_meters":21600,"station_id":"ce4bhbh2rcd13ifvqeqg","pricing_plan_id":"cebpf4jnsgd1na2vs0mg"},{"bike_id":"46197605-b7d1-4556-9258-c003d5a73d95","system_id":"levelo_inurba_marseille","lat":43.29543,"lon":5.39403,"is_reserved":false,"is_disabled":false,"rental_uris":{"android":"levelo://app?vid=46197605-b7d1-4556-9258-c003d5a73d95","ios":"levelo://app?vid=46197605-b7d1-4556-9258-c003d5a73d95"},"vehicle_type_id":"4","last_reported":1762531903,"current_range_meters":21600,"station_id":"ce4bh292rcd13ifvqdf0","pricing_plan_id":"cebpf4jnsgd1na2vs0mg"},{"bike_id":"d8a2355e-a776-4b85-8a3e-22368796688d","system_id":"levelo_inurba_marseille","lat":43.307942,"lon":5.368438,"is_reserved":false,"is_disabled":false,"rental_uris":{"android":"levelo://app?vid=d8a2355e-a776-4b85-8a3e-22368796688d","ios":"levelo://app?vid=d8a2355e-a776-4b85-8a3e-22368796688d"},"vehicle_type_id":"4","last_reported":1762531903,"current_range_meters":21600,"station_id":"","pricing_plan_id":"cebpf4jnsgd1na2vs0mg"},{"bike_id":"5f51530e-ad6d-4525-9dbe-df8ccdff7435","system_id":"levelo_inurba_marseille","lat":43.31532,"lon":5.38036,"is_reserved":false,"is_disabled":false,"rental_uris":{"android":"levelo://app?vid=5f51530e-ad6d-4525-9dbe-df8ccdff7435","ios":"levelo://app?vid=5f51530e-ad6d-4525-9dbe-df8ccdff7435"},"vehicle_type_id":"4","last_reported":1762531903,"current_range_meters":21600,"station_id":"ce4bhsp2rcd13ifvqi50","pricing_plan_id":"cebpf4jnsgd1na2vs0mg"},