{"last_updated":1740143812,"ttl":60,"version":"2.2","data":{"bikes":[{"bike_id":"2a6c5be6-b83f-4b03-8d5a-afb46f513bf3","system_id":"levelo_inurba_marseille","lat":43.22915,"lon":5.35392,"is_reserved":false,"is_disabled":false,"rental_uris":{"android":"levelo://app?vid=2a6c5be6-b83f-4b03-8d5a-afb46f513bf3","ios":"levelo://app?vid=2a6c5be6-b83f-4b03-8d5a-afb46f513bf3"},"vehicle_type_id":"4","last_reported":1740143813,"current_range_meters":2800,"station_id":"cpo3532slgdg3j2ikp40","pricing_plan_id":"cebpf4jnsgd1na2vs0mg"},{"bike_id":"d0f85df7-db61-4d19-85a3-03c479e478c8","system_id":"levelo_inurba_marseille","lat":43.31342,"lon":5.36725,"is_reserved":false,"is_disabled":false,"rental_uris":{"android":"levelo://app?vid=d0f85df7-db61-4d19-85a3-03c479e478c8","ios":"levelo://app?vid=d0f85df7-db61-4d19-85a3-03c479e478c8"},"vehicle_type_id":"4","last_reported":1740143813,"current_range_meters":2800,"station_id":"ce4bgr92rcd13ifvqc6g","pricing_plan_id":"cebpf4jnsgd1na2vs0mg"},{"bike_id":"a24fe811-7940-487e-91bb-92362591d455","system_id":"levelo_inurba_marseille","lat":43.29027,"lon":5.38138,"is_reserved":false,"is_disabled":false,"rental_uris":{"android":"levelo://app?vid=a24fe811-7940-487e-91bb-92362591d455","ios":"levelo://app?vid=a24fe811-7940-487e-91bb-92362591d455"},"vehicle_type_id":"4","last_reported":1740143813,"current_range_meters":3200,"station_id":"ce4bh4p2rcd13ifvqe1g","pricing_plan_id":"cebpf4jnsgd1na2vs0mg"},{"bike_id":"a91e9203-e2c4-41a8-ae25-a131bf8da8e9","system_id":"levelo_inurba_marseille","lat":43.29202,"lon":5.35794,"is_reserved":false,"is_disabled":false,"rental_uris":{"android":"levelo://app?vid=a91e9203-e2c4-41a8-ae25-a131bf8da8e9","ios":"levelo://app?vid=a91e9203-e2c4-41a8-ae25-a131bf8da8e9"},"vehicle_type_id":"4","last_reported":1740143813,"current_range_meters":3600,"station_id":"ce4bhb12rcd13ifvqel0","pricing_plan_id":"cebpf4jnsgd1na2vs0mg"},{"bike_id":"fa937476-825f-4449-9967-b36e68b22767","system_id":"levelo_inurba_marseille","lat":43.23185,"lon":5.39987,"is_reserved":false,"is_disabled":false,"rental_uris":{"android":"levelo://app?vid=fa937476-825f-4449-9967-b36e68b22767","ios":"levelo://app?vid=fa937476-825f-4449-9967-b36e68b22767"},"vehicle_type_id":"4","last_reported":1740143813,"current_range_meters":4000,"station_id":"ce4bhn12rcd13ifvqgqg","pricing_plan_id":"cebpf4jnsgd1na2vs0mg"},{"bike_id":"2eb5a37f-ee39-4965-acff-82b82601a564","system_id":"levelo_inurba_marseille","lat":43.2306,"lon":5.35488,"is_reserved":false,"is_disabled":false,"rental_uris":{"android":"levelo://app?vid=2eb5a37f-ee39-4965-acff-82b82601a564","ios":"levelo://app?vid=2eb5a37f-ee39-4965-acff-82b82601a564"},"vehicle_type_id":"4","last_reported":1740143813,"current_range_meters":4000,"station_id":"cpo3342slgdg3j2ifvpg","pricing_plan_id":"cebpf4jnsgd1na2vs0mg"},{"bike_id":"1ec919ae-2b25-4afb-8056-850644e69f35","system_id":"levelo_inurba_marseille","lat":43.29366,"lon":5.37964,"is_reserved":false,"is_disabled":false,"rental_uris":{"android":"levelo://app?vid=1ec919ae-2b25-4afb-8056-850644e69f35","ios":"levelo://app?vid=1ec919ae-2b25-4afb-8056-850644e69f35"},"vehicle_type_id":"4","last_reported":1740143813,"current_range_meters":4400,"station_id":"","pricing_plan_id":"cebpf4jnsgd1na2vs0mg"},{"bike_id":"a076c0ac-e8e1-4ad4-905f-5b840e761759","system_id":"levelo_inurba_marseille","lat":43.313354,"lon":5.367128,"is_reserved":false,"is_disabled":false,"rental_uris":{"android":"levelo://app?vid=a076c0ac-e8e1-4ad4-905f-5b840e761759","ios":"levelo://app?vid=a076c0ac-e8e1-4ad4-905f-5b840e761759"},"vehicle_type_id":"4","last_reported":1740143813,"current_range_meters":4400,"station_id":"ce4bgr92rcd13ifvqc6g","pricing_plan_id":"cebpf4jnsgd1na2vs0mg"},{"bike_id":"e6d1513e-0314-405d-b65d-0fdef20ee7b7","system_id":"levelo_inurba_marseille","lat":43.29968,"lon":5.38483,"is_reserved":false,"is_disabled":false,"rental_uris":{"android":"levelo://app?vid=e6d1513e-0314-405d-b65d-0fdef20ee7b7","ios":"levelo://app?vid=e6d1513e-0314-405d-b65d-0fdef20ee7b7"},"vehicle_type_id":"4","last_reported":1740143813,"current_range_meters":4800,"station_id":"ce4bgj92rcd13ifvqbd0","pricing_plan_id":"cebpf4jnsgd1na2vs0mg"},{"bike_id":"1e5be511-dbab-49b7-9246-b39c0db2519f","system_id":"levelo_inurba_marseille","lat":43.28472,"lon":5.38418,"is_reserved":false,"is_disabled":false,"rental_uris":{"android":"levelo://app?vid=1e5be511-dbab-49b7-9246-b39c0db2519f","ios":"levelo://app?vid=1e5be511-dbab-49b7-9246-b39c0db2519f"},"vehicle_type_id":"4","last_reported":1740143813,"current_range_meters":3600,"station_id":"ce4bh512rcd13ifvqe3g","pricing_plan_id":"cebpf4jnsgd1na2vs0mg"},{"bike_id":"0103d481-45cf-46ab-b256-6091acc801f7","system_id":"levelo_inurba_marseille","lat":43.27923,"lon":5.39583,"is_reserved":false,"is_disabled":false,"rental_uris":{"android":"levelo://app?vid=0103d481-45cf-46ab-b256-6091acc801f7","ios":"levelo://app?vid=0103d481-45cf-46ab-b256-6091acc801f7"},"vehicle_type_id":"4","last_reported":1740143813,"current_range_meters":4800,"station_id":"ce4bhf92rcd13ifvqf40","pricing_plan_id":"cebpf4jnsgd1na2vs0mg"},{"bike_id":"570ca427-4ebb-4e6e-ac7c-bf43daf98d1b","system_id":"levelo_inurba_marseille","lat":43.25936,"lon":5.40903,"is_reserved":false,"is_disabled":false,"rental_uris":{"android":"levelo://app?vid=570ca427-4ebb-4e6e-ac7c-bf43daf98d1b","ios":"levelo://app?vid=570ca427-4ebb-4e6e-ac7c-bf43daf98d1b"},"vehicle_type_id":"4","last_reported":1740143813,"current_range_meters":5600,"station_id":"ce4bhm92rcd13ifvqglg","pricing_plan_id":"cebpf4jnsgd1na2vs0mg"},{"bike_id":"0006b5fa-8ad1-430f-9b98-af8c1f3be4c8","system_id":"levelo_inurba_marseille","lat":43.24978,"lon":5.38947,"is_reserved":false,"is_disabled":false,"rental_uris":{"android":"levelo://app?vid=0006b5fa-8ad1-430f-9b98-af8c1f3be4c8","ios":"levelo://app?vid=0006b5fa-8ad1-430f-9b98-af8c1f3be4c8"},"vehicle_type_id":"4","last_reported":1740143813,"current_range_meters":5600,"station_id":"ce4bhgp2rcd13ifvqfd0","pricing_plan_id":"cebpf4jnsgd1na2vs0mg"},{"bike_id":"ca726b34-b6ae-47d7-85a7-2d80b8b50572","system_id":"levelo_inurba_marseille","lat":43.232,"lon":5.35549,"is_reserved":false,"is_disabled":false,"rental_uris":{"android":"levelo://app?vid=ca726b34-b6ae-47d7-85a7-2d80b8b50572","ios":"levelo://app?vid=ca726b34-b6ae-47d7-85a7-2d80b8b50572"},"vehicle_type_id":"4","last_reported":1740143813,"current_range_meters":5600,"station_id":"ce4bhu92rcd13ifvqi70","pricing_plan_id":"cebpf4jnsgd1na2vs0mg"},{"bike_id":"2c435ebd-cad3-46c0-8dcc-6396d19f55a5","system_id":"levelo_inurba_marseille","lat":43.29911,"lon":5.38149,"is_reserved":false,"is_disabled":false,"rental_uris":{"android":"levelo://app?vid=2c435ebd-cad3-46c0-8dcc-6396d19f55a5","ios":"levelo://app?vid=2c435ebd-cad3-46c0-8dcc-6396d19f55a5"},"vehicle_type_id":"4","last_reported":1740143813,"current_range_meters":6000,"station_id":"ce4bgj12rcd13ifvqbc0","pricing_plan_id":"cebpf4jnsgd1na2vs0mg"},{"bike_id":"843c8993-eb89-48c0-bc46-978aec656ac8","system_id":"levelo_inurba_marseille","lat":43.2794,"lon":5.4085,"is_reserved":false,"is_disabled":false,"rental_uris":{"android":"levelo://app?vid=843c8993-eb89-48c0-bc46-978aec656ac8","ios":"levelo://app?vid=843c8993-eb89-48c0-bc46-978aec656ac8"},"vehicle_type_id":"4","last_reported":1740143813,"current_range_meters":6000,"station_id":"","pricing_plan_id":"cebpf4jnsgd1na2vs0mg"},{"bike_id":"45a09a49-0660-485e-bfdf-219d79726cbb","system_id":"levelo_inurba_marseille","lat":43.28401,"lon":5.37508,"is_reserved":false,"is_disabled":false,"rental_uris":{"android":"levelo://app?vid=45a09a49-0660-485e-bfdf-219d79726cbb","ios":"levelo://app?vid=45a09a49-0660-485e-bfdf-219d79726cbb"},"vehicle_type_id":"4","last_reported":1740143813,"current_range_meters":6000,"station_id":"ce4bh412rcd13ifvqds0","pricing_plan_id":"cebpf4jnsgd1na2vs0mg"},{"bike_id":"68cafea7-51fa-4c92-9a97-343d32aa115b","system_id":"levelo_inurba_marseille","lat":43.292389,"lon":5.384059,"is_reserved":false,"is_disabled":false,"rental_uris":{"android":"levelo://app?vid=68cafea7-51fa-4c92-9a97-343d32aa115b","ios":"levelo://app?vid=68cafea7-51fa-4c92-9a97-343d32aa115b"},"vehicle_type_id":"4","last_reported":1740143813,"current_range_meters":5600,"station_id":"ce4bh112rcd13ifvqda0","pricing_plan_id":"cebpf4jnsgd1na2vs0mg"},{"bike_id":"c16f00e4-fd1f-4233-b7d2-91307413ccf4","system_id":"levelo_inurba_marseille","lat":43.28435,"lon":5.39204,"is_reserved":false,"is_disabled":false,"rental_uris":{"android":"levelo://app?vid=c16f00e4-fd1f-4233-b7d2-91307413ccf4","ios":"levelo://app?vid=c16f00e4-fd1f-4233-b7d2-91307413ccf4"},"vehicle_type_id":"4","last_reported":1740143813,"current_range_meters":6000,"station_id":"ce4bhoh2rcd13ifvqh5g","pricing_plan_id":"cebpf4jnsgd1na2vs0mg"},{"bike_id":"10f14cdd-976f-4036-affd-35be4beb171e","system_id":"levelo_inurba_marseille","lat":43.27067,"lon":5.40275,"is_reserved":false,"is_disabled":false,"rental_uris":{"android":"levelo://app?vid=10f14cdd-976f-4036-affd-35be4beb171e","ios":"levelo://app?vid=10f14cdd-976f-4036-affd-35be4beb171e"},"vehicle_type_id":"4","last_reported":1740143813,"current_range_meters":6400,"station_id":"ce4bhk92rcd13ifvqgc0","pricing_plan_id":"cebpf4jnsgd1na2vs0mg"},{"bike_id":"0555ed46-e79c-4f7f-991f-9acdd94e87da","system_id":"levelo_inurba_marseille","lat":43.26814,"lon":5.40259,"is_reserved":false,"is_disabled":false,"rental_uris":{"android":"levelo://app?vid=0555ed46-e79c-4f7f-991f-9acdd94e87da","ios":"levelo://app?vid=0555ed46-e79c-4f7f-991f-9acdd94e87da"},"vehicle_type_id":"4","last_reported":1740143813,"current_range_meters":6400,"station_id":"ce501612rcd8frsf0b60","pricing_plan_id":"cebpf4jnsgd1na2vs0mg"},{"bike_id":"26a320ea-f2fa-4dea-95f4-408194a41936","system_id":"levelo_inurba_marseille","lat":43.23195,"lon":5.39994,"is_reserved":false,"is_disabled":false,"rental_uris":{"android":"levelo://app?vid=26a320ea-f2fa-4dea-95f4-408194a41936","ios":"levelo://app?vid=26a320ea-f2fa-4dea-95f4-408194a41936"},"vehicle_type_id":"4","last_reported":1740143813,"current_range_meters":6400,"station_id":"ce4bhn12rcd13ifvqgqg","pricing_plan_id":"cebpf4jnsgd1na2vs0mg"},{"bike_id":"5ec5ccbb-90ba-4bad-890d-e1798d55c39a","system_id":"levelo_inurba_marseille","lat":43.23155,"lon":5.43688,"is_reserved":false,"is_disabled":false,"rental_uris":{"android":"levelo://app?vid=5ec5ccbb-90ba-4bad-890d-e1798d55c39a","ios":"levelo://app?vid=5ec5ccbb-90ba-4bad-890d-e1798d55c39a"},"vehicle_type_id":"4","last_reported":1740143813,"current_range_meters":6400,"station_id":"ce4bhmp2rcd13ifvqgog","pricing_plan_id":"cebpf4jnsgd1na2vs0mg"},{"bike_id":"f9fb781c-093a-4626-81d7-b95df7303bb1","system_id":"levelo_inurba_marseille","lat":43.24805,"lon":5.37438,"is_reserved":false,"is_disabled":true,"rental_uris":{"android":"levelo://app?vid=f9fb781c-093a-4626-81d7-b95df7303bb1","ios":"levelo://app?vid=f9fb781c-093a-4626-81d7-b95df7303bb1"},"vehicle_type_id":"4","last_reported":1740143813,"current_range_meters":6400,"station_id":"ce4bhgh2rcd13ifvqfb0","pricing_plan_id":"cebpf4jnsgd1na2vs0mg"},{"bike_id":"5516853e-78cf-4be2-9f26-f0cbb736d267","system_id":"levelo_inurba_marseille","lat":43.29895,"lon":5.43675,"is_reserved":false,"is_disabled":false,"rental_uris":{"android":"levelo://app?vid=5516853e-78cf-4be2-9f26-f0cbb736d267","ios":"levelo://app?vid=5516853e-78cf-4be2-9f26-f0cbb736d267"},"vehicle_type_id":"4","last_reported":1740143813,"current_range_meters":6400,"station_id":"ce4bhpp2rcd13ifvqhfg","pricing_plan_id":"cebpf4jnsgd1na2vs0mg"},{"bike_id":"022e93f2-12d7-4213-b8ad-98afa8da1efe","system_id":"levelo_inurba_marseille","lat":43.26805,"lon":5.40267,"is_reserved":false,"is_disabled":false,"rental_uris":{"android":"levelo://app?vid=022e93f2-12d7-4213-b8ad-98afa8da1efe","ios":"levelo://app?vid=022e93f2-12d7-4213-b8ad-98afa8da1efe"},"vehicle_type_id":"4","last_reported":1740143813,"current_range_meters":6400,"station_id":"ce501612rcd8frsf0b60","pricing_plan_id":"cebpf4jnsgd1na2vs0mg"},{"bike_id":"e07d7381-9639-4623-a587-7fbd840bfc02","system_id":"levelo_inurba_marseille","lat":43.23185,"lon":5.35551,"is_reserved":false,"is_disabled":false,"rental_uris":{"android":"levelo://app?vid=e07d7381-9639-4623-a587-7fbd840bfc02","ios":"levelo://app?vid=e07d7381-9639-4623-a587-7fbd840bfc02"},"vehicle_type_id":"4","last_reported":1740143813,"current_range_meters":6800,"station_id":"","pricing_plan_id":"cebpf4jnsgd1na2vs0mg"},{"bike_id":"17b7009f-6c42-4b1b-8c74-98d1ff07cd6c","system_id":"levelo_inurba_marseille","lat":43.32653,"lon":5.40994,"is_reserved":false,"is_disabled":false,"rental_uris":{"android":"levelo://app?vid=17b7009f-6c42-4b1b-8c74-98d1ff07cd6c","ios":"levelo://app?vid=17b7009f-6c42-4b1b-8c74-98d1ff07cd6c"},"vehicle_type_id":"4","last_reported":1740143813,"current_range_meters":6800,"station_id":"ce4bhpp2rcd13ifvqhgg","pricing_plan_id":"cebpf4jnsgd1na2vs0mg"},{"bike_id":"77ff63e8-b5ae-48d0-8725-3fc2e7c2e786","system_id":"levelo_inurba_marseille","lat":43.32106,"lon":5.36782,"is_reserved":false,"is_disabled":false,"rental_uris":{"android":"levelo://app?vid=77ff63e8-b5ae-48d0-8725-3fc2e7c2e786","ios":"levelo://app?vid=77ff63e8-b5ae-48d0-8725-3fc2e7c2e786"},"vehicle_type_id":"4","last_reported":1740143813,"current_range_meters":6800,"station_id":"ce4bhrh2rcd13ifvqhug","pricing_plan_id":"cebpf4jnsgd1na2vs0mg"},{"bike_id":"4c1c44ca-a891-4cc7-8ab3-3d500286eb78","system_id":"levelo_inurba_marseille","lat":43.290682,"lon":5.371636,"is_reserved":false,"is_disabled":false,"rental_uris":{"android":"levelo://app?vid=4c1c44ca-a891-4cc7-8ab3-3d500286eb78","ios":"levelo://app?vid=4c1c44ca-a891-4cc7-8ab3-3d500286eb78"},"vehicle_type_id":"4","last_reported":1740143813,"current_range_meters":8400,"station_id":"ce4bha12rcd13ifvqef0","pricing_plan_id":"cebpf4jnsgd1na2vs0mg"},{"bike_id":"d4ac9080-89f9-4d04-ab03-22b0f0a4e5be","system_id":"levelo_inurba_marseille","lat":43.23199,"lon":5.35566,"is_reserved":false,"is_disabled":false,"rental_uris":{"android":"levelo://app?vid=d4ac9080-89f9-4d04-ab03-22b0f0a4e5be","ios":"levelo://app?vid=d4ac9080-89f9-4d04-ab03-22b0f0a4e5be"},"vehicle_type_id":"4","last_reported":1740143813,"current_range_meters":6800,"station_id":"ce4bhu92rcd13ifvqi70","pricing_plan_id":"cebpf4jnsgd1na2vs0mg"},{"bike_id":"c0d3e323-38a8-4aa8-b0ff-88d5a2426078","system_id":"levelo_inurba_marseille","lat":43.25508,"lon":5.37653,"is_reserved":false,"is_disabled":false,"rental_uris":{"android":"levelo://app?vid=c0d3e323-38a8-4aa8-b0ff-88d5a2426078","ios":"levelo://app?vid=c0d3e323-38a8-4aa8-b0ff-88d5a2426078"},"vehicle_type_id":"4","last_reported":1740143813,"current_range_meters":6400,"station_id":"ce4bhh12rcd13ifvqff0","pricing_plan_id":"cebpf4jnsgd1na2vs0mg"},{"bike_id":"96a1fcc0-1023-4a4d-be7c-4b21f83028aa","system_id":"levelo_inurba_marseille","lat":43.23198,"lon":5.355533,"is_reserved":false,"is_disabled":true,"rental_uris":{"android":"levelo://app?vid=96a1fcc0-1023-4a4d-be7c-4b21f83028aa","ios":"levelo://app?vid=96a1fcc0-1023-4a4d-be7c-4b21f83028aa"},"vehicle_type_id":"4","last_reported":1740143813,"current_range_meters":7200,"station_id":"ce4bhu92rcd13ifvqi70","pricing_plan_id":"cebpf4jnsgd1na2vs0mg"},{"bike_id":"7d932747-8fa4-4a65-94af-ec8450f17c5c","system_id":"levelo_inurba_marseille","lat":43.27063,"lon":5.40254,"is_reserved":false,"is_disabled":false,"rental_uris":{"android":"levelo://app?vid=7d932747-8fa4-4a65-94af-ec8450f17c5c","ios":"levelo://app?vid=7d932747-8fa4-4a65-94af-ec8450f17c5c"},"vehicle_type_id":"4","last_reported":1740143813,"current_range_meters":7200,"station_id":"ce4bhk92rcd13ifvqgc0","pricing_plan_id":"cebpf4jnsgd1na2vs0mg"},{"bike_id":"948ca15e-dd0e-4b24-9dae-3803d237a65d","system_id":"levelo_inurba_marseille","lat":43.23951,"lon":5.36648,"is_reserved":false,"is_disabled":false,"rental_uris":{"android":"levelo://app?vid=948ca15e-dd0e-4b24-9dae-3803d237a65d","ios":"levelo://app?vid=948ca15e-dd0e-4b24-9dae-3803d237a65d"},"vehicle_type_id":"4","last_reported":1740143813,"current_range_meters":8400,"station_id":"ce4bhi12rcd13ifvqfp0","pricing_plan_id":"cebpf4jnsgd1na2vs0mg"},{"bike_id":"45528c36-0352-462f-a5df-dcf6e64ae67e","system_id":"levelo_inurba_marseille","lat":43.27375,"lon":5.36253,"is_reserved":false,"is_disabled":false,"rental_uris":{"android":"levelo://app?vid=45528c36-0352-462f-a5df-dcf6e64ae67e","ios":"levelo://app?vid=45528c36-0352-462f-a5df-dcf6e64ae67e"},"vehicle_type_id":"4","last_reported":1740143813,"current_range_meters":8400,"station_id":"ce4bhbh2rcd13ifvqeo0","pricing_plan_id":"cebpf4jnsgd1na2vs0mg"},{"bike_id":"fc0349de-a96b-4e9e-88b6-f49bf89d84ae","system_id":"levelo_inurba_marseille","lat":43.27993,"lon":5.39999,"is_reserved":false,"is_disabled":false,"rental_uris":{"android":"levelo://app?vid=fc0349de-a96b-4e9e-88b6-f49bf89d84ae","ios":"levelo://app?vid=fc0349de-a96b-4e9e-88b6-f49bf89d84ae"},"vehicle_type_id":"4","last_reported":1740143813,"current_range_meters":8400,"station_id":"ce4bho92rcd13ifvqh4g","pricing_plan_id":"cebpf4jnsgd1na2vs0mg"},{"bike_id":"87590419-9431-46cd-a562-7648976d855a","system_id":"levelo_inurba_marseille","lat":43.2791,"lon":5.41206,"is_reserved":false,"is_disabled":false,"rental_uris":{"android":"levelo://app?vid=87590419-9431-46cd-a562-7648976d855a","ios":"levelo://app?vid=87590419-9431-46cd-a562-7648976d855a"},"vehicle_type_id":"4","last_reported":1740143813,"current_range_meters":8400,"station_id":"","pricing_plan_id":"cebpf4jnsgd1na2vs0mg"},{"bike_id":"db041e8d-4c01-4fa9-80d2-564af19c0ebc","system_id":"levelo_inurba_marseille","lat":43.26221,"lon":5.37443,"is_reserved":false,"is_disabled":false,"rental_uris":{"android":"levelo://app?vid=db041e8d-4c01-4fa9-80d2-564af19c0ebc","ios":"levelo://app?vid=db041e8d-4c01-4fa9-80d2-564af19c0ebc"},"vehicle_type_id":"4","last_reported":1740143813,"current_range_meters":8400,"station_id":"ce4bhgp2rcd13ifvqfc0","pricing_plan_id":"cebpf4jnsgd1na2vs0mg"},{"bike_id":"2a37681d-b7ca-450b-b560-336358060b2c","system_id":"levelo_inurba_marseille","lat":43.29783,"lon":5.38113,"is_reserved":false,"is_disabled":false,"rental_uris":{"android":"levelo://app?vid=2a37681d-b7ca-450b-b560-336358060b2c","ios":"levelo://app?vid=2a37681d-b7ca-450b-b560-336358060b2c"},"vehicle_type_id":"4","last_reported":1740143813,"current_range_meters":8400,"station_id":"ce4bgip2rcd13ifvqbb0","pricing_plan_id":"cebpf4jnsgd1na2vs0mg"},{"bike_id":"6b6e1059-5264-45b9-9cb9-d24cf5205f2a","system_id":"levelo_inurba_marseille","lat":43.23971,"lon":5.36647,"is_reserved":false,"is_disabled":true,"rental_uris":{"android":"levelo://app?vid=6b6e1059-5264-45b9-9cb9-d24cf5205f2a","ios":"levelo://app?vid=6b6e1059-5264-45b9-9cb9-d24cf5205f2a"},"vehicle_type_id":"4","last_reported":1740143813,"current_range_meters":8800,"station_id":"","pricing_plan_id":"cebpf4jnsgd1na2vs0mg"},{"bike_id":"ae40df02-e12b-459b-8aee-4163db691c8d","system_id":"levelo_inurba_marseille","lat":43.291031,"lon":5.377773,"is_reserved":false,"is_disabled":false,"rental_uris":{"android":"levelo://app?vid=ae40df02-e12b-459b-8aee-4163db691c8d","ios":"levelo://app?vid=ae40df02-e12b-459b-8aee-4163db691c8d"},"vehicle_type_id":"4","last_reported":1740143813,"current_range_meters":5600,"station_id":"ce4bh512rcd13ifvqe2g","pricing_plan_id":"cebpf4jnsgd1na2vs0mg"},{"bike_id":"7ed3595e-8755-4a70-8d64-c1b14dd80b02","system_id":"levelo_inurba_marseille","lat":43.28425,"lon":5.34983,"is_reserved":false,"is_disabled":false,"rental_uris":{"android":"levelo://app?vid=7ed3595e-8755-4a70-8d64-c1b14dd80b02","ios":"levelo://app?vid=7ed3595e-8755-4a70-8d64-c1b14dd80b02"},"vehicle_type_id":"4","last_reported":1740143813,"current_range_meters":8800,"station_id":"ce4bhbh2rcd13ifvqepg","pricing_plan_id":"cebpf4jnsgd1na2vs0mg"},{"bike_id":"c2c9e96d-fb24-4f9e-9cc1-5c25f812e5fe","system_id":"levelo_inurba_marseille","lat":43.26198,"lon":5.37456,"is_reserved":false,"is_disabled":false,"rental_uris":{"android":"levelo://app?vid=c2c9e96d-fb24-4f9e-9cc1-5c25f812e5fe","ios":"levelo://app?vid=c2c9e96d-fb24-4f9e-9cc1-5c25f812e5fe"},"vehicle_type_id":"4","last_reported":1740143813,"current_range_meters":8800,"station_id":"ce4bhgp2rcd13ifvqfc0","pricing_plan_id":"cebpf4jnsgd1na2vs0mg"},{"bike_id":"19884315-f9bd-4438-b9fb-5c3e9bc50f18","system_id":"levelo_inurba_marseille","lat":43.26219,"lon":5.37446,"is_reserved":false,"is_disabled":false,"rental_uris":{"android":"levelo://app?vid=19884315-f9bd-4438-b9fb-5c3e9bc50f18","ios":"levelo://app?vid=19884315-f9bd-4438-b9fb-5c3e9bc50f18"},"vehicle_type_id":"4","last_reported":1740143813,"current_range_meters":8800,"station_id":"ce4bhgp2rcd13ifvqfc0","pricing_plan_id":"cebpf4jnsgd1na2vs0mg"},{"bike_id":"7e4267bc-bf82-40ff-bec1-d1864901c315","system_id":"levelo_inurba_marseille","lat":43.26217,"lon":5.3745,"is_reserved":false,"is_disabled":false,"rental_uris":{"android":"levelo://app?vid=7e4267bc-bf82-40ff-bec1-d1864901c315","ios":"levelo://app?vid=7e4267bc-bf82-40ff-bec1-d1864901c315"},"vehicle_type_id":"4","last_reported":1740143813,"current_range_meters":8800,"station_id":"ce4bhgp2rcd13ifvqfc0","pricing_plan_id":"cebpf4jnsgd1na2vs0mg"},{"bike_id":"954a7086-ccc9-41c5-a809-228e82a24fb2","system_id":"levelo_inurba_marseille","lat":43.28721,"lon":5.39997,"is_reserved":false,"is_disabled":true,"rental_uris":{"android":"levelo://app?vid=954a7086-ccc9-41c5-a809-228e82a24fb2","ios":"levelo://app?vid=954a7086-ccc9-41c5-a809-228e82a24fb2"},"vehicle_type_id":"4","last_reported":1740143813,"current_range_meters":8800,"station_id":"ce4bho92rcd13ifvqh3g","pricing_plan_id":"cebpf4jnsgd1na2vs0mg"},{"bike_id":"256456b4-dd00-4a7b-89d2-e6e4e8fe9ac4","system_id":"levelo_inurba_marseille","lat":43.2407,"lon":5.37762,"is_reserved":false,"is_disabled":false,"rental_uris":{"android":"levelo://app?vid=256456b4-dd00-4a7b-89d2-e6e4e8fe9ac4","ios":"levelo://app?vid=256456b4-dd00-4a7b-89d2-e6e4e8fe9ac4"},"vehicle_type_id":"4","last_reported":1740143813,"current_range_meters":8800,"station_id":"ce4bhnp2rcd13ifvqgvg","pricing_plan_id":"cebpf4jnsgd1na2vs0mg"},{"bike_id":"d5e7b54b-e932-4925-b97c-360094f3da64","system_id":"levelo_inurba_marseille","lat":43.27386,"lon":5.3627,"is_reserved":false,"is_disabled":false,"rental_uris":{"android":"levelo://app?vid=d5e7b54b-e932-4925-b97c-360094f3da64","ios":"levelo://app?vid=d5e7b54b-e932-4925-b97c-360094f3da64"},"vehicle_type_id":"4","last_reported":1740143813,"current_range_meters":9200,"station_id":"","pricing_plan_id":"cebpf4jnsgd1na2vs0mg"},{"bike_id":"097686fc-b08a-40a8-aaaf-539cdfdb8c4a","system_id":"levelo_inurba_marseille","lat":43.27814,"lon":5.40707,"is_reserved":false,"is_disabled":false,"rental_uris":{"android":"levelo://app?vid=097686fc-b08a-40a8-aaaf-539cdfdb8c4a","ios":"levelo://app?vid=097686fc-b08a-40a8-aaaf-539cdfdb8c4a"},"vehicle_type_id":"4","last_reported":1740143813,"current_range_meters":9600,"station_id":"ce4bhnh2rcd13ifvqgtg","pricing_plan_id":"cebpf4jnsgd1na2vs0mg"},{"bike_id":"603f7a4c-5345-4e2c-b0df-feb34cdd0a4f","system_id":"levelo_inurba_marseille","lat":43.25719,"lon":5.41113,"is_reserved":false,"is_disabled":false,"rental_uris":{"android":"levelo://app?vid=603f7a4c-5345-4e2c-b0df-feb34cdd0a4f","ios":"levelo://app?vid=603f7a4c-5345-4e2c-b0df-feb34cdd0a4f"},"vehicle_type_id":"4","last_reported":1740143813,"current_range_meters":9600,"station_id":"ce4bhkp2rcd13ifvqgd0","pricing_plan_id":"cebpf4jnsgd1na2vs0mg"},{"bike_id":"a7e57524-7096-4476-8d9d-8e8806b1c3d0","system_id":"levelo_inurba_marseille","lat":43.23152,"lon":5.43699,"is_reserved":false,"is_disabled":true,"rental_uris":{"android":"levelo://app?vid=a7e57524-7096-4476-8d9d-8e8806b1c3d0","ios":"levelo://app?vid=a7e57524-7096-4476-8d9d-8e8806b1c3d0"},"vehicle_type_id":"4","last_reported":1740143813,"current_range_meters":9600,"station_id":"ce4bhmp2rcd13ifvqgog","pricing_plan_id":"cebpf4jnsgd1na2vs0mg"},{"bike_id":"9a8e6324-462d-476d-ae8b-81702c07646c","system_id":"levelo_inurba_marseille","lat":43.2572,"lon":5.41128,"is_reserved":false,"is_disabled":false,"rental_uris":{"android":"levelo://app?vid=9a8e6324-462d-476d-ae8b-81702c07646c","ios":"levelo://app?vid=9a8e6324-462d-476d-ae8b-81702c07646c"},"vehicle_type_id":"4","last_reported":1740143813,"current_range_meters":9600,"station_id":"ce4bhkp2rcd13ifvqgd0","pricing_plan_id":"cebpf4jnsgd1na2vs0mg"},{"bike_id":"e080c45a-a05d-4297-8995-86678422b056","system_id":"levelo_inurba_marseille","lat":43.34416,"lon":5.38088,"is_reserved":false,"is_disabled":false,"rental_uris":{"android":"levelo://app?vid=e080c45a-a05d-4297-8995-86678422b056","ios":"levelo://app?vid=e080c45a-a05d-4297-8995-86678422b056"},"vehicle_type_id":"4","last_reported":1740143813,"current_range_meters":9600,"station_id":"","pricing_plan_id":"cebpf4jnsgd1na2vs0mg"},{"bike_id":"8e01b896-fbd8-4a8a-9c81-39a52cc5ed5b","system_id":"levelo_inurba_marseille","lat":43.3136,"lon":5.38494,"is_reserved":false,"is_disabled":false,"rental_uris":{"android":"levelo://app?vid=8e01b896-fbd8-4a8a-9c81-39a52cc5ed5b","ios":"levelo://app?vid=8e01b896-fbd8-4a8a-9c81-39a52cc5ed5b"},"vehicle_type_id":"4","last_reported":1740143813,"current_range_meters":10000,"station_id":"ce4bgt92rcd13ifvqcf0","pricing_plan_id":"cebpf4jnsgd1na2vs0mg"},{"bike_id":"beebcc6e-4c5e-47d8-8160-c9024ef0c558","system_id":"levelo_inurba_marseille","lat":43.27811,"lon":5.40714,"is_reserved":false,"is_disabled":false,"rental_uris":{"android":"levelo://app?vid=beebcc6e-4c5e-47d8-8160-c9024ef0c558","ios":"levelo://app?vid=beebcc6e-4c5e-47d8-8160-c9024ef0c558"},"vehicle_type_id":"4","last_reported":1740143813,"current_range_meters":9600,"station_id":"ce4bhnh2rcd13ifvqgtg","pricing_plan_id":"cebpf4jnsgd1na2vs0mg"},{"bike_id":"d0109f8e-c695-44b8-83b5-050518c2c6c9","system_id":"levelo_inurba_marseille","lat":43.23067,"lon":5.35487,"is_reserved":false,"is_disabled":false,"rental_uris":{"android":"levelo://app?vid=d0109f8e-c695-44b8-83b5-050518c2c6c9","ios":"levelo://app?vid=d0109f8e-c695-44b8-83b5-050518c2c6c9"},"vehicle_type_id":"4","last_reported":1740143813,"current_range_meters":10000,"station_id":"cpo3342slgdg3j2ifvpg","pricing_plan_id":"cebpf4jnsgd1na2vs0mg"},{"bike_id":"78006544-6e6b-4855-82e3-aa455b2e6ac1","system_id":"levelo_inurba_marseille","lat":43.29936,"lon":5.36516,"is_reserved":false,"is_disabled":false,"rental_uris":{"android":"levelo://app?vid=78006544-6e6b-4855-82e3-aa455b2e6ac1","ios":"levelo://app?vid=78006544-6e6b-4855-82e3-aa455b2e6ac1"},"vehicle_type_id":"4","last_reported":1740143813,"current_range_meters":10000,"station_id":"ce4bgm92rcd13ifvqbr0","pricing_plan_id":"cebpf4jnsgd1na2vs0mg"},{"bike_id":"e93b71ae-eb32-4a1d-9682-e9edaba76334","system_id":"levelo_inurba_marseille","lat":43.24548,"lon":5.39527,"is_reserved":false,"is_disabled":false,"rental_uris":{"android":"levelo://app?vid=e93b71ae-eb32-4a1d-9682-e9edaba76334","ios":"levelo://app?vid=e93b71ae-eb32-4a1d-9682-e9edaba76334"},"vehicle_type_id":"4","last_reported":1740143813,"current_range_meters":9600,"station_id":"ce4bhlp2rcd13ifvqgjg","pricing_plan_id":"cebpf4jnsgd1na2vs0mg"},{"bike_id":"849d245a-be14-47ff-9742-f234bf067745","system_id":"levelo_inurba_marseille","lat":43.29751,"lon":5.3791,"is_reserved":false,"is_disabled":false,"rental_uris":{"android":"levelo://app?vid=849d245a-be14-47ff-9742-f234bf067745","ios":"levelo://app?vid=849d245a-be14-47ff-9742-f234bf067745"},"vehicle_type_id":"4","last_reported":1740143813,"current_range_meters":10000,"station_id":"ce4bguh2rcd13ifvqckg","pricing_plan_id":"cebpf4jnsgd1na2vs0mg"},{"bike_id":"e2605be6-729f-4263-a772-380592b3879d","system_id":"levelo_inurba_marseille","lat":43.30464,"lon":5.38091,"is_reserved":false,"is_disabled":false,"rental_uris":{"android":"levelo://app?vid=e2605be6-729f-4263-a772-380592b3879d","ios":"levelo://app?vid=e2605be6-729f-4263-a772-380592b3879d"},"vehicle_type_id":"4","last_reported":1740143813,"current_range_meters":10000,"station_id":"","pricing_plan_id":"cebpf4jnsgd1na2vs0mg"},{"bike_id":"deb5fb64-e833-4cc1-8623-964157e87372","system_id":"levelo_inurba_marseille","lat":43.23152,"lon":5.43708,"is_reserved":false,"is_disabled":false,"rental_uris":{"android":"levelo://app?vid=deb5fb64-e833-4cc1-8623-964157e87372","ios":"levelo://app?vid=deb5fb64-e833-4cc1-8623-964157e87372"},"vehicle_type_id":"4","last_reported":1740143813,"current_range_meters":10000,"station_id":"ce4bhmp2rcd13ifvqgog","pricing_plan_id":"cebpf4jnsgd1na2vs0mg"},{"bike_id":"e721d3c4-1b93-4f67-9cb8-2ec4a4633b6c","system_id":"levelo_inurba_marseille","lat":43.30924,"lon":5.40149,"is_reserved":false,"is_disabled":false,"rental_uris":{"android":"levelo://app?vid=e721d3c4-1b93-4f67-9cb8-2ec4a4633b6c","ios":"levelo://app?vid=e721d3c4-1b93-4f67-9cb8-2ec4a4633b6c"},"vehicle_type_id":"4","last_reported":1740143813,"current_range_meters":10000,"station_id":"ce4bgvp2rcd13ifvqct0","pricing_plan_id":"cebpf4jnsgd1na2vs0mg"},{"bike_id":"0b58d0e8-a26d-4734-9adb-fcffbcbbf45a","system_id":"levelo_inurba_marseille","lat":43.29072,"lon":5.37159,"is_reserved":false,"is_disabled":false,"rental_uris":{"android":"levelo://app?vid=0b58d0e8-a26d-4734-9adb-fcffbcbbf45a","ios":"levelo://app?vid=0b58d0e8-a26d-4734-9adb-fcffbcbbf45a"},"vehicle_type_id":"4","last_reported":1740143813,"current_range_meters":14000,"station_id":"ce4bh5p2rcd13ifvqe4g","pricing_plan_id":"cebpf4jnsgd1na2vs0mg"},{"bike_id":"5c24a800-a337-4061-8236-708b58a81e50","system_id":"levelo_inurba_marseille","lat":43.29895,"lon":5.43656,"is_reserved":false,"is_disabled":false,"rental_uris":{"android":"levelo://app?vid=5c24a800-a337-4061-8236-708b58a81e50","ios":"levelo://app?vid=5c24a800-a337-4061-8236-708b58a81e50"},"vehicle_type_id":"4","last_reported":1740143813,"current_range_meters":10800,"station_id":"ce4bhpp2rcd13ifvqhfg","pricing_plan_id":"cebpf4jnsgd1na2vs0mg"},{"bike_id":"77c1842c-71cc-43c5-879f-92acf55ddcc8","system_id":"levelo_inurba_marseille","lat":43.30949,"lon":5.39042,"is_reserved":false,"is_disabled":false,"rental_uris":{"android":"levelo://app?vid=77c1842c-71cc-43c5-879f-92acf55ddcc8","ios":"levelo://app?vid=77c1842c-71cc-43c5-879f-92acf55ddcc8"},"vehicle_type_id":"4","last_reported":1740143813,"current_range_meters":8800,"station_id":"ce4bgup2rcd13ifvqco0","pricing_plan_id":"cebpf4jnsgd1na2vs0mg"},{"bike_id":"d414c500-f227-4efb-aabd-f7246cca81bc","system_id":"levelo_inurba_marseille","lat":43.2306,"lon":5.3549,"is_reserved":false,"is_disabled":false,"rental_uris":{"android":"levelo://app?vid=d414c500-f227-4efb-aabd-f7246cca81bc","ios":"levelo://app?vid=d414c500-f227-4efb-aabd-f7246cca81bc"},"vehicle_type_id":"4","last_reported":1740143813,"current_range_meters":11200,"station_id":"cpo3342slgdg3j2ifvpg","pricing_plan_id":"cebpf4jnsgd1na2vs0mg"},{"bike_id":"f2cdf9b3-27db-4f2e-a44a-9891c95db95b","system_id":"levelo_inurba_marseille","lat":43.26058,"lon":5.39391,"is_reserved":false,"is_disabled":false,"rental_uris":{"android":"levelo://app?vid=f2cdf9b3-27db-4f2e-a44a-9891c95db95b","ios":"levelo://app?vid=f2cdf9b3-27db-4f2e-a44a-9891c95db95b"},"vehicle_type_id":"4","last_reported":1740143813,"current_range_meters":11200,"station_id":"ce4bhh92rcd13ifvqfj0","pricing_plan_id":"cebpf4jnsgd1na2vs0mg"},{"bike_id":"f3feea2e-5bf7-41f6-a6d2-c494ec11d6a2","system_id":"levelo_inurba_marseille","lat":43.23056,"lon":5.35489,"is_reserved":false,"is_disabled":false,"rental_uris":{"android":"levelo://app?vid=f3feea2e-5bf7-41f6-a6d2-c494ec11d6a2","ios":"levelo://app?vid=f3feea2e-5bf7-41f6-a6d2-c494ec11d6a2"},"vehicle_type_id":"4","last_reported":1740143813,"current_range_meters":11200,"station_id":"cpo3342slgdg3j2ifvpg","pricing_plan_id":"cebpf4jnsgd1na2vs0mg"},{"bike_id":"580a1da8-87ce-4f92-bf13-927c60ed9a1d","system_id":"levelo_inurba_marseille","lat":43.28269,"lon":5.35074,"is_reserved":false,"is_disabled":false,"rental_uris":{"android":"levelo://app?vid=580a1da8-87ce-4f92-bf13-927c60ed9a1d","ios":"levelo://app?vid=580a1da8-87ce-4f92-bf13-927c60ed9a1d"},"vehicle_type_id":"4","last_reported":1740143813,"current_range_meters":11600,"station_id":"ce4bhbp2rcd13ifvqerg","pricing_plan_id":"cebpf4jnsgd1na2vs0mg"},{"bike_id":"c8a48179-6f76-43ed-9140-7f3179dbfb5f","system_id":"levelo_inurba_marseille","lat":43.27812,"lon":5.4072,"is_reserved":false,"is_disabled":false,"rental_uris":{"android":"levelo://app?vid=c8a48179-6f76-43ed-9140-7f3179dbfb5f","ios":"levelo://app?vid=c8a48179-6f76-43ed-9140-7f3179dbfb5f"},"vehicle_type_id":"4","last_reported":1740143813,"current_range_meters":11600,"station_id":"ce4bhnh2rcd13ifvqgtg","pricing_plan_id":"cebpf4jnsgd1na2vs0mg"},{"bike_id":"81a3d293-8c63-4407-bb7b-6d52780ea9ab","system_id":"levelo_inurba_marseille","lat":43.31272,"lon":5.4018,"is_reserved":false,"is_disabled":false,"rental_uris":{"android":"levelo://app?vid=81a3d293-8c63-4407-bb7b-6d52780ea9ab","ios":"levelo://app?vid=81a3d293-8c63-4407-bb7b-6d52780ea9ab"},"vehicle_type_id":"4","last_reported":1740143813,"current_range_meters":16000,"station_id":"ce4bh092rcd13ifvqd30","pricing_plan_id":"cebpf4jnsgd1na2vs0mg"},{"bike_id":"560d0503-27c8-47eb-bb68-198f289bc157","system_id":"levelo_inurba_marseille","lat":43.29197,"lon":5.35804,"is_reserved":false,"is_disabled":false,"rental_uris":{"android":"levelo://app?vid=560d0503-27c8-47eb-bb68-198f289bc157","ios":"levelo://app?vid=560d0503-27c8-47eb-bb68-198f289bc157"},"vehicle_type_id":"4","last_reported":1740143813,"current_range_meters":11600,"station_id":"ce4bhb12rcd13ifvqel0","pricing_plan_id":"cebpf4jnsgd1na2vs0mg"},{"bike_id":"19d25307-2691-4c34-9db3-43b4bae6dca3","system_id":"levelo_inurba_marseille","lat":43.30605,"lon":5.37233,"is_reserved":false,"is_disabled":false,"rental_uris":{"android":"levelo://app?vid=19d25307-2691-4c34-9db3-43b4bae6dca3","ios":"levelo://app?vid=19d25307-2691-4c34-9db3-43b4bae6dca3"},"vehicle_type_id":"4","last_reported":1740143813,"current_range_meters":12000,"station_id":"ce4bgqh2rcd13ifvqc4g","pricing_plan_id":"cebpf4jnsgd1na2vs0mg"},{"bike_id":"cfd80a67-dbda-41e5-b5fc-57e4c5eba4eb","system_id":"levelo_inurba_marseille","lat":43.28674,"lon":5.38662,"is_reserved":false,"is_disabled":false,"rental_uris":{"android":"levelo://app?vid=cfd80a67-dbda-41e5-b5fc-57e4c5eba4eb","ios":"levelo://app?vid=cfd80a67-dbda-41e5-b5fc-57e4c5eba4eb"},"vehicle_type_id":"4","last_reported":1740143813,"current_range_meters":12000,"station_id":"ce4bh492rcd13ifvqdug","pricing_plan_id":"cebpf4jnsgd1na2vs0mg"},{"bike_id":"1445e25f-9332-44f5-8183-e6d6a71cd6ce","system_id":"levelo_inurba_marseille","lat":43.26804,"lon":5.40269,"is_reserved":false,"is_disabled":false,"rental_uris":{"android":"levelo://app?vid=1445e25f-9332-44f5-8183-e6d6a71cd6ce","ios":"levelo://app?vid=1445e25f-9332-44f5-8183-e6d6a71cd6ce"},"vehicle_type_id":"4","last_reported":1740143813,"current_range_meters":12000,"station_id":"ce501612rcd8frsf0b60","pricing_plan_id":"cebpf4jnsgd1na2vs0mg"},{"bike_id":"66023030-f689-4300-9ecf-d7b148b70c3c","system_id":"levelo_inurba_marseille","lat":43.2656,"lon":5.37307,"is_reserved":false,"is_disabled":false,"rental_uris":{"android":"levelo://app?vid=66023030-f689-4300-9ecf-d7b148b70c3c","ios":"levelo://app?vid=66023030-f689-4300-9ecf-d7b148b70c3c"},"vehicle_type_id":"4","last_reported":1740143813,"current_range_meters":12000,"station_id":"ce4bhg12rcd13ifvqf70","pricing_plan_id":"cebpf4jnsgd1na2vs0mg"},{"bike_id":"f6c7b5d7-1f71-4a2d-85d1-70941e97a0d5","system_id":"levelo_inurba_marseille","lat":43.30537,"lon":5.38425,"is_reserved":false,"is_disabled":false,"rental_uris":{"android":"levelo://app?vid=f6c7b5d7-1f71-4a2d-85d1-70941e97a0d5","ios":"levelo://app?vid=f6c7b5d7-1f71-4a2d-85d1-70941e97a0d5"},"vehicle_type_id":"4","last_reported":1740143813,"current_range_meters":10000,"station_id":"ce4bgg92rcd13ifvqb30","pricing_plan_id":"cebpf4jnsgd1na2vs0mg"},{"bike_id":"5aca3830-fe8c-4c88-b3cb-da2c14f0bac9","system_id":"levelo_inurba_marseille","lat":43.27373,"lon":5.36258,"is_reserved":false,"is_disabled":false,"rental_uris":{"android":"levelo://app?vid=5aca3830-fe8c-4c88-b3cb-da2c14f0bac9","ios":"levelo://app?vid=5aca3830-fe8c-4c88-b3cb-da2c14f0bac9"},"vehicle_type_id":"4","last_reported":1740143813,"current_range_meters":11600,"station_id":"ce4bhbh2rcd13ifvqeo0","pricing_plan_id":"cebpf4jnsgd1na2vs0mg"},{"bike_id":"9ecd26b1-63b7-4b9e-9995-99256e4a84c0","system_id":"levelo_inurba_marseille","lat":43.29711,"lon":5.36613,"is_reserved":false,"is_disabled":false,"rental_uris":{"android":"levelo://app?vid=9ecd26b1-63b7-4b9e-9995-99256e4a84c0","ios":"levelo://app?vid=9ecd26b1-63b7-4b9e-9995-99256e4a84c0"},"vehicle_type_id":"4","last_reported":1740143813,"current_range_meters":12800,"station_id":"ce4bgn12rcd13ifvqbt0","pricing_plan_id":"cebpf4jnsgd1na2vs0mg"},{"bike_id":"87ec631d-4cc7-40bb-bcce-5422372a944c","system_id":"levelo_inurba_marseille","lat":43.28936,"lon":5.3664,"is_reserved":false,"is_disabled":false,"rental_uris":{"android":"levelo://app?vid=87ec631d-4cc7-40bb-bcce-5422372a944c","ios":"levelo://app?vid=87ec631d-4cc7-40bb-bcce-5422372a944c"},"vehicle_type_id":"4","last_reported":1740143813,"current_range_meters":12800,"station_id":"ce4bhap2rcd13ifvqek0","pricing_plan_id":"cebpf4jnsgd1na2vs0mg"},{"bike_id":"7c8f3d05-5401-4545-847e-9fcee9ea83d5","system_id":"levelo_inurba_marseille","lat":43.26572,"lon":5.39873,"is_reserved":false,"is_disabled":false,"rental_uris":{"android":"levelo://app?vid=7c8f3d05-5401-4545-847e-9fcee9ea83d5","ios":"levelo://app?vid=7c8f3d05-5401-4545-847e-9fcee9ea83d5"},"vehicle_type_id":"4","last_reported":1740143813,"current_range_meters":12800,"station_id":"","pricing_plan_id":"cebpf4jnsgd1na2vs0mg"},{"bike_id":"ece000d4-661c-4b73-9213-ce0ed97eff8c","system_id":"levelo_inurba_marseille","lat":43.26979,"lon":5.40183,"is_reserved":false,"is_disabled":false,"rental_uris":{"android":"levelo://app?vid=ece000d4-661c-4b73-9213-ce0ed97eff8c","ios":"levelo://app?vid=ece000d4-661c-4b73-9213-ce0ed97eff8c"},"vehicle_type_id":"4","last_reported":1740143813,"current_range_meters":13600,"station_id":"","pricing_plan_id":"cebpf4jnsgd1na2vs0mg"},{"bike_id":"4fa310dd-4931-4146-8eef-649d18b75dbd","system_id":"levelo_inurba_marseille","lat":43.27172,"lon":5.40991,"is_reserved":false,"is_disabled":false,"rental_uris":{"android":"levelo://app?vid=4fa310dd-4931-4146-8eef-649d18b75dbd","ios":"levelo://app?vid=4fa310dd-4931-4146-8eef-649d18b75dbd"},"vehicle_type_id":"4","last_reported":1740143813,"current_range_meters":12800,"station_id":"ce4bhl12rcd13ifvqgf0","pricing_plan_id":"cebpf4jnsgd1na2vs0mg"},{"bike_id":"7e28e7e6-d257-4796-bb9f-9082b71d892f","system_id":"levelo_inurba_marseille","lat":43.29416,"lon":5.38618,"is_reserved":false,"is_disabled":false,"rental_uris":{"android":"levelo://app?vid=7e28e7e6-d257-4796-bb9f-9082b71d892f","ios":"levelo://app?vid=7e28e7e6-d257-4796-bb9f-9082b71d892f"},"vehicle_type_id":"4","last_reported":1740143813,"current_range_meters":13600,"station_id":"ce4bh2h2rcd13ifvqdh0","pricing_plan_id":"cebpf4jnsgd1na2vs0mg"},{"bike_id":"de514cfe-d3d0-455b-951b-b37197c3b38b","system_id":"levelo_inurba_marseille","lat":43.2841,"lon":5.34976,"is_reserved":false,"is_disabled":false,"rental_uris":{"android":"levelo://app?vid=de514cfe-d3d0-455b-951b-b37197c3b38b","ios":"levelo://app?vid=de514cfe-d3d0-455b-951b-b37197c3b38b"},"vehicle_type_id":"4","last_reported":1740143813,"current_range_meters":14000,"station_id":"ce4bhbh2rcd13ifvqepg","pricing_plan_id":"cebpf4jnsgd1na2vs0mg"},{"bike_id":"a404738f-d592-4923-bb7f-8cad6bf8fec4","system_id":"levelo_inurba_marseille","lat":43.27949,"lon":5.38495,"is_reserved":false,"is_disabled":false,"rental_uris":{"android":"levelo://app?vid=a404738f-d592-4923-bb7f-8cad6bf8fec4","ios":"levelo://app?vid=a404738f-d592-4923-bb7f-8cad6bf8fec4"},"vehicle_type_id":"4","last_reported":1740143813,"current_range_meters":14000,"station_id":"","pricing_plan_id":"cebpf4jnsgd1na2vs0mg"},{"bike_id":"307409ac-4fca-4700-8e9c-bf525e2b17f2","system_id":"levelo_inurba_marseille","lat":43.32349,"lon":5.38918,"is_reserved":false,"is_disabled":false,"rental_uris":{"android":"levelo://app?vid=307409ac-4fca-4700-8e9c-bf525e2b17f2","ios":"levelo://app?vid=307409ac-4fca-4700-8e9c-bf525e2b17f2"},"vehicle_type_id":"4","last_reported":1740143813,"current_range_meters":14000,"station_id":"ce4bh112rcd13ifvqda0","pricing_plan_id":"cebpf4jnsgd1na2vs0mg"},{"bike_id":"af99980f-9f11-4e95-9d5d-c71a251b1742","system_id":"levelo_inurba_marseille","lat":43.30139,"lon":5.37434,"is_reserved":false,"is_disabled":false,"rental_uris":{"android":"levelo://app?vid=af99980f-9f11-4e95-9d5d-c71a251b1742","ios":"levelo://app?vid=af99980f-9f11-4e95-9d5d-c71a251b1742"},"vehicle_type_id":"4","last_reported":1740143813,"current_range_meters":14000,"station_id":"ce4bgs92rcd13ifvqcc0","pricing_plan_id":"cebpf4jnsgd1na2vs0mg"},{"bike_id":"1d016962-9ef3-4bd8-935b-385d05d8fc21","system_id":"levelo_inurba_marseille","lat":43.239655,"lon":5.397131,"is_reserved":false,"is_disabled":false,"rental_uris":{"android":"levelo://app?vid=1d016962-9ef3-4bd8-935b-385d05d8fc21","ios":"levelo://app?vid=1d016962-9ef3-4bd8-935b-385d05d8fc21"},"vehicle_type_id":"4","last_reported":1740143813,"current_range_meters":13600,"station_id":"ce4bhgp2rcd13ifvqfd0","pricing_plan_id":"cebpf4jnsgd1na2vs0mg"},{"bike_id":"c6f14f15-88d2-4d8a-a040-90a14ad29265","system_id":"levelo_inurba_marseille","lat":43.27368,"lon":5.36253,"is_reserved":false,"is_disabled":false,"rental_uris":{"android":"levelo://app?vid=c6f14f15-88d2-4d8a-a040-90a14ad29265","ios":"levelo://app?vid=c6f14f15-88d2-4d8a-a040-90a14ad29265"},"vehicle_type_id":"4","last_reported":1740143813,"current_range_meters":13600,"station_id":"ce4bhbh2rcd13ifvqeo0","pricing_plan_id":"cebpf4jnsgd1na2vs0mg"},{"bike_id":"b46f0a5a-f98d-4994-81f6-db648f912264","system_id":"levelo_inurba_marseille","lat":43.27833,"lon":5.39195,"is_reserved":false,"is_disabled":false,"rental_uris":{"android":"levelo://app?vid=b46f0a5a-f98d-4994-81f6-db648f912264","ios":"levelo://app?vid=b46f0a5a-f98d-4994-81f6-db648f912264"},"vehicle_type_id":"4","last_reported":1740143813,"current_range_meters":14400,"station_id":"ce4bhjp2rcd13ifvqga0","pricing_plan_id":"cebpf4jnsgd1na2vs0mg"},{"bike_id":"062b87f4-c90f-4dbe-9a52-f69ea90d1930","system_id":"levelo_inurba_marseille","lat":43.24388,"lon":5.37061,"is_reserved":false,"is_disabled":false,"rental_uris":{"android":"levelo://app?vid=062b87f4-c90f-4dbe-9a52-f69ea90d1930","ios":"levelo://app?vid=062b87f4-c90f-4dbe-9a52-f69ea90d1930"},"vehicle_type_id":"4","last_reported":1740143813,"current_range_meters":14400,"station_id":"ce4bhhh2rcd13ifvqfk0","pricing_plan_id":"cebpf4jnsgd1na2vs0mg"},{"bike_id":"e2b2e3e0-ff58-46c5-8b89-7fc6dddc4552","system_id":"levelo_inurba_marseille","lat":43.25722,"lon":5.41105,"is_reserved":false,"is_disabled":true,"rental_uris":{"android":"levelo://app?vid=e2b2e3e0-ff58-46c5-8b89-7fc6dddc4552","ios":"levelo://app?vid=e2b2e3e0-ff58-46c5-8b89-7fc6dddc4552"},"vehicle_type_id":"4","last_reported":1740143813,"current_range_meters":14400,"station_id":"ce4bhkp2rcd13ifvqgd0","pricing_plan_id":"cebpf4jnsgd1na2vs0mg"},{"bike_id":"54b45f3b-f685-44dd-8b79-1a758bf759d2","system_id":"levelo_inurba_marseille","lat":43.337444,"lon":5.374475,"is_reserved":false,"is_disabled":true,"rental_uris":{"android":"levelo://app?vid=54b45f3b-f685-44dd-8b79-1a758bf759d2","ios":"levelo://app?vid=54b45f3b-f685-44dd-8b79-1a758bf759d2"},"vehicle_type_id":"4","last_reported":1740143813,"current_range_meters":14400,"station_id":"","pricing_plan_id":"cebpf4jnsgd1na2vs0mg"},{"bike_id":"c0a936dd-8b78-4344-b0ca-0e19fa1b2ac4","system_id":"levelo_inurba_marseille","lat":43.27811,"lon":5.40704,"is_reserved":false,"is_disabled":false,"rental_uris":{"android":"levelo://app?vid=c0a936dd-8b78-4344-b0ca-0e19fa1b2ac4","ios":"levelo://app?vid=c0a936dd-8b78-4344-b0ca-0e19fa1b2ac4"},"vehicle_type_id":"4","last_reported":1740143813,"current_range_meters":14400,"station_id":"ce4bhnh2rcd13ifvqgtg","pricing_plan_id":"cebpf4jnsgd1na2vs0mg"},{"bike_id":"5902af95-411b-49ba-8f1f-17df4e3c9aac","system_id":"levelo_inurba_marseille","lat":43.30096,"lon":5.37428,"is_reserved":false,"is_disabled":false,"rental_uris":{"android":"levelo://app?vid=5902af95-411b-49ba-8f1f-17df4e3c9aac","ios":"levelo://app?vid=5902af95-411b-49ba-8f1f-17df4e3c9aac"},"vehicle_type_id":"4","last_reported":1740143813,"current_range_meters":14400,"station_id":"ce4bgs92rcd13ifvqcc0","pricing_plan_id":"cebpf4jnsgd1na2vs0mg"},{"bike_id":"e501be99-a171-4e91-9e5b-ac547e4c06f2","system_id":"levelo_inurba_marseille","lat":43.232,"lon":5.35552,"is_reserved":false,"is_disabled":false,"rental_uris":{"android":"levelo://app?vid=e501be99-a171-4e91-9e5b-ac547e4c06f2","ios":"levelo://app?vid=e501be99-a171-4e91-9e5b-ac547e4c06f2"},"vehicle_type_id":"4","last_reported":1740143813,"current_range_meters":14400,"station_id":"ce4bhu92rcd13ifvqi70","pricing_plan_id":"cebpf4jnsgd1na2vs0mg"},{"bike_id":"aebed323-f4ff-49ca-a02d-8b8f1d6b79bb","system_id":"levelo_inurba_marseille","lat":43.26559,"lon":5.39024,"is_reserved":false,"is_disabled":false,"rental_uris":{"android":"levelo://app?vid=aebed323-f4ff-49ca-a02d-8b8f1d6b79bb","ios":"levelo://app?vid=aebed323-f4ff-49ca-a02d-8b8f1d6b79bb"},"vehicle_type_id":"4","last_reported":1740143813,"current_range_meters":14400,"station_id":"ce4bhe12rcd13ifvqf30","pricing_plan_id":"cebpf4jnsgd1na2vs0mg"},{"bike_id":"78ccc1b5-e05d-4c30-bc5b-473f9d97e2cd","system_id":"levelo_inurba_marseille","lat":43.30108,"lon":5.37811,"is_reserved":false,"is_disabled":false,"rental_uris":{"android":"levelo://app?vid=78ccc1b5-e05d-4c30-bc5b-473f9d97e2cd","ios":"levelo://app?vid=78ccc1b5-e05d-4c30-bc5b-473f9d97e2cd"},"vehicle_type_id":"4","last_reported":1740143813,"current_range_meters":14800,"station_id":"","pricing_plan_id":"cebpf4jnsgd1na2vs0mg"},{"bike_id":"b0c92770-f917-41c5-a2f0-f7824c226520","system_id":"levelo_inurba_marseille","lat":43.28368,"lon":5.38635,"is_reserved":false,"is_disabled":false,"rental_uris":{"android":"levelo://app?vid=b0c92770-f917-41c5-a2f0-f7824c226520","ios":"levelo://app?vid=b0c92770-f917-41c5-a2f0-f7824c226520"},"vehicle_type_id":"4","last_reported":1740143813,"current_range_meters":14000,"station_id":"ce4bh492rcd13ifvqdvg","pricing_plan_id":"cebpf4jnsgd1na2vs0mg"},{"bike_id":"b985ad1f-1942-453b-b5eb-7462cafd1e31","system_id":"levelo_inurba_marseille","lat":43.23191,"lon":5.35556,"is_reserved":false,"is_disabled":false,"rental_uris":{"android":"levelo://app?vid=b985ad1f-1942-453b-b5eb-7462cafd1e31","ios":"levelo://app?vid=b985ad1f-1942-453b-b5eb-7462cafd1e31"},"vehicle_type_id":"4","last_reported":1740143813,"current_range_meters":14800,"station_id":"ce4bhu92rcd13ifvqi70","pricing_plan_id":"cebpf4jnsgd1na2vs0mg"},{"bike_id":"46400c70-c5b8-4a3d-bb5b-1d182c4ac75b","system_id":"levelo_inurba_marseille","lat":43.27919,"lon":5.41068,"is_reserved":false,"is_disabled":false,"rental_uris":{"android":"levelo://app?vid=46400c70-c5b8-4a3d-bb5b-1d182c4ac75b","ios":"levelo://app?vid=46400c70-c5b8-4a3d-bb5b-1d182c4ac75b"},"vehicle_type_id":"4","last_reported":1740143813,"current_range_meters":16000,"station_id":"ce4bhnp2rcd13ifvqh0g","pricing_plan_id":"cebpf4jnsgd1na2vs0mg"},{"bike_id":"0c970e41-363b-4b06-ba71-5a86d20b3fa2","system_id":"levelo_inurba_marseille","lat":43.27056,"lon":5.40269,"is_reserved":false,"is_disabled":false,"rental_uris":{"android":"levelo://app?vid=0c970e41-363b-4b06-ba71-5a86d20b3fa2","ios":"levelo://app?vid=0c970e41-363b-4b06-ba71-5a86d20b3fa2"},"vehicle_type_id":"4","last_reported":1740143813,"current_range_meters":16000,"station_id":"ce4bhk92rcd13ifvqgc0","pricing_plan_id":"cebpf4jnsgd1na2vs0mg"},{"bike_id":"7213ae85-4be5-4a0a-815a-56a10e50669f","system_id":"levelo_inurba_marseille","lat":43.267846,"lon":5.394093,"is_reserved":false,"is_disabled":false,"rental_uris":{"android":"levelo://app?vid=7213ae85-4be5-4a0a-815a-56a10e50669f","ios":"levelo://app?vid=7213ae85-4be5-4a0a-815a-56a10e50669f"},"vehicle_type_id":"4","last_reported":1740143813,"current_range_meters":14800,"station_id":"ce4bgv12rcd13ifvqcp0","pricing_plan_id":"cebpf4jnsgd1na2vs0mg"},{"bike_id":"89b6ddec-bf81-47a5-a9fe-8aed2fc629bd","system_id":"levelo_inurba_marseille","lat":43.30602,"lon":5.37225,"is_reserved":false,"is_disabled":false,"rental_uris":{"android":"levelo://app?vid=89b6ddec-bf81-47a5-a9fe-8aed2fc629bd","ios":"levelo://app?vid=89b6ddec-bf81-47a5-a9fe-8aed2fc629bd"},"vehicle_type_id":"4","last_reported":1740143813,"current_range_meters":16000,"station_id":"ce4bgqh2rcd13ifvqc4g","pricing_plan_id":"cebpf4jnsgd1na2vs0mg"},{"bike_id":"1810c590-af69-4269-a75f-8e4807b19573","system_id":"levelo_inurba_marseille","lat":43.29417,"lon":5.38615,"is_reserved":false,"is_disabled":false,"rental_uris":{"android":"levelo://app?vid=1810c590-af69-4269-a75f-8e4807b19573","ios":"levelo://app?vid=1810c590-af69-4269-a75f-8e4807b19573"},"vehicle_type_id":"4","last_reported":1740143813,"current_range_meters":16000,"station_id":"ce4bh2h2rcd13ifvqdh0","pricing_plan_id":"cebpf4jnsgd1na2vs0mg"},{"bike_id":"4e440f24-26af-412d-bf4c-9212b06e4ddc","system_id":"levelo_inurba_marseille","lat":43.30635,"lon":5.40108,"is_reserved":false,"is_disabled":false,"rental_uris":{"android":"levelo://app?vid=4e440f24-26af-412d-bf4c-9212b06e4ddc","ios":"levelo://app?vid=4e440f24-26af-412d-bf4c-9212b06e4ddc"},"vehicle_type_id":"4","last_reported":1740143813,"current_range_meters":16400,"station_id":"","pricing_plan_id":"cebpf4jnsgd1na2vs0mg"},{"bike_id":"3d05e17e-afc9-4558-9645-ca782e707b3c","system_id":"levelo_inurba_marseille","lat":43.28266,"lon":5.35071,"is_reserved":false,"is_disabled":false,"rental_uris":{"android":"levelo://app?vid=3d05e17e-afc9-4558-9645-ca782e707b3c","ios":"levelo://app?vid=3d05e17e-afc9-4558-9645-ca782e707b3c"},"vehicle_type_id":"4","last_reported":1740143813,"current_range_meters":16400,"station_id":"ce4bhbp2rcd13ifvqerg","pricing_plan_id":"cebpf4jnsgd1na2vs0mg"},{"bike_id":"a1044c2c-501c-40ba-8279-a99721b05815","system_id":"levelo_inurba_marseille","lat":43.28264,"lon":5.35075,"is_reserved":false,"is_disabled":false,"rental_uris":{"android":"levelo://app?vid=a1044c2c-501c-40ba-8279-a99721b05815","ios":"levelo://app?vid=a1044c2c-501c-40ba-8279-a99721b05815"},"vehicle_type_id":"4","last_reported":1740143813,"current_range_meters":16400,"station_id":"ce4bhbp2rcd13ifvqerg","pricing_plan_id":"cebpf4jnsgd1na2vs0mg"},{"bike_id":"661fdff0-f0ad-4cb8-b5b0-dc2395fe1e67","system_id":"levelo_inurba_marseille","lat":43.30557,"lon":5.36742,"is_reserved":false,"is_disabled":false,"rental_uris":{"android":"levelo://app?vid=661fdff0-f0ad-4cb8-b5b0-dc2395fe1e67","ios":"levelo://app?vid=661fdff0-f0ad-4cb8-b5b0-dc2395fe1e67"},"vehicle_type_id":"4","last_reported":1740143813,"current_range_meters":16400,"station_id":"ce4bgrp2rcd13ifvqc9g","pricing_plan_id":"cebpf4jnsgd1na2vs0mg"},{"bike_id":"34fc9ca7-e7a1-4e7a-9213-441ac0a88aec","system_id":"levelo_inurba_marseille","lat":43.27799,"lon":5.40696,"is_reserved":false,"is_disabled":false,"rental_uris":{"android":"levelo://app?vid=34fc9ca7-e7a1-4e7a-9213-441ac0a88aec","ios":"levelo://app?vid=34fc9ca7-e7a1-4e7a-9213-441ac0a88aec"},"vehicle_type_id":"4","last_reported":1740143813,"current_range_meters":16400,"station_id":"ce4bhnh2rcd13ifvqgtg","pricing_plan_id":"cebpf4jnsgd1na2vs0mg"},{"bike_id":"8e73348d-2ac3-4f12-9042-0bc436195ceb","system_id":"levelo_inurba_marseille","lat":43.27183,"lon":5.40985,"is_reserved":false,"is_disabled":false,"rental_uris":{"android":"levelo://app?vid=8e73348d-2ac3-4f12-9042-0bc436195ceb","ios":"levelo://app?vid=8e73348d-2ac3-4f12-9042-0bc436195ceb"},"vehicle_type_id":"4","last_reported":1740143813,"current_range_meters":16400,"station_id":"ce4bhl12rcd13ifvqgf0","pricing_plan_id":"cebpf4jnsgd1na2vs0mg"},{"bike_id":"9920a4df-abc9-4d83-957e-2d54137f7ffb","system_id":"levelo_inurba_marseille","lat":43.26939,"lon":5.40258,"is_reserved":false,"is_disabled":false,"rental_uris":{"android":"levelo://app?vid=9920a4df-abc9-4d83-957e-2d54137f7ffb","ios":"levelo://app?vid=9920a4df-abc9-4d83-957e-2d54137f7ffb"},"vehicle_type_id":"4","last_reported":1740143813,"current_range_meters":16800,"station_id":"cjm6bp8fraef2m0cb0m0","pricing_plan_id":"cebpf4jnsgd1na2vs0mg"},{"bike_id":"6588ba66-45f4-482e-8d7f-a8a476e37f14","system_id":"levelo_inurba_marseille","lat":43.23193,"lon":5.39991,"is_reserved":false,"is_disabled":false,"rental_uris":{"android":"levelo://app?vid=6588ba66-45f4-482e-8d7f-a8a476e37f14","ios":"levelo://app?vid=6588ba66-45f4-482e-8d7f-a8a476e37f14"},"vehicle_type_id":"4","last_reported":1740143813,"current_range_meters":16400,"station_id":"ce4bhn12rcd13ifvqgqg","pricing_plan_id":"cebpf4jnsgd1na2vs0mg"},{"bike_id":"65761836-8da8-4de1-bad6-837edc0f06ac","system_id":"levelo_inurba_marseille","lat":43.23072,"lon":5.35492,"is_reserved":false,"is_disabled":false,"rental_uris":{"android":"levelo://app?vid=65761836-8da8-4de1-bad6-837edc0f06ac","ios":"levelo://app?vid=65761836-8da8-4de1-bad6-837edc0f06ac"},"vehicle_type_id":"4","last_reported":1740143813,"current_range_meters":16800,"station_id":"cpo3342slgdg3j2ifvpg","pricing_plan_id":"cebpf4jnsgd1na2vs0mg"},{"bike_id":"45f8c2a5-218b-4833-8215-e1c9fc1bcf54","system_id":"levelo_inurba_marseille","lat":43.29579,"lon":5.37499,"is_reserved":false,"is_disabled":false,"rental_uris":{"android":"levelo://app?vid=45f8c2a5-218b-4833-8215-e1c9fc1bcf54","ios":"levelo://app?vid=45f8c2a5-218b-4833-8215-e1c9fc1bcf54"},"vehicle_type_id":"4","last_reported":1740143813,"current_range_meters":16800,"station_id":"ce4bgh92rcd13ifvqb50","pricing_plan_id":"cebpf4jnsgd1na2vs0mg"},{"bike_id":"49f30dec-20dc-4041-ad68-58ea7ee50a05","system_id":"levelo_inurba_marseille","lat":43.30899,"lon":5.37204,"is_reserved":false,"is_disabled":false,"rental_uris":{"android":"levelo://app?vid=49f30dec-20dc-4041-ad68-58ea7ee50a05","ios":"levelo://app?vid=49f30dec-20dc-4041-ad68-58ea7ee50a05"},"vehicle_type_id":"4","last_reported":1740143813,"current_range_meters":11200,"station_id":"ce4bguh2rcd13ifvqckg","pricing_plan_id":"cebpf4jnsgd1na2vs0mg"},{"bike_id":"e297894e-9654-4d80-87c5-92e5d1d23aba","system_id":"levelo_inurba_marseille","lat":43.27493,"lon":5.4245,"is_reserved":false,"is_disabled":false,"rental_uris":{"android":"levelo://app?vid=e297894e-9654-4d80-87c5-92e5d1d23aba","ios":"levelo://app?vid=e297894e-9654-4d80-87c5-92e5d1d23aba"},"vehicle_type_id":"4","last_reported":1740143813,"current_range_meters":16800,"station_id":"ce4bhn92rcd13ifvqgrg","pricing_plan_id":"cebpf4jnsgd1na2vs0mg"},{"bike_id":"1098ea1d-ddf1-4c0a-9202-fb5f9667459f","system_id":"levelo_inurba_marseille","lat":43.27812,"lon":5.40716,"is_reserved":false,"is_disabled":false,"rental_uris":{"android":"levelo://app?vid=1098ea1d-ddf1-4c0a-9202-fb5f9667459f","ios":"levelo://app?vid=1098ea1d-ddf1-4c0a-9202-fb5f9667459f"},"vehicle_type_id":"4","last_reported":1740143813,"current_range_meters":16800,"station_id":"ce4bhnh2rcd13ifvqgtg","pricing_plan_id":"cebpf4jnsgd1na2vs0mg"},{"bike_id":"9740c594-f347-4434-9d61-30cfda4dec71","system_id":"levelo_inurba_marseille","lat":43.2649,"lon":5.39554,"is_reserved":false,"is_disabled":true,"rental_uris":{"android":"levelo://app?vid=9740c594-f347-4434-9d61-30cfda4dec71","ios":"levelo://app?vid=9740c594-f347-4434-9d61-30cfda4dec71"},"vehicle_type_id":"4","last_reported":1740143813,"current_range_meters":16800,"station_id":"ce4bhi12rcd13ifvqfq0","pricing_plan_id":"cebpf4jnsgd1na2vs0mg"},{"bike_id":"35331f57-b06c-41f1-8224-4eb3668702eb","system_id":"levelo_inurba_marseille","lat":43.23054,"lon":5.35497,"is_reserved":false,"is_disabled":false,"rental_uris":{"android":"levelo://app?vid=35331f57-b06c-41f1-8224-4eb3668702eb","ios":"levelo://app?vid=35331f57-b06c-41f1-8224-4eb3668702eb"},"vehicle_type_id":"4","last_reported":1740143813,"current_range_meters":16800,"station_id":"cpo3342slgdg3j2ifvpg","pricing_plan_id":"cebpf4jnsgd1na2vs0mg"},{"bike_id":"ff608841-9beb-4a09-8c94-06ab3f44dbce","system_id":"levelo_inurba_marseille","lat":43.2804,"lon":5.36948,"is_reserved":false,"is_disabled":false,"rental_uris":{"android":"levelo://app?vid=ff608841-9beb-4a09-8c94-06ab3f44dbce","ios":"levelo://app?vid=ff608841-9beb-4a09-8c94-06ab3f44dbce"},"vehicle_type_id":"4","last_reported":1740143813,"current_range_meters":16800,"station_id":"ce4bha12rcd13ifvqef0","pricing_plan_id":"cebpf4jnsgd1na2vs0mg"},{"bike_id":"dcf7789d-7727-4758-88c7-d8069e3bf948","system_id":"levelo_inurba_marseille","lat":43.292002,"lon":5.393227,"is_reserved":false,"is_disabled":false,"rental_uris":{"android":"levelo://app?vid=dcf7789d-7727-4758-88c7-d8069e3bf948","ios":"levelo://app?vid=dcf7789d-7727-4758-88c7-d8069e3bf948"},"vehicle_type_id":"4","last_reported":1740143813,"current_range_meters":17200,"station_id":"","pricing_plan_id":"cebpf4jnsgd1na2vs0mg"},{"bike_id":"1b34faa4-a592-4e9c-8183-46ceb41d7473","system_id":"levelo_inurba_marseille","lat":43.31171,"lon":5.38721,"is_reserved":false,"is_disabled":false,"rental_uris":{"android":"levelo://app?vid=1b34faa4-a592-4e9c-8183-46ceb41d7473","ios":"levelo://app?vid=1b34faa4-a592-4e9c-8183-46ceb41d7473"},"vehicle_type_id":"4","last_reported":1740143813,"current_range_meters":16800,"station_id":"ce4bgv12rcd13ifvqcp0","pricing_plan_id":"cebpf4jnsgd1na2vs0mg"},{"bike_id":"e776853d-0662-466e-b6c8-aece83517590","system_id":"levelo_inurba_marseille","lat":43.2407,"lon":5.37763,"is_reserved":false,"is_disabled":false,"rental_uris":{"android":"levelo://app?vid=e776853d-0662-466e-b6c8-aece83517590","ios":"levelo://app?vid=e776853d-0662-466e-b6c8-aece83517590"},"vehicle_type_id":"4","last_reported":1740143813,"current_range_meters":17600,"station_id":"","pricing_plan_id":"cebpf4jnsgd1na2vs0mg"},{"bike_id":"0b35ef10-1d1d-4e8a-949e-c3122c5e3874","system_id":"levelo_inurba_marseille","lat":43.23962,"lon":5.36625,"is_reserved":false,"is_disabled":false,"rental_uris":{"android":"levelo://app?vid=0b35ef10-1d1d-4e8a-949e-c3122c5e3874","ios":"levelo://app?vid=0b35ef10-1d1d-4e8a-949e-c3122c5e3874"},"vehicle_type_id":"4","last_reported":1740143813,"current_range_meters":17600,"station_id":"ce4bhi12rcd13ifvqfp0","pricing_plan_id":"cebpf4jnsgd1na2vs0mg"},{"bike_id":"d7942814-e015-423a-aaa1-b4bef01b3527","system_id":"levelo_inurba_marseille","lat":43.29568,"lon":5.39975,"is_reserved":false,"is_disabled":false,"rental_uris":{"android":"levelo://app?vid=d7942814-e015-423a-aaa1-b4bef01b3527","ios":"levelo://app?vid=d7942814-e015-423a-aaa1-b4bef01b3527"},"vehicle_type_id":"4","last_reported":1740143813,"current_range_meters":17200,"station_id":"ce4bh312rcd13ifvqdj0","pricing_plan_id":"cebpf4jnsgd1na2vs0mg"},{"bike_id":"812beeaf-267e-49ba-9a2b-9b5507a3df4a","system_id":"levelo_inurba_marseille","lat":43.27174,"lon":5.40989,"is_reserved":false,"is_disabled":false,"rental_uris":{"android":"levelo://app?vid=812beeaf-267e-49ba-9a2b-9b5507a3df4a","ios":"levelo://app?vid=812beeaf-267e-49ba-9a2b-9b5507a3df4a"},"vehicle_type_id":"4","last_reported":1740143813,"current_range_meters":17600,"station_id":"ce4bhl12rcd13ifvqgf0","pricing_plan_id":"cebpf4jnsgd1na2vs0mg"},{"bike_id":"99db1a06-6939-4d08-9e75-21b5fc33356a","system_id":"levelo_inurba_marseille","lat":43.23147,"lon":5.43719,"is_reserved":false,"is_disabled":false,"rental_uris":{"android":"levelo://app?vid=99db1a06-6939-4d08-9e75-21b5fc33356a","ios":"levelo://app?vid=99db1a06-6939-4d08-9e75-21b5fc33356a"},"vehicle_type_id":"4","last_reported":1740143813,"current_range_meters":17600,"station_id":"ce4bhmp2rcd13ifvqgog","pricing_plan_id":"cebpf4jnsgd1na2vs0mg"},{"bike_id":"a588dbc4-e3f0-43a8-beff-c7d841595765","system_id":"levelo_inurba_marseille","lat":43.30129,"lon":5.3989,"is_reserved":false,"is_disabled":false,"rental_uris":{"android":"levelo://app?vid=a588dbc4-e3f0-43a8-beff-c7d841595765","ios":"levelo://app?vid=a588dbc4-e3f0-43a8-beff-c7d841595765"},"vehicle_type_id":"4","last_reported":1740143813,"current_range_meters":17600,"station_id":"ce4bh0h2rcd13ifvqd40","pricing_plan_id":"cebpf4jnsgd1na2vs0mg"},{"bike_id":"1a9ca7e5-cbba-41cb-96ce-d6c9097057a4","system_id":"levelo_inurba_marseille","lat":43.241813,"lon":5.397277,"is_reserved":false,"is_disabled":false,"rental_uris":{"android":"levelo://app?vid=1a9ca7e5-cbba-41cb-96ce-d6c9097057a4","ios":"levelo://app?vid=1a9ca7e5-cbba-41cb-96ce-d6c9097057a4"},"vehicle_type_id":"4","last_reported":1740143813,"current_range_meters":18800,"station_id":"ce4bhih2rcd13ifvqfs0","pricing_plan_id":"cebpf4jnsgd1na2vs0mg"},{"bike_id":"48db5a48-47a2-4c64-b9a9-108bd0bf934d","system_id":"levelo_inurba_marseille","lat":43.32369,"lon":5.38883,"is_reserved":false,"is_disabled":false,"rental_uris":{"android":"levelo://app?vid=48db5a48-47a2-4c64-b9a9-108bd0bf934d","ios":"levelo://app?vid=48db5a48-47a2-4c64-b9a9-108bd0bf934d"},"vehicle_type_id":"4","last_reported":1740143813,"current_range_meters":18000,"station_id":"ce4bhqp2rcd13ifvqhog","pricing_plan_id":"cebpf4jnsgd1na2vs0mg"},{"bike_id":"d11825b8-23fc-47b2-84b9-7b315e040508","system_id":"levelo_inurba_marseille","lat":43.30309,"lon":5.36886,"is_reserved":false,"is_disabled":false,"rental_uris":{"android":"levelo://app?vid=d11825b8-23fc-47b2-84b9-7b315e040508","ios":"levelo://app?vid=d11825b8-23fc-47b2-84b9-7b315e040508"},"vehicle_type_id":"4","last_reported":1740143813,"current_range_meters":18000,"station_id":"ce4bgqh2rcd13ifvqc5g","pricing_plan_id":"cebpf4jnsgd1na2vs0mg"},{"bike_id":"32b75382-2d9d-4b94-b9ed-bd9c7192d73b","system_id":"levelo_inurba_marseille","lat":43.284485,"lon":5.395535,"is_reserved":false,"is_disabled":false,"rental_uris":{"android":"levelo://app?vid=32b75382-2d9d-4b94-b9ed-bd9c7192d73b","ios":"levelo://app?vid=32b75382-2d9d-4b94-b9ed-bd9c7192d73b"},"vehicle_type_id":"4","last_reported":1740143813,"current_range_meters":16000,"station_id":"ce4bh3h2rcd13ifvqdn0","pricing_plan_id":"cebpf4jnsgd1na2vs0mg"},{"bike_id":"39940612-fe23-4001-9207-6b95c3963a35","system_id":"levelo_inurba_marseille","lat":43.27179,"lon":5.40994,"is_reserved":false,"is_disabled":false,"rental_uris":{"android":"levelo://app?vid=39940612-fe23-4001-9207-6b95c3963a35","ios":"levelo://app?vid=39940612-fe23-4001-9207-6b95c3963a35"},"vehicle_type_id":"4","last_reported":1740143813,"current_range_meters":18000,"station_id":"ce4bhl12rcd13ifvqgf0","pricing_plan_id":"cebpf4jnsgd1na2vs0mg"},{"bike_id":"57a2e7f1-d12d-4be5-a58b-0650a91298ad","system_id":"levelo_inurba_marseille","lat":43.28002,"lon":5.40021,"is_reserved":false,"is_disabled":false,"rental_uris":{"android":"levelo://app?vid=57a2e7f1-d12d-4be5-a58b-0650a91298ad","ios":"levelo://app?vid=57a2e7f1-d12d-4be5-a58b-0650a91298ad"},"vehicle_type_id":"4","last_reported":1740143813,"current_range_meters":18800,"station_id":"ce4bho92rcd13ifvqh4g","pricing_plan_id":"cebpf4jnsgd1na2vs0mg"},{"bike_id":"d98e29be-7c7a-4ebc-95ae-cd403abc761b","system_id":"levelo_inurba_marseille","lat":43.30804,"lon":5.43523,"is_reserved":false,"is_disabled":false,"rental_uris":{"android":"levelo://app?vid=d98e29be-7c7a-4ebc-95ae-cd403abc761b","ios":"levelo://app?vid=d98e29be-7c7a-4ebc-95ae-cd403abc761b"},"vehicle_type_id":"4","last_reported":1740143813,"current_range_meters":18800,"station_id":"ce4bhph2rcd13ifvqheg","pricing_plan_id":"cebpf4jnsgd1na2vs0mg"},{"bike_id":"84a48ed6-4bba-4c3d-a5e3-cd61b579c40c","system_id":"levelo_inurba_marseille","lat":43.29764,"lon":5.36562,"is_reserved":false,"is_disabled":false,"rental_uris":{"android":"levelo://app?vid=84a48ed6-4bba-4c3d-a5e3-cd61b579c40c","ios":"levelo://app?vid=84a48ed6-4bba-4c3d-a5e3-cd61b579c40c"},"vehicle_type_id":"4","last_reported":1740143813,"current_range_meters":18800,"station_id":"ce4bgn12rcd13ifvqbt0","pricing_plan_id":"cebpf4jnsgd1na2vs0mg"},{"bike_id":"d6fd7f6c-d0de-4e8e-8f30-bd7dd8a403a3","system_id":"levelo_inurba_marseille","lat":43.32653,"lon":5.4099,"is_reserved":false,"is_disabled":false,"rental_uris":{"android":"levelo://app?vid=d6fd7f6c-d0de-4e8e-8f30-bd7dd8a403a3","ios":"levelo://app?vid=d6fd7f6c-d0de-4e8e-8f30-bd7dd8a403a3"},"vehicle_type_id":"4","last_reported":1740143813,"current_range_meters":17200,"station_id":"ce4bhpp2rcd13ifvqhgg","pricing_plan_id":"cebpf4jnsgd1na2vs0mg"},{"bike_id":"dc40183e-eaad-49e1-a7c0-b6379aa4461f","system_id":"levelo_inurba_marseille","lat":43.23152,"lon":5.43709,"is_reserved":false,"is_disabled":false,"rental_uris":{"android":"levelo://app?vid=dc40183e-eaad-49e1-a7c0-b6379aa4461f","ios":"levelo://app?vid=dc40183e-eaad-49e1-a7c0-b6379aa4461f"},"vehicle_type_id":"4","last_reported":1740143813,"current_range_meters":18800,"station_id":"ce4bhmp2rcd13ifvqgog","pricing_plan_id":"cebpf4jnsgd1na2vs0mg"},{"bike_id":"46bfb48e-1bd6-4675-8665-fe5c6b1cdb8e","system_id":"levelo_inurba_marseille","lat":43.25108,"lon":5.4033,"is_reserved":false,"is_disabled":false,"rental_uris":{"android":"levelo://app?vid=46bfb48e-1bd6-4675-8665-fe5c6b1cdb8e","ios":"levelo://app?vid=46bfb48e-1bd6-4675-8665-fe5c6b1cdb8e"},"vehicle_type_id":"4","last_reported":1740143813,"current_range_meters":19200,"station_id":"","pricing_plan_id":"cebpf4jnsgd1na2vs0mg"},{"bike_id":"467a0ac7-872c-4bb6-8ee3-3c6f458a51d9","system_id":"levelo_inurba_marseille","lat":43.27904,"lon":5.41239,"is_reserved":false,"is_disabled":false,"rental_uris":{"android":"levelo://app?vid=467a0ac7-872c-4bb6-8ee3-3c6f458a51d9","ios":"levelo://app?vid=467a0ac7-872c-4bb6-8ee3-3c6f458a51d9"},"vehicle_type_id":"4","last_reported":1740143813,"current_range_meters":19200,"station_id":"","pricing_plan_id":"cebpf4jnsgd1na2vs0mg"},{"bike_id":"ba0bce3c-2f0f-4319-a7aa-4f3727bd81ea","system_id":"levelo_inurba_marseille","lat":43.32108,"lon":5.36789,"is_reserved":false,"is_disabled":false,"rental_uris":{"android":"levelo://app?vid=ba0bce3c-2f0f-4319-a7aa-4f3727bd81ea","ios":"levelo://app?vid=ba0bce3c-2f0f-4319-a7aa-4f3727bd81ea"},"vehicle_type_id":"4","last_reported":1740143813,"current_range_meters":19200,"station_id":"ce4bhrh2rcd13ifvqhug","pricing_plan_id":"cebpf4jnsgd1na2vs0mg"},{"bike_id":"dcccdff3-154f-4c83-adcd-2b11fe0f1bd7","system_id":"levelo_inurba_marseille","lat":43.30559,"lon":5.36537,"is_reserved":false,"is_disabled":false,"rental_uris":{"android":"levelo://app?vid=dcccdff3-154f-4c83-adcd-2b11fe0f1bd7","ios":"levelo://app?vid=dcccdff3-154f-4c83-adcd-2b11fe0f1bd7"},"vehicle_type_id":"4","last_reported":1740143813,"current_range_meters":19200,"station_id":"ce4bgs12rcd13ifvqcag","pricing_plan_id":"cebpf4jnsgd1na2vs0mg"},{"bike_id":"1d5328cc-4089-440c-bd0a-2760814567c9","system_id":"levelo_inurba_marseille","lat":43.30297,"lon":5.39219,"is_reserved":false,"is_disabled":false,"rental_uris":{"android":"levelo://app?vid=1d5328cc-4089-440c-bd0a-2760814567c9","ios":"levelo://app?vid=1d5328cc-4089-440c-bd0a-2760814567c9"},"vehicle_type_id":"4","last_reported":1740143813,"current_range_meters":17200,"station_id":"ce4bgkh2rcd13ifvqbk0","pricing_plan_id":"cebpf4jnsgd1na2vs0mg"},{"bike_id":"ecb792ba-e590-4d62-97cc-1e9b429064df","system_id":"levelo_inurba_marseille","lat":43.250125,"lon":5.389134,"is_reserved":false,"is_disabled":false,"rental_uris":{"android":"levelo://app?vid=ecb792ba-e590-4d62-97cc-1e9b429064df","ios":"levelo://app?vid=ecb792ba-e590-4d62-97cc-1e9b429064df"},"vehicle_type_id":"4","last_reported":1740143813,"current_range_meters":19200,"station_id":"ce4bhgp2rcd13ifvqfd0","pricing_plan_id":"cebpf4jnsgd1na2vs0mg"},{"bike_id":"d5566d2e-78e8-488f-b3e7-c9c338cd491f","system_id":"levelo_inurba_marseille","lat":43.27493,"lon":5.42464,"is_reserved":false,"is_disabled":false,"rental_uris":{"android":"levelo://app?vid=d5566d2e-78e8-488f-b3e7-c9c338cd491f","ios":"levelo://app?vid=d5566d2e-78e8-488f-b3e7-c9c338cd491f"},"vehicle_type_id":"4","last_reported":1740143813,"current_range_meters":19200,"station_id":"ce4bhn92rcd13ifvqgrg","pricing_plan_id":"cebpf4jnsgd1na2vs0mg"},{"bike_id":"3209f4a2-7cc5-4aa6-907c-da0d3f3a69f6","system_id":"levelo_inurba_marseille","lat":43.26212,"lon":5.37445,"is_reserved":false,"is_disabled":false,"rental_uris":{"android":"levelo://app?vid=3209f4a2-7cc5-4aa6-907c-da0d3f3a69f6","ios":"levelo://app?vid=3209f4a2-7cc5-4aa6-907c-da0d3f3a69f6"},"vehicle_type_id":"4","last_reported":1740143813,"current_range_meters":19200,"station_id":"ce4bhgp2rcd13ifvqfc0","pricing_plan_id":"cebpf4jnsgd1na2vs0mg"},{"bike_id":"1deaa002-5243-48d8-8779-82891264a102","system_id":"levelo_inurba_marseille","lat":43.24808,"lon":5.37466,"is_reserved":false,"is_disabled":false,"rental_uris":{"android":"levelo://app?vid=1deaa002-5243-48d8-8779-82891264a102","ios":"levelo://app?vid=1deaa002-5243-48d8-8779-82891264a102"},"vehicle_type_id":"4","last_reported":1740143813,"current_range_meters":19200,"station_id":"ce4bhgh2rcd13ifvqfb0","pricing_plan_id":"cebpf4jnsgd1na2vs0mg"},{"bike_id":"9a5b87c6-83ad-4941-85a3-cb236ba97a29","system_id":"levelo_inurba_marseille","lat":43.30254,"lon":5.4008,"is_reserved":false,"is_disabled":false,"rental_uris":{"android":"levelo://app?vid=9a5b87c6-83ad-4941-85a3-cb236ba97a29","ios":"levelo://app?vid=9a5b87c6-83ad-4941-85a3-cb236ba97a29"},"vehicle_type_id":"4","last_reported":1740143813,"current_range_meters":18000,"station_id":"ce4bgvh2rcd13ifvqcs0","pricing_plan_id":"cebpf4jnsgd1na2vs0mg"},{"bike_id":"c6e69a56-27e9-4dda-8bd3-6649f818de10","system_id":"levelo_inurba_marseille","lat":43.25818,"lon":5.39439,"is_reserved":false,"is_disabled":false,"rental_uris":{"android":"levelo://app?vid=c6e69a56-27e9-4dda-8bd3-6649f818de10","ios":"levelo://app?vid=c6e69a56-27e9-4dda-8bd3-6649f818de10"},"vehicle_type_id":"4","last_reported":1740143813,"current_range_meters":17200,"station_id":"ce4bhip2rcd13ifvqft0","pricing_plan_id":"cebpf4jnsgd1na2vs0mg"},{"bike_id":"9eb76a76-4d91-4fa9-8be0-964eb6834628","system_id":"levelo_inurba_marseille","lat":43.29552,"lon":5.4228,"is_reserved":false,"is_disabled":false,"rental_uris":{"android":"levelo://app?vid=9eb76a76-4d91-4fa9-8be0-964eb6834628","ios":"levelo://app?vid=9eb76a76-4d91-4fa9-8be0-964eb6834628"},"vehicle_type_id":"4","last_reported":1740143813,"current_range_meters":19200,"station_id":"ce4bhph2rcd13ifvqhdg","pricing_plan_id":"cebpf4jnsgd1na2vs0mg"},{"bike_id":"8cb8d0a7-0b45-4709-acf5-7f424c30d828","system_id":"levelo_inurba_marseille","lat":43.29713,"lon":5.36606,"is_reserved":false,"is_disabled":false,"rental_uris":{"android":"levelo://app?vid=8cb8d0a7-0b45-4709-acf5-7f424c30d828","ios":"levelo://app?vid=8cb8d0a7-0b45-4709-acf5-7f424c30d828"},"vehicle_type_id":"4","last_reported":1740143813,"current_range_meters":19200,"station_id":"ce4bgn12rcd13ifvqbt0","pricing_plan_id":"cebpf4jnsgd1na2vs0mg"},{"bike_id":"dab960d9-1ede-46dd-ade3-a5360c9021cf","system_id":"levelo_inurba_marseille","lat":43.23192,"lon":5.35539,"is_reserved":false,"is_disabled":false,"rental_uris":{"android":"levelo://app?vid=dab960d9-1ede-46dd-ade3-a5360c9021cf","ios":"levelo://app?vid=dab960d9-1ede-46dd-ade3-a5360c9021cf"},"vehicle_type_id":"4","last_reported":1740143813,"current_range_meters":19200,"station_id":"ce4bhu92rcd13ifvqi70","pricing_plan_id":"cebpf4jnsgd1na2vs0mg"},{"bike_id":"4d8a26e5-8617-425b-92ac-4fc969f57842","system_id":"levelo_inurba_marseille","lat":43.33715,"lon":5.39179,"is_reserved":false,"is_disabled":false,"rental_uris":{"android":"levelo://app?vid=4d8a26e5-8617-425b-92ac-4fc969f57842","ios":"levelo://app?vid=4d8a26e5-8617-425b-92ac-4fc969f57842"},"vehicle_type_id":"4","last_reported":1740143813,"current_range_meters":19200,"station_id":"ce4bhr92rcd13ifvqhsg","pricing_plan_id":"cebpf4jnsgd1na2vs0mg"},{"bike_id":"3fd77a94-3c88-4191-a1d0-f971d9c34746","system_id":"levelo_inurba_marseille","lat":43.26209,"lon":5.37432,"is_reserved":false,"is_disabled":false,"rental_uris":{"android":"levelo://app?vid=3fd77a94-3c88-4191-a1d0-f971d9c34746","ios":"levelo://app?vid=3fd77a94-3c88-4191-a1d0-f971d9c34746"},"vehicle_type_id":"4","last_reported":1740143813,"current_range_meters":19200,"station_id":"ce4bhgp2rcd13ifvqfc0","pricing_plan_id":"cebpf4jnsgd1na2vs0mg"},{"bike_id":"330d64ce-5713-4328-9727-7f6f0bc2e963","system_id":"levelo_inurba_marseille","lat":43.24071,"lon":5.37756,"is_reserved":false,"is_disabled":false,"rental_uris":{"android":"levelo://app?vid=330d64ce-5713-4328-9727-7f6f0bc2e963","ios":"levelo://app?vid=330d64ce-5713-4328-9727-7f6f0bc2e963"},"vehicle_type_id":"4","last_reported":1740143813,"current_range_meters":19200,"station_id":"ce4bhnp2rcd13ifvqgvg","pricing_plan_id":"cebpf4jnsgd1na2vs0mg"},{"bike_id":"84e364eb-0bd3-4a3c-8233-6ea88f117d5c","system_id":"levelo_inurba_marseille","lat":43.30156,"lon":5.38076,"is_reserved":false,"is_disabled":false,"rental_uris":{"android":"levelo://app?vid=84e364eb-0bd3-4a3c-8233-6ea88f117d5c","ios":"levelo://app?vid=84e364eb-0bd3-4a3c-8233-6ea88f117d5c"},"vehicle_type_id":"4","last_reported":1740143813,"current_range_meters":19200,"station_id":"ce4bgjp2rcd13ifvqbh0","pricing_plan_id":"cebpf4jnsgd1na2vs0mg"},{"bike_id":"af04c52e-64bc-4b40-9c5d-f4b0968fc255","system_id":"levelo_inurba_marseille","lat":43.24084,"lon":5.3773,"is_reserved":false,"is_disabled":false,"rental_uris":{"android":"levelo://app?vid=af04c52e-64bc-4b40-9c5d-f4b0968fc255","ios":"levelo://app?vid=af04c52e-64bc-4b40-9c5d-f4b0968fc255"},"vehicle_type_id":"4","last_reported":1740143813,"current_range_meters":19200,"station_id":"ce4bhnp2rcd13ifvqgvg","pricing_plan_id":"cebpf4jnsgd1na2vs0mg"},{"bike_id":"17b2ebc3-0553-4166-bc89-f646218cb5d5","system_id":"levelo_inurba_marseille","lat":43.24802,"lon":5.37457,"is_reserved":false,"is_disabled":false,"rental_uris":{"android":"levelo://app?vid=17b2ebc3-0553-4166-bc89-f646218cb5d5","ios":"levelo://app?vid=17b2ebc3-0553-4166-bc89-f646218cb5d5"},"vehicle_type_id":"4","last_reported":1740143813,"current_range_meters":19200,"station_id":"ce4bhgh2rcd13ifvqfb0","pricing_plan_id":"cebpf4jnsgd1na2vs0mg"},{"bike_id":"eced62d7-9821-44ea-9a34-9bc945c350ca","system_id":"levelo_inurba_marseille","lat":43.27965,"lon":5.3875,"is_reserved":false,"is_disabled":false,"rental_uris":{"android":"levelo://app?vid=eced62d7-9821-44ea-9a34-9bc945c350ca","ios":"levelo://app?vid=eced62d7-9821-44ea-9a34-9bc945c350ca"},"vehicle_type_id":"4","last_reported":1740143813,"current_range_meters":19200,"station_id":"ce4bhg12rcd13ifvqf80","pricing_plan_id":"cebpf4jnsgd1na2vs0mg"},{"bike_id":"e8796e56-9dc8-4272-b84e-1cacf783e238","system_id":"levelo_inurba_marseille","lat":43.29912,"lon":5.38141,"is_reserved":false,"is_disabled":false,"rental_uris":{"android":"levelo://app?vid=e8796e56-9dc8-4272-b84e-1cacf783e238","ios":"levelo://app?vid=e8796e56-9dc8-4272-b84e-1cacf783e238"},"vehicle_type_id":"4","last_reported":1740143813,"current_range_meters":19200,"station_id":"ce4bgj12rcd13ifvqbc0","pricing_plan_id":"cebpf4jnsgd1na2vs0mg"},{"bike_id":"a7c4fa13-c21c-42ce-82ab-11370de54a3d","system_id":"levelo_inurba_marseille","lat":43.28006,"lon":5.40028,"is_reserved":false,"is_disabled":false,"rental_uris":{"android":"levelo://app?vid=a7c4fa13-c21c-42ce-82ab-11370de54a3d","ios":"levelo://app?vid=a7c4fa13-c21c-42ce-82ab-11370de54a3d"},"vehicle_type_id":"4","last_reported":1740143813,"current_range_meters":20000,"station_id":"ce4bho92rcd13ifvqh4g","pricing_plan_id":"cebpf4jnsgd1na2vs0mg"},{"bike_id":"d223bb7c-bbe1-4cd6-b88b-02cfaac1140a","system_id":"levelo_inurba_marseille","lat":43.22929,"lon":5.35376,"is_reserved":false,"is_disabled":false,"rental_uris":{"android":"levelo://app?vid=d223bb7c-bbe1-4cd6-b88b-02cfaac1140a","ios":"levelo://app?vid=d223bb7c-bbe1-4cd6-b88b-02cfaac1140a"},"vehicle_type_id":"4","last_reported":1740143813,"current_range_meters":19600,"station_id":"cpo3532slgdg3j2ikp40","pricing_plan_id":"cebpf4jnsgd1na2vs0mg"},{"bike_id":"e63cbd10-cd77-4ed0-a39a-9be005a5c0e8","system_id":"levelo_inurba_marseille","lat":43.33595,"lon":5.40986,"is_reserved":false,"is_disabled":false,"rental_uris":{"android":"levelo://app?vid=e63cbd10-cd77-4ed0-a39a-9be005a5c0e8","ios":"levelo://app?vid=e63cbd10-cd77-4ed0-a39a-9be005a5c0e8"},"vehicle_type_id":"4","last_reported":1740143813,"current_range_meters":19600,"station_id":"ce4bhqh2rcd13ifvqhmg","pricing_plan_id":"cebpf4jnsgd1na2vs0mg"},{"bike_id":"3f5c9e92-4656-4268-b539-7294ad45d700","system_id":"levelo_inurba_marseille","lat":43.29784,"lon":5.371,"is_reserved":false,"is_disabled":false,"rental_uris":{"android":"levelo://app?vid=3f5c9e92-4656-4268-b539-7294ad45d700","ios":"levelo://app?vid=3f5c9e92-4656-4268-b539-7294ad45d700"},"vehicle_type_id":"4","last_reported":1740143813,"current_range_meters":19600,"station_id":"ce4bgop2rcd13ifvqc1g","pricing_plan_id":"cebpf4jnsgd1na2vs0mg"},{"bike_id":"e6e7d2b2-8dd8-47fe-8aa4-af0caf28b593","system_id":"levelo_inurba_marseille","lat":43.3152,"lon":5.38042,"is_reserved":false,"is_disabled":false,"rental_uris":{"android":"levelo://app?vid=e6e7d2b2-8dd8-47fe-8aa4-af0caf28b593","ios":"levelo://app?vid=e6e7d2b2-8dd8-47fe-8aa4-af0caf28b593"},"vehicle_type_id":"4","last_reported":1740143813,"current_range_meters":19600,"station_id":"ce4bhsp2rcd13ifvqi50","pricing_plan_id":"cebpf4jnsgd1na2vs0mg"},{"bike_id":"bfbced5b-3b9c-4d69-8556-98824a2f5991","system_id":"levelo_inurba_marseille","lat":43.3054,"lon":5.36695,"is_reserved":false,"is_disabled":false,"rental_uris":{"android":"levelo://app?vid=bfbced5b-3b9c-4d69-8556-98824a2f5991","ios":"levelo://app?vid=bfbced5b-3b9c-4d69-8556-98824a2f5991"},"vehicle_type_id":"4","last_reported":1740143813,"current_range_meters":19600,"station_id":"ce4bgrp2rcd13ifvqc9g","pricing_plan_id":"cebpf4jnsgd1na2vs0mg"},{"bike_id":"a7f90503-4c88-4501-a1bd-f1351222bdcf","system_id":"levelo_inurba_marseille","lat":43.28471,"lon":5.38422,"is_reserved":false,"is_disabled":false,"rental_uris":{"android":"levelo://app?vid=a7f90503-4c88-4501-a1bd-f1351222bdcf","ios":"levelo://app?vid=a7f90503-4c88-4501-a1bd-f1351222bdcf"},"vehicle_type_id":"4","last_reported":1740143813,"current_range_meters":19200,"station_id":"ce4bh512rcd13ifvqe3g","pricing_plan_id":"cebpf4jnsgd1na2vs0mg"},{"bike_id":"aea5e745-1efe-4c72-9339-dba9e9776fad","system_id":"levelo_inurba_marseille","lat":43.2721,"lon":5.39178,"is_reserved":false,"is_disabled":false,"rental_uris":{"android":"levelo://app?vid=aea5e745-1efe-4c72-9339-dba9e9776fad","ios":"levelo://app?vid=aea5e745-1efe-4c72-9339-dba9e9776fad"},"vehicle_type_id":"4","last_reported":1740143813,"current_range_meters":19600,"station_id":"ce4bhhp2rcd13ifvqfm0","pricing_plan_id":"cebpf4jnsgd1na2vs0mg"},{"bike_id":"09398dd2-d988-4ba6-9b8f-11a886c877f4","system_id":"levelo_inurba_marseille","lat":43.30551,"lon":5.36698,"is_reserved":false,"is_disabled":false,"rental_uris":{"android":"levelo://app?vid=09398dd2-d988-4ba6-9b8f-11a886c877f4","ios":"levelo://app?vid=09398dd2-d988-4ba6-9b8f-11a886c877f4"},"vehicle_type_id":"4","last_reported":1740143813,"current_range_meters":19600,"station_id":"ce4bgrp2rcd13ifvqc9g","pricing_plan_id":"cebpf4jnsgd1na2vs0mg"},{"bike_id":"8b52c24a-60e9-4f95-8f6d-a404db75239c","system_id":"levelo_inurba_marseille","lat":43.27378,"lon":5.36253,"is_reserved":false,"is_disabled":false,"rental_uris":{"android":"levelo://app?vid=8b52c24a-60e9-4f95-8f6d-a404db75239c","ios":"levelo://app?vid=8b52c24a-60e9-4f95-8f6d-a404db75239c"},"vehicle_type_id":"4","last_reported":1740143813,"current_range_meters":20000,"station_id":"ce4bhbh2rcd13ifvqeo0","pricing_plan_id":"cebpf4jnsgd1na2vs0mg"},{"bike_id":"364f3e51-fd29-4ae7-837e-e9b95d49470c","system_id":"levelo_inurba_marseille","lat":43.30156,"lon":5.38084,"is_reserved":false,"is_disabled":false,"rental_uris":{"android":"levelo://app?vid=364f3e51-fd29-4ae7-837e-e9b95d49470c","ios":"levelo://app?vid=364f3e51-fd29-4ae7-837e-e9b95d49470c"},"vehicle_type_id":"4","last_reported":1740143813,"current_range_meters":20000,"station_id":"ce4bgjp2rcd13ifvqbh0","pricing_plan_id":"cebpf4jnsgd1na2vs0mg"},{"bike_id":"8c20ab15-f04e-4e58-be71-0abf1d05d250","system_id":"levelo_inurba_marseille","lat":43.23957,"lon":5.36629,"is_reserved":false,"is_disabled":false,"rental_uris":{"android":"levelo://app?vid=8c20ab15-f04e-4e58-be71-0abf1d05d250","ios":"levelo://app?vid=8c20ab15-f04e-4e58-be71-0abf1d05d250"},"vehicle_type_id":"4","last_reported":1740143813,"current_range_meters":20000,"station_id":"ce4bhi12rcd13ifvqfp0","pricing_plan_id":"cebpf4jnsgd1na2vs0mg"},{"bike_id":"38f9bc40-639e-4f64-87e9-15092cc7344e","system_id":"levelo_inurba_marseille","lat":43.34402,"lon":5.3816,"is_reserved":false,"is_disabled":false,"rental_uris":{"android":"levelo://app?vid=38f9bc40-639e-4f64-87e9-15092cc7344e","ios":"levelo://app?vid=38f9bc40-639e-4f64-87e9-15092cc7344e"},"vehicle_type_id":"4","last_reported":1740143813,"current_range_meters":20000,"station_id":"","pricing_plan_id":"cebpf4jnsgd1na2vs0mg"},{"bike_id":"ab46b189-6bae-4129-a7fd-10b3ccd5a48e","system_id":"levelo_inurba_marseille","lat":43.27203,"lon":5.40003,"is_reserved":false,"is_disabled":false,"rental_uris":{"android":"levelo://app?vid=ab46b189-6bae-4129-a7fd-10b3ccd5a48e","ios":"levelo://app?vid=ab46b189-6bae-4129-a7fd-10b3ccd5a48e"},"vehicle_type_id":"4","last_reported":1740143813,"current_range_meters":20000,"station_id":"","pricing_plan_id":"cebpf4jnsgd1na2vs0mg"},{"bike_id":"124e30dd-a094-42c5-9165-402a2e901610","system_id":"levelo_inurba_marseille","lat":43.26569,"lon":5.39019,"is_reserved":false,"is_disabled":false,"rental_uris":{"android":"levelo://app?vid=124e30dd-a094-42c5-9165-402a2e901610","ios":"levelo://app?vid=124e30dd-a094-42c5-9165-402a2e901610"},"vehicle_type_id":"4","last_reported":1740143813,"current_range_meters":20000,"station_id":"ce4bhe12rcd13ifvqf30","pricing_plan_id":"cebpf4jnsgd1na2vs0mg"},{"bike_id":"ea0fc233-5aef-4115-88ae-554da9cae6ae","system_id":"levelo_inurba_marseille","lat":43.289846,"lon":5.398518,"is_reserved":false,"is_disabled":false,"rental_uris":{"android":"levelo://app?vid=ea0fc233-5aef-4115-88ae-554da9cae6ae","ios":"levelo://app?vid=ea0fc233-5aef-4115-88ae-554da9cae6ae"},"vehicle_type_id":"4","last_reported":1740143813,"current_range_meters":20400,"station_id":"ce4bh392rcd13ifvqdm0","pricing_plan_id":"cebpf4jnsgd1na2vs0mg"},{"bike_id":"522deade-2596-4a48-b761-5ad7b70093cd","system_id":"levelo_inurba_marseille","lat":43.23959,"lon":5.36618,"is_reserved":false,"is_disabled":true,"rental_uris":{"android":"levelo://app?vid=522deade-2596-4a48-b761-5ad7b70093cd","ios":"levelo://app?vid=522deade-2596-4a48-b761-5ad7b70093cd"},"vehicle_type_id":"4","last_reported":1740143813,"current_range_meters":20000,"station_id":"ce4bhi12rcd13ifvqfp0","pricing_plan_id":"cebpf4jnsgd1na2vs0mg"},{"bike_id":"f5298310-14cd-4aed-bc3f-841e7d37dcf5","system_id":"levelo_inurba_marseille","lat":43.3265,"lon":5.40989,"is_reserved":false,"is_disabled":true,"rental_uris":{"android":"levelo://app?vid=f5298310-14cd-4aed-bc3f-841e7d37dcf5","ios":"levelo://app?vid=f5298310-14cd-4aed-bc3f-841e7d37dcf5"},"vehicle_type_id":"4","last_reported":1740143813,"current_range_meters":20000,"station_id":"ce4bhpp2rcd13ifvqhgg","pricing_plan_id":"cebpf4jnsgd1na2vs0mg"},{"bike_id":"fea92d07-319e-418a-b8d6-95d3f075c05d","system_id":"levelo_inurba_marseille","lat":43.29969,"lon":5.38498,"is_reserved":false,"is_disabled":false,"rental_uris":{"android":"levelo://app?vid=fea92d07-319e-418a-b8d6-95d3f075c05d","ios":"levelo://app?vid=fea92d07-319e-418a-b8d6-95d3f075c05d"},"vehicle_type_id":"4","last_reported":1740143813,"current_range_meters":20000,"station_id":"ce4bgj92rcd13ifvqbd0","pricing_plan_id":"cebpf4jnsgd1na2vs0mg"},{"bike_id":"6897935d-90c4-4aaa-81bd-a334d1112cb3","system_id":"levelo_inurba_marseille","lat":43.24654,"lon":5.38165,"is_reserved":false,"is_disabled":false,"rental_uris":{"android":"levelo://app?vid=6897935d-90c4-4aaa-81bd-a334d1112cb3","ios":"levelo://app?vid=6897935d-90c4-4aaa-81bd-a334d1112cb3"},"vehicle_type_id":"4","last_reported":1740143813,"current_range_meters":20400,"station_id":"ce4bhih2rcd13ifvqfr0","pricing_plan_id":"cebpf4jnsgd1na2vs0mg"},{"bike_id":"d2dc9959-d80c-4b66-a9e1-7a8f8c6f8aaf","system_id":"levelo_inurba_marseille","lat":43.26928,"lon":5.38916,"is_reserved":false,"is_disabled":false,"rental_uris":{"android":"levelo://app?vid=d2dc9959-d80c-4b66-a9e1-7a8f8c6f8aaf","ios":"levelo://app?vid=d2dc9959-d80c-4b66-a9e1-7a8f8c6f8aaf"},"vehicle_type_id":"4","last_reported":1740143813,"current_range_meters":20400,"station_id":"ce4bhhh2rcd13ifvqfl0","pricing_plan_id":"cebpf4jnsgd1na2vs0mg"},{"bike_id":"f4f5599a-5f0a-41f7-a604-11c983cac9c2","system_id":"levelo_inurba_marseille","lat":43.26768,"lon":5.40769,"is_reserved":false,"is_disabled":false,"rental_uris":{"android":"levelo://app?vid=f4f5599a-5f0a-41f7-a604-11c983cac9c2","ios":"levelo://app?vid=f4f5599a-5f0a-41f7-a604-11c983cac9c2"},"vehicle_type_id":"4","last_reported":1740143813,"current_range_meters":20400,"station_id":"cjm6bp8fraef2m0cb0m0","pricing_plan_id":"cebpf4jnsgd1na2vs0mg"},{"bike_id":"16787297-f72a-4518-8a38-8dfd02e0f9d1","system_id":"levelo_inurba_marseille","lat":43.26811,"lon":5.40278,"is_reserved":false,"is_disabled":false,"rental_uris":{"android":"levelo://app?vid=16787297-f72a-4518-8a38-8dfd02e0f9d1","ios":"levelo://app?vid=16787297-f72a-4518-8a38-8dfd02e0f9d1"},"vehicle_type_id":"4","last_reported":1740143813,"current_range_meters":20400,"station_id":"ce501612rcd8frsf0b60","pricing_plan_id":"cebpf4jnsgd1na2vs0mg"},{"bike_id":"503982b2-2ba7-4482-aa5e-307a7c3ca8e4","system_id":"levelo_inurba_marseille","lat":43.31722,"lon":5.40417,"is_reserved":false,"is_disabled":false,"rental_uris":{"android":"levelo://app?vid=503982b2-2ba7-4482-aa5e-307a7c3ca8e4","ios":"levelo://app?vid=503982b2-2ba7-4482-aa5e-307a7c3ca8e4"},"vehicle_type_id":"4","last_reported":1740143813,"current_range_meters":20400,"station_id":"","pricing_plan_id":"cebpf4jnsgd1na2vs0mg"},{"bike_id":"72d27ecd-2d6d-4c04-a1c6-e315b1d841e4","system_id":"levelo_inurba_marseille","lat":43.30091,"lon":5.39089,"is_reserved":false,"is_disabled":false,"rental_uris":{"android":"levelo://app?vid=72d27ecd-2d6d-4c04-a1c6-e315b1d841e4","ios":"levelo://app?vid=72d27ecd-2d6d-4c04-a1c6-e315b1d841e4"},"vehicle_type_id":"4","last_reported":1740143813,"current_range_meters":20400,"station_id":"ce4bh192rcd13ifvqdb0","pricing_plan_id":"cebpf4jnsgd1na2vs0mg"},{"bike_id":"9613418d-fa6f-46a0-a3b6-e8d6f99405a7","system_id":"levelo_inurba_marseille","lat":43.27428,"lon":5.39409,"is_reserved":false,"is_disabled":false,"rental_uris":{"android":"levelo://app?vid=9613418d-fa6f-46a0-a3b6-e8d6f99405a7","ios":"levelo://app?vid=9613418d-fa6f-46a0-a3b6-e8d6f99405a7"},"vehicle_type_id":"4","last_reported":1740143813,"current_range_meters":20400,"station_id":"ce4bhdp2rcd13ifvqf20","pricing_plan_id":"cebpf4jnsgd1na2vs0mg"},{"bike_id":"3307539e-16e5-457c-9daf-1311bdad1b6a","system_id":"levelo_inurba_marseille","lat":43.299,"lon":5.43675,"is_reserved":false,"is_disabled":false,"rental_uris":{"android":"levelo://app?vid=3307539e-16e5-457c-9daf-1311bdad1b6a","ios":"levelo://app?vid=3307539e-16e5-457c-9daf-1311bdad1b6a"},"vehicle_type_id":"4","last_reported":1740143813,"current_range_meters":20400,"station_id":"ce4bhpp2rcd13ifvqhfg","pricing_plan_id":"cebpf4jnsgd1na2vs0mg"},{"bike_id":"6d23d65c-9314-4ee8-aa0d-b8ad1a5cf4fc","system_id":"levelo_inurba_marseille","lat":43.30525,"lon":5.38432,"is_reserved":false,"is_disabled":false,"rental_uris":{"android":"levelo://app?vid=6d23d65c-9314-4ee8-aa0d-b8ad1a5cf4fc","ios":"levelo://app?vid=6d23d65c-9314-4ee8-aa0d-b8ad1a5cf4fc"},"vehicle_type_id":"4","last_reported":1740143813,"current_range_meters":19200,"station_id":"ce4bgg92rcd13ifvqb30","pricing_plan_id":"cebpf4jnsgd1na2vs0mg"},{"bike_id":"3956cc44-fc75-4f94-89d5-9c133698b60d","system_id":"levelo_inurba_marseille","lat":43.29984,"lon":5.3717,"is_reserved":false,"is_disabled":false,"rental_uris":{"android":"levelo://app?vid=3956cc44-fc75-4f94-89d5-9c133698b60d","ios":"levelo://app?vid=3956cc44-fc75-4f94-89d5-9c133698b60d"},"vehicle_type_id":"4","last_reported":1740143813,"current_range_meters":20400,"station_id":"ce4bgr92rcd13ifvqc7g","pricing_plan_id":"cebpf4jnsgd1na2vs0mg"},{"bike_id":"519c0d90-c598-4074-9c80-d5e1565ff705","system_id":"levelo_inurba_marseille","lat":43.230645,"lon":5.354906,"is_reserved":false,"is_disabled":false,"rental_uris":{"android":"levelo://app?vid=519c0d90-c598-4074-9c80-d5e1565ff705","ios":"levelo://app?vid=519c0d90-c598-4074-9c80-d5e1565ff705"},"vehicle_type_id":"4","last_reported":1740143813,"current_range_meters":20800,"station_id":"ce4bhgh2rcd13ifvqfb0","pricing_plan_id":"cebpf4jnsgd1na2vs0mg"},{"bike_id":"9208364c-258f-4d53-93f1-1f0b0b77dca1","system_id":"levelo_inurba_marseille","lat":43.30608,"lon":5.37224,"is_reserved":false,"is_disabled":false,"rental_uris":{"android":"levelo://app?vid=9208364c-258f-4d53-93f1-1f0b0b77dca1","ios":"levelo://app?vid=9208364c-258f-4d53-93f1-1f0b0b77dca1"},"vehicle_type_id":"4","last_reported":1740143813,"current_range_meters":20800,"station_id":"ce4bgqh2rcd13ifvqc4g","pricing_plan_id":"cebpf4jnsgd1na2vs0mg"},{"bike_id":"a738a443-e23f-484f-b7ae-03021ce1b232","system_id":"levelo_inurba_marseille","lat":43.27067,"lon":5.40263,"is_reserved":false,"is_disabled":false,"rental_uris":{"android":"levelo://app?vid=a738a443-e23f-484f-b7ae-03021ce1b232","ios":"levelo://app?vid=a738a443-e23f-484f-b7ae-03021ce1b232"},"vehicle_type_id":"4","last_reported":1740143813,"current_range_meters":20800,"station_id":"ce4bhk92rcd13ifvqgc0","pricing_plan_id":"cebpf4jnsgd1na2vs0mg"},{"bike_id":"4351ab8f-102b-4040-9744-2d51484d7921","system_id":"levelo_inurba_marseille","lat":43.2436,"lon":5.37037,"is_reserved":false,"is_disabled":true,"rental_uris":{"android":"levelo://app?vid=4351ab8f-102b-4040-9744-2d51484d7921","ios":"levelo://app?vid=4351ab8f-102b-4040-9744-2d51484d7921"},"vehicle_type_id":"4","last_reported":1740143813,"current_range_meters":20800,"station_id":"ce4bhhh2rcd13ifvqfk0","pricing_plan_id":"cebpf4jnsgd1na2vs0mg"},{"bike_id":"f23b1db2-eb27-448c-af08-4db9c2217d75","system_id":"levelo_inurba_marseille","lat":43.29259,"lon":5.40907,"is_reserved":false,"is_disabled":false,"rental_uris":{"android":"levelo://app?vid=f23b1db2-eb27-448c-af08-4db9c2217d75","ios":"levelo://app?vid=f23b1db2-eb27-448c-af08-4db9c2217d75"},"vehicle_type_id":"4","last_reported":1740143813,"current_range_meters":20800,"station_id":"ce4bh192rcd13ifvqdc0","pricing_plan_id":"cebpf4jnsgd1na2vs0mg"},{"bike_id":"abb9c976-dcde-4edd-9ca4-79b3f8b65004","system_id":"levelo_inurba_marseille","lat":43.26574,"lon":5.3902,"is_reserved":false,"is_disabled":true,"rental_uris":{"android":"levelo://app?vid=abb9c976-dcde-4edd-9ca4-79b3f8b65004","ios":"levelo://app?vid=abb9c976-dcde-4edd-9ca4-79b3f8b65004"},"vehicle_type_id":"4","last_reported":1740143813,"current_range_meters":20800,"station_id":"ce4bhe12rcd13ifvqf30","pricing_plan_id":"cebpf4jnsgd1na2vs0mg"},{"bike_id":"6223f2e7-d83d-43c8-9e13-258ea4316e4a","system_id":"levelo_inurba_marseille","lat":43.29012,"lon":5.38118,"is_reserved":false,"is_disabled":false,"rental_uris":{"android":"levelo://app?vid=6223f2e7-d83d-43c8-9e13-258ea4316e4a","ios":"levelo://app?vid=6223f2e7-d83d-43c8-9e13-258ea4316e4a"},"vehicle_type_id":"4","last_reported":1740143813,"current_range_meters":20800,"station_id":"ce4bh4p2rcd13ifvqe1g","pricing_plan_id":"cebpf4jnsgd1na2vs0mg"},{"bike_id":"c2a577a3-44a6-426d-aac1-5124994319eb","system_id":"levelo_inurba_marseille","lat":43.27998,"lon":5.40008,"is_reserved":false,"is_disabled":false,"rental_uris":{"android":"levelo://app?vid=c2a577a3-44a6-426d-aac1-5124994319eb","ios":"levelo://app?vid=c2a577a3-44a6-426d-aac1-5124994319eb"},"vehicle_type_id":"4","last_reported":1740143813,"current_range_meters":21600,"station_id":"ce4bho92rcd13ifvqh4g","pricing_plan_id":"cebpf4jnsgd1na2vs0mg"},{"bike_id":"3dbbb5d8-90e3-499b-be1f-a947a8927aca","system_id":"levelo_inurba_marseille","lat":43.28624,"lon":5.35099,"is_reserved":false,"is_disabled":false,"rental_uris":{"android":"levelo://app?vid=3dbbb5d8-90e3-499b-be1f-a947a8927aca","ios":"levelo://app?vid=3dbbb5d8-90e3-499b-be1f-a947a8927aca"},"vehicle_type_id":"4","last_reported":1740143813,"current_range_meters":21600,"station_id":"ce4bhch2rcd13ifvqeug","pricing_plan_id":"cebpf4jnsgd1na2vs0mg"},{"bike_id":"7530c391-672f-46c3-b9e5-a285272d1dee","system_id":"levelo_inurba_marseille","lat":43.29972,"lon":5.38499,"is_reserved":false,"is_disabled":false,"rental_uris":{"android":"levelo://app?vid=7530c391-672f-46c3-b9e5-a285272d1dee","ios":"levelo://app?vid=7530c391-672f-46c3-b9e5-a285272d1dee"},"vehicle_type_id":"4","last_reported":1740143813,"current_range_meters":21600,"station_id":"ce4bgj92rcd13ifvqbd0","pricing_plan_id":"cebpf4jnsgd1na2vs0mg"},{"bike_id":"45d8d24e-2528-43b8-9775-2e4f1455c9de","system_id":"levelo_inurba_marseille","lat":43.262297,"lon":5.379232,"is_reserved":false,"is_disabled":false,"rental_uris":{"android":"levelo://app?vid=45d8d24e-2528-43b8-9775-2e4f1455c9de","ios":"levelo://app?vid=45d8d24e-2528-43b8-9775-2e4f1455c9de"},"vehicle_type_id":"4","last_reported":1740143813,"current_range_meters":21600,"station_id":"ce4bhjp2rcd13ifvqg90","pricing_plan_id":"cebpf4jnsgd1na2vs0mg"},{"bike_id":"21489318-d43e-4c5d-be7b-1f50adcb5eae","system_id":"levelo_inurba_marseille","lat":43.2749,"lon":5.42455,"is_reserved":false,"is_disabled":false,"rental_uris":{"android":"levelo://app?vid=21489318-d43e-4c5d-be7b-1f50adcb5eae","ios":"levelo://app?vid=21489318-d43e-4c5d-be7b-1f50adcb5eae"},"vehicle_type_id":"4","last_reported":1740143813,"current_range_meters":21600,"station_id":"ce4bhn92rcd13ifvqgrg","pricing_plan_id":"cebpf4jnsgd1na2vs0mg"},{"bike_id":"708d6f15-e4f7-44bb-b969-5bb32a2d7702","system_id":"levelo_inurba_marseille","lat":43.3055,"lon":5.3656,"is_reserved":false,"is_disabled":false,"rental_uris":{"android":"levelo://app?vid=708d6f15-e4f7-44bb-b969-5bb32a2d7702","ios":"levelo://app?vid=708d6f15-e4f7-44bb-b969-5bb32a2d7702"},"vehicle_type_id":"4","last_reported":1740143813,"current_range_meters":21600,"station_id":"ce4bgs12rcd13ifvqcag","pricing_plan_id":"cebpf4jnsgd1na2vs0mg"},{"bike_id":"46928f46-256e-4ba5-9cfb-efd39027fa1b","system_id":"levelo_inurba_marseille","lat":43.24651,"lon":5.38902,"is_reserved":false,"is_disabled":false,"rental_uris":{"android":"levelo://app?vid=46928f46-256e-4ba5-9cfb-efd39027fa1b","ios":"levelo://app?vid=46928f46-256e-4ba5-9cfb-efd39027fa1b"},"vehicle_type_id":"4","last_reported":1740143813,"current_range_meters":21600,"station_id":"ce4bhg12rcd13ifvqf60","pricing_plan_id":"cebpf4jnsgd1na2vs0mg"},{"bike_id":"c149c02e-aaa0-4734-a8cd-7c9c940c603f","system_id":"levelo_inurba_marseille","lat":43.24801,"lon":5.37449,"is_reserved":false,"is_disabled":false,"rental_uris":{"android":"levelo://app?vid=c149c02e-aaa0-4734-a8cd-7c9c940c603f","ios":"levelo://app?vid=c149c02e-aaa0-4734-a8cd-7c9c940c603f"},"vehicle_type_id":"4","last_reported":1740143813,"current_range_meters":21600,"station_id":"ce4bhgh2rcd13ifvqfb0","pricing_plan_id":"cebpf4jnsgd1na2vs0mg"},{"bike_id":"bbb2fb08-3c75-4670-8144-0d47483d4bfc","system_id":"levelo_inurba_marseille","lat":43.292524,"lon":5.384433,"is_reserved":false,"is_disabled":false,"rental_uris":{"android":"levelo://app?vid=bbb2fb08-3c75-4670-8144-0d47483d4bfc","ios":"levelo://app?vid=bbb2fb08-3c75-4670-8144-0d47483d4bfc"},"vehicle_type_id":"4","last_reported":1740143813,"current_range_meters":21600,"station_id":"ce4bh692rcd13ifvqea0","pricing_plan_id":"cebpf4jnsgd1na2vs0mg"},{"bike_id":"418204bb-d845-489c-a63c-8be02144db94","system_id":"levelo_inurba_marseille","lat":43.30599,"lon":5.37221,"is_reserved":false,"is_disabled":false,"rental_uris":{"android":"levelo://app?vid=418204bb-d845-489c-a63c-8be02144db94","ios":"levelo://app?vid=418204bb-d845-489c-a63c-8be02144db94"},"vehicle_type_id":"4","last_reported":1740143813,"current_range_meters":21600,"station_id":"ce4bgqh2rcd13ifvqc4g","pricing_plan_id":"cebpf4jnsgd1na2vs0mg"},{"bike_id":"3b443559-0e2b-4e32-b968-50c86cf284d3","system_id":"levelo_inurba_marseille","lat":43.2904,"lon":5.39963,"is_reserved":false,"is_disabled":false,"rental_uris":{"android":"levelo://app?vid=3b443559-0e2b-4e32-b968-50c86cf284d3","ios":"levelo://app?vid=3b443559-0e2b-4e32-b968-50c86cf284d3"},"vehicle_type_id":"4","last_reported":1740143813,"current_range_meters":21600,"station_id":"ce4bh392rcd13ifvqdm0","pricing_plan_id":"cebpf4jnsgd1na2vs0mg"},{"bike_id":"073518a5-4dc0-447e-9477-a67f73b2a5a2","system_id":"levelo_inurba_marseille","lat":43.32368,"lon":5.36737,"is_reserved":false,"is_disabled":false,"rental_uris":{"android":"levelo://app?vid=073518a5-4dc0-447e-9477-a67f73b2a5a2","ios":"levelo://app?vid=073518a5-4dc0-447e-9477-a67f73b2a5a2"},"vehicle_type_id":"4","last_reported":1740143813,"current_range_meters":21600,"station_id":"ce4bhsh2rcd13ifvqi2g","pricing_plan_id":"cebpf4jnsgd1na2vs0mg"},{"bike_id":"b0cb8550-ebd3-45eb-a63d-0e88155372ff","system_id":"levelo_inurba_marseille","lat":43.262321,"lon":5.374654,"is_reserved":false,"is_disabled":false,"rental_uris":{"android":"levelo://app?vid=b0cb8550-ebd3-45eb-a63d-0e88155372ff","ios":"levelo://app?vid=b0cb8550-ebd3-45eb-a63d-0e88155372ff"},"vehicle_type_id":"4","last_reported":1740143813,"current_range_meters":20800,"station_id":"ce4bhh12rcd13ifvqff0","pricing_plan_id":"cebpf4jnsgd1na2vs0mg"},{"bike_id":"4315ca45-457d-4a07-87cf-cd4bd6df97b2","system_id":"levelo_inurba_marseille","lat":43.29935,"lon":5.36546,"is_reserved":false,"is_disabled":false,"rental_uris":{"android":"levelo://app?vid=4315ca45-457d-4a07-87cf-cd4bd6df97b2","ios":"levelo://app?vid=4315ca45-457d-4a07-87cf-cd4bd6df97b2"},"vehicle_type_id":"4","last_reported":1740143813,"current_range_meters":21600,"station_id":"ce4bgm92rcd13ifvqbr0","pricing_plan_id":"cebpf4jnsgd1na2vs0mg"},{"bike_id":"d5e464ff-d15f-41a3-9b49-7960ae2aecba","system_id":"levelo_inurba_marseille","lat":43.28673,"lon":5.38654,"is_reserved":false,"is_disabled":false,"rental_uris":{"android":"levelo://app?vid=d5e464ff-d15f-41a3-9b49-7960ae2aecba","ios":"levelo://app?vid=d5e464ff-d15f-41a3-9b49-7960ae2aecba"},"vehicle_type_id":"4","last_reported":1740143813,"current_range_meters":21600,"station_id":"ce4bh492rcd13ifvqdug","pricing_plan_id":"cebpf4jnsgd1na2vs0mg"},{"bike_id":"23c63fb5-2515-414a-acd8-ade663b33d54","system_id":"levelo_inurba_marseille","lat":43.31529,"lon":5.38026,"is_reserved":false,"is_disabled":false,"rental_uris":{"android":"levelo://app?vid=23c63fb5-2515-414a-acd8-ade663b33d54","ios":"levelo://app?vid=23c63fb5-2515-414a-acd8-ade663b33d54"},"vehicle_type_id":"4","last_reported":1740143813,"current_range_meters":22000,"station_id":"ce4bhsp2rcd13ifvqi50","pricing_plan_id":"cebpf4jnsgd1na2vs0mg"},{"bike_id":"37764964-80b4-423f-b022-d53b2856eeae","system_id":"levelo_inurba_marseille","lat":43.30146,"lon":5.38084,"is_reserved":false,"is_disabled":false,"rental_uris":{"android":"levelo://app?vid=37764964-80b4-423f-b022-d53b2856eeae","ios":"levelo://app?vid=37764964-80b4-423f-b022-d53b2856eeae"},"vehicle_type_id":"4","last_reported":1740143813,"current_range_meters":19600,"station_id":"ce4bgjp2rcd13ifvqbh0","pricing_plan_id":"cebpf4jnsgd1na2vs0mg"},{"bike_id":"105ea8ad-0d16-4875-9fde-e085311250f4","system_id":"levelo_inurba_marseille","lat":43.23188,"lon":5.35553,"is_reserved":false,"is_disabled":false,"rental_uris":{"android":"levelo://app?vid=105ea8ad-0d16-4875-9fde-e085311250f4","ios":"levelo://app?vid=105ea8ad-0d16-4875-9fde-e085311250f4"},"vehicle_type_id":"4","last_reported":1740143813,"current_range_meters":22000,"station_id":"ce4bhu92rcd13ifvqi70","pricing_plan_id":"cebpf4jnsgd1na2vs0mg"},{"bike_id":"bfba27b8-4dfb-478f-b60d-ac8b9fb50552","system_id":"levelo_inurba_marseille","lat":43.29524,"lon":5.39041,"is_reserved":false,"is_disabled":false,"rental_uris":{"android":"levelo://app?vid=bfba27b8-4dfb-478f-b60d-ac8b9fb50552","ios":"levelo://app?vid=bfba27b8-4dfb-478f-b60d-ac8b9fb50552"},"vehicle_type_id":"4","last_reported":1740143813,"current_range_meters":21600,"station_id":"ce4bh3p2rcd13ifvqdp0","pricing_plan_id":"cebpf4jnsgd1na2vs0mg"},{"bike_id":"fcb4de08-c373-4c5d-a0d2-88032e74db12","system_id":"levelo_inurba_marseille","lat":43.25866,"lon":5.39915,"is_reserved":false,"is_disabled":false,"rental_uris":{"android":"levelo://app?vid=fcb4de08-c373-4c5d-a0d2-88032e74db12","ios":"levelo://app?vid=fcb4de08-c373-4c5d-a0d2-88032e74db12"},"vehicle_type_id":"4","last_reported":1740143813,"current_range_meters":22000,"station_id":"ce4bhl92rcd13ifvqghg","pricing_plan_id":"cebpf4jnsgd1na2vs0mg"},{"bike_id":"b819d193-6bd3-4e9d-ae0a-ef580c4761bf","system_id":"levelo_inurba_marseille","lat":43.30203,"lon":5.38125,"is_reserved":false,"is_disabled":false,"rental_uris":{"android":"levelo://app?vid=b819d193-6bd3-4e9d-ae0a-ef580c4761bf","ios":"levelo://app?vid=b819d193-6bd3-4e9d-ae0a-ef580c4761bf"},