{"last_updated":1706983679,"ttl":30,"version":"2.2","data":{"bikes":[{"bike_id":"672c449b-3de3-4d49-a544-e4c6d758c0c3","system_id":"levelo_inurba_marseille","lat":43.312239,"lon":5.368562,"is_reserved":false,"is_disabled":false,"rental_uris":{"android":"levelo://app?vid=672c449b-3de3-4d49-a544-e4c6d758c0c3","ios":"levelo://app?vid=672c449b-3de3-4d49-a544-e4c6d758c0c3"},"vehicle_type_id":"4","last_reported":1706983679,"current_range_meters":21600,"station_id":"ce4bgl92rcd13ifvqbq0","pricing_plan_id":"free"},{"bike_id":"3bbaa887-ae94-45a2-a916-38cffb624f5e","system_id":"levelo_inurba_marseille","lat":43.312285,"lon":5.36862,"is_reserved":false,"is_disabled":false,"rental_uris":{"android":"levelo://app?vid=3bbaa887-ae94-45a2-a916-38cffb624f5e","ios":"levelo://app?vid=3bbaa887-ae94-45a2-a916-38cffb624f5e"},"vehicle_type_id":"4","last_reported":1706983679,"current_range_meters":400,"station_id":"ce4bgl92rcd13ifvqbq0","pricing_plan_id":"free"},{"bike_id":"6f89b41b-fe4e-4bd2-baac-644f5c09a4f8","system_id":"levelo_inurba_marseille","lat":43.312239,"lon":5.368562,"is_reserved":false,"is_disabled":false,"rental_uris":{"android":"levelo://app?vid=6f89b41b-fe4e-4bd2-baac-644f5c09a4f8","ios":"levelo://app?vid=6f89b41b-fe4e-4bd2-baac-644f5c09a4f8"},"vehicle_type_id":"4","last_reported":1706983679,"current_range_meters":15600,"station_id":"ce4bgl92rcd13ifvqbq0","pricing_plan_id":"free"},{"bike_id":"e2db3340-54ea-4559-bf81-278dd2423168","system_id":"levelo_inurba_marseille","lat":43.309076,"lon":5.368465,"is_reserved":false,"is_disabled":false,"rental_uris":{"android":"levelo://app?vid=e2db3340-54ea-4559-bf81-278dd2423168","ios":"levelo://app?vid=e2db3340-54ea-4559-bf81-278dd2423168"},"vehicle_type_id":"4","last_reported":1706983679,"current_range_meters":19600,"station_id":"ce4bgn92rcd13ifvqbvg","pricing_plan_id":"free"},{"bike_id":"d4da351f-d425-41bf-9b7c-947847df2de2","system_id":"levelo_inurba_marseille","lat":43.309076,"lon":5.368465,"is_reserved":false,"is_disabled":false,"rental_uris":{"android":"levelo://app?vid=d4da351f-d425-41bf-9b7c-947847df2de2","ios":"levelo://app?vid=d4da351f-d425-41bf-9b7c-947847df2de2"},"vehicle_type_id":"4","last_reported":1706983679,"current_range_meters":21600,"station_id":"ce4bgn92rcd13ifvqbvg","pricing_plan_id":"free"},{"bike_id":"3c67a8aa-97d9-433e-bd4c-87eb40419e1f","system_id":"levelo_inurba_marseille","lat":43.309076,"lon":5.368465,"is_reserved":false,"is_disabled":false,"rental_uris":{"android":"levelo://app?vid=3c67a8aa-97d9-433e-bd4c-87eb40419e1f","ios":"levelo://app?vid=3c67a8aa-97d9-433e-bd4c-87eb40419e1f"},"vehicle_type_id":"4","last_reported":1706983679,"current_range_meters":13600,"station_id":"ce4bgn92rcd13ifvqbvg","pricing_plan_id":"free"},{"bike_id":"1a3c07fc-58ae-4480-af13-ec20ed1e6d61","system_id":"levelo_inurba_marseille","lat":43.309076,"lon":5.368465,"is_reserved":false,"is_disabled":false,"rental_uris":{"android":"levelo://app?vid=1a3c07fc-58ae-4480-af13-ec20ed1e6d61","ios":"levelo://app?vid=1a3c07fc-58ae-4480-af13-ec20ed1e6d61"},"vehicle_type_id":"4","last_reported":1706983679,"current_range_meters":8400,"station_id":"ce4bgn92rcd13ifvqbvg","pricing_plan_id":"free"},{"bike_id":"bfd90c6b-1eff-462d-8329-ed681f42f8f9","system_id":"levelo_inurba_marseille","lat":43.309076,"lon":5.368465,"is_reserved":false,"is_disabled":false,"rental_uris":{"android":"levelo://app?vid=bfd90c6b-1eff-462d-8329-ed681f42f8f9","ios":"levelo://app?vid=bfd90c6b-1eff-462d-8329-ed681f42f8f9"},"vehicle_type_id":"4","last_reported":1706983679,"current_range_meters":400,"station_id":"ce4bgn92rcd13ifvqbvg","pricing_plan_id":"free"},{"bike_id":"8075556e-9c83-4ece-b92f-e5e90a5fd8a2","system_id":"levelo_inurba_marseille","lat":43.31306,"lon":5.37258,"is_reserved":false,"is_disabled":false,"rental_uris":{"android":"levelo://app?vid=8075556e-9c83-4ece-b92f-e5e90a5fd8a2","ios":"levelo://app?vid=8075556e-9c83-4ece-b92f-e5e90a5fd8a2"},"vehicle_type_id":"4","last_reported":1706983679,"current_range_meters":0,"station_id":"","pricing_plan_id":"free"},{"bike_id":"308cae95-a4ac-4869-aff6-d5017121fb3f","system_id":"levelo_inurba_marseille","lat":43.314811,"lon":5.373103,"is_reserved":false,"is_disabled":false,"rental_uris":{"android":"levelo://app?vid=308cae95-a4ac-4869-aff6-d5017121fb3f","ios":"levelo://app?vid=308cae95-a4ac-4869-aff6-d5017121fb3f"},"vehicle_type_id":"4","last_reported":1706983679,"current_range_meters":9200,"station_id":"ce4bgt12rcd13ifvqcd0","pricing_plan_id":"free"},{"bike_id":"bdc0f2c6-4894-4dd8-a054-7fd8e10db843","system_id":"levelo_inurba_marseille","lat":43.30541,"lon":5.36559,"is_reserved":false,"is_disabled":false,"rental_uris":{"android":"levelo://app?vid=bdc0f2c6-4894-4dd8-a054-7fd8e10db843","ios":"levelo://app?vid=bdc0f2c6-4894-4dd8-a054-7fd8e10db843"},"vehicle_type_id":"4","last_reported":1706983679,"current_range_meters":0,"station_id":"ce4bgs12rcd13ifvqcag","pricing_plan_id":"free"},{"bike_id":"812f026e-d1ed-4790-8d8b-03a6c5c740ba","system_id":"levelo_inurba_marseille","lat":43.30533,"lon":5.3656,"is_reserved":false,"is_disabled":false,"rental_uris":{"android":"levelo://app?vid=812f026e-d1ed-4790-8d8b-03a6c5c740ba","ios":"levelo://app?vid=812f026e-d1ed-4790-8d8b-03a6c5c740ba"},"vehicle_type_id":"4","last_reported":1706983679,"current_range_meters":21200,"station_id":"ce4bgs12rcd13ifvqcag","pricing_plan_id":"free"},{"bike_id":"3b7e74e8-0652-4846-95fe-3cb5eca155bc","system_id":"levelo_inurba_marseille","lat":43.305368,"lon":5.367343,"is_reserved":false,"is_disabled":false,"rental_uris":{"android":"levelo://app?vid=3b7e74e8-0652-4846-95fe-3cb5eca155bc","ios":"levelo://app?vid=3b7e74e8-0652-4846-95fe-3cb5eca155bc"},"vehicle_type_id":"4","last_reported":1706983679,"current_range_meters":24400,"station_id":"ce4bgrp2rcd13ifvqc9g","pricing_plan_id":"free"},{"bike_id":"e4fc7d23-5d2d-4333-89ef-f25f302a234f","system_id":"levelo_inurba_marseille","lat":43.305368,"lon":5.367343,"is_reserved":false,"is_disabled":false,"rental_uris":{"android":"levelo://app?vid=e4fc7d23-5d2d-4333-89ef-f25f302a234f","ios":"levelo://app?vid=e4fc7d23-5d2d-4333-89ef-f25f302a234f"},"vehicle_type_id":"4","last_reported":1706983679,"current_range_meters":4000,"station_id":"ce4bgrp2rcd13ifvqc9g","pricing_plan_id":"free"},{"bike_id":"3f64d8af-0959-43ee-bb8f-83782895c069","system_id":"levelo_inurba_marseille","lat":43.311131,"lon":5.377651,"is_reserved":false,"is_disabled":false,"rental_uris":{"android":"levelo://app?vid=3f64d8af-0959-43ee-bb8f-83782895c069","ios":"levelo://app?vid=3f64d8af-0959-43ee-bb8f-83782895c069"},"vehicle_type_id":"4","last_reported":1706983679,"current_range_meters":5200,"station_id":"ce4bgt92rcd13ifvqcg0","pricing_plan_id":"free"},{"bike_id":"2dd49487-8a0d-41e1-b33e-35d223e30916","system_id":"levelo_inurba_marseille","lat":43.311131,"lon":5.377651,"is_reserved":false,"is_disabled":false,"rental_uris":{"android":"levelo://app?vid=2dd49487-8a0d-41e1-b33e-35d223e30916","ios":"levelo://app?vid=2dd49487-8a0d-41e1-b33e-35d223e30916"},"vehicle_type_id":"4","last_reported":1706983679,"current_range_meters":0,"station_id":"ce4bgt92rcd13ifvqcg0","pricing_plan_id":"free"},{"bike_id":"aab95363-182c-4648-a7d6-1c6fd7a6fdd7","system_id":"levelo_inurba_marseille","lat":43.31119,"lon":5.37768,"is_reserved":false,"is_disabled":false,"rental_uris":{"android":"levelo://app?vid=aab95363-182c-4648-a7d6-1c6fd7a6fdd7","ios":"levelo://app?vid=aab95363-182c-4648-a7d6-1c6fd7a6fdd7"},"vehicle_type_id":"4","last_reported":1706983679,"current_range_meters":25200,"station_id":"ce4bgt92rcd13ifvqcg0","pricing_plan_id":"free"},{"bike_id":"e790ed83-2876-4aa5-bd84-1d49e8224f37","system_id":"levelo_inurba_marseille","lat":43.311131,"lon":5.377651,"is_reserved":false,"is_disabled":false,"rental_uris":{"android":"levelo://app?vid=e790ed83-2876-4aa5-bd84-1d49e8224f37","ios":"levelo://app?vid=e790ed83-2876-4aa5-bd84-1d49e8224f37"},"vehicle_type_id":"4","last_reported":1706983679,"current_range_meters":11600,"station_id":"ce4bgt92rcd13ifvqcg0","pricing_plan_id":"free"},{"bike_id":"aafeac21-d3a3-4c67-998d-42ecb1bb0d91","system_id":"levelo_inurba_marseille","lat":43.307945,"lon":5.376487,"is_reserved":false,"is_disabled":false,"rental_uris":{"android":"levelo://app?vid=aafeac21-d3a3-4c67-998d-42ecb1bb0d91","ios":"levelo://app?vid=aafeac21-d3a3-4c67-998d-42ecb1bb0d91"},"vehicle_type_id":"4","last_reported":1706983679,"current_range_meters":28000,"station_id":"ce4bgv92rcd13ifvqcq0","pricing_plan_id":"free"},{"bike_id":"8d122469-4927-482a-9804-af600d9b4a5b","system_id":"levelo_inurba_marseille","lat":43.307945,"lon":5.376487,"is_reserved":false,"is_disabled":false,"rental_uris":{"android":"levelo://app?vid=8d122469-4927-482a-9804-af600d9b4a5b","ios":"levelo://app?vid=8d122469-4927-482a-9804-af600d9b4a5b"},"vehicle_type_id":"4","last_reported":1706983679,"current_range_meters":9200,"station_id":"ce4bgv92rcd13ifvqcq0","pricing_plan_id":"free"},{"bike_id":"b43dd4f9-4d82-4a89-87f8-33463b957fb0","system_id":"levelo_inurba_marseille","lat":43.307945,"lon":5.376487,"is_reserved":false,"is_disabled":false,"rental_uris":{"android":"levelo://app?vid=b43dd4f9-4d82-4a89-87f8-33463b957fb0","ios":"levelo://app?vid=b43dd4f9-4d82-4a89-87f8-33463b957fb0"},"vehicle_type_id":"4","last_reported":1706983679,"current_range_meters":12000,"station_id":"ce4bgv92rcd13ifvqcq0","pricing_plan_id":"free"},{"bike_id":"23762dbb-30b1-4569-86a8-2f86a6affeeb","system_id":"levelo_inurba_marseille","lat":43.307945,"lon":5.376487,"is_reserved":false,"is_disabled":false,"rental_uris":{"android":"levelo://app?vid=23762dbb-30b1-4569-86a8-2f86a6affeeb","ios":"levelo://app?vid=23762dbb-30b1-4569-86a8-2f86a6affeeb"},"vehicle_type_id":"4","last_reported":1706983679,"current_range_meters":3200,"station_id":"ce4bgv92rcd13ifvqcq0","pricing_plan_id":"free"},{"bike_id":"7daad0af-95da-4450-92a1-335d8bab78e3","system_id":"levelo_inurba_marseille","lat":43.317075,"lon":5.377367,"is_reserved":false,"is_disabled":false,"rental_uris":{"android":"levelo://app?vid=7daad0af-95da-4450-92a1-335d8bab78e3","ios":"levelo://app?vid=7daad0af-95da-4450-92a1-335d8bab78e3"},"vehicle_type_id":"4","last_reported":1706983679,"current_range_meters":3600,"station_id":"ce4bgth2rcd13ifvqch0","pricing_plan_id":"free"},{"bike_id":"7990937b-7025-4041-ae07-d0d631c4b855","system_id":"levelo_inurba_marseille","lat":43.317083,"lon":5.37742,"is_reserved":false,"is_disabled":false,"rental_uris":{"android":"levelo://app?vid=7990937b-7025-4041-ae07-d0d631c4b855","ios":"levelo://app?vid=7990937b-7025-4041-ae07-d0d631c4b855"},"vehicle_type_id":"4","last_reported":1706983679,"current_range_meters":0,"station_id":"ce4bgth2rcd13ifvqch0","pricing_plan_id":"free"},{"bike_id":"5350492e-9a31-4cc2-9dd3-24bb9c6e20c8","system_id":"levelo_inurba_marseille","lat":43.317097,"lon":5.37748,"is_reserved":false,"is_disabled":false,"rental_uris":{"android":"levelo://app?vid=5350492e-9a31-4cc2-9dd3-24bb9c6e20c8","ios":"levelo://app?vid=5350492e-9a31-4cc2-9dd3-24bb9c6e20c8"},"vehicle_type_id":"4","last_reported":1706983679,"current_range_meters":0,"station_id":"ce4bgth2rcd13ifvqch0","pricing_plan_id":"free"},{"bike_id":"b3fdee80-37a0-47bb-b8ca-a3c133c6ab3b","system_id":"levelo_inurba_marseille","lat":43.303046,"lon":5.368981,"is_reserved":false,"is_disabled":false,"rental_uris":{"android":"levelo://app?vid=b3fdee80-37a0-47bb-b8ca-a3c133c6ab3b","ios":"levelo://app?vid=b3fdee80-37a0-47bb-b8ca-a3c133c6ab3b"},"vehicle_type_id":"4","last_reported":1706983679,"current_range_meters":14400,"station_id":"ce4bgqh2rcd13ifvqc5g","pricing_plan_id":"free"},{"bike_id":"c7d4698c-2322-413f-a762-162c2afb2735","system_id":"levelo_inurba_marseille","lat":43.30304,"lon":5.368987,"is_reserved":false,"is_disabled":false,"rental_uris":{"android":"levelo://app?vid=c7d4698c-2322-413f-a762-162c2afb2735","ios":"levelo://app?vid=c7d4698c-2322-413f-a762-162c2afb2735"},"vehicle_type_id":"4","last_reported":1706983679,"current_range_meters":20400,"station_id":"ce4bgqh2rcd13ifvqc5g","pricing_plan_id":"free"},{"bike_id":"a35c1a9b-3101-4417-ac57-ce425ddd589c","system_id":"levelo_inurba_marseille","lat":43.303046,"lon":5.368981,"is_reserved":false,"is_disabled":false,"rental_uris":{"android":"levelo://app?vid=a35c1a9b-3101-4417-ac57-ce425ddd589c","ios":"levelo://app?vid=a35c1a9b-3101-4417-ac57-ce425ddd589c"},"vehicle_type_id":"4","last_reported":1706983679,"current_range_meters":1200,"station_id":"ce4bgqh2rcd13ifvqc5g","pricing_plan_id":"free"},{"bike_id":"adcad12f-a841-49e7-8325-aefff59fe17a","system_id":"levelo_inurba_marseille","lat":43.315293,"lon":5.380349,"is_reserved":false,"is_disabled":false,"rental_uris":{"android":"levelo://app?vid=adcad12f-a841-49e7-8325-aefff59fe17a","ios":"levelo://app?vid=adcad12f-a841-49e7-8325-aefff59fe17a"},"vehicle_type_id":"4","last_reported":1706983679,"current_range_meters":22400,"station_id":"ce4bhsp2rcd13ifvqi50","pricing_plan_id":"free"},{"bike_id":"c9acd43a-b72e-4d6e-9e60-4e90049f2bb4","system_id":"levelo_inurba_marseille","lat":43.301939,"lon":5.366286,"is_reserved":false,"is_disabled":false,"rental_uris":{"android":"levelo://app?vid=c9acd43a-b72e-4d6e-9e60-4e90049f2bb4","ios":"levelo://app?vid=c9acd43a-b72e-4d6e-9e60-4e90049f2bb4"},"vehicle_type_id":"4","last_reported":1706983679,"current_range_meters":9200,"station_id":"ce4bgrh2rcd13ifvqc8g","pricing_plan_id":"free"},{"bike_id":"532654a0-4b95-48cc-b919-8bc35c0e2009","system_id":"levelo_inurba_marseille","lat":43.30192,"lon":5.36616,"is_reserved":false,"is_disabled":false,"rental_uris":{"android":"levelo://app?vid=532654a0-4b95-48cc-b919-8bc35c0e2009","ios":"levelo://app?vid=532654a0-4b95-48cc-b919-8bc35c0e2009"},"vehicle_type_id":"4","last_reported":1706983679,"current_range_meters":0,"station_id":"ce4bgrh2rcd13ifvqc8g","pricing_plan_id":"free"},{"bike_id":"940a6b66-9d9e-48bb-8a6e-5bff0faebee0","system_id":"levelo_inurba_marseille","lat":43.308012,"lon":5.381511,"is_reserved":false,"is_disabled":false,"rental_uris":{"android":"levelo://app?vid=940a6b66-9d9e-48bb-8a6e-5bff0faebee0","ios":"levelo://app?vid=940a6b66-9d9e-48bb-8a6e-5bff0faebee0"},"vehicle_type_id":"4","last_reported":1706983679,"current_range_meters":26800,"station_id":"ce4bgt12rcd13ifvqce0","pricing_plan_id":"free"},{"bike_id":"8d17e082-7776-4b77-9f1b-c16dcf35f26a","system_id":"levelo_inurba_marseille","lat":43.308012,"lon":5.381511,"is_reserved":false,"is_disabled":false,"rental_uris":{"android":"levelo://app?vid=8d17e082-7776-4b77-9f1b-c16dcf35f26a","ios":"levelo://app?vid=8d17e082-7776-4b77-9f1b-c16dcf35f26a"},"vehicle_type_id":"4","last_reported":1706983679,"current_range_meters":2400,"station_id":"ce4bgt12rcd13ifvqce0","pricing_plan_id":"free"},{"bike_id":"2816a6d0-e795-4bd5-86e0-ae58459372ed","system_id":"levelo_inurba_marseille","lat":43.308012,"lon":5.381511,"is_reserved":false,"is_disabled":false,"rental_uris":{"android":"levelo://app?vid=2816a6d0-e795-4bd5-86e0-ae58459372ed","ios":"levelo://app?vid=2816a6d0-e795-4bd5-86e0-ae58459372ed"},"vehicle_type_id":"4","last_reported":1706983679,"current_range_meters":24400,"station_id":"ce4bgt12rcd13ifvqce0","pricing_plan_id":"free"},{"bike_id":"e8016b0d-1241-4fa5-9655-fcbb769c2ad4","system_id":"levelo_inurba_marseille","lat":43.308012,"lon":5.381511,"is_reserved":false,"is_disabled":false,"rental_uris":{"android":"levelo://app?vid=e8016b0d-1241-4fa5-9655-fcbb769c2ad4","ios":"levelo://app?vid=e8016b0d-1241-4fa5-9655-fcbb769c2ad4"},"vehicle_type_id":"4","last_reported":1706983679,"current_range_meters":10000,"station_id":"ce4bgt12rcd13ifvqce0","pricing_plan_id":"free"},{"bike_id":"dc673003-81d7-467e-8d97-b10bb2fdf40e","system_id":"levelo_inurba_marseille","lat":43.30476,"lon":5.37899,"is_reserved":false,"is_disabled":false,"rental_uris":{"android":"levelo://app?vid=dc673003-81d7-467e-8d97-b10bb2fdf40e","ios":"levelo://app?vid=dc673003-81d7-467e-8d97-b10bb2fdf40e"},"vehicle_type_id":"4","last_reported":1706983679,"current_range_meters":30800,"station_id":"ce4bgup2rcd13ifvqcn0","pricing_plan_id":"free"},{"bike_id":"a70e28b5-548e-48d3-a71b-02eca297a968","system_id":"levelo_inurba_marseille","lat":43.304606,"lon":5.379026,"is_reserved":false,"is_disabled":false,"rental_uris":{"android":"levelo://app?vid=a70e28b5-548e-48d3-a71b-02eca297a968","ios":"levelo://app?vid=a70e28b5-548e-48d3-a71b-02eca297a968"},"vehicle_type_id":"4","last_reported":1706983679,"current_range_meters":5200,"station_id":"ce4bgup2rcd13ifvqcn0","pricing_plan_id":"free"},{"bike_id":"ecf11673-ddf5-4f3f-8111-08d7aa36f1b7","system_id":"levelo_inurba_marseille","lat":43.304606,"lon":5.379026,"is_reserved":false,"is_disabled":false,"rental_uris":{"android":"levelo://app?vid=ecf11673-ddf5-4f3f-8111-08d7aa36f1b7","ios":"levelo://app?vid=ecf11673-ddf5-4f3f-8111-08d7aa36f1b7"},"vehicle_type_id":"4","last_reported":1706983679,"current_range_meters":28800,"station_id":"ce4bgup2rcd13ifvqcn0","pricing_plan_id":"free"},{"bike_id":"f8ad9d35-b621-432b-944c-7a88dc6cd3f6","system_id":"levelo_inurba_marseille","lat":43.32488,"lon":5.36579,"is_reserved":false,"is_disabled":false,"rental_uris":{"android":"levelo://app?vid=f8ad9d35-b621-432b-944c-7a88dc6cd3f6","ios":"levelo://app?vid=f8ad9d35-b621-432b-944c-7a88dc6cd3f6"},"vehicle_type_id":"4","last_reported":1706983679,"current_range_meters":22000,"station_id":"ce4bhs12rcd13ifvqhvg","pricing_plan_id":"free"},{"bike_id":"aa1a3307-5686-44a3-98f6-b448005dd4b4","system_id":"levelo_inurba_marseille","lat":43.310804,"lon":5.38359,"is_reserved":false,"is_disabled":false,"rental_uris":{"android":"levelo://app?vid=aa1a3307-5686-44a3-98f6-b448005dd4b4","ios":"levelo://app?vid=aa1a3307-5686-44a3-98f6-b448005dd4b4"},"vehicle_type_id":"4","last_reported":1706983679,"current_range_meters":3600,"station_id":"ce4bgv92rcd13ifvqcr0","pricing_plan_id":"free"},{"bike_id":"3338778f-d154-4bd1-9f8e-b0f8249edb1a","system_id":"levelo_inurba_marseille","lat":43.302784,"lon":5.377158,"is_reserved":false,"is_disabled":false,"rental_uris":{"android":"levelo://app?vid=3338778f-d154-4bd1-9f8e-b0f8249edb1a","ios":"levelo://app?vid=3338778f-d154-4bd1-9f8e-b0f8249edb1a"},"vehicle_type_id":"4","last_reported":1706983679,"current_range_meters":20800,"station_id":"ce4bguh2rcd13ifvqcj0","pricing_plan_id":"free"},{"bike_id":"a46e9f99-4651-4e02-9fb6-0431c9009ab6","system_id":"levelo_inurba_marseille","lat":43.302784,"lon":5.377158,"is_reserved":false,"is_disabled":false,"rental_uris":{"android":"levelo://app?vid=a46e9f99-4651-4e02-9fb6-0431c9009ab6","ios":"levelo://app?vid=a46e9f99-4651-4e02-9fb6-0431c9009ab6"},"vehicle_type_id":"4","last_reported":1706983679,"current_range_meters":28000,"station_id":"ce4bguh2rcd13ifvqcj0","pricing_plan_id":"free"},{"bike_id":"245843ad-bfeb-465e-a2d5-e97ffa7d3f53","system_id":"levelo_inurba_marseille","lat":43.31366,"lon":5.38486,"is_reserved":false,"is_disabled":false,"rental_uris":{"android":"levelo://app?vid=245843ad-bfeb-465e-a2d5-e97ffa7d3f53","ios":"levelo://app?vid=245843ad-bfeb-465e-a2d5-e97ffa7d3f53"},"vehicle_type_id":"4","last_reported":1706983679,"current_range_meters":28800,"station_id":"ce4bgt92rcd13ifvqcf0","pricing_plan_id":"free"},{"bike_id":"1457a2c4-385a-4716-80b3-a094e0c38a4c","system_id":"levelo_inurba_marseille","lat":43.313571,"lon":5.384829,"is_reserved":false,"is_disabled":false,"rental_uris":{"android":"levelo://app?vid=1457a2c4-385a-4716-80b3-a094e0c38a4c","ios":"levelo://app?vid=1457a2c4-385a-4716-80b3-a094e0c38a4c"},"vehicle_type_id":"4","last_reported":1706983679,"current_range_meters":5600,"station_id":"ce4bgt92rcd13ifvqcf0","pricing_plan_id":"free"},{"bike_id":"d14108c3-ace7-4eff-b92d-98f8cebc2bff","system_id":"levelo_inurba_marseille","lat":43.313571,"lon":5.384829,"is_reserved":false,"is_disabled":false,"rental_uris":{"android":"levelo://app?vid=d14108c3-ace7-4eff-b92d-98f8cebc2bff","ios":"levelo://app?vid=d14108c3-ace7-4eff-b92d-98f8cebc2bff"},"vehicle_type_id":"4","last_reported":1706983679,"current_range_meters":12800,"station_id":"ce4bgt92rcd13ifvqcf0","pricing_plan_id":"free"},{"bike_id":"9222ee25-e7a1-4d3c-8cb0-efab2cec8ba4","system_id":"levelo_inurba_marseille","lat":43.299724,"lon":5.371829,"is_reserved":false,"is_disabled":false,"rental_uris":{"android":"levelo://app?vid=9222ee25-e7a1-4d3c-8cb0-efab2cec8ba4","ios":"levelo://app?vid=9222ee25-e7a1-4d3c-8cb0-efab2cec8ba4"},"vehicle_type_id":"4","last_reported":1706983679,"current_range_meters":26800,"station_id":"ce4bgr92rcd13ifvqc7g","pricing_plan_id":"free"},{"bike_id":"9c8826ea-9cb4-4657-a201-a73ebe07cdd7","system_id":"levelo_inurba_marseille","lat":43.301429,"lon":5.37413,"is_reserved":false,"is_disabled":false,"rental_uris":{"android":"levelo://app?vid=9c8826ea-9cb4-4657-a201-a73ebe07cdd7","ios":"levelo://app?vid=9c8826ea-9cb4-4657-a201-a73ebe07cdd7"},"vehicle_type_id":"4","last_reported":1706983679,"current_range_meters":4800,"station_id":"ce4bgs92rcd13ifvqcc0","pricing_plan_id":"free"},{"bike_id":"23f36b18-8d1a-440c-a80f-3e2fbd063538","system_id":"levelo_inurba_marseille","lat":43.305364,"lon":5.384119,"is_reserved":false,"is_disabled":false,"rental_uris":{"android":"levelo://app?vid=23f36b18-8d1a-440c-a80f-3e2fbd063538","ios":"levelo://app?vid=23f36b18-8d1a-440c-a80f-3e2fbd063538"},"vehicle_type_id":"4","last_reported":1706983679,"current_range_meters":22000,"station_id":"ce4bgg92rcd13ifvqb30","pricing_plan_id":"free"},{"bike_id":"d660bff9-ff96-48ac-b565-df94c6a72730","system_id":"levelo_inurba_marseille","lat":43.305364,"lon":5.384119,"is_reserved":false,"is_disabled":false,"rental_uris":{"android":"levelo://app?vid=d660bff9-ff96-48ac-b565-df94c6a72730","ios":"levelo://app?vid=d660bff9-ff96-48ac-b565-df94c6a72730"},"vehicle_type_id":"4","last_reported":1706983679,"current_range_meters":4800,"station_id":"ce4bgg92rcd13ifvqb30","pricing_plan_id":"free"},{"bike_id":"0e39aed6-6d71-4bd3-a000-335bc85bb3da","system_id":"levelo_inurba_marseille","lat":43.305364,"lon":5.384119,"is_reserved":false,"is_disabled":false,"rental_uris":{"android":"levelo://app?vid=0e39aed6-6d71-4bd3-a000-335bc85bb3da","ios":"levelo://app?vid=0e39aed6-6d71-4bd3-a000-335bc85bb3da"},"vehicle_type_id":"4","last_reported":1706983679,"current_range_meters":6000,"station_id":"ce4bgg92rcd13ifvqb30","pricing_plan_id":"free"},{"bike_id":"b4916599-e905-4366-b600-6ed292c78e03","system_id":"levelo_inurba_marseille","lat":43.298433,"lon":5.362774,"is_reserved":false,"is_disabled":false,"rental_uris":{"android":"levelo://app?vid=b4916599-e905-4366-b600-6ed292c78e03","ios":"levelo://app?vid=b4916599-e905-4366-b600-6ed292c78e03"},"vehicle_type_id":"4","last_reported":1706983679,"current_range_meters":1200,"station_id":"ce4bgpp2rcd13ifvqc3g","pricing_plan_id":"free"},{"bike_id":"ee7effc6-5df5-407e-84c3-2243b3c670c4","system_id":"levelo_inurba_marseille","lat":43.299243,"lon":5.374807,"is_reserved":false,"is_disabled":false,"rental_uris":{"android":"levelo://app?vid=ee7effc6-5df5-407e-84c3-2243b3c670c4","ios":"levelo://app?vid=ee7effc6-5df5-407e-84c3-2243b3c670c4"},"vehicle_type_id":"4","last_reported":1706983679,"current_range_meters":1200,"station_id":"ce4bgjh2rcd13ifvqbg0","pricing_plan_id":"free"},{"bike_id":"b5328ea9-154c-4016-a636-b0962a42f351","system_id":"levelo_inurba_marseille","lat":43.299243,"lon":5.37481,"is_reserved":false,"is_disabled":false,"rental_uris":{"android":"levelo://app?vid=b5328ea9-154c-4016-a636-b0962a42f351","ios":"levelo://app?vid=b5328ea9-154c-4016-a636-b0962a42f351"},"vehicle_type_id":"4","last_reported":1706983679,"current_range_meters":0,"station_id":"ce4bgjh2rcd13ifvqbg0","pricing_plan_id":"free"},{"bike_id":"3322fe65-60ad-435e-baae-15790d52917e","system_id":"levelo_inurba_marseille","lat":43.311722,"lon":5.387247,"is_reserved":false,"is_disabled":false,"rental_uris":{"android":"levelo://app?vid=3322fe65-60ad-435e-baae-15790d52917e","ios":"levelo://app?vid=3322fe65-60ad-435e-baae-15790d52917e"},"vehicle_type_id":"4","last_reported":1706983679,"current_range_meters":0,"station_id":"ce4bgv12rcd13ifvqcp0","pricing_plan_id":"free"},{"bike_id":"14ab0a37-b3bc-4632-b232-540990b50acb","system_id":"levelo_inurba_marseille","lat":43.311722,"lon":5.387247,"is_reserved":false,"is_disabled":false,"rental_uris":{"android":"levelo://app?vid=14ab0a37-b3bc-4632-b232-540990b50acb","ios":"levelo://app?vid=14ab0a37-b3bc-4632-b232-540990b50acb"},"vehicle_type_id":"4","last_reported":1706983679,"current_range_meters":8400,"station_id":"ce4bgv12rcd13ifvqcp0","pricing_plan_id":"free"},{"bike_id":"f24f7f63-9786-4b84-9c97-1b1e5d6ae70f","system_id":"levelo_inurba_marseille","lat":43.311722,"lon":5.387247,"is_reserved":false,"is_disabled":false,"rental_uris":{"android":"levelo://app?vid=f24f7f63-9786-4b84-9c97-1b1e5d6ae70f","ios":"levelo://app?vid=f24f7f63-9786-4b84-9c97-1b1e5d6ae70f"},"vehicle_type_id":"4","last_reported":1706983679,"current_range_meters":28000,"station_id":"ce4bgv12rcd13ifvqcp0","pricing_plan_id":"free"},{"bike_id":"6a05e727-ebb8-40d3-9e60-d05f48e9ad13","system_id":"levelo_inurba_marseille","lat":43.311722,"lon":5.387247,"is_reserved":false,"is_disabled":false,"rental_uris":{"android":"levelo://app?vid=6a05e727-ebb8-40d3-9e60-d05f48e9ad13","ios":"levelo://app?vid=6a05e727-ebb8-40d3-9e60-d05f48e9ad13"},"vehicle_type_id":"4","last_reported":1706983679,"current_range_meters":0,"station_id":"ce4bgv12rcd13ifvqcp0","pricing_plan_id":"free"},{"bike_id":"1c0ee3ec-24c7-4c1c-a687-d92aa435bf2b","system_id":"levelo_inurba_marseille","lat":43.299243,"lon":5.37481,"is_reserved":false,"is_disabled":false,"rental_uris":{"android":"levelo://app?vid=1c0ee3ec-24c7-4c1c-a687-d92aa435bf2b","ios":"levelo://app?vid=1c0ee3ec-24c7-4c1c-a687-d92aa435bf2b"},"vehicle_type_id":"4","last_reported":1706983679,"current_range_meters":1600,"station_id":"ce4bgjh2rcd13ifvqbg0","pricing_plan_id":"free"},{"bike_id":"4fd7bd53-1761-4f48-bfa5-9f1505a954e2","system_id":"levelo_inurba_marseille","lat":43.297794,"lon":5.370888,"is_reserved":false,"is_disabled":false,"rental_uris":{"android":"levelo://app?vid=4fd7bd53-1761-4f48-bfa5-9f1505a954e2","ios":"levelo://app?vid=4fd7bd53-1761-4f48-bfa5-9f1505a954e2"},"vehicle_type_id":"4","last_reported":1706983679,"current_range_meters":14800,"station_id":"ce4bgop2rcd13ifvqc1g","pricing_plan_id":"free"},{"bike_id":"d3067c66-e7e2-46f1-8f0d-eabc61ae0d41","system_id":"levelo_inurba_marseille","lat":43.32288,"lon":5.38263,"is_reserved":false,"is_disabled":false,"rental_uris":{"android":"levelo://app?vid=d3067c66-e7e2-46f1-8f0d-eabc61ae0d41","ios":"levelo://app?vid=d3067c66-e7e2-46f1-8f0d-eabc61ae0d41"},"vehicle_type_id":"4","last_reported":1706983679,"current_range_meters":7600,"station_id":"ce4bhr12rcd13ifvqhqg","pricing_plan_id":"free"},{"bike_id":"6d4997e7-19de-4cd6-9e47-46afacda02f5","system_id":"levelo_inurba_marseille","lat":43.32283,"lon":5.38274,"is_reserved":false,"is_disabled":false,"rental_uris":{"android":"levelo://app?vid=6d4997e7-19de-4cd6-9e47-46afacda02f5","ios":"levelo://app?vid=6d4997e7-19de-4cd6-9e47-46afacda02f5"},"vehicle_type_id":"4","last_reported":1706983679,"current_range_meters":28000,"station_id":"ce4bhr12rcd13ifvqhqg","pricing_plan_id":"free"},{"bike_id":"dec8b008-992e-4c64-b540-1c9b2b5e6fc3","system_id":"levelo_inurba_marseille","lat":43.322872,"lon":5.382756,"is_reserved":false,"is_disabled":false,"rental_uris":{"android":"levelo://app?vid=dec8b008-992e-4c64-b540-1c9b2b5e6fc3","ios":"levelo://app?vid=dec8b008-992e-4c64-b540-1c9b2b5e6fc3"},"vehicle_type_id":"4","last_reported":1706983679,"current_range_meters":3600,"station_id":"ce4bhr12rcd13ifvqhqg","pricing_plan_id":"free"},{"bike_id":"e1639904-95cd-4f07-a500-a363e6e19f1b","system_id":"levelo_inurba_marseille","lat":43.297774,"lon":5.370875,"is_reserved":false,"is_disabled":false,"rental_uris":{"android":"levelo://app?vid=e1639904-95cd-4f07-a500-a363e6e19f1b","ios":"levelo://app?vid=e1639904-95cd-4f07-a500-a363e6e19f1b"},"vehicle_type_id":"4","last_reported":1706983679,"current_range_meters":16400,"station_id":"ce4bgop2rcd13ifvqc1g","pricing_plan_id":"free"},{"bike_id":"8b023912-5267-4e1c-a403-4d70b425cebe","system_id":"levelo_inurba_marseille","lat":43.32294,"lon":5.38274,"is_reserved":false,"is_disabled":false,"rental_uris":{"android":"levelo://app?vid=8b023912-5267-4e1c-a403-4d70b425cebe","ios":"levelo://app?vid=8b023912-5267-4e1c-a403-4d70b425cebe"},"vehicle_type_id":"4","last_reported":1706983679,"current_range_meters":31200,"station_id":"ce4bhr12rcd13ifvqhqg","pricing_plan_id":"free"},{"bike_id":"1900e2ea-9239-49b1-933e-57903fa99707","system_id":"levelo_inurba_marseille","lat":43.32826,"lon":5.36695,"is_reserved":false,"is_disabled":false,"rental_uris":{"android":"levelo://app?vid=1900e2ea-9239-49b1-933e-57903fa99707","ios":"levelo://app?vid=1900e2ea-9239-49b1-933e-57903fa99707"},"vehicle_type_id":"4","last_reported":1706983679,"current_range_meters":14000,"station_id":"ce4bhs92rcd13ifvqi0g","pricing_plan_id":"free"},{"bike_id":"a3cfb0d8-66c6-4b02-980d-6e0838737d96","system_id":"levelo_inurba_marseille","lat":43.328371,"lon":5.366909,"is_reserved":false,"is_disabled":false,"rental_uris":{"android":"levelo://app?vid=a3cfb0d8-66c6-4b02-980d-6e0838737d96","ios":"levelo://app?vid=a3cfb0d8-66c6-4b02-980d-6e0838737d96"},"vehicle_type_id":"4","last_reported":1706983679,"current_range_meters":15600,"station_id":"ce4bhs92rcd13ifvqi0g","pricing_plan_id":"free"},{"bike_id":"757c94ef-0260-4e65-8f42-9a2ff02436ff","system_id":"levelo_inurba_marseille","lat":43.328282,"lon":5.366799,"is_reserved":false,"is_disabled":false,"rental_uris":{"android":"levelo://app?vid=757c94ef-0260-4e65-8f42-9a2ff02436ff","ios":"levelo://app?vid=757c94ef-0260-4e65-8f42-9a2ff02436ff"},"vehicle_type_id":"4","last_reported":1706983679,"current_range_meters":0,"station_id":"ce4bhs92rcd13ifvqi0g","pricing_plan_id":"free"},{"bike_id":"cd766519-893f-42bc-9d4d-40ec2595fe3b","system_id":"levelo_inurba_marseille","lat":43.328302,"lon":5.366822,"is_reserved":false,"is_disabled":false,"rental_uris":{"android":"levelo://app?vid=cd766519-893f-42bc-9d4d-40ec2595fe3b","ios":"levelo://app?vid=cd766519-893f-42bc-9d4d-40ec2595fe3b"},"vehicle_type_id":"4","last_reported":1706983679,"current_range_meters":9200,"station_id":"ce4bhs92rcd13ifvqi0g","pricing_plan_id":"free"},{"bike_id":"4c60f124-983d-4709-a95c-31ae5c64ae30","system_id":"levelo_inurba_marseille","lat":43.32832,"lon":5.3668,"is_reserved":false,"is_disabled":false,"rental_uris":{"android":"levelo://app?vid=4c60f124-983d-4709-a95c-31ae5c64ae30","ios":"levelo://app?vid=4c60f124-983d-4709-a95c-31ae5c64ae30"},"vehicle_type_id":"4","last_reported":1706983679,"current_range_meters":400,"station_id":"ce4bhs92rcd13ifvqi0g","pricing_plan_id":"free"},{"bike_id":"63fdb5e0-d01f-4003-bcb3-b69d8f457f45","system_id":"levelo_inurba_marseille","lat":43.32833,"lon":5.36685,"is_reserved":false,"is_disabled":false,"rental_uris":{"android":"levelo://app?vid=63fdb5e0-d01f-4003-bcb3-b69d8f457f45","ios":"levelo://app?vid=63fdb5e0-d01f-4003-bcb3-b69d8f457f45"},"vehicle_type_id":"4","last_reported":1706983679,"current_range_meters":6400,"station_id":"ce4bhs92rcd13ifvqi0g","pricing_plan_id":"free"},{"bike_id":"2706faee-bc37-4a29-9a6a-f647203c3c31","system_id":"levelo_inurba_marseille","lat":43.297163,"lon":5.365866,"is_reserved":false,"is_disabled":false,"rental_uris":{"android":"levelo://app?vid=2706faee-bc37-4a29-9a6a-f647203c3c31","ios":"levelo://app?vid=2706faee-bc37-4a29-9a6a-f647203c3c31"},"vehicle_type_id":"4","last_reported":1706983679,"current_range_meters":13200,"station_id":"ce4bgn12rcd13ifvqbt0","pricing_plan_id":"free"},{"bike_id":"eb693acf-24cc-46c6-9dfc-6a5e5c4efea8","system_id":"levelo_inurba_marseille","lat":43.297163,"lon":5.365866,"is_reserved":false,"is_disabled":false,"rental_uris":{"android":"levelo://app?vid=eb693acf-24cc-46c6-9dfc-6a5e5c4efea8","ios":"levelo://app?vid=eb693acf-24cc-46c6-9dfc-6a5e5c4efea8"},"vehicle_type_id":"4","last_reported":1706983679,"current_range_meters":11600,"station_id":"ce4bgn12rcd13ifvqbt0","pricing_plan_id":"free"},{"bike_id":"4a162a07-9827-4581-b43a-e610ce807deb","system_id":"levelo_inurba_marseille","lat":43.2968,"lon":5.37291,"is_reserved":false,"is_disabled":false,"rental_uris":{"android":"levelo://app?vid=4a162a07-9827-4581-b43a-e610ce807deb","ios":"levelo://app?vid=4a162a07-9827-4581-b43a-e610ce807deb"},"vehicle_type_id":"4","last_reported":1706983679,"current_range_meters":0,"station_id":"ce4bgk12rcd13ifvqbj0","pricing_plan_id":"free"},{"bike_id":"05d1e24a-5991-47ae-bc98-2b2d2c7a2dc3","system_id":"levelo_inurba_marseille","lat":43.2968,"lon":5.37291,"is_reserved":false,"is_disabled":false,"rental_uris":{"android":"levelo://app?vid=05d1e24a-5991-47ae-bc98-2b2d2c7a2dc3","ios":"levelo://app?vid=05d1e24a-5991-47ae-bc98-2b2d2c7a2dc3"},"vehicle_type_id":"4","last_reported":1706983679,"current_range_meters":31200,"station_id":"ce4bgk12rcd13ifvqbj0","pricing_plan_id":"free"},{"bike_id":"604a18e2-f5f7-47c2-a6ac-bcd528ea3c70","system_id":"levelo_inurba_marseille","lat":43.296131,"lon":5.370791,"is_reserved":false,"is_disabled":false,"rental_uris":{"android":"levelo://app?vid=604a18e2-f5f7-47c2-a6ac-bcd528ea3c70","ios":"levelo://app?vid=604a18e2-f5f7-47c2-a6ac-bcd528ea3c70"},"vehicle_type_id":"4","last_reported":1706983679,"current_range_meters":7200,"station_id":"ce4bgnh2rcd13ifvqc0g","pricing_plan_id":"free"},{"bike_id":"5ca46cd2-7ee6-4389-9c20-3239e235a25e","system_id":"levelo_inurba_marseille","lat":43.296921,"lon":5.376579,"is_reserved":false,"is_disabled":false,"rental_uris":{"android":"levelo://app?vid=5ca46cd2-7ee6-4389-9c20-3239e235a25e","ios":"levelo://app?vid=5ca46cd2-7ee6-4389-9c20-3239e235a25e"},"vehicle_type_id":"4","last_reported":1706983679,"current_range_meters":3200,"station_id":"ce4bgkh2rcd13ifvqbl0","pricing_plan_id":"free"},{"bike_id":"b11a3066-32b6-4a93-ba5a-b73d8915d6b4","system_id":"levelo_inurba_marseille","lat":43.299028,"lon":5.381509,"is_reserved":false,"is_disabled":false,"rental_uris":{"android":"levelo://app?vid=b11a3066-32b6-4a93-ba5a-b73d8915d6b4","ios":"levelo://app?vid=b11a3066-32b6-4a93-ba5a-b73d8915d6b4"},"vehicle_type_id":"4","last_reported":1706983679,"current_range_meters":20800,"station_id":"ce4bgj12rcd13ifvqbc0","pricing_plan_id":"free"},{"bike_id":"86129512-80f8-48ea-9ecf-70d317f75a25","system_id":"levelo_inurba_marseille","lat":43.299028,"lon":5.381509,"is_reserved":false,"is_disabled":false,"rental_uris":{"android":"levelo://app?vid=86129512-80f8-48ea-9ecf-70d317f75a25","ios":"levelo://app?vid=86129512-80f8-48ea-9ecf-70d317f75a25"},"vehicle_type_id":"4","last_reported":1706983679,"current_range_meters":6000,"station_id":"ce4bgj12rcd13ifvqbc0","pricing_plan_id":"free"},{"bike_id":"27422e0e-cbee-49e0-a33a-574765341354","system_id":"levelo_inurba_marseille","lat":43.299028,"lon":5.381509,"is_reserved":false,"is_disabled":false,"rental_uris":{"android":"levelo://app?vid=27422e0e-cbee-49e0-a33a-574765341354","ios":"levelo://app?vid=27422e0e-cbee-49e0-a33a-574765341354"},"vehicle_type_id":"4","last_reported":1706983679,"current_range_meters":1600,"station_id":"ce4bgj12rcd13ifvqbc0","pricing_plan_id":"free"},{"bike_id":"cf925b94-4c1e-4579-af4e-6a138315ebcb","system_id":"levelo_inurba_marseille","lat":43.296935,"lon":5.376544,"is_reserved":false,"is_disabled":false,"rental_uris":{"android":"levelo://app?vid=cf925b94-4c1e-4579-af4e-6a138315ebcb","ios":"levelo://app?vid=cf925b94-4c1e-4579-af4e-6a138315ebcb"},"vehicle_type_id":"4","last_reported":1706983679,"current_range_meters":6800,"station_id":"ce4bgkh2rcd13ifvqbl0","pricing_plan_id":"free"},{"bike_id":"04e743ae-459a-4348-a2a5-de7186cb76cf","system_id":"levelo_inurba_marseille","lat":43.309589,"lon":5.390258,"is_reserved":false,"is_disabled":false,"rental_uris":{"android":"levelo://app?vid=04e743ae-459a-4348-a2a5-de7186cb76cf","ios":"levelo://app?vid=04e743ae-459a-4348-a2a5-de7186cb76cf"},"vehicle_type_id":"4","last_reported":1706983679,"current_range_meters":10400,"station_id":"ce4bgup2rcd13ifvqco0","pricing_plan_id":"free"},{"bike_id":"c411ddef-b19b-4cc0-8920-e195a69a82ff","system_id":"levelo_inurba_marseille","lat":43.309589,"lon":5.390258,"is_reserved":false,"is_disabled":false,"rental_uris":{"android":"levelo://app?vid=c411ddef-b19b-4cc0-8920-e195a69a82ff","ios":"levelo://app?vid=c411ddef-b19b-4cc0-8920-e195a69a82ff"},"vehicle_type_id":"4","last_reported":1706983679,"current_range_meters":22400,"station_id":"ce4bgup2rcd13ifvqco0","pricing_plan_id":"free"},{"bike_id":"ee354fc7-5bbc-4758-96a6-243ba34b6ea7","system_id":"levelo_inurba_marseille","lat":43.29915,"lon":5.38166,"is_reserved":false,"is_disabled":false,"rental_uris":{"android":"levelo://app?vid=ee354fc7-5bbc-4758-96a6-243ba34b6ea7","ios":"levelo://app?vid=ee354fc7-5bbc-4758-96a6-243ba34b6ea7"},"vehicle_type_id":"4","last_reported":1706983679,"current_range_meters":31200,"station_id":"ce4bgj12rcd13ifvqbc0","pricing_plan_id":"free"},{"bike_id":"91245d30-94ca-412b-b0d2-e98dfffd70ba","system_id":"levelo_inurba_marseille","lat":43.309589,"lon":5.390258,"is_reserved":false,"is_disabled":false,"rental_uris":{"android":"levelo://app?vid=91245d30-94ca-412b-b0d2-e98dfffd70ba","ios":"levelo://app?vid=91245d30-94ca-412b-b0d2-e98dfffd70ba"},"vehicle_type_id":"4","last_reported":1706983679,"current_range_meters":18400,"station_id":"ce4bgup2rcd13ifvqco0","pricing_plan_id":"free"},{"bike_id":"7c242682-afbf-4126-bdb0-19ca5512eace","system_id":"levelo_inurba_marseille","lat":43.309589,"lon":5.390258,"is_reserved":false,"is_disabled":false,"rental_uris":{"android":"levelo://app?vid=7c242682-afbf-4126-bdb0-19ca5512eace","ios":"levelo://app?vid=7c242682-afbf-4126-bdb0-19ca5512eace"},"vehicle_type_id":"4","last_reported":1706983679,"current_range_meters":8000,"station_id":"ce4bgup2rcd13ifvqco0","pricing_plan_id":"free"},{"bike_id":"c4707585-fa42-435e-ae2b-8d0fd9e245fe","system_id":"levelo_inurba_marseille","lat":43.299028,"lon":5.381509,"is_reserved":false,"is_disabled":false,"rental_uris":{"android":"levelo://app?vid=c4707585-fa42-435e-ae2b-8d0fd9e245fe","ios":"levelo://app?vid=c4707585-fa42-435e-ae2b-8d0fd9e245fe"},"vehicle_type_id":"4","last_reported":1706983679,"current_range_meters":28400,"station_id":"ce4bgj12rcd13ifvqbc0","pricing_plan_id":"free"},{"bike_id":"8b114c48-7889-44b8-953d-1643c3caf19f","system_id":"levelo_inurba_marseille","lat":43.309589,"lon":5.390258,"is_reserved":false,"is_disabled":false,"rental_uris":{"android":"levelo://app?vid=8b114c48-7889-44b8-953d-1643c3caf19f","ios":"levelo://app?vid=8b114c48-7889-44b8-953d-1643c3caf19f"},"vehicle_type_id":"4","last_reported":1706983679,"current_range_meters":6800,"station_id":"ce4bgup2rcd13ifvqco0","pricing_plan_id":"free"},{"bike_id":"0b49491c-81b8-4ed9-9fa4-1ac082e034fe","system_id":"levelo_inurba_marseille","lat":43.317557,"lon":5.390173,"is_reserved":false,"is_disabled":false,"rental_uris":{"android":"levelo://app?vid=0b49491c-81b8-4ed9-9fa4-1ac082e034fe","ios":"levelo://app?vid=0b49491c-81b8-4ed9-9fa4-1ac082e034fe"},"vehicle_type_id":"4","last_reported":1706983679,"current_range_meters":30400,"station_id":"ce4bhqp2rcd13ifvqhng","pricing_plan_id":"free"},{"bike_id":"cc8dbedf-d086-4be0-86af-3aa80ac6a9eb","system_id":"levelo_inurba_marseille","lat":43.298037,"lon":5.381066,"is_reserved":false,"is_disabled":false,"rental_uris":{"android":"levelo://app?vid=cc8dbedf-d086-4be0-86af-3aa80ac6a9eb","ios":"levelo://app?vid=cc8dbedf-d086-4be0-86af-3aa80ac6a9eb"},"vehicle_type_id":"4","last_reported":1706983679,"current_range_meters":16800,"station_id":"ce4bgip2rcd13ifvqbb0","pricing_plan_id":"free"},{"bike_id":"4f1e6c01-1f6d-4cdf-835c-97cd6866d7f2","system_id":"levelo_inurba_marseille","lat":43.299028,"lon":5.381509,"is_reserved":false,"is_disabled":false,"rental_uris":{"android":"levelo://app?vid=4f1e6c01-1f6d-4cdf-835c-97cd6866d7f2","ios":"levelo://app?vid=4f1e6c01-1f6d-4cdf-835c-97cd6866d7f2"},"vehicle_type_id":"4","last_reported":1706983679,"current_range_meters":26400,"station_id":"ce4bgj12rcd13ifvqbc0","pricing_plan_id":"free"},{"bike_id":"86eba5ee-3f3e-465e-879d-a26eca611b6f","system_id":"levelo_inurba_marseille","lat":43.318213,"lon":5.39029,"is_reserved":false,"is_disabled":false,"rental_uris":{"android":"levelo://app?vid=86eba5ee-3f3e-465e-879d-a26eca611b6f","ios":"levelo://app?vid=86eba5ee-3f3e-465e-879d-a26eca611b6f"},"vehicle_type_id":"4","last_reported":1706983679,"current_range_meters":20800,"station_id":"","pricing_plan_id":"free"},{"bike_id":"4ab7af74-6693-47d1-98ac-64caf9f2f3e9","system_id":"levelo_inurba_marseille","lat":43.298037,"lon":5.381066,"is_reserved":false,"is_disabled":false,"rental_uris":{"android":"levelo://app?vid=4ab7af74-6693-47d1-98ac-64caf9f2f3e9","ios":"levelo://app?vid=4ab7af74-6693-47d1-98ac-64caf9f2f3e9"},"vehicle_type_id":"4","last_reported":1706983679,"current_range_meters":7600,"station_id":"ce4bgip2rcd13ifvqbb0","pricing_plan_id":"free"},{"bike_id":"de0a6de6-7884-415d-91f7-94f7dea3cf30","system_id":"levelo_inurba_marseille","lat":43.298037,"lon":5.381066,"is_reserved":false,"is_disabled":false,"rental_uris":{"android":"levelo://app?vid=de0a6de6-7884-415d-91f7-94f7dea3cf30","ios":"levelo://app?vid=de0a6de6-7884-415d-91f7-94f7dea3cf30"},"vehicle_type_id":"4","last_reported":1706983679,"current_range_meters":0,"station_id":"ce4bgip2rcd13ifvqbb0","pricing_plan_id":"free"},{"bike_id":"4408d831-7141-4bec-a118-3d84b9bd4594","system_id":"levelo_inurba_marseille","lat":43.298037,"lon":5.381066,"is_reserved":false,"is_disabled":false,"rental_uris":{"android":"levelo://app?vid=4408d831-7141-4bec-a118-3d84b9bd4594","ios":"levelo://app?vid=4408d831-7141-4bec-a118-3d84b9bd4594"},"vehicle_type_id":"4","last_reported":1706983679,"current_range_meters":3600,"station_id":"ce4bgip2rcd13ifvqbb0","pricing_plan_id":"free"},{"bike_id":"97f15396-3b7d-46c9-817a-4b5088e1e2e1","system_id":"levelo_inurba_marseille","lat":43.304274,"lon":5.388873,"is_reserved":false,"is_disabled":false,"rental_uris":{"android":"levelo://app?vid=97f15396-3b7d-46c9-817a-4b5088e1e2e1","ios":"levelo://app?vid=97f15396-3b7d-46c9-817a-4b5088e1e2e1"},"vehicle_type_id":"4","last_reported":1706983679,"current_range_meters":15600,"station_id":"ce4bgk12rcd13ifvqbi0","pricing_plan_id":"free"},{"bike_id":"7133e00e-a4fc-4431-8092-434a6242adf1","system_id":"levelo_inurba_marseille","lat":43.29575,"lon":5.3752,"is_reserved":false,"is_disabled":false,"rental_uris":{"android":"levelo://app?vid=7133e00e-a4fc-4431-8092-434a6242adf1","ios":"levelo://app?vid=7133e00e-a4fc-4431-8092-434a6242adf1"},"vehicle_type_id":"4","last_reported":1706983679,"current_range_meters":3600,"station_id":"ce4bgh92rcd13ifvqb50","pricing_plan_id":"free"},{"bike_id":"02c8693d-71b5-4cb3-b927-73df604ab80d","system_id":"levelo_inurba_marseille","lat":43.298037,"lon":5.381066,"is_reserved":false,"is_disabled":false,"rental_uris":{"android":"levelo://app?vid=02c8693d-71b5-4cb3-b927-73df604ab80d","ios":"levelo://app?vid=02c8693d-71b5-4cb3-b927-73df604ab80d"},"vehicle_type_id":"4","last_reported":1706983679,"current_range_meters":4000,"station_id":"ce4bgip2rcd13ifvqbb0","pricing_plan_id":"free"},{"bike_id":"ec317815-3fb8-40a1-abec-cc0abf2ea51e","system_id":"levelo_inurba_marseille","lat":43.3044,"lon":5.38891,"is_reserved":false,"is_disabled":false,"rental_uris":{"android":"levelo://app?vid=ec317815-3fb8-40a1-abec-cc0abf2ea51e","ios":"levelo://app?vid=ec317815-3fb8-40a1-abec-cc0abf2ea51e"},"vehicle_type_id":"4","last_reported":1706983679,"current_range_meters":4000,"station_id":"ce4bgk12rcd13ifvqbi0","pricing_plan_id":"free"},{"bike_id":"fef4f448-289d-4857-a2a1-25dd96b158a5","system_id":"levelo_inurba_marseille","lat":43.304274,"lon":5.388873,"is_reserved":false,"is_disabled":false,"rental_uris":{"android":"levelo://app?vid=fef4f448-289d-4857-a2a1-25dd96b158a5","ios":"levelo://app?vid=fef4f448-289d-4857-a2a1-25dd96b158a5"},"vehicle_type_id":"4","last_reported":1706983679,"current_range_meters":29200,"station_id":"ce4bgk12rcd13ifvqbi0","pricing_plan_id":"free"},{"bike_id":"e412e197-0e7e-44de-b196-74c60f6bb06b","system_id":"levelo_inurba_marseille","lat":43.304274,"lon":5.388873,"is_reserved":false,"is_disabled":false,"rental_uris":{"android":"levelo://app?vid=e412e197-0e7e-44de-b196-74c60f6bb06b","ios":"levelo://app?vid=e412e197-0e7e-44de-b196-74c60f6bb06b"},"vehicle_type_id":"4","last_reported":1706983679,"current_range_meters":10000,"station_id":"ce4bgk12rcd13ifvqbi0","pricing_plan_id":"free"},{"bike_id":"84d279a5-5fd4-4370-acbc-d569d29df769","system_id":"levelo_inurba_marseille","lat":43.296263,"lon":5.377094,"is_reserved":false,"is_disabled":false,"rental_uris":{"android":"levelo://app?vid=84d279a5-5fd4-4370-acbc-d569d29df769","ios":"levelo://app?vid=84d279a5-5fd4-4370-acbc-d569d29df769"},"vehicle_type_id":"4","last_reported":1706983679,"current_range_meters":0,"station_id":"ce4bgi92rcd13ifvqb90","pricing_plan_id":"free"},{"bike_id":"8ddab245-0e20-4598-a0a8-f2d329f28666","system_id":"levelo_inurba_marseille","lat":43.304274,"lon":5.388873,"is_reserved":false,"is_disabled":false,"rental_uris":{"android":"levelo://app?vid=8ddab245-0e20-4598-a0a8-f2d329f28666","ios":"levelo://app?vid=8ddab245-0e20-4598-a0a8-f2d329f28666"},"vehicle_type_id":"4","last_reported":1706983679,"current_range_meters":6400,"station_id":"ce4bgk12rcd13ifvqbi0","pricing_plan_id":"free"},{"bike_id":"778b0e80-6d7d-42e9-b918-d3a830b1d21c","system_id":"levelo_inurba_marseille","lat":43.296263,"lon":5.377094,"is_reserved":false,"is_disabled":false,"rental_uris":{"android":"levelo://app?vid=778b0e80-6d7d-42e9-b918-d3a830b1d21c","ios":"levelo://app?vid=778b0e80-6d7d-42e9-b918-d3a830b1d21c"},"vehicle_type_id":"4","last_reported":1706983679,"current_range_meters":5600,"station_id":"ce4bgi92rcd13ifvqb90","pricing_plan_id":"free"},{"bike_id":"c638861a-b0ce-453c-ad82-07e52e79c550","system_id":"levelo_inurba_marseille","lat":43.304274,"lon":5.388873,"is_reserved":false,"is_disabled":false,"rental_uris":{"android":"levelo://app?vid=c638861a-b0ce-453c-ad82-07e52e79c550","ios":"levelo://app?vid=c638861a-b0ce-453c-ad82-07e52e79c550"},"vehicle_type_id":"4","last_reported":1706983679,"current_range_meters":800,"station_id":"ce4bgk12rcd13ifvqbi0","pricing_plan_id":"free"},{"bike_id":"a4514d70-08ef-4e40-8ca6-6e342d874f26","system_id":"levelo_inurba_marseille","lat":43.298037,"lon":5.381066,"is_reserved":false,"is_disabled":false,"rental_uris":{"android":"levelo://app?vid=a4514d70-08ef-4e40-8ca6-6e342d874f26","ios":"levelo://app?vid=a4514d70-08ef-4e40-8ca6-6e342d874f26"},"vehicle_type_id":"4","last_reported":1706983679,"current_range_meters":3600,"station_id":"ce4bgip2rcd13ifvqbb0","pricing_plan_id":"free"},{"bike_id":"17540998-16c2-47ef-92bf-2b08bb0e0d80","system_id":"levelo_inurba_marseille","lat":43.296263,"lon":5.377094,"is_reserved":false,"is_disabled":false,"rental_uris":{"android":"levelo://app?vid=17540998-16c2-47ef-92bf-2b08bb0e0d80","ios":"levelo://app?vid=17540998-16c2-47ef-92bf-2b08bb0e0d80"},"vehicle_type_id":"4","last_reported":1706983679,"current_range_meters":6000,"station_id":"ce4bgi92rcd13ifvqb90","pricing_plan_id":"free"},{"bike_id":"781bac7d-6e74-482a-81fb-9756f3633d36","system_id":"levelo_inurba_marseille","lat":43.304274,"lon":5.388873,"is_reserved":false,"is_disabled":false,"rental_uris":{"android":"levelo://app?vid=781bac7d-6e74-482a-81fb-9756f3633d36","ios":"levelo://app?vid=781bac7d-6e74-482a-81fb-9756f3633d36"},"vehicle_type_id":"4","last_reported":1706983679,"current_range_meters":0,"station_id":"ce4bgk12rcd13ifvqbi0","pricing_plan_id":"free"},{"bike_id":"ac216523-28fd-4f9a-949f-cc3fd1a79270","system_id":"levelo_inurba_marseille","lat":43.295748,"lon":5.37522,"is_reserved":false,"is_disabled":false,"rental_uris":{"android":"levelo://app?vid=ac216523-28fd-4f9a-949f-cc3fd1a79270","ios":"levelo://app?vid=ac216523-28fd-4f9a-949f-cc3fd1a79270"},"vehicle_type_id":"4","last_reported":1706983679,"current_range_meters":21200,"station_id":"ce4bgh92rcd13ifvqb50","pricing_plan_id":"free"},{"bike_id":"be81a541-15c1-46b0-abeb-edb9fab32313","system_id":"levelo_inurba_marseille","lat":43.299911,"lon":5.384838,"is_reserved":false,"is_disabled":false,"rental_uris":{"android":"levelo://app?vid=be81a541-15c1-46b0-abeb-edb9fab32313","ios":"levelo://app?vid=be81a541-15c1-46b0-abeb-edb9fab32313"},"vehicle_type_id":"4","last_reported":1706983679,"current_range_meters":13600,"station_id":"","pricing_plan_id":"free"},{"bike_id":"b4890907-5db1-4af2-9707-17af02e918cb","system_id":"levelo_inurba_marseille","lat":43.299707,"lon":5.384859,"is_reserved":false,"is_disabled":false,"rental_uris":{"android":"levelo://app?vid=b4890907-5db1-4af2-9707-17af02e918cb","ios":"levelo://app?vid=b4890907-5db1-4af2-9707-17af02e918cb"},"vehicle_type_id":"4","last_reported":1706983679,"current_range_meters":16800,"station_id":"ce4bgj92rcd13ifvqbd0","pricing_plan_id":"free"},{"bike_id":"4033c74b-f0a7-4ad0-82c2-98c1df47974f","system_id":"levelo_inurba_marseille","lat":43.295279,"lon":5.375048,"is_reserved":false,"is_disabled":false,"rental_uris":{"android":"levelo://app?vid=4033c74b-f0a7-4ad0-82c2-98c1df47974f","ios":"levelo://app?vid=4033c74b-f0a7-4ad0-82c2-98c1df47974f"},"vehicle_type_id":"4","last_reported":1706983679,"current_range_meters":1200,"station_id":"ce4bgkp2rcd13ifvqbmg","pricing_plan_id":"free"},{"bike_id":"50b8cd80-b1e4-4ee5-9a41-e36bc46357aa","system_id":"levelo_inurba_marseille","lat":43.295279,"lon":5.375048,"is_reserved":false,"is_disabled":false,"rental_uris":{"android":"levelo://app?vid=50b8cd80-b1e4-4ee5-9a41-e36bc46357aa","ios":"levelo://app?vid=50b8cd80-b1e4-4ee5-9a41-e36bc46357aa"},"vehicle_type_id":"4","last_reported":1706983679,"current_range_meters":4800,"station_id":"ce4bgkp2rcd13ifvqbmg","pricing_plan_id":"free"},{"bike_id":"5e8aea1c-ba9f-46ee-8136-292a0a4f5caa","system_id":"levelo_inurba_marseille","lat":43.299717,"lon":5.384845,"is_reserved":false,"is_disabled":false,"rental_uris":{"android":"levelo://app?vid=5e8aea1c-ba9f-46ee-8136-292a0a4f5caa","ios":"levelo://app?vid=5e8aea1c-ba9f-46ee-8136-292a0a4f5caa"},"vehicle_type_id":"4","last_reported":1706983679,"current_range_meters":14000,"station_id":"ce4bgj92rcd13ifvqbd0","pricing_plan_id":"free"},{"bike_id":"9b6135f3-f560-4ae7-a37d-fa550104defd","system_id":"levelo_inurba_marseille","lat":43.299707,"lon":5.384859,"is_reserved":false,"is_disabled":false,"rental_uris":{"android":"levelo://app?vid=9b6135f3-f560-4ae7-a37d-fa550104defd","ios":"levelo://app?vid=9b6135f3-f560-4ae7-a37d-fa550104defd"},"vehicle_type_id":"4","last_reported":1706983679,"current_range_meters":1200,"station_id":"ce4bgj92rcd13ifvqbd0","pricing_plan_id":"free"},{"bike_id":"b564cad4-c581-46c7-9c50-8440bce08863","system_id":"levelo_inurba_marseille","lat":43.299707,"lon":5.384859,"is_reserved":false,"is_disabled":false,"rental_uris":{"android":"levelo://app?vid=b564cad4-c581-46c7-9c50-8440bce08863","ios":"levelo://app?vid=b564cad4-c581-46c7-9c50-8440bce08863"},"vehicle_type_id":"4","last_reported":1706983679,"current_range_meters":16800,"station_id":"ce4bgj92rcd13ifvqbd0","pricing_plan_id":"free"},{"bike_id":"d365ddac-a6be-4c1a-9515-251aaa1b10d9","system_id":"levelo_inurba_marseille","lat":43.29966,"lon":5.385,"is_reserved":false,"is_disabled":false,"rental_uris":{"android":"levelo://app?vid=d365ddac-a6be-4c1a-9515-251aaa1b10d9","ios":"levelo://app?vid=d365ddac-a6be-4c1a-9515-251aaa1b10d9"},"vehicle_type_id":"4","last_reported":1706983679,"current_range_meters":5200,"station_id":"ce4bgj92rcd13ifvqbd0","pricing_plan_id":"free"},{"bike_id":"bb0dd7df-fe30-464d-9e7d-7767cff2f182","system_id":"levelo_inurba_marseille","lat":43.299707,"lon":5.384859,"is_reserved":false,"is_disabled":false,"rental_uris":{"android":"levelo://app?vid=bb0dd7df-fe30-464d-9e7d-7767cff2f182","ios":"levelo://app?vid=bb0dd7df-fe30-464d-9e7d-7767cff2f182"},"vehicle_type_id":"4","last_reported":1706983679,"current_range_meters":10800,"station_id":"ce4bgj92rcd13ifvqbd0","pricing_plan_id":"free"},{"bike_id":"50808f12-d70d-4056-b2ab-d24651f2e675","system_id":"levelo_inurba_marseille","lat":43.29967,"lon":5.38502,"is_reserved":false,"is_disabled":false,"rental_uris":{"android":"levelo://app?vid=50808f12-d70d-4056-b2ab-d24651f2e675","ios":"levelo://app?vid=50808f12-d70d-4056-b2ab-d24651f2e675"},"vehicle_type_id":"4","last_reported":1706983679,"current_range_meters":16800,"station_id":"ce4bgj92rcd13ifvqbd0","pricing_plan_id":"free"},{"bike_id":"e1fb8e33-4a4e-4246-9603-d3ad6b4d98a0","system_id":"levelo_inurba_marseille","lat":43.299707,"lon":5.384859,"is_reserved":false,"is_disabled":false,"rental_uris":{"android":"levelo://app?vid=e1fb8e33-4a4e-4246-9603-d3ad6b4d98a0","ios":"levelo://app?vid=e1fb8e33-4a4e-4246-9603-d3ad6b4d98a0"},"vehicle_type_id":"4","last_reported":1706983679,"current_range_meters":7200,"station_id":"ce4bgj92rcd13ifvqbd0","pricing_plan_id":"free"},{"bike_id":"83c61309-8226-471f-8f23-970d81e386ea","system_id":"levelo_inurba_marseille","lat":43.29963,"lon":5.38499,"is_reserved":false,"is_disabled":false,"rental_uris":{"android":"levelo://app?vid=83c61309-8226-471f-8f23-970d81e386ea","ios":"levelo://app?vid=83c61309-8226-471f-8f23-970d81e386ea"},"vehicle_type_id":"4","last_reported":1706983679,"current_range_meters":11200,"station_id":"ce4bgj92rcd13ifvqbd0","pricing_plan_id":"free"},{"bike_id":"db20f64c-1680-4c5b-a185-b10bf9c71d6b","system_id":"levelo_inurba_marseille","lat":43.29963,"lon":5.38501,"is_reserved":false,"is_disabled":false,"rental_uris":{"android":"levelo://app?vid=db20f64c-1680-4c5b-a185-b10bf9c71d6b","ios":"levelo://app?vid=db20f64c-1680-4c5b-a185-b10bf9c71d6b"},"vehicle_type_id":"4","last_reported":1706983679,"current_range_meters":13200,"station_id":"ce4bgj92rcd13ifvqbd0","pricing_plan_id":"free"},{"bike_id":"376d1f43-fcf0-4d1d-a700-7b9a396792fe","system_id":"levelo_inurba_marseille","lat":43.29963,"lon":5.38502,"is_reserved":false,"is_disabled":false,"rental_uris":{"android":"levelo://app?vid=376d1f43-fcf0-4d1d-a700-7b9a396792fe","ios":"levelo://app?vid=376d1f43-fcf0-4d1d-a700-7b9a396792fe"},"vehicle_type_id":"4","last_reported":1706983679,"current_range_meters":4400,"station_id":"ce4bgj92rcd13ifvqbd0","pricing_plan_id":"free"},{"bike_id":"02e5c3ba-d57f-45cd-83a5-34e8a95ace48","system_id":"levelo_inurba_marseille","lat":43.29723,"lon":5.38119,"is_reserved":false,"is_disabled":false,"rental_uris":{"android":"levelo://app?vid=02e5c3ba-d57f-45cd-83a5-34e8a95ace48","ios":"levelo://app?vid=02e5c3ba-d57f-45cd-83a5-34e8a95ace48"},"vehicle_type_id":"4","last_reported":1706983679,"current_range_meters":25600,"station_id":"","pricing_plan_id":"free"},{"bike_id":"f7f8fbd6-aac4-479c-9229-6747d802c06f","system_id":"levelo_inurba_marseille","lat":43.323612,"lon":5.388755,"is_reserved":false,"is_disabled":false,"rental_uris":{"android":"levelo://app?vid=f7f8fbd6-aac4-479c-9229-6747d802c06f","ios":"levelo://app?vid=f7f8fbd6-aac4-479c-9229-6747d802c06f"},"vehicle_type_id":"4","last_reported":1706983679,"current_range_meters":1600,"station_id":"ce4bhqp2rcd13ifvqhog","pricing_plan_id":"free"},{"bike_id":"c6478534-8a92-48aa-87e2-bf565bc04fb6","system_id":"levelo_inurba_marseille","lat":43.323641,"lon":5.388761,"is_reserved":false,"is_disabled":false,"rental_uris":{"android":"levelo://app?vid=c6478534-8a92-48aa-87e2-bf565bc04fb6","ios":"levelo://app?vid=c6478534-8a92-48aa-87e2-bf565bc04fb6"},"vehicle_type_id":"4","last_reported":1706983679,"current_range_meters":6400,"station_id":"ce4bhqp2rcd13ifvqhog","pricing_plan_id":"free"},{"bike_id":"62a9b393-09b1-4b3b-91a3-6352eceb9b04","system_id":"levelo_inurba_marseille","lat":43.32367,"lon":5.388836,"is_reserved":false,"is_disabled":false,"rental_uris":{"android":"levelo://app?vid=62a9b393-09b1-4b3b-91a3-6352eceb9b04","ios":"levelo://app?vid=62a9b393-09b1-4b3b-91a3-6352eceb9b04"},"vehicle_type_id":"4","last_reported":1706983679,"current_range_meters":8400,"station_id":"ce4bhqp2rcd13ifvqhog","pricing_plan_id":"free"},{"bike_id":"6ddd6644-0475-4d38-97ea-3c5cc97bcc31","system_id":"levelo_inurba_marseille","lat":43.32367,"lon":5.388836,"is_reserved":false,"is_disabled":false,"rental_uris":{"android":"levelo://app?vid=6ddd6644-0475-4d38-97ea-3c5cc97bcc31","ios":"levelo://app?vid=6ddd6644-0475-4d38-97ea-3c5cc97bcc31"},"vehicle_type_id":"4","last_reported":1706983679,"current_range_meters":12800,"station_id":"ce4bhqp2rcd13ifvqhog","pricing_plan_id":"free"},{"bike_id":"c25fc67a-bf97-4f21-9916-d0fe78b3e657","system_id":"levelo_inurba_marseille","lat":43.32371,"lon":5.38883,"is_reserved":false,"is_disabled":false,"rental_uris":{"android":"levelo://app?vid=c25fc67a-bf97-4f21-9916-d0fe78b3e657","ios":"levelo://app?vid=c25fc67a-bf97-4f21-9916-d0fe78b3e657"},"vehicle_type_id":"4","last_reported":1706983679,"current_range_meters":24400,"station_id":"ce4bhqp2rcd13ifvqhog","pricing_plan_id":"free"},{"bike_id":"6000f0dc-1f4b-4a79-83b1-26d1a94d5811","system_id":"levelo_inurba_marseille","lat":43.32366,"lon":5.3889,"is_reserved":false,"is_disabled":false,"rental_uris":{"android":"levelo://app?vid=6000f0dc-1f4b-4a79-83b1-26d1a94d5811","ios":"levelo://app?vid=6000f0dc-1f4b-4a79-83b1-26d1a94d5811"},"vehicle_type_id":"4","last_reported":1706983679,"current_range_meters":6400,"station_id":"ce4bhqp2rcd13ifvqhog","pricing_plan_id":"free"},{"bike_id":"75ed1df4-b7df-4e88-9e9a-696a19f1762a","system_id":"levelo_inurba_marseille","lat":43.32373,"lon":5.38885,"is_reserved":false,"is_disabled":false,"rental_uris":{"android":"levelo://app?vid=75ed1df4-b7df-4e88-9e9a-696a19f1762a","ios":"levelo://app?vid=75ed1df4-b7df-4e88-9e9a-696a19f1762a"},"vehicle_type_id":"4","last_reported":1706983679,"current_range_meters":10000,"station_id":"ce4bhqp2rcd13ifvqhog","pricing_plan_id":"free"},{"bike_id":"86690f2d-bc79-4602-9fc0-888cbe1590d1","system_id":"levelo_inurba_marseille","lat":43.3237,"lon":5.38889,"is_reserved":false,"is_disabled":false,"rental_uris":{"android":"levelo://app?vid=86690f2d-bc79-4602-9fc0-888cbe1590d1","ios":"levelo://app?vid=86690f2d-bc79-4602-9fc0-888cbe1590d1"},"vehicle_type_id":"4","last_reported":1706983679,"current_range_meters":22000,"station_id":"ce4bhqp2rcd13ifvqhog","pricing_plan_id":"free"},{"bike_id":"9b081c91-637e-47ff-a6d8-ba13bb5f1be4","system_id":"levelo_inurba_marseille","lat":43.32367,"lon":5.388836,"is_reserved":false,"is_disabled":false,"rental_uris":{"android":"levelo://app?vid=9b081c91-637e-47ff-a6d8-ba13bb5f1be4","ios":"levelo://app?vid=9b081c91-637e-47ff-a6d8-ba13bb5f1be4"},"vehicle_type_id":"4","last_reported":1706983679,"current_range_meters":30400,"station_id":"ce4bhqp2rcd13ifvqhog","pricing_plan_id":"free"},{"bike_id":"816f64e3-f285-49a2-be08-54797e0cf38e","system_id":"levelo_inurba_marseille","lat":43.29602,"lon":5.381084,"is_reserved":false,"is_disabled":false,"rental_uris":{"android":"levelo://app?vid=816f64e3-f285-49a2-be08-54797e0cf38e","ios":"levelo://app?vid=816f64e3-f285-49a2-be08-54797e0cf38e"},"vehicle_type_id":"4","last_reported":1706983679,"current_range_meters":2800,"station_id":"ce4bgl12rcd13ifvqbo0","pricing_plan_id":"free"},{"bike_id":"b58f6d08-53ca-4365-a518-aa98e59fb592","system_id":"levelo_inurba_marseille","lat":43.29602,"lon":5.381084,"is_reserved":false,"is_disabled":false,"rental_uris":{"android":"levelo://app?vid=b58f6d08-53ca-4365-a518-aa98e59fb592","ios":"levelo://app?vid=b58f6d08-53ca-4365-a518-aa98e59fb592"},"vehicle_type_id":"4","last_reported":1706983679,"current_range_meters":4400,"station_id":"ce4bgl12rcd13ifvqbo0","pricing_plan_id":"free"},{"bike_id":"5b007e18-ee47-4319-b21a-4f8bdb70eb5b","system_id":"levelo_inurba_marseille","lat":43.29602,"lon":5.381084,"is_reserved":false,"is_disabled":false,"rental_uris":{"android":"levelo://app?vid=5b007e18-ee47-4319-b21a-4f8bdb70eb5b","ios":"levelo://app?vid=5b007e18-ee47-4319-b21a-4f8bdb70eb5b"},"vehicle_type_id":"4","last_reported":1706983679,"current_range_meters":10400,"station_id":"ce4bgl12rcd13ifvqbo0","pricing_plan_id":"free"},{"bike_id":"159e777a-5216-437a-9715-bad3bfa16ef9","system_id":"levelo_inurba_marseille","lat":43.293113,"lon":5.371827,"is_reserved":false,"is_disabled":false,"rental_uris":{"android":"levelo://app?vid=159e777a-5216-437a-9715-bad3bfa16ef9","ios":"levelo://app?vid=159e777a-5216-437a-9715-bad3bfa16ef9"},"vehicle_type_id":"4","last_reported":1706983679,"current_range_meters":16000,"station_id":"ce4bgh92rcd13ifvqb40","pricing_plan_id":"free"},{"bike_id":"02165640-208f-4047-bda2-7cc6b31f4c76","system_id":"levelo_inurba_marseille","lat":43.293259,"lon":5.371586,"is_reserved":false,"is_disabled":false,"rental_uris":{"android":"levelo://app?vid=02165640-208f-4047-bda2-7cc6b31f4c76","ios":"levelo://app?vid=02165640-208f-4047-bda2-7cc6b31f4c76"},"vehicle_type_id":"4","last_reported":1706983679,"current_range_meters":6000,"station_id":"ce4bgh92rcd13ifvqb40","pricing_plan_id":"free"},{"bike_id":"6eff02de-4419-41de-af2f-7355d06b78e6","system_id":"levelo_inurba_marseille","lat":43.293249,"lon":5.371578,"is_reserved":false,"is_disabled":false,"rental_uris":{"android":"levelo://app?vid=6eff02de-4419-41de-af2f-7355d06b78e6","ios":"levelo://app?vid=6eff02de-4419-41de-af2f-7355d06b78e6"},"vehicle_type_id":"4","last_reported":1706983679,"current_range_meters":30800,"station_id":"ce4bgh92rcd13ifvqb40","pricing_plan_id":"free"},{"bike_id":"bead9eaa-ed79-41a1-a239-9c8e77170b63","system_id":"levelo_inurba_marseille","lat":43.292749,"lon":5.368398,"is_reserved":false,"is_disabled":false,"rental_uris":{"android":"levelo://app?vid=bead9eaa-ed79-41a1-a239-9c8e77170b63","ios":"levelo://app?vid=bead9eaa-ed79-41a1-a239-9c8e77170b63"},"vehicle_type_id":"4","last_reported":1706983679,"current_range_meters":0,"station_id":"ce4bhbp2rcd13ifvqesg","pricing_plan_id":"free"},{"bike_id":"74bc9fae-6dc0-4e3d-9443-f58a4d7651f5","system_id":"levelo_inurba_marseille","lat":43.292749,"lon":5.368402,"is_reserved":false,"is_disabled":false,"rental_uris":{"android":"levelo://app?vid=74bc9fae-6dc0-4e3d-9443-f58a4d7651f5","ios":"levelo://app?vid=74bc9fae-6dc0-4e3d-9443-f58a4d7651f5"},"vehicle_type_id":"4","last_reported":1706983679,"current_range_meters":24400,"station_id":"ce4bhbp2rcd13ifvqesg","pricing_plan_id":"free"},{"bike_id":"30b214e1-a1ec-4d1e-8972-8cbf0b120850","system_id":"levelo_inurba_marseille","lat":43.29309,"lon":5.37468,"is_reserved":false,"is_disabled":false,"rental_uris":{"android":"levelo://app?vid=30b214e1-a1ec-4d1e-8972-8cbf0b120850","ios":"levelo://app?vid=30b214e1-a1ec-4d1e-8972-8cbf0b120850"},"vehicle_type_id":"4","last_reported":1706983679,"current_range_meters":0,"station_id":"ce4bgi12rcd13ifvqb70","pricing_plan_id":"free"},{"bike_id":"180ec873-4dd0-4d46-bc88-45072c4cd3e6","system_id":"levelo_inurba_marseille","lat":43.305994,"lon":5.393687,"is_reserved":false,"is_disabled":false,"rental_uris":{"android":"levelo://app?vid=180ec873-4dd0-4d46-bc88-45072c4cd3e6","ios":"levelo://app?vid=180ec873-4dd0-4d46-bc88-45072c4cd3e6"},"vehicle_type_id":"4","last_reported":1706983679,"current_range_meters":22000,"station_id":"ce4bh0p2rcd13ifvqd80","pricing_plan_id":"free"},{"bike_id":"3875f210-0a8b-4887-a34e-2779642f9775","system_id":"levelo_inurba_marseille","lat":43.305994,"lon":5.393687,"is_reserved":false,"is_disabled":false,"rental_uris":{"android":"levelo://app?vid=3875f210-0a8b-4887-a34e-2779642f9775","ios":"levelo://app?vid=3875f210-0a8b-4887-a34e-2779642f9775"},"vehicle_type_id":"4","last_reported":1706983679,"current_range_meters":800,"station_id":"ce4bh0p2rcd13ifvqd80","pricing_plan_id":"free"},{"bike_id":"262263a4-510e-4fee-9a32-b4fcde577516","system_id":"levelo_inurba_marseille","lat":43.303002,"lon":5.392142,"is_reserved":false,"is_disabled":false,"rental_uris":{"android":"levelo://app?vid=262263a4-510e-4fee-9a32-b4fcde577516","ios":"levelo://app?vid=262263a4-510e-4fee-9a32-b4fcde577516"},"vehicle_type_id":"4","last_reported":1706983679,"current_range_meters":18000,"station_id":"ce4bgkh2rcd13ifvqbk0","pricing_plan_id":"free"},{"bike_id":"d2fde5b8-e1c3-4717-ac46-90a0493ae3ff","system_id":"levelo_inurba_marseille","lat":43.303002,"lon":5.392142,"is_reserved":false,"is_disabled":false,"rental_uris":{"android":"levelo://app?vid=d2fde5b8-e1c3-4717-ac46-90a0493ae3ff","ios":"levelo://app?vid=d2fde5b8-e1c3-4717-ac46-90a0493ae3ff"},"vehicle_type_id":"4","last_reported":1706983679,"current_range_meters":23200,"station_id":"ce4bgkh2rcd13ifvqbk0","pricing_plan_id":"free"},{"bike_id":"d236b600-9bd2-4572-bfb5-d8d2c00e1e01","system_id":"levelo_inurba_marseille","lat":43.303002,"lon":5.392142,"is_reserved":false,"is_disabled":false,"rental_uris":{"android":"levelo://app?vid=d236b600-9bd2-4572-bfb5-d8d2c00e1e01","ios":"levelo://app?vid=d236b600-9bd2-4572-bfb5-d8d2c00e1e01"},"vehicle_type_id":"4","last_reported":1706983679,"current_range_meters":0,"station_id":"ce4bgkh2rcd13ifvqbk0","pricing_plan_id":"free"},{"bike_id":"0f63aaa9-9957-4089-a7ed-8da8e68da86f","system_id":"levelo_inurba_marseille","lat":43.302992,"lon":5.392136,"is_reserved":false,"is_disabled":false,"rental_uris":{"android":"levelo://app?vid=0f63aaa9-9957-4089-a7ed-8da8e68da86f","ios":"levelo://app?vid=0f63aaa9-9957-4089-a7ed-8da8e68da86f"},"vehicle_type_id":"4","last_reported":1706983679,"current_range_meters":16400,"station_id":"ce4bgkh2rcd13ifvqbk0","pricing_plan_id":"free"},{"bike_id":"c34a7816-e09f-4741-a66e-1612edab31c2","system_id":"levelo_inurba_marseille","lat":43.302992,"lon":5.392136,"is_reserved":false,"is_disabled":false,"rental_uris":{"android":"levelo://app?vid=c34a7816-e09f-4741-a66e-1612edab31c2","ios":"levelo://app?vid=c34a7816-e09f-4741-a66e-1612edab31c2"},"vehicle_type_id":"4","last_reported":1706983679,"current_range_meters":10400,"station_id":"ce4bgkh2rcd13ifvqbk0","pricing_plan_id":"free"},{"bike_id":"d4e01ce7-7b09-4363-b935-897bbd051861","system_id":"levelo_inurba_marseille","lat":43.2936,"lon":5.37835,"is_reserved":false,"is_disabled":false,"rental_uris":{"android":"levelo://app?vid=d4e01ce7-7b09-4363-b935-897bbd051861","ios":"levelo://app?vid=d4e01ce7-7b09-4363-b935-897bbd051861"},"vehicle_type_id":"4","last_reported":1706983679,"current_range_meters":400,"station_id":"ce4bgjh2rcd13ifvqbf0","pricing_plan_id":"free"},{"bike_id":"2a214ef6-b5cc-4294-a025-fe3aa5321869","system_id":"levelo_inurba_marseille","lat":43.302992,"lon":5.392136,"is_reserved":false,"is_disabled":false,"rental_uris":{"android":"levelo://app?vid=2a214ef6-b5cc-4294-a025-fe3aa5321869","ios":"levelo://app?vid=2a214ef6-b5cc-4294-a025-fe3aa5321869"},"vehicle_type_id":"4","last_reported":1706983679,"current_range_meters":4800,"station_id":"ce4bgkh2rcd13ifvqbk0","pricing_plan_id":"free"},{"bike_id":"3ca1ccad-b215-4a4c-8cf9-b4e48a44cf0d","system_id":"levelo_inurba_marseille","lat":43.292311,"lon":5.360731,"is_reserved":false,"is_disabled":false,"rental_uris":{"android":"levelo://app?vid=3ca1ccad-b215-4a4c-8cf9-b4e48a44cf0d","ios":"levelo://app?vid=3ca1ccad-b215-4a4c-8cf9-b4e48a44cf0d"},"vehicle_type_id":"4","last_reported":1706983679,"current_range_meters":0,"station_id":"ce4bhbh2rcd13ifvqeqg","pricing_plan_id":"free"},{"bike_id":"58250c01-671b-47c5-b6bf-1865d88bac77","system_id":"levelo_inurba_marseille","lat":43.292289,"lon":5.360538,"is_reserved":false,"is_disabled":false,"rental_uris":{"android":"levelo://app?vid=58250c01-671b-47c5-b6bf-1865d88bac77","ios":"levelo://app?vid=58250c01-671b-47c5-b6bf-1865d88bac77"},"vehicle_type_id":"4","last_reported":1706983679,"current_range_meters":2800,"station_id":"","pricing_plan_id":"free"},{"bike_id":"7f2a82f6-2ee3-4f64-9fb7-489a34528e17","system_id":"levelo_inurba_marseille","lat":43.300852,"lon":5.390859,"is_reserved":false,"is_disabled":false,"rental_uris":{"android":"levelo://app?vid=7f2a82f6-2ee3-4f64-9fb7-489a34528e17","ios":"levelo://app?vid=7f2a82f6-2ee3-4f64-9fb7-489a34528e17"},"vehicle_type_id":"4","last_reported":1706983679,"current_range_meters":31200,"station_id":"ce4bh192rcd13ifvqdb0","pricing_plan_id":"free"},{"bike_id":"dd2d7ff2-1ea4-415d-9f77-2414345cfcd3","system_id":"levelo_inurba_marseille","lat":43.292311,"lon":5.360731,"is_reserved":false,"is_disabled":false,"rental_uris":{"android":"levelo://app?vid=dd2d7ff2-1ea4-415d-9f77-2414345cfcd3","ios":"levelo://app?vid=dd2d7ff2-1ea4-415d-9f77-2414345cfcd3"},"vehicle_type_id":"4","last_reported":1706983679,"current_range_meters":16400,"station_id":"ce4bhbh2rcd13ifvqeqg","pricing_plan_id":"free"},{"bike_id":"c4b368b0-f3b4-4acc-a2c4-d6bef6589c80","system_id":"levelo_inurba_marseille","lat":43.30091,"lon":5.39078,"is_reserved":false,"is_disabled":false,"rental_uris":{"android":"levelo://app?vid=c4b368b0-f3b4-4acc-a2c4-d6bef6589c80","ios":"levelo://app?vid=c4b368b0-f3b4-4acc-a2c4-d6bef6589c80"},"vehicle_type_id":"4","last_reported":1706983679,"current_range_meters":24000,"station_id":"ce4bh192rcd13ifvqdb0","pricing_plan_id":"free"},{"bike_id":"95e75154-bb11-4fe7-a421-5a0718287c4b","system_id":"levelo_inurba_marseille","lat":43.293009,"lon":5.374584,"is_reserved":false,"is_disabled":false,"rental_uris":{"android":"levelo://app?vid=95e75154-bb11-4fe7-a421-5a0718287c4b","ios":"levelo://app?vid=95e75154-bb11-4fe7-a421-5a0718287c4b"},"vehicle_type_id":"4","last_reported":1706983679,"current_range_meters":14800,"station_id":"ce4bgi12rcd13ifvqb70","pricing_plan_id":"free"},{"bike_id":"74f2d920-ccf9-4c3b-9cd7-57a24e774103","system_id":"levelo_inurba_marseille","lat":43.293009,"lon":5.374584,"is_reserved":false,"is_disabled":false,"rental_uris":{"android":"levelo://app?vid=74f2d920-ccf9-4c3b-9cd7-57a24e774103","ios":"levelo://app?vid=74f2d920-ccf9-4c3b-9cd7-57a24e774103"},"vehicle_type_id":"4","last_reported":1706983679,"current_range_meters":17600,"station_id":"ce4bgi12rcd13ifvqb70","pricing_plan_id":"free"},{"bike_id":"f20ebac8-851c-4e23-93e7-e3113c7f799a","system_id":"levelo_inurba_marseille","lat":43.293009,"lon":5.374584,"is_reserved":false,"is_disabled":false,"rental_uris":{"android":"levelo://app?vid=f20ebac8-851c-4e23-93e7-e3113c7f799a","ios":"levelo://app?vid=f20ebac8-851c-4e23-93e7-e3113c7f799a"},"vehicle_type_id":"4","last_reported":1706983679,"current_range_meters":12000,"station_id":"ce4bgi12rcd13ifvqb70","pricing_plan_id":"free"},{"bike_id":"ff4e8a18-49c8-463e-bc63-aea51161f8fa","system_id":"levelo_inurba_marseille","lat":43.291671,"lon":5.371575,"is_reserved":false,"is_disabled":false,"rental_uris":{"android":"levelo://app?vid=ff4e8a18-49c8-463e-bc63-aea51161f8fa","ios":"levelo://app?vid=ff4e8a18-49c8-463e-bc63-aea51161f8fa"},"vehicle_type_id":"4","last_reported":1706983679,"current_range_meters":3600,"station_id":"ce4bha92rcd13ifvqeh0","pricing_plan_id":"free"},{"bike_id":"c95c7525-e7ef-47dc-b347-767af209cfaf","system_id":"levelo_inurba_marseille","lat":43.298764,"lon":5.388973,"is_reserved":false,"is_disabled":false,"rental_uris":{"android":"levelo://app?vid=c95c7525-e7ef-47dc-b347-767af209cfaf","ios":"levelo://app?vid=c95c7525-e7ef-47dc-b347-767af209cfaf"},"vehicle_type_id":"4","last_reported":1706983679,"current_range_meters":18800,"station_id":"ce4bh392rcd13ifvqdl0","pricing_plan_id":"free"},{"bike_id":"90190fbd-f073-40ac-aeec-1c5257224979","system_id":"levelo_inurba_marseille","lat":43.298764,"lon":5.388973,"is_reserved":false,"is_disabled":false,"rental_uris":{"android":"levelo://app?vid=90190fbd-f073-40ac-aeec-1c5257224979","ios":"levelo://app?vid=90190fbd-f073-40ac-aeec-1c5257224979"},"vehicle_type_id":"4","last_reported":1706983679,"current_range_meters":800,"station_id":"ce4bh392rcd13ifvqdl0","pricing_plan_id":"free"},{"bike_id":"46092edd-fc54-4aad-a897-cedb912f2095","system_id":"levelo_inurba_marseille","lat":43.298764,"lon":5.388973,"is_reserved":false,"is_disabled":false,"rental_uris":{"android":"levelo://app?vid=46092edd-fc54-4aad-a897-cedb912f2095","ios":"levelo://app?vid=46092edd-fc54-4aad-a897-cedb912f2095"},"vehicle_type_id":"4","last_reported":1706983679,"current_range_meters":8400,"station_id":"ce4bh392rcd13ifvqdl0","pricing_plan_id":"free"},{"bike_id":"9aaaede4-6fe0-4aa3-ba14-3c637039369c","system_id":"levelo_inurba_marseille","lat":43.298764,"lon":5.388973,"is_reserved":false,"is_disabled":false,"rental_uris":{"android":"levelo://app?vid=9aaaede4-6fe0-4aa3-ba14-3c637039369c","ios":"levelo://app?vid=9aaaede4-6fe0-4aa3-ba14-3c637039369c"},"vehicle_type_id":"4","last_reported":1706983679,"current_range_meters":14800,"station_id":"ce4bh392rcd13ifvqdl0","pricing_plan_id":"free"},{"bike_id":"385cce40-55a3-43b8-a035-9dc360438cdd","system_id":"levelo_inurba_marseille","lat":43.308865,"lon":5.396278,"is_reserved":false,"is_disabled":false,"rental_uris":{"android":"levelo://app?vid=385cce40-55a3-43b8-a035-9dc360438cdd","ios":"levelo://app?vid=385cce40-55a3-43b8-a035-9dc360438cdd"},"vehicle_type_id":"4","last_reported":1706983679,"current_range_meters":0,"station_id":"ce4bh012rcd13ifvqcv0","pricing_plan_id":"free"},{"bike_id":"8fb51ee4-cd48-45ed-914a-94e780c979ac","system_id":"levelo_inurba_marseille","lat":43.29199,"lon":5.35806,"is_reserved":false,"is_disabled":false,"rental_uris":{"android":"levelo://app?vid=8fb51ee4-cd48-45ed-914a-94e780c979ac","ios":"levelo://app?vid=8fb51ee4-cd48-45ed-914a-94e780c979ac"},"vehicle_type_id":"4","last_reported":1706983679,"current_range_meters":0,"station_id":"ce4bhb12rcd13ifvqel0","pricing_plan_id":"free"},{"bike_id":"5046fb4d-d23f-4f1a-81cf-3c2eec2a0961","system_id":"levelo_inurba_marseille","lat":43.291994,"lon":5.357886,"is_reserved":false,"is_disabled":false,"rental_uris":{"android":"levelo://app?vid=5046fb4d-d23f-4f1a-81cf-3c2eec2a0961","ios":"levelo://app?vid=5046fb4d-d23f-4f1a-81cf-3c2eec2a0961"},"vehicle_type_id":"4","last_reported":1706983679,"current_range_meters":0,"station_id":"ce4bhb12rcd13ifvqel0","pricing_plan_id":"free"},{"bike_id":"0399f318-890a-4fb9-865d-1ac1827e6750","system_id":"levelo_inurba_marseille","lat":43.309038,"lon":5.396546,"is_reserved":false,"is_disabled":false,"rental_uris":{"android":"levelo://app?vid=0399f318-890a-4fb9-865d-1ac1827e6750","ios":"levelo://app?vid=0399f318-890a-4fb9-865d-1ac1827e6750"},"vehicle_type_id":"4","last_reported":1706983679,"current_range_meters":4400,"station_id":"ce4bh012rcd13ifvqcv0","pricing_plan_id":"free"},{"bike_id":"24974b43-bf43-4077-9841-4bd8d3ebc9cd","system_id":"levelo_inurba_marseille","lat":43.309038,"lon":5.396546,"is_reserved":false,"is_disabled":false,"rental_uris":{"android":"levelo://app?vid=24974b43-bf43-4077-9841-4bd8d3ebc9cd","ios":"levelo://app?vid=24974b43-bf43-4077-9841-4bd8d3ebc9cd"},"vehicle_type_id":"4","last_reported":1706983679,"current_range_meters":2800,"station_id":"ce4bh012rcd13ifvqcv0","pricing_plan_id":"free"},{"bike_id":"e9b8a239-eb58-46b1-af5b-07b03f0806aa","system_id":"levelo_inurba_marseille","lat":43.29529,"lon":5.385581,"is_reserved":false,"is_disabled":false,"rental_uris":{"android":"levelo://app?vid=e9b8a239-eb58-46b1-af5b-07b03f0806aa","ios":"levelo://app?vid=e9b8a239-eb58-46b1-af5b-07b03f0806aa"},"vehicle_type_id":"4","last_reported":1706983679,"current_range_meters":8400,"station_id":"ce4bgih2rcd13ifvqba0","pricing_plan_id":"free"},{"bike_id":"5c632c37-ae1d-40b9-9546-b4352a699e7d","system_id":"levelo_inurba_marseille","lat":43.290779,"lon":5.371482,"is_reserved":false,"is_disabled":false,"rental_uris":{"android":"levelo://app?vid=5c632c37-ae1d-40b9-9546-b4352a699e7d","ios":"levelo://app?vid=5c632c37-ae1d-40b9-9546-b4352a699e7d"},"vehicle_type_id":"4","last_reported":1706983679,"current_range_meters":12000,"station_id":"ce4bh5p2rcd13ifvqe4g","pricing_plan_id":"free"},{"bike_id":"5d19aef8-db30-4bc8-b125-100db3745c41","system_id":"levelo_inurba_marseille","lat":43.28856,"lon":5.358371,"is_reserved":false,"is_disabled":false,"rental_uris":{"android":"levelo://app?vid=5d19aef8-db30-4bc8-b125-100db3745c41","ios":"levelo://app?vid=5d19aef8-db30-4bc8-b125-100db3745c41"},"vehicle_type_id":"4","last_reported":1706983679,"current_range_meters":0,"station_id":"ce4bhb12rcd13ifvqem0","pricing_plan_id":"free"},{"bike_id":"ab065dbe-1731-430e-9711-19ccceaf0244","system_id":"levelo_inurba_marseille","lat":43.30223,"lon":5.39469,"is_reserved":false,"is_disabled":false,"rental_uris":{"android":"levelo://app?vid=ab065dbe-1731-430e-9711-19ccceaf0244","ios":"levelo://app?vid=ab065dbe-1731-430e-9711-19ccceaf0244"},"vehicle_type_id":"4","last_reported":1706983679,"current_range_meters":3600,"station_id":"ce4bh0p2rcd13ifvqd70","pricing_plan_id":"free"},{"bike_id":"bdfae537-769f-48b5-82f3-d2a75014edaa","system_id":"levelo_inurba_marseille","lat":43.302008,"lon":5.394694,"is_reserved":false,"is_disabled":false,"rental_uris":{"android":"levelo://app?vid=bdfae537-769f-48b5-82f3-d2a75014edaa","ios":"levelo://app?vid=bdfae537-769f-48b5-82f3-d2a75014edaa"},"vehicle_type_id":"4","last_reported":1706983679,"current_range_meters":21600,"station_id":"ce4bh0p2rcd13ifvqd70","pricing_plan_id":"free"},{"bike_id":"259ff178-c2f1-4c6c-9256-8ab30049551b","system_id":"levelo_inurba_marseille","lat":43.302008,"lon":5.394694,"is_reserved":false,"is_disabled":false,"rental_uris":{"android":"levelo://app?vid=259ff178-c2f1-4c6c-9256-8ab30049551b","ios":"levelo://app?vid=259ff178-c2f1-4c6c-9256-8ab30049551b"},"vehicle_type_id":"4","last_reported":1706983679,"current_range_meters":22400,"station_id":"ce4bh0p2rcd13ifvqd70","pricing_plan_id":"free"},{"bike_id":"2b26c034-7ecc-4263-96ce-8503f944ede1","system_id":"levelo_inurba_marseille","lat":43.30219,"lon":5.39475,"is_reserved":false,"is_disabled":false,"rental_uris":{"android":"levelo://app?vid=2b26c034-7ecc-4263-96ce-8503f944ede1","ios":"levelo://app?vid=2b26c034-7ecc-4263-96ce-8503f944ede1"},"vehicle_type_id":"4","last_reported":1706983679,"current_range_meters":0,"station_id":"ce4bh0p2rcd13ifvqd70","pricing_plan_id":"free"},{"bike_id":"90650a10-c55d-4aef-968a-aef3fed2afe5","system_id":"levelo_inurba_marseille","lat":43.30212,"lon":5.3947,"is_reserved":false,"is_disabled":false,"rental_uris":{"android":"levelo://app?vid=90650a10-c55d-4aef-968a-aef3fed2afe5","ios":"levelo://app?vid=90650a10-c55d-4aef-968a-aef3fed2afe5"},"vehicle_type_id":"4","last_reported":1706983679,"current_range_meters":19600,"station_id":"ce4bh0p2rcd13ifvqd70","pricing_plan_id":"free"},{"bike_id":"ee872b15-c1a8-4ad1-95fe-7aa860c74536","system_id":"levelo_inurba_marseille","lat":43.30215,"lon":5.39479,"is_reserved":false,"is_disabled":false,"rental_uris":{"android":"levelo://app?vid=ee872b15-c1a8-4ad1-95fe-7aa860c74536","ios":"levelo://app?vid=ee872b15-c1a8-4ad1-95fe-7aa860c74536"},"vehicle_type_id":"4","last_reported":1706983679,"current_range_meters":8400,"station_id":"ce4bh0p2rcd13ifvqd70","pricing_plan_id":"free"},{"bike_id":"accef661-0fc8-46f5-8498-194658a1b481","system_id":"levelo_inurba_marseille","lat":43.302008,"lon":5.394694,"is_reserved":false,"is_disabled":false,"rental_uris":{"android":"levelo://app?vid=accef661-0fc8-46f5-8498-194658a1b481","ios":"levelo://app?vid=accef661-0fc8-46f5-8498-194658a1b481"},"vehicle_type_id":"4","last_reported":1706983679,"current_range_meters":3600,"station_id":"ce4bh0p2rcd13ifvqd70","pricing_plan_id":"free"},{"bike_id":"7c755874-04f4-49a7-881c-3dccfea2f0df","system_id":"levelo_inurba_marseille","lat":43.290441,"lon":5.359123,"is_reserved":false,"is_disabled":false,"rental_uris":{"android":"levelo://app?vid=7c755874-04f4-49a7-881c-3dccfea2f0df","ios":"levelo://app?vid=7c755874-04f4-49a7-881c-3dccfea2f0df"},"vehicle_type_id":"4","last_reported":1706983679,"current_range_meters":1600,"station_id":"","pricing_plan_id":"free"},{"bike_id":"3e417840-8742-48e9-a41f-7b41e1918659","system_id":"levelo_inurba_marseille","lat":43.29412,"lon":5.385939,"is_reserved":false,"is_disabled":false,"rental_uris":{"android":"levelo://app?vid=3e417840-8742-48e9-a41f-7b41e1918659","ios":"levelo://app?vid=3e417840-8742-48e9-a41f-7b41e1918659"},"vehicle_type_id":"4","last_reported":1706983679,"current_range_meters":0,"station_id":"ce4bh2h2rcd13ifvqdh0","pricing_plan_id":"free"},{"bike_id":"d0599625-86eb-48fe-a518-7f48fa3a09bc","system_id":"levelo_inurba_marseille","lat":43.290319,"lon":5.375732,"is_reserved":false,"is_disabled":false,"rental_uris":{"android":"levelo://app?vid=d0599625-86eb-48fe-a518-7f48fa3a09bc","ios":"levelo://app?vid=d0599625-86eb-48fe-a518-7f48fa3a09bc"},"vehicle_type_id":"4","last_reported":1706983679,"current_range_meters":10400,"station_id":"ce4bh692rcd13ifvqe90","pricing_plan_id":"free"},{"bike_id":"94299c41-0862-4e1a-8b0b-f467b52493a9","system_id":"levelo_inurba_marseille","lat":43.294162,"lon":5.386292,"is_reserved":false,"is_disabled":false,"rental_uris":{"android":"levelo://app?vid=94299c41-0862-4e1a-8b0b-f467b52493a9","ios":"levelo://app?vid=94299c41-0862-4e1a-8b0b-f467b52493a9"},"vehicle_type_id":"4","last_reported":1706983679,"current_range_meters":20800,"station_id":"ce4bh2h2rcd13ifvqdh0","pricing_plan_id":"free"},{"bike_id":"7f194f35-2108-475b-8525-c343de0a5cc0","system_id":"levelo_inurba_marseille","lat":43.29421,"lon":5.38628,"is_reserved":false,"is_disabled":false,"rental_uris":{"android":"levelo://app?vid=7f194f35-2108-475b-8525-c343de0a5cc0","ios":"levelo://app?vid=7f194f35-2108-475b-8525-c343de0a5cc0"},"vehicle_type_id":"4","last_reported":1706983679,"current_range_meters":17200,"station_id":"ce4bh2h2rcd13ifvqdh0","pricing_plan_id":"free"},{"bike_id":"c1a06ca6-3cfe-4574-9ea0-cd37246cf90d","system_id":"levelo_inurba_marseille","lat":43.29418,"lon":5.38623,"is_reserved":false,"is_disabled":false,"rental_uris":{"android":"levelo://app?vid=c1a06ca6-3cfe-4574-9ea0-cd37246cf90d","ios":"levelo://app?vid=c1a06ca6-3cfe-4574-9ea0-cd37246cf90d"},"vehicle_type_id":"4","last_reported":1706983679,"current_range_meters":0,"station_id":"ce4bh2h2rcd13ifvqdh0","pricing_plan_id":"free"},{"bike_id":"022c29b1-5330-473b-9939-0bf3c3cdad21","system_id":"levelo_inurba_marseille","lat":43.28941,"lon":5.36642,"is_reserved":false,"is_disabled":false,"rental_uris":{"android":"levelo://app?vid=022c29b1-5330-473b-9939-0bf3c3cdad21","ios":"levelo://app?vid=022c29b1-5330-473b-9939-0bf3c3cdad21"},"vehicle_type_id":"4","last_reported":1706983679,"current_range_meters":0,"station_id":"ce4bhap2rcd13ifvqek0","pricing_plan_id":"free"},{"bike_id":"655771b8-8233-42b1-b36a-f40e7fb3963e","system_id":"levelo_inurba_marseille","lat":43.289184,"lon":5.366408,"is_reserved":false,"is_disabled":false,"rental_uris":{"android":"levelo://app?vid=655771b8-8233-42b1-b36a-f40e7fb3963e","ios":"levelo://app?vid=655771b8-8233-42b1-b36a-f40e7fb3963e"},"vehicle_type_id":"4","last_reported":1706983679,"current_range_meters":4800,"station_id":"ce4bhap2rcd13ifvqek0","pricing_plan_id":"free"},{"bike_id":"3c650f0f-bd9d-49ac-bf4f-0118c5d1dba4","system_id":"levelo_inurba_marseille","lat":43.289184,"lon":5.366408,"is_reserved":false,"is_disabled":false,"rental_uris":{"android":"levelo://app?vid=3c650f0f-bd9d-49ac-bf4f-0118c5d1dba4","ios":"levelo://app?vid=3c650f0f-bd9d-49ac-bf4f-0118c5d1dba4"},"vehicle_type_id":"4","last_reported":1706983679,"current_range_meters":14400,"station_id":"ce4bhap2rcd13ifvqek0","pricing_plan_id":"free"},{"bike_id":"3b7e9a97-286f-4338-a4a2-62e52bd54b48","system_id":"levelo_inurba_marseille","lat":43.289468,"lon":5.363719,"is_reserved":false,"is_disabled":false,"rental_uris":{"android":"levelo://app?vid=3b7e9a97-286f-4338-a4a2-62e52bd54b48","ios":"levelo://app?vid=3b7e9a97-286f-4338-a4a2-62e52bd54b48"},"vehicle_type_id":"4","last_reported":1706983679,"current_range_meters":24000,"station_id":"ce4bhc92rcd13ifvqetg","pricing_plan_id":"free"},{"bike_id":"90615a0e-770e-4983-8ffd-cacdd2df2ec2","system_id":"levelo_inurba_marseille","lat":43.289468,"lon":5.363719,"is_reserved":false,"is_disabled":false,"rental_uris":{"android":"levelo://app?vid=90615a0e-770e-4983-8ffd-cacdd2df2ec2","ios":"levelo://app?vid=90615a0e-770e-4983-8ffd-cacdd2df2ec2"},"vehicle_type_id":"4","last_reported":1706983679,"current_range_meters":0,"station_id":"ce4bhc92rcd13ifvqetg","pricing_plan_id":"free"},{"bike_id":"954f85cf-6591-4540-b493-92c1f830e4fe","system_id":"levelo_inurba_marseille","lat":43.29266,"lon":5.38426,"is_reserved":false,"is_disabled":false,"rental_uris":{"android":"levelo://app?vid=954f85cf-6591-4540-b493-92c1f830e4fe","ios":"levelo://app?vid=954f85cf-6591-4540-b493-92c1f830e4fe"},"vehicle_type_id":"4","last_reported":1706983679,"current_range_meters":4800,"station_id":"ce4bh692rcd13ifvqea0","pricing_plan_id":"free"},{"bike_id":"bc502e62-2d7d-4c4b-a3a9-36d44edb3f67","system_id":"levelo_inurba_marseille","lat":43.292644,"lon":5.384257,"is_reserved":false,"is_disabled":false,"rental_uris":{"android":"levelo://app?vid=bc502e62-2d7d-4c4b-a3a9-36d44edb3f67","ios":"levelo://app?vid=bc502e62-2d7d-4c4b-a3a9-36d44edb3f67"},"vehicle_type_id":"4","last_reported":1706983679,"current_range_meters":14000,"station_id":"ce4bh692rcd13ifvqea0","pricing_plan_id":"free"},{"bike_id":"f17fa028-3aa5-48e3-8093-73829e10fabd","system_id":"levelo_inurba_marseille","lat":43.292611,"lon":5.38428,"is_reserved":false,"is_disabled":false,"rental_uris":{"android":"levelo://app?vid=f17fa028-3aa5-48e3-8093-73829e10fabd","ios":"levelo://app?vid=f17fa028-3aa5-48e3-8093-73829e10fabd"},"vehicle_type_id":"4","last_reported":1706983679,"current_range_meters":14000,"station_id":"ce4bh692rcd13ifvqea0","pricing_plan_id":"free"},{"bike_id":"d9bf2a45-4eea-46cb-ba90-89d977e571aa","system_id":"levelo_inurba_marseille","lat":43.292642,"lon":5.384254,"is_reserved":false,"is_disabled":false,"rental_uris":{"android":"levelo://app?vid=d9bf2a45-4eea-46cb-ba90-89d977e571aa","ios":"levelo://app?vid=d9bf2a45-4eea-46cb-ba90-89d977e571aa"},"vehicle_type_id":"4","last_reported":1706983679,"current_range_meters":10400,"station_id":"ce4bh692rcd13ifvqea0","pricing_plan_id":"free"},{"bike_id":"d2a9d9be-9f41-4714-b4eb-03d44fda09ac","system_id":"levelo_inurba_marseille","lat":43.292644,"lon":5.384257,"is_reserved":false,"is_disabled":false,"rental_uris":{"android":"levelo://app?vid=d2a9d9be-9f41-4714-b4eb-03d44fda09ac","ios":"levelo://app?vid=d2a9d9be-9f41-4714-b4eb-03d44fda09ac"},"vehicle_type_id":"4","last_reported":1706983679,"current_range_meters":18400,"station_id":"ce4bh692rcd13ifvqea0","pricing_plan_id":"free"},{"bike_id":"0d7ac06f-87bd-4dc9-92a1-01574d6eeba3","system_id":"levelo_inurba_marseille","lat":43.292644,"lon":5.384257,"is_reserved":false,"is_disabled":false,"rental_uris":{"android":"levelo://app?vid=0d7ac06f-87bd-4dc9-92a1-01574d6eeba3","ios":"levelo://app?vid=0d7ac06f-87bd-4dc9-92a1-01574d6eeba3"},"vehicle_type_id":"4","last_reported":1706983679,"current_range_meters":3600,"station_id":"ce4bh692rcd13ifvqea0","pricing_plan_id":"free"},{"bike_id":"d9217267-b438-4341-ade9-413e6896d64f","system_id":"levelo_inurba_marseille","lat":43.292644,"lon":5.384257,"is_reserved":false,"is_disabled":false,"rental_uris":{"android":"levelo://app?vid=d9217267-b438-4341-ade9-413e6896d64f","ios":"levelo://app?vid=d9217267-b438-4341-ade9-413e6896d64f"},"vehicle_type_id":"4","last_reported":1706983679,"current_range_meters":4400,"station_id":"ce4bh692rcd13ifvqea0","pricing_plan_id":"free"},{"bike_id":"caf5e1da-8b93-4dbd-aba9-1bc9ba4e3526","system_id":"levelo_inurba_marseille","lat":43.292644,"lon":5.384257,"is_reserved":false,"is_disabled":false,"rental_uris":{"android":"levelo://app?vid=caf5e1da-8b93-4dbd-aba9-1bc9ba4e3526","ios":"levelo://app?vid=caf5e1da-8b93-4dbd-aba9-1bc9ba4e3526"},"vehicle_type_id":"4","last_reported":1706983679,"current_range_meters":5200,"station_id":"ce4bh692rcd13ifvqea0","pricing_plan_id":"free"},{"bike_id":"78aaa301-1107-49e4-9ae1-7eaa5bec71c1","system_id":"levelo_inurba_marseille","lat":43.304296,"lon":5.397513,"is_reserved":false,"is_disabled":false,"rental_uris":{"android":"levelo://app?vid=78aaa301-1107-49e4-9ae1-7eaa5bec71c1","ios":"levelo://app?vid=78aaa301-1107-49e4-9ae1-7eaa5bec71c1"},"vehicle_type_id":"4","last_reported":1706983679,"current_range_meters":22800,"station_id":"ce4bh092rcd13ifvqd20","pricing_plan_id":"free"},{"bike_id":"5f7295a9-5b2d-478a-b135-149bed2b370b","system_id":"levelo_inurba_marseille","lat":43.304296,"lon":5.397513,"is_reserved":false,"is_disabled":false,"rental_uris":{"android":"levelo://app?vid=5f7295a9-5b2d-478a-b135-149bed2b370b","ios":"levelo://app?vid=5f7295a9-5b2d-478a-b135-149bed2b370b"},"vehicle_type_id":"4","last_reported":1706983679,"current_range_meters":18800,"station_id":"ce4bh092rcd13ifvqd20","pricing_plan_id":"free"},{"bike_id":"19b5fc13-f758-43e9-8f2a-547b026c10bb","system_id":"levelo_inurba_marseille","lat":43.30154,"lon":5.39609,"is_reserved":false,"is_disabled":false,"rental_uris":{"android":"levelo://app?vid=19b5fc13-f758-43e9-8f2a-547b026c10bb","ios":"levelo://app?vid=19b5fc13-f758-43e9-8f2a-547b026c10bb"},"vehicle_type_id":"4","last_reported":1706983679,"current_range_meters":21200,"station_id":"","pricing_plan_id":"free"},{"bike_id":"a8d1ab61-9fc9-49d7-b152-8e24720478a1","system_id":"levelo_inurba_marseille","lat":43.290937,"lon":5.38131,"is_reserved":false,"is_disabled":false,"rental_uris":{"android":"levelo://app?vid=a8d1ab61-9fc9-49d7-b152-8e24720478a1","ios":"levelo://app?vid=a8d1ab61-9fc9-49d7-b152-8e24720478a1"},"vehicle_type_id":"4","last_reported":1706983679,"current_range_meters":400,"station_id":"ce4bh512rcd13ifvqe2g","pricing_plan_id":"free"},{"bike_id":"4b6caff7-0153-4e68-a4c7-4979428d6a43","system_id":"levelo_inurba_marseille","lat":43.295169,"lon":5.390426,"is_reserved":false,"is_disabled":false,"rental_uris":{"android":"levelo://app?vid=4b6caff7-0153-4e68-a4c7-4979428d6a43","ios":"levelo://app?vid=4b6caff7-0153-4e68-a4c7-4979428d6a43"},"vehicle_type_id":"4","last_reported":1706983679,"current_range_meters":19200,"station_id":"ce4bh3p2rcd13ifvqdp0","pricing_plan_id":"free"},{"bike_id":"2f1662fb-10d3-439b-b0c1-9d3fd7556966","system_id":"levelo_inurba_marseille","lat":43.297815,"lon":5.393548,"is_reserved":false,"is_disabled":false,"rental_uris":{"android":"levelo://app?vid=2f1662fb-10d3-439b-b0c1-9d3fd7556966","ios":"levelo://app?vid=2f1662fb-10d3-439b-b0c1-9d3fd7556966"},"vehicle_type_id":"4","last_reported":1706983679,"current_range_meters":26400,"station_id":"chh1huq6cuj3fo74tm60","pricing_plan_id":"free"},{"bike_id":"7589eaa0-ac88-49a2-a600-a82711acbf3c","system_id":"levelo_inurba_marseille","lat":43.295169,"lon":5.390426,"is_reserved":false,"is_disabled":false,"rental_uris":{"android":"levelo://app?vid=7589eaa0-ac88-49a2-a600-a82711acbf3c","ios":"levelo://app?vid=7589eaa0-ac88-49a2-a600-a82711acbf3c"},"vehicle_type_id":"4","last_reported":1706983679,"current_range_meters":9200,"station_id":"ce4bh3p2rcd13ifvqdp0","pricing_plan_id":"free"},{"bike_id":"3384e137-d6d6-4291-9c58-df10ad6a1f5e","system_id":"levelo_inurba_marseille","lat":43.295169,"lon":5.390426,"is_reserved":false,"is_disabled":false,"rental_uris":{"android":"levelo://app?vid=3384e137-d6d6-4291-9c58-df10ad6a1f5e","ios":"levelo://app?vid=3384e137-d6d6-4291-9c58-df10ad6a1f5e"},"vehicle_type_id":"4","last_reported":1706983679,"current_range_meters":0,"station_id":"ce4bh3p2rcd13ifvqdp0","pricing_plan_id":"free"},{"bike_id":"b2ad9a2f-b3b9-41e6-a4dc-0b0347eec2c5","system_id":"levelo_inurba_marseille","lat":43.330442,"lon":5.389148,"is_reserved":false,"is_disabled":false,"rental_uris":{"android":"levelo://app?vid=b2ad9a2f-b3b9-41e6-a4dc-0b0347eec2c5","ios":"levelo://app?vid=b2ad9a2f-b3b9-41e6-a4dc-0b0347eec2c5"},"vehicle_type_id":"4","last_reported":1706983679,"current_range_meters":0,"station_id":"ce4bhr92rcd13ifvqhrg","pricing_plan_id":"free"},{"bike_id":"2d7e0abf-2e7b-42f7-b60c-6c01a7c23501","system_id":"levelo_inurba_marseille","lat":43.289743,"lon":5.378304,"is_reserved":false,"is_disabled":false,"rental_uris":{"android":"levelo://app?vid=2d7e0abf-2e7b-42f7-b60c-6c01a7c23501","ios":"levelo://app?vid=2d7e0abf-2e7b-42f7-b60c-6c01a7c23501"},"vehicle_type_id":"4","last_reported":1706983679,"current_range_meters":0,"station_id":"ce4bh9p2rcd13ifvqed0","pricing_plan_id":"free"},{"bike_id":"278afd66-2080-4dd0-81ea-ce96c44a3710","system_id":"levelo_inurba_marseille","lat":43.295169,"lon":5.390426,"is_reserved":false,"is_disabled":false,"rental_uris":{"android":"levelo://app?vid=278afd66-2080-4dd0-81ea-ce96c44a3710","ios":"levelo://app?vid=278afd66-2080-4dd0-81ea-ce96c44a3710"},"vehicle_type_id":"4","last_reported":1706983679,"current_range_meters":5600,"station_id":"ce4bh3p2rcd13ifvqdp0","pricing_plan_id":"free"},{"bike_id":"399ee505-1485-4101-8f50-0e3ada67359f","system_id":"levelo_inurba_marseille","lat":43.295169,"lon":5.390426,"is_reserved":false,"is_disabled":false,"rental_uris":{"android":"levelo://app?vid=399ee505-1485-4101-8f50-0e3ada67359f","ios":"levelo://app?vid=399ee505-1485-4101-8f50-0e3ada67359f"},"vehicle_type_id":"4","last_reported":1706983679,"current_range_meters":13600,"station_id":"ce4bh3p2rcd13ifvqdp0","pricing_plan_id":"free"},{"bike_id":"e3517781-f0ab-4fe7-a3cd-937fcf38462b","system_id":"levelo_inurba_marseille","lat":43.288522,"lon":5.358494,"is_reserved":false,"is_disabled":false,"rental_uris":{"android":"levelo://app?vid=e3517781-f0ab-4fe7-a3cd-937fcf38462b","ios":"levelo://app?vid=e3517781-f0ab-4fe7-a3cd-937fcf38462b"},"vehicle_type_id":"4","last_reported":1706983679,"current_range_meters":0,"station_id":"ce4bhb12rcd13ifvqem0","pricing_plan_id":"free"},{"bike_id":"c6776248-4950-445f-9307-ae6dd6fb03af","system_id":"levelo_inurba_marseille","lat":43.33738,"lon":5.37457,"is_reserved":false,"is_disabled":false,"rental_uris":{"android":"levelo://app?vid=c6776248-4950-445f-9307-ae6dd6fb03af","ios":"levelo://app?vid=c6776248-4950-445f-9307-ae6dd6fb03af"},"vehicle_type_id":"4","last_reported":1706983679,"current_range_meters":28000,"station_id":"","pricing_plan_id":"free"},{"bike_id":"e25f25f1-fcb8-4c09-a7d9-3188e968d90e","system_id":"levelo_inurba_marseille","lat":43.309371,"lon":5.401449,"is_reserved":false,"is_disabled":false,"rental_uris":{"android":"levelo://app?vid=e25f25f1-fcb8-4c09-a7d9-3188e968d90e","ios":"levelo://app?vid=e25f25f1-fcb8-4c09-a7d9-3188e968d90e"},"vehicle_type_id":"4","last_reported":1706983679,"current_range_meters":17200,"station_id":"ce4bgvp2rcd13ifvqct0","pricing_plan_id":"free"},{"bike_id":"8dfefde7-bc00-42b5-8463-ed431d97716e","system_id":"levelo_inurba_marseille","lat":43.312609,"lon":5.401662,"is_reserved":false,"is_disabled":false,"rental_uris":{"android":"levelo://app?vid=8dfefde7-bc00-42b5-8463-ed431d97716e","ios":"levelo://app?vid=8dfefde7-bc00-42b5-8463-ed431d97716e"},"vehicle_type_id":"4","last_reported":1706983679,"current_range_meters":1600,"station_id":"ce4bh092rcd13ifvqd30","pricing_plan_id":"free"},{"bike_id":"a340338c-0ff4-44c6-8850-b9ff06dc00ba","system_id":"levelo_inurba_marseille","lat":43.3065,"lon":5.40097,"is_reserved":false,"is_disabled":false,"rental_uris":{"android":"levelo://app?vid=a340338c-0ff4-44c6-8850-b9ff06dc00ba","ios":"levelo://app?vid=a340338c-0ff4-44c6-8850-b9ff06dc00ba"},"vehicle_type_id":"4","last_reported":1706983679,"current_range_meters":22400,"station_id":"ce4bh112rcd13ifvqda0","pricing_plan_id":"free"},{"bike_id":"769d655e-b58c-40b2-a150-02481177d47d","system_id":"levelo_inurba_marseille","lat":43.301117,"lon":5.398795,"is_reserved":false,"is_disabled":false,"rental_uris":{"android":"levelo://app?vid=769d655e-b58c-40b2-a150-02481177d47d","ios":"levelo://app?vid=769d655e-b58c-40b2-a150-02481177d47d"},"vehicle_type_id":"4","last_reported":1706983679,"current_range_meters":26400,"station_id":"ce4bh0h2rcd13ifvqd40","pricing_plan_id":"free"},{"bike_id":"b5c8cd35-34dd-45ee-b3e7-3050ef3cbe6a","system_id":"levelo_inurba_marseille","lat":43.337673,"lon":5.374918,"is_reserved":false,"is_disabled":false,"rental_uris":{"android":"levelo://app?vid=b5c8cd35-34dd-45ee-b3e7-3050ef3cbe6a","ios":"levelo://app?vid=b5c8cd35-34dd-45ee-b3e7-3050ef3cbe6a"},"vehicle_type_id":"4","last_reported":1706983679,"current_range_meters":15200,"station_id":"","pricing_plan_id":"free"},{"bike_id":"cdb79b58-42cd-4ee8-9f09-53efe7b996a9","system_id":"levelo_inurba_marseille","lat":43.30135,"lon":5.39855,"is_reserved":false,"is_disabled":false,"rental_uris":{"android":"levelo://app?vid=cdb79b58-42cd-4ee8-9f09-53efe7b996a9","ios":"levelo://app?vid=cdb79b58-42cd-4ee8-9f09-53efe7b996a9"},"vehicle_type_id":"4","last_reported":1706983679,"current_range_meters":21600,"station_id":"ce4bh0h2rcd13ifvqd40","pricing_plan_id":"free"},{"bike_id":"c024f849-da6e-4c1e-93c7-707e987bf3e7","system_id":"levelo_inurba_marseille","lat":43.30136,"lon":5.39865,"is_reserved":false,"is_disabled":false,"rental_uris":{"android":"levelo://app?vid=c024f849-da6e-4c1e-93c7-707e987bf3e7","ios":"levelo://app?vid=c024f849-da6e-4c1e-93c7-707e987bf3e7"},"vehicle_type_id":"4","last_reported":1706983679,"current_range_meters":0,"station_id":"ce4bh0h2rcd13ifvqd40","pricing_plan_id":"free"},{"bike_id":"1f1839e2-a41c-4c6e-b5cb-a77a62d4287e","system_id":"levelo_inurba_marseille","lat":43.30137,"lon":5.3987,"is_reserved":false,"is_disabled":false,"rental_uris":{"android":"levelo://app?vid=1f1839e2-a41c-4c6e-b5cb-a77a62d4287e","ios":"levelo://app?vid=1f1839e2-a41c-4c6e-b5cb-a77a62d4287e"},"vehicle_type_id":"4","last_reported":1706983679,"current_range_meters":0,"station_id":"ce4bh0h2rcd13ifvqd40","pricing_plan_id":"free"},{"bike_id":"5016711b-ff2d-4b47-ad3f-da8cb48f52f5","system_id":"levelo_inurba_marseille","lat":43.30121,"lon":5.39888,"is_reserved":false,"is_disabled":false,"rental_uris":{"android":"levelo://app?vid=5016711b-ff2d-4b47-ad3f-da8cb48f52f5","ios":"levelo://app?vid=5016711b-ff2d-4b47-ad3f-da8cb48f52f5"},"vehicle_type_id":"4","last_reported":1706983679,"current_range_meters":0,"station_id":"ce4bh0h2rcd13ifvqd40","pricing_plan_id":"free"},{"bike_id":"50dac9dd-7faf-47d4-81c6-c0bd4a210976","system_id":"levelo_inurba_marseille","lat":43.298681,"lon":5.397225,"is_reserved":false,"is_disabled":false,"rental_uris":{"android":"levelo://app?vid=50dac9dd-7faf-47d4-81c6-c0bd4a210976","ios":"levelo://app?vid=50dac9dd-7faf-47d4-81c6-c0bd4a210976"},"vehicle_type_id":"4","last_reported":1706983679,"current_range_meters":8400,"station_id":"ce4bh0h2rcd13ifvqd50","pricing_plan_id":"free"},{"bike_id":"17a91a2b-323f-4082-a232-294b06799875","system_id":"levelo_inurba_marseille","lat":43.298681,"lon":5.397225,"is_reserved":false,"is_disabled":false,"rental_uris":{"android":"levelo://app?vid=17a91a2b-323f-4082-a232-294b06799875","ios":"levelo://app?vid=17a91a2b-323f-4082-a232-294b06799875"},"vehicle_type_id":"4","last_reported":1706983679,"current_range_meters":8000,"station_id":"ce4bh0h2rcd13ifvqd50","pricing_plan_id":"free"},{"bike_id":"c27c76ba-9ce1-49fb-a76f-bfd4c815b200","system_id":"levelo_inurba_marseille","lat":43.286591,"lon":5.363346,"is_reserved":false,"is_disabled":false,"rental_uris":{"android":"levelo://app?vid=c27c76ba-9ce1-49fb-a76f-bfd4c815b200","ios":"levelo://app?vid=c27c76ba-9ce1-49fb-a76f-bfd4c815b200"},"vehicle_type_id":"4","last_reported":1706983679,"current_range_meters":800,"station_id":"ce4bhah2rcd13ifvqej0","pricing_plan_id":"free"},{"bike_id":"e289b202-7b33-47ac-a313-94aa6388c16f","system_id":"levelo_inurba_marseille","lat":43.298681,"lon":5.397225,"is_reserved":false,"is_disabled":false,"rental_uris":{"android":"levelo://app?vid=e289b202-7b33-47ac-a313-94aa6388c16f","ios":"levelo://app?vid=e289b202-7b33-47ac-a313-94aa6388c16f"},"vehicle_type_id":"4","last_reported":1706983679,"current_range_meters":21600,"station_id":"ce4bh0h2rcd13ifvqd50","pricing_plan_id":"free"},{"bike_id":"f08f4298-e3bf-4471-add9-78725e64b9cd","system_id":"levelo_inurba_marseille","lat":43.286591,"lon":5.363346,"is_reserved":false,"is_disabled":false,"rental_uris":{"android":"levelo://app?vid=f08f4298-e3bf-4471-add9-78725e64b9cd","ios":"levelo://app?vid=f08f4298-e3bf-4471-add9-78725e64b9cd"},"vehicle_type_id":"4","last_reported":1706983679,"current_range_meters":7600,"station_id":"ce4bhah2rcd13ifvqej0","pricing_plan_id":"free"},{"bike_id":"26d0132c-37f9-42b9-9153-142a64797678","system_id":"levelo_inurba_marseille","lat":43.28701,"lon":5.37393,"is_reserved":false,"is_disabled":false,"rental_uris":{"android":"levelo://app?vid=26d0132c-37f9-42b9-9153-142a64797678","ios":"levelo://app?vid=26d0132c-37f9-42b9-9153-142a64797678"},"vehicle_type_id":"4","last_reported":1706983679,"current_range_meters":28400,"station_id":"ce4bh3p2rcd13ifvqdq0","pricing_plan_id":"free"},{"bike_id":"2648b4d7-96da-4f66-aa69-1ca66fd6c1fe","system_id":"levelo_inurba_marseille","lat":43.286593,"lon":5.363346,"is_reserved":false,"is_disabled":false,"rental_uris":{"android":"levelo://app?vid=2648b4d7-96da-4f66-aa69-1ca66fd6c1fe","ios":"levelo://app?vid=2648b4d7-96da-4f66-aa69-1ca66fd6c1fe"},