{"last_updated":1737612768,"ttl":60,"version":"2.2","data":{"bikes":[{"bike_id":"bc87ebb9-79d8-48ae-98f1-73024abdc038","system_id":"levelo_inurba_marseille","lat":43.29222,"lon":5.36053,"is_reserved":false,"is_disabled":true,"rental_uris":{"android":"levelo://app?vid=bc87ebb9-79d8-48ae-98f1-73024abdc038","ios":"levelo://app?vid=bc87ebb9-79d8-48ae-98f1-73024abdc038"},"vehicle_type_id":"4","last_reported":1737612768,"current_range_meters":0,"station_id":"ce4bhbh2rcd13ifvqeqg","pricing_plan_id":"cebpf4jnsgd1na2vs0mg"},{"bike_id":"87cb50d3-bab4-4b1e-851f-791c9114dc6d","system_id":"levelo_inurba_marseille","lat":43.317239,"lon":5.404407,"is_reserved":false,"is_disabled":false,"rental_uris":{"android":"levelo://app?vid=87cb50d3-bab4-4b1e-851f-791c9114dc6d","ios":"levelo://app?vid=87cb50d3-bab4-4b1e-851f-791c9114dc6d"},"vehicle_type_id":"4","last_reported":1737612768,"current_range_meters":26000,"station_id":"ce4bh012rcd13ifvqd00","pricing_plan_id":"cebpf4jnsgd1na2vs0mg"},{"bike_id":"5fe5e92b-23bb-4860-a2fe-86743e81fb05","system_id":"levelo_inurba_marseille","lat":43.28459,"lon":5.35876,"is_reserved":false,"is_disabled":false,"rental_uris":{"android":"levelo://app?vid=5fe5e92b-23bb-4860-a2fe-86743e81fb05","ios":"levelo://app?vid=5fe5e92b-23bb-4860-a2fe-86743e81fb05"},"vehicle_type_id":"4","last_reported":1737612768,"current_range_meters":24000,"station_id":"ce4bhah2rcd13ifvqei0","pricing_plan_id":"cebpf4jnsgd1na2vs0mg"},{"bike_id":"b4515517-c8a5-4347-9a75-b80759d8b378","system_id":"levelo_inurba_marseille","lat":43.29721,"lon":5.36597,"is_reserved":false,"is_disabled":false,"rental_uris":{"android":"levelo://app?vid=b4515517-c8a5-4347-9a75-b80759d8b378","ios":"levelo://app?vid=b4515517-c8a5-4347-9a75-b80759d8b378"},"vehicle_type_id":"4","last_reported":1737612768,"current_range_meters":38800,"station_id":"ce4bgn12rcd13ifvqbt0","pricing_plan_id":"cebpf4jnsgd1na2vs0mg"},{"bike_id":"d6d899e0-c54c-4add-9b8f-c5faac2bf75e","system_id":"levelo_inurba_marseille","lat":43.28629,"lon":5.35095,"is_reserved":false,"is_disabled":false,"rental_uris":{"android":"levelo://app?vid=d6d899e0-c54c-4add-9b8f-c5faac2bf75e","ios":"levelo://app?vid=d6d899e0-c54c-4add-9b8f-c5faac2bf75e"},"vehicle_type_id":"4","last_reported":1737612768,"current_range_meters":32400,"station_id":"ce4bhch2rcd13ifvqeug","pricing_plan_id":"cebpf4jnsgd1na2vs0mg"},{"bike_id":"26328479-63ef-41c0-a448-bee13cb44c95","system_id":"levelo_inurba_marseille","lat":43.28735,"lon":5.36063,"is_reserved":false,"is_disabled":false,"rental_uris":{"android":"levelo://app?vid=26328479-63ef-41c0-a448-bee13cb44c95","ios":"levelo://app?vid=26328479-63ef-41c0-a448-bee13cb44c95"},"vehicle_type_id":"4","last_reported":1737612768,"current_range_meters":24800,"station_id":"cki0cbj6b192h4jlfktg","pricing_plan_id":"cebpf4jnsgd1na2vs0mg"},{"bike_id":"5b74ddfe-8892-46b5-8064-fcc9f1188889","system_id":"levelo_inurba_marseille","lat":43.30475,"lon":5.37907,"is_reserved":false,"is_disabled":false,"rental_uris":{"android":"levelo://app?vid=5b74ddfe-8892-46b5-8064-fcc9f1188889","ios":"levelo://app?vid=5b74ddfe-8892-46b5-8064-fcc9f1188889"},"vehicle_type_id":"4","last_reported":1737612768,"current_range_meters":24400,"station_id":"ce4bgup2rcd13ifvqcn0","pricing_plan_id":"cebpf4jnsgd1na2vs0mg"},{"bike_id":"fd2f941c-3ecb-4add-92f7-a9fba35a53f1","system_id":"levelo_inurba_marseille","lat":43.308067,"lon":5.381462,"is_reserved":false,"is_disabled":false,"rental_uris":{"android":"levelo://app?vid=fd2f941c-3ecb-4add-92f7-a9fba35a53f1","ios":"levelo://app?vid=fd2f941c-3ecb-4add-92f7-a9fba35a53f1"},"vehicle_type_id":"4","last_reported":1737612768,"current_range_meters":16800,"station_id":"ce4bgt12rcd13ifvqce0","pricing_plan_id":"cebpf4jnsgd1na2vs0mg"},{"bike_id":"ff8edbc1-0daf-4572-a25e-8c008644b9e1","system_id":"levelo_inurba_marseille","lat":43.285544,"lon":5.394943,"is_reserved":false,"is_disabled":false,"rental_uris":{"android":"levelo://app?vid=ff8edbc1-0daf-4572-a25e-8c008644b9e1","ios":"levelo://app?vid=ff8edbc1-0daf-4572-a25e-8c008644b9e1"},"vehicle_type_id":"4","last_reported":1737612768,"current_range_meters":22000,"station_id":"ce4bh292rcd13ifvqdg0","pricing_plan_id":"cebpf4jnsgd1na2vs0mg"},{"bike_id":"52bfe84c-e6b2-45c9-a02c-0a086a3b4c79","system_id":"levelo_inurba_marseille","lat":43.32485,"lon":5.36565,"is_reserved":false,"is_disabled":false,"rental_uris":{"android":"levelo://app?vid=52bfe84c-e6b2-45c9-a02c-0a086a3b4c79","ios":"levelo://app?vid=52bfe84c-e6b2-45c9-a02c-0a086a3b4c79"},"vehicle_type_id":"4","last_reported":1737612768,"current_range_meters":10000,"station_id":"ce4bhs12rcd13ifvqhvg","pricing_plan_id":"cebpf4jnsgd1na2vs0mg"},{"bike_id":"f9509cf3-61c9-4e98-a3dc-ab6e052fedb5","system_id":"levelo_inurba_marseille","lat":43.24086,"lon":5.37759,"is_reserved":false,"is_disabled":false,"rental_uris":{"android":"levelo://app?vid=f9509cf3-61c9-4e98-a3dc-ab6e052fedb5","ios":"levelo://app?vid=f9509cf3-61c9-4e98-a3dc-ab6e052fedb5"},"vehicle_type_id":"4","last_reported":1737612768,"current_range_meters":38800,"station_id":"ce4bhnp2rcd13ifvqgvg","pricing_plan_id":"cebpf4jnsgd1na2vs0mg"},{"bike_id":"e81b5223-dff2-40ac-9d60-f749efaf39d5","system_id":"levelo_inurba_marseille","lat":43.28691,"lon":5.37393,"is_reserved":false,"is_disabled":false,"rental_uris":{"android":"levelo://app?vid=e81b5223-dff2-40ac-9d60-f749efaf39d5","ios":"levelo://app?vid=e81b5223-dff2-40ac-9d60-f749efaf39d5"},"vehicle_type_id":"4","last_reported":1737612768,"current_range_meters":35200,"station_id":"ce4bh3p2rcd13ifvqdq0","pricing_plan_id":"cebpf4jnsgd1na2vs0mg"},{"bike_id":"c932d077-56f1-44f2-ba49-f733deaa0c2b","system_id":"levelo_inurba_marseille","lat":43.25706,"lon":5.41088,"is_reserved":false,"is_disabled":false,"rental_uris":{"android":"levelo://app?vid=c932d077-56f1-44f2-ba49-f733deaa0c2b","ios":"levelo://app?vid=c932d077-56f1-44f2-ba49-f733deaa0c2b"},"vehicle_type_id":"4","last_reported":1737612768,"current_range_meters":24800,"station_id":"ce4bhkp2rcd13ifvqgd0","pricing_plan_id":"cebpf4jnsgd1na2vs0mg"},{"bike_id":"072f5722-d87d-4ece-bf31-dd6ae05be1e6","system_id":"levelo_inurba_marseille","lat":43.33008,"lon":5.39035,"is_reserved":false,"is_disabled":false,"rental_uris":{"android":"levelo://app?vid=072f5722-d87d-4ece-bf31-dd6ae05be1e6","ios":"levelo://app?vid=072f5722-d87d-4ece-bf31-dd6ae05be1e6"},"vehicle_type_id":"4","last_reported":1737612768,"current_range_meters":37600,"station_id":"ce4bhr92rcd13ifvqhrg","pricing_plan_id":"cebpf4jnsgd1na2vs0mg"},{"bike_id":"c23f8336-5a03-4943-81ac-cb3e6e23d0a0","system_id":"levelo_inurba_marseille","lat":43.279118,"lon":5.395815,"is_reserved":false,"is_disabled":false,"rental_uris":{"android":"levelo://app?vid=c23f8336-5a03-4943-81ac-cb3e6e23d0a0","ios":"levelo://app?vid=c23f8336-5a03-4943-81ac-cb3e6e23d0a0"},"vehicle_type_id":"4","last_reported":1737612768,"current_range_meters":35600,"station_id":"ce4bhf92rcd13ifvqf40","pricing_plan_id":"cebpf4jnsgd1na2vs0mg"},{"bike_id":"fbdc4a56-ecfa-49a3-9f96-c2d9f2b72d7f","system_id":"levelo_inurba_marseille","lat":43.274243,"lon":5.39417,"is_reserved":false,"is_disabled":false,"rental_uris":{"android":"levelo://app?vid=fbdc4a56-ecfa-49a3-9f96-c2d9f2b72d7f","ios":"levelo://app?vid=fbdc4a56-ecfa-49a3-9f96-c2d9f2b72d7f"},"vehicle_type_id":"4","last_reported":1737612768,"current_range_meters":39200,"station_id":"ce4bhdp2rcd13ifvqf20","pricing_plan_id":"cebpf4jnsgd1na2vs0mg"},{"bike_id":"47a5c903-d960-4eec-b908-6451b150f9f7","system_id":"levelo_inurba_marseille","lat":43.24075,"lon":5.37759,"is_reserved":false,"is_disabled":false,"rental_uris":{"android":"levelo://app?vid=47a5c903-d960-4eec-b908-6451b150f9f7","ios":"levelo://app?vid=47a5c903-d960-4eec-b908-6451b150f9f7"},"vehicle_type_id":"4","last_reported":1737612768,"current_range_meters":38800,"station_id":"ce4bhnp2rcd13ifvqgvg","pricing_plan_id":"cebpf4jnsgd1na2vs0mg"},{"bike_id":"92073bf7-0c5a-4193-9c82-a9d932e7871e","system_id":"levelo_inurba_marseille","lat":43.30786,"lon":5.37648,"is_reserved":false,"is_disabled":false,"rental_uris":{"android":"levelo://app?vid=92073bf7-0c5a-4193-9c82-a9d932e7871e","ios":"levelo://app?vid=92073bf7-0c5a-4193-9c82-a9d932e7871e"},"vehicle_type_id":"4","last_reported":1737612768,"current_range_meters":38800,"station_id":"ce4bgv92rcd13ifvqcq0","pricing_plan_id":"cebpf4jnsgd1na2vs0mg"},{"bike_id":"2d89806f-db31-45f9-ab39-70b15ff8deae","system_id":"levelo_inurba_marseille","lat":43.29782,"lon":5.39338,"is_reserved":false,"is_disabled":false,"rental_uris":{"android":"levelo://app?vid=2d89806f-db31-45f9-ab39-70b15ff8deae","ios":"levelo://app?vid=2d89806f-db31-45f9-ab39-70b15ff8deae"},"vehicle_type_id":"4","last_reported":1737612768,"current_range_meters":38800,"station_id":"chh1huq6cuj3fo74tm60","pricing_plan_id":"cebpf4jnsgd1na2vs0mg"},{"bike_id":"f995326b-d5c2-405d-ac8d-466d6a8fcf4b","system_id":"levelo_inurba_marseille","lat":43.300926,"lon":5.390697,"is_reserved":false,"is_disabled":false,"rental_uris":{"android":"levelo://app?vid=f995326b-d5c2-405d-ac8d-466d6a8fcf4b","ios":"levelo://app?vid=f995326b-d5c2-405d-ac8d-466d6a8fcf4b"},"vehicle_type_id":"4","last_reported":1737612768,"current_range_meters":14800,"station_id":"ce4bh192rcd13ifvqdb0","pricing_plan_id":"cebpf4jnsgd1na2vs0mg"},{"bike_id":"c8b7aed7-c47b-4197-99ca-6b34bfddf40f","system_id":"levelo_inurba_marseille","lat":43.240748,"lon":5.377513,"is_reserved":false,"is_disabled":false,"rental_uris":{"android":"levelo://app?vid=c8b7aed7-c47b-4197-99ca-6b34bfddf40f","ios":"levelo://app?vid=c8b7aed7-c47b-4197-99ca-6b34bfddf40f"},"vehicle_type_id":"4","last_reported":1737612768,"current_range_meters":34800,"station_id":"ce4bhnp2rcd13ifvqgvg","pricing_plan_id":"cebpf4jnsgd1na2vs0mg"},{"bike_id":"ea186a6f-c5f9-496d-8485-2064cd8ea2d4","system_id":"levelo_inurba_marseille","lat":43.31675,"lon":5.37309,"is_reserved":false,"is_disabled":false,"rental_uris":{"android":"levelo://app?vid=ea186a6f-c5f9-496d-8485-2064cd8ea2d4","ios":"levelo://app?vid=ea186a6f-c5f9-496d-8485-2064cd8ea2d4"},"vehicle_type_id":"4","last_reported":1737612768,"current_range_meters":2800,"station_id":"","pricing_plan_id":"cebpf4jnsgd1na2vs0mg"},{"bike_id":"03029508-7ed2-4693-b735-f7deaf763344","system_id":"levelo_inurba_marseille","lat":43.25577,"lon":5.38232,"is_reserved":false,"is_disabled":false,"rental_uris":{"android":"levelo://app?vid=03029508-7ed2-4693-b735-f7deaf763344","ios":"levelo://app?vid=03029508-7ed2-4693-b735-f7deaf763344"},"vehicle_type_id":"4","last_reported":1737612768,"current_range_meters":18000,"station_id":"ce4bhih2rcd13ifvqfs0","pricing_plan_id":"cebpf4jnsgd1na2vs0mg"},{"bike_id":"3472a396-f149-40f7-a86d-66f1d7a02d70","system_id":"levelo_inurba_marseille","lat":43.28663,"lon":5.36346,"is_reserved":false,"is_disabled":false,"rental_uris":{"android":"levelo://app?vid=3472a396-f149-40f7-a86d-66f1d7a02d70","ios":"levelo://app?vid=3472a396-f149-40f7-a86d-66f1d7a02d70"},"vehicle_type_id":"4","last_reported":1737612768,"current_range_meters":38400,"station_id":"ce4bhah2rcd13ifvqej0","pricing_plan_id":"cebpf4jnsgd1na2vs0mg"},{"bike_id":"57ede8f2-8002-49a2-9daa-fdc45e207ca8","system_id":"levelo_inurba_marseille","lat":43.31281,"lon":5.40168,"is_reserved":false,"is_disabled":false,"rental_uris":{"android":"levelo://app?vid=57ede8f2-8002-49a2-9daa-fdc45e207ca8","ios":"levelo://app?vid=57ede8f2-8002-49a2-9daa-fdc45e207ca8"},"vehicle_type_id":"4","last_reported":1737612768,"current_range_meters":38800,"station_id":"ce4bh092rcd13ifvqd30","pricing_plan_id":"cebpf4jnsgd1na2vs0mg"},{"bike_id":"3a70f103-8f36-4a64-b77c-10e33d1a6120","system_id":"levelo_inurba_marseille","lat":43.321043,"lon":5.367881,"is_reserved":false,"is_disabled":false,"rental_uris":{"android":"levelo://app?vid=3a70f103-8f36-4a64-b77c-10e33d1a6120","ios":"levelo://app?vid=3a70f103-8f36-4a64-b77c-10e33d1a6120"},"vehicle_type_id":"4","last_reported":1737612768,"current_range_meters":38400,"station_id":"ce4bhrh2rcd13ifvqhug","pricing_plan_id":"cebpf4jnsgd1na2vs0mg"},{"bike_id":"d558efa3-0468-430b-a0f1-01100ffa09d3","system_id":"levelo_inurba_marseille","lat":43.28962,"lon":5.36378,"is_reserved":false,"is_disabled":false,"rental_uris":{"android":"levelo://app?vid=d558efa3-0468-430b-a0f1-01100ffa09d3","ios":"levelo://app?vid=d558efa3-0468-430b-a0f1-01100ffa09d3"},"vehicle_type_id":"4","last_reported":1737612768,"current_range_meters":25200,"station_id":"ce4bhc92rcd13ifvqetg","pricing_plan_id":"cebpf4jnsgd1na2vs0mg"},{"bike_id":"eeaa9fe2-2176-4336-b1a6-eff014457270","system_id":"levelo_inurba_marseille","lat":43.29254,"lon":5.40909,"is_reserved":false,"is_disabled":false,"rental_uris":{"android":"levelo://app?vid=eeaa9fe2-2176-4336-b1a6-eff014457270","ios":"levelo://app?vid=eeaa9fe2-2176-4336-b1a6-eff014457270"},"vehicle_type_id":"4","last_reported":1737612768,"current_range_meters":39200,"station_id":"ce4bh192rcd13ifvqdc0","pricing_plan_id":"cebpf4jnsgd1na2vs0mg"},{"bike_id":"3d39a886-a602-45ec-b4d3-356e165c2974","system_id":"levelo_inurba_marseille","lat":43.29186,"lon":5.35794,"is_reserved":false,"is_disabled":false,"rental_uris":{"android":"levelo://app?vid=3d39a886-a602-45ec-b4d3-356e165c2974","ios":"levelo://app?vid=3d39a886-a602-45ec-b4d3-356e165c2974"},"vehicle_type_id":"4","last_reported":1737612768,"current_range_meters":38000,"station_id":"ce4bhb12rcd13ifvqel0","pricing_plan_id":"cebpf4jnsgd1na2vs0mg"},{"bike_id":"cac15169-486f-43a5-9e95-33c702c4876b","system_id":"levelo_inurba_marseille","lat":43.30802,"lon":5.43514,"is_reserved":false,"is_disabled":false,"rental_uris":{"android":"levelo://app?vid=cac15169-486f-43a5-9e95-33c702c4876b","ios":"levelo://app?vid=cac15169-486f-43a5-9e95-33c702c4876b"},"vehicle_type_id":"4","last_reported":1737612768,"current_range_meters":39200,"station_id":"ce4bhph2rcd13ifvqheg","pricing_plan_id":"cebpf4jnsgd1na2vs0mg"},{"bike_id":"0fd77b24-9641-4f85-ad37-0e79c1de1769","system_id":"levelo_inurba_marseille","lat":43.27814,"lon":5.40707,"is_reserved":false,"is_disabled":false,"rental_uris":{"android":"levelo://app?vid=0fd77b24-9641-4f85-ad37-0e79c1de1769","ios":"levelo://app?vid=0fd77b24-9641-4f85-ad37-0e79c1de1769"},"vehicle_type_id":"4","last_reported":1737612768,"current_range_meters":14800,"station_id":"ce4bhnh2rcd13ifvqgtg","pricing_plan_id":"cebpf4jnsgd1na2vs0mg"},{"bike_id":"9a4d472e-28ea-4459-9d68-e6f39648a217","system_id":"levelo_inurba_marseille","lat":43.289379,"lon":5.366349,"is_reserved":false,"is_disabled":false,"rental_uris":{"android":"levelo://app?vid=9a4d472e-28ea-4459-9d68-e6f39648a217","ios":"levelo://app?vid=9a4d472e-28ea-4459-9d68-e6f39648a217"},"vehicle_type_id":"4","last_reported":1737612768,"current_range_meters":28800,"station_id":"ce4bhap2rcd13ifvqek0","pricing_plan_id":"cebpf4jnsgd1na2vs0mg"},{"bike_id":"5a874f97-e53a-486b-bf03-022b93e71acd","system_id":"levelo_inurba_marseille","lat":43.255056,"lon":5.376514,"is_reserved":false,"is_disabled":false,"rental_uris":{"android":"levelo://app?vid=5a874f97-e53a-486b-bf03-022b93e71acd","ios":"levelo://app?vid=5a874f97-e53a-486b-bf03-022b93e71acd"},"vehicle_type_id":"4","last_reported":1737612768,"current_range_meters":24400,"station_id":"ce4bhh12rcd13ifvqff0","pricing_plan_id":"cebpf4jnsgd1na2vs0mg"},{"bike_id":"111cba43-0574-438f-ae2a-d648b015eb76","system_id":"levelo_inurba_marseille","lat":43.31171,"lon":5.38698,"is_reserved":false,"is_disabled":false,"rental_uris":{"android":"levelo://app?vid=111cba43-0574-438f-ae2a-d648b015eb76","ios":"levelo://app?vid=111cba43-0574-438f-ae2a-d648b015eb76"},"vehicle_type_id":"4","last_reported":1737612768,"current_range_meters":36800,"station_id":"ce4bgv12rcd13ifvqcp0","pricing_plan_id":"cebpf4jnsgd1na2vs0mg"},{"bike_id":"4ef72184-8e66-4108-82fb-8d452bfc5efc","system_id":"levelo_inurba_marseille","lat":43.31251,"lon":5.40178,"is_reserved":false,"is_disabled":false,"rental_uris":{"android":"levelo://app?vid=4ef72184-8e66-4108-82fb-8d452bfc5efc","ios":"levelo://app?vid=4ef72184-8e66-4108-82fb-8d452bfc5efc"},"vehicle_type_id":"4","last_reported":1737612768,"current_range_meters":27600,"station_id":"ce4bh092rcd13ifvqd30","pricing_plan_id":"cebpf4jnsgd1na2vs0mg"},{"bike_id":"7ab51a43-683e-4bd7-a5aa-dd0cb59be96b","system_id":"levelo_inurba_marseille","lat":43.29786,"lon":5.39353,"is_reserved":false,"is_disabled":false,"rental_uris":{"android":"levelo://app?vid=7ab51a43-683e-4bd7-a5aa-dd0cb59be96b","ios":"levelo://app?vid=7ab51a43-683e-4bd7-a5aa-dd0cb59be96b"},"vehicle_type_id":"4","last_reported":1737612768,"current_range_meters":38800,"station_id":"chh1huq6cuj3fo74tm60","pricing_plan_id":"cebpf4jnsgd1na2vs0mg"},{"bike_id":"1a7ae9b9-108c-498f-8bac-48904d23f7bc","system_id":"levelo_inurba_marseille","lat":43.284745,"lon":5.384408,"is_reserved":false,"is_disabled":true,"rental_uris":{"android":"levelo://app?vid=1a7ae9b9-108c-498f-8bac-48904d23f7bc","ios":"levelo://app?vid=1a7ae9b9-108c-498f-8bac-48904d23f7bc"},"vehicle_type_id":"4","last_reported":1737612768,"current_range_meters":35200,"station_id":"ce4bh512rcd13ifvqe3g","pricing_plan_id":"cebpf4jnsgd1na2vs0mg"},{"bike_id":"700c67e8-3974-497f-96a7-0d29d82c242e","system_id":"levelo_inurba_marseille","lat":43.28408,"lon":5.37505,"is_reserved":false,"is_disabled":false,"rental_uris":{"android":"levelo://app?vid=700c67e8-3974-497f-96a7-0d29d82c242e","ios":"levelo://app?vid=700c67e8-3974-497f-96a7-0d29d82c242e"},"vehicle_type_id":"4","last_reported":1737612768,"current_range_meters":34800,"station_id":"ce4bh412rcd13ifvqds0","pricing_plan_id":"cebpf4jnsgd1na2vs0mg"},{"bike_id":"adb81fe1-ecc1-4e11-b3e5-e359939b9ff4","system_id":"levelo_inurba_marseille","lat":43.30932,"lon":5.40152,"is_reserved":false,"is_disabled":false,"rental_uris":{"android":"levelo://app?vid=adb81fe1-ecc1-4e11-b3e5-e359939b9ff4","ios":"levelo://app?vid=adb81fe1-ecc1-4e11-b3e5-e359939b9ff4"},"vehicle_type_id":"4","last_reported":1737612768,"current_range_meters":32800,"station_id":"ce4bgvp2rcd13ifvqct0","pricing_plan_id":"cebpf4jnsgd1na2vs0mg"},{"bike_id":"fbc6b901-293c-4cc3-8495-b0d71e091198","system_id":"levelo_inurba_marseille","lat":43.27898,"lon":5.38001,"is_reserved":false,"is_disabled":false,"rental_uris":{"android":"levelo://app?vid=fbc6b901-293c-4cc3-8495-b0d71e091198","ios":"levelo://app?vid=fbc6b901-293c-4cc3-8495-b0d71e091198"},"vehicle_type_id":"4","last_reported":1737612768,"current_range_meters":38800,"station_id":"ce4bhf92rcd13ifvqf50","pricing_plan_id":"cebpf4jnsgd1na2vs0mg"},{"bike_id":"4a1877ac-0eba-4d1d-a5b6-5c57a0d326b7","system_id":"levelo_inurba_marseille","lat":43.310806,"lon":5.424355,"is_reserved":false,"is_disabled":false,"rental_uris":{"android":"levelo://app?vid=4a1877ac-0eba-4d1d-a5b6-5c57a0d326b7","ios":"levelo://app?vid=4a1877ac-0eba-4d1d-a5b6-5c57a0d326b7"},"vehicle_type_id":"4","last_reported":1737612768,"current_range_meters":14000,"station_id":"ce4bhp92rcd13ifvqhag","pricing_plan_id":"cebpf4jnsgd1na2vs0mg"},{"bike_id":"1c5350bc-b85e-4a3a-a39b-e473b0f89be6","system_id":"levelo_inurba_marseille","lat":43.31757,"lon":5.39002,"is_reserved":false,"is_disabled":false,"rental_uris":{"android":"levelo://app?vid=1c5350bc-b85e-4a3a-a39b-e473b0f89be6","ios":"levelo://app?vid=1c5350bc-b85e-4a3a-a39b-e473b0f89be6"},"vehicle_type_id":"4","last_reported":1737612768,"current_range_meters":19600,"station_id":"ce4bhqp2rcd13ifvqhng","pricing_plan_id":"cebpf4jnsgd1na2vs0mg"},{"bike_id":"4c1d4395-6419-47a8-91b4-52df02329e29","system_id":"levelo_inurba_marseille","lat":43.30481,"lon":5.37918,"is_reserved":false,"is_disabled":false,"rental_uris":{"android":"levelo://app?vid=4c1d4395-6419-47a8-91b4-52df02329e29","ios":"levelo://app?vid=4c1d4395-6419-47a8-91b4-52df02329e29"},"vehicle_type_id":"4","last_reported":1737612768,"current_range_meters":17600,"station_id":"ce4bgup2rcd13ifvqcn0","pricing_plan_id":"cebpf4jnsgd1na2vs0mg"},{"bike_id":"ef825d6a-fcd4-43c6-9386-9c35d11d16c5","system_id":"levelo_inurba_marseille","lat":43.30932,"lon":5.40175,"is_reserved":false,"is_disabled":false,"rental_uris":{"android":"levelo://app?vid=ef825d6a-fcd4-43c6-9386-9c35d11d16c5","ios":"levelo://app?vid=ef825d6a-fcd4-43c6-9386-9c35d11d16c5"},"vehicle_type_id":"4","last_reported":1737612768,"current_range_meters":36800,"station_id":"ce4bgvp2rcd13ifvqct0","pricing_plan_id":"cebpf4jnsgd1na2vs0mg"},{"bike_id":"ca91c24d-c5c0-4e81-b874-cef6870a8b44","system_id":"levelo_inurba_marseille","lat":43.30601,"lon":5.37228,"is_reserved":false,"is_disabled":false,"rental_uris":{"android":"levelo://app?vid=ca91c24d-c5c0-4e81-b874-cef6870a8b44","ios":"levelo://app?vid=ca91c24d-c5c0-4e81-b874-cef6870a8b44"},"vehicle_type_id":"4","last_reported":1737612768,"current_range_meters":6000,"station_id":"ce4bgqh2rcd13ifvqc4g","pricing_plan_id":"cebpf4jnsgd1na2vs0mg"},{"bike_id":"7ace546e-9c67-4124-8420-9ed07a575e5a","system_id":"levelo_inurba_marseille","lat":43.31632,"lon":5.4054,"is_reserved":false,"is_disabled":true,"rental_uris":{"android":"levelo://app?vid=7ace546e-9c67-4124-8420-9ed07a575e5a","ios":"levelo://app?vid=7ace546e-9c67-4124-8420-9ed07a575e5a"},"vehicle_type_id":"4","last_reported":1737612768,"current_range_meters":0,"station_id":"","pricing_plan_id":"cebpf4jnsgd1na2vs0mg"},{"bike_id":"f4064b91-d50f-4faa-b80a-c4b38df2d08b","system_id":"levelo_inurba_marseille","lat":43.22938,"lon":5.35389,"is_reserved":false,"is_disabled":false,"rental_uris":{"android":"levelo://app?vid=f4064b91-d50f-4faa-b80a-c4b38df2d08b","ios":"levelo://app?vid=f4064b91-d50f-4faa-b80a-c4b38df2d08b"},"vehicle_type_id":"4","last_reported":1737612768,"current_range_meters":38800,"station_id":"cpo3532slgdg3j2ikp40","pricing_plan_id":"cebpf4jnsgd1na2vs0mg"},{"bike_id":"1fb0e702-5965-47a7-9efe-0cfc040f54eb","system_id":"levelo_inurba_marseille","lat":43.2655,"lon":5.37298,"is_reserved":false,"is_disabled":false,"rental_uris":{"android":"levelo://app?vid=1fb0e702-5965-47a7-9efe-0cfc040f54eb","ios":"levelo://app?vid=1fb0e702-5965-47a7-9efe-0cfc040f54eb"},"vehicle_type_id":"4","last_reported":1737612768,"current_range_meters":28000,"station_id":"ce4bhg12rcd13ifvqf70","pricing_plan_id":"cebpf4jnsgd1na2vs0mg"},{"bike_id":"010d7af0-1cdd-4754-9cac-a1dc0f27c72d","system_id":"levelo_inurba_marseille","lat":43.33116,"lon":5.38214,"is_reserved":false,"is_disabled":false,"rental_uris":{"android":"levelo://app?vid=010d7af0-1cdd-4754-9cac-a1dc0f27c72d","ios":"levelo://app?vid=010d7af0-1cdd-4754-9cac-a1dc0f27c72d"},"vehicle_type_id":"4","last_reported":1737612768,"current_range_meters":26800,"station_id":"","pricing_plan_id":"cebpf4jnsgd1na2vs0mg"},{"bike_id":"5e75dd30-ab3b-44d3-8dcb-cb5fd4a0eb65","system_id":"levelo_inurba_marseille","lat":43.24627,"lon":5.38904,"is_reserved":false,"is_disabled":false,"rental_uris":{"android":"levelo://app?vid=5e75dd30-ab3b-44d3-8dcb-cb5fd4a0eb65","ios":"levelo://app?vid=5e75dd30-ab3b-44d3-8dcb-cb5fd4a0eb65"},"vehicle_type_id":"4","last_reported":1737612768,"current_range_meters":38800,"station_id":"ce4bhg12rcd13ifvqf60","pricing_plan_id":"cebpf4jnsgd1na2vs0mg"},{"bike_id":"81fb8919-e61f-4a4e-9310-2573005bf866","system_id":"levelo_inurba_marseille","lat":43.31169,"lon":5.38719,"is_reserved":false,"is_disabled":false,"rental_uris":{"android":"levelo://app?vid=81fb8919-e61f-4a4e-9310-2573005bf866","ios":"levelo://app?vid=81fb8919-e61f-4a4e-9310-2573005bf866"},"vehicle_type_id":"4","last_reported":1737612768,"current_range_meters":38800,"station_id":"ce4bgv12rcd13ifvqcp0","pricing_plan_id":"cebpf4jnsgd1na2vs0mg"},{"bike_id":"90c8c19d-949d-460f-bb27-403a94bcdfaa","system_id":"levelo_inurba_marseille","lat":43.284543,"lon":5.358893,"is_reserved":false,"is_disabled":false,"rental_uris":{"android":"levelo://app?vid=90c8c19d-949d-460f-bb27-403a94bcdfaa","ios":"levelo://app?vid=90c8c19d-949d-460f-bb27-403a94bcdfaa"},"vehicle_type_id":"4","last_reported":1737612768,"current_range_meters":12000,"station_id":"ce4bhah2rcd13ifvqei0","pricing_plan_id":"cebpf4jnsgd1na2vs0mg"},{"bike_id":"4e08a359-a7ac-4ac7-8da0-47cf117f974f","system_id":"levelo_inurba_marseille","lat":43.28859,"lon":5.35878,"is_reserved":false,"is_disabled":false,"rental_uris":{"android":"levelo://app?vid=4e08a359-a7ac-4ac7-8da0-47cf117f974f","ios":"levelo://app?vid=4e08a359-a7ac-4ac7-8da0-47cf117f974f"},"vehicle_type_id":"4","last_reported":1737612768,"current_range_meters":38800,"station_id":"ce4bhb12rcd13ifvqem0","pricing_plan_id":"cebpf4jnsgd1na2vs0mg"},{"bike_id":"95686d4b-aec0-40de-b18e-cbe8599dc121","system_id":"levelo_inurba_marseille","lat":43.29718,"lon":5.36601,"is_reserved":false,"is_disabled":false,"rental_uris":{"android":"levelo://app?vid=95686d4b-aec0-40de-b18e-cbe8599dc121","ios":"levelo://app?vid=95686d4b-aec0-40de-b18e-cbe8599dc121"},"vehicle_type_id":"4","last_reported":1737612768,"current_range_meters":17200,"station_id":"ce4bgn12rcd13ifvqbt0","pricing_plan_id":"cebpf4jnsgd1na2vs0mg"},{"bike_id":"8c4ec436-c014-426e-be5e-f5e97109170a","system_id":"levelo_inurba_marseille","lat":43.30879,"lon":5.39645,"is_reserved":false,"is_disabled":false,"rental_uris":{"android":"levelo://app?vid=8c4ec436-c014-426e-be5e-f5e97109170a","ios":"levelo://app?vid=8c4ec436-c014-426e-be5e-f5e97109170a"},"vehicle_type_id":"4","last_reported":1737612768,"current_range_meters":38000,"station_id":"ce4bh012rcd13ifvqcv0","pricing_plan_id":"cebpf4jnsgd1na2vs0mg"},{"bike_id":"65094a7f-b962-43c6-b0af-b51087b9f16f","system_id":"levelo_inurba_marseille","lat":43.28935,"lon":5.36627,"is_reserved":false,"is_disabled":false,"rental_uris":{"android":"levelo://app?vid=65094a7f-b962-43c6-b0af-b51087b9f16f","ios":"levelo://app?vid=65094a7f-b962-43c6-b0af-b51087b9f16f"},"vehicle_type_id":"4","last_reported":1737612768,"current_range_meters":30400,"station_id":"ce4bhap2rcd13ifvqek0","pricing_plan_id":"cebpf4jnsgd1na2vs0mg"},{"bike_id":"9838cc78-2b53-49d3-ae13-82df62c4fd64","system_id":"levelo_inurba_marseille","lat":43.28395,"lon":5.40938,"is_reserved":false,"is_disabled":false,"rental_uris":{"android":"levelo://app?vid=9838cc78-2b53-49d3-ae13-82df62c4fd64","ios":"levelo://app?vid=9838cc78-2b53-49d3-ae13-82df62c4fd64"},"vehicle_type_id":"4","last_reported":1737612768,"current_range_meters":6800,"station_id":"","pricing_plan_id":"cebpf4jnsgd1na2vs0mg"},{"bike_id":"0f8fbb30-1403-4012-8d4b-bed4ddc3f0cc","system_id":"levelo_inurba_marseille","lat":43.31327,"lon":5.39703,"is_reserved":false,"is_disabled":false,"rental_uris":{"android":"levelo://app?vid=0f8fbb30-1403-4012-8d4b-bed4ddc3f0cc","ios":"levelo://app?vid=0f8fbb30-1403-4012-8d4b-bed4ddc3f0cc"},"vehicle_type_id":"4","last_reported":1737612768,"current_range_meters":22800,"station_id":"ce4bgvp2rcd13ifvqcu0","pricing_plan_id":"cebpf4jnsgd1na2vs0mg"},{"bike_id":"0d7fb090-7f46-4ce1-959d-f4294cfe3623","system_id":"levelo_inurba_marseille","lat":43.28848,"lon":5.39338,"is_reserved":false,"is_disabled":false,"rental_uris":{"android":"levelo://app?vid=0d7fb090-7f46-4ce1-959d-f4294cfe3623","ios":"levelo://app?vid=0d7fb090-7f46-4ce1-959d-f4294cfe3623"},"vehicle_type_id":"4","last_reported":1737612768,"current_range_meters":38800,"station_id":"ce4bh2p2rcd13ifvqdi0","pricing_plan_id":"cebpf4jnsgd1na2vs0mg"},{"bike_id":"83d909e7-9c19-438f-91bf-276e09d008cc","system_id":"levelo_inurba_marseille","lat":43.308926,"lon":5.396337,"is_reserved":false,"is_disabled":false,"rental_uris":{"android":"levelo://app?vid=83d909e7-9c19-438f-91bf-276e09d008cc","ios":"levelo://app?vid=83d909e7-9c19-438f-91bf-276e09d008cc"},"vehicle_type_id":"4","last_reported":1737612768,"current_range_meters":4000,"station_id":"ce4bh012rcd13ifvqcv0","pricing_plan_id":"cebpf4jnsgd1na2vs0mg"},{"bike_id":"e140bb4a-5e7a-45e7-9cd7-0031c0e81926","system_id":"levelo_inurba_marseille","lat":43.28098,"lon":5.37845,"is_reserved":false,"is_disabled":false,"rental_uris":{"android":"levelo://app?vid=e140bb4a-5e7a-45e7-9cd7-0031c0e81926","ios":"levelo://app?vid=e140bb4a-5e7a-45e7-9cd7-0031c0e81926"},"vehicle_type_id":"4","last_reported":1737612768,"current_range_meters":31200,"station_id":"ce4bha12rcd13ifvqee0","pricing_plan_id":"cebpf4jnsgd1na2vs0mg"},{"bike_id":"19b8198b-0b8b-41c2-8c4a-a703ec5c010b","system_id":"levelo_inurba_marseille","lat":43.30157,"lon":5.38094,"is_reserved":false,"is_disabled":false,"rental_uris":{"android":"levelo://app?vid=19b8198b-0b8b-41c2-8c4a-a703ec5c010b","ios":"levelo://app?vid=19b8198b-0b8b-41c2-8c4a-a703ec5c010b"},"vehicle_type_id":"4","last_reported":1737612768,"current_range_meters":30400,"station_id":"ce4bgjp2rcd13ifvqbh0","pricing_plan_id":"cebpf4jnsgd1na2vs0mg"},{"bike_id":"b15a91c0-7c93-4278-9be2-c5e0789ac33f","system_id":"levelo_inurba_marseille","lat":43.318934,"lon":5.407289,"is_reserved":false,"is_disabled":false,"rental_uris":{"android":"levelo://app?vid=b15a91c0-7c93-4278-9be2-c5e0789ac33f","ios":"levelo://app?vid=b15a91c0-7c93-4278-9be2-c5e0789ac33f"},"vehicle_type_id":"4","last_reported":1737612768,"current_range_meters":38000,"station_id":"ce4bhq12rcd13ifvqhig","pricing_plan_id":"cebpf4jnsgd1na2vs0mg"},{"bike_id":"89d74705-7f42-45f3-bdbc-e8e63c7486d0","system_id":"levelo_inurba_marseille","lat":43.309241,"lon":5.401481,"is_reserved":false,"is_disabled":true,"rental_uris":{"android":"levelo://app?vid=89d74705-7f42-45f3-bdbc-e8e63c7486d0","ios":"levelo://app?vid=89d74705-7f42-45f3-bdbc-e8e63c7486d0"},"vehicle_type_id":"4","last_reported":1737612768,"current_range_meters":19600,"station_id":"ce4bgvp2rcd13ifvqct0","pricing_plan_id":"cebpf4jnsgd1na2vs0mg"},{"bike_id":"9f96de60-ba44-4c93-9707-a282028a4274","system_id":"levelo_inurba_marseille","lat":43.24157,"lon":5.39736,"is_reserved":false,"is_disabled":false,"rental_uris":{"android":"levelo://app?vid=9f96de60-ba44-4c93-9707-a282028a4274","ios":"levelo://app?vid=9f96de60-ba44-4c93-9707-a282028a4274"},"vehicle_type_id":"4","last_reported":1737612768,"current_range_meters":38000,"station_id":"ce4bhn12rcd13ifvqgpg","pricing_plan_id":"cebpf4jnsgd1na2vs0mg"},{"bike_id":"8811a88f-5edb-48e9-9e86-c44c46150d11","system_id":"levelo_inurba_marseille","lat":43.30412,"lon":5.4129,"is_reserved":false,"is_disabled":false,"rental_uris":{"android":"levelo://app?vid=8811a88f-5edb-48e9-9e86-c44c46150d11","ios":"levelo://app?vid=8811a88f-5edb-48e9-9e86-c44c46150d11"},"vehicle_type_id":"4","last_reported":1737612768,"current_range_meters":30000,"station_id":"ce4bhop2rcd13ifvqh8g","pricing_plan_id":"cebpf4jnsgd1na2vs0mg"},{"bike_id":"0dc57ce7-6ea5-4139-9dd4-2949da8d3308","system_id":"levelo_inurba_marseille","lat":43.323369,"lon":5.406211,"is_reserved":false,"is_disabled":false,"rental_uris":{"android":"levelo://app?vid=0dc57ce7-6ea5-4139-9dd4-2949da8d3308","ios":"levelo://app?vid=0dc57ce7-6ea5-4139-9dd4-2949da8d3308"},"vehicle_type_id":"4","last_reported":1737612768,"current_range_meters":38800,"station_id":"ce4bhq92rcd13ifvqhjg","pricing_plan_id":"cebpf4jnsgd1na2vs0mg"},{"bike_id":"dc020e30-7be2-4fc6-bf0f-e6dedb64c2ce","system_id":"levelo_inurba_marseille","lat":43.305943,"lon":5.393547,"is_reserved":false,"is_disabled":false,"rental_uris":{"android":"levelo://app?vid=dc020e30-7be2-4fc6-bf0f-e6dedb64c2ce","ios":"levelo://app?vid=dc020e30-7be2-4fc6-bf0f-e6dedb64c2ce"},"vehicle_type_id":"4","last_reported":1737612768,"current_range_meters":27600,"station_id":"ce4bh0p2rcd13ifvqd80","pricing_plan_id":"cebpf4jnsgd1na2vs0mg"},{"bike_id":"466a0d70-c860-48c8-a89b-6eb75d57b3d1","system_id":"levelo_inurba_marseille","lat":43.28941,"lon":5.39629,"is_reserved":false,"is_disabled":false,"rental_uris":{"android":"levelo://app?vid=466a0d70-c860-48c8-a89b-6eb75d57b3d1","ios":"levelo://app?vid=466a0d70-c860-48c8-a89b-6eb75d57b3d1"},"vehicle_type_id":"4","last_reported":1737612768,"current_range_meters":38000,"station_id":"ce4bh3h2rcd13ifvqdn0","pricing_plan_id":"cebpf4jnsgd1na2vs0mg"},{"bike_id":"6a9e6fb3-1965-43ab-a598-cf1f58670842","system_id":"levelo_inurba_marseille","lat":43.23193,"lon":5.39991,"is_reserved":false,"is_disabled":false,"rental_uris":{"android":"levelo://app?vid=6a9e6fb3-1965-43ab-a598-cf1f58670842","ios":"levelo://app?vid=6a9e6fb3-1965-43ab-a598-cf1f58670842"},"vehicle_type_id":"4","last_reported":1737612768,"current_range_meters":28400,"station_id":"ce4bhn12rcd13ifvqgqg","pricing_plan_id":"cebpf4jnsgd1na2vs0mg"},{"bike_id":"e6e8646a-47fe-42a2-b78a-21530b7ebe2d","system_id":"levelo_inurba_marseille","lat":43.31694,"lon":5.40479,"is_reserved":false,"is_disabled":false,"rental_uris":{"android":"levelo://app?vid=e6e8646a-47fe-42a2-b78a-21530b7ebe2d","ios":"levelo://app?vid=e6e8646a-47fe-42a2-b78a-21530b7ebe2d"},"vehicle_type_id":"4","last_reported":1737612768,"current_range_meters":28800,"station_id":"ce4bh012rcd13ifvqd00","pricing_plan_id":"cebpf4jnsgd1na2vs0mg"},{"bike_id":"110f4d36-27c9-49b8-86bf-d85558408b80","system_id":"levelo_inurba_marseille","lat":43.323616,"lon":5.388832,"is_reserved":false,"is_disabled":false,"rental_uris":{"android":"levelo://app?vid=110f4d36-27c9-49b8-86bf-d85558408b80","ios":"levelo://app?vid=110f4d36-27c9-49b8-86bf-d85558408b80"},"vehicle_type_id":"4","last_reported":1737612768,"current_range_meters":20800,"station_id":"ce4bhqp2rcd13ifvqhog","pricing_plan_id":"cebpf4jnsgd1na2vs0mg"},{"bike_id":"e2151eb3-314b-404c-b259-cf12a3a3e0c6","system_id":"levelo_inurba_marseille","lat":43.31603,"lon":5.40248,"is_reserved":false,"is_disabled":false,"rental_uris":{"android":"levelo://app?vid=e2151eb3-314b-404c-b259-cf12a3a3e0c6","ios":"levelo://app?vid=e2151eb3-314b-404c-b259-cf12a3a3e0c6"},"vehicle_type_id":"4","last_reported":1737612768,"current_range_meters":24000,"station_id":"","pricing_plan_id":"cebpf4jnsgd1na2vs0mg"},{"bike_id":"8af34738-1005-41d3-9a03-fb3cbeb3f15f","system_id":"levelo_inurba_marseille","lat":43.31898,"lon":5.37709,"is_reserved":false,"is_disabled":false,"rental_uris":{"android":"levelo://app?vid=8af34738-1005-41d3-9a03-fb3cbeb3f15f","ios":"levelo://app?vid=8af34738-1005-41d3-9a03-fb3cbeb3f15f"},"vehicle_type_id":"4","last_reported":1737612768,"current_range_meters":38800,"station_id":"ce4bgth2rcd13ifvqch0","pricing_plan_id":"cebpf4jnsgd1na2vs0mg"},{"bike_id":"8c19ddad-4fbd-44ed-a1a5-ada08460f33a","system_id":"levelo_inurba_marseille","lat":43.303337,"lon":5.404362,"is_reserved":false,"is_disabled":false,"rental_uris":{"android":"levelo://app?vid=8c19ddad-4fbd-44ed-a1a5-ada08460f33a","ios":"levelo://app?vid=8c19ddad-4fbd-44ed-a1a5-ada08460f33a"},"vehicle_type_id":"4","last_reported":1737612768,"current_range_meters":35600,"station_id":"ce4bh012rcd13ifvqd10","pricing_plan_id":"cebpf4jnsgd1na2vs0mg"},{"bike_id":"3bcd921d-810c-4845-87ab-d96c2ac5451e","system_id":"levelo_inurba_marseille","lat":43.278205,"lon":5.407146,"is_reserved":false,"is_disabled":false,"rental_uris":{"android":"levelo://app?vid=3bcd921d-810c-4845-87ab-d96c2ac5451e","ios":"levelo://app?vid=3bcd921d-810c-4845-87ab-d96c2ac5451e"},"vehicle_type_id":"4","last_reported":1737612768,"current_range_meters":9600,"station_id":"ce4bhnh2rcd13ifvqgtg","pricing_plan_id":"cebpf4jnsgd1na2vs0mg"},{"bike_id":"072bd41e-733c-4696-9b2f-c3b29627d9c7","system_id":"levelo_inurba_marseille","lat":43.29872,"lon":5.39729,"is_reserved":false,"is_disabled":false,"rental_uris":{"android":"levelo://app?vid=072bd41e-733c-4696-9b2f-c3b29627d9c7","ios":"levelo://app?vid=072bd41e-733c-4696-9b2f-c3b29627d9c7"},"vehicle_type_id":"4","last_reported":1737612768,"current_range_meters":36400,"station_id":"ce4bh0h2rcd13ifvqd50","pricing_plan_id":"cebpf4jnsgd1na2vs0mg"},{"bike_id":"c01ff322-934e-4fed-b8ab-096213fbdb3c","system_id":"levelo_inurba_marseille","lat":43.31991,"lon":5.38143,"is_reserved":false,"is_disabled":false,"rental_uris":{"android":"levelo://app?vid=c01ff322-934e-4fed-b8ab-096213fbdb3c","ios":"levelo://app?vid=c01ff322-934e-4fed-b8ab-096213fbdb3c"},"vehicle_type_id":"4","last_reported":1737612768,"current_range_meters":38800,"station_id":"ce4bhr12rcd13ifvqhpg","pricing_plan_id":"cebpf4jnsgd1na2vs0mg"},{"bike_id":"08818637-6180-4002-9cc5-6a94925764e2","system_id":"levelo_inurba_marseille","lat":43.27846,"lon":5.39203,"is_reserved":false,"is_disabled":false,"rental_uris":{"android":"levelo://app?vid=08818637-6180-4002-9cc5-6a94925764e2","ios":"levelo://app?vid=08818637-6180-4002-9cc5-6a94925764e2"},"vehicle_type_id":"4","last_reported":1737612768,"current_range_meters":38800,"station_id":"ce4bhjp2rcd13ifvqga0","pricing_plan_id":"cebpf4jnsgd1na2vs0mg"},{"bike_id":"b682780f-1130-4710-944b-4563dfd96664","system_id":"levelo_inurba_marseille","lat":43.29232,"lon":5.36116,"is_reserved":false,"is_disabled":false,"rental_uris":{"android":"levelo://app?vid=b682780f-1130-4710-944b-4563dfd96664","ios":"levelo://app?vid=b682780f-1130-4710-944b-4563dfd96664"},"vehicle_type_id":"4","last_reported":1737612768,"current_range_meters":35200,"station_id":"ce4bgj92rcd13ifvqbd0","pricing_plan_id":"cebpf4jnsgd1na2vs0mg"},{"bike_id":"35ba0dfc-6951-499d-b497-45ecff53ae7e","system_id":"levelo_inurba_marseille","lat":43.24391,"lon":5.37061,"is_reserved":false,"is_disabled":false,"rental_uris":{"android":"levelo://app?vid=35ba0dfc-6951-499d-b497-45ecff53ae7e","ios":"levelo://app?vid=35ba0dfc-6951-499d-b497-45ecff53ae7e"},"vehicle_type_id":"4","last_reported":1737612768,"current_range_meters":24400,"station_id":"ce4bhhh2rcd13ifvqfk0","pricing_plan_id":"cebpf4jnsgd1na2vs0mg"},{"bike_id":"373c4bcc-0095-4393-8f96-1dc4190b9df1","system_id":"levelo_inurba_marseille","lat":43.292542,"lon":5.384359,"is_reserved":false,"is_disabled":true,"rental_uris":{"android":"levelo://app?vid=373c4bcc-0095-4393-8f96-1dc4190b9df1","ios":"levelo://app?vid=373c4bcc-0095-4393-8f96-1dc4190b9df1"},"vehicle_type_id":"4","last_reported":1737612768,"current_range_meters":15200,"station_id":"ce4bh692rcd13ifvqea0","pricing_plan_id":"cebpf4jnsgd1na2vs0mg"},{"bike_id":"66f5f589-1654-4c35-b75c-146b9c58c4a7","system_id":"levelo_inurba_marseille","lat":43.28684,"lon":5.38667,"is_reserved":false,"is_disabled":false,"rental_uris":{"android":"levelo://app?vid=66f5f589-1654-4c35-b75c-146b9c58c4a7","ios":"levelo://app?vid=66f5f589-1654-4c35-b75c-146b9c58c4a7"},"vehicle_type_id":"4","last_reported":1737612768,"current_range_meters":38000,"station_id":"ce4bh492rcd13ifvqdug","pricing_plan_id":"cebpf4jnsgd1na2vs0mg"},{"bike_id":"6440f376-b0ac-4979-8b74-813c76d7599b","system_id":"levelo_inurba_marseille","lat":43.241718,"lon":5.397159,"is_reserved":false,"is_disabled":false,"rental_uris":{"android":"levelo://app?vid=6440f376-b0ac-4979-8b74-813c76d7599b","ios":"levelo://app?vid=6440f376-b0ac-4979-8b74-813c76d7599b"},"vehicle_type_id":"4","last_reported":1737612768,"current_range_meters":26800,"station_id":"ce4bhn12rcd13ifvqgpg","pricing_plan_id":"cebpf4jnsgd1na2vs0mg"},{"bike_id":"07222054-6bcd-45e4-8545-43979da21269","system_id":"levelo_inurba_marseille","lat":43.301322,"lon":5.398781,"is_reserved":false,"is_disabled":false,"rental_uris":{"android":"levelo://app?vid=07222054-6bcd-45e4-8545-43979da21269","ios":"levelo://app?vid=07222054-6bcd-45e4-8545-43979da21269"},"vehicle_type_id":"4","last_reported":1737612768,"current_range_meters":37600,"station_id":"ce4bh0h2rcd13ifvqd40","pricing_plan_id":"cebpf4jnsgd1na2vs0mg"},{"bike_id":"53608539-8cd0-47e7-9cfb-d1161556d6fb","system_id":"levelo_inurba_marseille","lat":43.255072,"lon":5.376583,"is_reserved":false,"is_disabled":false,"rental_uris":{"android":"levelo://app?vid=53608539-8cd0-47e7-9cfb-d1161556d6fb","ios":"levelo://app?vid=53608539-8cd0-47e7-9cfb-d1161556d6fb"},"vehicle_type_id":"4","last_reported":1737612768,"current_range_meters":23200,"station_id":"ce4bhh12rcd13ifvqff0","pricing_plan_id":"cebpf4jnsgd1na2vs0mg"},{"bike_id":"f98a7ee0-f9fe-4556-933e-ecf6827038e5","system_id":"levelo_inurba_marseille","lat":43.291794,"lon":5.35734,"is_reserved":false,"is_disabled":false,"rental_uris":{"android":"levelo://app?vid=f98a7ee0-f9fe-4556-933e-ecf6827038e5","ios":"levelo://app?vid=f98a7ee0-f9fe-4556-933e-ecf6827038e5"},"vehicle_type_id":"4","last_reported":1737612768,"current_range_meters":16000,"station_id":"","pricing_plan_id":"cebpf4jnsgd1na2vs0mg"},{"bike_id":"94f605cb-c36d-4203-9f38-c92972100018","system_id":"levelo_inurba_marseille","lat":43.29414,"lon":5.38611,"is_reserved":false,"is_disabled":true,"rental_uris":{"android":"levelo://app?vid=94f605cb-c36d-4203-9f38-c92972100018","ios":"levelo://app?vid=94f605cb-c36d-4203-9f38-c92972100018"},"vehicle_type_id":"4","last_reported":1737612768,"current_range_meters":0,"station_id":"ce4bh2h2rcd13ifvqdh0","pricing_plan_id":"cebpf4jnsgd1na2vs0mg"},{"bike_id":"5bcaa165-3855-4961-b7f5-0a96e04dc71c","system_id":"levelo_inurba_marseille","lat":43.240815,"lon":5.377503,"is_reserved":false,"is_disabled":false,"rental_uris":{"android":"levelo://app?vid=5bcaa165-3855-4961-b7f5-0a96e04dc71c","ios":"levelo://app?vid=5bcaa165-3855-4961-b7f5-0a96e04dc71c"},"vehicle_type_id":"4","last_reported":1737612768,"current_range_meters":25600,"station_id":"ce4bhnp2rcd13ifvqgvg","pricing_plan_id":"cebpf4jnsgd1na2vs0mg"},{"bike_id":"582e8754-15b7-4502-adec-5b8a77d5b5e9","system_id":"levelo_inurba_marseille","lat":43.3171,"lon":5.40484,"is_reserved":false,"is_disabled":false,"rental_uris":{"android":"levelo://app?vid=582e8754-15b7-4502-adec-5b8a77d5b5e9","ios":"levelo://app?vid=582e8754-15b7-4502-adec-5b8a77d5b5e9"},"vehicle_type_id":"4","last_reported":1737612768,"current_range_meters":6000,"station_id":"ce4bh012rcd13ifvqd00","pricing_plan_id":"cebpf4jnsgd1na2vs0mg"},{"bike_id":"0b8213de-42c8-45c5-8bc0-22a0c690a39c","system_id":"levelo_inurba_marseille","lat":43.28728,"lon":5.36077,"is_reserved":false,"is_disabled":false,"rental_uris":{"android":"levelo://app?vid=0b8213de-42c8-45c5-8bc0-22a0c690a39c","ios":"levelo://app?vid=0b8213de-42c8-45c5-8bc0-22a0c690a39c"},"vehicle_type_id":"4","last_reported":1737612768,"current_range_meters":13600,"station_id":"cki0cbj6b192h4jlfktg","pricing_plan_id":"cebpf4jnsgd1na2vs0mg"},{"bike_id":"91f957bd-7ae6-4841-8ac4-1ecdcd0c697e","system_id":"levelo_inurba_marseille","lat":43.31527,"lon":5.40193,"is_reserved":false,"is_disabled":false,"rental_uris":{"android":"levelo://app?vid=91f957bd-7ae6-4841-8ac4-1ecdcd0c697e","ios":"levelo://app?vid=91f957bd-7ae6-4841-8ac4-1ecdcd0c697e"},"vehicle_type_id":"4","last_reported":1737612768,"current_range_meters":27200,"station_id":"","pricing_plan_id":"cebpf4jnsgd1na2vs0mg"},{"bike_id":"ffccc443-e6b0-4ef5-bf1a-7a7bffbf1f18","system_id":"levelo_inurba_marseille","lat":43.279381,"lon":5.410459,"is_reserved":false,"is_disabled":false,"rental_uris":{"android":"levelo://app?vid=ffccc443-e6b0-4ef5-bf1a-7a7bffbf1f18","ios":"levelo://app?vid=ffccc443-e6b0-4ef5-bf1a-7a7bffbf1f18"},"vehicle_type_id":"4","last_reported":1737612768,"current_range_meters":32400,"station_id":"ce4bhnp2rcd13ifvqh0g","pricing_plan_id":"cebpf4jnsgd1na2vs0mg"},{"bike_id":"8eb2fff1-c521-443e-96d7-373c8de3d2ee","system_id":"levelo_inurba_marseille","lat":43.30872,"lon":5.39646,"is_reserved":false,"is_disabled":false,"rental_uris":{"android":"levelo://app?vid=8eb2fff1-c521-443e-96d7-373c8de3d2ee","ios":"levelo://app?vid=8eb2fff1-c521-443e-96d7-373c8de3d2ee"},"vehicle_type_id":"4","last_reported":1737612768,"current_range_meters":24400,"station_id":"ce4bh012rcd13ifvqcv0","pricing_plan_id":"cebpf4jnsgd1na2vs0mg"},{"bike_id":"96663138-92b9-4343-9a11-314ee4531fc0","system_id":"levelo_inurba_marseille","lat":43.30788,"lon":5.37647,"is_reserved":false,"is_disabled":true,"rental_uris":{"android":"levelo://app?vid=96663138-92b9-4343-9a11-314ee4531fc0","ios":"levelo://app?vid=96663138-92b9-4343-9a11-314ee4531fc0"},"vehicle_type_id":"4","last_reported":1737612768,"current_range_meters":16000,"station_id":"ce4bgv92rcd13ifvqcq0","pricing_plan_id":"cebpf4jnsgd1na2vs0mg"},{"bike_id":"3aacaccf-46a5-4395-9f8a-45e220633325","system_id":"levelo_inurba_marseille","lat":43.30797,"lon":5.38159,"is_reserved":false,"is_disabled":false,"rental_uris":{"android":"levelo://app?vid=3aacaccf-46a5-4395-9f8a-45e220633325","ios":"levelo://app?vid=3aacaccf-46a5-4395-9f8a-45e220633325"},"vehicle_type_id":"4","last_reported":1737612768,"current_range_meters":38800,"station_id":"ce4bgt12rcd13ifvqce0","pricing_plan_id":"cebpf4jnsgd1na2vs0mg"},{"bike_id":"a9d08443-71b6-4ab7-93ae-f8d5b6602792","system_id":"levelo_inurba_marseille","lat":43.308019,"lon":5.435205,"is_reserved":false,"is_disabled":false,"rental_uris":{"android":"levelo://app?vid=a9d08443-71b6-4ab7-93ae-f8d5b6602792","ios":"levelo://app?vid=a9d08443-71b6-4ab7-93ae-f8d5b6602792"},"vehicle_type_id":"4","last_reported":1737612768,"current_range_meters":11200,"station_id":"ce4bhph2rcd13ifvqheg","pricing_plan_id":"cebpf4jnsgd1na2vs0mg"},{"bike_id":"1bf6e842-f177-4f99-a02d-c8597377b434","system_id":"levelo_inurba_marseille","lat":43.30091,"lon":5.39064,"is_reserved":false,"is_disabled":false,"rental_uris":{"android":"levelo://app?vid=1bf6e842-f177-4f99-a02d-c8597377b434","ios":"levelo://app?vid=1bf6e842-f177-4f99-a02d-c8597377b434"},"vehicle_type_id":"4","last_reported":1737612768,"current_range_meters":10000,"station_id":"ce4bh192rcd13ifvqdb0","pricing_plan_id":"cebpf4jnsgd1na2vs0mg"},{"bike_id":"7c99757d-a618-4c05-bdf4-03e32374f001","system_id":"levelo_inurba_marseille","lat":43.28469,"lon":5.35866,"is_reserved":false,"is_disabled":false,"rental_uris":{"android":"levelo://app?vid=7c99757d-a618-4c05-bdf4-03e32374f001","ios":"levelo://app?vid=7c99757d-a618-4c05-bdf4-03e32374f001"},"vehicle_type_id":"4","last_reported":1737612768,"current_range_meters":32800,"station_id":"ce4bhah2rcd13ifvqei0","pricing_plan_id":"cebpf4jnsgd1na2vs0mg"},{"bike_id":"ad5f5dfd-e11f-4bdc-bfa7-091bbf9e45e3","system_id":"levelo_inurba_marseille","lat":43.269035,"lon":5.388497,"is_reserved":false,"is_disabled":false,"rental_uris":{"android":"levelo://app?vid=ad5f5dfd-e11f-4bdc-bfa7-091bbf9e45e3","ios":"levelo://app?vid=ad5f5dfd-e11f-4bdc-bfa7-091bbf9e45e3"},"vehicle_type_id":"4","last_reported":1737612768,"current_range_meters":37600,"station_id":"ce4bhhh2rcd13ifvqfl0","pricing_plan_id":"cebpf4jnsgd1na2vs0mg"},{"bike_id":"ce90fea6-ff2a-4d0b-bd4f-45ced0acf4c0","system_id":"levelo_inurba_marseille","lat":43.32359,"lon":5.36736,"is_reserved":false,"is_disabled":false,"rental_uris":{"android":"levelo://app?vid=ce90fea6-ff2a-4d0b-bd4f-45ced0acf4c0","ios":"levelo://app?vid=ce90fea6-ff2a-4d0b-bd4f-45ced0acf4c0"},"vehicle_type_id":"4","last_reported":1737612768,"current_range_meters":13600,"station_id":"ce4bhsh2rcd13ifvqi2g","pricing_plan_id":"cebpf4jnsgd1na2vs0mg"},{"bike_id":"8ab0346c-8001-4067-8852-009244e2b53d","system_id":"levelo_inurba_marseille","lat":43.310829,"lon":5.424351,"is_reserved":false,"is_disabled":false,"rental_uris":{"android":"levelo://app?vid=8ab0346c-8001-4067-8852-009244e2b53d","ios":"levelo://app?vid=8ab0346c-8001-4067-8852-009244e2b53d"},"vehicle_type_id":"4","last_reported":1737612768,"current_range_meters":38800,"station_id":"ce4bhp92rcd13ifvqhag","pricing_plan_id":"cebpf4jnsgd1na2vs0mg"},{"bike_id":"ab13439f-1c4b-4b83-ac72-9f4e6d1f64cb","system_id":"levelo_inurba_marseille","lat":43.31249,"lon":5.37971,"is_reserved":false,"is_disabled":true,"rental_uris":{"android":"levelo://app?vid=ab13439f-1c4b-4b83-ac72-9f4e6d1f64cb","ios":"levelo://app?vid=ab13439f-1c4b-4b83-ac72-9f4e6d1f64cb"},"vehicle_type_id":"4","last_reported":1737612768,"current_range_meters":11600,"station_id":"","pricing_plan_id":"cebpf4jnsgd1na2vs0mg"},{"bike_id":"49b72580-0a1d-4edc-bc96-4de0de30e7b4","system_id":"levelo_inurba_marseille","lat":43.31077,"lon":5.38357,"is_reserved":false,"is_disabled":false,"rental_uris":{"android":"levelo://app?vid=49b72580-0a1d-4edc-bc96-4de0de30e7b4","ios":"levelo://app?vid=49b72580-0a1d-4edc-bc96-4de0de30e7b4"},"vehicle_type_id":"4","last_reported":1737612768,"current_range_meters":38400,"station_id":"ce4bgv92rcd13ifvqcr0","pricing_plan_id":"cebpf4jnsgd1na2vs0mg"},{"bike_id":"ae61e9fb-77e2-453d-8f80-29ea9c2b14f4","system_id":"levelo_inurba_marseille","lat":43.297095,"lon":5.366091,"is_reserved":false,"is_disabled":false,"rental_uris":{"android":"levelo://app?vid=ae61e9fb-77e2-453d-8f80-29ea9c2b14f4","ios":"levelo://app?vid=ae61e9fb-77e2-453d-8f80-29ea9c2b14f4"},"vehicle_type_id":"4","last_reported":1737612768,"current_range_meters":38000,"station_id":"ce4bgn12rcd13ifvqbt0","pricing_plan_id":"cebpf4jnsgd1na2vs0mg"},{"bike_id":"fe9a0b6e-6d5f-461c-816f-df565a992bdf","system_id":"levelo_inurba_marseille","lat":43.28143,"lon":5.42635,"is_reserved":false,"is_disabled":false,"rental_uris":{"android":"levelo://app?vid=fe9a0b6e-6d5f-461c-816f-df565a992bdf","ios":"levelo://app?vid=fe9a0b6e-6d5f-461c-816f-df565a992bdf"},"vehicle_type_id":"4","last_reported":1737612768,"current_range_meters":28800,"station_id":"ce4bhnh2rcd13ifvqgug","pricing_plan_id":"cebpf4jnsgd1na2vs0mg"},{"bike_id":"df41d40d-8820-40f5-8e9c-038839210855","system_id":"levelo_inurba_marseille","lat":43.30117,"lon":5.38762,"is_reserved":false,"is_disabled":false,"rental_uris":{"android":"levelo://app?vid=df41d40d-8820-40f5-8e9c-038839210855","ios":"levelo://app?vid=df41d40d-8820-40f5-8e9c-038839210855"},"vehicle_type_id":"4","last_reported":1737612768,"current_range_meters":9600,"station_id":"ce4bghh2rcd13ifvqb60","pricing_plan_id":"cebpf4jnsgd1na2vs0mg"},{"bike_id":"e14baba4-7381-4ad7-9450-30b4b09a275b","system_id":"levelo_inurba_marseille","lat":43.31087,"lon":5.42437,"is_reserved":false,"is_disabled":false,"rental_uris":{"android":"levelo://app?vid=e14baba4-7381-4ad7-9450-30b4b09a275b","ios":"levelo://app?vid=e14baba4-7381-4ad7-9450-30b4b09a275b"},"vehicle_type_id":"4","last_reported":1737612768,"current_range_meters":38800,"station_id":"ce4bhp92rcd13ifvqhag","pricing_plan_id":"cebpf4jnsgd1na2vs0mg"},{"bike_id":"46df303c-af7b-4bd6-88dd-7d9758a3ac21","system_id":"levelo_inurba_marseille","lat":43.30446,"lon":5.38892,"is_reserved":false,"is_disabled":true,"rental_uris":{"android":"levelo://app?vid=46df303c-af7b-4bd6-88dd-7d9758a3ac21","ios":"levelo://app?vid=46df303c-af7b-4bd6-88dd-7d9758a3ac21"},"vehicle_type_id":"4","last_reported":1737612768,"current_range_meters":22000,"station_id":"ce4bgk12rcd13ifvqbi0","pricing_plan_id":"cebpf4jnsgd1na2vs0mg"},{"bike_id":"5ba5cfe7-a3f0-4559-acb3-f50099266fea","system_id":"levelo_inurba_marseille","lat":43.275663,"lon":5.384264,"is_reserved":false,"is_disabled":false,"rental_uris":{"android":"levelo://app?vid=5ba5cfe7-a3f0-4559-acb3-f50099266fea","ios":"levelo://app?vid=5ba5cfe7-a3f0-4559-acb3-f50099266fea"},"vehicle_type_id":"4","last_reported":1737612768,"current_range_meters":29600,"station_id":"ce4bhh92rcd13ifvqfi0","pricing_plan_id":"cebpf4jnsgd1na2vs0mg"},{"bike_id":"dc25515f-2516-4d8e-8ff7-eaa9f571f705","system_id":"levelo_inurba_marseille","lat":43.30106,"lon":5.39071,"is_reserved":false,"is_disabled":true,"rental_uris":{"android":"levelo://app?vid=dc25515f-2516-4d8e-8ff7-eaa9f571f705","ios":"levelo://app?vid=dc25515f-2516-4d8e-8ff7-eaa9f571f705"},"vehicle_type_id":"4","last_reported":1737612768,"current_range_meters":0,"station_id":"ce4bh192rcd13ifvqdb0","pricing_plan_id":"cebpf4jnsgd1na2vs0mg"},{"bike_id":"0e4d8d1d-321e-47ac-b020-7f9b0583208d","system_id":"levelo_inurba_marseille","lat":43.3133,"lon":5.39685,"is_reserved":false,"is_disabled":false,"rental_uris":{"android":"levelo://app?vid=0e4d8d1d-321e-47ac-b020-7f9b0583208d","ios":"levelo://app?vid=0e4d8d1d-321e-47ac-b020-7f9b0583208d"},"vehicle_type_id":"4","last_reported":1737612768,"current_range_meters":38800,"station_id":"ce4bgvp2rcd13ifvqcu0","pricing_plan_id":"cebpf4jnsgd1na2vs0mg"},{"bike_id":"219132d0-be19-453e-a72d-906c42eab0a6","system_id":"levelo_inurba_marseille","lat":43.28359,"lon":5.38629,"is_reserved":false,"is_disabled":false,"rental_uris":{"android":"levelo://app?vid=219132d0-be19-453e-a72d-906c42eab0a6","ios":"levelo://app?vid=219132d0-be19-453e-a72d-906c42eab0a6"},"vehicle_type_id":"4","last_reported":1737612768,"current_range_meters":38800,"station_id":"ce4bh492rcd13ifvqdvg","pricing_plan_id":"cebpf4jnsgd1na2vs0mg"},{"bike_id":"c4db15ea-eb22-409d-a92c-518ac96d96dd","system_id":"levelo_inurba_marseille","lat":43.29542,"lon":5.42239,"is_reserved":false,"is_disabled":false,"rental_uris":{"android":"levelo://app?vid=c4db15ea-eb22-409d-a92c-518ac96d96dd","ios":"levelo://app?vid=c4db15ea-eb22-409d-a92c-518ac96d96dd"},"vehicle_type_id":"4","last_reported":1737612768,"current_range_meters":39200,"station_id":"ce4bhph2rcd13ifvqhdg","pricing_plan_id":"cebpf4jnsgd1na2vs0mg"},{"bike_id":"173e3aa7-0f78-46bd-a3ba-457b0bd64da9","system_id":"levelo_inurba_marseille","lat":43.28105,"lon":5.37828,"is_reserved":false,"is_disabled":false,"rental_uris":{"android":"levelo://app?vid=173e3aa7-0f78-46bd-a3ba-457b0bd64da9","ios":"levelo://app?vid=173e3aa7-0f78-46bd-a3ba-457b0bd64da9"},"vehicle_type_id":"4","last_reported":1737612768,"current_range_meters":38400,"station_id":"ce4bha12rcd13ifvqee0","pricing_plan_id":"cebpf4jnsgd1na2vs0mg"},{"bike_id":"5fda7550-04d6-4348-b623-706fa03b7fd7","system_id":"levelo_inurba_marseille","lat":43.279,"lon":5.39595,"is_reserved":false,"is_disabled":false,"rental_uris":{"android":"levelo://app?vid=5fda7550-04d6-4348-b623-706fa03b7fd7","ios":"levelo://app?vid=5fda7550-04d6-4348-b623-706fa03b7fd7"},"vehicle_type_id":"4","last_reported":1737612768,"current_range_meters":26000,"station_id":"ce4bhf92rcd13ifvqf40","pricing_plan_id":"cebpf4jnsgd1na2vs0mg"},{"bike_id":"68402148-60a5-4cb9-9fd1-f8a71c609ca3","system_id":"levelo_inurba_marseille","lat":43.30134,"lon":5.39871,"is_reserved":false,"is_disabled":false,"rental_uris":{"android":"levelo://app?vid=68402148-60a5-4cb9-9fd1-f8a71c609ca3","ios":"levelo://app?vid=68402148-60a5-4cb9-9fd1-f8a71c609ca3"},"vehicle_type_id":"4","last_reported":1737612768,"current_range_meters":24400,"station_id":"ce4bh0h2rcd13ifvqd40","pricing_plan_id":"cebpf4jnsgd1na2vs0mg"},{"bike_id":"e6f5cc07-7521-407d-88c2-2999a4a7ae9e","system_id":"levelo_inurba_marseille","lat":43.279484,"lon":5.410476,"is_reserved":false,"is_disabled":false,"rental_uris":{"android":"levelo://app?vid=e6f5cc07-7521-407d-88c2-2999a4a7ae9e","ios":"levelo://app?vid=e6f5cc07-7521-407d-88c2-2999a4a7ae9e"},"vehicle_type_id":"4","last_reported":1737612768,"current_range_meters":15200,"station_id":"ce4bhnp2rcd13ifvqh0g","pricing_plan_id":"cebpf4jnsgd1na2vs0mg"},{"bike_id":"a74613b0-0632-4e74-90d6-f057fde31b01","system_id":"levelo_inurba_marseille","lat":43.30886,"lon":5.3963,"is_reserved":false,"is_disabled":false,"rental_uris":{"android":"levelo://app?vid=a74613b0-0632-4e74-90d6-f057fde31b01","ios":"levelo://app?vid=a74613b0-0632-4e74-90d6-f057fde31b01"},"vehicle_type_id":"4","last_reported":1737612768,"current_range_meters":36800,"station_id":"ce4bh012rcd13ifvqcv0","pricing_plan_id":"cebpf4jnsgd1na2vs0mg"},{"bike_id":"a7708f30-9219-4bd1-8375-405a911cd519","system_id":"levelo_inurba_marseille","lat":43.2294,"lon":5.35392,"is_reserved":false,"is_disabled":false,"rental_uris":{"android":"levelo://app?vid=a7708f30-9219-4bd1-8375-405a911cd519","ios":"levelo://app?vid=a7708f30-9219-4bd1-8375-405a911cd519"},"vehicle_type_id":"4","last_reported":1737612768,"current_range_meters":8000,"station_id":"cpo3532slgdg3j2ikp40","pricing_plan_id":"cebpf4jnsgd1na2vs0mg"},{"bike_id":"8d0b1012-c1d6-45ce-b61d-a547d784948c","system_id":"levelo_inurba_marseille","lat":43.323375,"lon":5.406081,"is_reserved":false,"is_disabled":false,"rental_uris":{"android":"levelo://app?vid=8d0b1012-c1d6-45ce-b61d-a547d784948c","ios":"levelo://app?vid=8d0b1012-c1d6-45ce-b61d-a547d784948c"},"vehicle_type_id":"4","last_reported":1737612768,"current_range_meters":38800,"station_id":"ce4bhq92rcd13ifvqhjg","pricing_plan_id":"cebpf4jnsgd1na2vs0mg"},{"bike_id":"ee646c62-a4e2-4b65-a142-5eba84f8a7ad","system_id":"levelo_inurba_marseille","lat":43.27897,"lon":5.37998,"is_reserved":false,"is_disabled":false,"rental_uris":{"android":"levelo://app?vid=ee646c62-a4e2-4b65-a142-5eba84f8a7ad","ios":"levelo://app?vid=ee646c62-a4e2-4b65-a142-5eba84f8a7ad"},"vehicle_type_id":"4","last_reported":1737612768,"current_range_meters":38000,"station_id":"ce4bhf92rcd13ifvqf50","pricing_plan_id":"cebpf4jnsgd1na2vs0mg"},{"bike_id":"16d14ba6-7dee-471b-a066-bf7bfe8fa241","system_id":"levelo_inurba_marseille","lat":43.2871,"lon":5.36102,"is_reserved":false,"is_disabled":false,"rental_uris":{"android":"levelo://app?vid=16d14ba6-7dee-471b-a066-bf7bfe8fa241","ios":"levelo://app?vid=16d14ba6-7dee-471b-a066-bf7bfe8fa241"},"vehicle_type_id":"4","last_reported":1737612768,"current_range_meters":22000,"station_id":"cki0cbj6b192h4jlfktg","pricing_plan_id":"cebpf4jnsgd1na2vs0mg"},{"bike_id":"f8aa956a-8cae-4e6e-bae9-e7d6d45f1b1a","system_id":"levelo_inurba_marseille","lat":43.30787,"lon":5.37662,"is_reserved":false,"is_disabled":false,"rental_uris":{"android":"levelo://app?vid=f8aa956a-8cae-4e6e-bae9-e7d6d45f1b1a","ios":"levelo://app?vid=f8aa956a-8cae-4e6e-bae9-e7d6d45f1b1a"},"vehicle_type_id":"4","last_reported":1737612768,"current_range_meters":16800,"station_id":"ce4bgv92rcd13ifvqcq0","pricing_plan_id":"cebpf4jnsgd1na2vs0mg"},{"bike_id":"e0ba6aac-d8ba-47b1-aa97-80ae735f1af2","system_id":"levelo_inurba_marseille","lat":43.25719,"lon":5.41112,"is_reserved":false,"is_disabled":false,"rental_uris":{"android":"levelo://app?vid=e0ba6aac-d8ba-47b1-aa97-80ae735f1af2","ios":"levelo://app?vid=e0ba6aac-d8ba-47b1-aa97-80ae735f1af2"},"vehicle_type_id":"4","last_reported":1737612768,"current_range_meters":39200,"station_id":"ce4bhkp2rcd13ifvqgd0","pricing_plan_id":"cebpf4jnsgd1na2vs0mg"},{"bike_id":"829a73aa-a8bc-45e5-b4cd-22689311b6c7","system_id":"levelo_inurba_marseille","lat":43.30431,"lon":5.38902,"is_reserved":false,"is_disabled":true,"rental_uris":{"android":"levelo://app?vid=829a73aa-a8bc-45e5-b4cd-22689311b6c7","ios":"levelo://app?vid=829a73aa-a8bc-45e5-b4cd-22689311b6c7"},"vehicle_type_id":"4","last_reported":1737612768,"current_range_meters":36000,"station_id":"ce4bgk12rcd13ifvqbi0","pricing_plan_id":"cebpf4jnsgd1na2vs0mg"},{"bike_id":"a5e265d6-a783-44d5-9134-8b17d23391d9","system_id":"levelo_inurba_marseille","lat":43.30327,"lon":5.40441,"is_reserved":false,"is_disabled":false,"rental_uris":{"android":"levelo://app?vid=a5e265d6-a783-44d5-9134-8b17d23391d9","ios":"levelo://app?vid=a5e265d6-a783-44d5-9134-8b17d23391d9"},"vehicle_type_id":"4","last_reported":1737612768,"current_range_meters":38800,"station_id":"ce4bh012rcd13ifvqd10","pricing_plan_id":"cebpf4jnsgd1na2vs0mg"},{"bike_id":"fe5283d4-ad50-4326-875d-e657e7e908e3","system_id":"levelo_inurba_marseille","lat":43.31482,"lon":5.37262,"is_reserved":false,"is_disabled":false,"rental_uris":{"android":"levelo://app?vid=fe5283d4-ad50-4326-875d-e657e7e908e3","ios":"levelo://app?vid=fe5283d4-ad50-4326-875d-e657e7e908e3"},"vehicle_type_id":"4","last_reported":1737612768,"current_range_meters":30400,"station_id":"ce4bgt12rcd13ifvqcd0","pricing_plan_id":"cebpf4jnsgd1na2vs0mg"},{"bike_id":"95289c82-6911-43c4-a49c-6e7f2290b672","system_id":"levelo_inurba_marseille","lat":43.304104,"lon":5.412833,"is_reserved":false,"is_disabled":false,"rental_uris":{"android":"levelo://app?vid=95289c82-6911-43c4-a49c-6e7f2290b672","ios":"levelo://app?vid=95289c82-6911-43c4-a49c-6e7f2290b672"},"vehicle_type_id":"4","last_reported":1737612768,"current_range_meters":38800,"station_id":"ce4bhop2rcd13ifvqh8g","pricing_plan_id":"cebpf4jnsgd1na2vs0mg"},{"bike_id":"97ed1502-02e9-40ce-b199-40998301fb85","system_id":"levelo_inurba_marseille","lat":43.29255,"lon":5.40902,"is_reserved":false,"is_disabled":false,"rental_uris":{"android":"levelo://app?vid=97ed1502-02e9-40ce-b199-40998301fb85","ios":"levelo://app?vid=97ed1502-02e9-40ce-b199-40998301fb85"},"vehicle_type_id":"4","last_reported":1737612768,"current_range_meters":27200,"station_id":"ce4bh192rcd13ifvqdc0","pricing_plan_id":"cebpf4jnsgd1na2vs0mg"},{"bike_id":"c570aeb4-f042-4c28-98e7-932abb58d9d8","system_id":"levelo_inurba_marseille","lat":43.28666,"lon":5.36364,"is_reserved":false,"is_disabled":false,"rental_uris":{"android":"levelo://app?vid=c570aeb4-f042-4c28-98e7-932abb58d9d8","ios":"levelo://app?vid=c570aeb4-f042-4c28-98e7-932abb58d9d8"},"vehicle_type_id":"4","last_reported":1737612768,"current_range_meters":12000,"station_id":"ce4bhah2rcd13ifvqej0","pricing_plan_id":"cebpf4jnsgd1na2vs0mg"},{"bike_id":"dcb048dc-cdc9-4384-89c0-8b2fb6c6a910","system_id":"levelo_inurba_marseille","lat":43.289309,"lon":5.364023,"is_reserved":false,"is_disabled":false,"rental_uris":{"android":"levelo://app?vid=dcb048dc-cdc9-4384-89c0-8b2fb6c6a910","ios":"levelo://app?vid=dcb048dc-cdc9-4384-89c0-8b2fb6c6a910"},"vehicle_type_id":"4","last_reported":1737612768,"current_range_meters":15200,"station_id":"ce4bhc92rcd13ifvqetg","pricing_plan_id":"cebpf4jnsgd1na2vs0mg"},{"bike_id":"aa78dc9b-1ad6-4b84-b70b-d65d57de4050","system_id":"levelo_inurba_marseille","lat":43.306592,"lon":5.400814,"is_reserved":false,"is_disabled":false,"rental_uris":{"android":"levelo://app?vid=aa78dc9b-1ad6-4b84-b70b-d65d57de4050","ios":"levelo://app?vid=aa78dc9b-1ad6-4b84-b70b-d65d57de4050"},"vehicle_type_id":"4","last_reported":1737612768,"current_range_meters":8800,"station_id":"ce4bh112rcd13ifvqda0","pricing_plan_id":"cebpf4jnsgd1na2vs0mg"},{"bike_id":"96e0558c-cec8-47c4-89d3-1aa21c4b0119","system_id":"levelo_inurba_marseille","lat":43.257086,"lon":5.41814,"is_reserved":false,"is_disabled":false,"rental_uris":{"android":"levelo://app?vid=96e0558c-cec8-47c4-89d3-1aa21c4b0119","ios":"levelo://app?vid=96e0558c-cec8-47c4-89d3-1aa21c4b0119"},"vehicle_type_id":"4","last_reported":1737612768,"current_range_meters":17200,"station_id":"","pricing_plan_id":"cebpf4jnsgd1na2vs0mg"},{"bike_id":"910fda35-12f8-43e9-b9a0-b272dcb4b894","system_id":"levelo_inurba_marseille","lat":43.292585,"lon":5.408989,"is_reserved":false,"is_disabled":false,"rental_uris":{"android":"levelo://app?vid=910fda35-12f8-43e9-b9a0-b272dcb4b894","ios":"levelo://app?vid=910fda35-12f8-43e9-b9a0-b272dcb4b894"},"vehicle_type_id":"4","last_reported":1737612768,"current_range_meters":38800,"station_id":"ce4bh192rcd13ifvqdc0","pricing_plan_id":"cebpf4jnsgd1na2vs0mg"},{"bike_id":"ffed11c9-eb08-4082-8d11-4dd09bc6ad00","system_id":"levelo_inurba_marseille","lat":43.29262,"lon":5.4092,"is_reserved":false,"is_disabled":false,"rental_uris":{"android":"levelo://app?vid=ffed11c9-eb08-4082-8d11-4dd09bc6ad00","ios":"levelo://app?vid=ffed11c9-eb08-4082-8d11-4dd09bc6ad00"},"vehicle_type_id":"4","last_reported":1737612768,"current_range_meters":38000,"station_id":"ce4bh192rcd13ifvqdc0","pricing_plan_id":"cebpf4jnsgd1na2vs0mg"},{"bike_id":"0daeceb0-3e33-439a-bb67-f4d1603f1523","system_id":"levelo_inurba_marseille","lat":43.31277,"lon":5.40168,"is_reserved":false,"is_disabled":false,"rental_uris":{"android":"levelo://app?vid=0daeceb0-3e33-439a-bb67-f4d1603f1523","ios":"levelo://app?vid=0daeceb0-3e33-439a-bb67-f4d1603f1523"},"vehicle_type_id":"4","last_reported":1737612768,"current_range_meters":38800,"station_id":"ce4bh092rcd13ifvqd30","pricing_plan_id":"cebpf4jnsgd1na2vs0mg"},{"bike_id":"59f93907-2a7e-48c1-b2ef-ddfb94bd2966","system_id":"levelo_inurba_marseille","lat":43.27948,"lon":5.41058,"is_reserved":false,"is_disabled":false,"rental_uris":{"android":"levelo://app?vid=59f93907-2a7e-48c1-b2ef-ddfb94bd2966","ios":"levelo://app?vid=59f93907-2a7e-48c1-b2ef-ddfb94bd2966"},"vehicle_type_id":"4","last_reported":1737612768,"current_range_meters":28800,"station_id":"ce4bhnp2rcd13ifvqh0g","pricing_plan_id":"cebpf4jnsgd1na2vs0mg"},{"bike_id":"5f2676f8-0004-4b83-8adf-66c1f0e7ad65","system_id":"levelo_inurba_marseille","lat":43.31131,"lon":5.37772,"is_reserved":false,"is_disabled":false,"rental_uris":{"android":"levelo://app?vid=5f2676f8-0004-4b83-8adf-66c1f0e7ad65","ios":"levelo://app?vid=5f2676f8-0004-4b83-8adf-66c1f0e7ad65"},"vehicle_type_id":"4","last_reported":1737612768,"current_range_meters":33200,"station_id":"ce4bgt92rcd13ifvqcg0","pricing_plan_id":"cebpf4jnsgd1na2vs0mg"},{"bike_id":"00bbdd8f-e74c-42a6-ad19-9b6fcaedf73b","system_id":"levelo_inurba_marseille","lat":43.30963,"lon":5.39064,"is_reserved":false,"is_disabled":false,"rental_uris":{"android":"levelo://app?vid=00bbdd8f-e74c-42a6-ad19-9b6fcaedf73b","ios":"levelo://app?vid=00bbdd8f-e74c-42a6-ad19-9b6fcaedf73b"},"vehicle_type_id":"4","last_reported":1737612768,"current_range_meters":38800,"station_id":"ce4bgup2rcd13ifvqco0","pricing_plan_id":"cebpf4jnsgd1na2vs0mg"},{"bike_id":"13a64475-e4c7-493c-900a-0bcfe86942ca","system_id":"levelo_inurba_marseille","lat":43.308097,"lon":5.435257,"is_reserved":false,"is_disabled":false,"rental_uris":{"android":"levelo://app?vid=13a64475-e4c7-493c-900a-0bcfe86942ca","ios":"levelo://app?vid=13a64475-e4c7-493c-900a-0bcfe86942ca"},"vehicle_type_id":"4","last_reported":1737612768,"current_range_meters":12400,"station_id":"ce4bhph2rcd13ifvqheg","pricing_plan_id":"cebpf4jnsgd1na2vs0mg"},{"bike_id":"ac3fa518-fef3-4a6f-9e1e-03befa6efc87","system_id":"levelo_inurba_marseille","lat":43.27941,"lon":5.41045,"is_reserved":false,"is_disabled":false,"rental_uris":{"android":"levelo://app?vid=ac3fa518-fef3-4a6f-9e1e-03befa6efc87","ios":"levelo://app?vid=ac3fa518-fef3-4a6f-9e1e-03befa6efc87"},"vehicle_type_id":"4","last_reported":1737612768,"current_range_meters":8800,"station_id":"ce4bhnp2rcd13ifvqh0g","pricing_plan_id":"cebpf4jnsgd1na2vs0mg"},{"bike_id":"366618e5-58e4-49a2-b359-c5654fbadc2c","system_id":"levelo_inurba_marseille","lat":43.24074,"lon":5.37744,"is_reserved":false,"is_disabled":false,"rental_uris":{"android":"levelo://app?vid=366618e5-58e4-49a2-b359-c5654fbadc2c","ios":"levelo://app?vid=366618e5-58e4-49a2-b359-c5654fbadc2c"},"vehicle_type_id":"4","last_reported":1737612768,"current_range_meters":19200,"station_id":"ce4bhnp2rcd13ifvqgvg","pricing_plan_id":"cebpf4jnsgd1na2vs0mg"},{"bike_id":"c3b3bebb-09f3-4084-8c35-a5fde3b4b8b8","system_id":"levelo_inurba_marseille","lat":43.292,"lon":5.35789,"is_reserved":false,"is_disabled":false,"rental_uris":{"android":"levelo://app?vid=c3b3bebb-09f3-4084-8c35-a5fde3b4b8b8","ios":"levelo://app?vid=c3b3bebb-09f3-4084-8c35-a5fde3b4b8b8"},"vehicle_type_id":"4","last_reported":1737612768,"current_range_meters":32800,"station_id":"ce4bhb12rcd13ifvqel0","pricing_plan_id":"cebpf4jnsgd1na2vs0mg"},{"bike_id":"aaa0c41b-3b4f-4f38-bba2-425d19b5f467","system_id":"levelo_inurba_marseille","lat":43.25716,"lon":5.41785,"is_reserved":false,"is_disabled":false,"rental_uris":{"android":"levelo://app?vid=aaa0c41b-3b4f-4f38-bba2-425d19b5f467","ios":"levelo://app?vid=aaa0c41b-3b4f-4f38-bba2-425d19b5f467"},"vehicle_type_id":"4","last_reported":1737612768,"current_range_meters":30000,"station_id":"","pricing_plan_id":"cebpf4jnsgd1na2vs0mg"},{"bike_id":"b0ee3244-b915-4f05-8704-8eb07d0c50b6","system_id":"levelo_inurba_marseille","lat":43.31706,"lon":5.37765,"is_reserved":false,"is_disabled":false,"rental_uris":{"android":"levelo://app?vid=b0ee3244-b915-4f05-8704-8eb07d0c50b6","ios":"levelo://app?vid=b0ee3244-b915-4f05-8704-8eb07d0c50b6"},"vehicle_type_id":"4","last_reported":1737612768,"current_range_meters":38800,"station_id":"ce4bgth2rcd13ifvqch0","pricing_plan_id":"cebpf4jnsgd1na2vs0mg"},{"bike_id":"2c89f2df-1730-4475-ab17-da02f7faf3ef","system_id":"levelo_inurba_marseille","lat":43.29191,"lon":5.39323,"is_reserved":false,"is_disabled":false,"rental_uris":{"android":"levelo://app?vid=2c89f2df-1730-4475-ab17-da02f7faf3ef","ios":"levelo://app?vid=2c89f2df-1730-4475-ab17-da02f7faf3ef"},"vehicle_type_id":"4","last_reported":1737612768,"current_range_meters":38800,"station_id":"ce4bh192rcd13ifvqdd0","pricing_plan_id":"cebpf4jnsgd1na2vs0mg"},{"bike_id":"4b9859b2-6d52-40dc-ab94-7ba11816198c","system_id":"levelo_inurba_marseille","lat":43.28469,"lon":5.35872,"is_reserved":false,"is_disabled":false,"rental_uris":{"android":"levelo://app?vid=4b9859b2-6d52-40dc-ab94-7ba11816198c","ios":"levelo://app?vid=4b9859b2-6d52-40dc-ab94-7ba11816198c"},"vehicle_type_id":"4","last_reported":1737612768,"current_range_meters":21600,"station_id":"ce4bhah2rcd13ifvqei0","pricing_plan_id":"cebpf4jnsgd1na2vs0mg"},{"bike_id":"96260513-3235-425b-b454-db083e6fc601","system_id":"levelo_inurba_marseille","lat":43.254969,"lon":5.376507,"is_reserved":false,"is_disabled":false,"rental_uris":{"android":"levelo://app?vid=96260513-3235-425b-b454-db083e6fc601","ios":"levelo://app?vid=96260513-3235-425b-b454-db083e6fc601"},"vehicle_type_id":"4","last_reported":1737612768,"current_range_meters":38000,"station_id":"ce4bhh12rcd13ifvqff0","pricing_plan_id":"cebpf4jnsgd1na2vs0mg"},{"bike_id":"58bd67b2-eea0-4ad2-8092-8cb589d6733b","system_id":"levelo_inurba_marseille","lat":43.308,"lon":5.43515,"is_reserved":false,"is_disabled":false,"rental_uris":{"android":"levelo://app?vid=58bd67b2-eea0-4ad2-8092-8cb589d6733b","ios":"levelo://app?vid=58bd67b2-eea0-4ad2-8092-8cb589d6733b"},"vehicle_type_id":"4","last_reported":1737612768,"current_range_meters":6800,"station_id":"ce4bhph2rcd13ifvqheg","pricing_plan_id":"cebpf4jnsgd1na2vs0mg"},{"bike_id":"f8216a2b-e7c5-4eea-8c3d-912daef0d729","system_id":"levelo_inurba_marseille","lat":43.29903,"lon":5.43665,"is_reserved":false,"is_disabled":false,"rental_uris":{"android":"levelo://app?vid=f8216a2b-e7c5-4eea-8c3d-912daef0d729","ios":"levelo://app?vid=f8216a2b-e7c5-4eea-8c3d-912daef0d729"},"vehicle_type_id":"4","last_reported":1737612768,"current_range_meters":20800,"station_id":"ce4bhpp2rcd13ifvqhfg","pricing_plan_id":"cebpf4jnsgd1na2vs0mg"},{"bike_id":"86fce387-d25e-46bb-928c-c6923257e7fb","system_id":"levelo_inurba_marseille","lat":43.28418,"lon":5.37494,"is_reserved":false,"is_disabled":false,"rental_uris":{"android":"levelo://app?vid=86fce387-d25e-46bb-928c-c6923257e7fb","ios":"levelo://app?vid=86fce387-d25e-46bb-928c-c6923257e7fb"},"vehicle_type_id":"4","last_reported":1737612768,"current_range_meters":36800,"station_id":"ce4bh412rcd13ifvqds0","pricing_plan_id":"cebpf4jnsgd1na2vs0mg"},{"bike_id":"f69be3dd-5c08-41a5-a494-c4d2892249c1","system_id":"levelo_inurba_marseille","lat":43.33727,"lon":5.39182,"is_reserved":false,"is_disabled":false,"rental_uris":{"android":"levelo://app?vid=f69be3dd-5c08-41a5-a494-c4d2892249c1","ios":"levelo://app?vid=f69be3dd-5c08-41a5-a494-c4d2892249c1"},"vehicle_type_id":"4","last_reported":1737612768,"current_range_meters":38800,"station_id":"ce4bhr92rcd13ifvqhsg","pricing_plan_id":"cebpf4jnsgd1na2vs0mg"},{"bike_id":"ed212fa6-88f6-4297-9e5a-a078f733eaeb","system_id":"levelo_inurba_marseille","lat":43.308866,"lon":5.396517,"is_reserved":false,"is_disabled":false,"rental_uris":{"android":"levelo://app?vid=ed212fa6-88f6-4297-9e5a-a078f733eaeb","ios":"levelo://app?vid=ed212fa6-88f6-4297-9e5a-a078f733eaeb"},"vehicle_type_id":"4","last_reported":1737612768,"current_range_meters":34000,"station_id":"ce4bh012rcd13ifvqcv0","pricing_plan_id":"cebpf4jnsgd1na2vs0mg"},{"bike_id":"f713f8fc-7dbe-4822-907c-3c94832f607b","system_id":"levelo_inurba_marseille","lat":43.31168,"lon":5.38713,"is_reserved":false,"is_disabled":false,"rental_uris":{"android":"levelo://app?vid=f713f8fc-7dbe-4822-907c-3c94832f607b","ios":"levelo://app?vid=f713f8fc-7dbe-4822-907c-3c94832f607b"},"vehicle_type_id":"4","last_reported":1737612768,"current_range_meters":29600,"station_id":"ce4bgv12rcd13ifvqcp0","pricing_plan_id":"cebpf4jnsgd1na2vs0mg"},{"bike_id":"b30740f3-53de-4190-a431-351e48b71e56","system_id":"levelo_inurba_marseille","lat":43.3265,"lon":5.4097,"is_reserved":false,"is_disabled":false,"rental_uris":{"android":"levelo://app?vid=b30740f3-53de-4190-a431-351e48b71e56","ios":"levelo://app?vid=b30740f3-53de-4190-a431-351e48b71e56"},"vehicle_type_id":"4","last_reported":1737612768,"current_range_meters":29600,"station_id":"ce4bhpp2rcd13ifvqhgg","pricing_plan_id":"cebpf4jnsgd1na2vs0mg"},{"bike_id":"dc95ebd0-8293-424f-a41e-ce8c5550c2a8","system_id":"levelo_inurba_marseille","lat":43.287234,"lon":5.360984,"is_reserved":false,"is_disabled":false,"rental_uris":{"android":"levelo://app?vid=dc95ebd0-8293-424f-a41e-ce8c5550c2a8","ios":"levelo://app?vid=dc95ebd0-8293-424f-a41e-ce8c5550c2a8"},"vehicle_type_id":"4","last_reported":1737612768,"current_range_meters":36400,"station_id":"cki0cbj6b192h4jlfktg","pricing_plan_id":"cebpf4jnsgd1na2vs0mg"},{"bike_id":"104d2b0a-20ef-4b97-96c3-5231651d9405","system_id":"levelo_inurba_marseille","lat":43.30471,"lon":5.37913,"is_reserved":false,"is_disabled":false,"rental_uris":{"android":"levelo://app?vid=104d2b0a-20ef-4b97-96c3-5231651d9405","ios":"levelo://app?vid=104d2b0a-20ef-4b97-96c3-5231651d9405"},"vehicle_type_id":"4","last_reported":1737612768,"current_range_meters":28800,"station_id":"ce4bgup2rcd13ifvqcn0","pricing_plan_id":"cebpf4jnsgd1na2vs0mg"},{"bike_id":"9863b7f9-4316-4322-9f6c-3cc66b0448e2","system_id":"levelo_inurba_marseille","lat":43.279439,"lon":5.389008,"is_reserved":false,"is_disabled":true,"rental_uris":{"android":"levelo://app?vid=9863b7f9-4316-4322-9f6c-3cc66b0448e2","ios":"levelo://app?vid=9863b7f9-4316-4322-9f6c-3cc66b0448e2"},"vehicle_type_id":"4","last_reported":1737612768,"current_range_meters":25600,"station_id":"","pricing_plan_id":"cebpf4jnsgd1na2vs0mg"},{"bike_id":"53a605d6-15ae-4709-9711-f11ee8e34b14","system_id":"levelo_inurba_marseille","lat":43.30206,"lon":5.39473,"is_reserved":false,"is_disabled":false,"rental_uris":{"android":"levelo://app?vid=53a605d6-15ae-4709-9711-f11ee8e34b14","ios":"levelo://app?vid=53a605d6-15ae-4709-9711-f11ee8e34b14"},"vehicle_type_id":"4","last_reported":1737612768,"current_range_meters":36400,"station_id":"ce4bh0p2rcd13ifvqd70","pricing_plan_id":"cebpf4jnsgd1na2vs0mg"},{"bike_id":"c072e3af-4d17-488d-8fb7-d9317a7547d1","system_id":"levelo_inurba_marseille","lat":43.282974,"lon":5.43225,"is_reserved":false,"is_disabled":false,"rental_uris":{"android":"levelo://app?vid=c072e3af-4d17-488d-8fb7-d9317a7547d1","ios":"levelo://app?vid=c072e3af-4d17-488d-8fb7-d9317a7547d1"},"vehicle_type_id":"4","last_reported":1737612768,"current_range_meters":27600,"station_id":"","pricing_plan_id":"cebpf4jnsgd1na2vs0mg"},{"bike_id":"8321d96b-90be-4414-a696-09a6390b760d","system_id":"levelo_inurba_marseille","lat":43.30478,"lon":5.37893,"is_reserved":false,"is_disabled":false,"rental_uris":{"android":"levelo://app?vid=8321d96b-90be-4414-a696-09a6390b760d","ios":"levelo://app?vid=8321d96b-90be-4414-a696-09a6390b760d"},"vehicle_type_id":"4","last_reported":1737612768,"current_range_meters":35200,"station_id":"ce4bgup2rcd13ifvqcn0","pricing_plan_id":"cebpf4jnsgd1na2vs0mg"},{"bike_id":"eddb6b89-082b-479c-b34f-44c352a03897","system_id":"levelo_inurba_marseille","lat":43.25493,"lon":5.37652,"is_reserved":false,"is_disabled":false,"rental_uris":{"android":"levelo://app?vid=eddb6b89-082b-479c-b34f-44c352a03897","ios":"levelo://app?vid=eddb6b89-082b-479c-b34f-44c352a03897"},"vehicle_type_id":"4","last_reported":1737612768,"current_range_meters":38800,"station_id":"ce4bhh12rcd13ifvqff0","pricing_plan_id":"cebpf4jnsgd1na2vs0mg"},{"bike_id":"795016d8-3d99-4697-be28-e44e10ed86a8","system_id":"levelo_inurba_marseille","lat":43.2791,"lon":5.38017,"is_reserved":false,"is_disabled":false,"rental_uris":{"android":"levelo://app?vid=795016d8-3d99-4697-be28-e44e10ed86a8","ios":"levelo://app?vid=795016d8-3d99-4697-be28-e44e10ed86a8"},"vehicle_type_id":"4","last_reported":1737612768,"current_range_meters":38000,"station_id":"ce4bhf92rcd13ifvqf50","pricing_plan_id":"cebpf4jnsgd1na2vs0mg"},{"bike_id":"d482e144-5239-4ce2-b6b9-78a44e7f8317","system_id":"levelo_inurba_marseille","lat":43.31168,"lon":5.38707,"is_reserved":false,"is_disabled":false,"rental_uris":{"android":"levelo://app?vid=d482e144-5239-4ce2-b6b9-78a44e7f8317","ios":"levelo://app?vid=d482e144-5239-4ce2-b6b9-78a44e7f8317"},"vehicle_type_id":"4","last_reported":1737612768,"current_range_meters":24400,"station_id":"ce4bgv12rcd13ifvqcp0","pricing_plan_id":"cebpf4jnsgd1na2vs0mg"},{"bike_id":"3c3a7ef9-6af7-4b28-917e-e6ba18feb67f","system_id":"levelo_inurba_marseille","lat":43.30246,"lon":5.40047,"is_reserved":false,"is_disabled":false,"rental_uris":{"android":"levelo://app?vid=3c3a7ef9-6af7-4b28-917e-e6ba18feb67f","ios":"levelo://app?vid=3c3a7ef9-6af7-4b28-917e-e6ba18feb67f"},"vehicle_type_id":"4","last_reported":1737612768,"current_range_meters":39200,"station_id":"ce4bgvh2rcd13ifvqcs0","pricing_plan_id":"cebpf4jnsgd1na2vs0mg"},{"bike_id":"2b8eb6aa-82c8-45b2-80a5-e15fd8b8ca3a","system_id":"levelo_inurba_marseille","lat":43.3053,"lon":5.37902,"is_reserved":false,"is_disabled":false,"rental_uris":{"android":"levelo://app?vid=2b8eb6aa-82c8-45b2-80a5-e15fd8b8ca3a","ios":"levelo://app?vid=2b8eb6aa-82c8-45b2-80a5-e15fd8b8ca3a"},"vehicle_type_id":"4","last_reported":1737612768,"current_range_meters":24400,"station_id":"ce4bgup2rcd13ifvqcn0","pricing_plan_id":"cebpf4jnsgd1na2vs0mg"},{"bike_id":"dfbd27e7-12bf-4812-80d1-488dbaf230dc","system_id":"levelo_inurba_marseille","lat":43.32483,"lon":5.3655,"is_reserved":false,"is_disabled":false,"rental_uris":{"android":"levelo://app?vid=dfbd27e7-12bf-4812-80d1-488dbaf230dc","ios":"levelo://app?vid=dfbd27e7-12bf-4812-80d1-488dbaf230dc"},"vehicle_type_id":"4","last_reported":1737612768,"current_range_meters":24000,"station_id":"ce4bhs12rcd13ifvqhvg","pricing_plan_id":"cebpf4jnsgd1na2vs0mg"},{"bike_id":"8e2fe138-ff09-4b92-834b-8fe11a686c0f","system_id":"levelo_inurba_marseille","lat":43.30139,"lon":5.39854,"is_reserved":false,"is_disabled":false,"rental_uris":{"android":"levelo://app?vid=8e2fe138-ff09-4b92-834b-8fe11a686c0f","ios":"levelo://app?vid=8e2fe138-ff09-4b92-834b-8fe11a686c0f"},"vehicle_type_id":"4","last_reported":1737612768,"current_range_meters":12400,"station_id":"ce4bh0h2rcd13ifvqd40","pricing_plan_id":"cebpf4jnsgd1na2vs0mg"},{"bike_id":"fef5662b-15c1-40c3-b151-894288de3a73","system_id":"levelo_inurba_marseille","lat":43.28686,"lon":5.39997,"is_reserved":false,"is_disabled":false,"rental_uris":{"android":"levelo://app?vid=fef5662b-15c1-40c3-b151-894288de3a73","ios":"levelo://app?vid=fef5662b-15c1-40c3-b151-894288de3a73"},"vehicle_type_id":"4","last_reported":1737612768,"current_range_meters":26800,"station_id":"ce4bho92rcd13ifvqh3g","pricing_plan_id":"cebpf4jnsgd1na2vs0mg"},{"bike_id":"0e8bd911-4a96-4488-a82b-e5ddffbe636a","system_id":"levelo_inurba_marseille","lat":43.28735,"lon":5.36082,"is_reserved":false,"is_disabled":false,"rental_uris":{"android":"levelo://app?vid=0e8bd911-4a96-4488-a82b-e5ddffbe636a","ios":"levelo://app?vid=0e8bd911-4a96-4488-a82b-e5ddffbe636a"},"vehicle_type_id":"4","last_reported":1737612768,"current_range_meters":28400,"station_id":"cki0cbj6b192h4jlfktg","pricing_plan_id":"cebpf4jnsgd1na2vs0mg"},{"bike_id":"0d555cab-a3ac-493c-97d1-05fb30170afc","system_id":"levelo_inurba_marseille","lat":43.27822,"lon":5.40693,"is_reserved":false,"is_disabled":false,"rental_uris":{"android":"levelo://app?vid=0d555cab-a3ac-493c-97d1-05fb30170afc","ios":"levelo://app?vid=0d555cab-a3ac-493c-97d1-05fb30170afc"},"vehicle_type_id":"4","last_reported":1737612768,"current_range_meters":8000,"station_id":"ce4bhnh2rcd13ifvqgtg","pricing_plan_id":"cebpf4jnsgd1na2vs0mg"},{"bike_id":"5744006d-db8c-4c82-b596-952b29f11932","system_id":"levelo_inurba_marseille","lat":43.312745,"lon":5.40166,"is_reserved":false,"is_disabled":false,"rental_uris":{"android":"levelo://app?vid=5744006d-db8c-4c82-b596-952b29f11932","ios":"levelo://app?vid=5744006d-db8c-4c82-b596-952b29f11932"},"vehicle_type_id":"4","last_reported":1737612768,"current_range_meters":34000,"station_id":"ce4bh092rcd13ifvqd30","pricing_plan_id":"cebpf4jnsgd1na2vs0mg"},{"bike_id":"49052dc3-4d8a-4007-89e4-6a2b13d47195","system_id":"levelo_inurba_marseille","lat":43.243857,"lon":5.370646,"is_reserved":false,"is_disabled":true,"rental_uris":{"android":"levelo://app?vid=49052dc3-4d8a-4007-89e4-6a2b13d47195","ios":"levelo://app?vid=49052dc3-4d8a-4007-89e4-6a2b13d47195"},"vehicle_type_id":"4","last_reported":1737612768,"current_range_meters":10800,"station_id":"ce4bhhh2rcd13ifvqfk0","pricing_plan_id":"cebpf4jnsgd1na2vs0mg"},{"bike_id":"c5fb49ad-f90e-4caa-a5d1-c3c35c35098e","system_id":"levelo_inurba_marseille","lat":43.28931,"lon":5.36614,"is_reserved":false,"is_disabled":false,"rental_uris":{"android":"levelo://app?vid=c5fb49ad-f90e-4caa-a5d1-c3c35c35098e","ios":"levelo://app?vid=c5fb49ad-f90e-4caa-a5d1-c3c35c35098e"},"vehicle_type_id":"4","last_reported":1737612768,"current_range_meters":38800,"station_id":"ce4bhap2rcd13ifvqek0","pricing_plan_id":"cebpf4jnsgd1na2vs0mg"},{"bike_id":"c7dff3cc-e6b8-4ad0-901d-d6dc0a57d7a5","system_id":"levelo_inurba_marseille","lat":43.2927,"lon":5.38447,"is_reserved":false,"is_disabled":true,"rental_uris":{"android":"levelo://app?vid=c7dff3cc-e6b8-4ad0-901d-d6dc0a57d7a5","ios":"levelo://app?vid=c7dff3cc-e6b8-4ad0-901d-d6dc0a57d7a5"},"vehicle_type_id":"4","last_reported":1737612768,"current_range_meters":6800,"station_id":"ce4bh692rcd13ifvqea0","pricing_plan_id":"cebpf4jnsgd1na2vs0mg"},{"bike_id":"1c0bdd64-b440-4cb1-8eef-940fab5db96c","system_id":"levelo_inurba_marseille","lat":43.3013,"lon":5.39858,"is_reserved":false,"is_disabled":false,"rental_uris":{"android":"levelo://app?vid=1c0bdd64-b440-4cb1-8eef-940fab5db96c","ios":"levelo://app?vid=1c0bdd64-b440-4cb1-8eef-940fab5db96c"},"vehicle_type_id":"4","last_reported":1737612768,"current_range_meters":38800,"station_id":"ce4bh0h2rcd13ifvqd40","pricing_plan_id":"cebpf4jnsgd1na2vs0mg"},{"bike_id":"7b655e70-7647-4dc3-b834-d4853f568fa6","system_id":"levelo_inurba_marseille","lat":43.29551,"lon":5.42283,"is_reserved":false,"is_disabled":false,"rental_uris":{"android":"levelo://app?vid=7b655e70-7647-4dc3-b834-d4853f568fa6","ios":"levelo://app?vid=7b655e70-7647-4dc3-b834-d4853f568fa6"},"vehicle_type_id":"4","last_reported":1737612768,"current_range_meters":39200,"station_id":"ce4bhph2rcd13ifvqhdg","pricing_plan_id":"cebpf4jnsgd1na2vs0mg"},{"bike_id":"1a95f77a-8a20-47bb-a81e-a2ebe6ac26fe","system_id":"levelo_inurba_marseille","lat":43.30804,"lon":5.38155,"is_reserved":false,"is_disabled":false,"rental_uris":{"android":"levelo://app?vid=1a95f77a-8a20-47bb-a81e-a2ebe6ac26fe","ios":"levelo://app?vid=1a95f77a-8a20-47bb-a81e-a2ebe6ac26fe"},"vehicle_type_id":"4","last_reported":1737612768,"current_range_meters":38000,"station_id":"ce4bgt12rcd13ifvqce0","pricing_plan_id":"cebpf4jnsgd1na2vs0mg"},{"bike_id":"fcd4837f-6e09-4786-bcf5-c3a686cbcfef","system_id":"levelo_inurba_marseille","lat":43.299019,"lon":5.436716,"is_reserved":false,"is_disabled":false,"rental_uris":{"android":"levelo://app?vid=fcd4837f-6e09-4786-bcf5-c3a686cbcfef","ios":"levelo://app?vid=fcd4837f-6e09-4786-bcf5-c3a686cbcfef"},"vehicle_type_id":"4","last_reported":1737612768,"current_range_meters":29600,"station_id":"ce4bhpp2rcd13ifvqhfg","pricing_plan_id":"cebpf4jnsgd1na2vs0mg"},{"bike_id":"d561329e-e53f-4714-85a9-2ace5d8e89b2","system_id":"levelo_inurba_marseille","lat":43.28104,"lon":5.37844,"is_reserved":false,"is_disabled":false,"rental_uris":{"android":"levelo://app?vid=d561329e-e53f-4714-85a9-2ace5d8e89b2","ios":"levelo://app?vid=d561329e-e53f-4714-85a9-2ace5d8e89b2"},"vehicle_type_id":"4","last_reported":1737612768,"current_range_meters":30400,"station_id":"ce4bha12rcd13ifvqee0","pricing_plan_id":"cebpf4jnsgd1na2vs0mg"},{"bike_id":"690952aa-4cf6-4ec8-a1ef-02ddc0138251","system_id":"levelo_inurba_marseille","lat":43.26158,"lon":5.42059,"is_reserved":false,"is_disabled":false,"rental_uris":{"android":"levelo://app?vid=690952aa-4cf6-4ec8-a1ef-02ddc0138251","ios":"levelo://app?vid=690952aa-4cf6-4ec8-a1ef-02ddc0138251"},"vehicle_type_id":"4","last_reported":1737612768,"current_range_meters":30000,"station_id":"","pricing_plan_id":"cebpf4jnsgd1na2vs0mg"},{"bike_id":"d46a74b4-d575-4284-b10d-520ab1619e29","system_id":"levelo_inurba_marseille","lat":43.24674,"lon":5.38162,"is_reserved":false,"is_disabled":false,"rental_uris":{"android":"levelo://app?vid=d46a74b4-d575-4284-b10d-520ab1619e29","ios":"levelo://app?vid=d46a74b4-d575-4284-b10d-520ab1619e29"},"vehicle_type_id":"4","last_reported":1737612768,"current_range_meters":10000,"station_id":"ce4bhih2rcd13ifvqfr0","pricing_plan_id":"cebpf4jnsgd1na2vs0mg"},{"bike_id":"4cb8a5c0-7cca-4ede-8e83-cfe56f37f538","system_id":"levelo_inurba_marseille","lat":43.31169,"lon":5.38714,"is_reserved":false,"is_disabled":false,"rental_uris":{"android":"levelo://app?vid=4cb8a5c0-7cca-4ede-8e83-cfe56f37f538","ios":"levelo://app?vid=4cb8a5c0-7cca-4ede-8e83-cfe56f37f538"},"vehicle_type_id":"4","last_reported":1737612768,"current_range_meters":30800,"station_id":"ce4bgv12rcd13ifvqcp0","pricing_plan_id":"cebpf4jnsgd1na2vs0mg"},{"bike_id":"03af5a1d-20f6-4b21-b63e-8bec9df4705a","system_id":"levelo_inurba_marseille","lat":43.27571,"lon":5.38427,"is_reserved":false,"is_disabled":false,"rental_uris":{"android":"levelo://app?vid=03af5a1d-20f6-4b21-b63e-8bec9df4705a","ios":"levelo://app?vid=03af5a1d-20f6-4b21-b63e-8bec9df4705a"},"vehicle_type_id":"4","last_reported":1737612768,"current_range_meters":19600,"station_id":"ce4bhh92rcd13ifvqfi0","pricing_plan_id":"cebpf4jnsgd1na2vs0mg"},{"bike_id":"c1da0c51-ca95-43d5-a029-56735f63b6c8","system_id":"levelo_inurba_marseille","lat":43.28563,"lon":5.39493,"is_reserved":false,"is_disabled":false,"rental_uris":{"android":"levelo://app?vid=c1da0c51-ca95-43d5-a029-56735f63b6c8","ios":"levelo://app?vid=c1da0c51-ca95-43d5-a029-56735f63b6c8"},"vehicle_type_id":"4","last_reported":1737612768,"current_range_meters":37600,"station_id":"ce4bh292rcd13ifvqdg0","pricing_plan_id":"cebpf4jnsgd1na2vs0mg"},{"bike_id":"d1255399-ca68-448e-bdc8-d3e6ae98265c","system_id":"levelo_inurba_marseille","lat":43.30149,"lon":5.3806,"is_reserved":false,"is_disabled":false,"rental_uris":{"android":"levelo://app?vid=d1255399-ca68-448e-bdc8-d3e6ae98265c","ios":"levelo://app?vid=d1255399-ca68-448e-bdc8-d3e6ae98265c"},"vehicle_type_id":"4","last_reported":1737612768,"current_range_meters":32000,"station_id":"ce4bgjp2rcd13ifvqbh0","pricing_plan_id":"cebpf4jnsgd1na2vs0mg"},{"bike_id":"01c8aaec-1706-4926-9e2a-83103c989253","system_id":"levelo_inurba_marseille","lat":43.28728,"lon":5.36087,"is_reserved":false,"is_disabled":false,"rental_uris":{"android":"levelo://app?vid=01c8aaec-1706-4926-9e2a-83103c989253","ios":"levelo://app?vid=01c8aaec-1706-4926-9e2a-83103c989253"},"vehicle_type_id":"4","last_reported":1737612768,"current_range_meters":16000,"station_id":"cki0cbj6b192h4jlfktg","pricing_plan_id":"cebpf4jnsgd1na2vs0mg"},{"bike_id":"eda1391d-595e-4a9f-bee1-6c3298f84c99","system_id":"levelo_inurba_marseille","lat":43.2465,"lon":5.3892,"is_reserved":false,"is_disabled":false,"rental_uris":{"android":"levelo://app?vid=eda1391d-595e-4a9f-bee1-6c3298f84c99","ios":"levelo://app?vid=eda1391d-595e-4a9f-bee1-6c3298f84c99"},"vehicle_type_id":"4","last_reported":1737612768,"current_range_meters":36400,"station_id":"ce4bhg12rcd13ifvqf60","pricing_plan_id":"cebpf4jnsgd1na2vs0mg"},{"bike_id":"ef1d33f4-4f63-4510-84c1-18c4329f71d9","system_id":"levelo_inurba_marseille","lat":43.31336,"lon":5.37013,"is_reserved":false,"is_disabled":false,"rental_uris":{"android":"levelo://app?vid=ef1d33f4-4f63-4510-84c1-18c4329f71d9","ios":"levelo://app?vid=ef1d33f4-4f63-4510-84c1-18c4329f71d9"},"vehicle_type_id":"4","last_reported":1737612768,"current_range_meters":38800,"station_id":"","pricing_plan_id":"cebpf4jnsgd1na2vs0mg"},{"bike_id":"57330205-51d8-4b67-897b-949dd9c90066","system_id":"levelo_inurba_marseille","lat":43.30793,"lon":5.38148,"is_reserved":false,"is_disabled":false,"rental_uris":{"android":"levelo://app?vid=57330205-51d8-4b67-897b-949dd9c90066","ios":"levelo://app?vid=57330205-51d8-4b67-897b-949dd9c90066"},"vehicle_type_id":"4","last_reported":1737612768,"current_range_meters":38800,"station_id":"ce4bgt12rcd13ifvqce0","pricing_plan_id":"cebpf4jnsgd1na2vs0mg"},{"bike_id":"310700a7-7a53-4a1a-acaa-562ce9a4c393","system_id":"levelo_inurba_marseille","lat":43.30252,"lon":5.40049,"is_reserved":false,"is_disabled":false,"rental_uris":{"android":"levelo://app?vid=310700a7-7a53-4a1a-acaa-562ce9a4c393","ios":"levelo://app?vid=310700a7-7a53-4a1a-acaa-562ce9a4c393"},"vehicle_type_id":"4","last_reported":1737612768,"current_range_meters":30400,"station_id":"ce4bgvh2rcd13ifvqcs0","pricing_plan_id":"cebpf4jnsgd1na2vs0mg"},{"bike_id":"12d4cf66-0850-4966-9b21-37269dcb5145","system_id":"levelo_inurba_marseille","lat":43.2656,"lon":5.373,"is_reserved":false,"is_disabled":false,"rental_uris":{"android":"levelo://app?vid=12d4cf66-0850-4966-9b21-37269dcb5145","ios":"levelo://app?vid=12d4cf66-0850-4966-9b21-37269dcb5145"},"vehicle_type_id":"4","last_reported":1737612768,"current_range_meters":14000,"station_id":"ce4bhg12rcd13ifvqf70","pricing_plan_id":"cebpf4jnsgd1na2vs0mg"},{"bike_id":"04b5c5ce-aa6a-4604-bf14-5327862bea7a","system_id":"levelo_inurba_marseille","lat":43.31328,"lon":5.39693,"is_reserved":false,"is_disabled":false,"rental_uris":{"android":"levelo://app?vid=04b5c5ce-aa6a-4604-bf14-5327862bea7a","ios":"levelo://app?vid=04b5c5ce-aa6a-4604-bf14-5327862bea7a"},"vehicle_type_id":"4","last_reported":1737612768,"current_range_meters":4000,"station_id":"ce4bgvp2rcd13ifvqcu0","pricing_plan_id":"cebpf4jnsgd1na2vs0mg"},{"bike_id":"51a36b3c-6a3c-4a10-8421-cf3855c7a215","system_id":"levelo_inurba_marseille","lat":43.25569,"lon":5.38235,"is_reserved":false,"is_disabled":false,"rental_uris":{"android":"levelo://app?vid=51a36b3c-6a3c-4a10-8421-cf3855c7a215","ios":"levelo://app?vid=51a36b3c-6a3c-4a10-8421-cf3855c7a215"},"vehicle_type_id":"4","last_reported":1737612768,"current_range_meters":8400,"station_id":"ce4bhih2rcd13ifvqfs0","pricing_plan_id":"cebpf4jnsgd1na2vs0mg"},{"bike_id":"f5611a72-c531-4c58-b748-b456a7f3c308","system_id":"levelo_inurba_marseille","lat":43.30469,"lon":5.37913,"is_reserved":false,"is_disabled":false,"rental_uris":{"android":"levelo://app?vid=f5611a72-c531-4c58-b748-b456a7f3c308","ios":"levelo://app?vid=f5611a72-c531-4c58-b748-b456a7f3c308"},"vehicle_type_id":"4","last_reported":1737612768,"current_range_meters":10800,"station_id":"ce4bgup2rcd13ifvqcn0","pricing_plan_id":"cebpf4jnsgd1na2vs0mg"},{"bike_id":"8ec8e0b3-70b1-4209-b9f4-f93ff330704d","system_id":"levelo_inurba_marseille","lat":43.30799,"lon":5.38143,"is_reserved":false,"is_disabled":false,"rental_uris":{"android":"levelo://app?vid=8ec8e0b3-70b1-4209-b9f4-f93ff330704d","ios":"levelo://app?vid=8ec8e0b3-70b1-4209-b9f4-f93ff330704d"},"vehicle_type_id":"4","last_reported":1737612768,"current_range_meters":38800,"station_id":"ce4bgt12rcd13ifvqce0","pricing_plan_id":"cebpf4jnsgd1na2vs0mg"},{"bike_id":"612e82f7-10fc-4a4a-9e67-aa82ed05c11f","system_id":"levelo_inurba_marseille","lat":43.24669,"lon":5.38149,"is_reserved":false,"is_disabled":false,"rental_uris":{"android":"levelo://app?vid=612e82f7-10fc-4a4a-9e67-aa82ed05c11f","ios":"levelo://app?vid=612e82f7-10fc-4a4a-9e67-aa82ed05c11f"},"vehicle_type_id":"4","last_reported":1737612768,"current_range_meters":27600,"station_id":"ce4bhih2rcd13ifvqfr0","pricing_plan_id":"cebpf4jnsgd1na2vs0mg"},{"bike_id":"13ff516e-16cf-4543-8540-9030b8b296b4","system_id":"levelo_inurba_marseille","lat":43.23196,"lon":5.3555,"is_reserved":false,"is_disabled":false,"rental_uris":{"android":"levelo://app?vid=13ff516e-16cf-4543-8540-9030b8b296b4","ios":"levelo://app?vid=13ff516e-16cf-4543-8540-9030b8b296b4"},"vehicle_type_id":"4","last_reported":1737612768,"current_range_meters":30400,"station_id":"ce4bhu92rcd13ifvqi70","pricing_plan_id":"cebpf4jnsgd1na2vs0mg"},{"bike_id":"6a3f11ae-19cd-4d89-806e-94dec7d182bb","system_id":"levelo_inurba_marseille","lat":43.25824,"lon":5.3943,"is_reserved":false,"is_disabled":false,"rental_uris":{"android":"levelo://app?vid=6a3f11ae-19cd-4d89-806e-94dec7d182bb","ios":"levelo://app?vid=6a3f11ae-19cd-4d89-806e-94dec7d182bb"},"vehicle_type_id":"4","last_reported":1737612768,"current_range_meters":38800,"station_id":"ce4bhip2rcd13ifvqft0","pricing_plan_id":"cebpf4jnsgd1na2vs0mg"},{"bike_id":"9984a19d-448e-4ed2-8c95-d1103fd0e167","system_id":"levelo_inurba_marseille","lat":43.317544,"lon":5.390143,"is_reserved":false,"is_disabled":false,"rental_uris":{"android":"levelo://app?vid=9984a19d-448e-4ed2-8c95-d1103fd0e167","ios":"levelo://app?vid=9984a19d-448e-4ed2-8c95-d1103fd0e167"},"vehicle_type_id":"4","last_reported":1737612768,"current_range_meters":37600,"station_id":"ce4bhqp2rcd13ifvqhng","pricing_plan_id":"cebpf4jnsgd1na2vs0mg"},{"bike_id":"dc9afc0d-d533-431b-a32f-6f6423d7880b","system_id":"levelo_inurba_marseille","lat":43.3173,"lon":5.42396,"is_reserved":false,"is_disabled":false,"rental_uris":{"android":"levelo://app?vid=dc9afc0d-d533-431b-a32f-6f6423d7880b","ios":"levelo://app?vid=dc9afc0d-d533-431b-a32f-6f6423d7880b"},"vehicle_type_id":"4","last_reported":1737612768,"current_range_meters":32000,"station_id":"ce4bhp92rcd13ifvqhbg","pricing_plan_id":"cebpf4jnsgd1na2vs0mg"},{"bike_id":"bfc7d970-e019-4665-84d5-e5a81d0af44a","system_id":"levelo_inurba_marseille","lat":43.27936,"lon":5.41043,"is_reserved":false,"is_disabled":false,"rental_uris":{"android":"levelo://app?vid=bfc7d970-e019-4665-84d5-e5a81d0af44a","ios":"levelo://app?vid=bfc7d970-e019-4665-84d5-e5a81d0af44a"},"vehicle_type_id":"4","last_reported":1737612768,"current_range_meters":23200,"station_id":"ce4bhnp2rcd13ifvqh0g","pricing_plan_id":"cebpf4jnsgd1na2vs0mg"},{"bike_id":"888038f9-044f-4ded-824f-b22d803d5b12","system_id":"levelo_inurba_marseille","lat":43.29575,"lon":5.3751,"is_reserved":false,"is_disabled":true,"rental_uris":{"android":"levelo://app?vid=888038f9-044f-4ded-824f-b22d803d5b12","ios":"levelo://app?vid=888038f9-044f-4ded-824f-b22d803d5b12"},"vehicle_type_id":"4","last_reported":1737612768,"current_range_meters":16800,"station_id":"ce4bgh92rcd13ifvqb50","pricing_plan_id":"cebpf4jnsgd1na2vs0mg"},{"bike_id":"2efe9e39-8249-4782-be46-093a8b218e44","system_id":"levelo_inurba_marseille","lat":43.31716,"lon":5.424,"is_reserved":false,"is_disabled":false,"rental_uris":{"android":"levelo://app?vid=2efe9e39-8249-4782-be46-093a8b218e44","ios":"levelo://app?vid=2efe9e39-8249-4782-be46-093a8b218e44"},"vehicle_type_id":"4","last_reported":1737612768,"current_range_meters":38800,"station_id":"ce4bhp92rcd13ifvqhbg","pricing_plan_id":"cebpf4jnsgd1na2vs0mg"},{"bike_id":"1876537c-c9d8-4160-b31c-e17d644f44c6","system_id":"levelo_inurba_marseille","lat":43.32449,"lon":5.36546,"is_reserved":false,"is_disabled":false,"rental_uris":{"android":"levelo://app?vid=1876537c-c9d8-4160-b31c-e17d644f44c6","ios":"levelo://app?vid=1876537c-c9d8-4160-b31c-e17d644f44c6"},"vehicle_type_id":"4","last_reported":1737612768,"current_range_meters":34000,"station_id":"ce4bhs12rcd13ifvqhvg","pricing_plan_id":"cebpf4jnsgd1na2vs0mg"},{"bike_id":"3ca427d4-897d-4f96-8e6b-de1063edad3d","system_id":"levelo_inurba_marseille","lat":43.28453,"lon":5.35892,"is_reserved":false,"is_disabled":false,"rental_uris":{"android":"levelo://app?vid=3ca427d4-897d-4f96-8e6b-de1063edad3d","ios":"levelo://app?vid=3ca427d4-897d-4f96-8e6b-de1063edad3d"},"vehicle_type_id":"4","last_reported":1737612768,"current_range_meters":38400,"station_id":"ce4bhah2rcd13ifvqei0","pricing_plan_id":"cebpf4jnsgd1na2vs0mg"},{"bike_id":"2ca7abc7-847f-42bd-a01b-e2f89fea4d7b","system_id":"levelo_inurba_marseille","lat":43.3127,"lon":5.40167,"is_reserved":false,"is_disabled":false,"rental_uris":{"android":"levelo://app?vid=2ca7abc7-847f-42bd-a01b-e2f89fea4d7b","ios":"levelo://app?vid=2ca7abc7-847f-42bd-a01b-e2f89fea4d7b"},"vehicle_type_id":"4","last_reported":1737612768,"current_range_meters":6800,"station_id":"ce4bh092rcd13ifvqd30","pricing_plan_id":"cebpf4jnsgd1na2vs0mg"},{"bike_id":"f9fa6336-d0c6-41cd-aea9-792ce7de4de4","system_id":"levelo_inurba_marseille","lat":43.248111,"lon":5.374555,"is_reserved":false,"is_disabled":false,"rental_uris":{"android":"levelo://app?vid=f9fa6336-d0c6-41cd-aea9-792ce7de4de4","ios":"levelo://app?vid=f9fa6336-d0c6-41cd-aea9-792ce7de4de4"},"vehicle_type_id":"4","last_reported":1737612768,"current_range_meters":32000,"station_id":"ce4bhgh2rcd13ifvqfb0","pricing_plan_id":"cebpf4jnsgd1na2vs0mg"},{"bike_id":"8976b3af-d9f0-430e-ac13-ec85f96ff0f1","system_id":"levelo_inurba_marseille","lat":43.28955,"lon":5.36396,"is_reserved":false,"is_disabled":false,"rental_uris":{"android":"levelo://app?vid=8976b3af-d9f0-430e-ac13-ec85f96ff0f1","ios":"levelo://app?vid=8976b3af-d9f0-430e-ac13-ec85f96ff0f1"},"vehicle_type_id":"4","last_reported":1737612768,"current_range_meters":30000,"station_id":"ce4bhc92rcd13ifvqetg","pricing_plan_id":"cebpf4jnsgd1na2vs0mg"},{"bike_id":"02a6b0b4-402d-4137-8c19-2255a9d33595","system_id":"levelo_inurba_marseille","lat":43.30157,"lon":5.38073,"is_reserved":false,"is_disabled":false,"rental_uris":{"android":"levelo://app?vid=02a6b0b4-402d-4137-8c19-2255a9d33595","ios":"levelo://app?vid=02a6b0b4-402d-4137-8c19-2255a9d33595"},"vehicle_type_id":"4","last_reported":1737612768,"current_range_meters":39200,"station_id":"ce4bgjp2rcd13ifvqbh0","pricing_plan_id":"cebpf4jnsgd1na2vs0mg"},{"bike_id":"427ec049-7bdc-415e-93a1-e025c8b36d89","system_id":"levelo_inurba_marseille","lat":43.27992,"lon":5.40004,"is_reserved":false,"is_disabled":false,"rental_uris":{"android":"levelo://app?vid=427ec049-7bdc-415e-93a1-e025c8b36d89","ios":"levelo://app?vid=427ec049-7bdc-415e-93a1-e025c8b36d89"},"vehicle_type_id":"4","last_reported":1737612768,"current_range_meters":38400,"station_id":"ce4bho92rcd13ifvqh4g","pricing_plan_id":"cebpf4jnsgd1na2vs0mg"},{"bike_id":"2acd47f4-c469-4337-9bf8-15f7df3a4cc9","system_id":"levelo_inurba_marseille","lat":43.28695,"lon":5.37399,"is_reserved":false,"is_disabled":true,"rental_uris":{"android":"levelo://app?vid=2acd47f4-c469-4337-9bf8-15f7df3a4cc9","ios":"levelo://app?vid=2acd47f4-c469-4337-9bf8-15f7df3a4cc9"},"vehicle_type_id":"4","last_reported":1737612768,"current_range_meters":24800,"station_id":"ce4bh3p2rcd13ifvqdq0","pricing_plan_id":"cebpf4jnsgd1na2vs0mg"},{"bike_id":"5b5d4d96-8df1-499e-a530-eead026d912a","system_id":"levelo_inurba_marseille","lat":43.27367,"lon":5.36239,"is_reserved":false,"is_disabled":false,"rental_uris":{"android":"levelo://app?vid=5b5d4d96-8df1-499e-a530-eead026d912a","ios":"levelo://app?vid=5b5d4d96-8df1-499e-a530-eead026d912a"},"vehicle_type_id":"4","last_reported":1737612768,"current_range_meters":38000,"station_id":"ce4bhbh2rcd13ifvqeo0","pricing_plan_id":"cebpf4jnsgd1na2vs0mg"},{"bike_id":"b7c48665-5d78-4174-b837-4aa023f8c486","system_id":"levelo_inurba_marseille","lat":43.28462,"lon":5.35888,"is_reserved":false,"is_disabled":false,"rental_uris":{"android":"levelo://app?vid=b7c48665-5d78-4174-b837-4aa023f8c486","ios":"levelo://app?vid=b7c48665-5d78-4174-b837-4aa023f8c486"},"vehicle_type_id":"4","last_reported":1737612768,"current_range_meters":38000,"station_id":"ce4bhah2rcd13ifvqei0","pricing_plan_id":"cebpf4jnsgd1na2vs0mg"},{"bike_id":"e565f7b3-8037-42da-a8a4-09f93110c63a","system_id":"levelo_inurba_marseille","lat":43.28663,"lon":5.38666,"is_reserved":false,"is_disabled":false,"rental_uris":{"android":"levelo://app?vid=e565f7b3-8037-42da-a8a4-09f93110c63a","ios":"levelo://app?vid=e565f7b3-8037-42da-a8a4-09f93110c63a"},"vehicle_type_id":"4","last_reported":1737612768,"current_range_meters":38800,"station_id":"ce4bh492rcd13ifvqdug","pricing_plan_id":"cebpf4jnsgd1na2vs0mg"},{"bike_id":"e41c1f13-73b0-4fe8-960e-72c7a66abd39","system_id":"levelo_inurba_marseille","lat":43.30648,"lon":5.40102,"is_reserved":false,"is_disabled":false,"rental_uris":{"android":"levelo://app?vid=e41c1f13-73b0-4fe8-960e-72c7a66abd39","ios":"levelo://app?vid=e41c1f13-73b0-4fe8-960e-72c7a66abd39"},"vehicle_type_id":"4","last_reported":1737612768,"current_range_meters":32800,"station_id":"ce4bh112rcd13ifvqda0","pricing_plan_id":"cebpf4jnsgd1na2vs0mg"},{"bike_id":"68e9c31c-ad3e-43bf-9dd6-a2db62b95ef7","system_id":"levelo_inurba_marseille","lat":43.32464,"lon":5.3656,"is_reserved":false,"is_disabled":false,"rental_uris":{"android":"levelo://app?vid=68e9c31c-ad3e-43bf-9dd6-a2db62b95ef7","ios":"levelo://app?vid=68e9c31c-ad3e-43bf-9dd6-a2db62b95ef7"},"vehicle_type_id":"4","last_reported":1737612768,"current_range_meters":24000,"station_id":"ce4bhs12rcd13ifvqhvg","pricing_plan_id":"cebpf4jnsgd1na2vs0mg"},{"bike_id":"167d84ac-be10-4680-9b86-90ef35f50ab6","system_id":"levelo_inurba_marseille","lat":43.248032,"lon":5.374535,"is_reserved":false,"is_disabled":false,"rental_uris":{"android":"levelo://app?vid=167d84ac-be10-4680-9b86-90ef35f50ab6","ios":"levelo://app?vid=167d84ac-be10-4680-9b86-90ef35f50ab6"},"vehicle_type_id":"4","last_reported":1737612768,"current_range_meters":36800,"station_id":"ce4bhgh2rcd13ifvqfb0","pricing_plan_id":"cebpf4jnsgd1na2vs0mg"},