{"last_updated":1712426909,"ttl":30,"version":"2.2","data":{"bikes":[{"bike_id":"266ad56a-1517-463b-a54c-44c5c79e9d1d","system_id":"levelo_inurba_marseille","lat":43.313391,"lon":5.36706,"is_reserved":false,"is_disabled":false,"rental_uris":{"android":"levelo://app?vid=266ad56a-1517-463b-a54c-44c5c79e9d1d","ios":"levelo://app?vid=266ad56a-1517-463b-a54c-44c5c79e9d1d"},"vehicle_type_id":"4","last_reported":1712426909,"current_range_meters":12400,"station_id":"ce4bgr92rcd13ifvqc6g","pricing_plan_id":"cebpf4jnsgd1na2vs0mg"},{"bike_id":"1b5698ac-89dd-4b1f-ae01-550782a39766","system_id":"levelo_inurba_marseille","lat":43.313341,"lon":5.37034,"is_reserved":false,"is_disabled":false,"rental_uris":{"android":"levelo://app?vid=1b5698ac-89dd-4b1f-ae01-550782a39766","ios":"levelo://app?vid=1b5698ac-89dd-4b1f-ae01-550782a39766"},"vehicle_type_id":"4","last_reported":1712426909,"current_range_meters":0,"station_id":"","pricing_plan_id":"cebpf4jnsgd1na2vs0mg"},{"bike_id":"2394f9cc-d58d-4512-9cfe-9e2e3c728eca","system_id":"levelo_inurba_marseille","lat":43.309076,"lon":5.368465,"is_reserved":false,"is_disabled":false,"rental_uris":{"android":"levelo://app?vid=2394f9cc-d58d-4512-9cfe-9e2e3c728eca","ios":"levelo://app?vid=2394f9cc-d58d-4512-9cfe-9e2e3c728eca"},"vehicle_type_id":"4","last_reported":1712426909,"current_range_meters":14800,"station_id":"ce4bgn92rcd13ifvqbvg","pricing_plan_id":"cebpf4jnsgd1na2vs0mg"},{"bike_id":"31af8b20-e555-4b40-b9ce-6eb2c39d0e07","system_id":"levelo_inurba_marseille","lat":43.314811,"lon":5.373103,"is_reserved":false,"is_disabled":false,"rental_uris":{"android":"levelo://app?vid=31af8b20-e555-4b40-b9ce-6eb2c39d0e07","ios":"levelo://app?vid=31af8b20-e555-4b40-b9ce-6eb2c39d0e07"},"vehicle_type_id":"4","last_reported":1712426909,"current_range_meters":3600,"station_id":"ce4bgt12rcd13ifvqcd0","pricing_plan_id":"cebpf4jnsgd1na2vs0mg"},{"bike_id":"fc99cc95-ff72-42a6-9ed5-5212aeb3b2a0","system_id":"levelo_inurba_marseille","lat":43.314811,"lon":5.373103,"is_reserved":false,"is_disabled":false,"rental_uris":{"android":"levelo://app?vid=fc99cc95-ff72-42a6-9ed5-5212aeb3b2a0","ios":"levelo://app?vid=fc99cc95-ff72-42a6-9ed5-5212aeb3b2a0"},"vehicle_type_id":"4","last_reported":1712426909,"current_range_meters":21600,"station_id":"ce4bgt12rcd13ifvqcd0","pricing_plan_id":"cebpf4jnsgd1na2vs0mg"},{"bike_id":"e61ad31f-1ceb-462c-9152-d2e619a73581","system_id":"levelo_inurba_marseille","lat":43.314811,"lon":5.373103,"is_reserved":false,"is_disabled":false,"rental_uris":{"android":"levelo://app?vid=e61ad31f-1ceb-462c-9152-d2e619a73581","ios":"levelo://app?vid=e61ad31f-1ceb-462c-9152-d2e619a73581"},"vehicle_type_id":"4","last_reported":1712426909,"current_range_meters":0,"station_id":"ce4bgt12rcd13ifvqcd0","pricing_plan_id":"cebpf4jnsgd1na2vs0mg"},{"bike_id":"3fb5d81d-93de-47ac-9888-b986e37dd3a3","system_id":"levelo_inurba_marseille","lat":43.314811,"lon":5.373103,"is_reserved":false,"is_disabled":false,"rental_uris":{"android":"levelo://app?vid=3fb5d81d-93de-47ac-9888-b986e37dd3a3","ios":"levelo://app?vid=3fb5d81d-93de-47ac-9888-b986e37dd3a3"},"vehicle_type_id":"4","last_reported":1712426909,"current_range_meters":10400,"station_id":"ce4bgt12rcd13ifvqcd0","pricing_plan_id":"cebpf4jnsgd1na2vs0mg"},{"bike_id":"ede4a438-3331-4972-ac75-0e6487c72781","system_id":"levelo_inurba_marseille","lat":43.31499,"lon":5.37302,"is_reserved":false,"is_disabled":false,"rental_uris":{"android":"levelo://app?vid=ede4a438-3331-4972-ac75-0e6487c72781","ios":"levelo://app?vid=ede4a438-3331-4972-ac75-0e6487c72781"},"vehicle_type_id":"4","last_reported":1712426909,"current_range_meters":0,"station_id":"ce4bgt12rcd13ifvqcd0","pricing_plan_id":"cebpf4jnsgd1na2vs0mg"},{"bike_id":"3293f49b-30ef-490a-9323-af3c40fcd58a","system_id":"levelo_inurba_marseille","lat":43.31496,"lon":5.37305,"is_reserved":false,"is_disabled":false,"rental_uris":{"android":"levelo://app?vid=3293f49b-30ef-490a-9323-af3c40fcd58a","ios":"levelo://app?vid=3293f49b-30ef-490a-9323-af3c40fcd58a"},"vehicle_type_id":"4","last_reported":1712426909,"current_range_meters":0,"station_id":"ce4bgt12rcd13ifvqcd0","pricing_plan_id":"cebpf4jnsgd1na2vs0mg"},{"bike_id":"3b4af498-257e-450a-9034-e175b152665c","system_id":"levelo_inurba_marseille","lat":43.309039,"lon":5.371797,"is_reserved":false,"is_disabled":false,"rental_uris":{"android":"levelo://app?vid=3b4af498-257e-450a-9034-e175b152665c","ios":"levelo://app?vid=3b4af498-257e-450a-9034-e175b152665c"},"vehicle_type_id":"4","last_reported":1712426909,"current_range_meters":18400,"station_id":"ce4bguh2rcd13ifvqckg","pricing_plan_id":"cebpf4jnsgd1na2vs0mg"},{"bike_id":"62628ddd-439a-4d0a-a936-7b9184c2d874","system_id":"levelo_inurba_marseille","lat":43.309039,"lon":5.371797,"is_reserved":false,"is_disabled":false,"rental_uris":{"android":"levelo://app?vid=62628ddd-439a-4d0a-a936-7b9184c2d874","ios":"levelo://app?vid=62628ddd-439a-4d0a-a936-7b9184c2d874"},"vehicle_type_id":"4","last_reported":1712426909,"current_range_meters":7200,"station_id":"ce4bguh2rcd13ifvqckg","pricing_plan_id":"cebpf4jnsgd1na2vs0mg"},{"bike_id":"5a6617c8-bf76-48e4-8a28-f451fa302fc4","system_id":"levelo_inurba_marseille","lat":43.309034,"lon":5.371783,"is_reserved":false,"is_disabled":false,"rental_uris":{"android":"levelo://app?vid=5a6617c8-bf76-48e4-8a28-f451fa302fc4","ios":"levelo://app?vid=5a6617c8-bf76-48e4-8a28-f451fa302fc4"},"vehicle_type_id":"4","last_reported":1712426909,"current_range_meters":0,"station_id":"ce4bguh2rcd13ifvqckg","pricing_plan_id":"cebpf4jnsgd1na2vs0mg"},{"bike_id":"0bf8e127-87b7-43db-a9cf-cd8ce3a3240d","system_id":"levelo_inurba_marseille","lat":43.30554,"lon":5.36695,"is_reserved":false,"is_disabled":false,"rental_uris":{"android":"levelo://app?vid=0bf8e127-87b7-43db-a9cf-cd8ce3a3240d","ios":"levelo://app?vid=0bf8e127-87b7-43db-a9cf-cd8ce3a3240d"},"vehicle_type_id":"4","last_reported":1712426909,"current_range_meters":0,"station_id":"ce4bgrp2rcd13ifvqc9g","pricing_plan_id":"cebpf4jnsgd1na2vs0mg"},{"bike_id":"e35cb2aa-bc23-4a80-abf6-92eb0ecbe9f1","system_id":"levelo_inurba_marseille","lat":43.305989,"lon":5.37225,"is_reserved":false,"is_disabled":false,"rental_uris":{"android":"levelo://app?vid=e35cb2aa-bc23-4a80-abf6-92eb0ecbe9f1","ios":"levelo://app?vid=e35cb2aa-bc23-4a80-abf6-92eb0ecbe9f1"},"vehicle_type_id":"4","last_reported":1712426909,"current_range_meters":10400,"station_id":"ce4bgqh2rcd13ifvqc4g","pricing_plan_id":"cebpf4jnsgd1na2vs0mg"},{"bike_id":"3cab3d56-9bb4-4d64-b8f4-fa041e25b7dd","system_id":"levelo_inurba_marseille","lat":43.311131,"lon":5.377651,"is_reserved":false,"is_disabled":false,"rental_uris":{"android":"levelo://app?vid=3cab3d56-9bb4-4d64-b8f4-fa041e25b7dd","ios":"levelo://app?vid=3cab3d56-9bb4-4d64-b8f4-fa041e25b7dd"},"vehicle_type_id":"4","last_reported":1712426909,"current_range_meters":0,"station_id":"ce4bgt92rcd13ifvqcg0","pricing_plan_id":"cebpf4jnsgd1na2vs0mg"},{"bike_id":"921f1739-6270-47e5-b5d6-3855e48c46d7","system_id":"levelo_inurba_marseille","lat":43.31121,"lon":5.37763,"is_reserved":false,"is_disabled":false,"rental_uris":{"android":"levelo://app?vid=921f1739-6270-47e5-b5d6-3855e48c46d7","ios":"levelo://app?vid=921f1739-6270-47e5-b5d6-3855e48c46d7"},"vehicle_type_id":"4","last_reported":1712426909,"current_range_meters":0,"station_id":"ce4bgt92rcd13ifvqcg0","pricing_plan_id":"cebpf4jnsgd1na2vs0mg"},{"bike_id":"0fddb9a6-70a9-418e-98fc-b0da7995a927","system_id":"levelo_inurba_marseille","lat":43.311131,"lon":5.377651,"is_reserved":false,"is_disabled":false,"rental_uris":{"android":"levelo://app?vid=0fddb9a6-70a9-418e-98fc-b0da7995a927","ios":"levelo://app?vid=0fddb9a6-70a9-418e-98fc-b0da7995a927"},"vehicle_type_id":"4","last_reported":1712426909,"current_range_meters":4800,"station_id":"ce4bgt92rcd13ifvqcg0","pricing_plan_id":"cebpf4jnsgd1na2vs0mg"},{"bike_id":"22a6efe3-4c2d-475a-b3ab-7b68f6fc2fbd","system_id":"levelo_inurba_marseille","lat":43.311125,"lon":5.377624,"is_reserved":false,"is_disabled":false,"rental_uris":{"android":"levelo://app?vid=22a6efe3-4c2d-475a-b3ab-7b68f6fc2fbd","ios":"levelo://app?vid=22a6efe3-4c2d-475a-b3ab-7b68f6fc2fbd"},"vehicle_type_id":"4","last_reported":1712426909,"current_range_meters":5600,"station_id":"ce4bgt92rcd13ifvqcg0","pricing_plan_id":"cebpf4jnsgd1na2vs0mg"},{"bike_id":"e2b7667d-75b6-4fd7-807e-ea89f9e1c6e5","system_id":"levelo_inurba_marseille","lat":43.304866,"lon":5.36991,"is_reserved":false,"is_disabled":false,"rental_uris":{"android":"levelo://app?vid=e2b7667d-75b6-4fd7-807e-ea89f9e1c6e5","ios":"levelo://app?vid=e2b7667d-75b6-4fd7-807e-ea89f9e1c6e5"},"vehicle_type_id":"4","last_reported":1712426909,"current_range_meters":0,"station_id":"","pricing_plan_id":"cebpf4jnsgd1na2vs0mg"},{"bike_id":"c1c54e3e-7ae3-4fc3-b0f0-00bab45b3d5a","system_id":"levelo_inurba_marseille","lat":43.307945,"lon":5.376487,"is_reserved":false,"is_disabled":false,"rental_uris":{"android":"levelo://app?vid=c1c54e3e-7ae3-4fc3-b0f0-00bab45b3d5a","ios":"levelo://app?vid=c1c54e3e-7ae3-4fc3-b0f0-00bab45b3d5a"},"vehicle_type_id":"4","last_reported":1712426909,"current_range_meters":2000,"station_id":"ce4bgv92rcd13ifvqcq0","pricing_plan_id":"cebpf4jnsgd1na2vs0mg"},{"bike_id":"bbfed310-f5ca-41c8-bf3a-f83cd6959697","system_id":"levelo_inurba_marseille","lat":43.313254,"lon":5.37881,"is_reserved":false,"is_disabled":false,"rental_uris":{"android":"levelo://app?vid=bbfed310-f5ca-41c8-bf3a-f83cd6959697","ios":"levelo://app?vid=bbfed310-f5ca-41c8-bf3a-f83cd6959697"},"vehicle_type_id":"4","last_reported":1712426909,"current_range_meters":400,"station_id":"","pricing_plan_id":"cebpf4jnsgd1na2vs0mg"},{"bike_id":"cec89b4f-c62c-49b8-b859-a52a81a7c602","system_id":"levelo_inurba_marseille","lat":43.317075,"lon":5.377367,"is_reserved":false,"is_disabled":false,"rental_uris":{"android":"levelo://app?vid=cec89b4f-c62c-49b8-b859-a52a81a7c602","ios":"levelo://app?vid=cec89b4f-c62c-49b8-b859-a52a81a7c602"},"vehicle_type_id":"4","last_reported":1712426909,"current_range_meters":0,"station_id":"ce4bgth2rcd13ifvqch0","pricing_plan_id":"cebpf4jnsgd1na2vs0mg"},{"bike_id":"11f5c9db-1f2a-423a-a4ca-c96fb4ffa311","system_id":"levelo_inurba_marseille","lat":43.289184,"lon":5.366408,"is_reserved":false,"is_disabled":false,"rental_uris":{"android":"levelo://app?vid=11f5c9db-1f2a-423a-a4ca-c96fb4ffa311","ios":"levelo://app?vid=11f5c9db-1f2a-423a-a4ca-c96fb4ffa311"},"vehicle_type_id":"4","last_reported":1712426909,"current_range_meters":5200,"station_id":"ce4bhap2rcd13ifvqek0","pricing_plan_id":"cebpf4jnsgd1na2vs0mg"},{"bike_id":"d809e1f9-8ad3-4a18-b2bb-e4e518a3a07c","system_id":"levelo_inurba_marseille","lat":43.31744,"lon":5.3776,"is_reserved":false,"is_disabled":false,"rental_uris":{"android":"levelo://app?vid=d809e1f9-8ad3-4a18-b2bb-e4e518a3a07c","ios":"levelo://app?vid=d809e1f9-8ad3-4a18-b2bb-e4e518a3a07c"},"vehicle_type_id":"4","last_reported":1712426909,"current_range_meters":23600,"station_id":"ce4bgth2rcd13ifvqch0","pricing_plan_id":"cebpf4jnsgd1na2vs0mg"},{"bike_id":"e71aacd9-e7d8-4dd4-9f0a-d2e603452e14","system_id":"levelo_inurba_marseille","lat":43.309273,"lon":5.379163,"is_reserved":false,"is_disabled":false,"rental_uris":{"android":"levelo://app?vid=e71aacd9-e7d8-4dd4-9f0a-d2e603452e14","ios":"levelo://app?vid=e71aacd9-e7d8-4dd4-9f0a-d2e603452e14"},"vehicle_type_id":"4","last_reported":1712426909,"current_range_meters":26000,"station_id":"","pricing_plan_id":"cebpf4jnsgd1na2vs0mg"},{"bike_id":"b4967e54-19f0-40a5-9dc6-d6f242b250ef","system_id":"levelo_inurba_marseille","lat":43.303046,"lon":5.368981,"is_reserved":false,"is_disabled":false,"rental_uris":{"android":"levelo://app?vid=b4967e54-19f0-40a5-9dc6-d6f242b250ef","ios":"levelo://app?vid=b4967e54-19f0-40a5-9dc6-d6f242b250ef"},"vehicle_type_id":"4","last_reported":1712426909,"current_range_meters":12000,"station_id":"ce4bgqh2rcd13ifvqc5g","pricing_plan_id":"cebpf4jnsgd1na2vs0mg"},{"bike_id":"7980f469-8dd1-4edb-a125-a7a10d711b0c","system_id":"levelo_inurba_marseille","lat":43.30293,"lon":5.36477,"is_reserved":false,"is_disabled":false,"rental_uris":{"android":"levelo://app?vid=7980f469-8dd1-4edb-a125-a7a10d711b0c","ios":"levelo://app?vid=7980f469-8dd1-4edb-a125-a7a10d711b0c"},"vehicle_type_id":"4","last_reported":1712426909,"current_range_meters":0,"station_id":"","pricing_plan_id":"cebpf4jnsgd1na2vs0mg"},{"bike_id":"c46c65ac-9b5b-47df-8cde-810a499e106c","system_id":"levelo_inurba_marseille","lat":43.308012,"lon":5.381511,"is_reserved":false,"is_disabled":false,"rental_uris":{"android":"levelo://app?vid=c46c65ac-9b5b-47df-8cde-810a499e106c","ios":"levelo://app?vid=c46c65ac-9b5b-47df-8cde-810a499e106c"},"vehicle_type_id":"4","last_reported":1712426909,"current_range_meters":0,"station_id":"ce4bgt12rcd13ifvqce0","pricing_plan_id":"cebpf4jnsgd1na2vs0mg"},{"bike_id":"98add8b0-e8e8-4d21-810d-b214bb3f9779","system_id":"levelo_inurba_marseille","lat":43.308012,"lon":5.381511,"is_reserved":false,"is_disabled":false,"rental_uris":{"android":"levelo://app?vid=98add8b0-e8e8-4d21-810d-b214bb3f9779","ios":"levelo://app?vid=98add8b0-e8e8-4d21-810d-b214bb3f9779"},"vehicle_type_id":"4","last_reported":1712426909,"current_range_meters":0,"station_id":"ce4bgt12rcd13ifvqce0","pricing_plan_id":"cebpf4jnsgd1na2vs0mg"},{"bike_id":"04b32abe-b260-45a5-bcb4-4c83fe2a3b61","system_id":"levelo_inurba_marseille","lat":43.32478,"lon":5.36565,"is_reserved":false,"is_disabled":false,"rental_uris":{"android":"levelo://app?vid=04b32abe-b260-45a5-bcb4-4c83fe2a3b61","ios":"levelo://app?vid=04b32abe-b260-45a5-bcb4-4c83fe2a3b61"},"vehicle_type_id":"4","last_reported":1712426909,"current_range_meters":11200,"station_id":"ce4bhs12rcd13ifvqhvg","pricing_plan_id":"cebpf4jnsgd1na2vs0mg"},{"bike_id":"7e0be094-0bf0-4e75-8c0d-a6212aebe2ea","system_id":"levelo_inurba_marseille","lat":43.324771,"lon":5.36557,"is_reserved":false,"is_disabled":false,"rental_uris":{"android":"levelo://app?vid=7e0be094-0bf0-4e75-8c0d-a6212aebe2ea","ios":"levelo://app?vid=7e0be094-0bf0-4e75-8c0d-a6212aebe2ea"},"vehicle_type_id":"4","last_reported":1712426909,"current_range_meters":800,"station_id":"ce4bhs12rcd13ifvqhvg","pricing_plan_id":"cebpf4jnsgd1na2vs0mg"},{"bike_id":"32b7a2d7-d304-4b5c-b97b-d6f9fda4565f","system_id":"levelo_inurba_marseille","lat":43.324771,"lon":5.36557,"is_reserved":false,"is_disabled":false,"rental_uris":{"android":"levelo://app?vid=32b7a2d7-d304-4b5c-b97b-d6f9fda4565f","ios":"levelo://app?vid=32b7a2d7-d304-4b5c-b97b-d6f9fda4565f"},"vehicle_type_id":"4","last_reported":1712426909,"current_range_meters":1200,"station_id":"ce4bhs12rcd13ifvqhvg","pricing_plan_id":"cebpf4jnsgd1na2vs0mg"},{"bike_id":"58368bc2-10fd-4305-b0ed-cd480db19672","system_id":"levelo_inurba_marseille","lat":43.31063,"lon":5.38341,"is_reserved":false,"is_disabled":false,"rental_uris":{"android":"levelo://app?vid=58368bc2-10fd-4305-b0ed-cd480db19672","ios":"levelo://app?vid=58368bc2-10fd-4305-b0ed-cd480db19672"},"vehicle_type_id":"4","last_reported":1712426909,"current_range_meters":0,"station_id":"ce4bgv92rcd13ifvqcr0","pricing_plan_id":"cebpf4jnsgd1na2vs0mg"},{"bike_id":"8d398360-61fd-446d-82a7-54ecc541e9a7","system_id":"levelo_inurba_marseille","lat":43.319954,"lon":5.381507,"is_reserved":false,"is_disabled":false,"rental_uris":{"android":"levelo://app?vid=8d398360-61fd-446d-82a7-54ecc541e9a7","ios":"levelo://app?vid=8d398360-61fd-446d-82a7-54ecc541e9a7"},"vehicle_type_id":"4","last_reported":1712426909,"current_range_meters":3200,"station_id":"ce4bhr12rcd13ifvqhpg","pricing_plan_id":"cebpf4jnsgd1na2vs0mg"},{"bike_id":"d3b8de65-85f8-46e2-a1fb-106263156db0","system_id":"levelo_inurba_marseille","lat":43.319935,"lon":5.381699,"is_reserved":false,"is_disabled":false,"rental_uris":{"android":"levelo://app?vid=d3b8de65-85f8-46e2-a1fb-106263156db0","ios":"levelo://app?vid=d3b8de65-85f8-46e2-a1fb-106263156db0"},"vehicle_type_id":"4","last_reported":1712426909,"current_range_meters":29600,"station_id":"ce4bhr12rcd13ifvqhpg","pricing_plan_id":"cebpf4jnsgd1na2vs0mg"},{"bike_id":"e0bc155e-cb39-4835-8737-6332e4d84567","system_id":"levelo_inurba_marseille","lat":43.31999,"lon":5.38159,"is_reserved":false,"is_disabled":false,"rental_uris":{"android":"levelo://app?vid=e0bc155e-cb39-4835-8737-6332e4d84567","ios":"levelo://app?vid=e0bc155e-cb39-4835-8737-6332e4d84567"},"vehicle_type_id":"4","last_reported":1712426909,"current_range_meters":4000,"station_id":"ce4bhr12rcd13ifvqhpg","pricing_plan_id":"cebpf4jnsgd1na2vs0mg"},{"bike_id":"dda7e5d8-fa98-4136-a554-b0b9128f57c3","system_id":"levelo_inurba_marseille","lat":43.32007,"lon":5.38155,"is_reserved":false,"is_disabled":false,"rental_uris":{"android":"levelo://app?vid=dda7e5d8-fa98-4136-a554-b0b9128f57c3","ios":"levelo://app?vid=dda7e5d8-fa98-4136-a554-b0b9128f57c3"},"vehicle_type_id":"4","last_reported":1712426909,"current_range_meters":2800,"station_id":"ce4bhr12rcd13ifvqhpg","pricing_plan_id":"cebpf4jnsgd1na2vs0mg"},{"bike_id":"9f36bcd9-5e64-457a-a12b-1f217cebc3bf","system_id":"levelo_inurba_marseille","lat":43.313571,"lon":5.384829,"is_reserved":false,"is_disabled":false,"rental_uris":{"android":"levelo://app?vid=9f36bcd9-5e64-457a-a12b-1f217cebc3bf","ios":"levelo://app?vid=9f36bcd9-5e64-457a-a12b-1f217cebc3bf"},"vehicle_type_id":"4","last_reported":1712426909,"current_range_meters":18800,"station_id":"ce4bgt92rcd13ifvqcf0","pricing_plan_id":"cebpf4jnsgd1na2vs0mg"},{"bike_id":"8159910f-ddba-4143-a84c-2dc32c7ea602","system_id":"levelo_inurba_marseille","lat":43.313571,"lon":5.384829,"is_reserved":false,"is_disabled":false,"rental_uris":{"android":"levelo://app?vid=8159910f-ddba-4143-a84c-2dc32c7ea602","ios":"levelo://app?vid=8159910f-ddba-4143-a84c-2dc32c7ea602"},"vehicle_type_id":"4","last_reported":1712426909,"current_range_meters":22800,"station_id":"ce4bgt92rcd13ifvqcf0","pricing_plan_id":"cebpf4jnsgd1na2vs0mg"},{"bike_id":"07daa63d-3a3a-42ec-9f77-e7d2b3fcd92d","system_id":"levelo_inurba_marseille","lat":43.313571,"lon":5.384829,"is_reserved":false,"is_disabled":false,"rental_uris":{"android":"levelo://app?vid=07daa63d-3a3a-42ec-9f77-e7d2b3fcd92d","ios":"levelo://app?vid=07daa63d-3a3a-42ec-9f77-e7d2b3fcd92d"},"vehicle_type_id":"4","last_reported":1712426909,"current_range_meters":7600,"station_id":"ce4bgt92rcd13ifvqcf0","pricing_plan_id":"cebpf4jnsgd1na2vs0mg"},{"bike_id":"5ff4b4ab-6dc6-40a9-9cf0-7407b5fecceb","system_id":"levelo_inurba_marseille","lat":43.299222,"lon":5.365554,"is_reserved":false,"is_disabled":false,"rental_uris":{"android":"levelo://app?vid=5ff4b4ab-6dc6-40a9-9cf0-7407b5fecceb","ios":"levelo://app?vid=5ff4b4ab-6dc6-40a9-9cf0-7407b5fecceb"},"vehicle_type_id":"4","last_reported":1712426909,"current_range_meters":0,"station_id":"ce4bgm92rcd13ifvqbr0","pricing_plan_id":"cebpf4jnsgd1na2vs0mg"},{"bike_id":"f106468a-4a38-4154-9ea4-9f1d0e6e117d","system_id":"levelo_inurba_marseille","lat":43.299724,"lon":5.371829,"is_reserved":false,"is_disabled":false,"rental_uris":{"android":"levelo://app?vid=f106468a-4a38-4154-9ea4-9f1d0e6e117d","ios":"levelo://app?vid=f106468a-4a38-4154-9ea4-9f1d0e6e117d"},"vehicle_type_id":"4","last_reported":1712426909,"current_range_meters":11200,"station_id":"ce4bgr92rcd13ifvqc7g","pricing_plan_id":"cebpf4jnsgd1na2vs0mg"},{"bike_id":"113fd15e-96ae-4b35-87bd-a3c91f8b3a31","system_id":"levelo_inurba_marseille","lat":43.299721,"lon":5.371651,"is_reserved":false,"is_disabled":false,"rental_uris":{"android":"levelo://app?vid=113fd15e-96ae-4b35-87bd-a3c91f8b3a31","ios":"levelo://app?vid=113fd15e-96ae-4b35-87bd-a3c91f8b3a31"},"vehicle_type_id":"4","last_reported":1712426909,"current_range_meters":25200,"station_id":"ce4bgr92rcd13ifvqc7g","pricing_plan_id":"cebpf4jnsgd1na2vs0mg"},{"bike_id":"abb1d71b-96df-4643-9abd-38a3fdf2b168","system_id":"levelo_inurba_marseille","lat":43.299222,"lon":5.365554,"is_reserved":false,"is_disabled":false,"rental_uris":{"android":"levelo://app?vid=abb1d71b-96df-4643-9abd-38a3fdf2b168","ios":"levelo://app?vid=abb1d71b-96df-4643-9abd-38a3fdf2b168"},"vehicle_type_id":"4","last_reported":1712426909,"current_range_meters":0,"station_id":"ce4bgm92rcd13ifvqbr0","pricing_plan_id":"cebpf4jnsgd1na2vs0mg"},{"bike_id":"42509129-1c2f-4c61-99ae-d25a493f13e1","system_id":"levelo_inurba_marseille","lat":43.29852,"lon":5.36286,"is_reserved":false,"is_disabled":false,"rental_uris":{"android":"levelo://app?vid=42509129-1c2f-4c61-99ae-d25a493f13e1","ios":"levelo://app?vid=42509129-1c2f-4c61-99ae-d25a493f13e1"},"vehicle_type_id":"4","last_reported":1712426909,"current_range_meters":0,"station_id":"ce4bgpp2rcd13ifvqc3g","pricing_plan_id":"cebpf4jnsgd1na2vs0mg"},{"bike_id":"4267ca19-38f6-4b84-a0b9-c0aa79617183","system_id":"levelo_inurba_marseille","lat":43.311722,"lon":5.387247,"is_reserved":false,"is_disabled":false,"rental_uris":{"android":"levelo://app?vid=4267ca19-38f6-4b84-a0b9-c0aa79617183","ios":"levelo://app?vid=4267ca19-38f6-4b84-a0b9-c0aa79617183"},"vehicle_type_id":"4","last_reported":1712426909,"current_range_meters":16400,"station_id":"ce4bgv12rcd13ifvqcp0","pricing_plan_id":"cebpf4jnsgd1na2vs0mg"},{"bike_id":"973c9bc3-cd95-4283-a299-45bc0474c3a1","system_id":"levelo_inurba_marseille","lat":43.31179,"lon":5.38723,"is_reserved":false,"is_disabled":false,"rental_uris":{"android":"levelo://app?vid=973c9bc3-cd95-4283-a299-45bc0474c3a1","ios":"levelo://app?vid=973c9bc3-cd95-4283-a299-45bc0474c3a1"},"vehicle_type_id":"4","last_reported":1712426909,"current_range_meters":0,"station_id":"ce4bgv12rcd13ifvqcp0","pricing_plan_id":"cebpf4jnsgd1na2vs0mg"},{"bike_id":"3f92e601-4313-4159-a538-05e8158eabfc","system_id":"levelo_inurba_marseille","lat":43.311722,"lon":5.387247,"is_reserved":false,"is_disabled":false,"rental_uris":{"android":"levelo://app?vid=3f92e601-4313-4159-a538-05e8158eabfc","ios":"levelo://app?vid=3f92e601-4313-4159-a538-05e8158eabfc"},"vehicle_type_id":"4","last_reported":1712426909,"current_range_meters":2400,"station_id":"ce4bgv12rcd13ifvqcp0","pricing_plan_id":"cebpf4jnsgd1na2vs0mg"},{"bike_id":"ff5a4101-b2e5-4598-a2d2-5d1372356369","system_id":"levelo_inurba_marseille","lat":43.311722,"lon":5.387247,"is_reserved":false,"is_disabled":false,"rental_uris":{"android":"levelo://app?vid=ff5a4101-b2e5-4598-a2d2-5d1372356369","ios":"levelo://app?vid=ff5a4101-b2e5-4598-a2d2-5d1372356369"},"vehicle_type_id":"4","last_reported":1712426909,"current_range_meters":5600,"station_id":"ce4bgv12rcd13ifvqcp0","pricing_plan_id":"cebpf4jnsgd1na2vs0mg"},{"bike_id":"6941bd2f-2cc3-4b77-8d42-e35dbf20caee","system_id":"levelo_inurba_marseille","lat":43.32291,"lon":5.382578,"is_reserved":false,"is_disabled":false,"rental_uris":{"android":"levelo://app?vid=6941bd2f-2cc3-4b77-8d42-e35dbf20caee","ios":"levelo://app?vid=6941bd2f-2cc3-4b77-8d42-e35dbf20caee"},"vehicle_type_id":"4","last_reported":1712426909,"current_range_meters":6800,"station_id":"ce4bhr12rcd13ifvqhqg","pricing_plan_id":"cebpf4jnsgd1na2vs0mg"},{"bike_id":"8a79ea18-017d-4ca6-aa64-850fe1797991","system_id":"levelo_inurba_marseille","lat":43.322872,"lon":5.382756,"is_reserved":false,"is_disabled":false,"rental_uris":{"android":"levelo://app?vid=8a79ea18-017d-4ca6-aa64-850fe1797991","ios":"levelo://app?vid=8a79ea18-017d-4ca6-aa64-850fe1797991"},"vehicle_type_id":"4","last_reported":1712426909,"current_range_meters":22800,"station_id":"ce4bhr12rcd13ifvqhqg","pricing_plan_id":"cebpf4jnsgd1na2vs0mg"},{"bike_id":"0067bae4-cf6a-439b-b96e-96b2a9ade7f9","system_id":"levelo_inurba_marseille","lat":43.32294,"lon":5.38267,"is_reserved":false,"is_disabled":false,"rental_uris":{"android":"levelo://app?vid=0067bae4-cf6a-439b-b96e-96b2a9ade7f9","ios":"levelo://app?vid=0067bae4-cf6a-439b-b96e-96b2a9ade7f9"},"vehicle_type_id":"4","last_reported":1712426909,"current_range_meters":0,"station_id":"ce4bhr12rcd13ifvqhqg","pricing_plan_id":"cebpf4jnsgd1na2vs0mg"},{"bike_id":"18651e73-a960-43da-bdae-371146c35a92","system_id":"levelo_inurba_marseille","lat":43.322872,"lon":5.382756,"is_reserved":false,"is_disabled":false,"rental_uris":{"android":"levelo://app?vid=18651e73-a960-43da-bdae-371146c35a92","ios":"levelo://app?vid=18651e73-a960-43da-bdae-371146c35a92"},"vehicle_type_id":"4","last_reported":1712426909,"current_range_meters":31200,"station_id":"ce4bhr12rcd13ifvqhqg","pricing_plan_id":"cebpf4jnsgd1na2vs0mg"},{"bike_id":"79a09dc1-a136-4553-b035-ca9b20a658e5","system_id":"levelo_inurba_marseille","lat":43.30181,"lon":5.3818,"is_reserved":false,"is_disabled":false,"rental_uris":{"android":"levelo://app?vid=79a09dc1-a136-4553-b035-ca9b20a658e5","ios":"levelo://app?vid=79a09dc1-a136-4553-b035-ca9b20a658e5"},"vehicle_type_id":"4","last_reported":1712426909,"current_range_meters":11600,"station_id":"","pricing_plan_id":"cebpf4jnsgd1na2vs0mg"},{"bike_id":"9fa8c5cd-1417-4f10-8835-898999fb3fc5","system_id":"levelo_inurba_marseille","lat":43.29875,"lon":5.37574,"is_reserved":false,"is_disabled":false,"rental_uris":{"android":"levelo://app?vid=9fa8c5cd-1417-4f10-8835-898999fb3fc5","ios":"levelo://app?vid=9fa8c5cd-1417-4f10-8835-898999fb3fc5"},"vehicle_type_id":"4","last_reported":1712426909,"current_range_meters":0,"station_id":"","pricing_plan_id":"cebpf4jnsgd1na2vs0mg"},{"bike_id":"8e83eac3-d06c-46ea-90f6-ed585904aeca","system_id":"levelo_inurba_marseille","lat":43.29725,"lon":5.36613,"is_reserved":false,"is_disabled":false,"rental_uris":{"android":"levelo://app?vid=8e83eac3-d06c-46ea-90f6-ed585904aeca","ios":"levelo://app?vid=8e83eac3-d06c-46ea-90f6-ed585904aeca"},"vehicle_type_id":"4","last_reported":1712426909,"current_range_meters":5600,"station_id":"ce4bh692rcd13ifvqea0","pricing_plan_id":"cebpf4jnsgd1na2vs0mg"},{"bike_id":"93be9405-6fd4-4440-882e-6b8c895ba171","system_id":"levelo_inurba_marseille","lat":43.297163,"lon":5.365866,"is_reserved":false,"is_disabled":false,"rental_uris":{"android":"levelo://app?vid=93be9405-6fd4-4440-882e-6b8c895ba171","ios":"levelo://app?vid=93be9405-6fd4-4440-882e-6b8c895ba171"},"vehicle_type_id":"4","last_reported":1712426909,"current_range_meters":4000,"station_id":"ce4bgn12rcd13ifvqbt0","pricing_plan_id":"cebpf4jnsgd1na2vs0mg"},{"bike_id":"263b5429-98eb-4754-a784-812ce56db5b1","system_id":"levelo_inurba_marseille","lat":43.29573,"lon":5.367355,"is_reserved":false,"is_disabled":false,"rental_uris":{"android":"levelo://app?vid=263b5429-98eb-4754-a784-812ce56db5b1","ios":"levelo://app?vid=263b5429-98eb-4754-a784-812ce56db5b1"},"vehicle_type_id":"4","last_reported":1712426909,"current_range_meters":2000,"station_id":"ce4bgph2rcd13ifvqc2g","pricing_plan_id":"cebpf4jnsgd1na2vs0mg"},{"bike_id":"654abb6c-7705-4f13-8a46-926a3d50f8ea","system_id":"levelo_inurba_marseille","lat":43.281044,"lon":5.378308,"is_reserved":false,"is_disabled":false,"rental_uris":{"android":"levelo://app?vid=654abb6c-7705-4f13-8a46-926a3d50f8ea","ios":"levelo://app?vid=654abb6c-7705-4f13-8a46-926a3d50f8ea"},"vehicle_type_id":"4","last_reported":1712426909,"current_range_meters":24800,"station_id":"ce4bha12rcd13ifvqee0","pricing_plan_id":"cebpf4jnsgd1na2vs0mg"},{"bike_id":"2a79649b-afe9-498a-b001-77e2fc653a5f","system_id":"levelo_inurba_marseille","lat":43.29573,"lon":5.367355,"is_reserved":false,"is_disabled":false,"rental_uris":{"android":"levelo://app?vid=2a79649b-afe9-498a-b001-77e2fc653a5f","ios":"levelo://app?vid=2a79649b-afe9-498a-b001-77e2fc653a5f"},"vehicle_type_id":"4","last_reported":1712426909,"current_range_meters":0,"station_id":"ce4bgph2rcd13ifvqc2g","pricing_plan_id":"cebpf4jnsgd1na2vs0mg"},{"bike_id":"a0f1acfc-5a42-447b-9789-f67abc6898e8","system_id":"levelo_inurba_marseille","lat":43.29912,"lon":5.38151,"is_reserved":false,"is_disabled":false,"rental_uris":{"android":"levelo://app?vid=a0f1acfc-5a42-447b-9789-f67abc6898e8","ios":"levelo://app?vid=a0f1acfc-5a42-447b-9789-f67abc6898e8"},"vehicle_type_id":"4","last_reported":1712426909,"current_range_meters":13200,"station_id":"","pricing_plan_id":"cebpf4jnsgd1na2vs0mg"},{"bike_id":"6d522c9c-6e63-480d-89c3-ef59e435ebcd","system_id":"levelo_inurba_marseille","lat":43.309589,"lon":5.390258,"is_reserved":false,"is_disabled":false,"rental_uris":{"android":"levelo://app?vid=6d522c9c-6e63-480d-89c3-ef59e435ebcd","ios":"levelo://app?vid=6d522c9c-6e63-480d-89c3-ef59e435ebcd"},"vehicle_type_id":"4","last_reported":1712426909,"current_range_meters":21200,"station_id":"ce4bgup2rcd13ifvqco0","pricing_plan_id":"cebpf4jnsgd1na2vs0mg"},{"bike_id":"6df48798-322f-40cc-918f-06083f19133c","system_id":"levelo_inurba_marseille","lat":43.317557,"lon":5.390173,"is_reserved":false,"is_disabled":false,"rental_uris":{"android":"levelo://app?vid=6df48798-322f-40cc-918f-06083f19133c","ios":"levelo://app?vid=6df48798-322f-40cc-918f-06083f19133c"},"vehicle_type_id":"4","last_reported":1712426909,"current_range_meters":3600,"station_id":"ce4bhqp2rcd13ifvqhng","pricing_plan_id":"cebpf4jnsgd1na2vs0mg"},{"bike_id":"99054ac9-2eae-453c-b9cd-1e4160e2a6c7","system_id":"levelo_inurba_marseille","lat":43.317557,"lon":5.390173,"is_reserved":false,"is_disabled":false,"rental_uris":{"android":"levelo://app?vid=99054ac9-2eae-453c-b9cd-1e4160e2a6c7","ios":"levelo://app?vid=99054ac9-2eae-453c-b9cd-1e4160e2a6c7"},"vehicle_type_id":"4","last_reported":1712426909,"current_range_meters":6400,"station_id":"ce4bhqp2rcd13ifvqhng","pricing_plan_id":"cebpf4jnsgd1na2vs0mg"},{"bike_id":"447b206b-46f3-45ad-bed9-4f600cb27433","system_id":"levelo_inurba_marseille","lat":43.317557,"lon":5.390173,"is_reserved":false,"is_disabled":false,"rental_uris":{"android":"levelo://app?vid=447b206b-46f3-45ad-bed9-4f600cb27433","ios":"levelo://app?vid=447b206b-46f3-45ad-bed9-4f600cb27433"},"vehicle_type_id":"4","last_reported":1712426909,"current_range_meters":24000,"station_id":"ce4bhqp2rcd13ifvqhng","pricing_plan_id":"cebpf4jnsgd1na2vs0mg"},{"bike_id":"2e365256-29fe-41ed-83e1-dcc801e2a316","system_id":"levelo_inurba_marseille","lat":43.304091,"lon":5.388074,"is_reserved":false,"is_disabled":false,"rental_uris":{"android":"levelo://app?vid=2e365256-29fe-41ed-83e1-dcc801e2a316","ios":"levelo://app?vid=2e365256-29fe-41ed-83e1-dcc801e2a316"},"vehicle_type_id":"4","last_reported":1712426909,"current_range_meters":8400,"station_id":"ce4bgk12rcd13ifvqbi0","pricing_plan_id":"cebpf4jnsgd1na2vs0mg"},{"bike_id":"7f7e49ae-3b42-4330-bdfb-7bab9584b01b","system_id":"levelo_inurba_marseille","lat":43.29589,"lon":5.37508,"is_reserved":false,"is_disabled":false,"rental_uris":{"android":"levelo://app?vid=7f7e49ae-3b42-4330-bdfb-7bab9584b01b","ios":"levelo://app?vid=7f7e49ae-3b42-4330-bdfb-7bab9584b01b"},"vehicle_type_id":"4","last_reported":1712426909,"current_range_meters":18400,"station_id":"ce4bgh92rcd13ifvqb50","pricing_plan_id":"cebpf4jnsgd1na2vs0mg"},{"bike_id":"89336b7c-355d-4813-be04-d773b0ec712e","system_id":"levelo_inurba_marseille","lat":43.296597,"lon":5.377587,"is_reserved":false,"is_disabled":false,"rental_uris":{"android":"levelo://app?vid=89336b7c-355d-4813-be04-d773b0ec712e","ios":"levelo://app?vid=89336b7c-355d-4813-be04-d773b0ec712e"},"vehicle_type_id":"4","last_reported":1712426909,"current_range_meters":0,"station_id":"","pricing_plan_id":"cebpf4jnsgd1na2vs0mg"},{"bike_id":"a41e0fe2-4097-4728-87ff-ee1147bbbf09","system_id":"levelo_inurba_marseille","lat":43.298037,"lon":5.381066,"is_reserved":false,"is_disabled":false,"rental_uris":{"android":"levelo://app?vid=a41e0fe2-4097-4728-87ff-ee1147bbbf09","ios":"levelo://app?vid=a41e0fe2-4097-4728-87ff-ee1147bbbf09"},"vehicle_type_id":"4","last_reported":1712426909,"current_range_meters":4400,"station_id":"ce4bgip2rcd13ifvqbb0","pricing_plan_id":"cebpf4jnsgd1na2vs0mg"},{"bike_id":"906cad47-c2ff-41bf-ad3e-a09432d2d205","system_id":"levelo_inurba_marseille","lat":43.297973,"lon":5.380993,"is_reserved":false,"is_disabled":false,"rental_uris":{"android":"levelo://app?vid=906cad47-c2ff-41bf-ad3e-a09432d2d205","ios":"levelo://app?vid=906cad47-c2ff-41bf-ad3e-a09432d2d205"},"vehicle_type_id":"4","last_reported":1712426909,"current_range_meters":28400,"station_id":"ce4bgip2rcd13ifvqbb0","pricing_plan_id":"cebpf4jnsgd1na2vs0mg"},{"bike_id":"879ada7b-f47d-45c9-ac3e-931c446aa21a","system_id":"levelo_inurba_marseille","lat":43.289741,"lon":5.378306,"is_reserved":false,"is_disabled":false,"rental_uris":{"android":"levelo://app?vid=879ada7b-f47d-45c9-ac3e-931c446aa21a","ios":"levelo://app?vid=879ada7b-f47d-45c9-ac3e-931c446aa21a"},"vehicle_type_id":"4","last_reported":1712426909,"current_range_meters":20000,"station_id":"ce4bh9p2rcd13ifvqed0","pricing_plan_id":"cebpf4jnsgd1na2vs0mg"},{"bike_id":"32b29376-4997-4128-976d-59395f4047f0","system_id":"levelo_inurba_marseille","lat":43.30438,"lon":5.3889,"is_reserved":false,"is_disabled":false,"rental_uris":{"android":"levelo://app?vid=32b29376-4997-4128-976d-59395f4047f0","ios":"levelo://app?vid=32b29376-4997-4128-976d-59395f4047f0"},"vehicle_type_id":"4","last_reported":1712426909,"current_range_meters":19200,"station_id":"ce4bgk12rcd13ifvqbi0","pricing_plan_id":"cebpf4jnsgd1na2vs0mg"},{"bike_id":"76674896-af90-4ffa-82a2-07daa3c0deef","system_id":"levelo_inurba_marseille","lat":43.294314,"lon":5.397498,"is_reserved":false,"is_disabled":false,"rental_uris":{"android":"levelo://app?vid=76674896-af90-4ffa-82a2-07daa3c0deef","ios":"levelo://app?vid=76674896-af90-4ffa-82a2-07daa3c0deef"},"vehicle_type_id":"4","last_reported":1712426909,"current_range_meters":2800,"station_id":"ce4bh3h2rcd13ifvqdo0","pricing_plan_id":"cebpf4jnsgd1na2vs0mg"},{"bike_id":"f7a2af45-88b9-4872-9678-d2ee545a53ec","system_id":"levelo_inurba_marseille","lat":43.30432,"lon":5.38888,"is_reserved":false,"is_disabled":false,"rental_uris":{"android":"levelo://app?vid=f7a2af45-88b9-4872-9678-d2ee545a53ec","ios":"levelo://app?vid=f7a2af45-88b9-4872-9678-d2ee545a53ec"},"vehicle_type_id":"4","last_reported":1712426909,"current_range_meters":2400,"station_id":"ce4bgk12rcd13ifvqbi0","pricing_plan_id":"cebpf4jnsgd1na2vs0mg"},{"bike_id":"f65f4396-0018-4cc1-a895-5382c730b169","system_id":"levelo_inurba_marseille","lat":43.30433,"lon":5.38889,"is_reserved":false,"is_disabled":false,"rental_uris":{"android":"levelo://app?vid=f65f4396-0018-4cc1-a895-5382c730b169","ios":"levelo://app?vid=f65f4396-0018-4cc1-a895-5382c730b169"},"vehicle_type_id":"4","last_reported":1712426909,"current_range_meters":0,"station_id":"ce4bgk12rcd13ifvqbi0","pricing_plan_id":"cebpf4jnsgd1na2vs0mg"},{"bike_id":"e97d70c3-38d9-49b0-a8d4-5a2f3daa2bc5","system_id":"levelo_inurba_marseille","lat":43.30436,"lon":5.38894,"is_reserved":false,"is_disabled":false,"rental_uris":{"android":"levelo://app?vid=e97d70c3-38d9-49b0-a8d4-5a2f3daa2bc5","ios":"levelo://app?vid=e97d70c3-38d9-49b0-a8d4-5a2f3daa2bc5"},"vehicle_type_id":"4","last_reported":1712426909,"current_range_meters":400,"station_id":"ce4bgk12rcd13ifvqbi0","pricing_plan_id":"cebpf4jnsgd1na2vs0mg"},{"bike_id":"ed449366-1237-4e76-b196-ab4e149184d7","system_id":"levelo_inurba_marseille","lat":43.29624,"lon":5.37721,"is_reserved":false,"is_disabled":false,"rental_uris":{"android":"levelo://app?vid=ed449366-1237-4e76-b196-ab4e149184d7","ios":"levelo://app?vid=ed449366-1237-4e76-b196-ab4e149184d7"},"vehicle_type_id":"4","last_reported":1712426909,"current_range_meters":2400,"station_id":"ce4bh192rcd13ifvqdd0","pricing_plan_id":"cebpf4jnsgd1na2vs0mg"},{"bike_id":"b9afccff-001b-4f74-b66d-cbc42aca7090","system_id":"levelo_inurba_marseille","lat":43.304286,"lon":5.388997,"is_reserved":false,"is_disabled":false,"rental_uris":{"android":"levelo://app?vid=b9afccff-001b-4f74-b66d-cbc42aca7090","ios":"levelo://app?vid=b9afccff-001b-4f74-b66d-cbc42aca7090"},"vehicle_type_id":"4","last_reported":1712426909,"current_range_meters":0,"station_id":"ce4bgk12rcd13ifvqbi0","pricing_plan_id":"cebpf4jnsgd1na2vs0mg"},{"bike_id":"1b3e98e8-a123-441b-a85c-08c7da89fe84","system_id":"levelo_inurba_marseille","lat":43.29767,"lon":5.38089,"is_reserved":false,"is_disabled":false,"rental_uris":{"android":"levelo://app?vid=1b3e98e8-a123-441b-a85c-08c7da89fe84","ios":"levelo://app?vid=1b3e98e8-a123-441b-a85c-08c7da89fe84"},"vehicle_type_id":"4","last_reported":1712426909,"current_range_meters":3200,"station_id":"ce4bgip2rcd13ifvqbb0","pricing_plan_id":"cebpf4jnsgd1na2vs0mg"},{"bike_id":"65f8b248-204c-483b-81fa-3e47bdb78e8f","system_id":"levelo_inurba_marseille","lat":43.30422,"lon":5.389,"is_reserved":false,"is_disabled":false,"rental_uris":{"android":"levelo://app?vid=65f8b248-204c-483b-81fa-3e47bdb78e8f","ios":"levelo://app?vid=65f8b248-204c-483b-81fa-3e47bdb78e8f"},"vehicle_type_id":"4","last_reported":1712426909,"current_range_meters":8800,"station_id":"ce4bgk12rcd13ifvqbi0","pricing_plan_id":"cebpf4jnsgd1na2vs0mg"},{"bike_id":"a4a165ea-fef4-460d-b007-6d884fa479b2","system_id":"levelo_inurba_marseille","lat":43.295279,"lon":5.375048,"is_reserved":false,"is_disabled":false,"rental_uris":{"android":"levelo://app?vid=a4a165ea-fef4-460d-b007-6d884fa479b2","ios":"levelo://app?vid=a4a165ea-fef4-460d-b007-6d884fa479b2"},"vehicle_type_id":"4","last_reported":1712426909,"current_range_meters":21600,"station_id":"ce4bgkp2rcd13ifvqbmg","pricing_plan_id":"cebpf4jnsgd1na2vs0mg"},{"bike_id":"8ce02b5d-fb4c-4f9b-843b-edf0b5b70712","system_id":"levelo_inurba_marseille","lat":43.304274,"lon":5.388873,"is_reserved":false,"is_disabled":false,"rental_uris":{"android":"levelo://app?vid=8ce02b5d-fb4c-4f9b-843b-edf0b5b70712","ios":"levelo://app?vid=8ce02b5d-fb4c-4f9b-843b-edf0b5b70712"},"vehicle_type_id":"4","last_reported":1712426909,"current_range_meters":0,"station_id":"ce4bgk12rcd13ifvqbi0","pricing_plan_id":"cebpf4jnsgd1na2vs0mg"},{"bike_id":"6e97fdee-e7ee-41f1-ba94-96ef086e973c","system_id":"levelo_inurba_marseille","lat":43.313571,"lon":5.384829,"is_reserved":false,"is_disabled":false,"rental_uris":{"android":"levelo://app?vid=6e97fdee-e7ee-41f1-ba94-96ef086e973c","ios":"levelo://app?vid=6e97fdee-e7ee-41f1-ba94-96ef086e973c"},"vehicle_type_id":"4","last_reported":1712426909,"current_range_meters":19200,"station_id":"ce4bgt92rcd13ifvqcf0","pricing_plan_id":"cebpf4jnsgd1na2vs0mg"},{"bike_id":"4a1d4009-9764-48ef-a754-2f44985ecf4a","system_id":"levelo_inurba_marseille","lat":43.299243,"lon":5.374807,"is_reserved":false,"is_disabled":false,"rental_uris":{"android":"levelo://app?vid=4a1d4009-9764-48ef-a754-2f44985ecf4a","ios":"levelo://app?vid=4a1d4009-9764-48ef-a754-2f44985ecf4a"},"vehicle_type_id":"4","last_reported":1712426909,"current_range_meters":20400,"station_id":"ce4bgjh2rcd13ifvqbg0","pricing_plan_id":"cebpf4jnsgd1na2vs0mg"},{"bike_id":"06f489c6-7832-4ed5-b808-d6cf9d50909e","system_id":"levelo_inurba_marseille","lat":43.32367,"lon":5.388836,"is_reserved":false,"is_disabled":false,"rental_uris":{"android":"levelo://app?vid=06f489c6-7832-4ed5-b808-d6cf9d50909e","ios":"levelo://app?vid=06f489c6-7832-4ed5-b808-d6cf9d50909e"},"vehicle_type_id":"4","last_reported":1712426909,"current_range_meters":4400,"station_id":"ce4bhqp2rcd13ifvqhog","pricing_plan_id":"cebpf4jnsgd1na2vs0mg"},{"bike_id":"7db2aca4-16ed-46d4-9d90-11a7dcc9b313","system_id":"levelo_inurba_marseille","lat":43.32367,"lon":5.388836,"is_reserved":false,"is_disabled":false,"rental_uris":{"android":"levelo://app?vid=7db2aca4-16ed-46d4-9d90-11a7dcc9b313","ios":"levelo://app?vid=7db2aca4-16ed-46d4-9d90-11a7dcc9b313"},"vehicle_type_id":"4","last_reported":1712426909,"current_range_meters":18800,"station_id":"ce4bhqp2rcd13ifvqhog","pricing_plan_id":"cebpf4jnsgd1na2vs0mg"},{"bike_id":"db7e01b3-c28d-46ec-86c6-e3d67fec7861","system_id":"levelo_inurba_marseille","lat":43.29602,"lon":5.381084,"is_reserved":false,"is_disabled":false,"rental_uris":{"android":"levelo://app?vid=db7e01b3-c28d-46ec-86c6-e3d67fec7861","ios":"levelo://app?vid=db7e01b3-c28d-46ec-86c6-e3d67fec7861"},"vehicle_type_id":"4","last_reported":1712426909,"current_range_meters":0,"station_id":"ce4bgl12rcd13ifvqbo0","pricing_plan_id":"cebpf4jnsgd1na2vs0mg"},{"bike_id":"d46f509c-619b-45a3-acef-d23e83fbc1c6","system_id":"levelo_inurba_marseille","lat":43.296168,"lon":5.381144,"is_reserved":false,"is_disabled":false,"rental_uris":{"android":"levelo://app?vid=d46f509c-619b-45a3-acef-d23e83fbc1c6","ios":"levelo://app?vid=d46f509c-619b-45a3-acef-d23e83fbc1c6"},"vehicle_type_id":"4","last_reported":1712426909,"current_range_meters":18800,"station_id":"ce4bgl12rcd13ifvqbo0","pricing_plan_id":"cebpf4jnsgd1na2vs0mg"},{"bike_id":"0d1373d2-edd1-4716-b9cd-cff3b6402450","system_id":"levelo_inurba_marseille","lat":43.29609,"lon":5.38101,"is_reserved":false,"is_disabled":false,"rental_uris":{"android":"levelo://app?vid=0d1373d2-edd1-4716-b9cd-cff3b6402450","ios":"levelo://app?vid=0d1373d2-edd1-4716-b9cd-cff3b6402450"},"vehicle_type_id":"4","last_reported":1712426909,"current_range_meters":0,"station_id":"ce4bgl12rcd13ifvqbo0","pricing_plan_id":"cebpf4jnsgd1na2vs0mg"},{"bike_id":"2b77af8c-8dad-4c86-a9d4-e3e71f3c1a02","system_id":"levelo_inurba_marseille","lat":43.29602,"lon":5.381084,"is_reserved":false,"is_disabled":false,"rental_uris":{"android":"levelo://app?vid=2b77af8c-8dad-4c86-a9d4-e3e71f3c1a02","ios":"levelo://app?vid=2b77af8c-8dad-4c86-a9d4-e3e71f3c1a02"},"vehicle_type_id":"4","last_reported":1712426909,"current_range_meters":2000,"station_id":"ce4bgl12rcd13ifvqbo0","pricing_plan_id":"cebpf4jnsgd1na2vs0mg"},{"bike_id":"b6ed7bce-b660-4376-83db-a7891f52cebd","system_id":"levelo_inurba_marseille","lat":43.29602,"lon":5.381084,"is_reserved":false,"is_disabled":false,"rental_uris":{"android":"levelo://app?vid=b6ed7bce-b660-4376-83db-a7891f52cebd","ios":"levelo://app?vid=b6ed7bce-b660-4376-83db-a7891f52cebd"},"vehicle_type_id":"4","last_reported":1712426909,"current_range_meters":27200,"station_id":"ce4bgl12rcd13ifvqbo0","pricing_plan_id":"cebpf4jnsgd1na2vs0mg"},{"bike_id":"c77da255-075a-47d5-87f0-f66f1abf3603","system_id":"levelo_inurba_marseille","lat":43.29602,"lon":5.381084,"is_reserved":false,"is_disabled":false,"rental_uris":{"android":"levelo://app?vid=c77da255-075a-47d5-87f0-f66f1abf3603","ios":"levelo://app?vid=c77da255-075a-47d5-87f0-f66f1abf3603"},"vehicle_type_id":"4","last_reported":1712426909,"current_range_meters":0,"station_id":"ce4bgl12rcd13ifvqbo0","pricing_plan_id":"cebpf4jnsgd1na2vs0mg"},{"bike_id":"15696e82-56a4-4e09-a37b-404a2d54c569","system_id":"levelo_inurba_marseille","lat":43.29602,"lon":5.381084,"is_reserved":false,"is_disabled":false,"rental_uris":{"android":"levelo://app?vid=15696e82-56a4-4e09-a37b-404a2d54c569","ios":"levelo://app?vid=15696e82-56a4-4e09-a37b-404a2d54c569"},"vehicle_type_id":"4","last_reported":1712426909,"current_range_meters":800,"station_id":"ce4bgl12rcd13ifvqbo0","pricing_plan_id":"cebpf4jnsgd1na2vs0mg"},{"bike_id":"dfd2161d-2782-4fdd-a1d2-00e8a294eece","system_id":"levelo_inurba_marseille","lat":43.296092,"lon":5.381355,"is_reserved":false,"is_disabled":false,"rental_uris":{"android":"levelo://app?vid=dfd2161d-2782-4fdd-a1d2-00e8a294eece","ios":"levelo://app?vid=dfd2161d-2782-4fdd-a1d2-00e8a294eece"},"vehicle_type_id":"4","last_reported":1712426909,"current_range_meters":7200,"station_id":"ce4bgl12rcd13ifvqbo0","pricing_plan_id":"cebpf4jnsgd1na2vs0mg"},{"bike_id":"6a1ec133-c49a-4a7c-931d-0e17c7e35b43","system_id":"levelo_inurba_marseille","lat":43.294293,"lon":5.377009,"is_reserved":false,"is_disabled":false,"rental_uris":{"android":"levelo://app?vid=6a1ec133-c49a-4a7c-931d-0e17c7e35b43","ios":"levelo://app?vid=6a1ec133-c49a-4a7c-931d-0e17c7e35b43"},"vehicle_type_id":"4","last_reported":1712426909,"current_range_meters":9200,"station_id":"","pricing_plan_id":"cebpf4jnsgd1na2vs0mg"},{"bike_id":"155a4614-cb04-4122-ba30-e3c454d53634","system_id":"levelo_inurba_marseille","lat":43.292749,"lon":5.368402,"is_reserved":false,"is_disabled":false,"rental_uris":{"android":"levelo://app?vid=155a4614-cb04-4122-ba30-e3c454d53634","ios":"levelo://app?vid=155a4614-cb04-4122-ba30-e3c454d53634"},"vehicle_type_id":"4","last_reported":1712426909,"current_range_meters":0,"station_id":"ce4bhbp2rcd13ifvqesg","pricing_plan_id":"cebpf4jnsgd1na2vs0mg"},{"bike_id":"63649954-d20c-46a1-82d2-821550e13d59","system_id":"levelo_inurba_marseille","lat":43.29303,"lon":5.37176,"is_reserved":false,"is_disabled":false,"rental_uris":{"android":"levelo://app?vid=63649954-d20c-46a1-82d2-821550e13d59","ios":"levelo://app?vid=63649954-d20c-46a1-82d2-821550e13d59"},"vehicle_type_id":"4","last_reported":1712426909,"current_range_meters":0,"station_id":"ce4bgh92rcd13ifvqb40","pricing_plan_id":"cebpf4jnsgd1na2vs0mg"},{"bike_id":"8e3881db-ede9-4b2a-9ffe-4c90a2601a39","system_id":"levelo_inurba_marseille","lat":43.29274,"lon":5.36839,"is_reserved":false,"is_disabled":false,"rental_uris":{"android":"levelo://app?vid=8e3881db-ede9-4b2a-9ffe-4c90a2601a39","ios":"levelo://app?vid=8e3881db-ede9-4b2a-9ffe-4c90a2601a39"},"vehicle_type_id":"4","last_reported":1712426909,"current_range_meters":26400,"station_id":"ce4bhbp2rcd13ifvqesg","pricing_plan_id":"cebpf4jnsgd1na2vs0mg"},{"bike_id":"afafd4c2-e30b-4f2a-b658-9202f0e79de6","system_id":"levelo_inurba_marseille","lat":43.29299,"lon":5.37188,"is_reserved":false,"is_disabled":false,"rental_uris":{"android":"levelo://app?vid=afafd4c2-e30b-4f2a-b658-9202f0e79de6","ios":"levelo://app?vid=afafd4c2-e30b-4f2a-b658-9202f0e79de6"},"vehicle_type_id":"4","last_reported":1712426909,"current_range_meters":0,"station_id":"ce4bgh92rcd13ifvqb40","pricing_plan_id":"cebpf4jnsgd1na2vs0mg"},{"bike_id":"f716b351-3147-482a-b59a-543ef33d80af","system_id":"levelo_inurba_marseille","lat":43.292749,"lon":5.368402,"is_reserved":false,"is_disabled":false,"rental_uris":{"android":"levelo://app?vid=f716b351-3147-482a-b59a-543ef33d80af","ios":"levelo://app?vid=f716b351-3147-482a-b59a-543ef33d80af"},"vehicle_type_id":"4","last_reported":1712426909,"current_range_meters":0,"station_id":"ce4bhbp2rcd13ifvqesg","pricing_plan_id":"cebpf4jnsgd1na2vs0mg"},{"bike_id":"920c4f3c-a3ea-4e97-b8d4-83d8f8d236d7","system_id":"levelo_inurba_marseille","lat":43.300018,"lon":5.38867,"is_reserved":false,"is_disabled":false,"rental_uris":{"android":"levelo://app?vid=920c4f3c-a3ea-4e97-b8d4-83d8f8d236d7","ios":"levelo://app?vid=920c4f3c-a3ea-4e97-b8d4-83d8f8d236d7"},"vehicle_type_id":"4","last_reported":1712426909,"current_range_meters":21200,"station_id":"","pricing_plan_id":"cebpf4jnsgd1na2vs0mg"},{"bike_id":"7991b26f-08e1-4179-a718-ba0c52332cf8","system_id":"levelo_inurba_marseille","lat":43.292369,"lon":5.36842,"is_reserved":false,"is_disabled":false,"rental_uris":{"android":"levelo://app?vid=7991b26f-08e1-4179-a718-ba0c52332cf8","ios":"levelo://app?vid=7991b26f-08e1-4179-a718-ba0c52332cf8"},"vehicle_type_id":"4","last_reported":1712426909,"current_range_meters":6400,"station_id":"","pricing_plan_id":"cebpf4jnsgd1na2vs0mg"},{"bike_id":"ac3697e6-c345-4c04-be5a-c55cdba1e894","system_id":"levelo_inurba_marseille","lat":43.303002,"lon":5.392142,"is_reserved":false,"is_disabled":false,"rental_uris":{"android":"levelo://app?vid=ac3697e6-c345-4c04-be5a-c55cdba1e894","ios":"levelo://app?vid=ac3697e6-c345-4c04-be5a-c55cdba1e894"},"vehicle_type_id":"4","last_reported":1712426909,"current_range_meters":8000,"station_id":"ce4bgkh2rcd13ifvqbk0","pricing_plan_id":"cebpf4jnsgd1na2vs0mg"},{"bike_id":"f7b72e3c-e478-443b-9108-3db96948862b","system_id":"levelo_inurba_marseille","lat":43.293009,"lon":5.374584,"is_reserved":false,"is_disabled":false,"rental_uris":{"android":"levelo://app?vid=f7b72e3c-e478-443b-9108-3db96948862b","ios":"levelo://app?vid=f7b72e3c-e478-443b-9108-3db96948862b"},"vehicle_type_id":"4","last_reported":1712426909,"current_range_meters":0,"station_id":"ce4bgi12rcd13ifvqb70","pricing_plan_id":"cebpf4jnsgd1na2vs0mg"},{"bike_id":"9a57c783-a36b-471f-bb2f-073b6cfd3f3e","system_id":"levelo_inurba_marseille","lat":43.293009,"lon":5.374584,"is_reserved":false,"is_disabled":false,"rental_uris":{"android":"levelo://app?vid=9a57c783-a36b-471f-bb2f-073b6cfd3f3e","ios":"levelo://app?vid=9a57c783-a36b-471f-bb2f-073b6cfd3f3e"},"vehicle_type_id":"4","last_reported":1712426909,"current_range_meters":0,"station_id":"ce4bgi12rcd13ifvqb70","pricing_plan_id":"cebpf4jnsgd1na2vs0mg"},{"bike_id":"45670c95-091e-41bf-9973-1be0c5f89162","system_id":"levelo_inurba_marseille","lat":43.293009,"lon":5.374584,"is_reserved":false,"is_disabled":false,"rental_uris":{"android":"levelo://app?vid=45670c95-091e-41bf-9973-1be0c5f89162","ios":"levelo://app?vid=45670c95-091e-41bf-9973-1be0c5f89162"},"vehicle_type_id":"4","last_reported":1712426909,"current_range_meters":7200,"station_id":"ce4bgi12rcd13ifvqb70","pricing_plan_id":"cebpf4jnsgd1na2vs0mg"},{"bike_id":"a255bf17-aebb-487e-a704-57795e84929f","system_id":"levelo_inurba_marseille","lat":43.305994,"lon":5.393687,"is_reserved":false,"is_disabled":false,"rental_uris":{"android":"levelo://app?vid=a255bf17-aebb-487e-a704-57795e84929f","ios":"levelo://app?vid=a255bf17-aebb-487e-a704-57795e84929f"},"vehicle_type_id":"4","last_reported":1712426909,"current_range_meters":400,"station_id":"ce4bh0p2rcd13ifvqd80","pricing_plan_id":"cebpf4jnsgd1na2vs0mg"},{"bike_id":"7d356055-2033-4dea-a65f-1f2190395c70","system_id":"levelo_inurba_marseille","lat":43.30595,"lon":5.39357,"is_reserved":false,"is_disabled":false,"rental_uris":{"android":"levelo://app?vid=7d356055-2033-4dea-a65f-1f2190395c70","ios":"levelo://app?vid=7d356055-2033-4dea-a65f-1f2190395c70"},"vehicle_type_id":"4","last_reported":1712426909,"current_range_meters":0,"station_id":"ce4bh0p2rcd13ifvqd80","pricing_plan_id":"cebpf4jnsgd1na2vs0mg"},{"bike_id":"e9362f08-6059-4619-a8ea-4ea07bd8c133","system_id":"levelo_inurba_marseille","lat":43.305994,"lon":5.393687,"is_reserved":false,"is_disabled":false,"rental_uris":{"android":"levelo://app?vid=e9362f08-6059-4619-a8ea-4ea07bd8c133","ios":"levelo://app?vid=e9362f08-6059-4619-a8ea-4ea07bd8c133"},"vehicle_type_id":"4","last_reported":1712426909,"current_range_meters":9600,"station_id":"ce4bh0p2rcd13ifvqd80","pricing_plan_id":"cebpf4jnsgd1na2vs0mg"},{"bike_id":"02d65ddf-b1f9-4ed4-8fd0-adf402d5f999","system_id":"levelo_inurba_marseille","lat":43.303002,"lon":5.392142,"is_reserved":false,"is_disabled":false,"rental_uris":{"android":"levelo://app?vid=02d65ddf-b1f9-4ed4-8fd0-adf402d5f999","ios":"levelo://app?vid=02d65ddf-b1f9-4ed4-8fd0-adf402d5f999"},"vehicle_type_id":"4","last_reported":1712426909,"current_range_meters":0,"station_id":"ce4bgkh2rcd13ifvqbk0","pricing_plan_id":"cebpf4jnsgd1na2vs0mg"},{"bike_id":"514fded2-8a60-4b99-a536-81ca310732c1","system_id":"levelo_inurba_marseille","lat":43.300747,"lon":5.390138,"is_reserved":false,"is_disabled":false,"rental_uris":{"android":"levelo://app?vid=514fded2-8a60-4b99-a536-81ca310732c1","ios":"levelo://app?vid=514fded2-8a60-4b99-a536-81ca310732c1"},"vehicle_type_id":"4","last_reported":1712426909,"current_range_meters":22000,"station_id":"ce4bh192rcd13ifvqdb0","pricing_plan_id":"cebpf4jnsgd1na2vs0mg"},{"bike_id":"c03a22ac-44d4-4b12-abb2-b90f85a922f4","system_id":"levelo_inurba_marseille","lat":43.2936,"lon":5.37835,"is_reserved":false,"is_disabled":false,"rental_uris":{"android":"levelo://app?vid=c03a22ac-44d4-4b12-abb2-b90f85a922f4","ios":"levelo://app?vid=c03a22ac-44d4-4b12-abb2-b90f85a922f4"},"vehicle_type_id":"4","last_reported":1712426909,"current_range_meters":0,"station_id":"ce4bgjh2rcd13ifvqbf0","pricing_plan_id":"cebpf4jnsgd1na2vs0mg"},{"bike_id":"d20b8b10-9890-434f-bc13-c5e8c3ec0c87","system_id":"levelo_inurba_marseille","lat":43.303002,"lon":5.392142,"is_reserved":false,"is_disabled":false,"rental_uris":{"android":"levelo://app?vid=d20b8b10-9890-434f-bc13-c5e8c3ec0c87","ios":"levelo://app?vid=d20b8b10-9890-434f-bc13-c5e8c3ec0c87"},"vehicle_type_id":"4","last_reported":1712426909,"current_range_meters":0,"station_id":"ce4bgkh2rcd13ifvqbk0","pricing_plan_id":"cebpf4jnsgd1na2vs0mg"},{"bike_id":"7e18fccd-e10f-406c-861f-9e3a77849fa2","system_id":"levelo_inurba_marseille","lat":43.30299,"lon":5.39217,"is_reserved":false,"is_disabled":false,"rental_uris":{"android":"levelo://app?vid=7e18fccd-e10f-406c-861f-9e3a77849fa2","ios":"levelo://app?vid=7e18fccd-e10f-406c-861f-9e3a77849fa2"},"vehicle_type_id":"4","last_reported":1712426909,"current_range_meters":0,"station_id":"ce4bgkh2rcd13ifvqbk0","pricing_plan_id":"cebpf4jnsgd1na2vs0mg"},{"bike_id":"9e6f534b-c0b1-4ee1-9002-e05d25bf8ffc","system_id":"levelo_inurba_marseille","lat":43.29375,"lon":5.37859,"is_reserved":false,"is_disabled":false,"rental_uris":{"android":"levelo://app?vid=9e6f534b-c0b1-4ee1-9002-e05d25bf8ffc","ios":"levelo://app?vid=9e6f534b-c0b1-4ee1-9002-e05d25bf8ffc"},"vehicle_type_id":"4","last_reported":1712426909,"current_range_meters":0,"station_id":"ce4bh4p2rcd13ifvqe1g","pricing_plan_id":"cebpf4jnsgd1na2vs0mg"},{"bike_id":"7c479f36-fad6-4812-977f-8c16a856b469","system_id":"levelo_inurba_marseille","lat":43.302992,"lon":5.392136,"is_reserved":false,"is_disabled":false,"rental_uris":{"android":"levelo://app?vid=7c479f36-fad6-4812-977f-8c16a856b469","ios":"levelo://app?vid=7c479f36-fad6-4812-977f-8c16a856b469"},"vehicle_type_id":"4","last_reported":1712426909,"current_range_meters":19600,"station_id":"ce4bgkh2rcd13ifvqbk0","pricing_plan_id":"cebpf4jnsgd1na2vs0mg"},{"bike_id":"0a9a7452-b1a9-47cb-a821-fb7c7ea88bde","system_id":"levelo_inurba_marseille","lat":43.30085,"lon":5.390856,"is_reserved":false,"is_disabled":false,"rental_uris":{"android":"levelo://app?vid=0a9a7452-b1a9-47cb-a821-fb7c7ea88bde","ios":"levelo://app?vid=0a9a7452-b1a9-47cb-a821-fb7c7ea88bde"},"vehicle_type_id":"4","last_reported":1712426909,"current_range_meters":26400,"station_id":"ce4bh192rcd13ifvqdb0","pricing_plan_id":"cebpf4jnsgd1na2vs0mg"},{"bike_id":"a1d3f0c6-4ebf-437d-a950-6e3f918f7839","system_id":"levelo_inurba_marseille","lat":43.29235,"lon":5.36047,"is_reserved":false,"is_disabled":false,"rental_uris":{"android":"levelo://app?vid=a1d3f0c6-4ebf-437d-a950-6e3f918f7839","ios":"levelo://app?vid=a1d3f0c6-4ebf-437d-a950-6e3f918f7839"},"vehicle_type_id":"4","last_reported":1712426909,"current_range_meters":0,"station_id":"ce4bhbh2rcd13ifvqeqg","pricing_plan_id":"cebpf4jnsgd1na2vs0mg"},{"bike_id":"1b626439-a207-4d5a-a7f0-9f71b20d6837","system_id":"levelo_inurba_marseille","lat":43.2923,"lon":5.36076,"is_reserved":false,"is_disabled":false,"rental_uris":{"android":"levelo://app?vid=1b626439-a207-4d5a-a7f0-9f71b20d6837","ios":"levelo://app?vid=1b626439-a207-4d5a-a7f0-9f71b20d6837"},"vehicle_type_id":"4","last_reported":1712426909,"current_range_meters":0,"station_id":"ce4bhbh2rcd13ifvqeqg","pricing_plan_id":"cebpf4jnsgd1na2vs0mg"},{"bike_id":"9f8880c4-005c-4ac9-a049-761dcb873bcb","system_id":"levelo_inurba_marseille","lat":43.303002,"lon":5.392142,"is_reserved":false,"is_disabled":false,"rental_uris":{"android":"levelo://app?vid=9f8880c4-005c-4ac9-a049-761dcb873bcb","ios":"levelo://app?vid=9f8880c4-005c-4ac9-a049-761dcb873bcb"},"vehicle_type_id":"4","last_reported":1712426909,"current_range_meters":5600,"station_id":"ce4bgkh2rcd13ifvqbk0","pricing_plan_id":"cebpf4jnsgd1na2vs0mg"},{"bike_id":"2dd2a280-b138-4291-ad45-02b0d2ee2a08","system_id":"levelo_inurba_marseille","lat":43.29893,"lon":5.38896,"is_reserved":false,"is_disabled":false,"rental_uris":{"android":"levelo://app?vid=2dd2a280-b138-4291-ad45-02b0d2ee2a08","ios":"levelo://app?vid=2dd2a280-b138-4291-ad45-02b0d2ee2a08"},"vehicle_type_id":"4","last_reported":1712426909,"current_range_meters":0,"station_id":"ce4bh392rcd13ifvqdl0","pricing_plan_id":"cebpf4jnsgd1na2vs0mg"},{"bike_id":"cd45914c-0f27-4300-93e2-6fe65f259b18","system_id":"levelo_inurba_marseille","lat":43.291671,"lon":5.371575,"is_reserved":false,"is_disabled":false,"rental_uris":{"android":"levelo://app?vid=cd45914c-0f27-4300-93e2-6fe65f259b18","ios":"levelo://app?vid=cd45914c-0f27-4300-93e2-6fe65f259b18"},"vehicle_type_id":"4","last_reported":1712426909,"current_range_meters":9200,"station_id":"ce4bha92rcd13ifvqeh0","pricing_plan_id":"cebpf4jnsgd1na2vs0mg"},{"bike_id":"258a6338-4eb9-40c9-ad39-be376d5e9678","system_id":"levelo_inurba_marseille","lat":43.2989,"lon":5.38921,"is_reserved":false,"is_disabled":false,"rental_uris":{"android":"levelo://app?vid=258a6338-4eb9-40c9-ad39-be376d5e9678","ios":"levelo://app?vid=258a6338-4eb9-40c9-ad39-be376d5e9678"},"vehicle_type_id":"4","last_reported":1712426909,"current_range_meters":0,"station_id":"ce4bh392rcd13ifvqdl0","pricing_plan_id":"cebpf4jnsgd1na2vs0mg"},{"bike_id":"ba4134f9-bad4-4698-9234-e7e7ecd14f55","system_id":"levelo_inurba_marseille","lat":43.29876,"lon":5.38908,"is_reserved":false,"is_disabled":false,"rental_uris":{"android":"levelo://app?vid=ba4134f9-bad4-4698-9234-e7e7ecd14f55","ios":"levelo://app?vid=ba4134f9-bad4-4698-9234-e7e7ecd14f55"},"vehicle_type_id":"4","last_reported":1712426909,"current_range_meters":0,"station_id":"ce4bh392rcd13ifvqdl0","pricing_plan_id":"cebpf4jnsgd1na2vs0mg"},{"bike_id":"b8510878-b096-42e7-a952-578c62eeb32d","system_id":"levelo_inurba_marseille","lat":43.298764,"lon":5.388973,"is_reserved":false,"is_disabled":false,"rental_uris":{"android":"levelo://app?vid=b8510878-b096-42e7-a952-578c62eeb32d","ios":"levelo://app?vid=b8510878-b096-42e7-a952-578c62eeb32d"},"vehicle_type_id":"4","last_reported":1712426909,"current_range_meters":0,"station_id":"ce4bh392rcd13ifvqdl0","pricing_plan_id":"cebpf4jnsgd1na2vs0mg"},{"bike_id":"1073924d-4a18-4fb3-9aa3-35da4eae961b","system_id":"levelo_inurba_marseille","lat":43.269319,"lon":5.389397,"is_reserved":false,"is_disabled":false,"rental_uris":{"android":"levelo://app?vid=1073924d-4a18-4fb3-9aa3-35da4eae961b","ios":"levelo://app?vid=1073924d-4a18-4fb3-9aa3-35da4eae961b"},"vehicle_type_id":"4","last_reported":1712426909,"current_range_meters":1200,"station_id":"ce4bhhh2rcd13ifvqfl0","pricing_plan_id":"cebpf4jnsgd1na2vs0mg"},{"bike_id":"5d95d3d9-4259-4aae-9965-9dc18ab81b58","system_id":"levelo_inurba_marseille","lat":43.30895,"lon":5.39614,"is_reserved":false,"is_disabled":false,"rental_uris":{"android":"levelo://app?vid=5d95d3d9-4259-4aae-9965-9dc18ab81b58","ios":"levelo://app?vid=5d95d3d9-4259-4aae-9965-9dc18ab81b58"},"vehicle_type_id":"4","last_reported":1712426909,"current_range_meters":27600,"station_id":"ce4bh012rcd13ifvqcv0","pricing_plan_id":"cebpf4jnsgd1na2vs0mg"},{"bike_id":"b049709b-827b-4fbc-a94c-a5717a286ecc","system_id":"levelo_inurba_marseille","lat":43.292005,"lon":5.357875,"is_reserved":false,"is_disabled":false,"rental_uris":{"android":"levelo://app?vid=b049709b-827b-4fbc-a94c-a5717a286ecc","ios":"levelo://app?vid=b049709b-827b-4fbc-a94c-a5717a286ecc"},"vehicle_type_id":"4","last_reported":1712426909,"current_range_meters":800,"station_id":"ce4bhb12rcd13ifvqel0","pricing_plan_id":"cebpf4jnsgd1na2vs0mg"},{"bike_id":"198688a8-6307-4713-bfe1-f0badcbd91b6","system_id":"levelo_inurba_marseille","lat":43.313291,"lon":5.396838,"is_reserved":false,"is_disabled":false,"rental_uris":{"android":"levelo://app?vid=198688a8-6307-4713-bfe1-f0badcbd91b6","ios":"levelo://app?vid=198688a8-6307-4713-bfe1-f0badcbd91b6"},"vehicle_type_id":"4","last_reported":1712426909,"current_range_meters":8000,"station_id":"ce4bgvp2rcd13ifvqcu0","pricing_plan_id":"cebpf4jnsgd1na2vs0mg"},{"bike_id":"e7443cdb-07a6-4499-83cb-62f5e7d7e509","system_id":"levelo_inurba_marseille","lat":43.309038,"lon":5.396546,"is_reserved":false,"is_disabled":false,"rental_uris":{"android":"levelo://app?vid=e7443cdb-07a6-4499-83cb-62f5e7d7e509","ios":"levelo://app?vid=e7443cdb-07a6-4499-83cb-62f5e7d7e509"},"vehicle_type_id":"4","last_reported":1712426909,"current_range_meters":0,"station_id":"ce4bh012rcd13ifvqcv0","pricing_plan_id":"cebpf4jnsgd1na2vs0mg"},{"bike_id":"73cdb87b-9e8d-4d01-adfa-141685fc490d","system_id":"levelo_inurba_marseille","lat":43.292005,"lon":5.357875,"is_reserved":false,"is_disabled":false,"rental_uris":{"android":"levelo://app?vid=73cdb87b-9e8d-4d01-adfa-141685fc490d","ios":"levelo://app?vid=73cdb87b-9e8d-4d01-adfa-141685fc490d"},"vehicle_type_id":"4","last_reported":1712426909,"current_range_meters":28000,"station_id":"ce4bhb12rcd13ifvqel0","pricing_plan_id":"cebpf4jnsgd1na2vs0mg"},{"bike_id":"6b3d2531-bcd9-4862-b0a2-846c0c39c2bb","system_id":"levelo_inurba_marseille","lat":43.31332,"lon":5.3969,"is_reserved":false,"is_disabled":false,"rental_uris":{"android":"levelo://app?vid=6b3d2531-bcd9-4862-b0a2-846c0c39c2bb","ios":"levelo://app?vid=6b3d2531-bcd9-4862-b0a2-846c0c39c2bb"},"vehicle_type_id":"4","last_reported":1712426909,"current_range_meters":0,"station_id":"ce4bgvp2rcd13ifvqcu0","pricing_plan_id":"cebpf4jnsgd1na2vs0mg"},{"bike_id":"db8ba779-00d8-4455-af94-5560f9033333","system_id":"levelo_inurba_marseille","lat":43.2919,"lon":5.35796,"is_reserved":false,"is_disabled":false,"rental_uris":{"android":"levelo://app?vid=db8ba779-00d8-4455-af94-5560f9033333","ios":"levelo://app?vid=db8ba779-00d8-4455-af94-5560f9033333"},"vehicle_type_id":"4","last_reported":1712426909,"current_range_meters":0,"station_id":"ce4bhb12rcd13ifvqel0","pricing_plan_id":"cebpf4jnsgd1na2vs0mg"},{"bike_id":"548cc011-661e-4dae-b457-98393ea1e33f","system_id":"levelo_inurba_marseille","lat":43.308717,"lon":5.396477,"is_reserved":false,"is_disabled":false,"rental_uris":{"android":"levelo://app?vid=548cc011-661e-4dae-b457-98393ea1e33f","ios":"levelo://app?vid=548cc011-661e-4dae-b457-98393ea1e33f"},"vehicle_type_id":"4","last_reported":1712426909,"current_range_meters":0,"station_id":"ce4bh012rcd13ifvqcv0","pricing_plan_id":"cebpf4jnsgd1na2vs0mg"},{"bike_id":"ca01e377-1db9-4cb4-b000-59b60b7cd638","system_id":"levelo_inurba_marseille","lat":43.313291,"lon":5.396838,"is_reserved":false,"is_disabled":false,"rental_uris":{"android":"levelo://app?vid=ca01e377-1db9-4cb4-b000-59b60b7cd638","ios":"levelo://app?vid=ca01e377-1db9-4cb4-b000-59b60b7cd638"},"vehicle_type_id":"4","last_reported":1712426909,"current_range_meters":5200,"station_id":"ce4bgvp2rcd13ifvqcu0","pricing_plan_id":"cebpf4jnsgd1na2vs0mg"},{"bike_id":"628b64c2-4334-489e-8f2d-20de0c361aeb","system_id":"levelo_inurba_marseille","lat":43.30884,"lon":5.39656,"is_reserved":false,"is_disabled":false,"rental_uris":{"android":"levelo://app?vid=628b64c2-4334-489e-8f2d-20de0c361aeb","ios":"levelo://app?vid=628b64c2-4334-489e-8f2d-20de0c361aeb"},"vehicle_type_id":"4","last_reported":1712426909,"current_range_meters":0,"station_id":"ce4bh012rcd13ifvqcv0","pricing_plan_id":"cebpf4jnsgd1na2vs0mg"},{"bike_id":"7603b9db-9879-4883-ac9c-03188cafb4a7","system_id":"levelo_inurba_marseille","lat":43.309038,"lon":5.396546,"is_reserved":false,"is_disabled":false,"rental_uris":{"android":"levelo://app?vid=7603b9db-9879-4883-ac9c-03188cafb4a7","ios":"levelo://app?vid=7603b9db-9879-4883-ac9c-03188cafb4a7"},"vehicle_type_id":"4","last_reported":1712426909,"current_range_meters":8400,"station_id":"ce4bh012rcd13ifvqcv0","pricing_plan_id":"cebpf4jnsgd1na2vs0mg"},{"bike_id":"2f062713-2c43-42be-8ec8-57c3c4c1d534","system_id":"levelo_inurba_marseille","lat":43.29535,"lon":5.38536,"is_reserved":false,"is_disabled":false,"rental_uris":{"android":"levelo://app?vid=2f062713-2c43-42be-8ec8-57c3c4c1d534","ios":"levelo://app?vid=2f062713-2c43-42be-8ec8-57c3c4c1d534"},"vehicle_type_id":"4","last_reported":1712426909,"current_range_meters":0,"station_id":"ce4bgih2rcd13ifvqba0","pricing_plan_id":"cebpf4jnsgd1na2vs0mg"},{"bike_id":"daaa3fb1-6e8f-4d88-b6df-8135c60a9bfe","system_id":"levelo_inurba_marseille","lat":43.29529,"lon":5.385581,"is_reserved":false,"is_disabled":false,"rental_uris":{"android":"levelo://app?vid=daaa3fb1-6e8f-4d88-b6df-8135c60a9bfe","ios":"levelo://app?vid=daaa3fb1-6e8f-4d88-b6df-8135c60a9bfe"},"vehicle_type_id":"4","last_reported":1712426909,"current_range_meters":19600,"station_id":"ce4bgih2rcd13ifvqba0","pricing_plan_id":"cebpf4jnsgd1na2vs0mg"},{"bike_id":"b3ca5a6b-c352-4db0-beed-2f2d91600c75","system_id":"levelo_inurba_marseille","lat":43.29529,"lon":5.385581,"is_reserved":false,"is_disabled":false,"rental_uris":{"android":"levelo://app?vid=b3ca5a6b-c352-4db0-beed-2f2d91600c75","ios":"levelo://app?vid=b3ca5a6b-c352-4db0-beed-2f2d91600c75"},"vehicle_type_id":"4","last_reported":1712426909,"current_range_meters":0,"station_id":"ce4bgih2rcd13ifvqba0","pricing_plan_id":"cebpf4jnsgd1na2vs0mg"},{"bike_id":"d0f8af19-2ef9-4db7-a902-261f9dabd589","system_id":"levelo_inurba_marseille","lat":43.31316,"lon":5.39722,"is_reserved":false,"is_disabled":false,"rental_uris":{"android":"levelo://app?vid=d0f8af19-2ef9-4db7-a902-261f9dabd589","ios":"levelo://app?vid=d0f8af19-2ef9-4db7-a902-261f9dabd589"},"vehicle_type_id":"4","last_reported":1712426909,"current_range_meters":0,"station_id":"ce4bgt12rcd13ifvqcd0","pricing_plan_id":"cebpf4jnsgd1na2vs0mg"},{"bike_id":"ce85c429-381e-47aa-aa74-05e5d4dcafc8","system_id":"levelo_inurba_marseille","lat":43.29529,"lon":5.385581,"is_reserved":false,"is_disabled":false,"rental_uris":{"android":"levelo://app?vid=ce85c429-381e-47aa-aa74-05e5d4dcafc8","ios":"levelo://app?vid=ce85c429-381e-47aa-aa74-05e5d4dcafc8"},"vehicle_type_id":"4","last_reported":1712426909,"current_range_meters":3600,"station_id":"ce4bgih2rcd13ifvqba0","pricing_plan_id":"cebpf4jnsgd1na2vs0mg"},{"bike_id":"32b08c95-adaa-4bca-8e5f-01c8fcce13a5","system_id":"levelo_inurba_marseille","lat":43.29418,"lon":5.38332,"is_reserved":false,"is_disabled":false,"rental_uris":{"android":"levelo://app?vid=32b08c95-adaa-4bca-8e5f-01c8fcce13a5","ios":"levelo://app?vid=32b08c95-adaa-4bca-8e5f-01c8fcce13a5"},"vehicle_type_id":"4","last_reported":1712426909,"current_range_meters":4400,"station_id":"","pricing_plan_id":"cebpf4jnsgd1na2vs0mg"},{"bike_id":"1f42ea66-e2d8-45fe-8ba5-6d877c1af22d","system_id":"levelo_inurba_marseille","lat":43.291772,"lon":5.356905,"is_reserved":false,"is_disabled":false,"rental_uris":{"android":"levelo://app?vid=1f42ea66-e2d8-45fe-8ba5-6d877c1af22d","ios":"levelo://app?vid=1f42ea66-e2d8-45fe-8ba5-6d877c1af22d"},"vehicle_type_id":"4","last_reported":1712426909,"current_range_meters":31200,"station_id":"ce4bhb12rcd13ifvqel0","pricing_plan_id":"cebpf4jnsgd1na2vs0mg"},{"bike_id":"91a92c63-dcd9-4b0a-bf5b-27ead372f9a6","system_id":"levelo_inurba_marseille","lat":43.302008,"lon":5.394694,"is_reserved":false,"is_disabled":false,"rental_uris":{"android":"levelo://app?vid=91a92c63-dcd9-4b0a-bf5b-27ead372f9a6","ios":"levelo://app?vid=91a92c63-dcd9-4b0a-bf5b-27ead372f9a6"},"vehicle_type_id":"4","last_reported":1712426909,"current_range_meters":25200,"station_id":"ce4bh0p2rcd13ifvqd70","pricing_plan_id":"cebpf4jnsgd1na2vs0mg"},{"bike_id":"6fc6690b-38fe-4b14-a1fb-d3735ef8de25","system_id":"levelo_inurba_marseille","lat":43.30212,"lon":5.3946,"is_reserved":false,"is_disabled":false,"rental_uris":{"android":"levelo://app?vid=6fc6690b-38fe-4b14-a1fb-d3735ef8de25","ios":"levelo://app?vid=6fc6690b-38fe-4b14-a1fb-d3735ef8de25"},"vehicle_type_id":"4","last_reported":1712426909,"current_range_meters":16800,"station_id":"ce4bh0p2rcd13ifvqd70","pricing_plan_id":"cebpf4jnsgd1na2vs0mg"},{"bike_id":"5bcf6928-e630-40ac-8388-bc717640b8ed","system_id":"levelo_inurba_marseille","lat":43.302008,"lon":5.394694,"is_reserved":false,"is_disabled":false,"rental_uris":{"android":"levelo://app?vid=5bcf6928-e630-40ac-8388-bc717640b8ed","ios":"levelo://app?vid=5bcf6928-e630-40ac-8388-bc717640b8ed"},"vehicle_type_id":"4","last_reported":1712426909,"current_range_meters":15600,"station_id":"ce4bh0p2rcd13ifvqd70","pricing_plan_id":"cebpf4jnsgd1na2vs0mg"},{"bike_id":"aa595f86-8db4-48f4-995e-aa4e4f68ec5f","system_id":"levelo_inurba_marseille","lat":43.30209,"lon":5.39467,"is_reserved":false,"is_disabled":false,"rental_uris":{"android":"levelo://app?vid=aa595f86-8db4-48f4-995e-aa4e4f68ec5f","ios":"levelo://app?vid=aa595f86-8db4-48f4-995e-aa4e4f68ec5f"},"vehicle_type_id":"4","last_reported":1712426909,"current_range_meters":9600,"station_id":"ce4bh0p2rcd13ifvqd70","pricing_plan_id":"cebpf4jnsgd1na2vs0mg"},{"bike_id":"798af9fc-a53b-4672-afd0-70c8369f9eca","system_id":"levelo_inurba_marseille","lat":43.294231,"lon":5.386187,"is_reserved":false,"is_disabled":false,"rental_uris":{"android":"levelo://app?vid=798af9fc-a53b-4672-afd0-70c8369f9eca","ios":"levelo://app?vid=798af9fc-a53b-4672-afd0-70c8369f9eca"},"vehicle_type_id":"4","last_reported":1712426909,"current_range_meters":400,"station_id":"ce4bh3p2rcd13ifvqdp0","pricing_plan_id":"cebpf4jnsgd1na2vs0mg"},{"bike_id":"7e28e7c3-fcaa-4173-9482-78388c262a59","system_id":"levelo_inurba_marseille","lat":43.294153,"lon":5.386305,"is_reserved":false,"is_disabled":false,"rental_uris":{"android":"levelo://app?vid=7e28e7c3-fcaa-4173-9482-78388c262a59","ios":"levelo://app?vid=7e28e7c3-fcaa-4173-9482-78388c262a59"},"vehicle_type_id":"4","last_reported":1712426909,"current_range_meters":10800,"station_id":"ce4bh2h2rcd13ifvqdh0","pricing_plan_id":"cebpf4jnsgd1na2vs0mg"},{"bike_id":"4b626f27-c0e3-43d8-998e-3f5eadb54bb6","system_id":"levelo_inurba_marseille","lat":43.29421,"lon":5.38622,"is_reserved":false,"is_disabled":false,"rental_uris":{"android":"levelo://app?vid=4b626f27-c0e3-43d8-998e-3f5eadb54bb6","ios":"levelo://app?vid=4b626f27-c0e3-43d8-998e-3f5eadb54bb6"},"vehicle_type_id":"4","last_reported":1712426909,"current_range_meters":0,"station_id":"ce4bh2h2rcd13ifvqdh0","pricing_plan_id":"cebpf4jnsgd1na2vs0mg"},{"bike_id":"750ed4c7-aad6-44a9-9004-d128e21164c1","system_id":"levelo_inurba_marseille","lat":43.294153,"lon":5.386305,"is_reserved":false,"is_disabled":false,"rental_uris":{"android":"levelo://app?vid=750ed4c7-aad6-44a9-9004-d128e21164c1","ios":"levelo://app?vid=750ed4c7-aad6-44a9-9004-d128e21164c1"},"vehicle_type_id":"4","last_reported":1712426909,"current_range_meters":5600,"station_id":"ce4bh2h2rcd13ifvqdh0","pricing_plan_id":"cebpf4jnsgd1na2vs0mg"},{"bike_id":"363d5863-2b27-4772-ab4c-000787f60a33","system_id":"levelo_inurba_marseille","lat":43.29418,"lon":5.38624,"is_reserved":false,"is_disabled":false,"rental_uris":{"android":"levelo://app?vid=363d5863-2b27-4772-ab4c-000787f60a33","ios":"levelo://app?vid=363d5863-2b27-4772-ab4c-000787f60a33"},"vehicle_type_id":"4","last_reported":1712426909,"current_range_meters":0,"station_id":"ce4bh2h2rcd13ifvqdh0","pricing_plan_id":"cebpf4jnsgd1na2vs0mg"},{"bike_id":"9450a881-9487-43ad-9ef2-99a089cc3d24","system_id":"levelo_inurba_marseille","lat":43.29415,"lon":5.386219,"is_reserved":false,"is_disabled":false,"rental_uris":{"android":"levelo://app?vid=9450a881-9487-43ad-9ef2-99a089cc3d24","ios":"levelo://app?vid=9450a881-9487-43ad-9ef2-99a089cc3d24"},"vehicle_type_id":"4","last_reported":1712426909,"current_range_meters":0,"station_id":"ce4bh2h2rcd13ifvqdh0","pricing_plan_id":"cebpf4jnsgd1na2vs0mg"},{"bike_id":"e41279d6-d77c-435c-ba51-be3645e47fe2","system_id":"levelo_inurba_marseille","lat":43.29417,"lon":5.38627,"is_reserved":false,"is_disabled":false,"rental_uris":{"android":"levelo://app?vid=e41279d6-d77c-435c-ba51-be3645e47fe2","ios":"levelo://app?vid=e41279d6-d77c-435c-ba51-be3645e47fe2"},"vehicle_type_id":"4","last_reported":1712426909,"current_range_meters":0,"station_id":"ce4bh2h2rcd13ifvqdh0","pricing_plan_id":"cebpf4jnsgd1na2vs0mg"},{"bike_id":"24432528-bcd8-447f-9303-e5288c931ee4","system_id":"levelo_inurba_marseille","lat":43.294162,"lon":5.386292,"is_reserved":false,"is_disabled":false,"rental_uris":{"android":"levelo://app?vid=24432528-bcd8-447f-9303-e5288c931ee4","ios":"levelo://app?vid=24432528-bcd8-447f-9303-e5288c931ee4"},"vehicle_type_id":"4","last_reported":1712426909,"current_range_meters":0,"station_id":"ce4bh2h2rcd13ifvqdh0","pricing_plan_id":"cebpf4jnsgd1na2vs0mg"},{"bike_id":"8a64f634-e547-4ab8-94fe-5c8aa6c0dcf2","system_id":"levelo_inurba_marseille","lat":43.29416,"lon":5.38626,"is_reserved":false,"is_disabled":false,"rental_uris":{"android":"levelo://app?vid=8a64f634-e547-4ab8-94fe-5c8aa6c0dcf2","ios":"levelo://app?vid=8a64f634-e547-4ab8-94fe-5c8aa6c0dcf2"},"vehicle_type_id":"4","last_reported":1712426909,"current_range_meters":0,"station_id":"ce4bh2h2rcd13ifvqdh0","pricing_plan_id":"cebpf4jnsgd1na2vs0mg"},{"bike_id":"5654f12d-ff22-4903-833b-5d0f8959ad1d","system_id":"levelo_inurba_marseille","lat":43.294162,"lon":5.386292,"is_reserved":false,"is_disabled":false,"rental_uris":{"android":"levelo://app?vid=5654f12d-ff22-4903-833b-5d0f8959ad1d","ios":"levelo://app?vid=5654f12d-ff22-4903-833b-5d0f8959ad1d"},"vehicle_type_id":"4","last_reported":1712426909,"current_range_meters":0,"station_id":"ce4bh2h2rcd13ifvqdh0","pricing_plan_id":"cebpf4jnsgd1na2vs0mg"},{"bike_id":"a1bc8a9d-e5eb-4bd4-8ee6-c869c69c439e","system_id":"levelo_inurba_marseille","lat":43.294187,"lon":5.386333,"is_reserved":false,"is_disabled":false,"rental_uris":{"android":"levelo://app?vid=a1bc8a9d-e5eb-4bd4-8ee6-c869c69c439e","ios":"levelo://app?vid=a1bc8a9d-e5eb-4bd4-8ee6-c869c69c439e"},"vehicle_type_id":"4","last_reported":1712426909,"current_range_meters":0,"station_id":"ce4bh2h2rcd13ifvqdh0","pricing_plan_id":"cebpf4jnsgd1na2vs0mg"},{"bike_id":"624a71c6-82a5-4e0f-a6d5-29d71a95b5dc","system_id":"levelo_inurba_marseille","lat":43.290327,"lon":5.375711,"is_reserved":false,"is_disabled":false,"rental_uris":{"android":"levelo://app?vid=624a71c6-82a5-4e0f-a6d5-29d71a95b5dc","ios":"levelo://app?vid=624a71c6-82a5-4e0f-a6d5-29d71a95b5dc"},"vehicle_type_id":"4","last_reported":1712426909,"current_range_meters":3200,"station_id":"ce4bh692rcd13ifvqe90","pricing_plan_id":"cebpf4jnsgd1na2vs0mg"},{"bike_id":"e067418c-93c3-44ec-b2b7-400a6e9faa85","system_id":"levelo_inurba_marseille","lat":43.289184,"lon":5.366408,"is_reserved":false,"is_disabled":false,"rental_uris":{"android":"levelo://app?vid=e067418c-93c3-44ec-b2b7-400a6e9faa85","ios":"levelo://app?vid=e067418c-93c3-44ec-b2b7-400a6e9faa85"},"vehicle_type_id":"4","last_reported":1712426909,"current_range_meters":0,"station_id":"ce4bhap2rcd13ifvqek0","pricing_plan_id":"cebpf4jnsgd1na2vs0mg"},{"bike_id":"592969d6-4a3b-463d-b6ae-bf2f173528ed","system_id":"levelo_inurba_marseille","lat":43.289361,"lon":5.3664,"is_reserved":false,"is_disabled":false,"rental_uris":{"android":"levelo://app?vid=592969d6-4a3b-463d-b6ae-bf2f173528ed","ios":"levelo://app?vid=592969d6-4a3b-463d-b6ae-bf2f173528ed"},"vehicle_type_id":"4","last_reported":1712426909,"current_range_meters":0,"station_id":"ce4bhap2rcd13ifvqek0","pricing_plan_id":"cebpf4jnsgd1na2vs0mg"},{"bike_id":"d38a1ccc-23ee-4143-990c-9958d2c91b3e","system_id":"levelo_inurba_marseille","lat":43.289468,"lon":5.363719,"is_reserved":false,"is_disabled":false,"rental_uris":{"android":"levelo://app?vid=d38a1ccc-23ee-4143-990c-9958d2c91b3e","ios":"levelo://app?vid=d38a1ccc-23ee-4143-990c-9958d2c91b3e"},"vehicle_type_id":"4","last_reported":1712426909,"current_range_meters":0,"station_id":"ce4bhc92rcd13ifvqetg","pricing_plan_id":"cebpf4jnsgd1na2vs0mg"},{"bike_id":"9a08281c-9704-468c-bcec-0596e480ed7c","system_id":"levelo_inurba_marseille","lat":43.292642,"lon":5.384254,"is_reserved":false,"is_disabled":false,"rental_uris":{"android":"levelo://app?vid=9a08281c-9704-468c-bcec-0596e480ed7c","ios":"levelo://app?vid=9a08281c-9704-468c-bcec-0596e480ed7c"},"vehicle_type_id":"4","last_reported":1712426909,"current_range_meters":14800,"station_id":"ce4bh692rcd13ifvqea0","pricing_plan_id":"cebpf4jnsgd1na2vs0mg"},{"bike_id":"f49c5049-ada4-4294-bdbb-80742bca2c7c","system_id":"levelo_inurba_marseille","lat":43.292803,"lon":5.384509,"is_reserved":false,"is_disabled":false,"rental_uris":{"android":"levelo://app?vid=f49c5049-ada4-4294-bdbb-80742bca2c7c","ios":"levelo://app?vid=f49c5049-ada4-4294-bdbb-80742bca2c7c"},"vehicle_type_id":"4","last_reported":1712426909,"current_range_meters":4800,"station_id":"ce4bh692rcd13ifvqea0","pricing_plan_id":"cebpf4jnsgd1na2vs0mg"},{"bike_id":"a3e68785-84d5-4df1-9e76-3b97719de36d","system_id":"levelo_inurba_marseille","lat":43.2927,"lon":5.38429,"is_reserved":false,"is_disabled":false,"rental_uris":{"android":"levelo://app?vid=a3e68785-84d5-4df1-9e76-3b97719de36d","ios":"levelo://app?vid=a3e68785-84d5-4df1-9e76-3b97719de36d"},"vehicle_type_id":"4","last_reported":1712426909,"current_range_meters":1200,"station_id":"ce4bh692rcd13ifvqea0","pricing_plan_id":"cebpf4jnsgd1na2vs0mg"},{"bike_id":"4cfc335d-b0e0-4cdb-8cb8-87b17f0dd9c4","system_id":"levelo_inurba_marseille","lat":43.292644,"lon":5.384257,"is_reserved":false,"is_disabled":false,"rental_uris":{"android":"levelo://app?vid=4cfc335d-b0e0-4cdb-8cb8-87b17f0dd9c4","ios":"levelo://app?vid=4cfc335d-b0e0-4cdb-8cb8-87b17f0dd9c4"},"vehicle_type_id":"4","last_reported":1712426909,"current_range_meters":0,"station_id":"ce4bh692rcd13ifvqea0","pricing_plan_id":"cebpf4jnsgd1na2vs0mg"},{"bike_id":"52b28e4d-f179-4b50-91c6-a759f8ad4d92","system_id":"levelo_inurba_marseille","lat":43.292642,"lon":5.384254,"is_reserved":false,"is_disabled":false,"rental_uris":{"android":"levelo://app?vid=52b28e4d-f179-4b50-91c6-a759f8ad4d92","ios":"levelo://app?vid=52b28e4d-f179-4b50-91c6-a759f8ad4d92"},"vehicle_type_id":"4","last_reported":1712426909,"current_range_meters":4800,"station_id":"ce4bh692rcd13ifvqea0","pricing_plan_id":"cebpf4jnsgd1na2vs0mg"},{"bike_id":"782b9bd5-4f8f-4a01-9fae-7655a496f156","system_id":"levelo_inurba_marseille","lat":43.292677,"lon":5.384333,"is_reserved":false,"is_disabled":false,"rental_uris":{"android":"levelo://app?vid=782b9bd5-4f8f-4a01-9fae-7655a496f156","ios":"levelo://app?vid=782b9bd5-4f8f-4a01-9fae-7655a496f156"},"vehicle_type_id":"4","last_reported":1712426909,"current_range_meters":0,"station_id":"ce4bh692rcd13ifvqea0","pricing_plan_id":"cebpf4jnsgd1na2vs0mg"},{"bike_id":"adbad192-64de-4567-b6be-d3e253820f0d","system_id":"levelo_inurba_marseille","lat":43.292642,"lon":5.384254,"is_reserved":false,"is_disabled":false,"rental_uris":{"android":"levelo://app?vid=adbad192-64de-4567-b6be-d3e253820f0d","ios":"levelo://app?vid=adbad192-64de-4567-b6be-d3e253820f0d"},"vehicle_type_id":"4","last_reported":1712426909,"current_range_meters":26400,"station_id":"ce4bh692rcd13ifvqea0","pricing_plan_id":"cebpf4jnsgd1na2vs0mg"},{"bike_id":"1f2d1352-6d10-4038-800c-769ccbda475b","system_id":"levelo_inurba_marseille","lat":43.29269,"lon":5.38439,"is_reserved":false,"is_disabled":false,"rental_uris":{"android":"levelo://app?vid=1f2d1352-6d10-4038-800c-769ccbda475b","ios":"levelo://app?vid=1f2d1352-6d10-4038-800c-769ccbda475b"},"vehicle_type_id":"4","last_reported":1712426909,"current_range_meters":4000,"station_id":"ce4bh692rcd13ifvqea0","pricing_plan_id":"cebpf4jnsgd1na2vs0mg"},{"bike_id":"bd10bbce-b42b-4472-a3ac-0c9e91264421","system_id":"levelo_inurba_marseille","lat":43.292642,"lon":5.384254,"is_reserved":false,"is_disabled":false,"rental_uris":{"android":"levelo://app?vid=bd10bbce-b42b-4472-a3ac-0c9e91264421","ios":"levelo://app?vid=bd10bbce-b42b-4472-a3ac-0c9e91264421"},"vehicle_type_id":"4","last_reported":1712426909,"current_range_meters":21600,"station_id":"ce4bh692rcd13ifvqea0","pricing_plan_id":"cebpf4jnsgd1na2vs0mg"},{"bike_id":"9a6dda5f-aa16-4da3-b4db-1dd33d73f687","system_id":"levelo_inurba_marseille","lat":43.292683,"lon":5.384401,"is_reserved":false,"is_disabled":false,"rental_uris":{"android":"levelo://app?vid=9a6dda5f-aa16-4da3-b4db-1dd33d73f687","ios":"levelo://app?vid=9a6dda5f-aa16-4da3-b4db-1dd33d73f687"},"vehicle_type_id":"4","last_reported":1712426909,"current_range_meters":0,"station_id":"ce4bh692rcd13ifvqea0","pricing_plan_id":"cebpf4jnsgd1na2vs0mg"},{"bike_id":"5478c78c-a5d2-491e-b741-12df9c28a6cc","system_id":"levelo_inurba_marseille","lat":43.29262,"lon":5.38427,"is_reserved":false,"is_disabled":false,"rental_uris":{"android":"levelo://app?vid=5478c78c-a5d2-491e-b741-12df9c28a6cc","ios":"levelo://app?vid=5478c78c-a5d2-491e-b741-12df9c28a6cc"},"vehicle_type_id":"4","last_reported":1712426909,"current_range_meters":0,"station_id":"ce4bh692rcd13ifvqea0","pricing_plan_id":"cebpf4jnsgd1na2vs0mg"},{"bike_id":"31743806-4b56-4367-a4b1-933cb991f3d9","system_id":"levelo_inurba_marseille","lat":43.29267,"lon":5.3844,"is_reserved":false,"is_disabled":false,"rental_uris":{"android":"levelo://app?vid=31743806-4b56-4367-a4b1-933cb991f3d9","ios":"levelo://app?vid=31743806-4b56-4367-a4b1-933cb991f3d9"},"vehicle_type_id":"4","last_reported":1712426909,"current_range_meters":16000,"station_id":"ce4bh692rcd13ifvqea0","pricing_plan_id":"cebpf4jnsgd1na2vs0mg"},{"bike_id":"12da56d9-2560-4812-b6c8-adffac0000e7","system_id":"levelo_inurba_marseille","lat":43.292644,"lon":5.384257,"is_reserved":false,"is_disabled":false,"rental_uris":{"android":"levelo://app?vid=12da56d9-2560-4812-b6c8-adffac0000e7","ios":"levelo://app?vid=12da56d9-2560-4812-b6c8-adffac0000e7"},"vehicle_type_id":"4","last_reported":1712426909,"current_range_meters":1600,"station_id":"ce4bh692rcd13ifvqea0","pricing_plan_id":"cebpf4jnsgd1na2vs0mg"},{"bike_id":"ee20a3da-555b-483c-b2d9-e6453422b391","system_id":"levelo_inurba_marseille","lat":43.29261,"lon":5.38432,"is_reserved":false,"is_disabled":false,"rental_uris":{"android":"levelo://app?vid=ee20a3da-555b-483c-b2d9-e6453422b391","ios":"levelo://app?vid=ee20a3da-555b-483c-b2d9-e6453422b391"},"vehicle_type_id":"4","last_reported":1712426909,"current_range_meters":8400,"station_id":"ce4bh692rcd13ifvqea0","pricing_plan_id":"cebpf4jnsgd1na2vs0mg"},{"bike_id":"c29a479a-dea5-44bf-bda4-7bb6f015e03a","system_id":"levelo_inurba_marseille","lat":43.292644,"lon":5.384257,"is_reserved":false,"is_disabled":false,"rental_uris":{"android":"levelo://app?vid=c29a479a-dea5-44bf-bda4-7bb6f015e03a","ios":"levelo://app?vid=c29a479a-dea5-44bf-bda4-7bb6f015e03a"},"vehicle_type_id":"4","last_reported":1712426909,"current_range_meters":17200,"station_id":"ce4bh692rcd13ifvqea0","pricing_plan_id":"cebpf4jnsgd1na2vs0mg"},{"bike_id":"450d4f20-5430-4362-9506-225d7d9d960e","system_id":"levelo_inurba_marseille","lat":43.304296,"lon":5.397513,"is_reserved":false,"is_disabled":false,"rental_uris":{"android":"levelo://app?vid=450d4f20-5430-4362-9506-225d7d9d960e","ios":"levelo://app?vid=450d4f20-5430-4362-9506-225d7d9d960e"},"vehicle_type_id":"4","last_reported":1712426909,"current_range_meters":8400,"station_id":"ce4bh092rcd13ifvqd20","pricing_plan_id":"cebpf4jnsgd1na2vs0mg"},{"bike_id":"13bd76ec-0398-4646-9ea2-bedec74e4749","system_id":"levelo_inurba_marseille","lat":43.29264,"lon":5.38447,"is_reserved":false,"is_disabled":false,"rental_uris":{"android":"levelo://app?vid=13bd76ec-0398-4646-9ea2-bedec74e4749","ios":"levelo://app?vid=13bd76ec-0398-4646-9ea2-bedec74e4749"},"vehicle_type_id":"4","last_reported":1712426909,"current_range_meters":12000,"station_id":"ce4bh692rcd13ifvqea0","pricing_plan_id":"cebpf4jnsgd1na2vs0mg"},{"bike_id":"d9fe96b6-8139-42a7-a12c-354d918c015f","system_id":"levelo_inurba_marseille","lat":43.292642,"lon":5.384254,"is_reserved":false,"is_disabled":false,"rental_uris":{"android":"levelo://app?vid=d9fe96b6-8139-42a7-a12c-354d918c015f","ios":"levelo://app?vid=d9fe96b6-8139-42a7-a12c-354d918c015f"},"vehicle_type_id":"4","last_reported":1712426909,"current_range_meters":0,"station_id":"ce4bh692rcd13ifvqea0","pricing_plan_id":"cebpf4jnsgd1na2vs0mg"},{"bike_id":"8a578344-c41b-4b1a-b6ed-86e0ad0fc1b9","system_id":"levelo_inurba_marseille","lat":43.292647,"lon":5.38452,"is_reserved":false,"is_disabled":false,"rental_uris":{"android":"levelo://app?vid=8a578344-c41b-4b1a-b6ed-86e0ad0fc1b9","ios":"levelo://app?vid=8a578344-c41b-4b1a-b6ed-86e0ad0fc1b9"},"vehicle_type_id":"4","last_reported":1712426909,"current_range_meters":15600,"station_id":"ce4bh692rcd13ifvqea0","pricing_plan_id":"cebpf4jnsgd1na2vs0mg"},{"bike_id":"f3304a0c-266a-4d16-bdc9-f29719327ecb","system_id":"levelo_inurba_marseille","lat":43.272116,"lon":5.391747,"is_reserved":false,"is_disabled":false,"rental_uris":{"android":"levelo://app?vid=f3304a0c-266a-4d16-bdc9-f29719327ecb","ios":"levelo://app?vid=f3304a0c-266a-4d16-bdc9-f29719327ecb"},"vehicle_type_id":"4","last_reported":1712426909,"current_range_meters":13200,"station_id":"ce4bhhp2rcd13ifvqfm0","pricing_plan_id":"cebpf4jnsgd1na2vs0mg"},{"bike_id":"43820f93-0db3-4dad-a2d8-7b6358bfa51a","system_id":"levelo_inurba_marseille","lat":43.292642,"lon":5.384254,"is_reserved":false,"is_disabled":false,"rental_uris":{"android":"levelo://app?vid=43820f93-0db3-4dad-a2d8-7b6358bfa51a","ios":"levelo://app?vid=43820f93-0db3-4dad-a2d8-7b6358bfa51a"},"vehicle_type_id":"4","last_reported":1712426909,"current_range_meters":0,"station_id":"ce4bh692rcd13ifvqea0","pricing_plan_id":"cebpf4jnsgd1na2vs0mg"},{"bike_id":"b7eaa0c6-fb91-4e2a-b382-c15f235211f8","system_id":"levelo_inurba_marseille","lat":43.29259,"lon":5.38442,"is_reserved":false,"is_disabled":false,"rental_uris":{"android":"levelo://app?vid=b7eaa0c6-fb91-4e2a-b382-c15f235211f8","ios":"levelo://app?vid=b7eaa0c6-fb91-4e2a-b382-c15f235211f8"},"vehicle_type_id":"4","last_reported":1712426909,"current_range_meters":7600,"station_id":"ce4bh692rcd13ifvqea0","pricing_plan_id":"cebpf4jnsgd1na2vs0mg"},{"bike_id":"aedd0aca-8153-46ef-8bb6-d0508990e96c","system_id":"levelo_inurba_marseille","lat":43.292596,"lon":5.384446,"is_reserved":false,"is_disabled":false,"rental_uris":{"android":"levelo://app?vid=aedd0aca-8153-46ef-8bb6-d0508990e96c","ios":"levelo://app?vid=aedd0aca-8153-46ef-8bb6-d0508990e96c"},"vehicle_type_id":"4","last_reported":1712426909,"current_range_meters":9600,"station_id":"ce4bh692rcd13ifvqea0","pricing_plan_id":"cebpf4jnsgd1na2vs0mg"},{"bike_id":"83977581-7044-4084-872c-59a53d00628f","system_id":"levelo_inurba_marseille","lat":43.292642,"lon":5.384254,"is_reserved":false,"is_disabled":false,"rental_uris":{"android":"levelo://app?vid=83977581-7044-4084-872c-59a53d00628f","ios":"levelo://app?vid=83977581-7044-4084-872c-59a53d00628f"},"vehicle_type_id":"4","last_reported":1712426909,"current_range_meters":2800,"station_id":"ce4bh692rcd13ifvqea0","pricing_plan_id":"cebpf4jnsgd1na2vs0mg"},{"bike_id":"715aafa1-e5a0-4057-bd84-b09fe4b9410b","system_id":"levelo_inurba_marseille","lat":43.292566,"lon":5.384482,"is_reserved":false,"is_disabled":false,"rental_uris":{"android":"levelo://app?vid=715aafa1-e5a0-4057-bd84-b09fe4b9410b","ios":"levelo://app?vid=715aafa1-e5a0-4057-bd84-b09fe4b9410b"},"vehicle_type_id":"4","last_reported":1712426909,"current_range_meters":0,"station_id":"ce4bh692rcd13ifvqea0","pricing_plan_id":"cebpf4jnsgd1na2vs0mg"},{"bike_id":"8de7ff8d-9b80-42c8-a1ca-57f38d17acaf","system_id":"levelo_inurba_marseille","lat":43.293008,"lon":5.385529,"is_reserved":false,"is_disabled":false,"rental_uris":{"android":"levelo://app?vid=8de7ff8d-9b80-42c8-a1ca-57f38d17acaf","ios":"levelo://app?vid=8de7ff8d-9b80-42c8-a1ca-57f38d17acaf"},"vehicle_type_id":"4","last_reported":1712426909,"current_range_meters":0,"station_id":"ce4bh4p2rcd13ifvqe0g","pricing_plan_id":"cebpf4jnsgd1na2vs0mg"},{"bike_id":"69b61684-df65-4a25-9202-d982cded78f2","system_id":"levelo_inurba_marseille","lat":43.29008,"lon":5.356121,"is_reserved":false,"is_disabled":false,"rental_uris":{"android":"levelo://app?vid=69b61684-df65-4a25-9202-d982cded78f2","ios":"levelo://app?vid=69b61684-df65-4a25-9202-d982cded78f2"},"vehicle_type_id":"4","last_reported":1712426909,"current_range_meters":31200,"station_id":"ce4bhb92rcd13ifvqen0","pricing_plan_id":"cebpf4jnsgd1na2vs0mg"},{"bike_id":"9a7336ad-ac0a-47cb-83c0-9405024ff5bd","system_id":"levelo_inurba_marseille","lat":43.302759,"lon":5.400793,"is_reserved":false,"is_disabled":false,"rental_uris":{"android":"levelo://app?vid=9a7336ad-ac0a-47cb-83c0-9405024ff5bd","ios":"levelo://app?vid=9a7336ad-ac0a-47cb-83c0-9405024ff5bd"},"vehicle_type_id":"4","last_reported":1712426909,"current_range_meters":9600,"station_id":"ce4bgvh2rcd13ifvqcs0","pricing_plan_id":"cebpf4jnsgd1na2vs0mg"},{"bike_id":"ebf4f423-48ab-4fe3-a212-02e9bc56b69a","system_id":"levelo_inurba_marseille","lat":43.29007,"lon":5.35609,"is_reserved":false,"is_disabled":false,"rental_uris":{"android":"levelo://app?vid=ebf4f423-48ab-4fe3-a212-02e9bc56b69a","ios":"levelo://app?vid=ebf4f423-48ab-4fe3-a212-02e9bc56b69a"},"vehicle_type_id":"4","last_reported":1712426909,"current_range_meters":800,"station_id":"ce4bhb92rcd13ifvqen0","pricing_plan_id":"cebpf4jnsgd1na2vs0mg"},{"bike_id":"211e7905-99ca-46fc-95d5-f103b252f077","system_id":"levelo_inurba_marseille","lat":43.290079,"lon":5.356026,"is_reserved":false,"is_disabled":false,"rental_uris":{"android":"levelo://app?vid=211e7905-99ca-46fc-95d5-f103b252f077","ios":"levelo://app?vid=211e7905-99ca-46fc-95d5-f103b252f077"},"vehicle_type_id":"4","last_reported":1712426909,"current_range_meters":0,"station_id":"ce4bhb92rcd13ifvqen0","pricing_plan_id":"cebpf4jnsgd1na2vs0mg"},{"bike_id":"5049ed79-f09f-456a-b418-7ae9725caa6c","system_id":"levelo_inurba_marseille","lat":43.290103,"lon":5.356114,"is_reserved":false,"is_disabled":false,"rental_uris":{"android":"levelo://app?vid=5049ed79-f09f-456a-b418-7ae9725caa6c","ios":"levelo://app?vid=5049ed79-f09f-456a-b418-7ae9725caa6c"},"vehicle_type_id":"4","last_reported":1712426909,"current_range_meters":0,"station_id":"ce4bhb92rcd13ifvqen0","pricing_plan_id":"cebpf4jnsgd1na2vs0mg"},{"bike_id":"2a8f7c61-4164-4b3b-b515-ea8063b936ee","system_id":"levelo_inurba_marseille","lat":43.290995,"lon":5.381361,"is_reserved":false,"is_disabled":false,"rental_uris":{"android":"levelo://app?vid=2a8f7c61-4164-4b3b-b515-ea8063b936ee","ios":"levelo://app?vid=2a8f7c61-4164-4b3b-b515-ea8063b936ee"},"vehicle_type_id":"4","last_reported":1712426909,"current_range_meters":0,"station_id":"ce4bh512rcd13ifvqe2g","pricing_plan_id":"cebpf4jnsgd1na2vs0mg"},{"bike_id":"b152c54a-76b4-4a3c-8101-80b22505afc5","system_id":"levelo_inurba_marseille","lat":43.290995,"lon":5.381361,"is_reserved":false,"is_disabled":false,"rental_uris":{"android":"levelo://app?vid=b152c54a-76b4-4a3c-8101-80b22505afc5","ios":"levelo://app?vid=b152c54a-76b4-4a3c-8101-80b22505afc5"},"vehicle_type_id":"4","last_reported":1712426909,"current_range_meters":0,"station_id":"ce4bh512rcd13ifvqe2g","pricing_plan_id":"cebpf4jnsgd1na2vs0mg"},{"bike_id":"3717d41f-bf9f-40e1-98ea-deb437f525a0","system_id":"levelo_inurba_marseille","lat":43.29529,"lon":5.39029,"is_reserved":false,"is_disabled":false,"rental_uris":{"android":"levelo://app?vid=3717d41f-bf9f-40e1-98ea-deb437f525a0","ios":"levelo://app?vid=3717d41f-bf9f-40e1-98ea-deb437f525a0"},"vehicle_type_id":"4","last_reported":1712426909,"current_range_meters":0,"station_id":"ce4bh3p2rcd13ifvqdp0","pricing_plan_id":"cebpf4jnsgd1na2vs0mg"},{"bike_id":"9934cb42-6699-4362-a95d-e8e953856072","system_id":"levelo_inurba_marseille","lat":43.330442,"lon":5.389148,"is_reserved":false,"is_disabled":false,"rental_uris":{"android":"levelo://app?vid=9934cb42-6699-4362-a95d-e8e953856072","ios":"levelo://app?vid=9934cb42-6699-4362-a95d-e8e953856072"},"vehicle_type_id":"4","last_reported":1712426909,"current_range_meters":11600,"station_id":"ce4bhr92rcd13ifvqhrg","pricing_plan_id":"cebpf4jnsgd1na2vs0mg"},{"bike_id":"03420a97-229e-48e8-9a95-3ffc9a63ae9f","system_id":"levelo_inurba_marseille","lat":43.330442,"lon":5.389148,"is_reserved":false,"is_disabled":false,"rental_uris":{"android":"levelo://app?vid=03420a97-229e-48e8-9a95-3ffc9a63ae9f","ios":"levelo://app?vid=03420a97-229e-48e8-9a95-3ffc9a63ae9f"},"vehicle_type_id":"4","last_reported":1712426909,"current_range_meters":0,"station_id":"ce4bhr92rcd13ifvqhrg","pricing_plan_id":"cebpf4jnsgd1na2vs0mg"},{"bike_id":"f92a96fc-006b-4798-8265-4bc7b6405bcc","system_id":"levelo_inurba_marseille","lat":43.330442,"lon":5.389148,"is_reserved":false,"is_disabled":false,"rental_uris":{"android":"levelo://app?vid=f92a96fc-006b-4798-8265-4bc7b6405bcc","ios":"levelo://app?vid=f92a96fc-006b-4798-8265-4bc7b6405bcc"},"vehicle_type_id":"4","last_reported":1712426909,"current_range_meters":20400,"station_id":"ce4bhr92rcd13ifvqhrg","pricing_plan_id":"cebpf4jnsgd1na2vs0mg"},{"bike_id":"7fab4732-15f7-40b0-8d65-f6ee183c6fc2","system_id":"levelo_inurba_marseille","lat":43.330442,"lon":5.389148,"is_reserved":false,"is_disabled":false,"rental_uris":{"android":"levelo://app?vid=7fab4732-15f7-40b0-8d65-f6ee183c6fc2","ios":"levelo://app?vid=7fab4732-15f7-40b0-8d65-f6ee183c6fc2"},"vehicle_type_id":"4","last_reported":1712426909,"current_range_meters":3200,"station_id":"ce4bhr92rcd13ifvqhrg","pricing_plan_id":"cebpf4jnsgd1na2vs0mg"},{"bike_id":"06cf1197-6cc0-4637-bb8c-911f0a48f08a","system_id":"levelo_inurba_marseille","lat":43.29123,"lon":5.38298,"is_reserved":false,"is_disabled":false,"rental_uris":{"android":"levelo://app?vid=06cf1197-6cc0-4637-bb8c-911f0a48f08a","ios":"levelo://app?vid=06cf1197-6cc0-4637-bb8c-911f0a48f08a"},"vehicle_type_id":"4","last_reported":1712426909,"current_range_meters":0,"station_id":"","pricing_plan_id":"cebpf4jnsgd1na2vs0mg"},{"bike_id":"3835d810-c731-4c9d-893f-b10350b4f622","system_id":"levelo_inurba_marseille","lat":43.33024,"lon":5.39051,"is_reserved":false,"is_disabled":false,"rental_uris":{"android":"levelo://app?vid=3835d810-c731-4c9d-893f-b10350b4f622","ios":"levelo://app?vid=3835d810-c731-4c9d-893f-b10350b4f622"},"vehicle_type_id":"4","last_reported":1712426909,"current_range_meters":18800,"station_id":"ce4bhr92rcd13ifvqhrg","pricing_plan_id":"cebpf4jnsgd1na2vs0mg"},{"bike_id":"1dce9aa1-5232-4b74-8ce2-5f74a5bbde23","system_id":"levelo_inurba_marseille","lat":43.33113,"lon":5.38923,"is_reserved":false,"is_disabled":false,"rental_uris":{"android":"levelo://app?vid=1dce9aa1-5232-4b74-8ce2-5f74a5bbde23","ios":"levelo://app?vid=1dce9aa1-5232-4b74-8ce2-5f74a5bbde23"},"vehicle_type_id":"4","last_reported":1712426909,"current_range_meters":16400,"station_id":"","pricing_plan_id":"cebpf4jnsgd1na2vs0mg"},{"bike_id":"29a0d463-0b5a-4dee-856d-01c0581c56b4","system_id":"levelo_inurba_marseille","lat":43.33023,"lon":5.39056,"is_reserved":false,"is_disabled":false,"rental_uris":{"android":"levelo://app?vid=29a0d463-0b5a-4dee-856d-01c0581c56b4","ios":"levelo://app?vid=29a0d463-0b5a-4dee-856d-01c0581c56b4"},"vehicle_type_id":"4","last_reported":1712426909,"current_range_meters":2000,"station_id":"ce4bhr92rcd13ifvqhrg","pricing_plan_id":"cebpf4jnsgd1na2vs0mg"},{"bike_id":"6bb0424e-ccc2-4c7c-b0e5-e470219edb5f","system_id":"levelo_inurba_marseille","lat":43.330318,"lon":5.390466,"is_reserved":false,"is_disabled":false,"rental_uris":{"android":"levelo://app?vid=6bb0424e-ccc2-4c7c-b0e5-e470219edb5f","ios":"levelo://app?vid=6bb0424e-ccc2-4c7c-b0e5-e470219edb5f"},"vehicle_type_id":"4","last_reported":1712426909,"current_range_meters":0,"station_id":"ce4bhr92rcd13ifvqhrg","pricing_plan_id":"cebpf4jnsgd1na2vs0mg"},{"bike_id":"c2a946c6-3b89-4e39-aad2-696b377de88a","system_id":"levelo_inurba_marseille","lat":43.309371,"lon":5.401449,"is_reserved":false,"is_disabled":false,"rental_uris":{"android":"levelo://app?vid=c2a946c6-3b89-4e39-aad2-696b377de88a","ios":"levelo://app?vid=c2a946c6-3b89-4e39-aad2-696b377de88a"},"vehicle_type_id":"4","last_reported":1712426909,"current_range_meters":800,"station_id":"ce4bgvp2rcd13ifvqct0","pricing_plan_id":"cebpf4jnsgd1na2vs0mg"},{"bike_id":"b63613e6-68b5-4127-852f-d4f094954af5","system_id":"levelo_inurba_marseille","lat":43.31271,"lon":5.40164,"is_reserved":false,"is_disabled":false,"rental_uris":{"android":"levelo://app?vid=b63613e6-68b5-4127-852f-d4f094954af5","ios":"levelo://app?vid=b63613e6-68b5-4127-852f-d4f094954af5"},"vehicle_type_id":"4","last_reported":1712426909,"current_range_meters":0,"station_id":"ce4bh092rcd13ifvqd30","pricing_plan_id":"cebpf4jnsgd1na2vs0mg"},{"bike_id":"7fe43b6e-adf9-4fd0-b3f9-9c5278d8cb84","system_id":"levelo_inurba_marseille","lat":43.312609,"lon":5.401662,"is_reserved":false,"is_disabled":false,"rental_uris":{"android":"levelo://app?vid=7fe43b6e-adf9-4fd0-b3f9-9c5278d8cb84","ios":"levelo://app?vid=7fe43b6e-adf9-4fd0-b3f9-9c5278d8cb84"},"vehicle_type_id":"4","last_reported":1712426909,"current_range_meters":0,"station_id":"ce4bh092rcd13ifvqd30","pricing_plan_id":"cebpf4jnsgd1na2vs0mg"},{"bike_id":"66877725-1c1d-46fa-95f4-c96e28bf38a8","system_id":"levelo_inurba_marseille","lat":43.30932,"lon":5.40147,"is_reserved":false,"is_disabled":false,"rental_uris":{"android":"levelo://app?vid=66877725-1c1d-46fa-95f4-c96e28bf38a8","ios":"levelo://app?vid=66877725-1c1d-46fa-95f4-c96e28bf38a8"},"vehicle_type_id":"4","last_reported":1712426909,"current_range_meters":0,"station_id":"ce4bgvp2rcd13ifvqct0","pricing_plan_id":"cebpf4jnsgd1na2vs0mg"},{"bike_id":"979ae432-9ff5-4588-908b-a7c2ac444746","system_id":"levelo_inurba_marseille","lat":43.3375,"lon":5.37452,"is_reserved":false,"is_disabled":false,"rental_uris":{"android":"levelo://app?vid=979ae432-9ff5-4588-908b-a7c2ac444746","ios":"levelo://app?vid=979ae432-9ff5-4588-908b-a7c2ac444746"},"vehicle_type_id":"4","last_reported":1712426909,"current_range_meters":30400,"station_id":"","pricing_plan_id":"cebpf4jnsgd1na2vs0mg"},{"bike_id":"56c77fc6-c866-4946-acb0-efcf25d23aeb","system_id":"levelo_inurba_marseille","lat":43.309371,"lon":5.401449,"is_reserved":false,"is_disabled":false,"rental_uris":{"android":"levelo://app?vid=56c77fc6-c866-4946-acb0-efcf25d23aeb","ios":"levelo://app?vid=56c77fc6-c866-4946-acb0-efcf25d23aeb"},"vehicle_type_id":"4","last_reported":1712426909,"current_range_meters":20000,"station_id":"ce4bgvp2rcd13ifvqct0","pricing_plan_id":"cebpf4jnsgd1na2vs0mg"},{"bike_id":"6e9302fd-6376-4f67-b396-c8b38ee8b360","system_id":"levelo_inurba_marseille","lat":43.309371,"lon":5.401449,"is_reserved":false,"is_disabled":false,"rental_uris":{"android":"levelo://app?vid=6e9302fd-6376-4f67-b396-c8b38ee8b360","ios":"levelo://app?vid=6e9302fd-6376-4f67-b396-c8b38ee8b360"},"vehicle_type_id":"4","last_reported":1712426909,"current_range_meters":27200,"station_id":"ce4bgvp2rcd13ifvqct0","pricing_plan_id":"cebpf4jnsgd1na2vs0mg"},{"bike_id":"5c427a43-decc-4a69-ab65-469d226a98d2","system_id":"levelo_inurba_marseille","lat":43.30647,"lon":5.40081,"is_reserved":false,"is_disabled":false,"rental_uris":{"android":"levelo://app?vid=5c427a43-decc-4a69-ab65-469d226a98d2","ios":"levelo://app?vid=5c427a43-decc-4a69-ab65-469d226a98d2"},"vehicle_type_id":"4","last_reported":1712426909,"current_range_meters":5600,"station_id":"ce4bh112rcd13ifvqda0","pricing_plan_id":"cebpf4jnsgd1na2vs0mg"},{"bike_id":"de4b5f90-20be-4283-a7b0-b04db31ce97a","system_id":"levelo_inurba_marseille","lat":43.306412,"lon":5.401035,"is_reserved":false,"is_disabled":false,"rental_uris":{"android":"levelo://app?vid=de4b5f90-20be-4283-a7b0-b04db31ce97a","ios":"levelo://app?vid=de4b5f90-20be-4283-a7b0-b04db31ce97a"},"vehicle_type_id":"4","last_reported":1712426909,"current_range_meters":0,"station_id":"ce4bh112rcd13ifvqda0","pricing_plan_id":"cebpf4jnsgd1na2vs0mg"},{"bike_id":"4b900c54-b8bb-411c-8eb8-4935982bfe96","system_id":"levelo_inurba_marseille","lat":43.306412,"lon":5.401035,"is_reserved":false,"is_disabled":false,"rental_uris":{"android":"levelo://app?vid=4b900c54-b8bb-411c-8eb8-4935982bfe96","ios":"levelo://app?vid=4b900c54-b8bb-411c-8eb8-4935982bfe96"},"vehicle_type_id":"4","last_reported":1712426909,"current_range_meters":5600,"station_id":"ce4bh112rcd13ifvqda0","pricing_plan_id":"cebpf4jnsgd1na2vs0mg"},{"bike_id":"6c250621-98b4-4e2e-8222-641e8c4def2a","system_id":"levelo_inurba_marseille","lat":43.301537,"lon":5.398551,"is_reserved":false,"is_disabled":false,"rental_uris":{"android":"levelo://app?vid=6c250621-98b4-4e2e-8222-641e8c4def2a","ios":"levelo://app?vid=6c250621-98b4-4e2e-8222-641e8c4def2a"},"vehicle_type_id":"4","last_reported":1712426909,"current_range_meters":10000,"station_id":"ce4bh0h2rcd13ifvqd40","pricing_plan_id":"cebpf4jnsgd1na2vs0mg"},{"bike_id":"d7929100-6474-4853-99cc-50714675f947","system_id":"levelo_inurba_marseille","lat":43.30142,"lon":5.3985,"is_reserved":false,"is_disabled":false,"rental_uris":{"android":"levelo://app?vid=d7929100-6474-4853-99cc-50714675f947","ios":"levelo://app?vid=d7929100-6474-4853-99cc-50714675f947"},"vehicle_type_id":"4","last_reported":1712426909,"current_range_meters":0,"station_id":"ce4bh0h2rcd13ifvqd40","pricing_plan_id":"cebpf4jnsgd1na2vs0mg"},{"bike_id":"c7d9ef1d-6a76-449b-a221-e718ecbdaf6c","system_id":"levelo_inurba_marseille","lat":43.301419,"lon":5.398526,"is_reserved":false,"is_disabled":false,"rental_uris":{"android":"levelo://app?vid=c7d9ef1d-6a76-449b-a221-e718ecbdaf6c","ios":"levelo://app?vid=c7d9ef1d-6a76-449b-a221-e718ecbdaf6c"},"vehicle_type_id":"4","last_reported":1712426909,"current_range_meters":11200,"station_id":"ce4bh0h2rcd13ifvqd40","pricing_plan_id":"cebpf4jnsgd1na2vs0mg"},{"bike_id":"8bd791bd-b204-49c0-961f-85eda3020823","system_id":"levelo_inurba_marseille","lat":43.301471,"lon":5.398697,"is_reserved":false,"is_disabled":false,"rental_uris":{"android":"levelo://app?vid=8bd791bd-b204-49c0-961f-85eda3020823","ios":"levelo://app?vid=8bd791bd-b204-49c0-961f-85eda3020823"},