{"last_updated":1737420208,"ttl":60,"version":"2.2","data":{"bikes":[{"bike_id":"2d837e6e-a55b-44a6-8c8b-9ab1fd8a260a","system_id":"levelo_inurba_marseille","lat":43.31081,"lon":5.42438,"is_reserved":false,"is_disabled":false,"rental_uris":{"android":"levelo://app?vid=2d837e6e-a55b-44a6-8c8b-9ab1fd8a260a","ios":"levelo://app?vid=2d837e6e-a55b-44a6-8c8b-9ab1fd8a260a"},"vehicle_type_id":"4","last_reported":1737420208,"current_range_meters":38800,"station_id":"ce4bhp92rcd13ifvqhag","pricing_plan_id":"cebpf4jnsgd1na2vs0mg"},{"bike_id":"16a6e79b-15d3-42d6-9173-c187c18a1c2e","system_id":"levelo_inurba_marseille","lat":43.30893,"lon":5.3963,"is_reserved":false,"is_disabled":false,"rental_uris":{"android":"levelo://app?vid=16a6e79b-15d3-42d6-9173-c187c18a1c2e","ios":"levelo://app?vid=16a6e79b-15d3-42d6-9173-c187c18a1c2e"},"vehicle_type_id":"4","last_reported":1737420208,"current_range_meters":33200,"station_id":"ce4bh012rcd13ifvqcv0","pricing_plan_id":"cebpf4jnsgd1na2vs0mg"},{"bike_id":"26349406-6333-4a68-8e5b-ffab94e5879a","system_id":"levelo_inurba_marseille","lat":43.29524,"lon":5.39045,"is_reserved":false,"is_disabled":false,"rental_uris":{"android":"levelo://app?vid=26349406-6333-4a68-8e5b-ffab94e5879a","ios":"levelo://app?vid=26349406-6333-4a68-8e5b-ffab94e5879a"},"vehicle_type_id":"4","last_reported":1737420208,"current_range_meters":16000,"station_id":"ce4bh3p2rcd13ifvqdp0","pricing_plan_id":"cebpf4jnsgd1na2vs0mg"},{"bike_id":"a3d0aefc-a2f5-45cd-9489-1be9c32278de","system_id":"levelo_inurba_marseille","lat":43.23957,"lon":5.36677,"is_reserved":false,"is_disabled":false,"rental_uris":{"android":"levelo://app?vid=a3d0aefc-a2f5-45cd-9489-1be9c32278de","ios":"levelo://app?vid=a3d0aefc-a2f5-45cd-9489-1be9c32278de"},"vehicle_type_id":"4","last_reported":1737420208,"current_range_meters":30800,"station_id":"ce4bhi12rcd13ifvqfp0","pricing_plan_id":"cebpf4jnsgd1na2vs0mg"},{"bike_id":"ff1df0fd-be2f-4894-8690-e8a61da9c700","system_id":"levelo_inurba_marseille","lat":43.28697,"lon":5.37422,"is_reserved":false,"is_disabled":true,"rental_uris":{"android":"levelo://app?vid=ff1df0fd-be2f-4894-8690-e8a61da9c700","ios":"levelo://app?vid=ff1df0fd-be2f-4894-8690-e8a61da9c700"},"vehicle_type_id":"4","last_reported":1737420208,"current_range_meters":38800,"station_id":"ce4bh3p2rcd13ifvqdq0","pricing_plan_id":"cebpf4jnsgd1na2vs0mg"},{"bike_id":"434a60f9-dcd2-4593-9cfa-9bfbda6fb835","system_id":"levelo_inurba_marseille","lat":43.28272,"lon":5.35081,"is_reserved":false,"is_disabled":false,"rental_uris":{"android":"levelo://app?vid=434a60f9-dcd2-4593-9cfa-9bfbda6fb835","ios":"levelo://app?vid=434a60f9-dcd2-4593-9cfa-9bfbda6fb835"},"vehicle_type_id":"4","last_reported":1737420208,"current_range_meters":39200,"station_id":"ce4bhbp2rcd13ifvqerg","pricing_plan_id":"cebpf4jnsgd1na2vs0mg"},{"bike_id":"d7e75527-c346-4215-8d90-37cb08e036e7","system_id":"levelo_inurba_marseille","lat":43.305886,"lon":5.393413,"is_reserved":false,"is_disabled":false,"rental_uris":{"android":"levelo://app?vid=d7e75527-c346-4215-8d90-37cb08e036e7","ios":"levelo://app?vid=d7e75527-c346-4215-8d90-37cb08e036e7"},"vehicle_type_id":"4","last_reported":1737420208,"current_range_meters":38400,"station_id":"ce4bh0p2rcd13ifvqd80","pricing_plan_id":"cebpf4jnsgd1na2vs0mg"},{"bike_id":"5cb1264a-175f-4702-b950-5c526f1c16bb","system_id":"levelo_inurba_marseille","lat":43.28717,"lon":5.37401,"is_reserved":false,"is_disabled":false,"rental_uris":{"android":"levelo://app?vid=5cb1264a-175f-4702-b950-5c526f1c16bb","ios":"levelo://app?vid=5cb1264a-175f-4702-b950-5c526f1c16bb"},"vehicle_type_id":"4","last_reported":1737420208,"current_range_meters":38000,"station_id":"ce4bh3p2rcd13ifvqdq0","pricing_plan_id":"cebpf4jnsgd1na2vs0mg"},{"bike_id":"a3b3d045-dd7b-4eb3-bd8d-20ffd36b83c0","system_id":"levelo_inurba_marseille","lat":43.30946,"lon":5.40108,"is_reserved":false,"is_disabled":false,"rental_uris":{"android":"levelo://app?vid=a3b3d045-dd7b-4eb3-bd8d-20ffd36b83c0","ios":"levelo://app?vid=a3b3d045-dd7b-4eb3-bd8d-20ffd36b83c0"},"vehicle_type_id":"4","last_reported":1737420208,"current_range_meters":38800,"station_id":"ce4bgvp2rcd13ifvqct0","pricing_plan_id":"cebpf4jnsgd1na2vs0mg"},{"bike_id":"1bc9b8ac-6094-4fdd-b6fc-7aa8848ee904","system_id":"levelo_inurba_marseille","lat":43.30798,"lon":5.43529,"is_reserved":false,"is_disabled":false,"rental_uris":{"android":"levelo://app?vid=1bc9b8ac-6094-4fdd-b6fc-7aa8848ee904","ios":"levelo://app?vid=1bc9b8ac-6094-4fdd-b6fc-7aa8848ee904"},"vehicle_type_id":"4","last_reported":1737420208,"current_range_meters":13600,"station_id":"ce4bhph2rcd13ifvqheg","pricing_plan_id":"cebpf4jnsgd1na2vs0mg"},{"bike_id":"f7f5b063-963a-44bd-8272-8ba2bb78525d","system_id":"levelo_inurba_marseille","lat":43.31704,"lon":5.37816,"is_reserved":false,"is_disabled":false,"rental_uris":{"android":"levelo://app?vid=f7f5b063-963a-44bd-8272-8ba2bb78525d","ios":"levelo://app?vid=f7f5b063-963a-44bd-8272-8ba2bb78525d"},"vehicle_type_id":"4","last_reported":1737420208,"current_range_meters":19600,"station_id":"ce4bgth2rcd13ifvqch0","pricing_plan_id":"cebpf4jnsgd1na2vs0mg"},{"bike_id":"222cf047-f998-4d64-843c-220b836d2dc0","system_id":"levelo_inurba_marseille","lat":43.29686,"lon":5.37312,"is_reserved":false,"is_disabled":false,"rental_uris":{"android":"levelo://app?vid=222cf047-f998-4d64-843c-220b836d2dc0","ios":"levelo://app?vid=222cf047-f998-4d64-843c-220b836d2dc0"},"vehicle_type_id":"4","last_reported":1737420208,"current_range_meters":38800,"station_id":"ce4bgk12rcd13ifvqbj0","pricing_plan_id":"cebpf4jnsgd1na2vs0mg"},{"bike_id":"00ea6390-ecba-4c97-8693-bc1897b0263f","system_id":"levelo_inurba_marseille","lat":43.28972,"lon":5.37852,"is_reserved":false,"is_disabled":false,"rental_uris":{"android":"levelo://app?vid=00ea6390-ecba-4c97-8693-bc1897b0263f","ios":"levelo://app?vid=00ea6390-ecba-4c97-8693-bc1897b0263f"},"vehicle_type_id":"4","last_reported":1737420208,"current_range_meters":38000,"station_id":"ce4bh9p2rcd13ifvqed0","pricing_plan_id":"cebpf4jnsgd1na2vs0mg"},{"bike_id":"e3d5a69f-7604-4ab5-bfce-dc9cf0dd7b56","system_id":"levelo_inurba_marseille","lat":43.29561,"lon":5.3996,"is_reserved":false,"is_disabled":true,"rental_uris":{"android":"levelo://app?vid=e3d5a69f-7604-4ab5-bfce-dc9cf0dd7b56","ios":"levelo://app?vid=e3d5a69f-7604-4ab5-bfce-dc9cf0dd7b56"},"vehicle_type_id":"4","last_reported":1737420208,"current_range_meters":38000,"station_id":"ce4bh312rcd13ifvqdj0","pricing_plan_id":"cebpf4jnsgd1na2vs0mg"},{"bike_id":"0201f603-d5d0-4632-997b-bedabf6b9fc6","system_id":"levelo_inurba_marseille","lat":43.29245,"lon":5.40903,"is_reserved":false,"is_disabled":false,"rental_uris":{"android":"levelo://app?vid=0201f603-d5d0-4632-997b-bedabf6b9fc6","ios":"levelo://app?vid=0201f603-d5d0-4632-997b-bedabf6b9fc6"},"vehicle_type_id":"4","last_reported":1737420208,"current_range_meters":38000,"station_id":"ce4bh192rcd13ifvqdc0","pricing_plan_id":"cebpf4jnsgd1na2vs0mg"},{"bike_id":"f3b3ab0f-c6dd-4c46-a81a-8afa3cc6374b","system_id":"levelo_inurba_marseille","lat":43.3019,"lon":5.39457,"is_reserved":false,"is_disabled":false,"rental_uris":{"android":"levelo://app?vid=f3b3ab0f-c6dd-4c46-a81a-8afa3cc6374b","ios":"levelo://app?vid=f3b3ab0f-c6dd-4c46-a81a-8afa3cc6374b"},"vehicle_type_id":"4","last_reported":1737420208,"current_range_meters":38400,"station_id":"ce4bh0p2rcd13ifvqd70","pricing_plan_id":"cebpf4jnsgd1na2vs0mg"},{"bike_id":"6d38c9b3-d1d0-4471-85ef-1836c051c027","system_id":"levelo_inurba_marseille","lat":43.31753,"lon":5.39017,"is_reserved":false,"is_disabled":false,"rental_uris":{"android":"levelo://app?vid=6d38c9b3-d1d0-4471-85ef-1836c051c027","ios":"levelo://app?vid=6d38c9b3-d1d0-4471-85ef-1836c051c027"},"vehicle_type_id":"4","last_reported":1737420208,"current_range_meters":29600,"station_id":"ce4bhqp2rcd13ifvqhng","pricing_plan_id":"cebpf4jnsgd1na2vs0mg"},{"bike_id":"fcf9f59d-f488-4081-8a0e-520b1462b18b","system_id":"levelo_inurba_marseille","lat":43.28715,"lon":5.37931,"is_reserved":false,"is_disabled":false,"rental_uris":{"android":"levelo://app?vid=fcf9f59d-f488-4081-8a0e-520b1462b18b","ios":"levelo://app?vid=fcf9f59d-f488-4081-8a0e-520b1462b18b"},"vehicle_type_id":"4","last_reported":1737420208,"current_range_meters":25600,"station_id":"ce4bh9p2rcd13ifvqec0","pricing_plan_id":"cebpf4jnsgd1na2vs0mg"},{"bike_id":"48d60ac7-a2bd-44ea-8ae7-f8e68106fc06","system_id":"levelo_inurba_marseille","lat":43.29263,"lon":5.38428,"is_reserved":false,"is_disabled":true,"rental_uris":{"android":"levelo://app?vid=48d60ac7-a2bd-44ea-8ae7-f8e68106fc06","ios":"levelo://app?vid=48d60ac7-a2bd-44ea-8ae7-f8e68106fc06"},"vehicle_type_id":"4","last_reported":1737420208,"current_range_meters":35200,"station_id":"ce4bh692rcd13ifvqea0","pricing_plan_id":"cebpf4jnsgd1na2vs0mg"},{"bike_id":"b0e7983b-5548-4a70-bd89-42b576e56206","system_id":"levelo_inurba_marseille","lat":43.28263,"lon":5.35081,"is_reserved":false,"is_disabled":false,"rental_uris":{"android":"levelo://app?vid=b0e7983b-5548-4a70-bd89-42b576e56206","ios":"levelo://app?vid=b0e7983b-5548-4a70-bd89-42b576e56206"},"vehicle_type_id":"4","last_reported":1737420208,"current_range_meters":22000,"station_id":"ce4bhbp2rcd13ifvqerg","pricing_plan_id":"cebpf4jnsgd1na2vs0mg"},{"bike_id":"763ed4fc-16fd-47a0-aedf-62c028daa66f","system_id":"levelo_inurba_marseille","lat":43.36387,"lon":5.35577,"is_reserved":false,"is_disabled":false,"rental_uris":{"android":"levelo://app?vid=763ed4fc-16fd-47a0-aedf-62c028daa66f","ios":"levelo://app?vid=763ed4fc-16fd-47a0-aedf-62c028daa66f"},"vehicle_type_id":"4","last_reported":1737420208,"current_range_meters":7200,"station_id":"","pricing_plan_id":"cebpf4jnsgd1na2vs0mg"},{"bike_id":"54e47bbf-d358-4fc6-9623-23d2eb6b92a9","system_id":"levelo_inurba_marseille","lat":43.276747,"lon":5.388474,"is_reserved":false,"is_disabled":true,"rental_uris":{"android":"levelo://app?vid=54e47bbf-d358-4fc6-9623-23d2eb6b92a9","ios":"levelo://app?vid=54e47bbf-d358-4fc6-9623-23d2eb6b92a9"},"vehicle_type_id":"4","last_reported":1737420208,"current_range_meters":14800,"station_id":"","pricing_plan_id":"cebpf4jnsgd1na2vs0mg"},{"bike_id":"a2771881-b956-4a9a-9bc9-a89642d437c9","system_id":"levelo_inurba_marseille","lat":43.231968,"lon":5.355474,"is_reserved":false,"is_disabled":false,"rental_uris":{"android":"levelo://app?vid=a2771881-b956-4a9a-9bc9-a89642d437c9","ios":"levelo://app?vid=a2771881-b956-4a9a-9bc9-a89642d437c9"},"vehicle_type_id":"4","last_reported":1737420208,"current_range_meters":38800,"station_id":"ce4bhu92rcd13ifvqi70","pricing_plan_id":"cebpf4jnsgd1na2vs0mg"},{"bike_id":"3b26ab37-3b51-49df-bcb5-b23c8b5b2a76","system_id":"levelo_inurba_marseille","lat":43.321094,"lon":5.367812,"is_reserved":false,"is_disabled":false,"rental_uris":{"android":"levelo://app?vid=3b26ab37-3b51-49df-bcb5-b23c8b5b2a76","ios":"levelo://app?vid=3b26ab37-3b51-49df-bcb5-b23c8b5b2a76"},"vehicle_type_id":"4","last_reported":1737420208,"current_range_meters":16000,"station_id":"ce4bhrh2rcd13ifvqhug","pricing_plan_id":"cebpf4jnsgd1na2vs0mg"},{"bike_id":"1f46188d-5e81-46fa-8687-79c4e15ba169","system_id":"levelo_inurba_marseille","lat":43.25868,"lon":5.39917,"is_reserved":false,"is_disabled":false,"rental_uris":{"android":"levelo://app?vid=1f46188d-5e81-46fa-8687-79c4e15ba169","ios":"levelo://app?vid=1f46188d-5e81-46fa-8687-79c4e15ba169"},"vehicle_type_id":"4","last_reported":1737420208,"current_range_meters":38800,"station_id":"ce4bhl92rcd13ifvqghg","pricing_plan_id":"cebpf4jnsgd1na2vs0mg"},{"bike_id":"88262b5c-ac88-4cab-a9ad-619e0fe81773","system_id":"levelo_inurba_marseille","lat":43.31174,"lon":5.38719,"is_reserved":false,"is_disabled":false,"rental_uris":{"android":"levelo://app?vid=88262b5c-ac88-4cab-a9ad-619e0fe81773","ios":"levelo://app?vid=88262b5c-ac88-4cab-a9ad-619e0fe81773"},"vehicle_type_id":"4","last_reported":1737420208,"current_range_meters":32800,"station_id":"ce4bgv12rcd13ifvqcp0","pricing_plan_id":"cebpf4jnsgd1na2vs0mg"},{"bike_id":"eab45ce9-f931-4048-8712-ef4ff14837a7","system_id":"levelo_inurba_marseille","lat":43.31177,"lon":5.38723,"is_reserved":false,"is_disabled":false,"rental_uris":{"android":"levelo://app?vid=eab45ce9-f931-4048-8712-ef4ff14837a7","ios":"levelo://app?vid=eab45ce9-f931-4048-8712-ef4ff14837a7"},"vehicle_type_id":"4","last_reported":1737420208,"current_range_meters":38000,"station_id":"ce4bgv12rcd13ifvqcp0","pricing_plan_id":"cebpf4jnsgd1na2vs0mg"},{"bike_id":"079bb072-bfe9-4cb5-9947-3f9e03f9ed52","system_id":"levelo_inurba_marseille","lat":43.292766,"lon":5.40173,"is_reserved":false,"is_disabled":false,"rental_uris":{"android":"levelo://app?vid=079bb072-bfe9-4cb5-9947-3f9e03f9ed52","ios":"levelo://app?vid=079bb072-bfe9-4cb5-9947-3f9e03f9ed52"},"vehicle_type_id":"4","last_reported":1737420208,"current_range_meters":36000,"station_id":"ce4bh312rcd13ifvqdk0","pricing_plan_id":"cebpf4jnsgd1na2vs0mg"},{"bike_id":"d7ee63f8-0fa8-4e53-b6bd-5a1bde076f8a","system_id":"levelo_inurba_marseille","lat":43.27829,"lon":5.40721,"is_reserved":false,"is_disabled":false,"rental_uris":{"android":"levelo://app?vid=d7ee63f8-0fa8-4e53-b6bd-5a1bde076f8a","ios":"levelo://app?vid=d7ee63f8-0fa8-4e53-b6bd-5a1bde076f8a"},"vehicle_type_id":"4","last_reported":1737420208,"current_range_meters":6400,"station_id":"ce4bhnh2rcd13ifvqgtg","pricing_plan_id":"cebpf4jnsgd1na2vs0mg"},{"bike_id":"c29020e0-83ef-4b06-ac4f-c4422257f84a","system_id":"levelo_inurba_marseille","lat":43.36402,"lon":5.35604,"is_reserved":false,"is_disabled":false,"rental_uris":{"android":"levelo://app?vid=c29020e0-83ef-4b06-ac4f-c4422257f84a","ios":"levelo://app?vid=c29020e0-83ef-4b06-ac4f-c4422257f84a"},"vehicle_type_id":"4","last_reported":1737420208,"current_range_meters":10800,"station_id":"","pricing_plan_id":"cebpf4jnsgd1na2vs0mg"},{"bike_id":"80f92e05-422e-45b3-9d9f-66c23a3baa48","system_id":"levelo_inurba_marseille","lat":43.28154,"lon":5.42652,"is_reserved":false,"is_disabled":false,"rental_uris":{"android":"levelo://app?vid=80f92e05-422e-45b3-9d9f-66c23a3baa48","ios":"levelo://app?vid=80f92e05-422e-45b3-9d9f-66c23a3baa48"},"vehicle_type_id":"4","last_reported":1737420208,"current_range_meters":28400,"station_id":"ce4bhnh2rcd13ifvqgug","pricing_plan_id":"cebpf4jnsgd1na2vs0mg"},{"bike_id":"414603a2-f495-4e60-9a1e-27b48ae935b9","system_id":"levelo_inurba_marseille","lat":43.29524,"lon":5.39031,"is_reserved":false,"is_disabled":false,"rental_uris":{"android":"levelo://app?vid=414603a2-f495-4e60-9a1e-27b48ae935b9","ios":"levelo://app?vid=414603a2-f495-4e60-9a1e-27b48ae935b9"},"vehicle_type_id":"4","last_reported":1737420208,"current_range_meters":38800,"station_id":"ce4bh3p2rcd13ifvqdp0","pricing_plan_id":"cebpf4jnsgd1na2vs0mg"},{"bike_id":"e9ed4198-3645-4c82-a7b1-536b1aba6d12","system_id":"levelo_inurba_marseille","lat":43.32357,"lon":5.3894,"is_reserved":false,"is_disabled":false,"rental_uris":{"android":"levelo://app?vid=e9ed4198-3645-4c82-a7b1-536b1aba6d12","ios":"levelo://app?vid=e9ed4198-3645-4c82-a7b1-536b1aba6d12"},"vehicle_type_id":"4","last_reported":1737420208,"current_range_meters":38800,"station_id":"ce4bhqp2rcd13ifvqhog","pricing_plan_id":"cebpf4jnsgd1na2vs0mg"},{"bike_id":"a4929f10-be42-40bd-9958-40ba2c4eec72","system_id":"levelo_inurba_marseille","lat":43.33016,"lon":5.39054,"is_reserved":false,"is_disabled":false,"rental_uris":{"android":"levelo://app?vid=a4929f10-be42-40bd-9958-40ba2c4eec72","ios":"levelo://app?vid=a4929f10-be42-40bd-9958-40ba2c4eec72"},"vehicle_type_id":"4","last_reported":1737420208,"current_range_meters":16400,"station_id":"ce4bhr92rcd13ifvqhrg","pricing_plan_id":"cebpf4jnsgd1na2vs0mg"},{"bike_id":"ab7b1d7a-8ae0-4c4a-9611-7e663b41825a","system_id":"levelo_inurba_marseille","lat":43.32286,"lon":5.38292,"is_reserved":false,"is_disabled":false,"rental_uris":{"android":"levelo://app?vid=ab7b1d7a-8ae0-4c4a-9611-7e663b41825a","ios":"levelo://app?vid=ab7b1d7a-8ae0-4c4a-9611-7e663b41825a"},"vehicle_type_id":"4","last_reported":1737420208,"current_range_meters":38800,"station_id":"ce4bhr12rcd13ifvqhqg","pricing_plan_id":"cebpf4jnsgd1na2vs0mg"},{"bike_id":"d4a18e16-6eb1-455f-9f8d-52c212244e83","system_id":"levelo_inurba_marseille","lat":43.278,"lon":5.40507,"is_reserved":false,"is_disabled":true,"rental_uris":{"android":"levelo://app?vid=d4a18e16-6eb1-455f-9f8d-52c212244e83","ios":"levelo://app?vid=d4a18e16-6eb1-455f-9f8d-52c212244e83"},"vehicle_type_id":"4","last_reported":1737420208,"current_range_meters":0,"station_id":"","pricing_plan_id":"cebpf4jnsgd1na2vs0mg"},{"bike_id":"629f0718-cf09-4c6c-aac5-30e94504c5f3","system_id":"levelo_inurba_marseille","lat":43.26803,"lon":5.40204,"is_reserved":false,"is_disabled":false,"rental_uris":{"android":"levelo://app?vid=629f0718-cf09-4c6c-aac5-30e94504c5f3","ios":"levelo://app?vid=629f0718-cf09-4c6c-aac5-30e94504c5f3"},"vehicle_type_id":"4","last_reported":1737420208,"current_range_meters":38800,"station_id":"ce501612rcd8frsf0b60","pricing_plan_id":"cebpf4jnsgd1na2vs0mg"},{"bike_id":"4a31d953-a351-4e4b-a04e-ac11058ef623","system_id":"levelo_inurba_marseille","lat":43.27813,"lon":5.40707,"is_reserved":false,"is_disabled":false,"rental_uris":{"android":"levelo://app?vid=4a31d953-a351-4e4b-a04e-ac11058ef623","ios":"levelo://app?vid=4a31d953-a351-4e4b-a04e-ac11058ef623"},"vehicle_type_id":"4","last_reported":1737420208,"current_range_meters":28400,"station_id":"ce4bhnh2rcd13ifvqgtg","pricing_plan_id":"cebpf4jnsgd1na2vs0mg"},{"bike_id":"f84f394e-2917-447e-93c4-9487928d7f87","system_id":"levelo_inurba_marseille","lat":43.27809,"lon":5.40752,"is_reserved":false,"is_disabled":false,"rental_uris":{"android":"levelo://app?vid=f84f394e-2917-447e-93c4-9487928d7f87","ios":"levelo://app?vid=f84f394e-2917-447e-93c4-9487928d7f87"},"vehicle_type_id":"4","last_reported":1737420208,"current_range_meters":38800,"station_id":"ce4bhnh2rcd13ifvqgtg","pricing_plan_id":"cebpf4jnsgd1na2vs0mg"},{"bike_id":"30b5edee-161e-45ab-852e-b4ceef7c68a9","system_id":"levelo_inurba_marseille","lat":43.23155,"lon":5.4373,"is_reserved":false,"is_disabled":false,"rental_uris":{"android":"levelo://app?vid=30b5edee-161e-45ab-852e-b4ceef7c68a9","ios":"levelo://app?vid=30b5edee-161e-45ab-852e-b4ceef7c68a9"},"vehicle_type_id":"4","last_reported":1737420208,"current_range_meters":38400,"station_id":"ce4bhmp2rcd13ifvqgog","pricing_plan_id":"cebpf4jnsgd1na2vs0mg"},{"bike_id":"a5f0a85d-e511-441d-8563-576f08845eeb","system_id":"levelo_inurba_marseille","lat":43.30886,"lon":5.39642,"is_reserved":false,"is_disabled":false,"rental_uris":{"android":"levelo://app?vid=a5f0a85d-e511-441d-8563-576f08845eeb","ios":"levelo://app?vid=a5f0a85d-e511-441d-8563-576f08845eeb"},"vehicle_type_id":"4","last_reported":1737420208,"current_range_meters":29600,"station_id":"ce4bh012rcd13ifvqcv0","pricing_plan_id":"cebpf4jnsgd1na2vs0mg"},{"bike_id":"a7a469bb-9876-4757-8816-55025c18f7f5","system_id":"levelo_inurba_marseille","lat":43.29196,"lon":5.35794,"is_reserved":false,"is_disabled":false,"rental_uris":{"android":"levelo://app?vid=a7a469bb-9876-4757-8816-55025c18f7f5","ios":"levelo://app?vid=a7a469bb-9876-4757-8816-55025c18f7f5"},"vehicle_type_id":"4","last_reported":1737420208,"current_range_meters":38400,"station_id":"ce4bhb12rcd13ifvqel0","pricing_plan_id":"cebpf4jnsgd1na2vs0mg"},{"bike_id":"cb1ef9b6-bd53-4416-b036-b7ea5437ed8f","system_id":"levelo_inurba_marseille","lat":43.2678,"lon":5.39433,"is_reserved":false,"is_disabled":false,"rental_uris":{"android":"levelo://app?vid=cb1ef9b6-bd53-4416-b036-b7ea5437ed8f","ios":"levelo://app?vid=cb1ef9b6-bd53-4416-b036-b7ea5437ed8f"},"vehicle_type_id":"4","last_reported":1737420208,"current_range_meters":30400,"station_id":"ce4bhh12rcd13ifvqfg0","pricing_plan_id":"cebpf4jnsgd1na2vs0mg"},{"bike_id":"de8d9fdf-7b46-48ad-a51d-f0132537ad32","system_id":"levelo_inurba_marseille","lat":43.32368,"lon":5.38878,"is_reserved":false,"is_disabled":false,"rental_uris":{"android":"levelo://app?vid=de8d9fdf-7b46-48ad-a51d-f0132537ad32","ios":"levelo://app?vid=de8d9fdf-7b46-48ad-a51d-f0132537ad32"},"vehicle_type_id":"4","last_reported":1737420208,"current_range_meters":23200,"station_id":"ce4bhqp2rcd13ifvqhog","pricing_plan_id":"cebpf4jnsgd1na2vs0mg"},{"bike_id":"263584a7-b721-4333-8e39-8a470df48382","system_id":"levelo_inurba_marseille","lat":43.26224,"lon":5.40444,"is_reserved":false,"is_disabled":false,"rental_uris":{"android":"levelo://app?vid=263584a7-b721-4333-8e39-8a470df48382","ios":"levelo://app?vid=263584a7-b721-4333-8e39-8a470df48382"},"vehicle_type_id":"4","last_reported":1737420208,"current_range_meters":28800,"station_id":"","pricing_plan_id":"cebpf4jnsgd1na2vs0mg"},{"bike_id":"437e9a0d-847e-4225-9c71-0c081626b1a8","system_id":"levelo_inurba_marseille","lat":43.29521,"lon":5.39046,"is_reserved":false,"is_disabled":false,"rental_uris":{"android":"levelo://app?vid=437e9a0d-847e-4225-9c71-0c081626b1a8","ios":"levelo://app?vid=437e9a0d-847e-4225-9c71-0c081626b1a8"},"vehicle_type_id":"4","last_reported":1737420208,"current_range_meters":17200,"station_id":"ce4bh3p2rcd13ifvqdp0","pricing_plan_id":"cebpf4jnsgd1na2vs0mg"},{"bike_id":"db090fa3-42a7-4621-ba95-24031c78cef7","system_id":"levelo_inurba_marseille","lat":43.264948,"lon":5.395465,"is_reserved":false,"is_disabled":true,"rental_uris":{"android":"levelo://app?vid=db090fa3-42a7-4621-ba95-24031c78cef7","ios":"levelo://app?vid=db090fa3-42a7-4621-ba95-24031c78cef7"},"vehicle_type_id":"4","last_reported":1737420208,"current_range_meters":0,"station_id":"ce4bhi12rcd13ifvqfq0","pricing_plan_id":"cebpf4jnsgd1na2vs0mg"},{"bike_id":"2cca0472-e2a4-439d-914d-f9fce7966f79","system_id":"levelo_inurba_marseille","lat":43.28844,"lon":5.35859,"is_reserved":false,"is_disabled":false,"rental_uris":{"android":"levelo://app?vid=2cca0472-e2a4-439d-914d-f9fce7966f79","ios":"levelo://app?vid=2cca0472-e2a4-439d-914d-f9fce7966f79"},"vehicle_type_id":"4","last_reported":1737420208,"current_range_meters":38800,"station_id":"ce4bhb12rcd13ifvqem0","pricing_plan_id":"cebpf4jnsgd1na2vs0mg"},{"bike_id":"97c9f760-eae3-41a1-b6c5-9a4aa00bae53","system_id":"levelo_inurba_marseille","lat":43.28357,"lon":5.38625,"is_reserved":false,"is_disabled":false,"rental_uris":{"android":"levelo://app?vid=97c9f760-eae3-41a1-b6c5-9a4aa00bae53","ios":"levelo://app?vid=97c9f760-eae3-41a1-b6c5-9a4aa00bae53"},"vehicle_type_id":"4","last_reported":1737420208,"current_range_meters":38800,"station_id":"ce4bh492rcd13ifvqdvg","pricing_plan_id":"cebpf4jnsgd1na2vs0mg"},{"bike_id":"1df86f32-2cf2-4763-b0a8-e4c3956472b6","system_id":"levelo_inurba_marseille","lat":43.287,"lon":5.37394,"is_reserved":false,"is_disabled":false,"rental_uris":{"android":"levelo://app?vid=1df86f32-2cf2-4763-b0a8-e4c3956472b6","ios":"levelo://app?vid=1df86f32-2cf2-4763-b0a8-e4c3956472b6"},"vehicle_type_id":"4","last_reported":1737420208,"current_range_meters":16800,"station_id":"ce4bh3p2rcd13ifvqdq0","pricing_plan_id":"cebpf4jnsgd1na2vs0mg"},{"bike_id":"a182fc4c-8bc2-4ced-a900-365aea0e4cec","system_id":"levelo_inurba_marseille","lat":43.27999,"lon":5.4003,"is_reserved":false,"is_disabled":false,"rental_uris":{"android":"levelo://app?vid=a182fc4c-8bc2-4ced-a900-365aea0e4cec","ios":"levelo://app?vid=a182fc4c-8bc2-4ced-a900-365aea0e4cec"},"vehicle_type_id":"4","last_reported":1737420208,"current_range_meters":34000,"station_id":"ce4bho92rcd13ifvqh4g","pricing_plan_id":"cebpf4jnsgd1na2vs0mg"},{"bike_id":"62bf0473-baaf-4ced-b8ff-c57da3495cce","system_id":"levelo_inurba_marseille","lat":43.298793,"lon":5.397463,"is_reserved":false,"is_disabled":false,"rental_uris":{"android":"levelo://app?vid=62bf0473-baaf-4ced-b8ff-c57da3495cce","ios":"levelo://app?vid=62bf0473-baaf-4ced-b8ff-c57da3495cce"},"vehicle_type_id":"4","last_reported":1737420208,"current_range_meters":38800,"station_id":"ce4bh0h2rcd13ifvqd50","pricing_plan_id":"cebpf4jnsgd1na2vs0mg"},{"bike_id":"35f17cf8-4827-4bc9-a34c-2d3cc931696f","system_id":"levelo_inurba_marseille","lat":43.29632,"lon":5.406,"is_reserved":false,"is_disabled":false,"rental_uris":{"android":"levelo://app?vid=35f17cf8-4827-4bc9-a34c-2d3cc931696f","ios":"levelo://app?vid=35f17cf8-4827-4bc9-a34c-2d3cc931696f"},"vehicle_type_id":"4","last_reported":1737420208,"current_range_meters":38800,"station_id":"ce4bh0h2rcd13ifvqd60","pricing_plan_id":"cebpf4jnsgd1na2vs0mg"},{"bike_id":"fcc5ea4d-68d6-426d-96c7-13ae6f33ba8d","system_id":"levelo_inurba_marseille","lat":43.301465,"lon":5.39888,"is_reserved":false,"is_disabled":false,"rental_uris":{"android":"levelo://app?vid=fcc5ea4d-68d6-426d-96c7-13ae6f33ba8d","ios":"levelo://app?vid=fcc5ea4d-68d6-426d-96c7-13ae6f33ba8d"},"vehicle_type_id":"4","last_reported":1737420208,"current_range_meters":9200,"station_id":"ce4bh0h2rcd13ifvqd40","pricing_plan_id":"cebpf4jnsgd1na2vs0mg"},{"bike_id":"b01a0517-838b-46fa-b08a-ced719493443","system_id":"levelo_inurba_marseille","lat":43.29882,"lon":5.39732,"is_reserved":false,"is_disabled":false,"rental_uris":{"android":"levelo://app?vid=b01a0517-838b-46fa-b08a-ced719493443","ios":"levelo://app?vid=b01a0517-838b-46fa-b08a-ced719493443"},"vehicle_type_id":"4","last_reported":1737420208,"current_range_meters":38800,"station_id":"ce4bh0h2rcd13ifvqd50","pricing_plan_id":"cebpf4jnsgd1na2vs0mg"},{"bike_id":"3860f79b-6390-4baa-9962-103869425bc6","system_id":"levelo_inurba_marseille","lat":43.29904,"lon":5.43672,"is_reserved":false,"is_disabled":false,"rental_uris":{"android":"levelo://app?vid=3860f79b-6390-4baa-9962-103869425bc6","ios":"levelo://app?vid=3860f79b-6390-4baa-9962-103869425bc6"},"vehicle_type_id":"4","last_reported":1737420208,"current_range_meters":16000,"station_id":"ce4bhpp2rcd13ifvqhfg","pricing_plan_id":"cebpf4jnsgd1na2vs0mg"},{"bike_id":"c6aec08a-95b2-468e-b6ba-3552b798296e","system_id":"levelo_inurba_marseille","lat":43.33602,"lon":5.41037,"is_reserved":false,"is_disabled":false,"rental_uris":{"android":"levelo://app?vid=c6aec08a-95b2-468e-b6ba-3552b798296e","ios":"levelo://app?vid=c6aec08a-95b2-468e-b6ba-3552b798296e"},"vehicle_type_id":"4","last_reported":1737420208,"current_range_meters":30000,"station_id":"ce4bhqh2rcd13ifvqhmg","pricing_plan_id":"cebpf4jnsgd1na2vs0mg"},{"bike_id":"57b9fcf7-ed67-49fd-bf0a-8cfaa7d29c57","system_id":"levelo_inurba_marseille","lat":43.29888,"lon":5.39744,"is_reserved":false,"is_disabled":false,"rental_uris":{"android":"levelo://app?vid=57b9fcf7-ed67-49fd-bf0a-8cfaa7d29c57","ios":"levelo://app?vid=57b9fcf7-ed67-49fd-bf0a-8cfaa7d29c57"},"vehicle_type_id":"4","last_reported":1737420208,"current_range_meters":26000,"station_id":"ce4bh0h2rcd13ifvqd50","pricing_plan_id":"cebpf4jnsgd1na2vs0mg"},{"bike_id":"91c7ab48-9e00-4e35-be55-19c2af9c2a6c","system_id":"levelo_inurba_marseille","lat":43.31348,"lon":5.38506,"is_reserved":false,"is_disabled":false,"rental_uris":{"android":"levelo://app?vid=91c7ab48-9e00-4e35-be55-19c2af9c2a6c","ios":"levelo://app?vid=91c7ab48-9e00-4e35-be55-19c2af9c2a6c"},"vehicle_type_id":"4","last_reported":1737420208,"current_range_meters":38800,"station_id":"ce4bgt92rcd13ifvqcf0","pricing_plan_id":"cebpf4jnsgd1na2vs0mg"},{"bike_id":"f77bba92-4bd7-4b47-82bd-449cc86c42a5","system_id":"levelo_inurba_marseille","lat":43.32336,"lon":5.40629,"is_reserved":false,"is_disabled":false,"rental_uris":{"android":"levelo://app?vid=f77bba92-4bd7-4b47-82bd-449cc86c42a5","ios":"levelo://app?vid=f77bba92-4bd7-4b47-82bd-449cc86c42a5"},"vehicle_type_id":"4","last_reported":1737420208,"current_range_meters":34000,"station_id":"ce4bhq92rcd13ifvqhjg","pricing_plan_id":"cebpf4jnsgd1na2vs0mg"},{"bike_id":"f1f5e33d-2d8c-4533-8e21-efc4c8a6790b","system_id":"levelo_inurba_marseille","lat":43.28466,"lon":5.39213,"is_reserved":false,"is_disabled":false,"rental_uris":{"android":"levelo://app?vid=f1f5e33d-2d8c-4533-8e21-efc4c8a6790b","ios":"levelo://app?vid=f1f5e33d-2d8c-4533-8e21-efc4c8a6790b"},"vehicle_type_id":"4","last_reported":1737420208,"current_range_meters":38800,"station_id":"ce4bhoh2rcd13ifvqh5g","pricing_plan_id":"cebpf4jnsgd1na2vs0mg"},{"bike_id":"a36b9fb5-2bd8-4acb-a1f7-387150f52ee2","system_id":"levelo_inurba_marseille","lat":43.28854,"lon":5.3585,"is_reserved":false,"is_disabled":false,"rental_uris":{"android":"levelo://app?vid=a36b9fb5-2bd8-4acb-a1f7-387150f52ee2","ios":"levelo://app?vid=a36b9fb5-2bd8-4acb-a1f7-387150f52ee2"},"vehicle_type_id":"4","last_reported":1737420208,"current_range_meters":38800,"station_id":"ce4bhb12rcd13ifvqem0","pricing_plan_id":"cebpf4jnsgd1na2vs0mg"},{"bike_id":"8d392e92-e3c9-4e4d-9d12-6b9a7a4ebd37","system_id":"levelo_inurba_marseille","lat":43.29793,"lon":5.37092,"is_reserved":false,"is_disabled":false,"rental_uris":{"android":"levelo://app?vid=8d392e92-e3c9-4e4d-9d12-6b9a7a4ebd37","ios":"levelo://app?vid=8d392e92-e3c9-4e4d-9d12-6b9a7a4ebd37"},"vehicle_type_id":"4","last_reported":1737420208,"current_range_meters":38800,"station_id":"ce4bgop2rcd13ifvqc1g","pricing_plan_id":"cebpf4jnsgd1na2vs0mg"},{"bike_id":"218637f8-c406-4114-98c5-7ae81f36ee0c","system_id":"levelo_inurba_marseille","lat":43.308023,"lon":5.435193,"is_reserved":false,"is_disabled":false,"rental_uris":{"android":"levelo://app?vid=218637f8-c406-4114-98c5-7ae81f36ee0c","ios":"levelo://app?vid=218637f8-c406-4114-98c5-7ae81f36ee0c"},"vehicle_type_id":"4","last_reported":1737420208,"current_range_meters":8000,"station_id":"ce4bhph2rcd13ifvqheg","pricing_plan_id":"cebpf4jnsgd1na2vs0mg"},{"bike_id":"e7ad8032-7d51-432d-8891-1b85f3e7060a","system_id":"levelo_inurba_marseille","lat":43.28038,"lon":5.36959,"is_reserved":false,"is_disabled":false,"rental_uris":{"android":"levelo://app?vid=e7ad8032-7d51-432d-8891-1b85f3e7060a","ios":"levelo://app?vid=e7ad8032-7d51-432d-8891-1b85f3e7060a"},"vehicle_type_id":"4","last_reported":1737420208,"current_range_meters":38400,"station_id":"ce4bha12rcd13ifvqef0","pricing_plan_id":"cebpf4jnsgd1na2vs0mg"},{"bike_id":"ad6c039d-169e-4be2-9f20-740d5f479877","system_id":"levelo_inurba_marseille","lat":43.2952,"lon":5.39024,"is_reserved":false,"is_disabled":false,"rental_uris":{"android":"levelo://app?vid=ad6c039d-169e-4be2-9f20-740d5f479877","ios":"levelo://app?vid=ad6c039d-169e-4be2-9f20-740d5f479877"},"vehicle_type_id":"4","last_reported":1737420208,"current_range_meters":39200,"station_id":"ce4bh3p2rcd13ifvqdp0","pricing_plan_id":"cebpf4jnsgd1na2vs0mg"},{"bike_id":"616d4f49-a5fd-43a7-9261-6729c7c62b8d","system_id":"levelo_inurba_marseille","lat":43.2985,"lon":5.39749,"is_reserved":false,"is_disabled":false,"rental_uris":{"android":"levelo://app?vid=616d4f49-a5fd-43a7-9261-6729c7c62b8d","ios":"levelo://app?vid=616d4f49-a5fd-43a7-9261-6729c7c62b8d"},"vehicle_type_id":"4","last_reported":1737420208,"current_range_meters":38800,"station_id":"ce4bh0h2rcd13ifvqd50","pricing_plan_id":"cebpf4jnsgd1na2vs0mg"},{"bike_id":"7d66cfb3-253d-46b0-a9fd-85d682087893","system_id":"levelo_inurba_marseille","lat":43.27835,"lon":5.39201,"is_reserved":false,"is_disabled":false,"rental_uris":{"android":"levelo://app?vid=7d66cfb3-253d-46b0-a9fd-85d682087893","ios":"levelo://app?vid=7d66cfb3-253d-46b0-a9fd-85d682087893"},"vehicle_type_id":"4","last_reported":1737420208,"current_range_meters":37600,"station_id":"ce4bhjp2rcd13ifvqga0","pricing_plan_id":"cebpf4jnsgd1na2vs0mg"},{"bike_id":"724cc43c-9f87-4afe-ac3d-7d41bc77c0b1","system_id":"levelo_inurba_marseille","lat":43.29054,"lon":5.35926,"is_reserved":false,"is_disabled":false,"rental_uris":{"android":"levelo://app?vid=724cc43c-9f87-4afe-ac3d-7d41bc77c0b1","ios":"levelo://app?vid=724cc43c-9f87-4afe-ac3d-7d41bc77c0b1"},"vehicle_type_id":"4","last_reported":1737420208,"current_range_meters":38800,"station_id":"ce4bha92rcd13ifvqeg0","pricing_plan_id":"cebpf4jnsgd1na2vs0mg"},{"bike_id":"073054fd-5e5e-4a98-93b8-55eb0705addf","system_id":"levelo_inurba_marseille","lat":43.29369,"lon":5.37844,"is_reserved":false,"is_disabled":false,"rental_uris":{"android":"levelo://app?vid=073054fd-5e5e-4a98-93b8-55eb0705addf","ios":"levelo://app?vid=073054fd-5e5e-4a98-93b8-55eb0705addf"},"vehicle_type_id":"4","last_reported":1737420208,"current_range_meters":30800,"station_id":"ce4bgjh2rcd13ifvqbf0","pricing_plan_id":"cebpf4jnsgd1na2vs0mg"},{"bike_id":"6d06bc90-1d32-4516-9bc9-b423317e82c4","system_id":"levelo_inurba_marseille","lat":43.31707,"lon":5.37765,"is_reserved":false,"is_disabled":true,"rental_uris":{"android":"levelo://app?vid=6d06bc90-1d32-4516-9bc9-b423317e82c4","ios":"levelo://app?vid=6d06bc90-1d32-4516-9bc9-b423317e82c4"},"vehicle_type_id":"4","last_reported":1737420208,"current_range_meters":27200,"station_id":"ce4bgth2rcd13ifvqch0","pricing_plan_id":"cebpf4jnsgd1na2vs0mg"},{"bike_id":"5dabbcc7-853f-4c2e-8974-e24e536472db","system_id":"levelo_inurba_marseille","lat":43.27439,"lon":5.39387,"is_reserved":false,"is_disabled":false,"rental_uris":{"android":"levelo://app?vid=5dabbcc7-853f-4c2e-8974-e24e536472db","ios":"levelo://app?vid=5dabbcc7-853f-4c2e-8974-e24e536472db"},"vehicle_type_id":"4","last_reported":1737420208,"current_range_meters":38800,"station_id":"ce4bhdp2rcd13ifvqf20","pricing_plan_id":"cebpf4jnsgd1na2vs0mg"},{"bike_id":"8f40b4d3-558d-4013-95a2-48db973371af","system_id":"levelo_inurba_marseille","lat":43.28487,"lon":5.38453,"is_reserved":false,"is_disabled":false,"rental_uris":{"android":"levelo://app?vid=8f40b4d3-558d-4013-95a2-48db973371af","ios":"levelo://app?vid=8f40b4d3-558d-4013-95a2-48db973371af"},"vehicle_type_id":"4","last_reported":1737420208,"current_range_meters":14400,"station_id":"ce4bh512rcd13ifvqe3g","pricing_plan_id":"cebpf4jnsgd1na2vs0mg"},{"bike_id":"1dc37bf7-8f6f-45cf-988b-e29cb54fc0ad","system_id":"levelo_inurba_marseille","lat":43.286754,"lon":5.386764,"is_reserved":false,"is_disabled":false,"rental_uris":{"android":"levelo://app?vid=1dc37bf7-8f6f-45cf-988b-e29cb54fc0ad","ios":"levelo://app?vid=1dc37bf7-8f6f-45cf-988b-e29cb54fc0ad"},"vehicle_type_id":"4","last_reported":1737420208,"current_range_meters":37600,"station_id":"ce4bh492rcd13ifvqdug","pricing_plan_id":"cebpf4jnsgd1na2vs0mg"},{"bike_id":"b6cc31be-151e-4d56-8839-e71a9cd45b18","system_id":"levelo_inurba_marseille","lat":43.23182,"lon":5.35566,"is_reserved":false,"is_disabled":false,"rental_uris":{"android":"levelo://app?vid=b6cc31be-151e-4d56-8839-e71a9cd45b18","ios":"levelo://app?vid=b6cc31be-151e-4d56-8839-e71a9cd45b18"},"vehicle_type_id":"4","last_reported":1737420208,"current_range_meters":38800,"station_id":"ce4bhu92rcd13ifvqi70","pricing_plan_id":"cebpf4jnsgd1na2vs0mg"},{"bike_id":"4104cbba-088f-4383-b2a0-261d17699731","system_id":"levelo_inurba_marseille","lat":43.239646,"lon":5.366401,"is_reserved":false,"is_disabled":false,"rental_uris":{"android":"levelo://app?vid=4104cbba-088f-4383-b2a0-261d17699731","ios":"levelo://app?vid=4104cbba-088f-4383-b2a0-261d17699731"},"vehicle_type_id":"4","last_reported":1737420208,"current_range_meters":30000,"station_id":"ce4bhi12rcd13ifvqfp0","pricing_plan_id":"cebpf4jnsgd1na2vs0mg"},{"bike_id":"28bc3cb4-2612-400a-83bf-7b03d2d7e732","system_id":"levelo_inurba_marseille","lat":43.25122,"lon":5.40313,"is_reserved":false,"is_disabled":false,"rental_uris":{"android":"levelo://app?vid=28bc3cb4-2612-400a-83bf-7b03d2d7e732","ios":"levelo://app?vid=28bc3cb4-2612-400a-83bf-7b03d2d7e732"},"vehicle_type_id":"4","last_reported":1737420208,"current_range_meters":17200,"station_id":"ce4bhlh2rcd13ifvqgig","pricing_plan_id":"cebpf4jnsgd1na2vs0mg"},{"bike_id":"d45376d5-97b9-4926-ac67-381cc768c519","system_id":"levelo_inurba_marseille","lat":43.29799,"lon":5.40404,"is_reserved":false,"is_disabled":false,"rental_uris":{"android":"levelo://app?vid=d45376d5-97b9-4926-ac67-381cc768c519","ios":"levelo://app?vid=d45376d5-97b9-4926-ac67-381cc768c519"},"vehicle_type_id":"4","last_reported":1737420208,"current_range_meters":36000,"station_id":"ce4bh112rcd13ifvqd90","pricing_plan_id":"cebpf4jnsgd1na2vs0mg"},{"bike_id":"e769477c-b503-4bb8-b7d3-b7f7ff9ddf2d","system_id":"levelo_inurba_marseille","lat":43.29219,"lon":5.36902,"is_reserved":false,"is_disabled":false,"rental_uris":{"android":"levelo://app?vid=e769477c-b503-4bb8-b7d3-b7f7ff9ddf2d","ios":"levelo://app?vid=e769477c-b503-4bb8-b7d3-b7f7ff9ddf2d"},"vehicle_type_id":"4","last_reported":1737420208,"current_range_meters":12400,"station_id":"","pricing_plan_id":"cebpf4jnsgd1na2vs0mg"},{"bike_id":"28ef1c1e-dd89-43e8-817b-9b489831397b","system_id":"levelo_inurba_marseille","lat":43.271165,"lon":5.396092,"is_reserved":false,"is_disabled":true,"rental_uris":{"android":"levelo://app?vid=28ef1c1e-dd89-43e8-817b-9b489831397b","ios":"levelo://app?vid=28ef1c1e-dd89-43e8-817b-9b489831397b"},"vehicle_type_id":"4","last_reported":1737420208,"current_range_meters":0,"station_id":"","pricing_plan_id":"cebpf4jnsgd1na2vs0mg"},{"bike_id":"776f7a4d-f452-49fc-8e87-1dac725c40a0","system_id":"levelo_inurba_marseille","lat":43.24185,"lon":5.39731,"is_reserved":false,"is_disabled":false,"rental_uris":{"android":"levelo://app?vid=776f7a4d-f452-49fc-8e87-1dac725c40a0","ios":"levelo://app?vid=776f7a4d-f452-49fc-8e87-1dac725c40a0"},"vehicle_type_id":"4","last_reported":1737420208,"current_range_meters":36000,"station_id":"ce4bhn12rcd13ifvqgpg","pricing_plan_id":"cebpf4jnsgd1na2vs0mg"},{"bike_id":"ef9f5283-1c36-47ba-ba58-583e077e7770","system_id":"levelo_inurba_marseille","lat":43.23214,"lon":5.39988,"is_reserved":false,"is_disabled":false,"rental_uris":{"android":"levelo://app?vid=ef9f5283-1c36-47ba-ba58-583e077e7770","ios":"levelo://app?vid=ef9f5283-1c36-47ba-ba58-583e077e7770"},"vehicle_type_id":"4","last_reported":1737420208,"current_range_meters":39200,"station_id":"ce4bhn12rcd13ifvqgqg","pricing_plan_id":"cebpf4jnsgd1na2vs0mg"},{"bike_id":"973357c8-dead-42ca-92e9-500225bc994c","system_id":"levelo_inurba_marseille","lat":43.330208,"lon":5.390444,"is_reserved":false,"is_disabled":false,"rental_uris":{"android":"levelo://app?vid=973357c8-dead-42ca-92e9-500225bc994c","ios":"levelo://app?vid=973357c8-dead-42ca-92e9-500225bc994c"},"vehicle_type_id":"4","last_reported":1737420208,"current_range_meters":39200,"station_id":"ce4bhr92rcd13ifvqhrg","pricing_plan_id":"cebpf4jnsgd1na2vs0mg"},{"bike_id":"156ad80c-63be-4203-86af-9e373a3a959a","system_id":"levelo_inurba_marseille","lat":43.286677,"lon":5.363473,"is_reserved":false,"is_disabled":false,"rental_uris":{"android":"levelo://app?vid=156ad80c-63be-4203-86af-9e373a3a959a","ios":"levelo://app?vid=156ad80c-63be-4203-86af-9e373a3a959a"},"vehicle_type_id":"4","last_reported":1737420208,"current_range_meters":37600,"station_id":"ce4bhah2rcd13ifvqej0","pricing_plan_id":"cebpf4jnsgd1na2vs0mg"},{"bike_id":"0819d272-57a1-4229-b5b1-2e5abe9114be","system_id":"levelo_inurba_marseille","lat":43.30456,"lon":5.38884,"is_reserved":false,"is_disabled":false,"rental_uris":{"android":"levelo://app?vid=0819d272-57a1-4229-b5b1-2e5abe9114be","ios":"levelo://app?vid=0819d272-57a1-4229-b5b1-2e5abe9114be"},"vehicle_type_id":"4","last_reported":1737420208,"current_range_meters":12000,"station_id":"ce4bgk12rcd13ifvqbi0","pricing_plan_id":"cebpf4jnsgd1na2vs0mg"},{"bike_id":"1b1bb88d-f87c-46f1-a1e5-c09d43bc7504","system_id":"levelo_inurba_marseille","lat":43.29801,"lon":5.37036,"is_reserved":false,"is_disabled":false,"rental_uris":{"android":"levelo://app?vid=1b1bb88d-f87c-46f1-a1e5-c09d43bc7504","ios":"levelo://app?vid=1b1bb88d-f87c-46f1-a1e5-c09d43bc7504"},"vehicle_type_id":"4","last_reported":1737420208,"current_range_meters":11600,"station_id":"ce4bgop2rcd13ifvqc1g","pricing_plan_id":"cebpf4jnsgd1na2vs0mg"},{"bike_id":"5fa49ac5-f5fb-407d-9f73-7837cb4b4991","system_id":"levelo_inurba_marseille","lat":43.28614,"lon":5.35104,"is_reserved":false,"is_disabled":false,"rental_uris":{"android":"levelo://app?vid=5fa49ac5-f5fb-407d-9f73-7837cb4b4991","ios":"levelo://app?vid=5fa49ac5-f5fb-407d-9f73-7837cb4b4991"},"vehicle_type_id":"4","last_reported":1737420208,"current_range_meters":32800,"station_id":"ce4bhch2rcd13ifvqeug","pricing_plan_id":"cebpf4jnsgd1na2vs0mg"},{"bike_id":"4a61c313-14d2-4abc-89d4-a7e228d4ddd4","system_id":"levelo_inurba_marseille","lat":43.308017,"lon":5.381553,"is_reserved":false,"is_disabled":false,"rental_uris":{"android":"levelo://app?vid=4a61c313-14d2-4abc-89d4-a7e228d4ddd4","ios":"levelo://app?vid=4a61c313-14d2-4abc-89d4-a7e228d4ddd4"},"vehicle_type_id":"4","last_reported":1737420208,"current_range_meters":25200,"station_id":"ce4bgt12rcd13ifvqce0","pricing_plan_id":"cebpf4jnsgd1na2vs0mg"},{"bike_id":"f476d878-7cd0-4f0c-8ec2-9d9f08b67a27","system_id":"levelo_inurba_marseille","lat":43.31283,"lon":5.40159,"is_reserved":false,"is_disabled":false,"rental_uris":{"android":"levelo://app?vid=f476d878-7cd0-4f0c-8ec2-9d9f08b67a27","ios":"levelo://app?vid=f476d878-7cd0-4f0c-8ec2-9d9f08b67a27"},"vehicle_type_id":"4","last_reported":1737420208,"current_range_meters":38400,"station_id":"ce4bh092rcd13ifvqd30","pricing_plan_id":"cebpf4jnsgd1na2vs0mg"},{"bike_id":"30a9705f-1cf5-434a-9b8c-a71e5c229e93","system_id":"levelo_inurba_marseille","lat":43.30857,"lon":5.39628,"is_reserved":false,"is_disabled":false,"rental_uris":{"android":"levelo://app?vid=30a9705f-1cf5-434a-9b8c-a71e5c229e93","ios":"levelo://app?vid=30a9705f-1cf5-434a-9b8c-a71e5c229e93"},"vehicle_type_id":"4","last_reported":1737420208,"current_range_meters":26000,"station_id":"","pricing_plan_id":"cebpf4jnsgd1na2vs0mg"},{"bike_id":"dd35f002-39c9-4904-b3f3-4dd627dfaabd","system_id":"levelo_inurba_marseille","lat":43.29614,"lon":5.40614,"is_reserved":false,"is_disabled":false,"rental_uris":{"android":"levelo://app?vid=dd35f002-39c9-4904-b3f3-4dd627dfaabd","ios":"levelo://app?vid=dd35f002-39c9-4904-b3f3-4dd627dfaabd"},"vehicle_type_id":"4","last_reported":1737420208,"current_range_meters":37600,"station_id":"ce4bh0h2rcd13ifvqd60","pricing_plan_id":"cebpf4jnsgd1na2vs0mg"},{"bike_id":"0ec67957-cf9a-485c-9a8b-aa729d02d428","system_id":"levelo_inurba_marseille","lat":43.29478,"lon":5.39059,"is_reserved":false,"is_disabled":false,"rental_uris":{"android":"levelo://app?vid=0ec67957-cf9a-485c-9a8b-aa729d02d428","ios":"levelo://app?vid=0ec67957-cf9a-485c-9a8b-aa729d02d428"},"vehicle_type_id":"4","last_reported":1737420208,"current_range_meters":38800,"station_id":"ce4bh3p2rcd13ifvqdp0","pricing_plan_id":"cebpf4jnsgd1na2vs0mg"},{"bike_id":"6f721f60-f1dd-4b12-b0b1-36f543f4856a","system_id":"levelo_inurba_marseille","lat":43.306,"lon":5.37227,"is_reserved":false,"is_disabled":false,"rental_uris":{"android":"levelo://app?vid=6f721f60-f1dd-4b12-b0b1-36f543f4856a","ios":"levelo://app?vid=6f721f60-f1dd-4b12-b0b1-36f543f4856a"},"vehicle_type_id":"4","last_reported":1737420208,"current_range_meters":37600,"station_id":"ce4bgqh2rcd13ifvqc4g","pricing_plan_id":"cebpf4jnsgd1na2vs0mg"},{"bike_id":"e7030034-320d-4608-a776-a72500cf3c13","system_id":"levelo_inurba_marseille","lat":43.3032,"lon":5.40457,"is_reserved":false,"is_disabled":false,"rental_uris":{"android":"levelo://app?vid=e7030034-320d-4608-a776-a72500cf3c13","ios":"levelo://app?vid=e7030034-320d-4608-a776-a72500cf3c13"},"vehicle_type_id":"4","last_reported":1737420208,"current_range_meters":35600,"station_id":"ce4bh012rcd13ifvqd10","pricing_plan_id":"cebpf4jnsgd1na2vs0mg"},{"bike_id":"01a07bd9-36a1-4c19-a88b-7c9e3a6ee490","system_id":"levelo_inurba_marseille","lat":43.25097,"lon":5.39521,"is_reserved":false,"is_disabled":false,"rental_uris":{"android":"levelo://app?vid=01a07bd9-36a1-4c19-a88b-7c9e3a6ee490","ios":"levelo://app?vid=01a07bd9-36a1-4c19-a88b-7c9e3a6ee490"},"vehicle_type_id":"4","last_reported":1737420208,"current_range_meters":27600,"station_id":"ce4bhm12rcd13ifvqgkg","pricing_plan_id":"cebpf4jnsgd1na2vs0mg"},{"bike_id":"30868fb9-be18-4137-b148-fea1b914be52","system_id":"levelo_inurba_marseille","lat":43.28002,"lon":5.40011,"is_reserved":false,"is_disabled":false,"rental_uris":{"android":"levelo://app?vid=30868fb9-be18-4137-b148-fea1b914be52","ios":"levelo://app?vid=30868fb9-be18-4137-b148-fea1b914be52"},"vehicle_type_id":"4","last_reported":1737420208,"current_range_meters":35600,"station_id":"ce4bho92rcd13ifvqh4g","pricing_plan_id":"cebpf4jnsgd1na2vs0mg"},{"bike_id":"77ff5724-d727-4cb9-9e22-72b1fa336373","system_id":"levelo_inurba_marseille","lat":43.23061,"lon":5.35502,"is_reserved":false,"is_disabled":false,"rental_uris":{"android":"levelo://app?vid=77ff5724-d727-4cb9-9e22-72b1fa336373","ios":"levelo://app?vid=77ff5724-d727-4cb9-9e22-72b1fa336373"},"vehicle_type_id":"4","last_reported":1737420208,"current_range_meters":10800,"station_id":"cpo3342slgdg3j2ifvpg","pricing_plan_id":"cebpf4jnsgd1na2vs0mg"},{"bike_id":"ec46ee25-07c5-496b-970c-cee81379a2ba","system_id":"levelo_inurba_marseille","lat":43.24658,"lon":5.38897,"is_reserved":false,"is_disabled":false,"rental_uris":{"android":"levelo://app?vid=ec46ee25-07c5-496b-970c-cee81379a2ba","ios":"levelo://app?vid=ec46ee25-07c5-496b-970c-cee81379a2ba"},"vehicle_type_id":"4","last_reported":1737420208,"current_range_meters":38000,"station_id":"ce4bhg12rcd13ifvqf60","pricing_plan_id":"cebpf4jnsgd1na2vs0mg"},{"bike_id":"eea8cce1-0cdb-4f88-94ca-e58ea7e3d2e7","system_id":"levelo_inurba_marseille","lat":43.27972,"lon":5.38709,"is_reserved":false,"is_disabled":false,"rental_uris":{"android":"levelo://app?vid=eea8cce1-0cdb-4f88-94ca-e58ea7e3d2e7","ios":"levelo://app?vid=eea8cce1-0cdb-4f88-94ca-e58ea7e3d2e7"},"vehicle_type_id":"4","last_reported":1737420208,"current_range_meters":36000,"station_id":"ce4bhg12rcd13ifvqf80","pricing_plan_id":"cebpf4jnsgd1na2vs0mg"},{"bike_id":"e9dd2133-923f-488a-8f8f-c7bddf3f0b40","system_id":"levelo_inurba_marseille","lat":43.28459,"lon":5.35887,"is_reserved":false,"is_disabled":false,"rental_uris":{"android":"levelo://app?vid=e9dd2133-923f-488a-8f8f-c7bddf3f0b40","ios":"levelo://app?vid=e9dd2133-923f-488a-8f8f-c7bddf3f0b40"},"vehicle_type_id":"4","last_reported":1737420208,"current_range_meters":27600,"station_id":"ce4bhah2rcd13ifvqei0","pricing_plan_id":"cebpf4jnsgd1na2vs0mg"},{"bike_id":"ef00dd28-9ff7-4102-a96b-f3c8768f47ca","system_id":"levelo_inurba_marseille","lat":43.28102,"lon":5.37842,"is_reserved":false,"is_disabled":false,"rental_uris":{"android":"levelo://app?vid=ef00dd28-9ff7-4102-a96b-f3c8768f47ca","ios":"levelo://app?vid=ef00dd28-9ff7-4102-a96b-f3c8768f47ca"},"vehicle_type_id":"4","last_reported":1737420208,"current_range_meters":38000,"station_id":"ce4bha12rcd13ifvqee0","pricing_plan_id":"cebpf4jnsgd1na2vs0mg"},{"bike_id":"3f73cdce-5679-4f8e-bdfa-397be04d5b8c","system_id":"levelo_inurba_marseille","lat":43.2952,"lon":5.39024,"is_reserved":false,"is_disabled":false,"rental_uris":{"android":"levelo://app?vid=3f73cdce-5679-4f8e-bdfa-397be04d5b8c","ios":"levelo://app?vid=3f73cdce-5679-4f8e-bdfa-397be04d5b8c"},"vehicle_type_id":"4","last_reported":1737420208,"current_range_meters":36800,"station_id":"ce4bh3p2rcd13ifvqdp0","pricing_plan_id":"cebpf4jnsgd1na2vs0mg"},{"bike_id":"be6540b7-7d75-4ee5-9d69-49255103c2e1","system_id":"levelo_inurba_marseille","lat":43.28694,"lon":5.374,"is_reserved":false,"is_disabled":false,"rental_uris":{"android":"levelo://app?vid=be6540b7-7d75-4ee5-9d69-49255103c2e1","ios":"levelo://app?vid=be6540b7-7d75-4ee5-9d69-49255103c2e1"},"vehicle_type_id":"4","last_reported":1737420208,"current_range_meters":22800,"station_id":"ce4bh3p2rcd13ifvqdq0","pricing_plan_id":"cebpf4jnsgd1na2vs0mg"},{"bike_id":"2fe00ee8-6da5-45f1-b974-c51928fce30d","system_id":"levelo_inurba_marseille","lat":43.25671,"lon":5.4106,"is_reserved":false,"is_disabled":false,"rental_uris":{"android":"levelo://app?vid=2fe00ee8-6da5-45f1-b974-c51928fce30d","ios":"levelo://app?vid=2fe00ee8-6da5-45f1-b974-c51928fce30d"},"vehicle_type_id":"4","last_reported":1737420208,"current_range_meters":38800,"station_id":"ce4bhkp2rcd13ifvqgd0","pricing_plan_id":"cebpf4jnsgd1na2vs0mg"},{"bike_id":"49cdd9d0-bce7-4168-b807-5a16c335f2c6","system_id":"levelo_inurba_marseille","lat":43.284578,"lon":5.35885,"is_reserved":false,"is_disabled":false,"rental_uris":{"android":"levelo://app?vid=49cdd9d0-bce7-4168-b807-5a16c335f2c6","ios":"levelo://app?vid=49cdd9d0-bce7-4168-b807-5a16c335f2c6"},"vehicle_type_id":"4","last_reported":1737420208,"current_range_meters":37600,"station_id":"ce4bhah2rcd13ifvqei0","pricing_plan_id":"cebpf4jnsgd1na2vs0mg"},{"bike_id":"7f095a12-4f92-4659-8967-ab82406b1c77","system_id":"levelo_inurba_marseille","lat":43.23218,"lon":5.39942,"is_reserved":false,"is_disabled":false,"rental_uris":{"android":"levelo://app?vid=7f095a12-4f92-4659-8967-ab82406b1c77","ios":"levelo://app?vid=7f095a12-4f92-4659-8967-ab82406b1c77"},"vehicle_type_id":"4","last_reported":1737420208,"current_range_meters":39200,"station_id":"ce4bhn12rcd13ifvqgqg","pricing_plan_id":"cebpf4jnsgd1na2vs0mg"},{"bike_id":"aa720aaf-80a4-4d1e-a239-c9eefeb2c46d","system_id":"levelo_inurba_marseille","lat":43.30366,"lon":5.41878,"is_reserved":false,"is_disabled":false,"rental_uris":{"android":"levelo://app?vid=aa720aaf-80a4-4d1e-a239-c9eefeb2c46d","ios":"levelo://app?vid=aa720aaf-80a4-4d1e-a239-c9eefeb2c46d"},"vehicle_type_id":"4","last_reported":1737420208,"current_range_meters":38000,"station_id":"ce4bhop2rcd13ifvqh7g","pricing_plan_id":"cebpf4jnsgd1na2vs0mg"},{"bike_id":"5d54aab2-88c1-48af-a910-7cc379c457ee","system_id":"levelo_inurba_marseille","lat":43.2888,"lon":5.35836,"is_reserved":false,"is_disabled":false,"rental_uris":{"android":"levelo://app?vid=5d54aab2-88c1-48af-a910-7cc379c457ee","ios":"levelo://app?vid=5d54aab2-88c1-48af-a910-7cc379c457ee"},"vehicle_type_id":"4","last_reported":1737420208,"current_range_meters":38800,"station_id":"ce4bhb12rcd13ifvqem0","pricing_plan_id":"cebpf4jnsgd1na2vs0mg"},{"bike_id":"76fc3200-f33f-4190-ae84-57b96cd0c3c7","system_id":"levelo_inurba_marseille","lat":43.24803,"lon":5.37452,"is_reserved":false,"is_disabled":false,"rental_uris":{"android":"levelo://app?vid=76fc3200-f33f-4190-ae84-57b96cd0c3c7","ios":"levelo://app?vid=76fc3200-f33f-4190-ae84-57b96cd0c3c7"},"vehicle_type_id":"4","last_reported":1737420208,"current_range_meters":38800,"station_id":"ce4bhgh2rcd13ifvqfb0","pricing_plan_id":"cebpf4jnsgd1na2vs0mg"},{"bike_id":"06d7b650-1ece-4daf-acd1-ba5375622409","system_id":"levelo_inurba_marseille","lat":43.29512,"lon":5.39045,"is_reserved":false,"is_disabled":false,"rental_uris":{"android":"levelo://app?vid=06d7b650-1ece-4daf-acd1-ba5375622409","ios":"levelo://app?vid=06d7b650-1ece-4daf-acd1-ba5375622409"},"vehicle_type_id":"4","last_reported":1737420208,"current_range_meters":37600,"station_id":"ce4bh3p2rcd13ifvqdp0","pricing_plan_id":"cebpf4jnsgd1na2vs0mg"},{"bike_id":"f4769da4-49a1-4f09-884e-dbb121e5aacd","system_id":"levelo_inurba_marseille","lat":43.28166,"lon":5.42636,"is_reserved":false,"is_disabled":false,"rental_uris":{"android":"levelo://app?vid=f4769da4-49a1-4f09-884e-dbb121e5aacd","ios":"levelo://app?vid=f4769da4-49a1-4f09-884e-dbb121e5aacd"},"vehicle_type_id":"4","last_reported":1737420208,"current_range_meters":33200,"station_id":"ce4bhnh2rcd13ifvqgug","pricing_plan_id":"cebpf4jnsgd1na2vs0mg"},{"bike_id":"eaa638d9-7e2e-43a0-989a-f3e72ed09d7b","system_id":"levelo_inurba_marseille","lat":43.27889,"lon":5.37995,"is_reserved":false,"is_disabled":false,"rental_uris":{"android":"levelo://app?vid=eaa638d9-7e2e-43a0-989a-f3e72ed09d7b","ios":"levelo://app?vid=eaa638d9-7e2e-43a0-989a-f3e72ed09d7b"},"vehicle_type_id":"4","last_reported":1737420208,"current_range_meters":28400,"station_id":"ce4bhf92rcd13ifvqf50","pricing_plan_id":"cebpf4jnsgd1na2vs0mg"},{"bike_id":"4c707804-82f9-40c7-bd5a-c2828deb4c32","system_id":"levelo_inurba_marseille","lat":43.31166,"lon":5.38705,"is_reserved":false,"is_disabled":false,"rental_uris":{"android":"levelo://app?vid=4c707804-82f9-40c7-bd5a-c2828deb4c32","ios":"levelo://app?vid=4c707804-82f9-40c7-bd5a-c2828deb4c32"},"vehicle_type_id":"4","last_reported":1737420208,"current_range_meters":37600,"station_id":"ce4bgv12rcd13ifvqcp0","pricing_plan_id":"cebpf4jnsgd1na2vs0mg"},{"bike_id":"9a29d2fd-f204-4cd2-8075-881b8211a878","system_id":"levelo_inurba_marseille","lat":43.280758,"lon":5.396558,"is_reserved":false,"is_disabled":false,"rental_uris":{"android":"levelo://app?vid=9a29d2fd-f204-4cd2-8075-881b8211a878","ios":"levelo://app?vid=9a29d2fd-f204-4cd2-8075-881b8211a878"},"vehicle_type_id":"4","last_reported":1737420208,"current_range_meters":27600,"station_id":"ce4bho12rcd13ifvqh2g","pricing_plan_id":"cebpf4jnsgd1na2vs0mg"},{"bike_id":"4e004fb1-e426-458a-a785-f1c5b03c515a","system_id":"levelo_inurba_marseille","lat":43.287058,"lon":5.399868,"is_reserved":false,"is_disabled":false,"rental_uris":{"android":"levelo://app?vid=4e004fb1-e426-458a-a785-f1c5b03c515a","ios":"levelo://app?vid=4e004fb1-e426-458a-a785-f1c5b03c515a"},"vehicle_type_id":"4","last_reported":1737420208,"current_range_meters":38800,"station_id":"ce4bho92rcd13ifvqh3g","pricing_plan_id":"cebpf4jnsgd1na2vs0mg"},{"bike_id":"6909e9ee-c3d1-4d8d-b1d7-5a03148e19f1","system_id":"levelo_inurba_marseille","lat":43.27997,"lon":5.40006,"is_reserved":false,"is_disabled":false,"rental_uris":{"android":"levelo://app?vid=6909e9ee-c3d1-4d8d-b1d7-5a03148e19f1","ios":"levelo://app?vid=6909e9ee-c3d1-4d8d-b1d7-5a03148e19f1"},"vehicle_type_id":"4","last_reported":1737420208,"current_range_meters":34000,"station_id":"ce4bho92rcd13ifvqh4g","pricing_plan_id":"cebpf4jnsgd1na2vs0mg"},{"bike_id":"80bcc3e7-77de-44a5-8965-f19acb6d7452","system_id":"levelo_inurba_marseille","lat":43.330229,"lon":5.39041,"is_reserved":false,"is_disabled":false,"rental_uris":{"android":"levelo://app?vid=80bcc3e7-77de-44a5-8965-f19acb6d7452","ios":"levelo://app?vid=80bcc3e7-77de-44a5-8965-f19acb6d7452"},"vehicle_type_id":"4","last_reported":1737420208,"current_range_meters":39200,"station_id":"ce4bhr92rcd13ifvqhrg","pricing_plan_id":"cebpf4jnsgd1na2vs0mg"},{"bike_id":"dcda65e2-f8e1-4db2-80d2-ac1e7c6ed43f","system_id":"levelo_inurba_marseille","lat":43.30801,"lon":5.38157,"is_reserved":false,"is_disabled":false,"rental_uris":{"android":"levelo://app?vid=dcda65e2-f8e1-4db2-80d2-ac1e7c6ed43f","ios":"levelo://app?vid=dcda65e2-f8e1-4db2-80d2-ac1e7c6ed43f"},"vehicle_type_id":"4","last_reported":1737420208,"current_range_meters":34000,"station_id":"ce4bgt12rcd13ifvqce0","pricing_plan_id":"cebpf4jnsgd1na2vs0mg"},{"bike_id":"2e52a33e-99e9-49f6-85c9-ec26006a5d2d","system_id":"levelo_inurba_marseille","lat":43.30586,"lon":5.39349,"is_reserved":false,"is_disabled":false,"rental_uris":{"android":"levelo://app?vid=2e52a33e-99e9-49f6-85c9-ec26006a5d2d","ios":"levelo://app?vid=2e52a33e-99e9-49f6-85c9-ec26006a5d2d"},"vehicle_type_id":"4","last_reported":1737420208,"current_range_meters":24400,"station_id":"ce4bh0p2rcd13ifvqd80","pricing_plan_id":"cebpf4jnsgd1na2vs0mg"},{"bike_id":"5c647c6a-f36f-4ac4-a081-cf09345ba7c6","system_id":"levelo_inurba_marseille","lat":43.25861,"lon":5.39905,"is_reserved":false,"is_disabled":false,"rental_uris":{"android":"levelo://app?vid=5c647c6a-f36f-4ac4-a081-cf09345ba7c6","ios":"levelo://app?vid=5c647c6a-f36f-4ac4-a081-cf09345ba7c6"},"vehicle_type_id":"4","last_reported":1737420208,"current_range_meters":38800,"station_id":"ce4bhl92rcd13ifvqghg","pricing_plan_id":"cebpf4jnsgd1na2vs0mg"},{"bike_id":"fecdf35a-1464-4217-ba93-ef7c6566c9ce","system_id":"levelo_inurba_marseille","lat":43.282637,"lon":5.350696,"is_reserved":false,"is_disabled":false,"rental_uris":{"android":"levelo://app?vid=fecdf35a-1464-4217-ba93-ef7c6566c9ce","ios":"levelo://app?vid=fecdf35a-1464-4217-ba93-ef7c6566c9ce"},"vehicle_type_id":"4","last_reported":1737420208,"current_range_meters":28400,"station_id":"ce4bhbp2rcd13ifvqerg","pricing_plan_id":"cebpf4jnsgd1na2vs0mg"},{"bike_id":"c777044a-a5b8-4f74-909a-f584e9be19a8","system_id":"levelo_inurba_marseille","lat":43.26559,"lon":5.39047,"is_reserved":false,"is_disabled":false,"rental_uris":{"android":"levelo://app?vid=c777044a-a5b8-4f74-909a-f584e9be19a8","ios":"levelo://app?vid=c777044a-a5b8-4f74-909a-f584e9be19a8"},"vehicle_type_id":"4","last_reported":1737420208,"current_range_meters":28400,"station_id":"ce4bhe12rcd13ifvqf30","pricing_plan_id":"cebpf4jnsgd1na2vs0mg"},{"bike_id":"d28024cc-129a-417d-96b5-73626aa40eb5","system_id":"levelo_inurba_marseille","lat":43.29023,"lon":5.38659,"is_reserved":false,"is_disabled":false,"rental_uris":{"android":"levelo://app?vid=d28024cc-129a-417d-96b5-73626aa40eb5","ios":"levelo://app?vid=d28024cc-129a-417d-96b5-73626aa40eb5"},"vehicle_type_id":"4","last_reported":1737420208,"current_range_meters":14800,"station_id":"ce4bh4p2rcd13ifvqe0g","pricing_plan_id":"cebpf4jnsgd1na2vs0mg"},{"bike_id":"a8741c65-adc7-476f-bf86-1cf96d5d21fd","system_id":"levelo_inurba_marseille","lat":43.28416,"lon":5.37541,"is_reserved":false,"is_disabled":false,"rental_uris":{"android":"levelo://app?vid=a8741c65-adc7-476f-bf86-1cf96d5d21fd","ios":"levelo://app?vid=a8741c65-adc7-476f-bf86-1cf96d5d21fd"},"vehicle_type_id":"4","last_reported":1737420208,"current_range_meters":38800,"station_id":"ce4bh412rcd13ifvqds0","pricing_plan_id":"cebpf4jnsgd1na2vs0mg"},{"bike_id":"ef452395-3be9-454d-b5f5-c3f11f867018","system_id":"levelo_inurba_marseille","lat":43.31521,"lon":5.38063,"is_reserved":false,"is_disabled":false,"rental_uris":{"android":"levelo://app?vid=ef452395-3be9-454d-b5f5-c3f11f867018","ios":"levelo://app?vid=ef452395-3be9-454d-b5f5-c3f11f867018"},"vehicle_type_id":"4","last_reported":1737420208,"current_range_meters":32000,"station_id":"ce4bhsp2rcd13ifvqi50","pricing_plan_id":"cebpf4jnsgd1na2vs0mg"},{"bike_id":"b887ec45-2824-4a19-a327-1b38cefbc7dc","system_id":"levelo_inurba_marseille","lat":43.30914,"lon":5.36858,"is_reserved":false,"is_disabled":true,"rental_uris":{"android":"levelo://app?vid=b887ec45-2824-4a19-a327-1b38cefbc7dc","ios":"levelo://app?vid=b887ec45-2824-4a19-a327-1b38cefbc7dc"},"vehicle_type_id":"4","last_reported":1737420208,"current_range_meters":32400,"station_id":"ce4bgn92rcd13ifvqbvg","pricing_plan_id":"cebpf4jnsgd1na2vs0mg"},{"bike_id":"68e40f89-e6fb-4b2b-ac6f-49cf6a245ce1","system_id":"levelo_inurba_marseille","lat":43.251159,"lon":5.403197,"is_reserved":false,"is_disabled":false,"rental_uris":{"android":"levelo://app?vid=68e40f89-e6fb-4b2b-ac6f-49cf6a245ce1","ios":"levelo://app?vid=68e40f89-e6fb-4b2b-ac6f-49cf6a245ce1"},"vehicle_type_id":"4","last_reported":1737420208,"current_range_meters":30000,"station_id":"ce4bhlh2rcd13ifvqgig","pricing_plan_id":"cebpf4jnsgd1na2vs0mg"},{"bike_id":"41377ca0-a1f0-4559-b784-108df3d23a17","system_id":"levelo_inurba_marseille","lat":43.33608,"lon":5.41016,"is_reserved":false,"is_disabled":false,"rental_uris":{"android":"levelo://app?vid=41377ca0-a1f0-4559-b784-108df3d23a17","ios":"levelo://app?vid=41377ca0-a1f0-4559-b784-108df3d23a17"},"vehicle_type_id":"4","last_reported":1737420208,"current_range_meters":31200,"station_id":"ce4bhqh2rcd13ifvqhmg","pricing_plan_id":"cebpf4jnsgd1na2vs0mg"},{"bike_id":"4b344f4f-63b5-4284-b400-eb66c5cbadff","system_id":"levelo_inurba_marseille","lat":43.3129,"lon":5.40156,"is_reserved":false,"is_disabled":false,"rental_uris":{"android":"levelo://app?vid=4b344f4f-63b5-4284-b400-eb66c5cbadff","ios":"levelo://app?vid=4b344f4f-63b5-4284-b400-eb66c5cbadff"},"vehicle_type_id":"4","last_reported":1737420208,"current_range_meters":28000,"station_id":"ce4bh092rcd13ifvqd30","pricing_plan_id":"cebpf4jnsgd1na2vs0mg"},{"bike_id":"b39f6109-7f56-4b17-b737-eaa8ed0334b8","system_id":"levelo_inurba_marseille","lat":43.30462,"lon":5.3791,"is_reserved":false,"is_disabled":true,"rental_uris":{"android":"levelo://app?vid=b39f6109-7f56-4b17-b737-eaa8ed0334b8","ios":"levelo://app?vid=b39f6109-7f56-4b17-b737-eaa8ed0334b8"},"vehicle_type_id":"4","last_reported":1737420208,"current_range_meters":36800,"station_id":"ce4bgup2rcd13ifvqcn0","pricing_plan_id":"cebpf4jnsgd1na2vs0mg"},{"bike_id":"db9233a0-541f-470e-96f3-96db6f81cf0f","system_id":"levelo_inurba_marseille","lat":43.27812,"lon":5.40711,"is_reserved":false,"is_disabled":false,"rental_uris":{"android":"levelo://app?vid=db9233a0-541f-470e-96f3-96db6f81cf0f","ios":"levelo://app?vid=db9233a0-541f-470e-96f3-96db6f81cf0f"},"vehicle_type_id":"4","last_reported":1737420208,"current_range_meters":25200,"station_id":"ce4bhnh2rcd13ifvqgtg","pricing_plan_id":"cebpf4jnsgd1na2vs0mg"},{"bike_id":"fca9abe0-24b5-4252-ad2b-5d5e2a7f9797","system_id":"levelo_inurba_marseille","lat":43.29299,"lon":5.36874,"is_reserved":false,"is_disabled":false,"rental_uris":{"android":"levelo://app?vid=fca9abe0-24b5-4252-ad2b-5d5e2a7f9797","ios":"levelo://app?vid=fca9abe0-24b5-4252-ad2b-5d5e2a7f9797"},"vehicle_type_id":"4","last_reported":1737420208,"current_range_meters":30000,"station_id":"ce4bhbp2rcd13ifvqesg","pricing_plan_id":"cebpf4jnsgd1na2vs0mg"},{"bike_id":"a950e413-b77d-4b41-8f97-0834f313c21f","system_id":"levelo_inurba_marseille","lat":43.29922,"lon":5.37463,"is_reserved":false,"is_disabled":false,"rental_uris":{"android":"levelo://app?vid=a950e413-b77d-4b41-8f97-0834f313c21f","ios":"levelo://app?vid=a950e413-b77d-4b41-8f97-0834f313c21f"},"vehicle_type_id":"4","last_reported":1737420208,"current_range_meters":38400,"station_id":"ce4bgjh2rcd13ifvqbg0","pricing_plan_id":"cebpf4jnsgd1na2vs0mg"},{"bike_id":"08f67f24-9e69-4d0e-a5a0-2b30ac65212d","system_id":"levelo_inurba_marseille","lat":43.31328,"lon":5.39706,"is_reserved":false,"is_disabled":false,"rental_uris":{"android":"levelo://app?vid=08f67f24-9e69-4d0e-a5a0-2b30ac65212d","ios":"levelo://app?vid=08f67f24-9e69-4d0e-a5a0-2b30ac65212d"},"vehicle_type_id":"4","last_reported":1737420208,"current_range_meters":39200,"station_id":"ce4bgvp2rcd13ifvqcu0","pricing_plan_id":"cebpf4jnsgd1na2vs0mg"},{"bike_id":"ca297010-5c72-47d6-b03a-6ec90012fb07","system_id":"levelo_inurba_marseille","lat":43.26802,"lon":5.40281,"is_reserved":false,"is_disabled":false,"rental_uris":{"android":"levelo://app?vid=ca297010-5c72-47d6-b03a-6ec90012fb07","ios":"levelo://app?vid=ca297010-5c72-47d6-b03a-6ec90012fb07"},"vehicle_type_id":"4","last_reported":1737420208,"current_range_meters":11600,"station_id":"ce501612rcd8frsf0b60","pricing_plan_id":"cebpf4jnsgd1na2vs0mg"},{"bike_id":"0c741d55-e6bb-4be5-8dab-c41aff9bf1f7","system_id":"levelo_inurba_marseille","lat":43.28146,"lon":5.42654,"is_reserved":false,"is_disabled":false,"rental_uris":{"android":"levelo://app?vid=0c741d55-e6bb-4be5-8dab-c41aff9bf1f7","ios":"levelo://app?vid=0c741d55-e6bb-4be5-8dab-c41aff9bf1f7"},"vehicle_type_id":"4","last_reported":1737420208,"current_range_meters":38400,"station_id":"ce4bhnh2rcd13ifvqgug","pricing_plan_id":"cebpf4jnsgd1na2vs0mg"},{"bike_id":"c6235259-7780-4563-831e-5f71fd754b90","system_id":"levelo_inurba_marseille","lat":43.29252,"lon":5.40904,"is_reserved":false,"is_disabled":false,"rental_uris":{"android":"levelo://app?vid=c6235259-7780-4563-831e-5f71fd754b90","ios":"levelo://app?vid=c6235259-7780-4563-831e-5f71fd754b90"},"vehicle_type_id":"4","last_reported":1737420208,"current_range_meters":32400,"station_id":"ce4bh192rcd13ifvqdc0","pricing_plan_id":"cebpf4jnsgd1na2vs0mg"},{"bike_id":"de5adbf7-c4d4-49e3-ba68-72cc812f5662","system_id":"levelo_inurba_marseille","lat":43.29602,"lon":5.3772,"is_reserved":false,"is_disabled":true,"rental_uris":{"android":"levelo://app?vid=de5adbf7-c4d4-49e3-ba68-72cc812f5662","ios":"levelo://app?vid=de5adbf7-c4d4-49e3-ba68-72cc812f5662"},"vehicle_type_id":"4","last_reported":1737420208,"current_range_meters":38800,"station_id":"ce4bgi92rcd13ifvqb90","pricing_plan_id":"cebpf4jnsgd1na2vs0mg"},{"bike_id":"b697c026-1a3f-4173-8937-04c71439dde2","system_id":"levelo_inurba_marseille","lat":43.2978,"lon":5.39346,"is_reserved":false,"is_disabled":false,"rental_uris":{"android":"levelo://app?vid=b697c026-1a3f-4173-8937-04c71439dde2","ios":"levelo://app?vid=b697c026-1a3f-4173-8937-04c71439dde2"},"vehicle_type_id":"4","last_reported":1737420208,"current_range_meters":35600,"station_id":"chh1huq6cuj3fo74tm60","pricing_plan_id":"cebpf4jnsgd1na2vs0mg"},{"bike_id":"15e163a8-a719-47cc-8649-f9068b3f66eb","system_id":"levelo_inurba_marseille","lat":43.24672,"lon":5.38181,"is_reserved":false,"is_disabled":false,"rental_uris":{"android":"levelo://app?vid=15e163a8-a719-47cc-8649-f9068b3f66eb","ios":"levelo://app?vid=15e163a8-a719-47cc-8649-f9068b3f66eb"},"vehicle_type_id":"4","last_reported":1737420208,"current_range_meters":25200,"station_id":"ce4bhih2rcd13ifvqfr0","pricing_plan_id":"cebpf4jnsgd1na2vs0mg"},{"bike_id":"de0e2046-c69d-4a1d-a36c-55284d20df28","system_id":"levelo_inurba_marseille","lat":43.29705,"lon":5.3658,"is_reserved":false,"is_disabled":false,"rental_uris":{"android":"levelo://app?vid=de0e2046-c69d-4a1d-a36c-55284d20df28","ios":"levelo://app?vid=de0e2046-c69d-4a1d-a36c-55284d20df28"},"vehicle_type_id":"4","last_reported":1737420208,"current_range_meters":38800,"station_id":"ce4bgn12rcd13ifvqbt0","pricing_plan_id":"cebpf4jnsgd1na2vs0mg"},{"bike_id":"a64eab1e-dbe6-4f77-87db-641966b43236","system_id":"levelo_inurba_marseille","lat":43.25082,"lon":5.39522,"is_reserved":false,"is_disabled":false,"rental_uris":{"android":"levelo://app?vid=a64eab1e-dbe6-4f77-87db-641966b43236","ios":"levelo://app?vid=a64eab1e-dbe6-4f77-87db-641966b43236"},"vehicle_type_id":"4","last_reported":1737420208,"current_range_meters":32400,"station_id":"ce4bhm12rcd13ifvqgkg","pricing_plan_id":"cebpf4jnsgd1na2vs0mg"},{"bike_id":"07ff9b6a-df59-4190-9009-d72a7d347da0","system_id":"levelo_inurba_marseille","lat":43.317565,"lon":5.390139,"is_reserved":false,"is_disabled":false,"rental_uris":{"android":"levelo://app?vid=07ff9b6a-df59-4190-9009-d72a7d347da0","ios":"levelo://app?vid=07ff9b6a-df59-4190-9009-d72a7d347da0"},"vehicle_type_id":"4","last_reported":1737420208,"current_range_meters":38800,"station_id":"ce4bhqp2rcd13ifvqhng","pricing_plan_id":"cebpf4jnsgd1na2vs0mg"},{"bike_id":"3c19884d-bb21-42e2-ae9c-8e80a218508d","system_id":"levelo_inurba_marseille","lat":43.28949,"lon":5.36375,"is_reserved":false,"is_disabled":false,"rental_uris":{"android":"levelo://app?vid=3c19884d-bb21-42e2-ae9c-8e80a218508d","ios":"levelo://app?vid=3c19884d-bb21-42e2-ae9c-8e80a218508d"},"vehicle_type_id":"4","last_reported":1737420208,"current_range_meters":38800,"station_id":"ce4bhc92rcd13ifvqetg","pricing_plan_id":"cebpf4jnsgd1na2vs0mg"},{"bike_id":"9504b7e0-2f20-49ea-814e-e380f0d8ec79","system_id":"levelo_inurba_marseille","lat":43.32108,"lon":5.36776,"is_reserved":false,"is_disabled":false,"rental_uris":{"android":"levelo://app?vid=9504b7e0-2f20-49ea-814e-e380f0d8ec79","ios":"levelo://app?vid=9504b7e0-2f20-49ea-814e-e380f0d8ec79"},"vehicle_type_id":"4","last_reported":1737420208,"current_range_meters":38800,"station_id":"ce4bhrh2rcd13ifvqhug","pricing_plan_id":"cebpf4jnsgd1na2vs0mg"},{"bike_id":"def4261b-ecda-4bf3-aa61-0e5e8ee4c990","system_id":"levelo_inurba_marseille","lat":43.32345,"lon":5.40617,"is_reserved":false,"is_disabled":false,"rental_uris":{"android":"levelo://app?vid=def4261b-ecda-4bf3-aa61-0e5e8ee4c990","ios":"levelo://app?vid=def4261b-ecda-4bf3-aa61-0e5e8ee4c990"},"vehicle_type_id":"4","last_reported":1737420208,"current_range_meters":38800,"station_id":"ce4bhq92rcd13ifvqhjg","pricing_plan_id":"cebpf4jnsgd1na2vs0mg"},{"bike_id":"f7817e8d-eab7-43f4-8262-b0948daf0edd","system_id":"levelo_inurba_marseille","lat":43.317046,"lon":5.377608,"is_reserved":false,"is_disabled":false,"rental_uris":{"android":"levelo://app?vid=f7817e8d-eab7-43f4-8262-b0948daf0edd","ios":"levelo://app?vid=f7817e8d-eab7-43f4-8262-b0948daf0edd"},"vehicle_type_id":"4","last_reported":1737420208,"current_range_meters":38800,"station_id":"ce4bgth2rcd13ifvqch0","pricing_plan_id":"cebpf4jnsgd1na2vs0mg"},{"bike_id":"c5b1bb1a-781d-4a34-a876-7b91eb7cd37f","system_id":"levelo_inurba_marseille","lat":43.286175,"lon":5.351032,"is_reserved":false,"is_disabled":false,"rental_uris":{"android":"levelo://app?vid=c5b1bb1a-781d-4a34-a876-7b91eb7cd37f","ios":"levelo://app?vid=c5b1bb1a-781d-4a34-a876-7b91eb7cd37f"},"vehicle_type_id":"4","last_reported":1737420208,"current_range_meters":33200,"station_id":"ce4bhch2rcd13ifvqeug","pricing_plan_id":"cebpf4jnsgd1na2vs0mg"},{"bike_id":"794621e3-3124-4bb3-96e3-bbeccc7c03ca","system_id":"levelo_inurba_marseille","lat":43.27815,"lon":5.40721,"is_reserved":false,"is_disabled":false,"rental_uris":{"android":"levelo://app?vid=794621e3-3124-4bb3-96e3-bbeccc7c03ca","ios":"levelo://app?vid=794621e3-3124-4bb3-96e3-bbeccc7c03ca"},"vehicle_type_id":"4","last_reported":1737420208,"current_range_meters":29600,"station_id":"ce4bhnh2rcd13ifvqgtg","pricing_plan_id":"cebpf4jnsgd1na2vs0mg"},{"bike_id":"e49401c7-f7a8-418d-8b78-718a422cd25d","system_id":"levelo_inurba_marseille","lat":43.291705,"lon":5.371523,"is_reserved":false,"is_disabled":true,"rental_uris":{"android":"levelo://app?vid=e49401c7-f7a8-418d-8b78-718a422cd25d","ios":"levelo://app?vid=e49401c7-f7a8-418d-8b78-718a422cd25d"},"vehicle_type_id":"4","last_reported":1737420208,"current_range_meters":27200,"station_id":"ce4bha92rcd13ifvqeh0","pricing_plan_id":"cebpf4jnsgd1na2vs0mg"},{"bike_id":"da3a7eb9-5fa6-49b3-9e5b-6452969eedf1","system_id":"levelo_inurba_marseille","lat":43.24386,"lon":5.37066,"is_reserved":false,"is_disabled":true,"rental_uris":{"android":"levelo://app?vid=da3a7eb9-5fa6-49b3-9e5b-6452969eedf1","ios":"levelo://app?vid=da3a7eb9-5fa6-49b3-9e5b-6452969eedf1"},"vehicle_type_id":"4","last_reported":1737420208,"current_range_meters":22800,"station_id":"ce4bhhh2rcd13ifvqfk0","pricing_plan_id":"cebpf4jnsgd1na2vs0mg"},{"bike_id":"1c92ca80-b478-4b98-8b2b-ce49639e8b36","system_id":"levelo_inurba_marseille","lat":43.29529,"lon":5.38555,"is_reserved":false,"is_disabled":false,"rental_uris":{"android":"levelo://app?vid=1c92ca80-b478-4b98-8b2b-ce49639e8b36","ios":"levelo://app?vid=1c92ca80-b478-4b98-8b2b-ce49639e8b36"},"vehicle_type_id":"4","last_reported":1737420208,"current_range_meters":36800,"station_id":"ce4bgih2rcd13ifvqba0","pricing_plan_id":"cebpf4jnsgd1na2vs0mg"},{"bike_id":"46fff60c-da93-4e15-9cbf-bedd254fc83d","system_id":"levelo_inurba_marseille","lat":43.22933,"lon":5.35375,"is_reserved":false,"is_disabled":false,"rental_uris":{"android":"levelo://app?vid=46fff60c-da93-4e15-9cbf-bedd254fc83d","ios":"levelo://app?vid=46fff60c-da93-4e15-9cbf-bedd254fc83d"},"vehicle_type_id":"4","last_reported":1737420208,"current_range_meters":37600,"station_id":"cpo3532slgdg3j2ikp40","pricing_plan_id":"cebpf4jnsgd1na2vs0mg"},{"bike_id":"026c5cbe-081d-480e-8260-80cc91166677","system_id":"levelo_inurba_marseille","lat":43.28699,"lon":5.39999,"is_reserved":false,"is_disabled":true,"rental_uris":{"android":"levelo://app?vid=026c5cbe-081d-480e-8260-80cc91166677","ios":"levelo://app?vid=026c5cbe-081d-480e-8260-80cc91166677"},"vehicle_type_id":"4","last_reported":1737420208,"current_range_meters":400,"station_id":"ce4bho92rcd13ifvqh3g","pricing_plan_id":"cebpf4jnsgd1na2vs0mg"},{"bike_id":"08703af1-d322-4439-9877-0571ecdb6de8","system_id":"levelo_inurba_marseille","lat":43.31171,"lon":5.38718,"is_reserved":false,"is_disabled":false,"rental_uris":{"android":"levelo://app?vid=08703af1-d322-4439-9877-0571ecdb6de8","ios":"levelo://app?vid=08703af1-d322-4439-9877-0571ecdb6de8"},"vehicle_type_id":"4","last_reported":1737420208,"current_range_meters":36800,"station_id":"ce4bgv12rcd13ifvqcp0","pricing_plan_id":"cebpf4jnsgd1na2vs0mg"},{"bike_id":"201184dd-de12-42f6-b9a8-f94cf04ddff5","system_id":"levelo_inurba_marseille","lat":43.31284,"lon":5.40181,"is_reserved":false,"is_disabled":false,"rental_uris":{"android":"levelo://app?vid=201184dd-de12-42f6-b9a8-f94cf04ddff5","ios":"levelo://app?vid=201184dd-de12-42f6-b9a8-f94cf04ddff5"},"vehicle_type_id":"4","last_reported":1737420208,"current_range_meters":30400,"station_id":"ce4bh092rcd13ifvqd30","pricing_plan_id":"cebpf4jnsgd1na2vs0mg"},{"bike_id":"67ee2edb-ba3f-40fe-af75-3f046440f4f7","system_id":"levelo_inurba_marseille","lat":43.30257,"lon":5.40032,"is_reserved":false,"is_disabled":false,"rental_uris":{"android":"levelo://app?vid=67ee2edb-ba3f-40fe-af75-3f046440f4f7","ios":"levelo://app?vid=67ee2edb-ba3f-40fe-af75-3f046440f4f7"},"vehicle_type_id":"4","last_reported":1737420208,"current_range_meters":38400,"station_id":"ce4bgvh2rcd13ifvqcs0","pricing_plan_id":"cebpf4jnsgd1na2vs0mg"},{"bike_id":"a36ee2d1-1d7f-42c5-9a98-f1d3e9db357d","system_id":"levelo_inurba_marseille","lat":43.23952,"lon":5.36629,"is_reserved":false,"is_disabled":false,"rental_uris":{"android":"levelo://app?vid=a36ee2d1-1d7f-42c5-9a98-f1d3e9db357d","ios":"levelo://app?vid=a36ee2d1-1d7f-42c5-9a98-f1d3e9db357d"},"vehicle_type_id":"4","last_reported":1737420208,"current_range_meters":20800,"station_id":"ce4bhi12rcd13ifvqfp0","pricing_plan_id":"cebpf4jnsgd1na2vs0mg"},{"bike_id":"50e3917b-db84-45da-b5b8-a9b2bdbb9561","system_id":"levelo_inurba_marseille","lat":43.29547,"lon":5.38561,"is_reserved":false,"is_disabled":false,"rental_uris":{"android":"levelo://app?vid=50e3917b-db84-45da-b5b8-a9b2bdbb9561","ios":"levelo://app?vid=50e3917b-db84-45da-b5b8-a9b2bdbb9561"},"vehicle_type_id":"4","last_reported":1737420208,"current_range_meters":28400,"station_id":"ce4bgih2rcd13ifvqba0","pricing_plan_id":"cebpf4jnsgd1na2vs0mg"},{"bike_id":"a8a68a08-c628-497b-bfe5-57204ba5cc39","system_id":"levelo_inurba_marseille","lat":43.281708,"lon":5.42665,"is_reserved":false,"is_disabled":false,"rental_uris":{"android":"levelo://app?vid=a8a68a08-c628-497b-bfe5-57204ba5cc39","ios":"levelo://app?vid=a8a68a08-c628-497b-bfe5-57204ba5cc39"},"vehicle_type_id":"4","last_reported":1737420208,"current_range_meters":38400,"station_id":"ce4bhnh2rcd13ifvqgug","pricing_plan_id":"cebpf4jnsgd1na2vs0mg"},{"bike_id":"910c1c8e-72a6-432d-b380-8feaf18dbd89","system_id":"levelo_inurba_marseille","lat":43.28558,"lon":5.39508,"is_reserved":false,"is_disabled":true,"rental_uris":{"android":"levelo://app?vid=910c1c8e-72a6-432d-b380-8feaf18dbd89","ios":"levelo://app?vid=910c1c8e-72a6-432d-b380-8feaf18dbd89"},"vehicle_type_id":"4","last_reported":1737420208,"current_range_meters":15200,"station_id":"ce4bh292rcd13ifvqdg0","pricing_plan_id":"cebpf4jnsgd1na2vs0mg"},{"bike_id":"4bc49912-71c9-48b2-8244-21e1aeecfe85","system_id":"levelo_inurba_marseille","lat":43.29509,"lon":5.39044,"is_reserved":false,"is_disabled":false,"rental_uris":{"android":"levelo://app?vid=4bc49912-71c9-48b2-8244-21e1aeecfe85","ios":"levelo://app?vid=4bc49912-71c9-48b2-8244-21e1aeecfe85"},"vehicle_type_id":"4","last_reported":1737420208,"current_range_meters":39200,"station_id":"ce4bh3p2rcd13ifvqdp0","pricing_plan_id":"cebpf4jnsgd1na2vs0mg"},{"bike_id":"4b88b371-38a3-443d-96cf-2b99cc4f3954","system_id":"levelo_inurba_marseille","lat":43.29728,"lon":5.37676,"is_reserved":false,"is_disabled":true,"rental_uris":{"android":"levelo://app?vid=4b88b371-38a3-443d-96cf-2b99cc4f3954","ios":"levelo://app?vid=4b88b371-38a3-443d-96cf-2b99cc4f3954"},"vehicle_type_id":"4","last_reported":1737420208,"current_range_meters":38800,"station_id":"ce4bgkh2rcd13ifvqbl0","pricing_plan_id":"cebpf4jnsgd1na2vs0mg"},{"bike_id":"b6b92975-9652-4954-a2f5-7f59d0814769","system_id":"levelo_inurba_marseille","lat":43.30933,"lon":5.40162,"is_reserved":false,"is_disabled":false,"rental_uris":{"android":"levelo://app?vid=b6b92975-9652-4954-a2f5-7f59d0814769","ios":"levelo://app?vid=b6b92975-9652-4954-a2f5-7f59d0814769"},"vehicle_type_id":"4","last_reported":1737420208,"current_range_meters":38800,"station_id":"ce4bgvp2rcd13ifvqct0","pricing_plan_id":"cebpf4jnsgd1na2vs0mg"},{"bike_id":"8b4019b1-336c-4cba-b37d-d3b7cc1a9f6e","system_id":"levelo_inurba_marseille","lat":43.29772,"lon":5.39342,"is_reserved":false,"is_disabled":false,"rental_uris":{"android":"levelo://app?vid=8b4019b1-336c-4cba-b37d-d3b7cc1a9f6e","ios":"levelo://app?vid=8b4019b1-336c-4cba-b37d-d3b7cc1a9f6e"},"vehicle_type_id":"4","last_reported":1737420208,"current_range_meters":9200,"station_id":"chh1huq6cuj3fo74tm60","pricing_plan_id":"cebpf4jnsgd1na2vs0mg"},{"bike_id":"43ad3133-2f4d-44c3-9ef3-1073f215f719","system_id":"levelo_inurba_marseille","lat":43.31084,"lon":5.42433,"is_reserved":false,"is_disabled":false,"rental_uris":{"android":"levelo://app?vid=43ad3133-2f4d-44c3-9ef3-1073f215f719","ios":"levelo://app?vid=43ad3133-2f4d-44c3-9ef3-1073f215f719"},"vehicle_type_id":"4","last_reported":1737420208,"current_range_meters":20800,"station_id":"ce4bhp92rcd13ifvqhag","pricing_plan_id":"cebpf4jnsgd1na2vs0mg"},{"bike_id":"e74789ca-b0e5-4949-a7c4-507c382d1652","system_id":"levelo_inurba_marseille","lat":43.3128,"lon":5.40158,"is_reserved":false,"is_disabled":false,"rental_uris":{"android":"levelo://app?vid=e74789ca-b0e5-4949-a7c4-507c382d1652","ios":"levelo://app?vid=e74789ca-b0e5-4949-a7c4-507c382d1652"},"vehicle_type_id":"4","last_reported":1737420208,"current_range_meters":35600,"station_id":"ce4bh092rcd13ifvqd30","pricing_plan_id":"cebpf4jnsgd1na2vs0mg"},{"bike_id":"7ed62c12-e1f9-4b2c-935b-6efd4f0f7302","system_id":"levelo_inurba_marseille","lat":43.30585,"lon":5.39344,"is_reserved":false,"is_disabled":false,"rental_uris":{"android":"levelo://app?vid=7ed62c12-e1f9-4b2c-935b-6efd4f0f7302","ios":"levelo://app?vid=7ed62c12-e1f9-4b2c-935b-6efd4f0f7302"},"vehicle_type_id":"4","last_reported":1737420208,"current_range_meters":35200,"station_id":"ce4bh0p2rcd13ifvqd80","pricing_plan_id":"cebpf4jnsgd1na2vs0mg"},{"bike_id":"5d3cffa1-ec4b-4267-9e2c-8166abf220de","system_id":"levelo_inurba_marseille","lat":43.308,"lon":5.3815,"is_reserved":false,"is_disabled":false,"rental_uris":{"android":"levelo://app?vid=5d3cffa1-ec4b-4267-9e2c-8166abf220de","ios":"levelo://app?vid=5d3cffa1-ec4b-4267-9e2c-8166abf220de"},"vehicle_type_id":"4","last_reported":1737420208,"current_range_meters":8800,"station_id":"ce4bgt12rcd13ifvqce0","pricing_plan_id":"cebpf4jnsgd1na2vs0mg"},{"bike_id":"53a56d87-3330-4a04-ac5d-8290ef1b226e","system_id":"levelo_inurba_marseille","lat":43.31532,"lon":5.3803,"is_reserved":false,"is_disabled":false,"rental_uris":{"android":"levelo://app?vid=53a56d87-3330-4a04-ac5d-8290ef1b226e","ios":"levelo://app?vid=53a56d87-3330-4a04-ac5d-8290ef1b226e"},"vehicle_type_id":"4","last_reported":1737420208,"current_range_meters":38800,"station_id":"ce4bhsp2rcd13ifvqi50","pricing_plan_id":"cebpf4jnsgd1na2vs0mg"},{"bike_id":"95ea00aa-ca76-4e7a-86a1-450db46c5b23","system_id":"levelo_inurba_marseille","lat":43.31177,"lon":5.38717,"is_reserved":false,"is_disabled":false,"rental_uris":{"android":"levelo://app?vid=95ea00aa-ca76-4e7a-86a1-450db46c5b23","ios":"levelo://app?vid=95ea00aa-ca76-4e7a-86a1-450db46c5b23"},"vehicle_type_id":"4","last_reported":1737420208,"current_range_meters":25600,"station_id":"ce4bgv12rcd13ifvqcp0","pricing_plan_id":"cebpf4jnsgd1na2vs0mg"},{"bike_id":"ac6e766d-3ee0-4fd0-96fa-5117cf5b2f8e","system_id":"levelo_inurba_marseille","lat":43.2757,"lon":5.38428,"is_reserved":false,"is_disabled":false,"rental_uris":{"android":"levelo://app?vid=ac6e766d-3ee0-4fd0-96fa-5117cf5b2f8e","ios":"levelo://app?vid=ac6e766d-3ee0-4fd0-96fa-5117cf5b2f8e"},"vehicle_type_id":"4","last_reported":1737420208,"current_range_meters":38800,"station_id":"ce4bhh92rcd13ifvqfi0","pricing_plan_id":"cebpf4jnsgd1na2vs0mg"},{"bike_id":"669e5a89-d103-4189-acc1-182a1374b67b","system_id":"levelo_inurba_marseille","lat":43.27845,"lon":5.392,"is_reserved":false,"is_disabled":false,"rental_uris":{"android":"levelo://app?vid=669e5a89-d103-4189-acc1-182a1374b67b","ios":"levelo://app?vid=669e5a89-d103-4189-acc1-182a1374b67b"},"vehicle_type_id":"4","last_reported":1737420208,"current_range_meters":10000,"station_id":"ce4bhjp2rcd13ifvqga0","pricing_plan_id":"cebpf4jnsgd1na2vs0mg"},{"bike_id":"a4c27cc3-c38b-466c-95a1-4dd1f3789e48","system_id":"levelo_inurba_marseille","lat":43.33021,"lon":5.39049,"is_reserved":false,"is_disabled":false,"rental_uris":{"android":"levelo://app?vid=a4c27cc3-c38b-466c-95a1-4dd1f3789e48","ios":"levelo://app?vid=a4c27cc3-c38b-466c-95a1-4dd1f3789e48"},"vehicle_type_id":"4","last_reported":1737420208,"current_range_meters":38800,"station_id":"ce4bhr92rcd13ifvqhrg","pricing_plan_id":"cebpf4jnsgd1na2vs0mg"},{"bike_id":"f2390374-e060-4fe1-bcfa-cb2711193e58","system_id":"levelo_inurba_marseille","lat":43.25087,"lon":5.39537,"is_reserved":false,"is_disabled":false,"rental_uris":{"android":"levelo://app?vid=f2390374-e060-4fe1-bcfa-cb2711193e58","ios":"levelo://app?vid=f2390374-e060-4fe1-bcfa-cb2711193e58"},"vehicle_type_id":"4","last_reported":1737420208,"current_range_meters":32800,"station_id":"ce4bhm12rcd13ifvqgkg","pricing_plan_id":"cebpf4jnsgd1na2vs0mg"},{"bike_id":"906aae91-9789-46af-b4fa-d50a906587bd","system_id":"levelo_inurba_marseille","lat":43.30257,"lon":5.40068,"is_reserved":false,"is_disabled":false,"rental_uris":{"android":"levelo://app?vid=906aae91-9789-46af-b4fa-d50a906587bd","ios":"levelo://app?vid=906aae91-9789-46af-b4fa-d50a906587bd"},"vehicle_type_id":"4","last_reported":1737420208,"current_range_meters":38800,"station_id":"ce4bgvh2rcd13ifvqcs0","pricing_plan_id":"cebpf4jnsgd1na2vs0mg"},{"bike_id":"9f3ee6aa-4bec-4f76-91c0-b7e5047ea1b6","system_id":"levelo_inurba_marseille","lat":43.28418,"lon":5.37543,"is_reserved":false,"is_disabled":false,"rental_uris":{"android":"levelo://app?vid=9f3ee6aa-4bec-4f76-91c0-b7e5047ea1b6","ios":"levelo://app?vid=9f3ee6aa-4bec-4f76-91c0-b7e5047ea1b6"},"vehicle_type_id":"4","last_reported":1737420208,"current_range_meters":37600,"station_id":"ce4bh412rcd13ifvqds0","pricing_plan_id":"cebpf4jnsgd1na2vs0mg"},{"bike_id":"6fa96e81-a119-436e-b985-1cf31a85cc4c","system_id":"levelo_inurba_marseille","lat":43.2789,"lon":5.3801,"is_reserved":false,"is_disabled":false,"rental_uris":{"android":"levelo://app?vid=6fa96e81-a119-436e-b985-1cf31a85cc4c","ios":"levelo://app?vid=6fa96e81-a119-436e-b985-1cf31a85cc4c"},"vehicle_type_id":"4","last_reported":1737420208,"current_range_meters":32000,"station_id":"ce4bhf92rcd13ifvqf50","pricing_plan_id":"cebpf4jnsgd1na2vs0mg"},{"bike_id":"31896e0f-b5d7-4acb-9bb6-8fbf4a29bddc","system_id":"levelo_inurba_marseille","lat":43.30792,"lon":5.37667,"is_reserved":false,"is_disabled":false,"rental_uris":{"android":"levelo://app?vid=31896e0f-b5d7-4acb-9bb6-8fbf4a29bddc","ios":"levelo://app?vid=31896e0f-b5d7-4acb-9bb6-8fbf4a29bddc"},"vehicle_type_id":"4","last_reported":1737420208,"current_range_meters":28400,"station_id":"ce4bgv92rcd13ifvqcq0","pricing_plan_id":"cebpf4jnsgd1na2vs0mg"},{"bike_id":"e1671909-9e78-4376-8518-ac60901152a5","system_id":"levelo_inurba_marseille","lat":43.29023,"lon":5.37566,"is_reserved":false,"is_disabled":false,"rental_uris":{"android":"levelo://app?vid=e1671909-9e78-4376-8518-ac60901152a5","ios":"levelo://app?vid=e1671909-9e78-4376-8518-ac60901152a5"},"vehicle_type_id":"4","last_reported":1737420208,"current_range_meters":38000,"station_id":"ce4bh692rcd13ifvqe90","pricing_plan_id":"cebpf4jnsgd1na2vs0mg"},{"bike_id":"d5f81245-54b7-4268-b7ff-c775903366c8","system_id":"levelo_inurba_marseille","lat":43.31711,"lon":5.37827,"is_reserved":false,"is_disabled":false,"rental_uris":{"android":"levelo://app?vid=d5f81245-54b7-4268-b7ff-c775903366c8","ios":"levelo://app?vid=d5f81245-54b7-4268-b7ff-c775903366c8"},"vehicle_type_id":"4","last_reported":1737420208,"current_range_meters":3600,"station_id":"ce4bgth2rcd13ifvqch0","pricing_plan_id":"cebpf4jnsgd1na2vs0mg"},{"bike_id":"32836426-dfc7-4f53-adf5-da81f2475316","system_id":"levelo_inurba_marseille","lat":43.30805,"lon":5.38162,"is_reserved":false,"is_disabled":false,"rental_uris":{"android":"levelo://app?vid=32836426-dfc7-4f53-adf5-da81f2475316","ios":"levelo://app?vid=32836426-dfc7-4f53-adf5-da81f2475316"},"vehicle_type_id":"4","last_reported":1737420208,"current_range_meters":22000,"station_id":"ce4bgt12rcd13ifvqce0","pricing_plan_id":"cebpf4jnsgd1na2vs0mg"},{"bike_id":"412d2955-5a84-4ed2-ac27-b087c6be0824","system_id":"levelo_inurba_marseille","lat":43.31996,"lon":5.38143,"is_reserved":false,"is_disabled":false,"rental_uris":{"android":"levelo://app?vid=412d2955-5a84-4ed2-ac27-b087c6be0824","ios":"levelo://app?vid=412d2955-5a84-4ed2-ac27-b087c6be0824"},"vehicle_type_id":"4","last_reported":1737420208,"current_range_meters":37600,"station_id":"ce4bhr12rcd13ifvqhpg","pricing_plan_id":"cebpf4jnsgd1na2vs0mg"},{"bike_id":"db783558-fd78-4108-888d-e637d89ab3dd","system_id":"levelo_inurba_marseille","lat":43.25578,"lon":5.38238,"is_reserved":false,"is_disabled":false,"rental_uris":{"android":"levelo://app?vid=db783558-fd78-4108-888d-e637d89ab3dd","ios":"levelo://app?vid=db783558-fd78-4108-888d-e637d89ab3dd"},"vehicle_type_id":"4","last_reported":1737420208,"current_range_meters":38800,"station_id":"ce4bhih2rcd13ifvqfs0","pricing_plan_id":"cebpf4jnsgd1na2vs0mg"},{"bike_id":"0e55de22-ee77-43a3-9d28-87cdb62c7b4f","system_id":"levelo_inurba_marseille","lat":43.28728,"lon":5.36069,"is_reserved":false,"is_disabled":false,"rental_uris":{"android":"levelo://app?vid=0e55de22-ee77-43a3-9d28-87cdb62c7b4f","ios":"levelo://app?vid=0e55de22-ee77-43a3-9d28-87cdb62c7b4f"},"vehicle_type_id":"4","last_reported":1737420208,"current_range_meters":38800,"station_id":"cki0cbj6b192h4jlfktg","pricing_plan_id":"cebpf4jnsgd1na2vs0mg"},{"bike_id":"2893081e-c520-4bfc-ab5e-f25f3b4b1457","system_id":"levelo_inurba_marseille","lat":43.28267,"lon":5.35088,"is_reserved":false,"is_disabled":false,"rental_uris":{"android":"levelo://app?vid=2893081e-c520-4bfc-ab5e-f25f3b4b1457","ios":"levelo://app?vid=2893081e-c520-4bfc-ab5e-f25f3b4b1457"},"vehicle_type_id":"4","last_reported":1737420208,"current_range_meters":28400,"station_id":"ce4bhbp2rcd13ifvqerg","pricing_plan_id":"cebpf4jnsgd1na2vs0mg"},{"bike_id":"ecfe519b-d32f-41a5-916b-36c0348680a7","system_id":"levelo_inurba_marseille","lat":43.30138,"lon":5.39894,"is_reserved":false,"is_disabled":false,"rental_uris":{"android":"levelo://app?vid=ecfe519b-d32f-41a5-916b-36c0348680a7","ios":"levelo://app?vid=ecfe519b-d32f-41a5-916b-36c0348680a7"},"vehicle_type_id":"4","last_reported":1737420208,"current_range_meters":35200,"station_id":"ce4bh0h2rcd13ifvqd40","pricing_plan_id":"cebpf4jnsgd1na2vs0mg"},{"bike_id":"36b02f5b-366d-4c8d-ac75-9c5f7c4d6ba1","system_id":"levelo_inurba_marseille","lat":43.31291,"lon":5.40141,"is_reserved":false,"is_disabled":false,"rental_uris":{"android":"levelo://app?vid=36b02f5b-366d-4c8d-ac75-9c5f7c4d6ba1","ios":"levelo://app?vid=36b02f5b-366d-4c8d-ac75-9c5f7c4d6ba1"},"vehicle_type_id":"4","last_reported":1737420208,"current_range_meters":38800,"station_id":"ce4bh092rcd13ifvqd30","pricing_plan_id":"cebpf4jnsgd1na2vs0mg"},{"bike_id":"22799766-f054-4f9b-8203-a6d904b93b2c","system_id":"levelo_inurba_marseille","lat":43.2826,"lon":5.35091,"is_reserved":false,"is_disabled":false,"rental_uris":{"android":"levelo://app?vid=22799766-f054-4f9b-8203-a6d904b93b2c","ios":"levelo://app?vid=22799766-f054-4f9b-8203-a6d904b93b2c"},"vehicle_type_id":"4","last_reported":1737420208,"current_range_meters":18800,"station_id":"ce4bhbp2rcd13ifvqerg","pricing_plan_id":"cebpf4jnsgd1na2vs0mg"},{"bike_id":"0e37a4bd-7850-41b7-91e1-556e8b5c7017","system_id":"levelo_inurba_marseille","lat":43.281564,"lon":5.426444,"is_reserved":false,"is_disabled":false,"rental_uris":{"android":"levelo://app?vid=0e37a4bd-7850-41b7-91e1-556e8b5c7017","ios":"levelo://app?vid=0e37a4bd-7850-41b7-91e1-556e8b5c7017"},"vehicle_type_id":"4","last_reported":1737420208,"current_range_meters":28000,"station_id":"ce4bhnh2rcd13ifvqgug","pricing_plan_id":"cebpf4jnsgd1na2vs0mg"},{"bike_id":"9099465c-e42b-455f-892a-773115556934","system_id":"levelo_inurba_marseille","lat":43.31529,"lon":5.38038,"is_reserved":false,"is_disabled":false,"rental_uris":{"android":"levelo://app?vid=9099465c-e42b-455f-892a-773115556934","ios":"levelo://app?vid=9099465c-e42b-455f-892a-773115556934"},"vehicle_type_id":"4","last_reported":1737420208,"current_range_meters":38800,"station_id":"ce4bhsp2rcd13ifvqi50","pricing_plan_id":"cebpf4jnsgd1na2vs0mg"},{"bike_id":"c90dbe00-d686-43f4-bf6b-00ebd16402ab","system_id":"levelo_inurba_marseille","lat":43.286999,"lon":5.373946,"is_reserved":false,"is_disabled":false,"rental_uris":{"android":"levelo://app?vid=c90dbe00-d686-43f4-bf6b-00ebd16402ab","ios":"levelo://app?vid=c90dbe00-d686-43f4-bf6b-00ebd16402ab"},"vehicle_type_id":"4","last_reported":1737420208,"current_range_meters":37600,"station_id":"ce4bh3p2rcd13ifvqdq0","pricing_plan_id":"cebpf4jnsgd1na2vs0mg"},{"bike_id":"efcc716b-2d37-4b9a-8156-06013547ef4e","system_id":"levelo_inurba_marseille","lat":43.28,"lon":5.40002,"is_reserved":false,"is_disabled":false,"rental_uris":{"android":"levelo://app?vid=efcc716b-2d37-4b9a-8156-06013547ef4e","ios":"levelo://app?vid=efcc716b-2d37-4b9a-8156-06013547ef4e"},"vehicle_type_id":"4","last_reported":1737420208,"current_range_meters":20800,"station_id":"ce4bho92rcd13ifvqh4g","pricing_plan_id":"cebpf4jnsgd1na2vs0mg"},{"bike_id":"5957b55c-bbf3-4d79-a9fa-182e34bda710","system_id":"levelo_inurba_marseille","lat":43.266811,"lon":5.40287,"is_reserved":false,"is_disabled":false,"rental_uris":{"android":"levelo://app?vid=5957b55c-bbf3-4d79-a9fa-182e34bda710","ios":"levelo://app?vid=5957b55c-bbf3-4d79-a9fa-182e34bda710"},"vehicle_type_id":"4","last_reported":1737420208,"current_range_meters":8800,"station_id":"","pricing_plan_id":"cebpf4jnsgd1na2vs0mg"},{"bike_id":"380fe268-78de-4206-955a-560ab674eeab","system_id":"levelo_inurba_marseille","lat":43.284288,"lon":5.391886,"is_reserved":false,"is_disabled":false,"rental_uris":{"android":"levelo://app?vid=380fe268-78de-4206-955a-560ab674eeab","ios":"levelo://app?vid=380fe268-78de-4206-955a-560ab674eeab"},"vehicle_type_id":"4","last_reported":1737420208,"current_range_meters":38000,"station_id":"ce4bhoh2rcd13ifvqh5g","pricing_plan_id":"cebpf4jnsgd1na2vs0mg"},{"bike_id":"b61b6964-fc82-49bb-90b2-f89705b5be90","system_id":"levelo_inurba_marseille","lat":43.30413,"lon":5.41291,"is_reserved":false,"is_disabled":false,"rental_uris":{"android":"levelo://app?vid=b61b6964-fc82-49bb-90b2-f89705b5be90","ios":"levelo://app?vid=b61b6964-fc82-49bb-90b2-f89705b5be90"},"vehicle_type_id":"4","last_reported":1737420208,"current_range_meters":37600,"station_id":"ce4bhop2rcd13ifvqh8g","pricing_plan_id":"cebpf4jnsgd1na2vs0mg"},{"bike_id":"668f9767-c78d-438a-96bb-c0760f782967","system_id":"levelo_inurba_marseille","lat":43.26211,"lon":5.37916,"is_reserved":false,"is_disabled":false,"rental_uris":{"android":"levelo://app?vid=668f9767-c78d-438a-96bb-c0760f782967","ios":"levelo://app?vid=668f9767-c78d-438a-96bb-c0760f782967"},"vehicle_type_id":"4","last_reported":1737420208,"current_range_meters":30000,"station_id":"ce4bhjp2rcd13ifvqg90","pricing_plan_id":"cebpf4jnsgd1na2vs0mg"},{"bike_id":"19b99117-ca2c-41ff-b4a2-4386488e4773","system_id":"levelo_inurba_marseille","lat":43.3107,"lon":5.38351,"is_reserved":false,"is_disabled":false,"rental_uris":{"android":"levelo://app?vid=19b99117-ca2c-41ff-b4a2-4386488e4773","ios":"levelo://app?vid=19b99117-ca2c-41ff-b4a2-4386488e4773"},"vehicle_type_id":"4","last_reported":1737420208,"current_range_meters":26000,"station_id":"ce4bgv92rcd13ifvqcr0","pricing_plan_id":"cebpf4jnsgd1na2vs0mg"},{"bike_id":"f12aed8b-8f71-4d26-81ab-45ae907f9bc5","system_id":"levelo_inurba_marseille","lat":43.28272,"lon":5.35126,"is_reserved":false,"is_disabled":false,"rental_uris":{"android":"levelo://app?vid=f12aed8b-8f71-4d26-81ab-45ae907f9bc5","ios":"levelo://app?vid=f12aed8b-8f71-4d26-81ab-45ae907f9bc5"},"vehicle_type_id":"4","last_reported":1737420208,"current_range_meters":38800,"station_id":"ce4bhbp2rcd13ifvqerg","pricing_plan_id":"cebpf4jnsgd1na2vs0mg"},{"bike_id":"4f40d972-06fd-42b6-87d8-47b7f66628c5","system_id":"levelo_inurba_marseille","lat":43.239673,"lon":5.366356,"is_reserved":false,"is_disabled":false,"rental_uris":{"android":"levelo://app?vid=4f40d972-06fd-42b6-87d8-47b7f66628c5","ios":"levelo://app?vid=4f40d972-06fd-42b6-87d8-47b7f66628c5"},"vehicle_type_id":"4","last_reported":1737420208,"current_range_meters":3600,"station_id":"ce4bhi12rcd13ifvqfp0","pricing_plan_id":"cebpf4jnsgd1na2vs0mg"},{"bike_id":"d13e1ce9-dfb9-4338-9d34-66a2c5529080","system_id":"levelo_inurba_marseille","lat":43.28025,"lon":5.36949,"is_reserved":false,"is_disabled":false,"rental_uris":{"android":"levelo://app?vid=d13e1ce9-dfb9-4338-9d34-66a2c5529080","ios":"levelo://app?vid=d13e1ce9-dfb9-4338-9d34-66a2c5529080"},"vehicle_type_id":"4","last_reported":1737420208,"current_range_meters":38800,"station_id":"ce4bha12rcd13ifvqef0","pricing_plan_id":"cebpf4jnsgd1na2vs0mg"},{"bike_id":"98cda36c-1f84-43e1-acd0-cf6070d9f0ff","system_id":"levelo_inurba_marseille","lat":43.29874,"lon":5.39713,"is_reserved":false,"is_disabled":false,"rental_uris":{"android":"levelo://app?vid=98cda36c-1f84-43e1-acd0-cf6070d9f0ff","ios":"levelo://app?vid=98cda36c-1f84-43e1-acd0-cf6070d9f0ff"},"vehicle_type_id":"4","last_reported":1737420208,"current_range_meters":36800,"station_id":"ce4bh0h2rcd13ifvqd50","pricing_plan_id":"cebpf4jnsgd1na2vs0mg"},{"bike_id":"8a0b14e2-52d8-4680-82c0-475610217fd9","system_id":"levelo_inurba_marseille","lat":43.2802,"lon":5.36966,"is_reserved":false,"is_disabled":false,"rental_uris":{"android":"levelo://app?vid=8a0b14e2-52d8-4680-82c0-475610217fd9","ios":"levelo://app?vid=8a0b14e2-52d8-4680-82c0-475610217fd9"},"vehicle_type_id":"4","last_reported":1737420208,"current_range_meters":38400,"station_id":"ce4bha12rcd13ifvqef0","pricing_plan_id":"cebpf4jnsgd1na2vs0mg"},{"bike_id":"228d4274-5f58-4358-8ddb-c0d44329a1bf","system_id":"levelo_inurba_marseille","lat":43.30936,"lon":5.4014,"is_reserved":false,"is_disabled":false,"rental_uris":{"android":"levelo://app?vid=228d4274-5f58-4358-8ddb-c0d44329a1bf","ios":"levelo://app?vid=228d4274-5f58-4358-8ddb-c0d44329a1bf"},"vehicle_type_id":"4","last_reported":1737420208,"current_range_meters":38800,"station_id":"ce4bgvp2rcd13ifvqct0","pricing_plan_id":"cebpf4jnsgd1na2vs0mg"},{"bike_id":"0a33a129-3448-4d8c-a48e-f94a32359da5","system_id":"levelo_inurba_marseille","lat":43.30892,"lon":5.371926,"is_reserved":false,"is_disabled":false,"rental_uris":{"android":"levelo://app?vid=0a33a129-3448-4d8c-a48e-f94a32359da5","ios":"levelo://app?vid=0a33a129-3448-4d8c-a48e-f94a32359da5"},"vehicle_type_id":"4","last_reported":1737420208,"current_range_meters":36400,"station_id":"ce4bguh2rcd13ifvqckg","pricing_plan_id":"cebpf4jnsgd1na2vs0mg"},{"bike_id":"5731cd32-e18c-4dbb-9b82-289b20681341","system_id":"levelo_inurba_marseille","lat":43.304359,"lon":5.397527,"is_reserved":false,"is_disabled":false,"rental_uris":{"android":"levelo://app?vid=5731cd32-e18c-4dbb-9b82-289b20681341","ios":"levelo://app?vid=5731cd32-e18c-4dbb-9b82-289b20681341"},"vehicle_type_id":"4","last_reported":1737420208,"current_range_meters":38800,"station_id":"ce4bh092rcd13ifvqd20","pricing_plan_id":"cebpf4jnsgd1na2vs0mg"},{"bike_id":"03fb29f2-1269-4635-bb09-90c9ff46f885","system_id":"levelo_inurba_marseille","lat":43.29602,"lon":5.38099,"is_reserved":false,"is_disabled":false,"rental_uris":{"android":"levelo://app?vid=03fb29f2-1269-4635-bb09-90c9ff46f885","ios":"levelo://app?vid=03fb29f2-1269-4635-bb09-90c9ff46f885"},"vehicle_type_id":"4","last_reported":1737420208,"current_range_meters":37600,"station_id":"ce4bgl12rcd13ifvqbo0","pricing_plan_id":"cebpf4jnsgd1na2vs0mg"},{"bike_id":"964ce173-84ec-41ca-ab18-97532a895c83","system_id":"levelo_inurba_marseille","lat":43.31048,"lon":5.3832,"is_reserved":false,"is_disabled":false,"rental_uris":{"android":"levelo://app?vid=964ce173-84ec-41ca-ab18-97532a895c83","ios":"levelo://app?vid=964ce173-84ec-41ca-ab18-97532a895c83"},"vehicle_type_id":"4","last_reported":1737420208,"current_range_meters":32000,"station_id":"ce4bgv92rcd13ifvqcr0","pricing_plan_id":"cebpf4jnsgd1na2vs0mg"},{"bike_id":"6116d7f9-1e8a-4a79-8080-3af906745c55","system_id":"levelo_inurba_marseille","lat":43.28475,"lon":5.35881,"is_reserved":false,"is_disabled":false,"rental_uris":{"android":"levelo://app?vid=6116d7f9-1e8a-4a79-8080-3af906745c55","ios":"levelo://app?vid=6116d7f9-1e8a-4a79-8080-3af906745c55"},"vehicle_type_id":"4","last_reported":1737420208,"current_range_meters":30000,"station_id":"ce4bhah2rcd13ifvqei0","pricing_plan_id":"cebpf4jnsgd1na2vs0mg"},{"bike_id":"3133a507-5996-4484-a064-80f7bc3eca44","system_id":"levelo_inurba_marseille","lat":43.30319,"lon":5.40453,"is_reserved":false,"is_disabled":false,"rental_uris":{"android":"levelo://app?vid=3133a507-5996-4484-a064-80f7bc3eca44","ios":"levelo://app?vid=3133a507-5996-4484-a064-80f7bc3eca44"},"vehicle_type_id":"4","last_reported":1737420208,"current_range_meters":38800,"station_id":"ce4bh012rcd13ifvqd10","pricing_plan_id":"cebpf4jnsgd1na2vs0mg"},{"bike_id":"187a71e0-c1c3-4e71-8a26-0d48a596fe6b","system_id":"levelo_inurba_marseille","lat":43.2508,"lon":5.39519,"is_reserved":false,"is_disabled":false,"rental_uris":{"android":"levelo://app?vid=187a71e0-c1c3-4e71-8a26-0d48a596fe6b","ios":"levelo://app?vid=187a71e0-c1c3-4e71-8a26-0d48a596fe6b"},"vehicle_type_id":"4","last_reported":1737420208,"current_range_meters":28400,"station_id":"ce4bhm12rcd13ifvqgkg","pricing_plan_id":"cebpf4jnsgd1na2vs0mg"},{"bike_id":"5b4a5c93-c345-4b32-961a-b6e3d1fd64a4","system_id":"levelo_inurba_marseille","lat":43.29223,"lon":5.36079,"is_reserved":false,"is_disabled":false,"rental_uris":{"android":"levelo://app?vid=5b4a5c93-c345-4b32-961a-b6e3d1fd64a4","ios":"levelo://app?vid=5b4a5c93-c345-4b32-961a-b6e3d1fd64a4"},"vehicle_type_id":"4","last_reported":1737420208,"current_range_meters":38800,"station_id":"ce4bhbh2rcd13ifvqeqg","pricing_plan_id":"cebpf4jnsgd1na2vs0mg"},{"bike_id":"259e9165-0cfd-4102-82f0-813d391e62b0","system_id":"levelo_inurba_marseille","lat":43.306,"lon":5.39357,"is_reserved":false,"is_disabled":false,"rental_uris":{"android":"levelo://app?vid=259e9165-0cfd-4102-82f0-813d391e62b0","ios":"levelo://app?vid=259e9165-0cfd-4102-82f0-813d391e62b0"},"vehicle_type_id":"4","last_reported":1737420208,"current_range_meters":38800,"station_id":"ce4bh0p2rcd13ifvqd80","pricing_plan_id":"cebpf4jnsgd1na2vs0mg"},{"bike_id":"7e1e3e5c-3b71-4538-93eb-de319f9bfe1b","system_id":"levelo_inurba_marseille","lat":43.29723,"lon":5.36576,"is_reserved":false,"is_disabled":false,"rental_uris":{"android":"levelo://app?vid=7e1e3e5c-3b71-4538-93eb-de319f9bfe1b","ios":"levelo://app?vid=7e1e3e5c-3b71-4538-93eb-de319f9bfe1b"},"vehicle_type_id":"4","last_reported":1737420208,"current_range_meters":38800,"station_id":"ce4bgn12rcd13ifvqbt0","pricing_plan_id":"cebpf4jnsgd1na2vs0mg"},{"bike_id":"6b9b5078-0e80-4c1b-a140-38e5f336da7b","system_id":"levelo_inurba_marseille","lat":43.29039,"lon":5.3753,"is_reserved":false,"is_disabled":false,"rental_uris":{"android":"levelo://app?vid=6b9b5078-0e80-4c1b-a140-38e5f336da7b","ios":"levelo://app?vid=6b9b5078-0e80-4c1b-a140-38e5f336da7b"},"vehicle_type_id":"4","last_reported":1737420208,"current_range_meters":32000,"station_id":"ce4bh692rcd13ifvqe90","pricing_plan_id":"cebpf4jnsgd1na2vs0mg"},{"bike_id":"9f3c892f-5e98-4686-913a-2029f2b3cc60","system_id":"levelo_inurba_marseille","lat":43.28726,"lon":5.36075,"is_reserved":false,"is_disabled":false,"rental_uris":{"android":"levelo://app?vid=9f3c892f-5e98-4686-913a-2029f2b3cc60","ios":"levelo://app?vid=9f3c892f-5e98-4686-913a-2029f2b3cc60"},"vehicle_type_id":"4","last_reported":1737420208,"current_range_meters":38800,"station_id":"cki0cbj6b192h4jlfktg","pricing_plan_id":"cebpf4jnsgd1na2vs0mg"},{"bike_id":"7367feb8-850f-40bd-9f83-f7a7405621fa","system_id":"levelo_inurba_marseille","lat":43.30819,"lon":5.43534,"is_reserved":false,"is_disabled":false,"rental_uris":{"android":"levelo://app?vid=7367feb8-850f-40bd-9f83-f7a7405621fa","ios":"levelo://app?vid=7367feb8-850f-40bd-9f83-f7a7405621fa"},"vehicle_type_id":"4","last_reported":1737420208,"current_range_meters":10800,"station_id":"ce4bhph2rcd13ifvqheg","pricing_plan_id":"cebpf4jnsgd1na2vs0mg"},{"bike_id":"4116593f-2ca6-4422-8918-41e410121c18","system_id":"levelo_inurba_marseille","lat":43.25724,"lon":5.41105,"is_reserved":false,"is_disabled":false,"rental_uris":{"android":"levelo://app?vid=4116593f-2ca6-4422-8918-41e410121c18","ios":"levelo://app?vid=4116593f-2ca6-4422-8918-41e410121c18"},"vehicle_type_id":"4","last_reported":1737420208,"current_range_meters":38000,"station_id":"ce4bhkp2rcd13ifvqgd0","pricing_plan_id":"cebpf4jnsgd1na2vs0mg"},{"bike_id":"ba834d37-a138-4e00-bc01-7355fbf3fb3d","system_id":"levelo_inurba_marseille","lat":43.246475,"lon":5.381605,"is_reserved":false,"is_disabled":false,"rental_uris":{"android":"levelo://app?vid=ba834d37-a138-4e00-bc01-7355fbf3fb3d","ios":"levelo://app?vid=ba834d37-a138-4e00-bc01-7355fbf3fb3d"},"vehicle_type_id":"4","last_reported":1737420208,"current_range_meters":23200,"station_id":"ce4bhih2rcd13ifvqfr0","pricing_plan_id":"cebpf4jnsgd1na2vs0mg"},