{"last_updated":1716224911,"ttl":30,"version":"2.2","data":{"bikes":[{"bike_id":"60c7623c-61d8-45d2-a440-539b354c61a5","system_id":"levelo_inurba_marseille","lat":43.313391,"lon":5.36706,"is_reserved":false,"is_disabled":false,"rental_uris":{"android":"levelo://app?vid=60c7623c-61d8-45d2-a440-539b354c61a5","ios":"levelo://app?vid=60c7623c-61d8-45d2-a440-539b354c61a5"},"vehicle_type_id":"4","last_reported":1716224911,"current_range_meters":24800,"station_id":"ce4bgr92rcd13ifvqc6g","pricing_plan_id":"cebpf4jnsgd1na2vs0mg"},{"bike_id":"2d57e607-a37c-4491-89fd-f3e94c7f240e","system_id":"levelo_inurba_marseille","lat":43.313391,"lon":5.36706,"is_reserved":false,"is_disabled":false,"rental_uris":{"android":"levelo://app?vid=2d57e607-a37c-4491-89fd-f3e94c7f240e","ios":"levelo://app?vid=2d57e607-a37c-4491-89fd-f3e94c7f240e"},"vehicle_type_id":"4","last_reported":1716224911,"current_range_meters":29200,"station_id":"ce4bgr92rcd13ifvqc6g","pricing_plan_id":"cebpf4jnsgd1na2vs0mg"},{"bike_id":"c12d325b-6678-4f0f-b4fe-7dc561708753","system_id":"levelo_inurba_marseille","lat":43.313655,"lon":5.367207,"is_reserved":false,"is_disabled":false,"rental_uris":{"android":"levelo://app?vid=c12d325b-6678-4f0f-b4fe-7dc561708753","ios":"levelo://app?vid=c12d325b-6678-4f0f-b4fe-7dc561708753"},"vehicle_type_id":"4","last_reported":1716224911,"current_range_meters":24000,"station_id":"ce4bgr92rcd13ifvqc6g","pricing_plan_id":"cebpf4jnsgd1na2vs0mg"},{"bike_id":"06653af9-e17f-4e2b-84e8-23e1042d65e6","system_id":"levelo_inurba_marseille","lat":43.31341,"lon":5.367098,"is_reserved":false,"is_disabled":false,"rental_uris":{"android":"levelo://app?vid=06653af9-e17f-4e2b-84e8-23e1042d65e6","ios":"levelo://app?vid=06653af9-e17f-4e2b-84e8-23e1042d65e6"},"vehicle_type_id":"4","last_reported":1716224911,"current_range_meters":9600,"station_id":"ce4bgr92rcd13ifvqc6g","pricing_plan_id":"cebpf4jnsgd1na2vs0mg"},{"bike_id":"d708bf73-474b-4e0f-8818-399d8592c219","system_id":"levelo_inurba_marseille","lat":43.31265,"lon":5.36889,"is_reserved":false,"is_disabled":false,"rental_uris":{"android":"levelo://app?vid=d708bf73-474b-4e0f-8818-399d8592c219","ios":"levelo://app?vid=d708bf73-474b-4e0f-8818-399d8592c219"},"vehicle_type_id":"4","last_reported":1716224911,"current_range_meters":5600,"station_id":"","pricing_plan_id":"cebpf4jnsgd1na2vs0mg"},{"bike_id":"a3fcaa26-6a2f-4b53-96d1-070c484f0c82","system_id":"levelo_inurba_marseille","lat":43.309076,"lon":5.368465,"is_reserved":false,"is_disabled":false,"rental_uris":{"android":"levelo://app?vid=a3fcaa26-6a2f-4b53-96d1-070c484f0c82","ios":"levelo://app?vid=a3fcaa26-6a2f-4b53-96d1-070c484f0c82"},"vehicle_type_id":"4","last_reported":1716224911,"current_range_meters":2000,"station_id":"ce4bgn92rcd13ifvqbvg","pricing_plan_id":"cebpf4jnsgd1na2vs0mg"},{"bike_id":"3e7b8928-7457-4947-87c6-7ff2474ef515","system_id":"levelo_inurba_marseille","lat":43.309068,"lon":5.368455,"is_reserved":false,"is_disabled":false,"rental_uris":{"android":"levelo://app?vid=3e7b8928-7457-4947-87c6-7ff2474ef515","ios":"levelo://app?vid=3e7b8928-7457-4947-87c6-7ff2474ef515"},"vehicle_type_id":"4","last_reported":1716224911,"current_range_meters":1200,"station_id":"ce4bgn92rcd13ifvqbvg","pricing_plan_id":"cebpf4jnsgd1na2vs0mg"},{"bike_id":"a637e51f-d6bd-4b45-a226-dae5684f6984","system_id":"levelo_inurba_marseille","lat":43.309076,"lon":5.368465,"is_reserved":false,"is_disabled":false,"rental_uris":{"android":"levelo://app?vid=a637e51f-d6bd-4b45-a226-dae5684f6984","ios":"levelo://app?vid=a637e51f-d6bd-4b45-a226-dae5684f6984"},"vehicle_type_id":"4","last_reported":1716224911,"current_range_meters":29600,"station_id":"ce4bgn92rcd13ifvqbvg","pricing_plan_id":"cebpf4jnsgd1na2vs0mg"},{"bike_id":"0713d823-d284-4ea9-94d7-b4f0c6f0ab05","system_id":"levelo_inurba_marseille","lat":43.314811,"lon":5.373103,"is_reserved":false,"is_disabled":false,"rental_uris":{"android":"levelo://app?vid=0713d823-d284-4ea9-94d7-b4f0c6f0ab05","ios":"levelo://app?vid=0713d823-d284-4ea9-94d7-b4f0c6f0ab05"},"vehicle_type_id":"4","last_reported":1716224911,"current_range_meters":5600,"station_id":"ce4bgt12rcd13ifvqcd0","pricing_plan_id":"cebpf4jnsgd1na2vs0mg"},{"bike_id":"df9c91ad-6dd2-4849-9798-03b84e51e8aa","system_id":"levelo_inurba_marseille","lat":43.314811,"lon":5.373103,"is_reserved":false,"is_disabled":false,"rental_uris":{"android":"levelo://app?vid=df9c91ad-6dd2-4849-9798-03b84e51e8aa","ios":"levelo://app?vid=df9c91ad-6dd2-4849-9798-03b84e51e8aa"},"vehicle_type_id":"4","last_reported":1716224911,"current_range_meters":23600,"station_id":"ce4bgt12rcd13ifvqcd0","pricing_plan_id":"cebpf4jnsgd1na2vs0mg"},{"bike_id":"5b098cd5-0830-4cbd-8e04-db0e814f8651","system_id":"levelo_inurba_marseille","lat":43.314811,"lon":5.373103,"is_reserved":false,"is_disabled":false,"rental_uris":{"android":"levelo://app?vid=5b098cd5-0830-4cbd-8e04-db0e814f8651","ios":"levelo://app?vid=5b098cd5-0830-4cbd-8e04-db0e814f8651"},"vehicle_type_id":"4","last_reported":1716224911,"current_range_meters":22000,"station_id":"ce4bgt12rcd13ifvqcd0","pricing_plan_id":"cebpf4jnsgd1na2vs0mg"},{"bike_id":"7ba9b436-466e-4522-9f87-0a6cd1e1a24b","system_id":"levelo_inurba_marseille","lat":43.309039,"lon":5.371797,"is_reserved":false,"is_disabled":false,"rental_uris":{"android":"levelo://app?vid=7ba9b436-466e-4522-9f87-0a6cd1e1a24b","ios":"levelo://app?vid=7ba9b436-466e-4522-9f87-0a6cd1e1a24b"},"vehicle_type_id":"4","last_reported":1716224911,"current_range_meters":6800,"station_id":"ce4bguh2rcd13ifvqckg","pricing_plan_id":"cebpf4jnsgd1na2vs0mg"},{"bike_id":"ccbf41b9-1f22-468b-8d61-338fb32cce62","system_id":"levelo_inurba_marseille","lat":43.309039,"lon":5.371797,"is_reserved":false,"is_disabled":false,"rental_uris":{"android":"levelo://app?vid=ccbf41b9-1f22-468b-8d61-338fb32cce62","ios":"levelo://app?vid=ccbf41b9-1f22-468b-8d61-338fb32cce62"},"vehicle_type_id":"4","last_reported":1716224911,"current_range_meters":7200,"station_id":"ce4bguh2rcd13ifvqckg","pricing_plan_id":"cebpf4jnsgd1na2vs0mg"},{"bike_id":"d2f577a5-1f1d-4982-9bb4-01b298b06447","system_id":"levelo_inurba_marseille","lat":43.309034,"lon":5.371783,"is_reserved":false,"is_disabled":false,"rental_uris":{"android":"levelo://app?vid=d2f577a5-1f1d-4982-9bb4-01b298b06447","ios":"levelo://app?vid=d2f577a5-1f1d-4982-9bb4-01b298b06447"},"vehicle_type_id":"4","last_reported":1716224911,"current_range_meters":15200,"station_id":"ce4bguh2rcd13ifvqckg","pricing_plan_id":"cebpf4jnsgd1na2vs0mg"},{"bike_id":"2841af6d-1ea4-4952-a2f8-fc5ab0204e82","system_id":"levelo_inurba_marseille","lat":43.309034,"lon":5.371783,"is_reserved":false,"is_disabled":false,"rental_uris":{"android":"levelo://app?vid=2841af6d-1ea4-4952-a2f8-fc5ab0204e82","ios":"levelo://app?vid=2841af6d-1ea4-4952-a2f8-fc5ab0204e82"},"vehicle_type_id":"4","last_reported":1716224911,"current_range_meters":0,"station_id":"ce4bguh2rcd13ifvqckg","pricing_plan_id":"cebpf4jnsgd1na2vs0mg"},{"bike_id":"e4632e7a-2deb-48a7-808d-6c5307f12802","system_id":"levelo_inurba_marseille","lat":43.31672,"lon":5.3722,"is_reserved":false,"is_disabled":false,"rental_uris":{"android":"levelo://app?vid=e4632e7a-2deb-48a7-808d-6c5307f12802","ios":"levelo://app?vid=e4632e7a-2deb-48a7-808d-6c5307f12802"},"vehicle_type_id":"4","last_reported":1716224911,"current_range_meters":18000,"station_id":"","pricing_plan_id":"cebpf4jnsgd1na2vs0mg"},{"bike_id":"6e054a2d-fec8-4e6f-85d5-a94481591460","system_id":"levelo_inurba_marseille","lat":43.316509,"lon":5.372815,"is_reserved":false,"is_disabled":false,"rental_uris":{"android":"levelo://app?vid=6e054a2d-fec8-4e6f-85d5-a94481591460","ios":"levelo://app?vid=6e054a2d-fec8-4e6f-85d5-a94481591460"},"vehicle_type_id":"4","last_reported":1716224911,"current_range_meters":30400,"station_id":"","pricing_plan_id":"cebpf4jnsgd1na2vs0mg"},{"bike_id":"82e6871c-82ea-45d4-acef-26ec96c4925d","system_id":"levelo_inurba_marseille","lat":43.30561,"lon":5.36722,"is_reserved":false,"is_disabled":false,"rental_uris":{"android":"levelo://app?vid=82e6871c-82ea-45d4-acef-26ec96c4925d","ios":"levelo://app?vid=82e6871c-82ea-45d4-acef-26ec96c4925d"},"vehicle_type_id":"4","last_reported":1716224911,"current_range_meters":20400,"station_id":"ce4bgrp2rcd13ifvqc9g","pricing_plan_id":"cebpf4jnsgd1na2vs0mg"},{"bike_id":"165226c7-0877-4d63-bf11-a491c56fbd33","system_id":"levelo_inurba_marseille","lat":43.305501,"lon":5.36708,"is_reserved":false,"is_disabled":false,"rental_uris":{"android":"levelo://app?vid=165226c7-0877-4d63-bf11-a491c56fbd33","ios":"levelo://app?vid=165226c7-0877-4d63-bf11-a491c56fbd33"},"vehicle_type_id":"4","last_reported":1716224911,"current_range_meters":2000,"station_id":"ce4bgrp2rcd13ifvqc9g","pricing_plan_id":"cebpf4jnsgd1na2vs0mg"},{"bike_id":"3c11d344-ece6-4090-9858-0a1eca74ae99","system_id":"levelo_inurba_marseille","lat":43.305989,"lon":5.37225,"is_reserved":false,"is_disabled":false,"rental_uris":{"android":"levelo://app?vid=3c11d344-ece6-4090-9858-0a1eca74ae99","ios":"levelo://app?vid=3c11d344-ece6-4090-9858-0a1eca74ae99"},"vehicle_type_id":"4","last_reported":1716224911,"current_range_meters":9600,"station_id":"ce4bgqh2rcd13ifvqc4g","pricing_plan_id":"cebpf4jnsgd1na2vs0mg"},{"bike_id":"ea99e2ed-428f-434e-a000-e81eb9ef5b9a","system_id":"levelo_inurba_marseille","lat":43.305989,"lon":5.37225,"is_reserved":false,"is_disabled":false,"rental_uris":{"android":"levelo://app?vid=ea99e2ed-428f-434e-a000-e81eb9ef5b9a","ios":"levelo://app?vid=ea99e2ed-428f-434e-a000-e81eb9ef5b9a"},"vehicle_type_id":"4","last_reported":1716224911,"current_range_meters":0,"station_id":"ce4bgqh2rcd13ifvqc4g","pricing_plan_id":"cebpf4jnsgd1na2vs0mg"},{"bike_id":"d50ac615-3fb0-4570-9667-9099c4fdee1f","system_id":"levelo_inurba_marseille","lat":43.307945,"lon":5.376487,"is_reserved":false,"is_disabled":false,"rental_uris":{"android":"levelo://app?vid=d50ac615-3fb0-4570-9667-9099c4fdee1f","ios":"levelo://app?vid=d50ac615-3fb0-4570-9667-9099c4fdee1f"},"vehicle_type_id":"4","last_reported":1716224911,"current_range_meters":7200,"station_id":"ce4bgv92rcd13ifvqcq0","pricing_plan_id":"cebpf4jnsgd1na2vs0mg"},{"bike_id":"0228e0b2-26e6-44a7-a7c5-d840e01c3c89","system_id":"levelo_inurba_marseille","lat":43.307945,"lon":5.376487,"is_reserved":false,"is_disabled":false,"rental_uris":{"android":"levelo://app?vid=0228e0b2-26e6-44a7-a7c5-d840e01c3c89","ios":"levelo://app?vid=0228e0b2-26e6-44a7-a7c5-d840e01c3c89"},"vehicle_type_id":"4","last_reported":1716224911,"current_range_meters":12000,"station_id":"ce4bgv92rcd13ifvqcq0","pricing_plan_id":"cebpf4jnsgd1na2vs0mg"},{"bike_id":"4aed50b3-14e6-4c16-bf4a-562412ee672c","system_id":"levelo_inurba_marseille","lat":43.307945,"lon":5.376487,"is_reserved":false,"is_disabled":false,"rental_uris":{"android":"levelo://app?vid=4aed50b3-14e6-4c16-bf4a-562412ee672c","ios":"levelo://app?vid=4aed50b3-14e6-4c16-bf4a-562412ee672c"},"vehicle_type_id":"4","last_reported":1716224911,"current_range_meters":3600,"station_id":"ce4bgv92rcd13ifvqcq0","pricing_plan_id":"cebpf4jnsgd1na2vs0mg"},{"bike_id":"596dadb8-ed95-4af2-8cb3-9642e2b65892","system_id":"levelo_inurba_marseille","lat":43.307945,"lon":5.376487,"is_reserved":false,"is_disabled":false,"rental_uris":{"android":"levelo://app?vid=596dadb8-ed95-4af2-8cb3-9642e2b65892","ios":"levelo://app?vid=596dadb8-ed95-4af2-8cb3-9642e2b65892"},"vehicle_type_id":"4","last_reported":1716224911,"current_range_meters":9600,"station_id":"ce4bgv92rcd13ifvqcq0","pricing_plan_id":"cebpf4jnsgd1na2vs0mg"},{"bike_id":"77f7d561-427e-4aab-baab-669a79cc52af","system_id":"levelo_inurba_marseille","lat":43.30319,"lon":5.36489,"is_reserved":false,"is_disabled":false,"rental_uris":{"android":"levelo://app?vid=77f7d561-427e-4aab-baab-669a79cc52af","ios":"levelo://app?vid=77f7d561-427e-4aab-baab-669a79cc52af"},"vehicle_type_id":"4","last_reported":1716224911,"current_range_meters":18000,"station_id":"","pricing_plan_id":"cebpf4jnsgd1na2vs0mg"},{"bike_id":"fb85be42-e9f2-4a4f-8f33-a120554a990a","system_id":"levelo_inurba_marseille","lat":43.303046,"lon":5.368981,"is_reserved":false,"is_disabled":false,"rental_uris":{"android":"levelo://app?vid=fb85be42-e9f2-4a4f-8f33-a120554a990a","ios":"levelo://app?vid=fb85be42-e9f2-4a4f-8f33-a120554a990a"},"vehicle_type_id":"4","last_reported":1716224911,"current_range_meters":4000,"station_id":"ce4bgqh2rcd13ifvqc5g","pricing_plan_id":"cebpf4jnsgd1na2vs0mg"},{"bike_id":"4e834714-7090-4971-89ac-7fc14486ebe9","system_id":"levelo_inurba_marseille","lat":43.303046,"lon":5.368981,"is_reserved":false,"is_disabled":false,"rental_uris":{"android":"levelo://app?vid=4e834714-7090-4971-89ac-7fc14486ebe9","ios":"levelo://app?vid=4e834714-7090-4971-89ac-7fc14486ebe9"},"vehicle_type_id":"4","last_reported":1716224911,"current_range_meters":11200,"station_id":"ce4bgqh2rcd13ifvqc5g","pricing_plan_id":"cebpf4jnsgd1na2vs0mg"},{"bike_id":"79f6ce24-1393-4167-b356-96aaa14637d9","system_id":"levelo_inurba_marseille","lat":43.31636,"lon":5.37986,"is_reserved":false,"is_disabled":false,"rental_uris":{"android":"levelo://app?vid=79f6ce24-1393-4167-b356-96aaa14637d9","ios":"levelo://app?vid=79f6ce24-1393-4167-b356-96aaa14637d9"},"vehicle_type_id":"4","last_reported":1716224911,"current_range_meters":14400,"station_id":"","pricing_plan_id":"cebpf4jnsgd1na2vs0mg"},{"bike_id":"03b2d0ac-4855-463a-a2f0-be21041dc802","system_id":"levelo_inurba_marseille","lat":43.304606,"lon":5.379026,"is_reserved":false,"is_disabled":false,"rental_uris":{"android":"levelo://app?vid=03b2d0ac-4855-463a-a2f0-be21041dc802","ios":"levelo://app?vid=03b2d0ac-4855-463a-a2f0-be21041dc802"},"vehicle_type_id":"4","last_reported":1716224911,"current_range_meters":27200,"station_id":"ce4bgup2rcd13ifvqcn0","pricing_plan_id":"cebpf4jnsgd1na2vs0mg"},{"bike_id":"cc598cc5-694a-44a4-8af3-c127be2d3d4b","system_id":"levelo_inurba_marseille","lat":43.324771,"lon":5.36557,"is_reserved":false,"is_disabled":false,"rental_uris":{"android":"levelo://app?vid=cc598cc5-694a-44a4-8af3-c127be2d3d4b","ios":"levelo://app?vid=cc598cc5-694a-44a4-8af3-c127be2d3d4b"},"vehicle_type_id":"4","last_reported":1716224911,"current_range_meters":18000,"station_id":"ce4bhs12rcd13ifvqhvg","pricing_plan_id":"cebpf4jnsgd1na2vs0mg"},{"bike_id":"e1caa541-9a15-4717-9e40-fdb574de61a0","system_id":"levelo_inurba_marseille","lat":43.324771,"lon":5.36557,"is_reserved":false,"is_disabled":false,"rental_uris":{"android":"levelo://app?vid=e1caa541-9a15-4717-9e40-fdb574de61a0","ios":"levelo://app?vid=e1caa541-9a15-4717-9e40-fdb574de61a0"},"vehicle_type_id":"4","last_reported":1716224911,"current_range_meters":23200,"station_id":"ce4bhs12rcd13ifvqhvg","pricing_plan_id":"cebpf4jnsgd1na2vs0mg"},{"bike_id":"8df71409-c454-42f4-bc85-48274c8c83e7","system_id":"levelo_inurba_marseille","lat":43.324819,"lon":5.365691,"is_reserved":false,"is_disabled":false,"rental_uris":{"android":"levelo://app?vid=8df71409-c454-42f4-bc85-48274c8c83e7","ios":"levelo://app?vid=8df71409-c454-42f4-bc85-48274c8c83e7"},"vehicle_type_id":"4","last_reported":1716224911,"current_range_meters":19200,"station_id":"","pricing_plan_id":"cebpf4jnsgd1na2vs0mg"},{"bike_id":"ba9dd178-2698-431d-9ff7-67ba55154a29","system_id":"levelo_inurba_marseille","lat":43.324771,"lon":5.36557,"is_reserved":false,"is_disabled":false,"rental_uris":{"android":"levelo://app?vid=ba9dd178-2698-431d-9ff7-67ba55154a29","ios":"levelo://app?vid=ba9dd178-2698-431d-9ff7-67ba55154a29"},"vehicle_type_id":"4","last_reported":1716224911,"current_range_meters":20000,"station_id":"ce4bhs12rcd13ifvqhvg","pricing_plan_id":"cebpf4jnsgd1na2vs0mg"},{"bike_id":"6f1ba964-bda1-4be4-9d0c-b661fa143980","system_id":"levelo_inurba_marseille","lat":43.324771,"lon":5.36557,"is_reserved":false,"is_disabled":false,"rental_uris":{"android":"levelo://app?vid=6f1ba964-bda1-4be4-9d0c-b661fa143980","ios":"levelo://app?vid=6f1ba964-bda1-4be4-9d0c-b661fa143980"},"vehicle_type_id":"4","last_reported":1716224911,"current_range_meters":0,"station_id":"ce4bhs12rcd13ifvqhvg","pricing_plan_id":"cebpf4jnsgd1na2vs0mg"},{"bike_id":"409a0ed1-c297-47e4-b379-834ebda246c4","system_id":"levelo_inurba_marseille","lat":43.310804,"lon":5.38359,"is_reserved":false,"is_disabled":false,"rental_uris":{"android":"levelo://app?vid=409a0ed1-c297-47e4-b379-834ebda246c4","ios":"levelo://app?vid=409a0ed1-c297-47e4-b379-834ebda246c4"},"vehicle_type_id":"4","last_reported":1716224911,"current_range_meters":15600,"station_id":"ce4bgv92rcd13ifvqcr0","pricing_plan_id":"cebpf4jnsgd1na2vs0mg"},{"bike_id":"22a1c0d3-2e2d-4da6-8a41-f310e5d53fce","system_id":"levelo_inurba_marseille","lat":43.310804,"lon":5.38359,"is_reserved":false,"is_disabled":false,"rental_uris":{"android":"levelo://app?vid=22a1c0d3-2e2d-4da6-8a41-f310e5d53fce","ios":"levelo://app?vid=22a1c0d3-2e2d-4da6-8a41-f310e5d53fce"},"vehicle_type_id":"4","last_reported":1716224911,"current_range_meters":16000,"station_id":"ce4bgv92rcd13ifvqcr0","pricing_plan_id":"cebpf4jnsgd1na2vs0mg"},{"bike_id":"0d7aa2ea-b87e-409c-873c-8fd16113138d","system_id":"levelo_inurba_marseille","lat":43.319955,"lon":5.381508,"is_reserved":false,"is_disabled":false,"rental_uris":{"android":"levelo://app?vid=0d7aa2ea-b87e-409c-873c-8fd16113138d","ios":"levelo://app?vid=0d7aa2ea-b87e-409c-873c-8fd16113138d"},"vehicle_type_id":"4","last_reported":1716224911,"current_range_meters":1200,"station_id":"ce4bhr12rcd13ifvqhpg","pricing_plan_id":"cebpf4jnsgd1na2vs0mg"},{"bike_id":"f7dc4db9-e1d1-4b85-bb54-3e9861b5cdc0","system_id":"levelo_inurba_marseille","lat":43.313571,"lon":5.384829,"is_reserved":false,"is_disabled":false,"rental_uris":{"android":"levelo://app?vid=f7dc4db9-e1d1-4b85-bb54-3e9861b5cdc0","ios":"levelo://app?vid=f7dc4db9-e1d1-4b85-bb54-3e9861b5cdc0"},"vehicle_type_id":"4","last_reported":1716224911,"current_range_meters":16000,"station_id":"ce4bgt92rcd13ifvqcf0","pricing_plan_id":"cebpf4jnsgd1na2vs0mg"},{"bike_id":"85b6555a-f3cb-412a-a866-d88c53101fe2","system_id":"levelo_inurba_marseille","lat":43.313571,"lon":5.384829,"is_reserved":false,"is_disabled":false,"rental_uris":{"android":"levelo://app?vid=85b6555a-f3cb-412a-a866-d88c53101fe2","ios":"levelo://app?vid=85b6555a-f3cb-412a-a866-d88c53101fe2"},"vehicle_type_id":"4","last_reported":1716224911,"current_range_meters":20000,"station_id":"ce4bgt92rcd13ifvqcf0","pricing_plan_id":"cebpf4jnsgd1na2vs0mg"},{"bike_id":"b16f9c19-b901-4999-add7-c4bf908bd6c5","system_id":"levelo_inurba_marseille","lat":43.31364,"lon":5.38497,"is_reserved":false,"is_disabled":false,"rental_uris":{"android":"levelo://app?vid=b16f9c19-b901-4999-add7-c4bf908bd6c5","ios":"levelo://app?vid=b16f9c19-b901-4999-add7-c4bf908bd6c5"},"vehicle_type_id":"4","last_reported":1716224911,"current_range_meters":13200,"station_id":"ce4bgt92rcd13ifvqcf0","pricing_plan_id":"cebpf4jnsgd1na2vs0mg"},{"bike_id":"04837f3c-3369-454a-b55c-c0954c7c29b7","system_id":"levelo_inurba_marseille","lat":43.313571,"lon":5.384829,"is_reserved":false,"is_disabled":false,"rental_uris":{"android":"levelo://app?vid=04837f3c-3369-454a-b55c-c0954c7c29b7","ios":"levelo://app?vid=04837f3c-3369-454a-b55c-c0954c7c29b7"},"vehicle_type_id":"4","last_reported":1716224911,"current_range_meters":15200,"station_id":"ce4bgt92rcd13ifvqcf0","pricing_plan_id":"cebpf4jnsgd1na2vs0mg"},{"bike_id":"45f3e636-9264-4745-a0d6-3a8db05764ae","system_id":"levelo_inurba_marseille","lat":43.29945,"lon":5.36566,"is_reserved":false,"is_disabled":false,"rental_uris":{"android":"levelo://app?vid=45f3e636-9264-4745-a0d6-3a8db05764ae","ios":"levelo://app?vid=45f3e636-9264-4745-a0d6-3a8db05764ae"},"vehicle_type_id":"4","last_reported":1716224911,"current_range_meters":6000,"station_id":"ce4bgm92rcd13ifvqbr0","pricing_plan_id":"cebpf4jnsgd1na2vs0mg"},{"bike_id":"d811ae23-9564-47c1-9249-10f0f4eb173d","system_id":"levelo_inurba_marseille","lat":43.299222,"lon":5.365554,"is_reserved":false,"is_disabled":false,"rental_uris":{"android":"levelo://app?vid=d811ae23-9564-47c1-9249-10f0f4eb173d","ios":"levelo://app?vid=d811ae23-9564-47c1-9249-10f0f4eb173d"},"vehicle_type_id":"4","last_reported":1716224911,"current_range_meters":10400,"station_id":"ce4bgm92rcd13ifvqbr0","pricing_plan_id":"cebpf4jnsgd1na2vs0mg"},{"bike_id":"5f546e44-1be1-436d-94cf-4715b29e40c4","system_id":"levelo_inurba_marseille","lat":43.313571,"lon":5.384829,"is_reserved":false,"is_disabled":false,"rental_uris":{"android":"levelo://app?vid=5f546e44-1be1-436d-94cf-4715b29e40c4","ios":"levelo://app?vid=5f546e44-1be1-436d-94cf-4715b29e40c4"},"vehicle_type_id":"4","last_reported":1716224911,"current_range_meters":7200,"station_id":"ce4bgt92rcd13ifvqcf0","pricing_plan_id":"cebpf4jnsgd1na2vs0mg"},{"bike_id":"9754140e-6aae-4928-8ea8-99b960f665f4","system_id":"levelo_inurba_marseille","lat":43.29849,"lon":5.36269,"is_reserved":false,"is_disabled":false,"rental_uris":{"android":"levelo://app?vid=9754140e-6aae-4928-8ea8-99b960f665f4","ios":"levelo://app?vid=9754140e-6aae-4928-8ea8-99b960f665f4"},"vehicle_type_id":"4","last_reported":1716224911,"current_range_meters":6000,"station_id":"","pricing_plan_id":"cebpf4jnsgd1na2vs0mg"},{"bike_id":"b581e871-c1d3-4338-8dde-bf811135836b","system_id":"levelo_inurba_marseille","lat":43.298433,"lon":5.362774,"is_reserved":false,"is_disabled":false,"rental_uris":{"android":"levelo://app?vid=b581e871-c1d3-4338-8dde-bf811135836b","ios":"levelo://app?vid=b581e871-c1d3-4338-8dde-bf811135836b"},"vehicle_type_id":"4","last_reported":1716224911,"current_range_meters":10800,"station_id":"ce4bgpp2rcd13ifvqc3g","pricing_plan_id":"cebpf4jnsgd1na2vs0mg"},{"bike_id":"04b0bf57-7ad1-4e3f-a203-ea6564939af7","system_id":"levelo_inurba_marseille","lat":43.298433,"lon":5.362774,"is_reserved":false,"is_disabled":false,"rental_uris":{"android":"levelo://app?vid=04b0bf57-7ad1-4e3f-a203-ea6564939af7","ios":"levelo://app?vid=04b0bf57-7ad1-4e3f-a203-ea6564939af7"},"vehicle_type_id":"4","last_reported":1716224911,"current_range_meters":23600,"station_id":"ce4bgpp2rcd13ifvqc3g","pricing_plan_id":"cebpf4jnsgd1na2vs0mg"},{"bike_id":"ed492a4e-944e-43b3-bd26-4581a8e6f7a8","system_id":"levelo_inurba_marseille","lat":43.297991,"lon":5.371041,"is_reserved":false,"is_disabled":false,"rental_uris":{"android":"levelo://app?vid=ed492a4e-944e-43b3-bd26-4581a8e6f7a8","ios":"levelo://app?vid=ed492a4e-944e-43b3-bd26-4581a8e6f7a8"},"vehicle_type_id":"4","last_reported":1716224911,"current_range_meters":30400,"station_id":"ce4bgop2rcd13ifvqc1g","pricing_plan_id":"cebpf4jnsgd1na2vs0mg"},{"bike_id":"4db12bb2-047c-428a-addf-22fa2d72f822","system_id":"levelo_inurba_marseille","lat":43.297774,"lon":5.370875,"is_reserved":false,"is_disabled":false,"rental_uris":{"android":"levelo://app?vid=4db12bb2-047c-428a-addf-22fa2d72f822","ios":"levelo://app?vid=4db12bb2-047c-428a-addf-22fa2d72f822"},"vehicle_type_id":"4","last_reported":1716224911,"current_range_meters":30400,"station_id":"ce4bgop2rcd13ifvqc1g","pricing_plan_id":"cebpf4jnsgd1na2vs0mg"},{"bike_id":"c67fe492-8c66-4e0f-b450-e2efa3b5948a","system_id":"levelo_inurba_marseille","lat":43.322872,"lon":5.382756,"is_reserved":false,"is_disabled":false,"rental_uris":{"android":"levelo://app?vid=c67fe492-8c66-4e0f-b450-e2efa3b5948a","ios":"levelo://app?vid=c67fe492-8c66-4e0f-b450-e2efa3b5948a"},"vehicle_type_id":"4","last_reported":1716224911,"current_range_meters":31200,"station_id":"ce4bhr12rcd13ifvqhqg","pricing_plan_id":"cebpf4jnsgd1na2vs0mg"},{"bike_id":"d39db37c-9f78-4b03-a1c5-3ec323bb42fe","system_id":"levelo_inurba_marseille","lat":43.322901,"lon":5.382635,"is_reserved":false,"is_disabled":false,"rental_uris":{"android":"levelo://app?vid=d39db37c-9f78-4b03-a1c5-3ec323bb42fe","ios":"levelo://app?vid=d39db37c-9f78-4b03-a1c5-3ec323bb42fe"},"vehicle_type_id":"4","last_reported":1716224911,"current_range_meters":6400,"station_id":"ce4bhr12rcd13ifvqhqg","pricing_plan_id":"cebpf4jnsgd1na2vs0mg"},{"bike_id":"16f66172-cfd1-4966-8e04-6218a5cde7c9","system_id":"levelo_inurba_marseille","lat":43.322893,"lon":5.382757,"is_reserved":false,"is_disabled":false,"rental_uris":{"android":"levelo://app?vid=16f66172-cfd1-4966-8e04-6218a5cde7c9","ios":"levelo://app?vid=16f66172-cfd1-4966-8e04-6218a5cde7c9"},"vehicle_type_id":"4","last_reported":1716224911,"current_range_meters":800,"station_id":"ce4bhr12rcd13ifvqhqg","pricing_plan_id":"cebpf4jnsgd1na2vs0mg"},{"bike_id":"e2f3b171-46d9-4715-82b4-db0052e037c2","system_id":"levelo_inurba_marseille","lat":43.322872,"lon":5.382756,"is_reserved":false,"is_disabled":false,"rental_uris":{"android":"levelo://app?vid=e2f3b171-46d9-4715-82b4-db0052e037c2","ios":"levelo://app?vid=e2f3b171-46d9-4715-82b4-db0052e037c2"},"vehicle_type_id":"4","last_reported":1716224911,"current_range_meters":7200,"station_id":"ce4bhr12rcd13ifvqhqg","pricing_plan_id":"cebpf4jnsgd1na2vs0mg"},{"bike_id":"4bb729d9-31a6-480f-98cd-91479e5e67a5","system_id":"levelo_inurba_marseille","lat":43.297163,"lon":5.365866,"is_reserved":false,"is_disabled":false,"rental_uris":{"android":"levelo://app?vid=4bb729d9-31a6-480f-98cd-91479e5e67a5","ios":"levelo://app?vid=4bb729d9-31a6-480f-98cd-91479e5e67a5"},"vehicle_type_id":"4","last_reported":1716224911,"current_range_meters":4400,"station_id":"ce4bgn12rcd13ifvqbt0","pricing_plan_id":"cebpf4jnsgd1na2vs0mg"},{"bike_id":"b868d92f-07ef-4820-acd5-af774ddfc56c","system_id":"levelo_inurba_marseille","lat":43.323161,"lon":5.38268,"is_reserved":false,"is_disabled":false,"rental_uris":{"android":"levelo://app?vid=b868d92f-07ef-4820-acd5-af774ddfc56c","ios":"levelo://app?vid=b868d92f-07ef-4820-acd5-af774ddfc56c"},"vehicle_type_id":"4","last_reported":1716224911,"current_range_meters":10800,"station_id":"ce4bhr12rcd13ifvqhqg","pricing_plan_id":"cebpf4jnsgd1na2vs0mg"},{"bike_id":"e99c1413-e6f6-402a-958a-c683f49aed10","system_id":"levelo_inurba_marseille","lat":43.297163,"lon":5.365866,"is_reserved":false,"is_disabled":false,"rental_uris":{"android":"levelo://app?vid=e99c1413-e6f6-402a-958a-c683f49aed10","ios":"levelo://app?vid=e99c1413-e6f6-402a-958a-c683f49aed10"},"vehicle_type_id":"4","last_reported":1716224911,"current_range_meters":11200,"station_id":"ce4bgn12rcd13ifvqbt0","pricing_plan_id":"cebpf4jnsgd1na2vs0mg"},{"bike_id":"03c2fdc3-3415-452b-90d3-56cf0943e907","system_id":"levelo_inurba_marseille","lat":43.297163,"lon":5.365866,"is_reserved":false,"is_disabled":false,"rental_uris":{"android":"levelo://app?vid=03c2fdc3-3415-452b-90d3-56cf0943e907","ios":"levelo://app?vid=03c2fdc3-3415-452b-90d3-56cf0943e907"},"vehicle_type_id":"4","last_reported":1716224911,"current_range_meters":23600,"station_id":"ce4bgn12rcd13ifvqbt0","pricing_plan_id":"cebpf4jnsgd1na2vs0mg"},{"bike_id":"47d08bf4-b750-4eab-9fe6-20b876dd3427","system_id":"levelo_inurba_marseille","lat":43.297163,"lon":5.365866,"is_reserved":false,"is_disabled":false,"rental_uris":{"android":"levelo://app?vid=47d08bf4-b750-4eab-9fe6-20b876dd3427","ios":"levelo://app?vid=47d08bf4-b750-4eab-9fe6-20b876dd3427"},"vehicle_type_id":"4","last_reported":1716224911,"current_range_meters":0,"station_id":"ce4bgn12rcd13ifvqbt0","pricing_plan_id":"cebpf4jnsgd1na2vs0mg"},{"bike_id":"a0868d65-8372-4f99-99e2-cd2833b5abb1","system_id":"levelo_inurba_marseille","lat":43.297001,"lon":5.366569,"is_reserved":false,"is_disabled":false,"rental_uris":{"android":"levelo://app?vid=a0868d65-8372-4f99-99e2-cd2833b5abb1","ios":"levelo://app?vid=a0868d65-8372-4f99-99e2-cd2833b5abb1"},"vehicle_type_id":"4","last_reported":1716224911,"current_range_meters":16000,"station_id":"ce4bgn12rcd13ifvqbt0","pricing_plan_id":"cebpf4jnsgd1na2vs0mg"},{"bike_id":"d2243c65-0525-45fa-b8c7-d03e9d5c834c","system_id":"levelo_inurba_marseille","lat":43.297163,"lon":5.365866,"is_reserved":false,"is_disabled":false,"rental_uris":{"android":"levelo://app?vid=d2243c65-0525-45fa-b8c7-d03e9d5c834c","ios":"levelo://app?vid=d2243c65-0525-45fa-b8c7-d03e9d5c834c"},"vehicle_type_id":"4","last_reported":1716224911,"current_range_meters":0,"station_id":"ce4bgn12rcd13ifvqbt0","pricing_plan_id":"cebpf4jnsgd1na2vs0mg"},{"bike_id":"7eafbf38-e412-4bb7-835a-c99834a68771","system_id":"levelo_inurba_marseille","lat":43.29573,"lon":5.367355,"is_reserved":false,"is_disabled":false,"rental_uris":{"android":"levelo://app?vid=7eafbf38-e412-4bb7-835a-c99834a68771","ios":"levelo://app?vid=7eafbf38-e412-4bb7-835a-c99834a68771"},"vehicle_type_id":"4","last_reported":1716224911,"current_range_meters":22400,"station_id":"ce4bgph2rcd13ifvqc2g","pricing_plan_id":"cebpf4jnsgd1na2vs0mg"},{"bike_id":"6ac192c4-45a3-4f5b-a7e1-82d31d08f855","system_id":"levelo_inurba_marseille","lat":43.296921,"lon":5.376579,"is_reserved":false,"is_disabled":false,"rental_uris":{"android":"levelo://app?vid=6ac192c4-45a3-4f5b-a7e1-82d31d08f855","ios":"levelo://app?vid=6ac192c4-45a3-4f5b-a7e1-82d31d08f855"},"vehicle_type_id":"4","last_reported":1716224911,"current_range_meters":4000,"station_id":"ce4bgkh2rcd13ifvqbl0","pricing_plan_id":"cebpf4jnsgd1na2vs0mg"},{"bike_id":"58dec755-b58f-4768-ac5a-4ca5589510f0","system_id":"levelo_inurba_marseille","lat":43.299028,"lon":5.381509,"is_reserved":false,"is_disabled":false,"rental_uris":{"android":"levelo://app?vid=58dec755-b58f-4768-ac5a-4ca5589510f0","ios":"levelo://app?vid=58dec755-b58f-4768-ac5a-4ca5589510f0"},"vehicle_type_id":"4","last_reported":1716224911,"current_range_meters":10800,"station_id":"ce4bgj12rcd13ifvqbc0","pricing_plan_id":"cebpf4jnsgd1na2vs0mg"},{"bike_id":"40dfd810-a860-4d9f-bc10-0b4586e2df40","system_id":"levelo_inurba_marseille","lat":43.299028,"lon":5.381509,"is_reserved":false,"is_disabled":false,"rental_uris":{"android":"levelo://app?vid=40dfd810-a860-4d9f-bc10-0b4586e2df40","ios":"levelo://app?vid=40dfd810-a860-4d9f-bc10-0b4586e2df40"},"vehicle_type_id":"4","last_reported":1716224911,"current_range_meters":31200,"station_id":"ce4bgj12rcd13ifvqbc0","pricing_plan_id":"cebpf4jnsgd1na2vs0mg"},{"bike_id":"b3d497a9-0f80-4231-9148-3f1dc23bb4bb","system_id":"levelo_inurba_marseille","lat":43.299028,"lon":5.381509,"is_reserved":false,"is_disabled":false,"rental_uris":{"android":"levelo://app?vid=b3d497a9-0f80-4231-9148-3f1dc23bb4bb","ios":"levelo://app?vid=b3d497a9-0f80-4231-9148-3f1dc23bb4bb"},"vehicle_type_id":"4","last_reported":1716224911,"current_range_meters":3600,"station_id":"ce4bgj12rcd13ifvqbc0","pricing_plan_id":"cebpf4jnsgd1na2vs0mg"},{"bike_id":"148c282e-efc1-44e6-addb-133c50df5c83","system_id":"levelo_inurba_marseille","lat":43.317557,"lon":5.390173,"is_reserved":false,"is_disabled":false,"rental_uris":{"android":"levelo://app?vid=148c282e-efc1-44e6-addb-133c50df5c83","ios":"levelo://app?vid=148c282e-efc1-44e6-addb-133c50df5c83"},"vehicle_type_id":"4","last_reported":1716224911,"current_range_meters":18800,"station_id":"ce4bhqp2rcd13ifvqhng","pricing_plan_id":"cebpf4jnsgd1na2vs0mg"},{"bike_id":"fc23b41c-bcff-4a3c-af79-9e0f7432e89e","system_id":"levelo_inurba_marseille","lat":43.317557,"lon":5.390173,"is_reserved":false,"is_disabled":false,"rental_uris":{"android":"levelo://app?vid=fc23b41c-bcff-4a3c-af79-9e0f7432e89e","ios":"levelo://app?vid=fc23b41c-bcff-4a3c-af79-9e0f7432e89e"},"vehicle_type_id":"4","last_reported":1716224911,"current_range_meters":25600,"station_id":"ce4bhqp2rcd13ifvqhng","pricing_plan_id":"cebpf4jnsgd1na2vs0mg"},{"bike_id":"e0721841-d94d-46a6-a7d6-5581de29fa61","system_id":"levelo_inurba_marseille","lat":43.296935,"lon":5.376544,"is_reserved":false,"is_disabled":false,"rental_uris":{"android":"levelo://app?vid=e0721841-d94d-46a6-a7d6-5581de29fa61","ios":"levelo://app?vid=e0721841-d94d-46a6-a7d6-5581de29fa61"},"vehicle_type_id":"4","last_reported":1716224911,"current_range_meters":17200,"station_id":"ce4bgkh2rcd13ifvqbl0","pricing_plan_id":"cebpf4jnsgd1na2vs0mg"},{"bike_id":"56f06e89-05fe-4c35-b618-0dc34ea11b64","system_id":"levelo_inurba_marseille","lat":43.298037,"lon":5.381066,"is_reserved":false,"is_disabled":false,"rental_uris":{"android":"levelo://app?vid=56f06e89-05fe-4c35-b618-0dc34ea11b64","ios":"levelo://app?vid=56f06e89-05fe-4c35-b618-0dc34ea11b64"},"vehicle_type_id":"4","last_reported":1716224911,"current_range_meters":0,"station_id":"ce4bgip2rcd13ifvqbb0","pricing_plan_id":"cebpf4jnsgd1na2vs0mg"},{"bike_id":"63b61d32-b8ff-4c18-9326-0c92fca43727","system_id":"levelo_inurba_marseille","lat":43.304278,"lon":5.388868,"is_reserved":false,"is_disabled":false,"rental_uris":{"android":"levelo://app?vid=63b61d32-b8ff-4c18-9326-0c92fca43727","ios":"levelo://app?vid=63b61d32-b8ff-4c18-9326-0c92fca43727"},"vehicle_type_id":"4","last_reported":1716224911,"current_range_meters":13600,"station_id":"ce4bgk12rcd13ifvqbi0","pricing_plan_id":"cebpf4jnsgd1na2vs0mg"},{"bike_id":"c09b1624-2552-4673-b826-920b18936808","system_id":"levelo_inurba_marseille","lat":43.298037,"lon":5.381066,"is_reserved":false,"is_disabled":false,"rental_uris":{"android":"levelo://app?vid=c09b1624-2552-4673-b826-920b18936808","ios":"levelo://app?vid=c09b1624-2552-4673-b826-920b18936808"},"vehicle_type_id":"4","last_reported":1716224911,"current_range_meters":16800,"station_id":"ce4bgip2rcd13ifvqbb0","pricing_plan_id":"cebpf4jnsgd1na2vs0mg"},{"bike_id":"aa3d3ff2-7fea-4146-abc2-7d5b57150718","system_id":"levelo_inurba_marseille","lat":43.304274,"lon":5.388873,"is_reserved":false,"is_disabled":false,"rental_uris":{"android":"levelo://app?vid=aa3d3ff2-7fea-4146-abc2-7d5b57150718","ios":"levelo://app?vid=aa3d3ff2-7fea-4146-abc2-7d5b57150718"},"vehicle_type_id":"4","last_reported":1716224911,"current_range_meters":8000,"station_id":"ce4bgk12rcd13ifvqbi0","pricing_plan_id":"cebpf4jnsgd1na2vs0mg"},{"bike_id":"c1c2d8ee-a61d-4ca7-8f6d-6c605dc3221f","system_id":"levelo_inurba_marseille","lat":43.296263,"lon":5.377094,"is_reserved":false,"is_disabled":false,"rental_uris":{"android":"levelo://app?vid=c1c2d8ee-a61d-4ca7-8f6d-6c605dc3221f","ios":"levelo://app?vid=c1c2d8ee-a61d-4ca7-8f6d-6c605dc3221f"},"vehicle_type_id":"4","last_reported":1716224911,"current_range_meters":22400,"station_id":"ce4bgi92rcd13ifvqb90","pricing_plan_id":"cebpf4jnsgd1na2vs0mg"},{"bike_id":"5740a1cf-317f-4aac-8697-26303e04f937","system_id":"levelo_inurba_marseille","lat":43.304278,"lon":5.388868,"is_reserved":false,"is_disabled":false,"rental_uris":{"android":"levelo://app?vid=5740a1cf-317f-4aac-8697-26303e04f937","ios":"levelo://app?vid=5740a1cf-317f-4aac-8697-26303e04f937"},"vehicle_type_id":"4","last_reported":1716224911,"current_range_meters":4000,"station_id":"ce4bgk12rcd13ifvqbi0","pricing_plan_id":"cebpf4jnsgd1na2vs0mg"},{"bike_id":"d7487864-0a25-4ad8-b1da-0cc4ad76982c","system_id":"levelo_inurba_marseille","lat":43.296277,"lon":5.377108,"is_reserved":false,"is_disabled":false,"rental_uris":{"android":"levelo://app?vid=d7487864-0a25-4ad8-b1da-0cc4ad76982c","ios":"levelo://app?vid=d7487864-0a25-4ad8-b1da-0cc4ad76982c"},"vehicle_type_id":"4","last_reported":1716224911,"current_range_meters":19200,"station_id":"ce4bgi92rcd13ifvqb90","pricing_plan_id":"cebpf4jnsgd1na2vs0mg"},{"bike_id":"e3bed7d1-ebca-46e5-a00a-0d1f90324491","system_id":"levelo_inurba_marseille","lat":43.296129,"lon":5.377071,"is_reserved":false,"is_disabled":false,"rental_uris":{"android":"levelo://app?vid=e3bed7d1-ebca-46e5-a00a-0d1f90324491","ios":"levelo://app?vid=e3bed7d1-ebca-46e5-a00a-0d1f90324491"},"vehicle_type_id":"4","last_reported":1716224911,"current_range_meters":4000,"station_id":"ce4bgi92rcd13ifvqb90","pricing_plan_id":"cebpf4jnsgd1na2vs0mg"},{"bike_id":"01f0e650-beed-48dc-b2a6-d54e014c1b69","system_id":"levelo_inurba_marseille","lat":43.2936,"lon":5.37835,"is_reserved":false,"is_disabled":false,"rental_uris":{"android":"levelo://app?vid=01f0e650-beed-48dc-b2a6-d54e014c1b69","ios":"levelo://app?vid=01f0e650-beed-48dc-b2a6-d54e014c1b69"},"vehicle_type_id":"4","last_reported":1716224911,"current_range_meters":16800,"station_id":"ce4bgjh2rcd13ifvqbf0","pricing_plan_id":"cebpf4jnsgd1na2vs0mg"},{"bike_id":"946531fb-8679-4c57-9656-a37059aa8d95","system_id":"levelo_inurba_marseille","lat":43.295279,"lon":5.375048,"is_reserved":false,"is_disabled":false,"rental_uris":{"android":"levelo://app?vid=946531fb-8679-4c57-9656-a37059aa8d95","ios":"levelo://app?vid=946531fb-8679-4c57-9656-a37059aa8d95"},"vehicle_type_id":"4","last_reported":1716224911,"current_range_meters":30400,"station_id":"ce4bgkp2rcd13ifvqbmg","pricing_plan_id":"cebpf4jnsgd1na2vs0mg"},{"bike_id":"d014cf3e-048b-41f0-8f75-4b7171a47831","system_id":"levelo_inurba_marseille","lat":43.299717,"lon":5.384845,"is_reserved":false,"is_disabled":false,"rental_uris":{"android":"levelo://app?vid=d014cf3e-048b-41f0-8f75-4b7171a47831","ios":"levelo://app?vid=d014cf3e-048b-41f0-8f75-4b7171a47831"},"vehicle_type_id":"4","last_reported":1716224911,"current_range_meters":31200,"station_id":"ce4bgj92rcd13ifvqbd0","pricing_plan_id":"cebpf4jnsgd1na2vs0mg"},{"bike_id":"a0cd40f9-82c7-4ac1-8cc8-7a6c03ed5177","system_id":"levelo_inurba_marseille","lat":43.295279,"lon":5.375048,"is_reserved":false,"is_disabled":false,"rental_uris":{"android":"levelo://app?vid=a0cd40f9-82c7-4ac1-8cc8-7a6c03ed5177","ios":"levelo://app?vid=a0cd40f9-82c7-4ac1-8cc8-7a6c03ed5177"},"vehicle_type_id":"4","last_reported":1716224911,"current_range_meters":0,"station_id":"ce4bgkp2rcd13ifvqbmg","pricing_plan_id":"cebpf4jnsgd1na2vs0mg"},{"bike_id":"6f6f6dc8-56d5-4722-b42b-8c2ba8c0519c","system_id":"levelo_inurba_marseille","lat":43.29964,"lon":5.38491,"is_reserved":false,"is_disabled":false,"rental_uris":{"android":"levelo://app?vid=6f6f6dc8-56d5-4722-b42b-8c2ba8c0519c","ios":"levelo://app?vid=6f6f6dc8-56d5-4722-b42b-8c2ba8c0519c"},"vehicle_type_id":"4","last_reported":1716224911,"current_range_meters":15200,"station_id":"ce4bgj92rcd13ifvqbd0","pricing_plan_id":"cebpf4jnsgd1na2vs0mg"},{"bike_id":"33096021-c755-47f6-964f-45926f8e69e9","system_id":"levelo_inurba_marseille","lat":43.299724,"lon":5.384848,"is_reserved":false,"is_disabled":false,"rental_uris":{"android":"levelo://app?vid=33096021-c755-47f6-964f-45926f8e69e9","ios":"levelo://app?vid=33096021-c755-47f6-964f-45926f8e69e9"},"vehicle_type_id":"4","last_reported":1716224911,"current_range_meters":4000,"station_id":"ce4bgj92rcd13ifvqbd0","pricing_plan_id":"cebpf4jnsgd1na2vs0mg"},{"bike_id":"dd7a1d3f-95ac-4743-82bd-83f9f4169add","system_id":"levelo_inurba_marseille","lat":43.295279,"lon":5.375048,"is_reserved":false,"is_disabled":false,"rental_uris":{"android":"levelo://app?vid=dd7a1d3f-95ac-4743-82bd-83f9f4169add","ios":"levelo://app?vid=dd7a1d3f-95ac-4743-82bd-83f9f4169add"},"vehicle_type_id":"4","last_reported":1716224911,"current_range_meters":14400,"station_id":"ce4bgkp2rcd13ifvqbmg","pricing_plan_id":"cebpf4jnsgd1na2vs0mg"},{"bike_id":"6136e79a-2fe7-46a6-a4ee-d95e35c7da04","system_id":"levelo_inurba_marseille","lat":43.295279,"lon":5.375048,"is_reserved":false,"is_disabled":false,"rental_uris":{"android":"levelo://app?vid=6136e79a-2fe7-46a6-a4ee-d95e35c7da04","ios":"levelo://app?vid=6136e79a-2fe7-46a6-a4ee-d95e35c7da04"},"vehicle_type_id":"4","last_reported":1716224911,"current_range_meters":22400,"station_id":"ce4bgkp2rcd13ifvqbmg","pricing_plan_id":"cebpf4jnsgd1na2vs0mg"},{"bike_id":"73d24a53-7f1e-447f-b1f1-5ed5cee06552","system_id":"levelo_inurba_marseille","lat":43.30083,"lon":5.38689,"is_reserved":false,"is_disabled":false,"rental_uris":{"android":"levelo://app?vid=73d24a53-7f1e-447f-b1f1-5ed5cee06552","ios":"levelo://app?vid=73d24a53-7f1e-447f-b1f1-5ed5cee06552"},"vehicle_type_id":"4","last_reported":1716224911,"current_range_meters":0,"station_id":"","pricing_plan_id":"cebpf4jnsgd1na2vs0mg"},{"bike_id":"78252e3e-8eff-4ccb-a142-6526e4cc39f4","system_id":"levelo_inurba_marseille","lat":43.30089,"lon":5.38729,"is_reserved":false,"is_disabled":false,"rental_uris":{"android":"levelo://app?vid=78252e3e-8eff-4ccb-a142-6526e4cc39f4","ios":"levelo://app?vid=78252e3e-8eff-4ccb-a142-6526e4cc39f4"},"vehicle_type_id":"4","last_reported":1716224911,"current_range_meters":19200,"station_id":"","pricing_plan_id":"cebpf4jnsgd1na2vs0mg"},{"bike_id":"8253cce2-b306-4b85-831e-d6358265c915","system_id":"levelo_inurba_marseille","lat":43.323542,"lon":5.388983,"is_reserved":false,"is_disabled":false,"rental_uris":{"android":"levelo://app?vid=8253cce2-b306-4b85-831e-d6358265c915","ios":"levelo://app?vid=8253cce2-b306-4b85-831e-d6358265c915"},"vehicle_type_id":"4","last_reported":1716224911,"current_range_meters":1200,"station_id":"ce4bhqp2rcd13ifvqhog","pricing_plan_id":"cebpf4jnsgd1na2vs0mg"},{"bike_id":"21e9309e-00b6-4d34-aea8-da7b82152a05","system_id":"levelo_inurba_marseille","lat":43.299724,"lon":5.384848,"is_reserved":false,"is_disabled":false,"rental_uris":{"android":"levelo://app?vid=21e9309e-00b6-4d34-aea8-da7b82152a05","ios":"levelo://app?vid=21e9309e-00b6-4d34-aea8-da7b82152a05"},"vehicle_type_id":"4","last_reported":1716224911,"current_range_meters":20400,"station_id":"ce4bgj92rcd13ifvqbd0","pricing_plan_id":"cebpf4jnsgd1na2vs0mg"},{"bike_id":"79e0bd36-23a2-47fb-ad65-e38f492a8b1a","system_id":"levelo_inurba_marseille","lat":43.29602,"lon":5.381084,"is_reserved":false,"is_disabled":false,"rental_uris":{"android":"levelo://app?vid=79e0bd36-23a2-47fb-ad65-e38f492a8b1a","ios":"levelo://app?vid=79e0bd36-23a2-47fb-ad65-e38f492a8b1a"},"vehicle_type_id":"4","last_reported":1716224911,"current_range_meters":24400,"station_id":"ce4bgl12rcd13ifvqbo0","pricing_plan_id":"cebpf4jnsgd1na2vs0mg"},{"bike_id":"8c62741c-f44a-4c5e-ad3e-690715f5fdcc","system_id":"levelo_inurba_marseille","lat":43.29602,"lon":5.381084,"is_reserved":false,"is_disabled":false,"rental_uris":{"android":"levelo://app?vid=8c62741c-f44a-4c5e-ad3e-690715f5fdcc","ios":"levelo://app?vid=8c62741c-f44a-4c5e-ad3e-690715f5fdcc"},"vehicle_type_id":"4","last_reported":1716224911,"current_range_meters":25600,"station_id":"ce4bgl12rcd13ifvqbo0","pricing_plan_id":"cebpf4jnsgd1na2vs0mg"},{"bike_id":"e531b421-862b-4903-8714-b4111cd6b32a","system_id":"levelo_inurba_marseille","lat":43.29318,"lon":5.37025,"is_reserved":false,"is_disabled":false,"rental_uris":{"android":"levelo://app?vid=e531b421-862b-4903-8714-b4111cd6b32a","ios":"levelo://app?vid=e531b421-862b-4903-8714-b4111cd6b32a"},"vehicle_type_id":"4","last_reported":1716224911,"current_range_meters":23200,"station_id":"","pricing_plan_id":"cebpf4jnsgd1na2vs0mg"},{"bike_id":"e1086ef2-5ef8-4e21-b868-a72fc58b18f4","system_id":"levelo_inurba_marseille","lat":43.293158,"lon":5.370328,"is_reserved":false,"is_disabled":false,"rental_uris":{"android":"levelo://app?vid=e1086ef2-5ef8-4e21-b868-a72fc58b18f4","ios":"levelo://app?vid=e1086ef2-5ef8-4e21-b868-a72fc58b18f4"},"vehicle_type_id":"4","last_reported":1716224911,"current_range_meters":14000,"station_id":"","pricing_plan_id":"cebpf4jnsgd1na2vs0mg"},{"bike_id":"536aee1d-1645-45f6-b65d-865d8e1fb2a2","system_id":"levelo_inurba_marseille","lat":43.293259,"lon":5.371586,"is_reserved":false,"is_disabled":false,"rental_uris":{"android":"levelo://app?vid=536aee1d-1645-45f6-b65d-865d8e1fb2a2","ios":"levelo://app?vid=536aee1d-1645-45f6-b65d-865d8e1fb2a2"},"vehicle_type_id":"4","last_reported":1716224911,"current_range_meters":23600,"station_id":"ce4bgh92rcd13ifvqb40","pricing_plan_id":"cebpf4jnsgd1na2vs0mg"},{"bike_id":"3682cd29-7f46-4f29-8658-3ccc3693b0f7","system_id":"levelo_inurba_marseille","lat":43.292749,"lon":5.368402,"is_reserved":false,"is_disabled":false,"rental_uris":{"android":"levelo://app?vid=3682cd29-7f46-4f29-8658-3ccc3693b0f7","ios":"levelo://app?vid=3682cd29-7f46-4f29-8658-3ccc3693b0f7"},"vehicle_type_id":"4","last_reported":1716224911,"current_range_meters":10400,"station_id":"ce4bhbp2rcd13ifvqesg","pricing_plan_id":"cebpf4jnsgd1na2vs0mg"},{"bike_id":"dfc7477b-3bab-4b96-b03f-9d8122587742","system_id":"levelo_inurba_marseille","lat":43.29601,"lon":5.381084,"is_reserved":false,"is_disabled":false,"rental_uris":{"android":"levelo://app?vid=dfc7477b-3bab-4b96-b03f-9d8122587742","ios":"levelo://app?vid=dfc7477b-3bab-4b96-b03f-9d8122587742"},"vehicle_type_id":"4","last_reported":1716224911,"current_range_meters":21600,"station_id":"ce4bgl12rcd13ifvqbo0","pricing_plan_id":"cebpf4jnsgd1na2vs0mg"},{"bike_id":"41d7f6cc-d70d-4e79-bc84-91acedd885dd","system_id":"levelo_inurba_marseille","lat":43.293009,"lon":5.374584,"is_reserved":false,"is_disabled":false,"rental_uris":{"android":"levelo://app?vid=41d7f6cc-d70d-4e79-bc84-91acedd885dd","ios":"levelo://app?vid=41d7f6cc-d70d-4e79-bc84-91acedd885dd"},"vehicle_type_id":"4","last_reported":1716224911,"current_range_meters":28000,"station_id":"ce4bgi12rcd13ifvqb70","pricing_plan_id":"cebpf4jnsgd1na2vs0mg"},{"bike_id":"33fca837-c273-44ba-a5cb-3e631a05fce2","system_id":"levelo_inurba_marseille","lat":43.305994,"lon":5.393687,"is_reserved":false,"is_disabled":false,"rental_uris":{"android":"levelo://app?vid=33fca837-c273-44ba-a5cb-3e631a05fce2","ios":"levelo://app?vid=33fca837-c273-44ba-a5cb-3e631a05fce2"},"vehicle_type_id":"4","last_reported":1716224911,"current_range_meters":25600,"station_id":"ce4bh0p2rcd13ifvqd80","pricing_plan_id":"cebpf4jnsgd1na2vs0mg"},{"bike_id":"1b1e42d2-9789-4167-91af-26dce57bef43","system_id":"levelo_inurba_marseille","lat":43.293,"lon":5.37466,"is_reserved":false,"is_disabled":false,"rental_uris":{"android":"levelo://app?vid=1b1e42d2-9789-4167-91af-26dce57bef43","ios":"levelo://app?vid=1b1e42d2-9789-4167-91af-26dce57bef43"},"vehicle_type_id":"4","last_reported":1716224911,"current_range_meters":2000,"station_id":"ce4bgi12rcd13ifvqb70","pricing_plan_id":"cebpf4jnsgd1na2vs0mg"},{"bike_id":"65139769-3284-4a01-8600-b396a969cda2","system_id":"levelo_inurba_marseille","lat":43.292965,"lon":5.374603,"is_reserved":false,"is_disabled":false,"rental_uris":{"android":"levelo://app?vid=65139769-3284-4a01-8600-b396a969cda2","ios":"levelo://app?vid=65139769-3284-4a01-8600-b396a969cda2"},"vehicle_type_id":"4","last_reported":1716224911,"current_range_meters":24000,"station_id":"ce4bgi12rcd13ifvqb70","pricing_plan_id":"cebpf4jnsgd1na2vs0mg"},{"bike_id":"93601bdf-1b45-4ede-b268-3e53ed83b31d","system_id":"levelo_inurba_marseille","lat":43.293009,"lon":5.374584,"is_reserved":false,"is_disabled":false,"rental_uris":{"android":"levelo://app?vid=93601bdf-1b45-4ede-b268-3e53ed83b31d","ios":"levelo://app?vid=93601bdf-1b45-4ede-b268-3e53ed83b31d"},"vehicle_type_id":"4","last_reported":1716224911,"current_range_meters":6400,"station_id":"ce4bgi12rcd13ifvqb70","pricing_plan_id":"cebpf4jnsgd1na2vs0mg"},{"bike_id":"28220642-0fdd-472d-9e56-b327cf109d96","system_id":"levelo_inurba_marseille","lat":43.29293,"lon":5.37464,"is_reserved":false,"is_disabled":false,"rental_uris":{"android":"levelo://app?vid=28220642-0fdd-472d-9e56-b327cf109d96","ios":"levelo://app?vid=28220642-0fdd-472d-9e56-b327cf109d96"},"vehicle_type_id":"4","last_reported":1716224911,"current_range_meters":19200,"station_id":"ce4bgi12rcd13ifvqb70","pricing_plan_id":"cebpf4jnsgd1na2vs0mg"},{"bike_id":"eb38fa18-3ef2-40ad-930e-c43e9bab7109","system_id":"levelo_inurba_marseille","lat":43.305994,"lon":5.393687,"is_reserved":false,"is_disabled":false,"rental_uris":{"android":"levelo://app?vid=eb38fa18-3ef2-40ad-930e-c43e9bab7109","ios":"levelo://app?vid=eb38fa18-3ef2-40ad-930e-c43e9bab7109"},"vehicle_type_id":"4","last_reported":1716224911,"current_range_meters":12800,"station_id":"ce4bh0p2rcd13ifvqd80","pricing_plan_id":"cebpf4jnsgd1na2vs0mg"},{"bike_id":"aa413828-29f3-417a-9b4e-4017d6f92dc8","system_id":"levelo_inurba_marseille","lat":43.29292,"lon":5.37464,"is_reserved":false,"is_disabled":false,"rental_uris":{"android":"levelo://app?vid=aa413828-29f3-417a-9b4e-4017d6f92dc8","ios":"levelo://app?vid=aa413828-29f3-417a-9b4e-4017d6f92dc8"},"vehicle_type_id":"4","last_reported":1716224911,"current_range_meters":1600,"station_id":"ce4bgi12rcd13ifvqb70","pricing_plan_id":"cebpf4jnsgd1na2vs0mg"},{"bike_id":"9ab877dc-9422-4a55-a155-cf6a7bf166b5","system_id":"levelo_inurba_marseille","lat":43.30085,"lon":5.390856,"is_reserved":false,"is_disabled":false,"rental_uris":{"android":"levelo://app?vid=9ab877dc-9422-4a55-a155-cf6a7bf166b5","ios":"levelo://app?vid=9ab877dc-9422-4a55-a155-cf6a7bf166b5"},"vehicle_type_id":"4","last_reported":1716224911,"current_range_meters":7600,"station_id":"ce4bh192rcd13ifvqdb0","pricing_plan_id":"cebpf4jnsgd1na2vs0mg"},{"bike_id":"84b8c4df-46b4-4d0a-bda3-dbc48def70be","system_id":"levelo_inurba_marseille","lat":43.302992,"lon":5.392136,"is_reserved":false,"is_disabled":false,"rental_uris":{"android":"levelo://app?vid=84b8c4df-46b4-4d0a-bda3-dbc48def70be","ios":"levelo://app?vid=84b8c4df-46b4-4d0a-bda3-dbc48def70be"},"vehicle_type_id":"4","last_reported":1716224911,"current_range_meters":0,"station_id":"ce4bgkh2rcd13ifvqbk0","pricing_plan_id":"cebpf4jnsgd1na2vs0mg"},{"bike_id":"82a80ec9-74c8-4a40-b9d3-63ae0bb4b0ce","system_id":"levelo_inurba_marseille","lat":43.317104,"lon":5.436818,"is_reserved":false,"is_disabled":false,"rental_uris":{"android":"levelo://app?vid=82a80ec9-74c8-4a40-b9d3-63ae0bb4b0ce","ios":"levelo://app?vid=82a80ec9-74c8-4a40-b9d3-63ae0bb4b0ce"},"vehicle_type_id":"4","last_reported":1716224911,"current_range_meters":13600,"station_id":"ce4bhp92rcd13ifvqhcg","pricing_plan_id":"cebpf4jnsgd1na2vs0mg"},{"bike_id":"3d4e412d-aa3b-4c2f-8378-80d7585c453d","system_id":"levelo_inurba_marseille","lat":43.292311,"lon":5.360731,"is_reserved":false,"is_disabled":false,"rental_uris":{"android":"levelo://app?vid=3d4e412d-aa3b-4c2f-8378-80d7585c453d","ios":"levelo://app?vid=3d4e412d-aa3b-4c2f-8378-80d7585c453d"},"vehicle_type_id":"4","last_reported":1716224911,"current_range_meters":21200,"station_id":"ce4bhbh2rcd13ifvqeqg","pricing_plan_id":"cebpf4jnsgd1na2vs0mg"},{"bike_id":"05252814-1584-46a1-b53c-40e316e3147b","system_id":"levelo_inurba_marseille","lat":43.30088,"lon":5.39065,"is_reserved":false,"is_disabled":false,"rental_uris":{"android":"levelo://app?vid=05252814-1584-46a1-b53c-40e316e3147b","ios":"levelo://app?vid=05252814-1584-46a1-b53c-40e316e3147b"},"vehicle_type_id":"4","last_reported":1716224911,"current_range_meters":3600,"station_id":"ce4bh192rcd13ifvqdb0","pricing_plan_id":"cebpf4jnsgd1na2vs0mg"},{"bike_id":"a6f60d1f-e708-462b-9e56-6776ff893814","system_id":"levelo_inurba_marseille","lat":43.30098,"lon":5.39076,"is_reserved":false,"is_disabled":false,"rental_uris":{"android":"levelo://app?vid=a6f60d1f-e708-462b-9e56-6776ff893814","ios":"levelo://app?vid=a6f60d1f-e708-462b-9e56-6776ff893814"},"vehicle_type_id":"4","last_reported":1716224911,"current_range_meters":10000,"station_id":"ce4bh192rcd13ifvqdb0","pricing_plan_id":"cebpf4jnsgd1na2vs0mg"},{"bike_id":"60f8dd37-ad3b-4c1d-bb7e-670f984283ae","system_id":"levelo_inurba_marseille","lat":43.292311,"lon":5.360731,"is_reserved":false,"is_disabled":false,"rental_uris":{"android":"levelo://app?vid=60f8dd37-ad3b-4c1d-bb7e-670f984283ae","ios":"levelo://app?vid=60f8dd37-ad3b-4c1d-bb7e-670f984283ae"},"vehicle_type_id":"4","last_reported":1716224911,"current_range_meters":10000,"station_id":"ce4bhbh2rcd13ifvqeqg","pricing_plan_id":"cebpf4jnsgd1na2vs0mg"},{"bike_id":"1f8b358c-ec6c-4384-8c5c-ae3a0c057e57","system_id":"levelo_inurba_marseille","lat":43.30098,"lon":5.390799,"is_reserved":false,"is_disabled":false,"rental_uris":{"android":"levelo://app?vid=1f8b358c-ec6c-4384-8c5c-ae3a0c057e57","ios":"levelo://app?vid=1f8b358c-ec6c-4384-8c5c-ae3a0c057e57"},"vehicle_type_id":"4","last_reported":1716224911,"current_range_meters":25600,"station_id":"","pricing_plan_id":"cebpf4jnsgd1na2vs0mg"},{"bike_id":"da6346ec-dc51-43c5-8f2c-d2e2b085820c","system_id":"levelo_inurba_marseille","lat":43.292311,"lon":5.360731,"is_reserved":false,"is_disabled":false,"rental_uris":{"android":"levelo://app?vid=da6346ec-dc51-43c5-8f2c-d2e2b085820c","ios":"levelo://app?vid=da6346ec-dc51-43c5-8f2c-d2e2b085820c"},"vehicle_type_id":"4","last_reported":1716224911,"current_range_meters":11200,"station_id":"ce4bhbh2rcd13ifvqeqg","pricing_plan_id":"cebpf4jnsgd1na2vs0mg"},{"bike_id":"66e0c993-149a-4f5e-8bfc-ca2983cfe99f","system_id":"levelo_inurba_marseille","lat":43.292005,"lon":5.357875,"is_reserved":false,"is_disabled":false,"rental_uris":{"android":"levelo://app?vid=66e0c993-149a-4f5e-8bfc-ca2983cfe99f","ios":"levelo://app?vid=66e0c993-149a-4f5e-8bfc-ca2983cfe99f"},"vehicle_type_id":"4","last_reported":1716224911,"current_range_meters":6000,"station_id":"ce4bhb12rcd13ifvqel0","pricing_plan_id":"cebpf4jnsgd1na2vs0mg"},{"bike_id":"60d9c488-d946-4add-97b2-296cee696208","system_id":"levelo_inurba_marseille","lat":43.29169,"lon":5.37157,"is_reserved":false,"is_disabled":false,"rental_uris":{"android":"levelo://app?vid=60d9c488-d946-4add-97b2-296cee696208","ios":"levelo://app?vid=60d9c488-d946-4add-97b2-296cee696208"},"vehicle_type_id":"4","last_reported":1716224911,"current_range_meters":14000,"station_id":"ce4bha92rcd13ifvqeh0","pricing_plan_id":"cebpf4jnsgd1na2vs0mg"},{"bike_id":"2f01e410-a2c8-4bbe-9a95-1304d7b01daa","system_id":"levelo_inurba_marseille","lat":43.298764,"lon":5.388973,"is_reserved":false,"is_disabled":false,"rental_uris":{"android":"levelo://app?vid=2f01e410-a2c8-4bbe-9a95-1304d7b01daa","ios":"levelo://app?vid=2f01e410-a2c8-4bbe-9a95-1304d7b01daa"},"vehicle_type_id":"4","last_reported":1716224911,"current_range_meters":8000,"station_id":"ce4bh392rcd13ifvqdl0","pricing_plan_id":"cebpf4jnsgd1na2vs0mg"},{"bike_id":"2fe778b5-444d-43ff-91fd-e65d147d0932","system_id":"levelo_inurba_marseille","lat":43.291675,"lon":5.371583,"is_reserved":false,"is_disabled":false,"rental_uris":{"android":"levelo://app?vid=2fe778b5-444d-43ff-91fd-e65d147d0932","ios":"levelo://app?vid=2fe778b5-444d-43ff-91fd-e65d147d0932"},"vehicle_type_id":"4","last_reported":1716224911,"current_range_meters":4800,"station_id":"ce4bha92rcd13ifvqeh0","pricing_plan_id":"cebpf4jnsgd1na2vs0mg"},{"bike_id":"1ff7da3e-7582-4ad2-9b52-d0e32d5405e4","system_id":"levelo_inurba_marseille","lat":43.292045,"lon":5.35881,"is_reserved":false,"is_disabled":false,"rental_uris":{"android":"levelo://app?vid=1ff7da3e-7582-4ad2-9b52-d0e32d5405e4","ios":"levelo://app?vid=1ff7da3e-7582-4ad2-9b52-d0e32d5405e4"},"vehicle_type_id":"4","last_reported":1716224911,"current_range_meters":4400,"station_id":"ce4bhb12rcd13ifvqel0","pricing_plan_id":"cebpf4jnsgd1na2vs0mg"},{"bike_id":"83374500-ede9-4ff3-a8cc-49f36484a2eb","system_id":"levelo_inurba_marseille","lat":43.292005,"lon":5.357875,"is_reserved":false,"is_disabled":false,"rental_uris":{"android":"levelo://app?vid=83374500-ede9-4ff3-a8cc-49f36484a2eb","ios":"levelo://app?vid=83374500-ede9-4ff3-a8cc-49f36484a2eb"},"vehicle_type_id":"4","last_reported":1716224911,"current_range_meters":22000,"station_id":"ce4bhb12rcd13ifvqel0","pricing_plan_id":"cebpf4jnsgd1na2vs0mg"},{"bike_id":"07eac427-b899-4d9f-bd08-3e1fb2c1f97e","system_id":"levelo_inurba_marseille","lat":43.292005,"lon":5.357875,"is_reserved":false,"is_disabled":false,"rental_uris":{"android":"levelo://app?vid=07eac427-b899-4d9f-bd08-3e1fb2c1f97e","ios":"levelo://app?vid=07eac427-b899-4d9f-bd08-3e1fb2c1f97e"},"vehicle_type_id":"4","last_reported":1716224911,"current_range_meters":6000,"station_id":"ce4bhb12rcd13ifvqel0","pricing_plan_id":"cebpf4jnsgd1na2vs0mg"},{"bike_id":"944de463-736f-4661-b324-70418d5caa31","system_id":"levelo_inurba_marseille","lat":43.291994,"lon":5.357886,"is_reserved":false,"is_disabled":false,"rental_uris":{"android":"levelo://app?vid=944de463-736f-4661-b324-70418d5caa31","ios":"levelo://app?vid=944de463-736f-4661-b324-70418d5caa31"},"vehicle_type_id":"4","last_reported":1716224911,"current_range_meters":13600,"station_id":"ce4bhb12rcd13ifvqel0","pricing_plan_id":"cebpf4jnsgd1na2vs0mg"},{"bike_id":"34d0e0f8-7d74-4038-ae7b-1ae4653dbc5e","system_id":"levelo_inurba_marseille","lat":43.292005,"lon":5.357875,"is_reserved":false,"is_disabled":false,"rental_uris":{"android":"levelo://app?vid=34d0e0f8-7d74-4038-ae7b-1ae4653dbc5e","ios":"levelo://app?vid=34d0e0f8-7d74-4038-ae7b-1ae4653dbc5e"},"vehicle_type_id":"4","last_reported":1716224911,"current_range_meters":16000,"station_id":"ce4bhb12rcd13ifvqel0","pricing_plan_id":"cebpf4jnsgd1na2vs0mg"},{"bike_id":"6fdfb385-cc3c-40a7-9562-797a1b337726","system_id":"levelo_inurba_marseille","lat":43.313324,"lon":5.396908,"is_reserved":false,"is_disabled":false,"rental_uris":{"android":"levelo://app?vid=6fdfb385-cc3c-40a7-9562-797a1b337726","ios":"levelo://app?vid=6fdfb385-cc3c-40a7-9562-797a1b337726"},"vehicle_type_id":"4","last_reported":1716224911,"current_range_meters":30000,"station_id":"ce4bgvp2rcd13ifvqcu0","pricing_plan_id":"cebpf4jnsgd1na2vs0mg"},{"bike_id":"0c441da4-f97b-4b64-9f41-dffc9110638c","system_id":"levelo_inurba_marseille","lat":43.313291,"lon":5.396838,"is_reserved":false,"is_disabled":false,"rental_uris":{"android":"levelo://app?vid=0c441da4-f97b-4b64-9f41-dffc9110638c","ios":"levelo://app?vid=0c441da4-f97b-4b64-9f41-dffc9110638c"},"vehicle_type_id":"4","last_reported":1716224911,"current_range_meters":10800,"station_id":"ce4bgvp2rcd13ifvqcu0","pricing_plan_id":"cebpf4jnsgd1na2vs0mg"},{"bike_id":"9e911fd3-d22f-4334-9b62-fbbf2ffa7e32","system_id":"levelo_inurba_marseille","lat":43.313323,"lon":5.396929,"is_reserved":false,"is_disabled":false,"rental_uris":{"android":"levelo://app?vid=9e911fd3-d22f-4334-9b62-fbbf2ffa7e32","ios":"levelo://app?vid=9e911fd3-d22f-4334-9b62-fbbf2ffa7e32"},"vehicle_type_id":"4","last_reported":1716224911,"current_range_meters":24800,"station_id":"ce4bgvp2rcd13ifvqcu0","pricing_plan_id":"cebpf4jnsgd1na2vs0mg"},{"bike_id":"07fcc402-911d-47f1-b440-71e9df962e08","system_id":"levelo_inurba_marseille","lat":43.330442,"lon":5.389148,"is_reserved":false,"is_disabled":false,"rental_uris":{"android":"levelo://app?vid=07fcc402-911d-47f1-b440-71e9df962e08","ios":"levelo://app?vid=07fcc402-911d-47f1-b440-71e9df962e08"},"vehicle_type_id":"4","last_reported":1716224911,"current_range_meters":0,"station_id":"ce4bhr92rcd13ifvqhrg","pricing_plan_id":"cebpf4jnsgd1na2vs0mg"},{"bike_id":"5ce8be43-9e96-4c04-84d6-ff3875da247a","system_id":"levelo_inurba_marseille","lat":43.31333,"lon":5.39695,"is_reserved":false,"is_disabled":false,"rental_uris":{"android":"levelo://app?vid=5ce8be43-9e96-4c04-84d6-ff3875da247a","ios":"levelo://app?vid=5ce8be43-9e96-4c04-84d6-ff3875da247a"},"vehicle_type_id":"4","last_reported":1716224911,"current_range_meters":20000,"station_id":"ce4bgvp2rcd13ifvqcu0","pricing_plan_id":"cebpf4jnsgd1na2vs0mg"},{"bike_id":"c3aef7e6-d032-464d-a1db-a37620690c19","system_id":"levelo_inurba_marseille","lat":43.313291,"lon":5.396838,"is_reserved":false,"is_disabled":false,"rental_uris":{"android":"levelo://app?vid=c3aef7e6-d032-464d-a1db-a37620690c19","ios":"levelo://app?vid=c3aef7e6-d032-464d-a1db-a37620690c19"},"vehicle_type_id":"4","last_reported":1716224911,"current_range_meters":14000,"station_id":"ce4bgvp2rcd13ifvqcu0","pricing_plan_id":"cebpf4jnsgd1na2vs0mg"},{"bike_id":"529852d2-afd8-4a33-86fd-b55517fd063e","system_id":"levelo_inurba_marseille","lat":43.31336,"lon":5.39697,"is_reserved":false,"is_disabled":false,"rental_uris":{"android":"levelo://app?vid=529852d2-afd8-4a33-86fd-b55517fd063e","ios":"levelo://app?vid=529852d2-afd8-4a33-86fd-b55517fd063e"},"vehicle_type_id":"4","last_reported":1716224911,"current_range_meters":0,"station_id":"ce4bgvp2rcd13ifvqcu0","pricing_plan_id":"cebpf4jnsgd1na2vs0mg"},{"bike_id":"c17dbe92-c116-4991-96a1-73a94d258346","system_id":"levelo_inurba_marseille","lat":43.292005,"lon":5.357875,"is_reserved":false,"is_disabled":false,"rental_uris":{"android":"levelo://app?vid=c17dbe92-c116-4991-96a1-73a94d258346","ios":"levelo://app?vid=c17dbe92-c116-4991-96a1-73a94d258346"},"vehicle_type_id":"4","last_reported":1716224911,"current_range_meters":0,"station_id":"ce4bhb12rcd13ifvqel0","pricing_plan_id":"cebpf4jnsgd1na2vs0mg"},{"bike_id":"20795824-3eb6-41e5-bab8-562a7a838bea","system_id":"levelo_inurba_marseille","lat":43.309038,"lon":5.396546,"is_reserved":false,"is_disabled":false,"rental_uris":{"android":"levelo://app?vid=20795824-3eb6-41e5-bab8-562a7a838bea","ios":"levelo://app?vid=20795824-3eb6-41e5-bab8-562a7a838bea"},"vehicle_type_id":"4","last_reported":1716224911,"current_range_meters":14000,"station_id":"ce4bh012rcd13ifvqcv0","pricing_plan_id":"cebpf4jnsgd1na2vs0mg"},{"bike_id":"091b4b5e-da0e-48d7-9e77-d8f7d04dca7e","system_id":"levelo_inurba_marseille","lat":43.29529,"lon":5.385581,"is_reserved":false,"is_disabled":false,"rental_uris":{"android":"levelo://app?vid=091b4b5e-da0e-48d7-9e77-d8f7d04dca7e","ios":"levelo://app?vid=091b4b5e-da0e-48d7-9e77-d8f7d04dca7e"},"vehicle_type_id":"4","last_reported":1716224911,"current_range_meters":21200,"station_id":"ce4bgih2rcd13ifvqba0","pricing_plan_id":"cebpf4jnsgd1na2vs0mg"},{"bike_id":"dfa15848-88e8-493b-8898-776959e91e9f","system_id":"levelo_inurba_marseille","lat":43.29542,"lon":5.38543,"is_reserved":false,"is_disabled":false,"rental_uris":{"android":"levelo://app?vid=dfa15848-88e8-493b-8898-776959e91e9f","ios":"levelo://app?vid=dfa15848-88e8-493b-8898-776959e91e9f"},"vehicle_type_id":"4","last_reported":1716224911,"current_range_meters":0,"station_id":"ce4bgih2rcd13ifvqba0","pricing_plan_id":"cebpf4jnsgd1na2vs0mg"},{"bike_id":"23f57e40-fe83-49e5-a796-529faf2d95ef","system_id":"levelo_inurba_marseille","lat":43.29529,"lon":5.385581,"is_reserved":false,"is_disabled":false,"rental_uris":{"android":"levelo://app?vid=23f57e40-fe83-49e5-a796-529faf2d95ef","ios":"levelo://app?vid=23f57e40-fe83-49e5-a796-529faf2d95ef"},"vehicle_type_id":"4","last_reported":1716224911,"current_range_meters":23600,"station_id":"ce4bgih2rcd13ifvqba0","pricing_plan_id":"cebpf4jnsgd1na2vs0mg"},{"bike_id":"91b263eb-09fb-4bd2-9e7d-15aa51828527","system_id":"levelo_inurba_marseille","lat":43.308867,"lon":5.396643,"is_reserved":false,"is_disabled":false,"rental_uris":{"android":"levelo://app?vid=91b263eb-09fb-4bd2-9e7d-15aa51828527","ios":"levelo://app?vid=91b263eb-09fb-4bd2-9e7d-15aa51828527"},"vehicle_type_id":"4","last_reported":1716224911,"current_range_meters":0,"station_id":"ce4bh012rcd13ifvqcv0","pricing_plan_id":"cebpf4jnsgd1na2vs0mg"},{"bike_id":"b49741a8-4112-43d2-8229-7f87f02ce2d8","system_id":"levelo_inurba_marseille","lat":43.29535,"lon":5.38537,"is_reserved":false,"is_disabled":false,"rental_uris":{"android":"levelo://app?vid=b49741a8-4112-43d2-8229-7f87f02ce2d8","ios":"levelo://app?vid=b49741a8-4112-43d2-8229-7f87f02ce2d8"},"vehicle_type_id":"4","last_reported":1716224911,"current_range_meters":400,"station_id":"ce4bgih2rcd13ifvqba0","pricing_plan_id":"cebpf4jnsgd1na2vs0mg"},{"bike_id":"03d2c921-2f68-4f1e-9c28-830aa7076ede","system_id":"levelo_inurba_marseille","lat":43.29529,"lon":5.385581,"is_reserved":false,"is_disabled":false,"rental_uris":{"android":"levelo://app?vid=03d2c921-2f68-4f1e-9c28-830aa7076ede","ios":"levelo://app?vid=03d2c921-2f68-4f1e-9c28-830aa7076ede"},"vehicle_type_id":"4","last_reported":1716224911,"current_range_meters":27200,"station_id":"ce4bgih2rcd13ifvqba0","pricing_plan_id":"cebpf4jnsgd1na2vs0mg"},{"bike_id":"735c5c3d-68db-422d-bd31-5aaac407e883","system_id":"levelo_inurba_marseille","lat":43.29529,"lon":5.385581,"is_reserved":false,"is_disabled":false,"rental_uris":{"android":"levelo://app?vid=735c5c3d-68db-422d-bd31-5aaac407e883","ios":"levelo://app?vid=735c5c3d-68db-422d-bd31-5aaac407e883"},"vehicle_type_id":"4","last_reported":1716224911,"current_range_meters":28800,"station_id":"ce4bgih2rcd13ifvqba0","pricing_plan_id":"cebpf4jnsgd1na2vs0mg"},{"bike_id":"c90dd13d-00a7-4a28-b215-5a50aaddf1ae","system_id":"levelo_inurba_marseille","lat":43.29529,"lon":5.385581,"is_reserved":false,"is_disabled":false,"rental_uris":{"android":"levelo://app?vid=c90dd13d-00a7-4a28-b215-5a50aaddf1ae","ios":"levelo://app?vid=c90dd13d-00a7-4a28-b215-5a50aaddf1ae"},"vehicle_type_id":"4","last_reported":1716224911,"current_range_meters":16400,"station_id":"ce4bgih2rcd13ifvqba0","pricing_plan_id":"cebpf4jnsgd1na2vs0mg"},{"bike_id":"ca26142b-3189-488d-be31-bc7ce2731b4c","system_id":"levelo_inurba_marseille","lat":43.29529,"lon":5.385581,"is_reserved":false,"is_disabled":false,"rental_uris":{"android":"levelo://app?vid=ca26142b-3189-488d-be31-bc7ce2731b4c","ios":"levelo://app?vid=ca26142b-3189-488d-be31-bc7ce2731b4c"},"vehicle_type_id":"4","last_reported":1716224911,"current_range_meters":11200,"station_id":"ce4bgih2rcd13ifvqba0","pricing_plan_id":"cebpf4jnsgd1na2vs0mg"},{"bike_id":"f994e7ef-92ed-4840-a2f9-2a1062b32113","system_id":"levelo_inurba_marseille","lat":43.29529,"lon":5.385581,"is_reserved":false,"is_disabled":false,"rental_uris":{"android":"levelo://app?vid=f994e7ef-92ed-4840-a2f9-2a1062b32113","ios":"levelo://app?vid=f994e7ef-92ed-4840-a2f9-2a1062b32113"},"vehicle_type_id":"4","last_reported":1716224911,"current_range_meters":21600,"station_id":"ce4bgih2rcd13ifvqba0","pricing_plan_id":"cebpf4jnsgd1na2vs0mg"},{"bike_id":"cb92d645-ca99-44dc-ab2f-f638e2d3cc36","system_id":"levelo_inurba_marseille","lat":43.29529,"lon":5.385581,"is_reserved":false,"is_disabled":false,"rental_uris":{"android":"levelo://app?vid=cb92d645-ca99-44dc-ab2f-f638e2d3cc36","ios":"levelo://app?vid=cb92d645-ca99-44dc-ab2f-f638e2d3cc36"},"vehicle_type_id":"4","last_reported":1716224911,"current_range_meters":3200,"station_id":"ce4bgih2rcd13ifvqba0","pricing_plan_id":"cebpf4jnsgd1na2vs0mg"},{"bike_id":"f4a13afd-69bd-46f1-886f-a1ab52ad7f85","system_id":"levelo_inurba_marseille","lat":43.29529,"lon":5.385581,"is_reserved":false,"is_disabled":false,"rental_uris":{"android":"levelo://app?vid=f4a13afd-69bd-46f1-886f-a1ab52ad7f85","ios":"levelo://app?vid=f4a13afd-69bd-46f1-886f-a1ab52ad7f85"},"vehicle_type_id":"4","last_reported":1716224911,"current_range_meters":13200,"station_id":"ce4bgih2rcd13ifvqba0","pricing_plan_id":"cebpf4jnsgd1na2vs0mg"},{"bike_id":"9f927b45-bedd-4b4b-9a30-c37768a22c27","system_id":"levelo_inurba_marseille","lat":43.29529,"lon":5.385581,"is_reserved":false,"is_disabled":false,"rental_uris":{"android":"levelo://app?vid=9f927b45-bedd-4b4b-9a30-c37768a22c27","ios":"levelo://app?vid=9f927b45-bedd-4b4b-9a30-c37768a22c27"},"vehicle_type_id":"4","last_reported":1716224911,"current_range_meters":15600,"station_id":"ce4bgih2rcd13ifvqba0","pricing_plan_id":"cebpf4jnsgd1na2vs0mg"},{"bike_id":"fef52001-b29a-49f2-af80-76c141025683","system_id":"levelo_inurba_marseille","lat":43.29529,"lon":5.385581,"is_reserved":false,"is_disabled":false,"rental_uris":{"android":"levelo://app?vid=fef52001-b29a-49f2-af80-76c141025683","ios":"levelo://app?vid=fef52001-b29a-49f2-af80-76c141025683"},"vehicle_type_id":"4","last_reported":1716224911,"current_range_meters":23600,"station_id":"ce4bgih2rcd13ifvqba0","pricing_plan_id":"cebpf4jnsgd1na2vs0mg"},{"bike_id":"5a3f0cd8-724b-47c9-931f-f84837e4f224","system_id":"levelo_inurba_marseille","lat":43.29529,"lon":5.385581,"is_reserved":false,"is_disabled":false,"rental_uris":{"android":"levelo://app?vid=5a3f0cd8-724b-47c9-931f-f84837e4f224","ios":"levelo://app?vid=5a3f0cd8-724b-47c9-931f-f84837e4f224"},"vehicle_type_id":"4","last_reported":1716224911,"current_range_meters":23600,"station_id":"ce4bgih2rcd13ifvqba0","pricing_plan_id":"cebpf4jnsgd1na2vs0mg"},{"bike_id":"0a093712-f36c-4466-81d9-a77e596a75ac","system_id":"levelo_inurba_marseille","lat":43.29529,"lon":5.385581,"is_reserved":false,"is_disabled":false,"rental_uris":{"android":"levelo://app?vid=0a093712-f36c-4466-81d9-a77e596a75ac","ios":"levelo://app?vid=0a093712-f36c-4466-81d9-a77e596a75ac"},"vehicle_type_id":"4","last_reported":1716224911,"current_range_meters":14800,"station_id":"ce4bgih2rcd13ifvqba0","pricing_plan_id":"cebpf4jnsgd1na2vs0mg"},{"bike_id":"06c6329b-cdd0-4336-b083-ae20d1a8df0a","system_id":"levelo_inurba_marseille","lat":43.29529,"lon":5.385581,"is_reserved":false,"is_disabled":false,"rental_uris":{"android":"levelo://app?vid=06c6329b-cdd0-4336-b083-ae20d1a8df0a","ios":"levelo://app?vid=06c6329b-cdd0-4336-b083-ae20d1a8df0a"},"vehicle_type_id":"4","last_reported":1716224911,"current_range_meters":6400,"station_id":"ce4bgih2rcd13ifvqba0","pricing_plan_id":"cebpf4jnsgd1na2vs0mg"},{"bike_id":"92b6026b-226e-4d00-9537-6a2e2bb5f740","system_id":"levelo_inurba_marseille","lat":43.294153,"lon":5.386305,"is_reserved":false,"is_disabled":false,"rental_uris":{"android":"levelo://app?vid=92b6026b-226e-4d00-9537-6a2e2bb5f740","ios":"levelo://app?vid=92b6026b-226e-4d00-9537-6a2e2bb5f740"},"vehicle_type_id":"4","last_reported":1716224911,"current_range_meters":15200,"station_id":"ce4bh2h2rcd13ifvqdh0","pricing_plan_id":"cebpf4jnsgd1na2vs0mg"},{"bike_id":"68a4718b-6bc9-4ff7-a520-e82072cde57b","system_id":"levelo_inurba_marseille","lat":43.290543,"lon":5.372152,"is_reserved":false,"is_disabled":false,"rental_uris":{"android":"levelo://app?vid=68a4718b-6bc9-4ff7-a520-e82072cde57b","ios":"levelo://app?vid=68a4718b-6bc9-4ff7-a520-e82072cde57b"},"vehicle_type_id":"4","last_reported":1716224911,"current_range_meters":5200,"station_id":"","pricing_plan_id":"cebpf4jnsgd1na2vs0mg"},{"bike_id":"29ad2693-f238-4c88-9199-6a86d2090a9d","system_id":"levelo_inurba_marseille","lat":43.302008,"lon":5.394694,"is_reserved":false,"is_disabled":false,"rental_uris":{"android":"levelo://app?vid=29ad2693-f238-4c88-9199-6a86d2090a9d","ios":"levelo://app?vid=29ad2693-f238-4c88-9199-6a86d2090a9d"},"vehicle_type_id":"4","last_reported":1716224911,"current_range_meters":13200,"station_id":"ce4bh0p2rcd13ifvqd70","pricing_plan_id":"cebpf4jnsgd1na2vs0mg"},{"bike_id":"b9bbdccc-030a-4edd-8bee-2c3acb05d4a8","system_id":"levelo_inurba_marseille","lat":43.302008,"lon":5.394694,"is_reserved":false,"is_disabled":false,"rental_uris":{"android":"levelo://app?vid=b9bbdccc-030a-4edd-8bee-2c3acb05d4a8","ios":"levelo://app?vid=b9bbdccc-030a-4edd-8bee-2c3acb05d4a8"},"vehicle_type_id":"4","last_reported":1716224911,"current_range_meters":21200,"station_id":"ce4bh0p2rcd13ifvqd70","pricing_plan_id":"cebpf4jnsgd1na2vs0mg"},{"bike_id":"38fc4e42-f93b-45ca-9c68-801d83b1bfc1","system_id":"levelo_inurba_marseille","lat":43.290103,"lon":5.356114,"is_reserved":false,"is_disabled":false,"rental_uris":{"android":"levelo://app?vid=38fc4e42-f93b-45ca-9c68-801d83b1bfc1","ios":"levelo://app?vid=38fc4e42-f93b-45ca-9c68-801d83b1bfc1"},"vehicle_type_id":"4","last_reported":1716224911,"current_range_meters":6000,"station_id":"ce4bhb92rcd13ifvqen0","pricing_plan_id":"cebpf4jnsgd1na2vs0mg"},{"bike_id":"d94b097c-f6b8-4d3b-93a1-e50da99ced17","system_id":"levelo_inurba_marseille","lat":43.294153,"lon":5.386305,"is_reserved":false,"is_disabled":false,"rental_uris":{"android":"levelo://app?vid=d94b097c-f6b8-4d3b-93a1-e50da99ced17","ios":"levelo://app?vid=d94b097c-f6b8-4d3b-93a1-e50da99ced17"},"vehicle_type_id":"4","last_reported":1716224911,"current_range_meters":16000,"station_id":"ce4bh2h2rcd13ifvqdh0","pricing_plan_id":"cebpf4jnsgd1na2vs0mg"},{"bike_id":"f7471f58-d7ae-4f3c-aa7d-5d831e074b5c","system_id":"levelo_inurba_marseille","lat":43.290624,"lon":5.359245,"is_reserved":false,"is_disabled":false,"rental_uris":{"android":"levelo://app?vid=f7471f58-d7ae-4f3c-aa7d-5d831e074b5c","ios":"levelo://app?vid=f7471f58-d7ae-4f3c-aa7d-5d831e074b5c"},"vehicle_type_id":"4","last_reported":1716224911,"current_range_meters":9200,"station_id":"ce4bha92rcd13ifvqeg0","pricing_plan_id":"cebpf4jnsgd1na2vs0mg"},{"bike_id":"47c2cd51-13f8-4d6b-9c2b-bb4fdde75596","system_id":"levelo_inurba_marseille","lat":43.290624,"lon":5.359245,"is_reserved":false,"is_disabled":false,"rental_uris":{"android":"levelo://app?vid=47c2cd51-13f8-4d6b-9c2b-bb4fdde75596","ios":"levelo://app?vid=47c2cd51-13f8-4d6b-9c2b-bb4fdde75596"},"vehicle_type_id":"4","last_reported":1716224911,"current_range_meters":17200,"station_id":"ce4bha92rcd13ifvqeg0","pricing_plan_id":"cebpf4jnsgd1na2vs0mg"},{"bike_id":"d9cdec5d-4e4e-4dda-8538-e061c9684118","system_id":"levelo_inurba_marseille","lat":43.294153,"lon":5.386305,"is_reserved":false,"is_disabled":false,"rental_uris":{"android":"levelo://app?vid=d9cdec5d-4e4e-4dda-8538-e061c9684118","ios":"levelo://app?vid=d9cdec5d-4e4e-4dda-8538-e061c9684118"},"vehicle_type_id":"4","last_reported":1716224911,"current_range_meters":6000,"station_id":"ce4bh2h2rcd13ifvqdh0","pricing_plan_id":"cebpf4jnsgd1na2vs0mg"},{"bike_id":"1156f8ff-39c7-48f9-a5ac-e5c819db4a1e","system_id":"levelo_inurba_marseille","lat":43.2943,"lon":5.386314,"is_reserved":false,"is_disabled":false,"rental_uris":{"android":"levelo://app?vid=1156f8ff-39c7-48f9-a5ac-e5c819db4a1e","ios":"levelo://app?vid=1156f8ff-39c7-48f9-a5ac-e5c819db4a1e"},"vehicle_type_id":"4","last_reported":1716224911,"current_range_meters":0,"station_id":"ce4bh2h2rcd13ifvqdh0","pricing_plan_id":"cebpf4jnsgd1na2vs0mg"},{"bike_id":"ad8f488a-7827-49cd-968e-47abe4c75f41","system_id":"levelo_inurba_marseille","lat":43.294162,"lon":5.386292,"is_reserved":false,"is_disabled":false,"rental_uris":{"android":"levelo://app?vid=ad8f488a-7827-49cd-968e-47abe4c75f41","ios":"levelo://app?vid=ad8f488a-7827-49cd-968e-47abe4c75f41"},"vehicle_type_id":"4","last_reported":1716224911,"current_range_meters":30000,"station_id":"ce4bh2h2rcd13ifvqdh0","pricing_plan_id":"cebpf4jnsgd1na2vs0mg"},{"bike_id":"03f173c5-59bb-43e6-a5ee-09ccd6b7ab5d","system_id":"levelo_inurba_marseille","lat":43.294153,"lon":5.386305,"is_reserved":false,"is_disabled":false,"rental_uris":{"android":"levelo://app?vid=03f173c5-59bb-43e6-a5ee-09ccd6b7ab5d","ios":"levelo://app?vid=03f173c5-59bb-43e6-a5ee-09ccd6b7ab5d"},"vehicle_type_id":"4","last_reported":1716224911,"current_range_meters":3600,"station_id":"ce4bh2h2rcd13ifvqdh0","pricing_plan_id":"cebpf4jnsgd1na2vs0mg"},{"bike_id":"25454d5d-b876-4f69-9699-4df3054ea262","system_id":"levelo_inurba_marseille","lat":43.294162,"lon":5.386292,"is_reserved":false,"is_disabled":false,"rental_uris":{"android":"levelo://app?vid=25454d5d-b876-4f69-9699-4df3054ea262","ios":"levelo://app?vid=25454d5d-b876-4f69-9699-4df3054ea262"},"vehicle_type_id":"4","last_reported":1716224911,"current_range_meters":18400,"station_id":"ce4bh2h2rcd13ifvqdh0","pricing_plan_id":"cebpf4jnsgd1na2vs0mg"},{"bike_id":"4d743d84-a1e4-4b53-809a-8a50c907a1e9","system_id":"levelo_inurba_marseille","lat":43.294153,"lon":5.386305,"is_reserved":false,"is_disabled":false,"rental_uris":{"android":"levelo://app?vid=4d743d84-a1e4-4b53-809a-8a50c907a1e9","ios":"levelo://app?vid=4d743d84-a1e4-4b53-809a-8a50c907a1e9"},"vehicle_type_id":"4","last_reported":1716224911,"current_range_meters":7200,"station_id":"ce4bh2h2rcd13ifvqdh0","pricing_plan_id":"cebpf4jnsgd1na2vs0mg"},{"bike_id":"e48d769c-c4f5-4e06-975f-6b1cbe244e7f","system_id":"levelo_inurba_marseille","lat":43.294162,"lon":5.386292,"is_reserved":false,"is_disabled":false,"rental_uris":{"android":"levelo://app?vid=e48d769c-c4f5-4e06-975f-6b1cbe244e7f","ios":"levelo://app?vid=e48d769c-c4f5-4e06-975f-6b1cbe244e7f"},"vehicle_type_id":"4","last_reported":1716224911,"current_range_meters":21600,"station_id":"ce4bh2h2rcd13ifvqdh0","pricing_plan_id":"cebpf4jnsgd1na2vs0mg"},{"bike_id":"b5cf06cf-0986-46bc-8842-757e5803808a","system_id":"levelo_inurba_marseille","lat":43.289184,"lon":5.366408,"is_reserved":false,"is_disabled":false,"rental_uris":{"android":"levelo://app?vid=b5cf06cf-0986-46bc-8842-757e5803808a","ios":"levelo://app?vid=b5cf06cf-0986-46bc-8842-757e5803808a"},"vehicle_type_id":"4","last_reported":1716224911,"current_range_meters":0,"station_id":"ce4bhap2rcd13ifvqek0","pricing_plan_id":"cebpf4jnsgd1na2vs0mg"},{"bike_id":"327041bf-5c80-4309-a21d-f3a4927355a8","system_id":"levelo_inurba_marseille","lat":43.294153,"lon":5.386305,"is_reserved":false,"is_disabled":false,"rental_uris":{"android":"levelo://app?vid=327041bf-5c80-4309-a21d-f3a4927355a8","ios":"levelo://app?vid=327041bf-5c80-4309-a21d-f3a4927355a8"},"vehicle_type_id":"4","last_reported":1716224911,"current_range_meters":15200,"station_id":"ce4bh2h2rcd13ifvqdh0","pricing_plan_id":"cebpf4jnsgd1na2vs0mg"},{"bike_id":"20390b16-8303-4924-bc5a-ce19982b8276","system_id":"levelo_inurba_marseille","lat":43.29035,"lon":5.37571,"is_reserved":false,"is_disabled":false,"rental_uris":{"android":"levelo://app?vid=20390b16-8303-4924-bc5a-ce19982b8276","ios":"levelo://app?vid=20390b16-8303-4924-bc5a-ce19982b8276"},"vehicle_type_id":"4","last_reported":1716224911,"current_range_meters":2000,"station_id":"ce4bh692rcd13ifvqe90","pricing_plan_id":"cebpf4jnsgd1na2vs0mg"},{"bike_id":"4e12e163-c474-406f-8a15-7072643b1d1e","system_id":"levelo_inurba_marseille","lat":43.294153,"lon":5.386305,"is_reserved":false,"is_disabled":false,"rental_uris":{"android":"levelo://app?vid=4e12e163-c474-406f-8a15-7072643b1d1e","ios":"levelo://app?vid=4e12e163-c474-406f-8a15-7072643b1d1e"},"vehicle_type_id":"4","last_reported":1716224911,"current_range_meters":0,"station_id":"ce4bh2h2rcd13ifvqdh0","pricing_plan_id":"cebpf4jnsgd1na2vs0mg"},{"bike_id":"a6f14050-c273-45cf-8909-afc30dc60581","system_id":"levelo_inurba_marseille","lat":43.294153,"lon":5.386305,"is_reserved":false,"is_disabled":false,"rental_uris":{"android":"levelo://app?vid=a6f14050-c273-45cf-8909-afc30dc60581","ios":"levelo://app?vid=a6f14050-c273-45cf-8909-afc30dc60581"},"vehicle_type_id":"4","last_reported":1716224911,"current_range_meters":7600,"station_id":"ce4bh2h2rcd13ifvqdh0","pricing_plan_id":"cebpf4jnsgd1na2vs0mg"},{"bike_id":"7105cc99-fc01-4190-8512-97c25a96c57e","system_id":"levelo_inurba_marseille","lat":43.294162,"lon":5.386292,"is_reserved":false,"is_disabled":false,"rental_uris":{"android":"levelo://app?vid=7105cc99-fc01-4190-8512-97c25a96c57e","ios":"levelo://app?vid=7105cc99-fc01-4190-8512-97c25a96c57e"},"vehicle_type_id":"4","last_reported":1716224911,"current_range_meters":31200,"station_id":"ce4bh2h2rcd13ifvqdh0","pricing_plan_id":"cebpf4jnsgd1na2vs0mg"},{"bike_id":"77344139-d315-4361-896c-f6ecfa17d95f","system_id":"levelo_inurba_marseille","lat":43.294162,"lon":5.386292,"is_reserved":false,"is_disabled":false,"rental_uris":{"android":"levelo://app?vid=77344139-d315-4361-896c-f6ecfa17d95f","ios":"levelo://app?vid=77344139-d315-4361-896c-f6ecfa17d95f"},"vehicle_type_id":"4","last_reported":1716224911,"current_range_meters":9200,"station_id":"ce4bh2h2rcd13ifvqdh0","pricing_plan_id":"cebpf4jnsgd1na2vs0mg"},{"bike_id":"6e91b238-818f-46cc-8ac0-bbb881a2ad45","system_id":"levelo_inurba_marseille","lat":43.294162,"lon":5.386292,"is_reserved":false,"is_disabled":false,"rental_uris":{"android":"levelo://app?vid=6e91b238-818f-46cc-8ac0-bbb881a2ad45","ios":"levelo://app?vid=6e91b238-818f-46cc-8ac0-bbb881a2ad45"},"vehicle_type_id":"4","last_reported":1716224911,"current_range_meters":1200,"station_id":"ce4bh2h2rcd13ifvqdh0","pricing_plan_id":"cebpf4jnsgd1na2vs0mg"},{"bike_id":"9c81fc05-7321-40e6-ad57-52477c75cdee","system_id":"levelo_inurba_marseille","lat":43.294162,"lon":5.386292,"is_reserved":false,"is_disabled":false,"rental_uris":{"android":"levelo://app?vid=9c81fc05-7321-40e6-ad57-52477c75cdee","ios":"levelo://app?vid=9c81fc05-7321-40e6-ad57-52477c75cdee"},"vehicle_type_id":"4","last_reported":1716224911,"current_range_meters":9200,"station_id":"ce4bh2h2rcd13ifvqdh0","pricing_plan_id":"cebpf4jnsgd1na2vs0mg"},{"bike_id":"7bc6f62d-df4d-45ee-9f0c-9cee21766591","system_id":"levelo_inurba_marseille","lat":43.294162,"lon":5.386292,"is_reserved":false,"is_disabled":false,"rental_uris":{"android":"levelo://app?vid=7bc6f62d-df4d-45ee-9f0c-9cee21766591","ios":"levelo://app?vid=7bc6f62d-df4d-45ee-9f0c-9cee21766591"},"vehicle_type_id":"4","last_reported":1716224911,"current_range_meters":26800,"station_id":"ce4bh2h2rcd13ifvqdh0","pricing_plan_id":"cebpf4jnsgd1na2vs0mg"},{"bike_id":"bf9d2dd7-483c-41b3-a070-6f47a4df1991","system_id":"levelo_inurba_marseille","lat":43.294162,"lon":5.386292,"is_reserved":false,"is_disabled":false,"rental_uris":{"android":"levelo://app?vid=bf9d2dd7-483c-41b3-a070-6f47a4df1991","ios":"levelo://app?vid=bf9d2dd7-483c-41b3-a070-6f47a4df1991"},"vehicle_type_id":"4","last_reported":1716224911,"current_range_meters":12400,"station_id":"ce4bh2h2rcd13ifvqdh0","pricing_plan_id":"cebpf4jnsgd1na2vs0mg"},{"bike_id":"d5c4ce8d-3bd8-47bb-b0aa-96a33ff2a426","system_id":"levelo_inurba_marseille","lat":43.289468,"lon":5.363719,"is_reserved":false,"is_disabled":false,"rental_uris":{"android":"levelo://app?vid=d5c4ce8d-3bd8-47bb-b0aa-96a33ff2a426","ios":"levelo://app?vid=d5c4ce8d-3bd8-47bb-b0aa-96a33ff2a426"},"vehicle_type_id":"4","last_reported":1716224911,"current_range_meters":14000,"station_id":"ce4bhc92rcd13ifvqetg","pricing_plan_id":"cebpf4jnsgd1na2vs0mg"},{"bike_id":"0dad3da9-1aff-4cbe-9419-160f374c9ab1","system_id":"levelo_inurba_marseille","lat":43.289184,"lon":5.366408,"is_reserved":false,"is_disabled":false,"rental_uris":{"android":"levelo://app?vid=0dad3da9-1aff-4cbe-9419-160f374c9ab1","ios":"levelo://app?vid=0dad3da9-1aff-4cbe-9419-160f374c9ab1"},"vehicle_type_id":"4","last_reported":1716224911,"current_range_meters":0,"station_id":"ce4bhap2rcd13ifvqek0","pricing_plan_id":"cebpf4jnsgd1na2vs0mg"},{"bike_id":"85b12eed-6723-4d6b-80b1-a2428c0a00c4","system_id":"levelo_inurba_marseille","lat":43.294162,"lon":5.386292,"is_reserved":false,"is_disabled":false,"rental_uris":{"android":"levelo://app?vid=85b12eed-6723-4d6b-80b1-a2428c0a00c4","ios":"levelo://app?vid=85b12eed-6723-4d6b-80b1-a2428c0a00c4"},"vehicle_type_id":"4","last_reported":1716224911,"current_range_meters":11600,"station_id":"ce4bh2h2rcd13ifvqdh0","pricing_plan_id":"cebpf4jnsgd1na2vs0mg"},{"bike_id":"bc94dea6-94da-4f47-8dd0-b2d9d3c5afb0","system_id":"levelo_inurba_marseille","lat":43.292642,"lon":5.384254,"is_reserved":false,"is_disabled":false,"rental_uris":{"android":"levelo://app?vid=bc94dea6-94da-4f47-8dd0-b2d9d3c5afb0","ios":"levelo://app?vid=bc94dea6-94da-4f47-8dd0-b2d9d3c5afb0"},"vehicle_type_id":"4","last_reported":1716224911,"current_range_meters":18800,"station_id":"ce4bh692rcd13ifvqea0","pricing_plan_id":"cebpf4jnsgd1na2vs0mg"},{"bike_id":"7ddfb329-4c0f-40a4-9032-59e9d0250eea","system_id":"levelo_inurba_marseille","lat":43.304296,"lon":5.397513,"is_reserved":false,"is_disabled":false,"rental_uris":{"android":"levelo://app?vid=7ddfb329-4c0f-40a4-9032-59e9d0250eea","ios":"levelo://app?vid=7ddfb329-4c0f-40a4-9032-59e9d0250eea"},"vehicle_type_id":"4","last_reported":1716224911,"current_range_meters":11600,"station_id":"ce4bh092rcd13ifvqd20","pricing_plan_id":"cebpf4jnsgd1na2vs0mg"},{"bike_id":"7e72ca8e-eb06-4961-8d12-819bd0c2ce0a","system_id":"levelo_inurba_marseille","lat":43.304274,"lon":5.397513,"is_reserved":false,"is_disabled":false,"rental_uris":{"android":"levelo://app?vid=7e72ca8e-eb06-4961-8d12-819bd0c2ce0a","ios":"levelo://app?vid=7e72ca8e-eb06-4961-8d12-819bd0c2ce0a"},"vehicle_type_id":"4","last_reported":1716224911,"current_range_meters":28000,"station_id":"ce4bh092rcd13ifvqd20","pricing_plan_id":"cebpf4jnsgd1na2vs0mg"},{"bike_id":"e8f43f6f-5bae-4afc-a7eb-1c3361639a20","system_id":"levelo_inurba_marseille","lat":43.292644,"lon":5.384257,"is_reserved":false,"is_disabled":false,"rental_uris":{"android":"levelo://app?vid=e8f43f6f-5bae-4afc-a7eb-1c3361639a20","ios":"levelo://app?vid=e8f43f6f-5bae-4afc-a7eb-1c3361639a20"},"vehicle_type_id":"4","last_reported":1716224911,"current_range_meters":0,"station_id":"ce4bh692rcd13ifvqea0","pricing_plan_id":"cebpf4jnsgd1na2vs0mg"},{"bike_id":"ec10e5cb-a578-453e-8ad3-8ae029ab0743","system_id":"levelo_inurba_marseille","lat":43.292644,"lon":5.384345,"is_reserved":false,"is_disabled":false,"rental_uris":{"android":"levelo://app?vid=ec10e5cb-a578-453e-8ad3-8ae029ab0743","ios":"levelo://app?vid=ec10e5cb-a578-453e-8ad3-8ae029ab0743"},"vehicle_type_id":"4","last_reported":1716224911,"current_range_meters":3200,"station_id":"ce4bh692rcd13ifvqea0","pricing_plan_id":"cebpf4jnsgd1na2vs0mg"},{"bike_id":"96300267-54f5-42c9-9a96-b29eda820b20","system_id":"levelo_inurba_marseille","lat":43.29265,"lon":5.38436,"is_reserved":false,"is_disabled":false,"rental_uris":{"android":"levelo://app?vid=96300267-54f5-42c9-9a96-b29eda820b20","ios":"levelo://app?vid=96300267-54f5-42c9-9a96-b29eda820b20"},"vehicle_type_id":"4","last_reported":1716224911,"current_range_meters":1600,"station_id":"ce4bh692rcd13ifvqea0","pricing_plan_id":"cebpf4jnsgd1na2vs0mg"},{"bike_id":"9a737fe7-86e5-4775-8186-90a53cfeb042","system_id":"levelo_inurba_marseille","lat":43.292644,"lon":5.384257,"is_reserved":false,"is_disabled":false,"rental_uris":{"android":"levelo://app?vid=9a737fe7-86e5-4775-8186-90a53cfeb042","ios":"levelo://app?vid=9a737fe7-86e5-4775-8186-90a53cfeb042"},"vehicle_type_id":"4","last_reported":1716224911,"current_range_meters":0,"station_id":"ce4bh692rcd13ifvqea0","pricing_plan_id":"cebpf4jnsgd1na2vs0mg"},{"bike_id":"a8a78528-9cb0-458d-82f6-2b8c935e57d1","system_id":"levelo_inurba_marseille","lat":43.290103,"lon":5.356114,"is_reserved":false,"is_disabled":false,"rental_uris":{"android":"levelo://app?vid=a8a78528-9cb0-458d-82f6-2b8c935e57d1","ios":"levelo://app?vid=a8a78528-9cb0-458d-82f6-2b8c935e57d1"},"vehicle_type_id":"4","last_reported":1716224911,"current_range_meters":23200,"station_id":"ce4bhb92rcd13ifvqen0","pricing_plan_id":"cebpf4jnsgd1na2vs0mg"},{"bike_id":"f2d4aba7-e2f9-4034-9bd6-84b1d1e76faf","system_id":"levelo_inurba_marseille","lat":43.292642,"lon":5.384254,"is_reserved":false,"is_disabled":false,"rental_uris":{"android":"levelo://app?vid=f2d4aba7-e2f9-4034-9bd6-84b1d1e76faf","ios":"levelo://app?vid=f2d4aba7-e2f9-4034-9bd6-84b1d1e76faf"},"vehicle_type_id":"4","last_reported":1716224911,"current_range_meters":7600,"station_id":"ce4bh692rcd13ifvqea0","pricing_plan_id":"cebpf4jnsgd1na2vs0mg"},{"bike_id":"5570c23a-864d-4e79-8f26-6b112fe56ccd","system_id":"levelo_inurba_marseille","lat":43.304296,"lon":5.397513,"is_reserved":false,"is_disabled":false,"rental_uris":{"android":"levelo://app?vid=5570c23a-864d-4e79-8f26-6b112fe56ccd","ios":"levelo://app?vid=5570c23a-864d-4e79-8f26-6b112fe56ccd"},"vehicle_type_id":"4","last_reported":1716224911,"current_range_meters":24000,"station_id":"ce4bh092rcd13ifvqd20","pricing_plan_id":"cebpf4jnsgd1na2vs0mg"},{"bike_id":"b87dda64-c2cb-4b45-8f89-b4102641bf68","system_id":"levelo_inurba_marseille","lat":43.292705,"lon":5.384534,"is_reserved":false,"is_disabled":false,"rental_uris":{"android":"levelo://app?vid=b87dda64-c2cb-4b45-8f89-b4102641bf68","ios":"levelo://app?vid=b87dda64-c2cb-4b45-8f89-b4102641bf68"},"vehicle_type_id":"4","last_reported":1716224911,"current_range_meters":24000,"station_id":"ce4bh692rcd13ifvqea0","pricing_plan_id":"cebpf4jnsgd1na2vs0mg"},{"bike_id":"c7154100-f9e5-4c6a-b232-e9caedf21e7f","system_id":"levelo_inurba_marseille","lat":43.305994,"lon":5.393687,"is_reserved":false,"is_disabled":false,"rental_uris":{"android":"levelo://app?vid=c7154100-f9e5-4c6a-b232-e9caedf21e7f","ios":"levelo://app?vid=c7154100-f9e5-4c6a-b232-e9caedf21e7f"},"vehicle_type_id":"4","last_reported":1716224911,"current_range_meters":22000,"station_id":"ce4bh0p2rcd13ifvqd80","pricing_plan_id":"cebpf4jnsgd1na2vs0mg"},{"bike_id":"a3bf18f4-e863-4ae6-958f-b0143ee17428","system_id":"levelo_inurba_marseille","lat":43.292642,"lon":5.384254,"is_reserved":false,"is_disabled":false,"rental_uris":{"android":"levelo://app?vid=a3bf18f4-e863-4ae6-958f-b0143ee17428","ios":"levelo://app?vid=a3bf18f4-e863-4ae6-958f-b0143ee17428"},"vehicle_type_id":"4","last_reported":1716224911,"current_range_meters":0,"station_id":"ce4bh692rcd13ifvqea0","pricing_plan_id":"cebpf4jnsgd1na2vs0mg"},{"bike_id":"a0106fa8-f9f3-4ad7-a795-7b4f9d682f22","system_id":"levelo_inurba_marseille","lat":43.292644,"lon":5.384257,"is_reserved":false,"is_disabled":false,"rental_uris":{"android":"levelo://app?vid=a0106fa8-f9f3-4ad7-a795-7b4f9d682f22","ios":"levelo://app?vid=a0106fa8-f9f3-4ad7-a795-7b4f9d682f22"},"vehicle_type_id":"4","last_reported":1716224911,"current_range_meters":800,"station_id":"ce4bh692rcd13ifvqea0","pricing_plan_id":"cebpf4jnsgd1na2vs0mg"},{"bike_id":"9fd841da-1e3b-4100-9d5f-e997659c1196","system_id":"levelo_inurba_marseille","lat":43.292642,"lon":5.384254,"is_reserved":false,"is_disabled":false,"rental_uris":{"android":"levelo://app?vid=9fd841da-1e3b-4100-9d5f-e997659c1196","ios":"levelo://app?vid=9fd841da-1e3b-4100-9d5f-e997659c1196"},"vehicle_type_id":"4","last_reported":1716224911,"current_range_meters":31200,"station_id":"ce4bh692rcd13ifvqea0","pricing_plan_id":"cebpf4jnsgd1na2vs0mg"},{"bike_id":"cb9c01f8-8388-474f-b0e5-77cb02e8fb41","system_id":"levelo_inurba_marseille","lat":43.290103,"lon":5.356114,"is_reserved":false,"is_disabled":false,"rental_uris":{"android":"levelo://app?vid=cb9c01f8-8388-474f-b0e5-77cb02e8fb41","ios":"levelo://app?vid=cb9c01f8-8388-474f-b0e5-77cb02e8fb41"},"vehicle_type_id":"4","last_reported":1716224911,"current_range_meters":0,"station_id":"ce4bhb92rcd13ifvqen0","pricing_plan_id":"cebpf4jnsgd1na2vs0mg"},{"bike_id":"a36e3a31-c4f5-47e8-b5d3-0f3b1e21b080","system_id":"levelo_inurba_marseille","lat":43.290104,"lon":5.356111,"is_reserved":false,"is_disabled":false,"rental_uris":{"android":"levelo://app?vid=a36e3a31-c4f5-47e8-b5d3-0f3b1e21b080","ios":"levelo://app?vid=a36e3a31-c4f5-47e8-b5d3-0f3b1e21b080"},"vehicle_type_id":"4","last_reported":1716224911,"current_range_meters":4800,"station_id":"ce4bhb92rcd13ifvqen0","pricing_plan_id":"cebpf4jnsgd1na2vs0mg"},{"bike_id":"b985eb5b-bb55-483e-81c4-a195357e73ac","system_id":"levelo_inurba_marseille","lat":43.290103,"lon":5.356114,"is_reserved":false,"is_disabled":false,"rental_uris":{"android":"levelo://app?vid=b985eb5b-bb55-483e-81c4-a195357e73ac","ios":"levelo://app?vid=b985eb5b-bb55-483e-81c4-a195357e73ac"},"vehicle_type_id":"4","last_reported":1716224911,"current_range_meters":9600,"station_id":"ce4bhb92rcd13ifvqen0","pricing_plan_id":"cebpf4jnsgd1na2vs0mg"},{"bike_id":"7df8e55a-9b4e-4bbb-b9d9-e94ee5144e8d","system_id":"levelo_inurba_marseille","lat":43.290103,"lon":5.356114,"is_reserved":false,"is_disabled":false,"rental_uris":{"android":"levelo://app?vid=7df8e55a-9b4e-4bbb-b9d9-e94ee5144e8d","ios":"levelo://app?vid=7df8e55a-9b4e-4bbb-b9d9-e94ee5144e8d"},"vehicle_type_id":"4","last_reported":1716224911,"current_range_meters":15600,"station_id":"ce4bhb92rcd13ifvqen0","pricing_plan_id":"cebpf4jnsgd1na2vs0mg"},{"bike_id":"994f3652-de6e-49d0-95f1-304f5a6f870f","system_id":"levelo_inurba_marseille","lat":43.290103,"lon":5.356114,"is_reserved":false,"is_disabled":false,"rental_uris":{"android":"levelo://app?vid=994f3652-de6e-49d0-95f1-304f5a6f870f","ios":"levelo://app?vid=994f3652-de6e-49d0-95f1-304f5a6f870f"},"vehicle_type_id":"4","last_reported":1716224911,"current_range_meters":2800,"station_id":"ce4bhb92rcd13ifvqen0","pricing_plan_id":"cebpf4jnsgd1na2vs0mg"},{"bike_id":"9ab4713d-accd-408a-a4d1-50dfe25db060","system_id":"levelo_inurba_marseille","lat":43.290104,"lon":5.356111,"is_reserved":false,"is_disabled":false,"rental_uris":{"android":"levelo://app?vid=9ab4713d-accd-408a-a4d1-50dfe25db060","ios":"levelo://app?vid=9ab4713d-accd-408a-a4d1-50dfe25db060"},"vehicle_type_id":"4","last_reported":1716224911,"current_range_meters":3600,"station_id":"ce4bhb92rcd13ifvqen0","pricing_plan_id":"cebpf4jnsgd1na2vs0mg"},{"bike_id":"5efd5d6c-5aa5-46c1-a4e9-aa543058e91c","system_id":"levelo_inurba_marseille","lat":43.290103,"lon":5.356114,"is_reserved":false,"is_disabled":false,"rental_uris":{"android":"levelo://app?vid=5efd5d6c-5aa5-46c1-a4e9-aa543058e91c","ios":"levelo://app?vid=5efd5d6c-5aa5-46c1-a4e9-aa543058e91c"},"vehicle_type_id":"4","last_reported":1716224911,"current_range_meters":0,"station_id":"ce4bhb92rcd13ifvqen0","pricing_plan_id":"cebpf4jnsgd1na2vs0mg"},{"bike_id":"b8639028-af4f-42c6-85e7-d161fb8ef88e","system_id":"levelo_inurba_marseille","lat":43.290104,"lon":5.356111,"is_reserved":false,"is_disabled":false,"rental_uris":{"android":"levelo://app?vid=b8639028-af4f-42c6-85e7-d161fb8ef88e","ios":"levelo://app?vid=b8639028-af4f-42c6-85e7-d161fb8ef88e"},"vehicle_type_id":"4","last_reported":1716224911,"current_range_meters":11600,"station_id":"ce4bhb92rcd13ifvqen0","pricing_plan_id":"cebpf4jnsgd1na2vs0mg"},{"bike_id":"ab4ff5cb-6702-490f-b5c4-630770b0765e","system_id":"levelo_inurba_marseille","lat":43.290103,"lon":5.356114,"is_reserved":false,"is_disabled":false,"rental_uris":{"android":"levelo://app?vid=ab4ff5cb-6702-490f-b5c4-630770b0765e","ios":"levelo://app?vid=ab4ff5cb-6702-490f-b5c4-630770b0765e"},"vehicle_type_id":"4","last_reported":1716224911,"current_range_meters":22400,"station_id":"ce4bhb92rcd13ifvqen0","pricing_plan_id":"cebpf4jnsgd1na2vs0mg"},{"bike_id":"cfc5904d-4f7d-47e3-910e-1b0b32cc07f2","system_id":"levelo_inurba_marseille","lat":43.290103,"lon":5.356114,"is_reserved":false,"is_disabled":false,"rental_uris":{"android":"levelo://app?vid=cfc5904d-4f7d-47e3-910e-1b0b32cc07f2","ios":"levelo://app?vid=cfc5904d-4f7d-47e3-910e-1b0b32cc07f2"},"vehicle_type_id":"4","last_reported":1716224911,"current_range_meters":3200,"station_id":"ce4bhb92rcd13ifvqen0","pricing_plan_id":"cebpf4jnsgd1na2vs0mg"},{"bike_id":"f91733ca-1553-425f-9140-5b3a07a0053b","system_id":"levelo_inurba_marseille","lat":43.289743,"lon":5.378304,"is_reserved":false,"is_disabled":false,"rental_uris":{"android":"levelo://app?vid=f91733ca-1553-425f-9140-5b3a07a0053b","ios":"levelo://app?vid=f91733ca-1553-425f-9140-5b3a07a0053b"},"vehicle_type_id":"4","last_reported":1716224911,"current_range_meters":26800,"station_id":"ce4bh9p2rcd13ifvqed0","pricing_plan_id":"cebpf4jnsgd1na2vs0mg"},{"bike_id":"1d342e2b-df0b-43e5-a6c5-c06759d466c2","system_id":"levelo_inurba_marseille","lat":43.28986,"lon":5.35555,"is_reserved":false,"is_disabled":false,"rental_uris":{"android":"levelo://app?vid=1d342e2b-df0b-43e5-a6c5-c06759d466c2","ios":"levelo://app?vid=1d342e2b-df0b-43e5-a6c5-c06759d466c2"},"vehicle_type_id":"4","last_reported":1716224911,"current_range_meters":0,"station_id":"","pricing_plan_id":"cebpf4jnsgd1na2vs0mg"},{"bike_id":"987e925d-8b44-46e8-b309-a93d1561731c","system_id":"levelo_inurba_marseille","lat":43.295275,"lon":5.390239,"is_reserved":false,"is_disabled":false,"rental_uris":{"android":"levelo://app?vid=987e925d-8b44-46e8-b309-a93d1561731c","ios":"levelo://app?vid=987e925d-8b44-46e8-b309-a93d1561731c"},"vehicle_type_id":"4","last_reported":1716224911,"current_range_meters":400,"station_id":"ce4bh3p2rcd13ifvqdp0","pricing_plan_id":"cebpf4jnsgd1na2vs0mg"},{"bike_id":"a3da15a4-c3b4-44e6-87c9-3c0532123aa6","system_id":"levelo_inurba_marseille","lat":43.295169,"lon":5.390426,"is_reserved":false,"is_disabled":false,"rental_uris":{"android":"levelo://app?vid=a3da15a4-c3b4-44e6-87c9-3c0532123aa6","ios":"levelo://app?vid=a3da15a4-c3b4-44e6-87c9-3c0532123aa6"},"vehicle_type_id":"4","last_reported":1716224911,"current_range_meters":4400,"station_id":"ce4bh3p2rcd13ifvqdp0","pricing_plan_id":"cebpf4jnsgd1na2vs0mg"},{"bike_id":"a7809766-81f3-46ee-a8b6-6cafaa904286","system_id":"levelo_inurba_marseille","lat":43.330442,"lon":5.389148,"is_reserved":false,"is_disabled":false,"rental_uris":{"android":"levelo://app?vid=a7809766-81f3-46ee-a8b6-6cafaa904286","ios":"levelo://app?vid=a7809766-81f3-46ee-a8b6-6cafaa904286"},"vehicle_type_id":"4","last_reported":1716224911,"current_range_meters":18800,"station_id":"ce4bhr92rcd13ifvqhrg","pricing_plan_id":"cebpf4jnsgd1na2vs0mg"},{"bike_id":"b107a50b-2350-434d-b6a9-40acf28a8b39","system_id":"levelo_inurba_marseille","lat":43.289743,"lon":5.378304,"is_reserved":false,"is_disabled":false,"rental_uris":{"android":"levelo://app?vid=b107a50b-2350-434d-b6a9-40acf28a8b39","ios":"levelo://app?vid=b107a50b-2350-434d-b6a9-40acf28a8b39"},"vehicle_type_id":"4","last_reported":1716224911,"current_range_meters":27600,"station_id":"ce4bh9p2rcd13ifvqed0","pricing_plan_id":"cebpf4jnsgd1na2vs0mg"},{"bike_id":"b194aabe-7a38-403e-b000-19e4f5e53015","system_id":"levelo_inurba_marseille","lat":43.295169,"lon":5.390426,"is_reserved":false,"is_disabled":false,"rental_uris":{"android":"levelo://app?vid=b194aabe-7a38-403e-b000-19e4f5e53015","ios":"levelo://app?vid=b194aabe-7a38-403e-b000-19e4f5e53015"},"vehicle_type_id":"4","last_reported":1716224911,"current_range_meters":22400,"station_id":"ce4bh3p2rcd13ifvqdp0","pricing_plan_id":"cebpf4jnsgd1na2vs0mg"},{"bike_id":"a1f41096-42e6-495e-a345-d5674109ed3d","system_id":"levelo_inurba_marseille","lat":43.290103,"lon":5.356114,"is_reserved":false,"is_disabled":false,"rental_uris":{"android":"levelo://app?vid=a1f41096-42e6-495e-a345-d5674109ed3d","ios":"levelo://app?vid=a1f41096-42e6-495e-a345-d5674109ed3d"},"vehicle_type_id":"4","last_reported":1716224911,"current_range_meters":14400,"station_id":"ce4bhb92rcd13ifvqen0","pricing_plan_id":"cebpf4jnsgd1na2vs0mg"},{"bike_id":"94711046-3129-44e6-bf7d-674233b86138","system_id":"levelo_inurba_marseille","lat":43.330442,"lon":5.389148,"is_reserved":false,"is_disabled":false,"rental_uris":{"android":"levelo://app?vid=94711046-3129-44e6-bf7d-674233b86138","ios":"levelo://app?vid=94711046-3129-44e6-bf7d-674233b86138"},"vehicle_type_id":"4","last_reported":1716224911,"current_range_meters":12000,"station_id":"ce4bhr92rcd13ifvqhrg","pricing_plan_id":"cebpf4jnsgd1na2vs0mg"},{"bike_id":"ac50b383-568a-49b8-8b8f-bad01256499d","system_id":"levelo_inurba_marseille","lat":43.330442,"lon":5.389148,"is_reserved":false,"is_disabled":false,"rental_uris":{"android":"levelo://app?vid=ac50b383-568a-49b8-8b8f-bad01256499d","ios":"levelo://app?vid=ac50b383-568a-49b8-8b8f-bad01256499d"},"vehicle_type_id":"4","last_reported":1716224911,"current_range_meters":31200,"station_id":"ce4bhr92rcd13ifvqhrg","pricing_plan_id":"cebpf4jnsgd1na2vs0mg"},{"bike_id":"ac658b05-33e6-4793-b9fe-ee34d203f58c","system_id":"levelo_inurba_marseille","lat":43.330442,"lon":5.389148,"is_reserved":false,"is_disabled":false,"rental_uris":{"android":"levelo://app?vid=ac658b05-33e6-4793-b9fe-ee34d203f58c","ios":"levelo://app?vid=ac658b05-33e6-4793-b9fe-ee34d203f58c"},"vehicle_type_id":"4","last_reported":1716224911,"current_range_meters":25200,"station_id":"ce4bhr92rcd13ifvqhrg","pricing_plan_id":"cebpf4jnsgd1na2vs0mg"},{"bike_id":"6da70587-e135-45ff-aac9-47ac6bf760ba","system_id":"levelo_inurba_marseille","lat":43.295169,"lon":5.390426,"is_reserved":false,"is_disabled":false,"rental_uris":{"android":"levelo://app?vid=6da70587-e135-45ff-aac9-47ac6bf760ba","ios":"levelo://app?vid=6da70587-e135-45ff-aac9-47ac6bf760ba"},"vehicle_type_id":"4","last_reported":1716224911,"current_range_meters":8000,"station_id":"ce4bh3p2rcd13ifvqdp0","pricing_plan_id":"cebpf4jnsgd1na2vs0mg"},{"bike_id":"2662974a-130f-4829-9c5d-82708026f8ae","system_id":"levelo_inurba_marseille","lat":43.330442,"lon":5.389148,"is_reserved":false,"is_disabled":false,"rental_uris":{"android":"levelo://app?vid=2662974a-130f-4829-9c5d-82708026f8ae","ios":"levelo://app?vid=2662974a-130f-4829-9c5d-82708026f8ae"},"vehicle_type_id":"4","last_reported":1716224911,"current_range_meters":15600,"station_id":"ce4bhr92rcd13ifvqhrg","pricing_plan_id":"cebpf4jnsgd1na2vs0mg"},{"bike_id":"b1d0eae7-c1e4-44b5-a8ff-8dd51ff7d236","system_id":"levelo_inurba_marseille","lat":43.330442,"lon":5.389148,"is_reserved":false,"is_disabled":false,"rental_uris":{"android":"levelo://app?vid=b1d0eae7-c1e4-44b5-a8ff-8dd51ff7d236","ios":"levelo://app?vid=b1d0eae7-c1e4-44b5-a8ff-8dd51ff7d236"},"vehicle_type_id":"4","last_reported":1716224911,"current_range_meters":1200,"station_id":"ce4bhr92rcd13ifvqhrg","pricing_plan_id":"cebpf4jnsgd1na2vs0mg"},{"bike_id":"e31d7be6-9c89-4baa-8936-da2d6873288a","system_id":"levelo_inurba_marseille","lat":43.2901,"lon":5.381269,"is_reserved":false,"is_disabled":false,"rental_uris":{"android":"levelo://app?vid=e31d7be6-9c89-4baa-8936-da2d6873288a","ios":"levelo://app?vid=e31d7be6-9c89-4baa-8936-da2d6873288a"},"vehicle_type_id":"4","last_reported":1716224911,"current_range_meters":4000,"station_id":"ce4bh4p2rcd13ifvqe1g","pricing_plan_id":"cebpf4jnsgd1na2vs0mg"},{"bike_id":"dcb3f1dc-346e-4e65-a2ac-b6d72b36d54f","system_id":"levelo_inurba_marseille","lat":43.28856,"lon":5.358371,"is_reserved":false,"is_disabled":false,"rental_uris":{"android":"levelo://app?vid=dcb3f1dc-346e-4e65-a2ac-b6d72b36d54f","ios":"levelo://app?vid=dcb3f1dc-346e-4e65-a2ac-b6d72b36d54f"},"vehicle_type_id":"4","last_reported":1716224911,"current_range_meters":9200,"station_id":"ce4bhb12rcd13ifvqem0","pricing_plan_id":"cebpf4jnsgd1na2vs0mg"},{"bike_id":"cd99ae81-20ef-491f-9d42-b77093ee101b","system_id":"levelo_inurba_marseille","lat":43.312609,"lon":5.401662,"is_reserved":false,"is_disabled":false,"rental_uris":{"android":"levelo://app?vid=cd99ae81-20ef-491f-9d42-b77093ee101b","ios":"levelo://app?vid=cd99ae81-20ef-491f-9d42-b77093ee101b"},