{"last_updated":1727204828,"ttl":60,"version":"2.2","data":{"bikes":[{"bike_id":"f301701f-c8ca-4e8b-b4c0-b2f790d5dafa","system_id":"levelo_inurba_marseille","lat":43.31016,"lon":5.38078,"is_reserved":false,"is_disabled":false,"rental_uris":{"android":"levelo://app?vid=f301701f-c8ca-4e8b-b4c0-b2f790d5dafa","ios":"levelo://app?vid=f301701f-c8ca-4e8b-b4c0-b2f790d5dafa"},"vehicle_type_id":"4","last_reported":1727204828,"current_range_meters":6800,"station_id":"","pricing_plan_id":"cebpf4jnsgd1na2vs0mg"},{"bike_id":"8ee7fb84-da46-476f-a091-3c35d33d7645","system_id":"levelo_inurba_marseille","lat":43.27937,"lon":5.41053,"is_reserved":false,"is_disabled":false,"rental_uris":{"android":"levelo://app?vid=8ee7fb84-da46-476f-a091-3c35d33d7645","ios":"levelo://app?vid=8ee7fb84-da46-476f-a091-3c35d33d7645"},"vehicle_type_id":"4","last_reported":1727204828,"current_range_meters":14800,"station_id":"ce4bhnp2rcd13ifvqh0g","pricing_plan_id":"cebpf4jnsgd1na2vs0mg"},{"bike_id":"a5cd771a-136c-4089-9540-92a43f84b30a","system_id":"levelo_inurba_marseille","lat":43.32333,"lon":5.40633,"is_reserved":false,"is_disabled":false,"rental_uris":{"android":"levelo://app?vid=a5cd771a-136c-4089-9540-92a43f84b30a","ios":"levelo://app?vid=a5cd771a-136c-4089-9540-92a43f84b30a"},"vehicle_type_id":"4","last_reported":1727204828,"current_range_meters":38000,"station_id":"ce4bhq92rcd13ifvqhjg","pricing_plan_id":"cebpf4jnsgd1na2vs0mg"},{"bike_id":"c85c3ac1-ec61-453b-a260-9f3875c4a0d0","system_id":"levelo_inurba_marseille","lat":43.27942,"lon":5.41059,"is_reserved":false,"is_disabled":false,"rental_uris":{"android":"levelo://app?vid=c85c3ac1-ec61-453b-a260-9f3875c4a0d0","ios":"levelo://app?vid=c85c3ac1-ec61-453b-a260-9f3875c4a0d0"},"vehicle_type_id":"4","last_reported":1727204828,"current_range_meters":28800,"station_id":"ce4bhnp2rcd13ifvqh0g","pricing_plan_id":"cebpf4jnsgd1na2vs0mg"},{"bike_id":"55346744-d053-4f73-be69-c67b047be584","system_id":"levelo_inurba_marseille","lat":43.27997,"lon":5.40028,"is_reserved":false,"is_disabled":false,"rental_uris":{"android":"levelo://app?vid=55346744-d053-4f73-be69-c67b047be584","ios":"levelo://app?vid=55346744-d053-4f73-be69-c67b047be584"},"vehicle_type_id":"4","last_reported":1727204828,"current_range_meters":28800,"station_id":"ce4bho92rcd13ifvqh4g","pricing_plan_id":"cebpf4jnsgd1na2vs0mg"},{"bike_id":"2de0ede3-be63-4f4e-bf16-11471ca6a1a1","system_id":"levelo_inurba_marseille","lat":43.3266,"lon":5.41004,"is_reserved":false,"is_disabled":false,"rental_uris":{"android":"levelo://app?vid=2de0ede3-be63-4f4e-bf16-11471ca6a1a1","ios":"levelo://app?vid=2de0ede3-be63-4f4e-bf16-11471ca6a1a1"},"vehicle_type_id":"4","last_reported":1727204828,"current_range_meters":38800,"station_id":"ce4bhpp2rcd13ifvqhgg","pricing_plan_id":"cebpf4jnsgd1na2vs0mg"},{"bike_id":"c6cd9b70-3b14-42a0-9ee3-01408936a20e","system_id":"levelo_inurba_marseille","lat":43.2778,"lon":5.40757,"is_reserved":false,"is_disabled":false,"rental_uris":{"android":"levelo://app?vid=c6cd9b70-3b14-42a0-9ee3-01408936a20e","ios":"levelo://app?vid=c6cd9b70-3b14-42a0-9ee3-01408936a20e"},"vehicle_type_id":"4","last_reported":1727204828,"current_range_meters":18800,"station_id":"ce4bhnh2rcd13ifvqgtg","pricing_plan_id":"cebpf4jnsgd1na2vs0mg"},{"bike_id":"9926f8d4-52ff-41d7-995b-39e4b6d4cdc0","system_id":"levelo_inurba_marseille","lat":43.3248,"lon":5.36569,"is_reserved":false,"is_disabled":false,"rental_uris":{"android":"levelo://app?vid=9926f8d4-52ff-41d7-995b-39e4b6d4cdc0","ios":"levelo://app?vid=9926f8d4-52ff-41d7-995b-39e4b6d4cdc0"},"vehicle_type_id":"4","last_reported":1727204828,"current_range_meters":33600,"station_id":"ce4bhs12rcd13ifvqhvg","pricing_plan_id":"cebpf4jnsgd1na2vs0mg"},{"bike_id":"04c99b8d-0db0-4650-af3d-5666d4b33970","system_id":"levelo_inurba_marseille","lat":43.28172,"lon":5.42658,"is_reserved":false,"is_disabled":false,"rental_uris":{"android":"levelo://app?vid=04c99b8d-0db0-4650-af3d-5666d4b33970","ios":"levelo://app?vid=04c99b8d-0db0-4650-af3d-5666d4b33970"},"vehicle_type_id":"4","last_reported":1727204828,"current_range_meters":38800,"station_id":"ce4bhnh2rcd13ifvqgug","pricing_plan_id":"cebpf4jnsgd1na2vs0mg"},{"bike_id":"3ecf6ad1-da14-47b7-b9b1-72b364948205","system_id":"levelo_inurba_marseille","lat":43.326698,"lon":5.409923,"is_reserved":false,"is_disabled":false,"rental_uris":{"android":"levelo://app?vid=3ecf6ad1-da14-47b7-b9b1-72b364948205","ios":"levelo://app?vid=3ecf6ad1-da14-47b7-b9b1-72b364948205"},"vehicle_type_id":"4","last_reported":1727204828,"current_range_meters":38800,"station_id":"ce4bhpp2rcd13ifvqhgg","pricing_plan_id":"cebpf4jnsgd1na2vs0mg"},{"bike_id":"8a0c097a-dca3-4c56-9b26-1ec4a0150bc9","system_id":"levelo_inurba_marseille","lat":43.27997,"lon":5.40017,"is_reserved":false,"is_disabled":false,"rental_uris":{"android":"levelo://app?vid=8a0c097a-dca3-4c56-9b26-1ec4a0150bc9","ios":"levelo://app?vid=8a0c097a-dca3-4c56-9b26-1ec4a0150bc9"},"vehicle_type_id":"4","last_reported":1727204828,"current_range_meters":17200,"station_id":"ce4bho92rcd13ifvqh4g","pricing_plan_id":"cebpf4jnsgd1na2vs0mg"},{"bike_id":"95951be2-1e1f-4518-b725-bb1b41dd3fe1","system_id":"levelo_inurba_marseille","lat":43.29258,"lon":5.38439,"is_reserved":false,"is_disabled":false,"rental_uris":{"android":"levelo://app?vid=95951be2-1e1f-4518-b725-bb1b41dd3fe1","ios":"levelo://app?vid=95951be2-1e1f-4518-b725-bb1b41dd3fe1"},"vehicle_type_id":"4","last_reported":1727204828,"current_range_meters":14000,"station_id":"ce4bh692rcd13ifvqea0","pricing_plan_id":"cebpf4jnsgd1na2vs0mg"},{"bike_id":"1e5075e3-4144-4b9b-8693-4d7beac6b10a","system_id":"levelo_inurba_marseille","lat":43.27993,"lon":5.40016,"is_reserved":false,"is_disabled":false,"rental_uris":{"android":"levelo://app?vid=1e5075e3-4144-4b9b-8693-4d7beac6b10a","ios":"levelo://app?vid=1e5075e3-4144-4b9b-8693-4d7beac6b10a"},"vehicle_type_id":"4","last_reported":1727204828,"current_range_meters":20000,"station_id":"ce4bho92rcd13ifvqh4g","pricing_plan_id":"cebpf4jnsgd1na2vs0mg"},{"bike_id":"e92602a2-01ae-499b-bff1-e63817b8dee8","system_id":"levelo_inurba_marseille","lat":43.29517,"lon":5.39411,"is_reserved":false,"is_disabled":false,"rental_uris":{"android":"levelo://app?vid=e92602a2-01ae-499b-bff1-e63817b8dee8","ios":"levelo://app?vid=e92602a2-01ae-499b-bff1-e63817b8dee8"},"vehicle_type_id":"4","last_reported":1727204828,"current_range_meters":9600,"station_id":"ce4bh292rcd13ifvqdf0","pricing_plan_id":"cebpf4jnsgd1na2vs0mg"},{"bike_id":"9c03e0f0-96c4-48fe-a0c9-2ff39af48c29","system_id":"levelo_inurba_marseille","lat":43.31994,"lon":5.3816,"is_reserved":false,"is_disabled":false,"rental_uris":{"android":"levelo://app?vid=9c03e0f0-96c4-48fe-a0c9-2ff39af48c29","ios":"levelo://app?vid=9c03e0f0-96c4-48fe-a0c9-2ff39af48c29"},"vehicle_type_id":"4","last_reported":1727204828,"current_range_meters":38800,"station_id":"ce4bhr12rcd13ifvqhpg","pricing_plan_id":"cebpf4jnsgd1na2vs0mg"},{"bike_id":"b57c63c6-9613-421c-b3ec-1f9879bc19fe","system_id":"levelo_inurba_marseille","lat":43.30139,"lon":5.38786,"is_reserved":false,"is_disabled":false,"rental_uris":{"android":"levelo://app?vid=b57c63c6-9613-421c-b3ec-1f9879bc19fe","ios":"levelo://app?vid=b57c63c6-9613-421c-b3ec-1f9879bc19fe"},"vehicle_type_id":"4","last_reported":1727204828,"current_range_meters":8400,"station_id":"ce4bghh2rcd13ifvqb60","pricing_plan_id":"cebpf4jnsgd1na2vs0mg"},{"bike_id":"2ec5f482-ef2f-4ef8-b42f-3ca6cf554387","system_id":"levelo_inurba_marseille","lat":43.31326,"lon":5.397,"is_reserved":false,"is_disabled":false,"rental_uris":{"android":"levelo://app?vid=2ec5f482-ef2f-4ef8-b42f-3ca6cf554387","ios":"levelo://app?vid=2ec5f482-ef2f-4ef8-b42f-3ca6cf554387"},"vehicle_type_id":"4","last_reported":1727204828,"current_range_meters":38800,"station_id":"ce4bgvp2rcd13ifvqcu0","pricing_plan_id":"cebpf4jnsgd1na2vs0mg"},{"bike_id":"7737b815-6daf-41f0-8354-4b28ba75917f","system_id":"levelo_inurba_marseille","lat":43.30184,"lon":5.39844,"is_reserved":false,"is_disabled":false,"rental_uris":{"android":"levelo://app?vid=7737b815-6daf-41f0-8354-4b28ba75917f","ios":"levelo://app?vid=7737b815-6daf-41f0-8354-4b28ba75917f"},"vehicle_type_id":"4","last_reported":1727204828,"current_range_meters":21600,"station_id":"ce4bgvp2rcd13ifvqct0","pricing_plan_id":"cebpf4jnsgd1na2vs0mg"},{"bike_id":"97cd9c66-18db-4e66-9552-5c0b14626eb5","system_id":"levelo_inurba_marseille","lat":43.27993,"lon":5.40018,"is_reserved":false,"is_disabled":false,"rental_uris":{"android":"levelo://app?vid=97cd9c66-18db-4e66-9552-5c0b14626eb5","ios":"levelo://app?vid=97cd9c66-18db-4e66-9552-5c0b14626eb5"},"vehicle_type_id":"4","last_reported":1727204828,"current_range_meters":14400,"station_id":"ce4bho92rcd13ifvqh4g","pricing_plan_id":"cebpf4jnsgd1na2vs0mg"},{"bike_id":"677fd384-14f5-4e8f-a298-b94ac27b00fd","system_id":"levelo_inurba_marseille","lat":43.29883,"lon":5.38913,"is_reserved":false,"is_disabled":false,"rental_uris":{"android":"levelo://app?vid=677fd384-14f5-4e8f-a298-b94ac27b00fd","ios":"levelo://app?vid=677fd384-14f5-4e8f-a298-b94ac27b00fd"},"vehicle_type_id":"4","last_reported":1727204828,"current_range_meters":38800,"station_id":"ce4bh392rcd13ifvqdl0","pricing_plan_id":"cebpf4jnsgd1na2vs0mg"},{"bike_id":"93af468c-1321-4d4c-99c3-612c9b0da5a4","system_id":"levelo_inurba_marseille","lat":43.25819,"lon":5.39438,"is_reserved":false,"is_disabled":false,"rental_uris":{"android":"levelo://app?vid=93af468c-1321-4d4c-99c3-612c9b0da5a4","ios":"levelo://app?vid=93af468c-1321-4d4c-99c3-612c9b0da5a4"},"vehicle_type_id":"4","last_reported":1727204828,"current_range_meters":10800,"station_id":"ce4bhip2rcd13ifvqft0","pricing_plan_id":"cebpf4jnsgd1na2vs0mg"},{"bike_id":"850e7f7d-e2a6-4a24-9337-765cf8584f83","system_id":"levelo_inurba_marseille","lat":43.30879,"lon":5.39655,"is_reserved":false,"is_disabled":false,"rental_uris":{"android":"levelo://app?vid=850e7f7d-e2a6-4a24-9337-765cf8584f83","ios":"levelo://app?vid=850e7f7d-e2a6-4a24-9337-765cf8584f83"},"vehicle_type_id":"4","last_reported":1727204828,"current_range_meters":6400,"station_id":"ce4bh012rcd13ifvqcv0","pricing_plan_id":"cebpf4jnsgd1na2vs0mg"},{"bike_id":"21d4eb9b-d2f2-4a19-959d-5816de71ab2d","system_id":"levelo_inurba_marseille","lat":43.2964,"lon":5.40597,"is_reserved":false,"is_disabled":false,"rental_uris":{"android":"levelo://app?vid=21d4eb9b-d2f2-4a19-959d-5816de71ab2d","ios":"levelo://app?vid=21d4eb9b-d2f2-4a19-959d-5816de71ab2d"},"vehicle_type_id":"4","last_reported":1727204828,"current_range_meters":35200,"station_id":"ce4bh0h2rcd13ifvqd60","pricing_plan_id":"cebpf4jnsgd1na2vs0mg"},{"bike_id":"73a7d6d7-e9f5-4468-89b9-b510ad96bb27","system_id":"levelo_inurba_marseille","lat":43.25122,"lon":5.40318,"is_reserved":false,"is_disabled":false,"rental_uris":{"android":"levelo://app?vid=73a7d6d7-e9f5-4468-89b9-b510ad96bb27","ios":"levelo://app?vid=73a7d6d7-e9f5-4468-89b9-b510ad96bb27"},"vehicle_type_id":"4","last_reported":1727204828,"current_range_meters":26800,"station_id":"ce4bhlh2rcd13ifvqgig","pricing_plan_id":"cebpf4jnsgd1na2vs0mg"},{"bike_id":"411e7b4e-6541-427c-ab4e-96e4a48c1b42","system_id":"levelo_inurba_marseille","lat":43.25577,"lon":5.3824,"is_reserved":false,"is_disabled":false,"rental_uris":{"android":"levelo://app?vid=411e7b4e-6541-427c-ab4e-96e4a48c1b42","ios":"levelo://app?vid=411e7b4e-6541-427c-ab4e-96e4a48c1b42"},"vehicle_type_id":"4","last_reported":1727204828,"current_range_meters":32000,"station_id":"ce4bhih2rcd13ifvqfs0","pricing_plan_id":"cebpf4jnsgd1na2vs0mg"},{"bike_id":"f8c704cc-636c-4268-80af-5309e4b09904","system_id":"levelo_inurba_marseille","lat":43.24182,"lon":5.39723,"is_reserved":false,"is_disabled":false,"rental_uris":{"android":"levelo://app?vid=f8c704cc-636c-4268-80af-5309e4b09904","ios":"levelo://app?vid=f8c704cc-636c-4268-80af-5309e4b09904"},"vehicle_type_id":"4","last_reported":1727204828,"current_range_meters":36800,"station_id":"ce4bhn12rcd13ifvqgpg","pricing_plan_id":"cebpf4jnsgd1na2vs0mg"},{"bike_id":"8db4eeae-90dc-450b-8149-34b6ce69b1f8","system_id":"levelo_inurba_marseille","lat":43.23182,"lon":5.39991,"is_reserved":false,"is_disabled":false,"rental_uris":{"android":"levelo://app?vid=8db4eeae-90dc-450b-8149-34b6ce69b1f8","ios":"levelo://app?vid=8db4eeae-90dc-450b-8149-34b6ce69b1f8"},"vehicle_type_id":"4","last_reported":1727204828,"current_range_meters":30400,"station_id":"ce4bhn12rcd13ifvqgqg","pricing_plan_id":"cebpf4jnsgd1na2vs0mg"},{"bike_id":"20bdd43a-fb86-4a6a-8151-53f794460f1a","system_id":"levelo_inurba_marseille","lat":43.28414,"lon":5.3752,"is_reserved":false,"is_disabled":false,"rental_uris":{"android":"levelo://app?vid=20bdd43a-fb86-4a6a-8151-53f794460f1a","ios":"levelo://app?vid=20bdd43a-fb86-4a6a-8151-53f794460f1a"},"vehicle_type_id":"4","last_reported":1727204828,"current_range_meters":16000,"station_id":"ce4bh412rcd13ifvqds0","pricing_plan_id":"cebpf4jnsgd1na2vs0mg"},{"bike_id":"2b53c05c-7e74-451c-9f0a-5f217febdc56","system_id":"levelo_inurba_marseille","lat":43.30143,"lon":5.37711,"is_reserved":false,"is_disabled":false,"rental_uris":{"android":"levelo://app?vid=2b53c05c-7e74-451c-9f0a-5f217febdc56","ios":"levelo://app?vid=2b53c05c-7e74-451c-9f0a-5f217febdc56"},"vehicle_type_id":"4","last_reported":1727204828,"current_range_meters":7200,"station_id":"","pricing_plan_id":"cebpf4jnsgd1na2vs0mg"},{"bike_id":"7a8458d5-44ac-4f2e-abef-3f01eb31f7ca","system_id":"levelo_inurba_marseille","lat":43.337444,"lon":5.374475,"is_reserved":false,"is_disabled":false,"rental_uris":{"android":"levelo://app?vid=7a8458d5-44ac-4f2e-abef-3f01eb31f7ca","ios":"levelo://app?vid=7a8458d5-44ac-4f2e-abef-3f01eb31f7ca"},"vehicle_type_id":"4","last_reported":1727204828,"current_range_meters":28800,"station_id":"","pricing_plan_id":"cebpf4jnsgd1na2vs0mg"},{"bike_id":"07ea561a-4d81-43b8-a0d5-8a1f3994a60f","system_id":"levelo_inurba_marseille","lat":43.28945,"lon":5.36635,"is_reserved":false,"is_disabled":false,"rental_uris":{"android":"levelo://app?vid=07ea561a-4d81-43b8-a0d5-8a1f3994a60f","ios":"levelo://app?vid=07ea561a-4d81-43b8-a0d5-8a1f3994a60f"},"vehicle_type_id":"4","last_reported":1727204828,"current_range_meters":25200,"station_id":"ce4bhap2rcd13ifvqek0","pricing_plan_id":"cebpf4jnsgd1na2vs0mg"},{"bike_id":"6e55ac43-1085-43a8-be8c-35b9e7ca5826","system_id":"levelo_inurba_marseille","lat":43.28693,"lon":5.39987,"is_reserved":false,"is_disabled":false,"rental_uris":{"android":"levelo://app?vid=6e55ac43-1085-43a8-be8c-35b9e7ca5826","ios":"levelo://app?vid=6e55ac43-1085-43a8-be8c-35b9e7ca5826"},"vehicle_type_id":"4","last_reported":1727204828,"current_range_meters":20800,"station_id":"ce4bho92rcd13ifvqh3g","pricing_plan_id":"cebpf4jnsgd1na2vs0mg"},{"bike_id":"05314f5d-f9da-40e1-bd3c-7614e7939bbc","system_id":"levelo_inurba_marseille","lat":43.296783,"lon":5.372831,"is_reserved":false,"is_disabled":false,"rental_uris":{"android":"levelo://app?vid=05314f5d-f9da-40e1-bd3c-7614e7939bbc","ios":"levelo://app?vid=05314f5d-f9da-40e1-bd3c-7614e7939bbc"},"vehicle_type_id":"4","last_reported":1727204828,"current_range_meters":38800,"station_id":"ce4bgk12rcd13ifvqbj0","pricing_plan_id":"cebpf4jnsgd1na2vs0mg"},{"bike_id":"c9b5ec6f-9235-414f-8086-a847b21c71d9","system_id":"levelo_inurba_marseille","lat":43.31993,"lon":5.3815,"is_reserved":false,"is_disabled":false,"rental_uris":{"android":"levelo://app?vid=c9b5ec6f-9235-414f-8086-a847b21c71d9","ios":"levelo://app?vid=c9b5ec6f-9235-414f-8086-a847b21c71d9"},"vehicle_type_id":"4","last_reported":1727204828,"current_range_meters":39200,"station_id":"ce4bhr12rcd13ifvqhpg","pricing_plan_id":"cebpf4jnsgd1na2vs0mg"},{"bike_id":"a1f389dd-bb24-412b-85a7-c4163f3337bb","system_id":"levelo_inurba_marseille","lat":43.31755,"lon":5.39021,"is_reserved":false,"is_disabled":false,"rental_uris":{"android":"levelo://app?vid=a1f389dd-bb24-412b-85a7-c4163f3337bb","ios":"levelo://app?vid=a1f389dd-bb24-412b-85a7-c4163f3337bb"},"vehicle_type_id":"4","last_reported":1727204828,"current_range_meters":31200,"station_id":"ce4bhqp2rcd13ifvqhng","pricing_plan_id":"cebpf4jnsgd1na2vs0mg"},{"bike_id":"b2e1f55f-18ac-4641-9ef2-c7977cd7c25d","system_id":"levelo_inurba_marseille","lat":43.28,"lon":5.40005,"is_reserved":false,"is_disabled":false,"rental_uris":{"android":"levelo://app?vid=b2e1f55f-18ac-4641-9ef2-c7977cd7c25d","ios":"levelo://app?vid=b2e1f55f-18ac-4641-9ef2-c7977cd7c25d"},"vehicle_type_id":"4","last_reported":1727204828,"current_range_meters":38800,"station_id":"ce4bho92rcd13ifvqh4g","pricing_plan_id":"cebpf4jnsgd1na2vs0mg"},{"bike_id":"2835bfdb-aa0b-49b2-9286-bf6dd637ee3e","system_id":"levelo_inurba_marseille","lat":43.30425,"lon":5.38896,"is_reserved":false,"is_disabled":false,"rental_uris":{"android":"levelo://app?vid=2835bfdb-aa0b-49b2-9286-bf6dd637ee3e","ios":"levelo://app?vid=2835bfdb-aa0b-49b2-9286-bf6dd637ee3e"},"vehicle_type_id":"4","last_reported":1727204828,"current_range_meters":18000,"station_id":"ce4bgk12rcd13ifvqbi0","pricing_plan_id":"cebpf4jnsgd1na2vs0mg"},{"bike_id":"4628adaa-a8b2-423a-91e1-6faa5c881c75","system_id":"levelo_inurba_marseille","lat":43.27954,"lon":5.41036,"is_reserved":false,"is_disabled":false,"rental_uris":{"android":"levelo://app?vid=4628adaa-a8b2-423a-91e1-6faa5c881c75","ios":"levelo://app?vid=4628adaa-a8b2-423a-91e1-6faa5c881c75"},"vehicle_type_id":"4","last_reported":1727204828,"current_range_meters":38800,"station_id":"ce4bhnp2rcd13ifvqh0g","pricing_plan_id":"cebpf4jnsgd1na2vs0mg"},{"bike_id":"0187dbe4-866c-4031-9cbb-94cdd92f6a82","system_id":"levelo_inurba_marseille","lat":43.29258,"lon":5.36662,"is_reserved":false,"is_disabled":false,"rental_uris":{"android":"levelo://app?vid=0187dbe4-866c-4031-9cbb-94cdd92f6a82","ios":"levelo://app?vid=0187dbe4-866c-4031-9cbb-94cdd92f6a82"},"vehicle_type_id":"4","last_reported":1727204828,"current_range_meters":3200,"station_id":"","pricing_plan_id":"cebpf4jnsgd1na2vs0mg"},{"bike_id":"c5ecba3d-c94f-4f0d-915a-0163562eb754","system_id":"levelo_inurba_marseille","lat":43.27991,"lon":5.40045,"is_reserved":false,"is_disabled":false,"rental_uris":{"android":"levelo://app?vid=c5ecba3d-c94f-4f0d-915a-0163562eb754","ios":"levelo://app?vid=c5ecba3d-c94f-4f0d-915a-0163562eb754"},"vehicle_type_id":"4","last_reported":1727204828,"current_range_meters":18800,"station_id":"ce4bho92rcd13ifvqh4g","pricing_plan_id":"cebpf4jnsgd1na2vs0mg"},{"bike_id":"788465fb-714b-4350-99cf-fbbaec405794","system_id":"levelo_inurba_marseille","lat":43.31075,"lon":5.38374,"is_reserved":false,"is_disabled":false,"rental_uris":{"android":"levelo://app?vid=788465fb-714b-4350-99cf-fbbaec405794","ios":"levelo://app?vid=788465fb-714b-4350-99cf-fbbaec405794"},"vehicle_type_id":"4","last_reported":1727204828,"current_range_meters":2000,"station_id":"ce4bgv92rcd13ifvqcr0","pricing_plan_id":"cebpf4jnsgd1na2vs0mg"},{"bike_id":"195e040e-9409-49d3-9dd3-bcac34d34007","system_id":"levelo_inurba_marseille","lat":43.22933,"lon":5.35378,"is_reserved":false,"is_disabled":false,"rental_uris":{"android":"levelo://app?vid=195e040e-9409-49d3-9dd3-bcac34d34007","ios":"levelo://app?vid=195e040e-9409-49d3-9dd3-bcac34d34007"},"vehicle_type_id":"4","last_reported":1727204828,"current_range_meters":17200,"station_id":"cpo3532slgdg3j2ikp40","pricing_plan_id":"cebpf4jnsgd1na2vs0mg"},{"bike_id":"cefb6643-fc89-4b04-b95f-6cff2759399c","system_id":"levelo_inurba_marseille","lat":43.32276,"lon":5.38305,"is_reserved":false,"is_disabled":false,"rental_uris":{"android":"levelo://app?vid=cefb6643-fc89-4b04-b95f-6cff2759399c","ios":"levelo://app?vid=cefb6643-fc89-4b04-b95f-6cff2759399c"},"vehicle_type_id":"4","last_reported":1727204828,"current_range_meters":38800,"station_id":"ce4bhr12rcd13ifvqhqg","pricing_plan_id":"cebpf4jnsgd1na2vs0mg"},{"bike_id":"30d0f976-3493-4292-92f2-234cb6fef603","system_id":"levelo_inurba_marseille","lat":43.28687,"lon":5.37399,"is_reserved":false,"is_disabled":false,"rental_uris":{"android":"levelo://app?vid=30d0f976-3493-4292-92f2-234cb6fef603","ios":"levelo://app?vid=30d0f976-3493-4292-92f2-234cb6fef603"},"vehicle_type_id":"4","last_reported":1727204828,"current_range_meters":32400,"station_id":"ce4bh3p2rcd13ifvqdq0","pricing_plan_id":"cebpf4jnsgd1na2vs0mg"},{"bike_id":"be43b57e-cc3a-4eb4-9e80-3fe84784dd6e","system_id":"levelo_inurba_marseille","lat":43.30411,"lon":5.4129,"is_reserved":false,"is_disabled":false,"rental_uris":{"android":"levelo://app?vid=be43b57e-cc3a-4eb4-9e80-3fe84784dd6e","ios":"levelo://app?vid=be43b57e-cc3a-4eb4-9e80-3fe84784dd6e"},"vehicle_type_id":"4","last_reported":1727204828,"current_range_meters":3200,"station_id":"ce4bhop2rcd13ifvqh8g","pricing_plan_id":"cebpf4jnsgd1na2vs0mg"},{"bike_id":"686884dc-57d0-4edc-aaf7-3f92938a69f6","system_id":"levelo_inurba_marseille","lat":43.27999,"lon":5.40013,"is_reserved":false,"is_disabled":false,"rental_uris":{"android":"levelo://app?vid=686884dc-57d0-4edc-aaf7-3f92938a69f6","ios":"levelo://app?vid=686884dc-57d0-4edc-aaf7-3f92938a69f6"},"vehicle_type_id":"4","last_reported":1727204828,"current_range_meters":14400,"station_id":"ce4bho92rcd13ifvqh4g","pricing_plan_id":"cebpf4jnsgd1na2vs0mg"},{"bike_id":"683f833b-acfe-4dae-91f7-d9ab7a6c472e","system_id":"levelo_inurba_marseille","lat":43.330335,"lon":5.390517,"is_reserved":false,"is_disabled":false,"rental_uris":{"android":"levelo://app?vid=683f833b-acfe-4dae-91f7-d9ab7a6c472e","ios":"levelo://app?vid=683f833b-acfe-4dae-91f7-d9ab7a6c472e"},"vehicle_type_id":"4","last_reported":1727204828,"current_range_meters":37600,"station_id":"ce4bhr92rcd13ifvqhrg","pricing_plan_id":"cebpf4jnsgd1na2vs0mg"},{"bike_id":"918d52f3-0ddd-414b-8f45-26b8ce238343","system_id":"levelo_inurba_marseille","lat":43.24667,"lon":5.3817,"is_reserved":false,"is_disabled":false,"rental_uris":{"android":"levelo://app?vid=918d52f3-0ddd-414b-8f45-26b8ce238343","ios":"levelo://app?vid=918d52f3-0ddd-414b-8f45-26b8ce238343"},"vehicle_type_id":"4","last_reported":1727204828,"current_range_meters":28400,"station_id":"ce4bhih2rcd13ifvqfr0","pricing_plan_id":"cebpf4jnsgd1na2vs0mg"},{"bike_id":"f180b83c-adc0-4f1b-9e92-b15690d7bf97","system_id":"levelo_inurba_marseille","lat":43.28663,"lon":5.36352,"is_reserved":false,"is_disabled":false,"rental_uris":{"android":"levelo://app?vid=f180b83c-adc0-4f1b-9e92-b15690d7bf97","ios":"levelo://app?vid=f180b83c-adc0-4f1b-9e92-b15690d7bf97"},"vehicle_type_id":"4","last_reported":1727204828,"current_range_meters":6800,"station_id":"ce4bhah2rcd13ifvqej0","pricing_plan_id":"cebpf4jnsgd1na2vs0mg"},{"bike_id":"2da24b92-3734-492c-9a6c-8b09da92c194","system_id":"levelo_inurba_marseille","lat":43.337444,"lon":5.374475,"is_reserved":false,"is_disabled":false,"rental_uris":{"android":"levelo://app?vid=2da24b92-3734-492c-9a6c-8b09da92c194","ios":"levelo://app?vid=2da24b92-3734-492c-9a6c-8b09da92c194"},"vehicle_type_id":"4","last_reported":1727204828,"current_range_meters":25200,"station_id":"","pricing_plan_id":"cebpf4jnsgd1na2vs0mg"},{"bike_id":"39af98d0-adf0-4182-b86c-567613ebbe09","system_id":"levelo_inurba_marseille","lat":43.31719,"lon":5.43716,"is_reserved":false,"is_disabled":false,"rental_uris":{"android":"levelo://app?vid=39af98d0-adf0-4182-b86c-567613ebbe09","ios":"levelo://app?vid=39af98d0-adf0-4182-b86c-567613ebbe09"},"vehicle_type_id":"4","last_reported":1727204828,"current_range_meters":8400,"station_id":"ce4bhp92rcd13ifvqhcg","pricing_plan_id":"cebpf4jnsgd1na2vs0mg"},{"bike_id":"9ea220b7-6b05-4ef2-9b89-2af19c38ee78","system_id":"levelo_inurba_marseille","lat":43.27374,"lon":5.36265,"is_reserved":false,"is_disabled":false,"rental_uris":{"android":"levelo://app?vid=9ea220b7-6b05-4ef2-9b89-2af19c38ee78","ios":"levelo://app?vid=9ea220b7-6b05-4ef2-9b89-2af19c38ee78"},"vehicle_type_id":"4","last_reported":1727204828,"current_range_meters":8000,"station_id":"ce4bhbh2rcd13ifvqeo0","pricing_plan_id":"cebpf4jnsgd1na2vs0mg"},{"bike_id":"a7599674-4adc-4c81-a0c3-09e68bb224a0","system_id":"levelo_inurba_marseille","lat":43.25855,"lon":5.39908,"is_reserved":false,"is_disabled":false,"rental_uris":{"android":"levelo://app?vid=a7599674-4adc-4c81-a0c3-09e68bb224a0","ios":"levelo://app?vid=a7599674-4adc-4c81-a0c3-09e68bb224a0"},"vehicle_type_id":"4","last_reported":1727204828,"current_range_meters":4400,"station_id":"ce4bhl92rcd13ifvqghg","pricing_plan_id":"cebpf4jnsgd1na2vs0mg"},{"bike_id":"5d090207-567a-461d-81a8-0d701bc01510","system_id":"levelo_inurba_marseille","lat":43.311134,"lon":5.420956,"is_reserved":false,"is_disabled":false,"rental_uris":{"android":"levelo://app?vid=5d090207-567a-461d-81a8-0d701bc01510","ios":"levelo://app?vid=5d090207-567a-461d-81a8-0d701bc01510"},"vehicle_type_id":"4","last_reported":1727204828,"current_range_meters":4000,"station_id":"ce4bhp92rcd13ifvqhag","pricing_plan_id":"cebpf4jnsgd1na2vs0mg"},{"bike_id":"40a5dd0c-9cff-4bc9-b214-d88e60e02be8","system_id":"levelo_inurba_marseille","lat":43.27164,"lon":5.40989,"is_reserved":false,"is_disabled":false,"rental_uris":{"android":"levelo://app?vid=40a5dd0c-9cff-4bc9-b214-d88e60e02be8","ios":"levelo://app?vid=40a5dd0c-9cff-4bc9-b214-d88e60e02be8"},"vehicle_type_id":"4","last_reported":1727204828,"current_range_meters":10800,"station_id":"ce4bhl12rcd13ifvqgf0","pricing_plan_id":"cebpf4jnsgd1na2vs0mg"},{"bike_id":"139dbbd3-4811-419e-8021-4927b795d2c6","system_id":"levelo_inurba_marseille","lat":43.25082,"lon":5.39531,"is_reserved":false,"is_disabled":false,"rental_uris":{"android":"levelo://app?vid=139dbbd3-4811-419e-8021-4927b795d2c6","ios":"levelo://app?vid=139dbbd3-4811-419e-8021-4927b795d2c6"},"vehicle_type_id":"4","last_reported":1727204828,"current_range_meters":14800,"station_id":"ce4bhm12rcd13ifvqgkg","pricing_plan_id":"cebpf4jnsgd1na2vs0mg"},{"bike_id":"ac0019e9-ee5b-4377-95bc-765dea66f357","system_id":"levelo_inurba_marseille","lat":43.27992,"lon":5.41653,"is_reserved":false,"is_disabled":false,"rental_uris":{"android":"levelo://app?vid=ac0019e9-ee5b-4377-95bc-765dea66f357","ios":"levelo://app?vid=ac0019e9-ee5b-4377-95bc-765dea66f357"},"vehicle_type_id":"4","last_reported":1727204828,"current_range_meters":38800,"station_id":"ce4bho12rcd13ifvqh1g","pricing_plan_id":"cebpf4jnsgd1na2vs0mg"},{"bike_id":"38f12e1b-e087-4faf-98ce-53ed7d177ee1","system_id":"levelo_inurba_marseille","lat":43.24386,"lon":5.37058,"is_reserved":false,"is_disabled":false,"rental_uris":{"android":"levelo://app?vid=38f12e1b-e087-4faf-98ce-53ed7d177ee1","ios":"levelo://app?vid=38f12e1b-e087-4faf-98ce-53ed7d177ee1"},"vehicle_type_id":"4","last_reported":1727204828,"current_range_meters":38800,"station_id":"ce4bhhh2rcd13ifvqfk0","pricing_plan_id":"cebpf4jnsgd1na2vs0mg"},{"bike_id":"ecb70881-b110-48a8-b751-24b4690d4031","system_id":"levelo_inurba_marseille","lat":43.23184,"lon":5.39977,"is_reserved":false,"is_disabled":false,"rental_uris":{"android":"levelo://app?vid=ecb70881-b110-48a8-b751-24b4690d4031","ios":"levelo://app?vid=ecb70881-b110-48a8-b751-24b4690d4031"},"vehicle_type_id":"4","last_reported":1727204828,"current_range_meters":10800,"station_id":"ce4bhn12rcd13ifvqgqg","pricing_plan_id":"cebpf4jnsgd1na2vs0mg"},{"bike_id":"25bd7405-be80-4a77-a761-8a1efed52652","system_id":"levelo_inurba_marseille","lat":43.29895,"lon":5.4368,"is_reserved":false,"is_disabled":false,"rental_uris":{"android":"levelo://app?vid=25bd7405-be80-4a77-a761-8a1efed52652","ios":"levelo://app?vid=25bd7405-be80-4a77-a761-8a1efed52652"},"vehicle_type_id":"4","last_reported":1727204828,"current_range_meters":38800,"station_id":"ce4bhpp2rcd13ifvqhfg","pricing_plan_id":"cebpf4jnsgd1na2vs0mg"},{"bike_id":"2fe2c0de-08ff-45d0-a649-6b26bff02b66","system_id":"levelo_inurba_marseille","lat":43.28079,"lon":5.39667,"is_reserved":false,"is_disabled":false,"rental_uris":{"android":"levelo://app?vid=2fe2c0de-08ff-45d0-a649-6b26bff02b66","ios":"levelo://app?vid=2fe2c0de-08ff-45d0-a649-6b26bff02b66"},"vehicle_type_id":"4","last_reported":1727204828,"current_range_meters":38800,"station_id":"ce4bho12rcd13ifvqh2g","pricing_plan_id":"cebpf4jnsgd1na2vs0mg"},{"bike_id":"11c4f5be-b465-471a-b3d0-dbbc3061010b","system_id":"levelo_inurba_marseille","lat":43.30801,"lon":5.43526,"is_reserved":false,"is_disabled":false,"rental_uris":{"android":"levelo://app?vid=11c4f5be-b465-471a-b3d0-dbbc3061010b","ios":"levelo://app?vid=11c4f5be-b465-471a-b3d0-dbbc3061010b"},"vehicle_type_id":"4","last_reported":1727204828,"current_range_meters":21600,"station_id":"ce4bhph2rcd13ifvqheg","pricing_plan_id":"cebpf4jnsgd1na2vs0mg"},{"bike_id":"f261a130-3f4b-4826-85e0-6b1ab7fbb1f8","system_id":"levelo_inurba_marseille","lat":43.23964,"lon":5.3663,"is_reserved":false,"is_disabled":false,"rental_uris":{"android":"levelo://app?vid=f261a130-3f4b-4826-85e0-6b1ab7fbb1f8","ios":"levelo://app?vid=f261a130-3f4b-4826-85e0-6b1ab7fbb1f8"},"vehicle_type_id":"4","last_reported":1727204828,"current_range_meters":4400,"station_id":"ce4bhi12rcd13ifvqfp0","pricing_plan_id":"cebpf4jnsgd1na2vs0mg"},{"bike_id":"162ee78d-83e3-4081-92bd-328649d7b4ba","system_id":"levelo_inurba_marseille","lat":43.31753,"lon":5.39017,"is_reserved":false,"is_disabled":false,"rental_uris":{"android":"levelo://app?vid=162ee78d-83e3-4081-92bd-328649d7b4ba","ios":"levelo://app?vid=162ee78d-83e3-4081-92bd-328649d7b4ba"},"vehicle_type_id":"4","last_reported":1727204828,"current_range_meters":10800,"station_id":"ce4bhqp2rcd13ifvqhng","pricing_plan_id":"cebpf4jnsgd1na2vs0mg"},{"bike_id":"c7ef48a1-c091-4bd1-8005-cb0f802fe2ef","system_id":"levelo_inurba_marseille","lat":43.28667,"lon":5.36355,"is_reserved":false,"is_disabled":false,"rental_uris":{"android":"levelo://app?vid=c7ef48a1-c091-4bd1-8005-cb0f802fe2ef","ios":"levelo://app?vid=c7ef48a1-c091-4bd1-8005-cb0f802fe2ef"},"vehicle_type_id":"4","last_reported":1727204828,"current_range_meters":26000,"station_id":"ce4bhah2rcd13ifvqej0","pricing_plan_id":"cebpf4jnsgd1na2vs0mg"},{"bike_id":"eea2cd5a-ea70-49e4-b38f-c464fb6c5cc3","system_id":"levelo_inurba_marseille","lat":43.337444,"lon":5.374475,"is_reserved":false,"is_disabled":false,"rental_uris":{"android":"levelo://app?vid=eea2cd5a-ea70-49e4-b38f-c464fb6c5cc3","ios":"levelo://app?vid=eea2cd5a-ea70-49e4-b38f-c464fb6c5cc3"},"vehicle_type_id":"4","last_reported":1727204828,"current_range_meters":33200,"station_id":"","pricing_plan_id":"cebpf4jnsgd1na2vs0mg"},{"bike_id":"f15d7f0d-9746-41a3-ae37-4556e528b0dd","system_id":"levelo_inurba_marseille","lat":43.27998,"lon":5.40016,"is_reserved":false,"is_disabled":false,"rental_uris":{"android":"levelo://app?vid=f15d7f0d-9746-41a3-ae37-4556e528b0dd","ios":"levelo://app?vid=f15d7f0d-9746-41a3-ae37-4556e528b0dd"},"vehicle_type_id":"4","last_reported":1727204828,"current_range_meters":10800,"station_id":"ce4bho92rcd13ifvqh4g","pricing_plan_id":"cebpf4jnsgd1na2vs0mg"},{"bike_id":"03a2ebca-190e-472a-acda-d9f00b98b26b","system_id":"levelo_inurba_marseille","lat":43.31321,"lon":5.39703,"is_reserved":false,"is_disabled":false,"rental_uris":{"android":"levelo://app?vid=03a2ebca-190e-472a-acda-d9f00b98b26b","ios":"levelo://app?vid=03a2ebca-190e-472a-acda-d9f00b98b26b"},"vehicle_type_id":"4","last_reported":1727204828,"current_range_meters":8000,"station_id":"ce4bgvp2rcd13ifvqcu0","pricing_plan_id":"cebpf4jnsgd1na2vs0mg"},{"bike_id":"9a956495-97f1-4caa-a970-dab6d313b018","system_id":"levelo_inurba_marseille","lat":43.28666,"lon":5.36342,"is_reserved":false,"is_disabled":false,"rental_uris":{"android":"levelo://app?vid=9a956495-97f1-4caa-a970-dab6d313b018","ios":"levelo://app?vid=9a956495-97f1-4caa-a970-dab6d313b018"},"vehicle_type_id":"4","last_reported":1727204828,"current_range_meters":10000,"station_id":"ce4bhah2rcd13ifvqej0","pricing_plan_id":"cebpf4jnsgd1na2vs0mg"},{"bike_id":"ed3a60c3-46c4-4bf1-a777-a49e97c0c0bc","system_id":"levelo_inurba_marseille","lat":43.28157,"lon":5.42641,"is_reserved":false,"is_disabled":false,"rental_uris":{"android":"levelo://app?vid=ed3a60c3-46c4-4bf1-a777-a49e97c0c0bc","ios":"levelo://app?vid=ed3a60c3-46c4-4bf1-a777-a49e97c0c0bc"},"vehicle_type_id":"4","last_reported":1727204828,"current_range_meters":38800,"station_id":"ce4bhnh2rcd13ifvqgug","pricing_plan_id":"cebpf4jnsgd1na2vs0mg"},{"bike_id":"ac4ed8c3-0f20-4612-a283-9299da96138e","system_id":"levelo_inurba_marseille","lat":43.31069,"lon":5.38358,"is_reserved":false,"is_disabled":false,"rental_uris":{"android":"levelo://app?vid=ac4ed8c3-0f20-4612-a283-9299da96138e","ios":"levelo://app?vid=ac4ed8c3-0f20-4612-a283-9299da96138e"},"vehicle_type_id":"4","last_reported":1727204828,"current_range_meters":32400,"station_id":"ce4bgv92rcd13ifvqcr0","pricing_plan_id":"cebpf4jnsgd1na2vs0mg"},{"bike_id":"e5accd9d-24b1-48a2-85dd-636c889e71c1","system_id":"levelo_inurba_marseille","lat":43.31524,"lon":5.38035,"is_reserved":false,"is_disabled":false,"rental_uris":{"android":"levelo://app?vid=e5accd9d-24b1-48a2-85dd-636c889e71c1","ios":"levelo://app?vid=e5accd9d-24b1-48a2-85dd-636c889e71c1"},"vehicle_type_id":"4","last_reported":1727204828,"current_range_meters":6000,"station_id":"ce4bhsp2rcd13ifvqi50","pricing_plan_id":"cebpf4jnsgd1na2vs0mg"},{"bike_id":"2b479c5e-a5ba-4e41-a9d4-52dbc52a814c","system_id":"levelo_inurba_marseille","lat":43.24388,"lon":5.37059,"is_reserved":false,"is_disabled":false,"rental_uris":{"android":"levelo://app?vid=2b479c5e-a5ba-4e41-a9d4-52dbc52a814c","ios":"levelo://app?vid=2b479c5e-a5ba-4e41-a9d4-52dbc52a814c"},"vehicle_type_id":"4","last_reported":1727204828,"current_range_meters":2000,"station_id":"ce4bhhh2rcd13ifvqfk0","pricing_plan_id":"cebpf4jnsgd1na2vs0mg"},{"bike_id":"44e93111-5879-4eef-82b5-82e9f71242bf","system_id":"levelo_inurba_marseille","lat":43.29423,"lon":5.38617,"is_reserved":false,"is_disabled":false,"rental_uris":{"android":"levelo://app?vid=44e93111-5879-4eef-82b5-82e9f71242bf","ios":"levelo://app?vid=44e93111-5879-4eef-82b5-82e9f71242bf"},"vehicle_type_id":"4","last_reported":1727204828,"current_range_meters":4000,"station_id":"ce4bh2h2rcd13ifvqdh0","pricing_plan_id":"cebpf4jnsgd1na2vs0mg"},{"bike_id":"1cb7ea62-b10b-4a34-ba70-18d5b1227b7e","system_id":"levelo_inurba_marseille","lat":43.305163,"lon":5.366663,"is_reserved":false,"is_disabled":false,"rental_uris":{"android":"levelo://app?vid=1cb7ea62-b10b-4a34-ba70-18d5b1227b7e","ios":"levelo://app?vid=1cb7ea62-b10b-4a34-ba70-18d5b1227b7e"},"vehicle_type_id":"4","last_reported":1727204828,"current_range_meters":24000,"station_id":"ce4bgs12rcd13ifvqcag","pricing_plan_id":"cebpf4jnsgd1na2vs0mg"},{"bike_id":"f64945c3-db12-4e2d-926f-977df7660df5","system_id":"levelo_inurba_marseille","lat":43.27813,"lon":5.40721,"is_reserved":false,"is_disabled":false,"rental_uris":{"android":"levelo://app?vid=f64945c3-db12-4e2d-926f-977df7660df5","ios":"levelo://app?vid=f64945c3-db12-4e2d-926f-977df7660df5"},"vehicle_type_id":"4","last_reported":1727204828,"current_range_meters":24800,"station_id":"ce4bhnh2rcd13ifvqgtg","pricing_plan_id":"cebpf4jnsgd1na2vs0mg"},{"bike_id":"1802deb5-1c46-4f67-afa3-157e0fdc0220","system_id":"levelo_inurba_marseille","lat":43.27811,"lon":5.40721,"is_reserved":false,"is_disabled":false,"rental_uris":{"android":"levelo://app?vid=1802deb5-1c46-4f67-afa3-157e0fdc0220","ios":"levelo://app?vid=1802deb5-1c46-4f67-afa3-157e0fdc0220"},"vehicle_type_id":"4","last_reported":1727204828,"current_range_meters":28000,"station_id":"ce4bhnh2rcd13ifvqgtg","pricing_plan_id":"cebpf4jnsgd1na2vs0mg"},{"bike_id":"5f0182b0-249b-4c18-bdc9-8cefe4c6ae37","system_id":"levelo_inurba_marseille","lat":43.32484,"lon":5.36556,"is_reserved":false,"is_disabled":false,"rental_uris":{"android":"levelo://app?vid=5f0182b0-249b-4c18-bdc9-8cefe4c6ae37","ios":"levelo://app?vid=5f0182b0-249b-4c18-bdc9-8cefe4c6ae37"},"vehicle_type_id":"4","last_reported":1727204828,"current_range_meters":37600,"station_id":"ce4bhs12rcd13ifvqhvg","pricing_plan_id":"cebpf4jnsgd1na2vs0mg"},{"bike_id":"759535d3-052d-47b3-bba9-15648b92839e","system_id":"levelo_inurba_marseille","lat":43.30097,"lon":5.39081,"is_reserved":false,"is_disabled":false,"rental_uris":{"android":"levelo://app?vid=759535d3-052d-47b3-bba9-15648b92839e","ios":"levelo://app?vid=759535d3-052d-47b3-bba9-15648b92839e"},"vehicle_type_id":"4","last_reported":1727204828,"current_range_meters":38800,"station_id":"ce4bh192rcd13ifvqdb0","pricing_plan_id":"cebpf4jnsgd1na2vs0mg"},{"bike_id":"87ca8dde-07c4-45b6-98ff-2c4ec9e1754d","system_id":"levelo_inurba_marseille","lat":43.28721,"lon":5.36087,"is_reserved":false,"is_disabled":false,"rental_uris":{"android":"levelo://app?vid=87ca8dde-07c4-45b6-98ff-2c4ec9e1754d","ios":"levelo://app?vid=87ca8dde-07c4-45b6-98ff-2c4ec9e1754d"},"vehicle_type_id":"4","last_reported":1727204828,"current_range_meters":38800,"station_id":"cki0cbj6b192h4jlfktg","pricing_plan_id":"cebpf4jnsgd1na2vs0mg"},{"bike_id":"5ce5cff3-401f-4c5d-9c44-a85fbd62b68a","system_id":"levelo_inurba_marseille","lat":43.23968,"lon":5.36634,"is_reserved":false,"is_disabled":false,"rental_uris":{"android":"levelo://app?vid=5ce5cff3-401f-4c5d-9c44-a85fbd62b68a","ios":"levelo://app?vid=5ce5cff3-401f-4c5d-9c44-a85fbd62b68a"},"vehicle_type_id":"4","last_reported":1727204828,"current_range_meters":10800,"station_id":"ce4bhi12rcd13ifvqfp0","pricing_plan_id":"cebpf4jnsgd1na2vs0mg"},{"bike_id":"be4a37d3-db39-4962-8390-403acad4b3ed","system_id":"levelo_inurba_marseille","lat":43.27992,"lon":5.40026,"is_reserved":false,"is_disabled":false,"rental_uris":{"android":"levelo://app?vid=be4a37d3-db39-4962-8390-403acad4b3ed","ios":"levelo://app?vid=be4a37d3-db39-4962-8390-403acad4b3ed"},"vehicle_type_id":"4","last_reported":1727204828,"current_range_meters":38800,"station_id":"ce4bho92rcd13ifvqh4g","pricing_plan_id":"cebpf4jnsgd1na2vs0mg"},{"bike_id":"ca94193f-47c8-446f-bb0e-7d77c7815366","system_id":"levelo_inurba_marseille","lat":43.2407,"lon":5.37763,"is_reserved":false,"is_disabled":false,"rental_uris":{"android":"levelo://app?vid=ca94193f-47c8-446f-bb0e-7d77c7815366","ios":"levelo://app?vid=ca94193f-47c8-446f-bb0e-7d77c7815366"},"vehicle_type_id":"4","last_reported":1727204828,"current_range_meters":19600,"station_id":"ce4bhnp2rcd13ifvqgvg","pricing_plan_id":"cebpf4jnsgd1na2vs0mg"},{"bike_id":"92a51bd3-8269-4bb1-952d-f852f89a4345","system_id":"levelo_inurba_marseille","lat":43.29035,"lon":5.38662,"is_reserved":false,"is_disabled":false,"rental_uris":{"android":"levelo://app?vid=92a51bd3-8269-4bb1-952d-f852f89a4345","ios":"levelo://app?vid=92a51bd3-8269-4bb1-952d-f852f89a4345"},"vehicle_type_id":"4","last_reported":1727204828,"current_range_meters":28800,"station_id":"ce4bh4p2rcd13ifvqe0g","pricing_plan_id":"cebpf4jnsgd1na2vs0mg"},{"bike_id":"57757cf2-b971-443b-97a6-6c791a375948","system_id":"levelo_inurba_marseille","lat":43.28246,"lon":5.43053,"is_reserved":false,"is_disabled":false,"rental_uris":{"android":"levelo://app?vid=57757cf2-b971-443b-97a6-6c791a375948","ios":"levelo://app?vid=57757cf2-b971-443b-97a6-6c791a375948"},"vehicle_type_id":"4","last_reported":1727204828,"current_range_meters":26800,"station_id":"","pricing_plan_id":"cebpf4jnsgd1na2vs0mg"},{"bike_id":"4d4dd4ed-0d73-4d6f-b37c-27abccdb449e","system_id":"levelo_inurba_marseille","lat":43.28859,"lon":5.35842,"is_reserved":false,"is_disabled":false,"rental_uris":{"android":"levelo://app?vid=4d4dd4ed-0d73-4d6f-b37c-27abccdb449e","ios":"levelo://app?vid=4d4dd4ed-0d73-4d6f-b37c-27abccdb449e"},"vehicle_type_id":"4","last_reported":1727204828,"current_range_meters":7200,"station_id":"ce4bhb12rcd13ifvqem0","pricing_plan_id":"cebpf4jnsgd1na2vs0mg"},{"bike_id":"73e7f655-b2b9-4127-a50c-dc2251f994d0","system_id":"levelo_inurba_marseille","lat":43.28767,"lon":5.39694,"is_reserved":false,"is_disabled":false,"rental_uris":{"android":"levelo://app?vid=73e7f655-b2b9-4127-a50c-dc2251f994d0","ios":"levelo://app?vid=73e7f655-b2b9-4127-a50c-dc2251f994d0"},"vehicle_type_id":"4","last_reported":1727204828,"current_range_meters":36800,"station_id":"","pricing_plan_id":"cebpf4jnsgd1na2vs0mg"},{"bike_id":"e8fd9761-2ba8-4097-aad1-90d4a9d24a75","system_id":"levelo_inurba_marseille","lat":43.30536,"lon":5.38423,"is_reserved":false,"is_disabled":false,"rental_uris":{"android":"levelo://app?vid=e8fd9761-2ba8-4097-aad1-90d4a9d24a75","ios":"levelo://app?vid=e8fd9761-2ba8-4097-aad1-90d4a9d24a75"},"vehicle_type_id":"4","last_reported":1727204828,"current_range_meters":38800,"station_id":"ce4bgg92rcd13ifvqb30","pricing_plan_id":"cebpf4jnsgd1na2vs0mg"},{"bike_id":"e0fa057c-34a9-45c7-a456-3aee9dc0b547","system_id":"levelo_inurba_marseille","lat":43.27997,"lon":5.40005,"is_reserved":false,"is_disabled":false,"rental_uris":{"android":"levelo://app?vid=e0fa057c-34a9-45c7-a456-3aee9dc0b547","ios":"levelo://app?vid=e0fa057c-34a9-45c7-a456-3aee9dc0b547"},"vehicle_type_id":"4","last_reported":1727204828,"current_range_meters":38800,"station_id":"ce4bho92rcd13ifvqh4g","pricing_plan_id":"cebpf4jnsgd1na2vs0mg"},{"bike_id":"28786443-08d6-4fc5-994a-ebfb705afe75","system_id":"levelo_inurba_marseille","lat":43.31264,"lon":5.40176,"is_reserved":false,"is_disabled":false,"rental_uris":{"android":"levelo://app?vid=28786443-08d6-4fc5-994a-ebfb705afe75","ios":"levelo://app?vid=28786443-08d6-4fc5-994a-ebfb705afe75"},"vehicle_type_id":"4","last_reported":1727204828,"current_range_meters":20800,"station_id":"ce4bh092rcd13ifvqd30","pricing_plan_id":"cebpf4jnsgd1na2vs0mg"},{"bike_id":"5459e5dd-02cf-41c0-a77a-9053bdc92a78","system_id":"levelo_inurba_marseille","lat":43.30798,"lon":5.43531,"is_reserved":false,"is_disabled":false,"rental_uris":{"android":"levelo://app?vid=5459e5dd-02cf-41c0-a77a-9053bdc92a78","ios":"levelo://app?vid=5459e5dd-02cf-41c0-a77a-9053bdc92a78"},"vehicle_type_id":"4","last_reported":1727204828,"current_range_meters":9200,"station_id":"ce4bhph2rcd13ifvqheg","pricing_plan_id":"cebpf4jnsgd1na2vs0mg"},{"bike_id":"ba86d47a-ab4f-419e-a993-49cabc1996cd","system_id":"levelo_inurba_marseille","lat":43.28478,"lon":5.38551,"is_reserved":false,"is_disabled":false,"rental_uris":{"android":"levelo://app?vid=ba86d47a-ab4f-419e-a993-49cabc1996cd","ios":"levelo://app?vid=ba86d47a-ab4f-419e-a993-49cabc1996cd"},"vehicle_type_id":"4","last_reported":1727204828,"current_range_meters":8000,"station_id":"ce4bh8p2rcd13ifvqeb0","pricing_plan_id":"cebpf4jnsgd1na2vs0mg"},{"bike_id":"7df97af8-d240-4783-94a3-85219ca95c1b","system_id":"levelo_inurba_marseille","lat":43.2799,"lon":5.40011,"is_reserved":false,"is_disabled":false,"rental_uris":{"android":"levelo://app?vid=7df97af8-d240-4783-94a3-85219ca95c1b","ios":"levelo://app?vid=7df97af8-d240-4783-94a3-85219ca95c1b"},"vehicle_type_id":"4","last_reported":1727204828,"current_range_meters":38800,"station_id":"ce4bho92rcd13ifvqh4g","pricing_plan_id":"cebpf4jnsgd1na2vs0mg"},{"bike_id":"b32bfd54-dd6c-43b6-9c92-8cdbb88f840c","system_id":"levelo_inurba_marseille","lat":43.27991,"lon":5.40015,"is_reserved":false,"is_disabled":false,"rental_uris":{"android":"levelo://app?vid=b32bfd54-dd6c-43b6-9c92-8cdbb88f840c","ios":"levelo://app?vid=b32bfd54-dd6c-43b6-9c92-8cdbb88f840c"},"vehicle_type_id":"4","last_reported":1727204828,"current_range_meters":34000,"station_id":"ce4bho92rcd13ifvqh4g","pricing_plan_id":"cebpf4jnsgd1na2vs0mg"},{"bike_id":"3922599f-3ab6-47ad-8ea5-e51e6fc7b668","system_id":"levelo_inurba_marseille","lat":43.27373,"lon":5.36259,"is_reserved":false,"is_disabled":false,"rental_uris":{"android":"levelo://app?vid=3922599f-3ab6-47ad-8ea5-e51e6fc7b668","ios":"levelo://app?vid=3922599f-3ab6-47ad-8ea5-e51e6fc7b668"},"vehicle_type_id":"4","last_reported":1727204828,"current_range_meters":18800,"station_id":"ce4bhbh2rcd13ifvqeo0","pricing_plan_id":"cebpf4jnsgd1na2vs0mg"},{"bike_id":"10b9f85e-e4ee-4f70-979e-f255ac0bd659","system_id":"levelo_inurba_marseille","lat":43.22932,"lon":5.35377,"is_reserved":false,"is_disabled":false,"rental_uris":{"android":"levelo://app?vid=10b9f85e-e4ee-4f70-979e-f255ac0bd659","ios":"levelo://app?vid=10b9f85e-e4ee-4f70-979e-f255ac0bd659"},"vehicle_type_id":"4","last_reported":1727204828,"current_range_meters":7200,"station_id":"cpo3532slgdg3j2ikp40","pricing_plan_id":"cebpf4jnsgd1na2vs0mg"},{"bike_id":"ec2f86bc-6ba3-4693-89e4-8ed499848dfd","system_id":"levelo_inurba_marseille","lat":43.290314,"lon":5.3865,"is_reserved":false,"is_disabled":false,"rental_uris":{"android":"levelo://app?vid=ec2f86bc-6ba3-4693-89e4-8ed499848dfd","ios":"levelo://app?vid=ec2f86bc-6ba3-4693-89e4-8ed499848dfd"},"vehicle_type_id":"4","last_reported":1727204828,"current_range_meters":33200,"station_id":"ce4bh4p2rcd13ifvqe0g","pricing_plan_id":"cebpf4jnsgd1na2vs0mg"},{"bike_id":"abb5a094-1eeb-4130-b034-668aa913c7f8","system_id":"levelo_inurba_marseille","lat":43.29573,"lon":5.39972,"is_reserved":false,"is_disabled":false,"rental_uris":{"android":"levelo://app?vid=abb5a094-1eeb-4130-b034-668aa913c7f8","ios":"levelo://app?vid=abb5a094-1eeb-4130-b034-668aa913c7f8"},"vehicle_type_id":"4","last_reported":1727204828,"current_range_meters":24800,"station_id":"ce4bh312rcd13ifvqdj0","pricing_plan_id":"cebpf4jnsgd1na2vs0mg"},{"bike_id":"d4d94c37-f822-40db-93c6-642e2c63037d","system_id":"levelo_inurba_marseille","lat":43.2893,"lon":5.38406,"is_reserved":false,"is_disabled":false,"rental_uris":{"android":"levelo://app?vid=d4d94c37-f822-40db-93c6-642e2c63037d","ios":"levelo://app?vid=d4d94c37-f822-40db-93c6-642e2c63037d"},"vehicle_type_id":"4","last_reported":1727204828,"current_range_meters":8800,"station_id":"ce4bh612rcd13ifvqe6g","pricing_plan_id":"cebpf4jnsgd1na2vs0mg"},{"bike_id":"bebbf85e-31cf-4f2c-a4e1-9b1a14757aa3","system_id":"levelo_inurba_marseille","lat":43.28608,"lon":5.37067,"is_reserved":false,"is_disabled":false,"rental_uris":{"android":"levelo://app?vid=bebbf85e-31cf-4f2c-a4e1-9b1a14757aa3","ios":"levelo://app?vid=bebbf85e-31cf-4f2c-a4e1-9b1a14757aa3"},"vehicle_type_id":"4","last_reported":1727204828,"current_range_meters":10800,"station_id":"ce4bht12rcd13ifvqi60","pricing_plan_id":"cebpf4jnsgd1na2vs0mg"},{"bike_id":"6e8ea231-6bfb-4a02-bd09-eef0acf8bdcb","system_id":"levelo_inurba_marseille","lat":43.25873,"lon":5.39897,"is_reserved":false,"is_disabled":false,"rental_uris":{"android":"levelo://app?vid=6e8ea231-6bfb-4a02-bd09-eef0acf8bdcb","ios":"levelo://app?vid=6e8ea231-6bfb-4a02-bd09-eef0acf8bdcb"},"vehicle_type_id":"4","last_reported":1727204828,"current_range_meters":30400,"station_id":"ce4bhl92rcd13ifvqghg","pricing_plan_id":"cebpf4jnsgd1na2vs0mg"},{"bike_id":"f81dbcb4-d9ee-4be8-9fee-b5ab1b56484b","system_id":"levelo_inurba_marseille","lat":43.29102,"lon":5.38132,"is_reserved":false,"is_disabled":false,"rental_uris":{"android":"levelo://app?vid=f81dbcb4-d9ee-4be8-9fee-b5ab1b56484b","ios":"levelo://app?vid=f81dbcb4-d9ee-4be8-9fee-b5ab1b56484b"},"vehicle_type_id":"4","last_reported":1727204828,"current_range_meters":30400,"station_id":"ce4bh512rcd13ifvqe2g","pricing_plan_id":"cebpf4jnsgd1na2vs0mg"},{"bike_id":"fb17ac47-5772-41e9-97a0-8ae6854957c0","system_id":"levelo_inurba_marseille","lat":43.29775,"lon":5.38122,"is_reserved":false,"is_disabled":false,"rental_uris":{"android":"levelo://app?vid=fb17ac47-5772-41e9-97a0-8ae6854957c0","ios":"levelo://app?vid=fb17ac47-5772-41e9-97a0-8ae6854957c0"},"vehicle_type_id":"4","last_reported":1727204828,"current_range_meters":35600,"station_id":"ce4bgip2rcd13ifvqbb0","pricing_plan_id":"cebpf4jnsgd1na2vs0mg"},{"bike_id":"470b659d-a4fd-47ce-b240-070be93a5118","system_id":"levelo_inurba_marseille","lat":43.28372,"lon":5.38629,"is_reserved":false,"is_disabled":false,"rental_uris":{"android":"levelo://app?vid=470b659d-a4fd-47ce-b240-070be93a5118","ios":"levelo://app?vid=470b659d-a4fd-47ce-b240-070be93a5118"},"vehicle_type_id":"4","last_reported":1727204828,"current_range_meters":4400,"station_id":"ce4bh492rcd13ifvqdvg","pricing_plan_id":"cebpf4jnsgd1na2vs0mg"},{"bike_id":"8d41622b-6287-4de8-84d8-a90353700699","system_id":"levelo_inurba_marseille","lat":43.294625,"lon":5.395993,"is_reserved":false,"is_disabled":false,"rental_uris":{"android":"levelo://app?vid=8d41622b-6287-4de8-84d8-a90353700699","ios":"levelo://app?vid=8d41622b-6287-4de8-84d8-a90353700699"},"vehicle_type_id":"4","last_reported":1727204828,"current_range_meters":17600,"station_id":"ce4bh3h2rcd13ifvqdo0","pricing_plan_id":"cebpf4jnsgd1na2vs0mg"},{"bike_id":"ca174a89-d0d1-4079-a019-e37fb1dfb7d2","system_id":"levelo_inurba_marseille","lat":43.2925,"lon":5.38446,"is_reserved":false,"is_disabled":false,"rental_uris":{"android":"levelo://app?vid=ca174a89-d0d1-4079-a019-e37fb1dfb7d2","ios":"levelo://app?vid=ca174a89-d0d1-4079-a019-e37fb1dfb7d2"},"vehicle_type_id":"4","last_reported":1727204828,"current_range_meters":9600,"station_id":"ce4bh692rcd13ifvqea0","pricing_plan_id":"cebpf4jnsgd1na2vs0mg"},{"bike_id":"6de661d7-708b-4cc7-aca0-7b9709099b4c","system_id":"levelo_inurba_marseille","lat":43.2971,"lon":5.36607,"is_reserved":false,"is_disabled":false,"rental_uris":{"android":"levelo://app?vid=6de661d7-708b-4cc7-aca0-7b9709099b4c","ios":"levelo://app?vid=6de661d7-708b-4cc7-aca0-7b9709099b4c"},"vehicle_type_id":"4","last_reported":1727204828,"current_range_meters":26800,"station_id":"ce4bgn12rcd13ifvqbt0","pricing_plan_id":"cebpf4jnsgd1na2vs0mg"},{"bike_id":"87ac93c2-1c79-4444-9479-f54f849eeac0","system_id":"levelo_inurba_marseille","lat":43.25501,"lon":5.37674,"is_reserved":false,"is_disabled":false,"rental_uris":{"android":"levelo://app?vid=87ac93c2-1c79-4444-9479-f54f849eeac0","ios":"levelo://app?vid=87ac93c2-1c79-4444-9479-f54f849eeac0"},"vehicle_type_id":"4","last_reported":1727204828,"current_range_meters":38800,"station_id":"ce4bhh12rcd13ifvqff0","pricing_plan_id":"cebpf4jnsgd1na2vs0mg"},{"bike_id":"ebec7cd5-5fed-46ce-abdb-3cd659f607ac","system_id":"levelo_inurba_marseille","lat":43.29554,"lon":5.42286,"is_reserved":false,"is_disabled":false,"rental_uris":{"android":"levelo://app?vid=ebec7cd5-5fed-46ce-abdb-3cd659f607ac","ios":"levelo://app?vid=ebec7cd5-5fed-46ce-abdb-3cd659f607ac"},"vehicle_type_id":"4","last_reported":1727204828,"current_range_meters":36800,"station_id":"ce4bhph2rcd13ifvqhdg","pricing_plan_id":"cebpf4jnsgd1na2vs0mg"},{"bike_id":"e898b7ba-9ff7-4520-bc30-e9711c123f7b","system_id":"levelo_inurba_marseille","lat":43.29599,"lon":5.38107,"is_reserved":false,"is_disabled":false,"rental_uris":{"android":"levelo://app?vid=e898b7ba-9ff7-4520-bc30-e9711c123f7b","ios":"levelo://app?vid=e898b7ba-9ff7-4520-bc30-e9711c123f7b"},"vehicle_type_id":"4","last_reported":1727204828,"current_range_meters":10000,"station_id":"ce4bhh12rcd13ifvqfg0","pricing_plan_id":"cebpf4jnsgd1na2vs0mg"},{"bike_id":"b4839b54-22f4-484a-9678-27fd049066c6","system_id":"levelo_inurba_marseille","lat":43.29886,"lon":5.39742,"is_reserved":false,"is_disabled":false,"rental_uris":{"android":"levelo://app?vid=b4839b54-22f4-484a-9678-27fd049066c6","ios":"levelo://app?vid=b4839b54-22f4-484a-9678-27fd049066c6"},"vehicle_type_id":"4","last_reported":1727204828,"current_range_meters":20400,"station_id":"ce4bh0h2rcd13ifvqd50","pricing_plan_id":"cebpf4jnsgd1na2vs0mg"},{"bike_id":"584dc729-0cb1-4902-8a6c-23dc123e7906","system_id":"levelo_inurba_marseille","lat":43.22924,"lon":5.35377,"is_reserved":false,"is_disabled":false,"rental_uris":{"android":"levelo://app?vid=584dc729-0cb1-4902-8a6c-23dc123e7906","ios":"levelo://app?vid=584dc729-0cb1-4902-8a6c-23dc123e7906"},"vehicle_type_id":"4","last_reported":1727204828,"current_range_meters":24800,"station_id":"cpo3532slgdg3j2ikp40","pricing_plan_id":"cebpf4jnsgd1na2vs0mg"},{"bike_id":"df5b38d2-64cb-4df0-856f-ea9bd22c082c","system_id":"levelo_inurba_marseille","lat":43.23188,"lon":5.35559,"is_reserved":false,"is_disabled":false,"rental_uris":{"android":"levelo://app?vid=df5b38d2-64cb-4df0-856f-ea9bd22c082c","ios":"levelo://app?vid=df5b38d2-64cb-4df0-856f-ea9bd22c082c"},"vehicle_type_id":"4","last_reported":1727204828,"current_range_meters":10800,"station_id":"ce4bhu92rcd13ifvqi70","pricing_plan_id":"cebpf4jnsgd1na2vs0mg"},{"bike_id":"707528d8-0988-4632-94dc-544d37620d76","system_id":"levelo_inurba_marseille","lat":43.3362,"lon":5.410477,"is_reserved":false,"is_disabled":false,"rental_uris":{"android":"levelo://app?vid=707528d8-0988-4632-94dc-544d37620d76","ios":"levelo://app?vid=707528d8-0988-4632-94dc-544d37620d76"},"vehicle_type_id":"4","last_reported":1727204828,"current_range_meters":39200,"station_id":"ce4bhqh2rcd13ifvqhmg","pricing_plan_id":"cebpf4jnsgd1na2vs0mg"},{"bike_id":"9f0410b7-e525-46d8-a6f2-5e869c48f16d","system_id":"levelo_inurba_marseille","lat":43.23153,"lon":5.43708,"is_reserved":false,"is_disabled":false,"rental_uris":{"android":"levelo://app?vid=9f0410b7-e525-46d8-a6f2-5e869c48f16d","ios":"levelo://app?vid=9f0410b7-e525-46d8-a6f2-5e869c48f16d"},"vehicle_type_id":"4","last_reported":1727204828,"current_range_meters":22000,"station_id":"ce4bhmp2rcd13ifvqgog","pricing_plan_id":"cebpf4jnsgd1na2vs0mg"},{"bike_id":"1c0c8ed7-e962-46f1-b747-30fbafea0964","system_id":"levelo_inurba_marseille","lat":43.2396,"lon":5.36643,"is_reserved":false,"is_disabled":false,"rental_uris":{"android":"levelo://app?vid=1c0c8ed7-e962-46f1-b747-30fbafea0964","ios":"levelo://app?vid=1c0c8ed7-e962-46f1-b747-30fbafea0964"},"vehicle_type_id":"4","last_reported":1727204828,"current_range_meters":2000,"station_id":"ce4bhi12rcd13ifvqfp0","pricing_plan_id":"cebpf4jnsgd1na2vs0mg"},{"bike_id":"17b1cd1a-7803-4ca9-91f3-73c4fa44f09e","system_id":"levelo_inurba_marseille","lat":43.29551,"lon":5.42296,"is_reserved":false,"is_disabled":false,"rental_uris":{"android":"levelo://app?vid=17b1cd1a-7803-4ca9-91f3-73c4fa44f09e","ios":"levelo://app?vid=17b1cd1a-7803-4ca9-91f3-73c4fa44f09e"},"vehicle_type_id":"4","last_reported":1727204828,"current_range_meters":7200,"station_id":"ce4bhph2rcd13ifvqhdg","pricing_plan_id":"cebpf4jnsgd1na2vs0mg"},{"bike_id":"370ad2c9-c0c1-4242-b6d2-8b6c35717678","system_id":"levelo_inurba_marseille","lat":43.27944,"lon":5.41018,"is_reserved":false,"is_disabled":false,"rental_uris":{"android":"levelo://app?vid=370ad2c9-c0c1-4242-b6d2-8b6c35717678","ios":"levelo://app?vid=370ad2c9-c0c1-4242-b6d2-8b6c35717678"},"vehicle_type_id":"4","last_reported":1727204828,"current_range_meters":38800,"station_id":"ce4bhnp2rcd13ifvqh0g","pricing_plan_id":"cebpf4jnsgd1na2vs0mg"},{"bike_id":"d6d31ec3-e9c0-4de3-8565-92e833d0bfe7","system_id":"levelo_inurba_marseille","lat":43.2767,"lon":5.38894,"is_reserved":false,"is_disabled":false,"rental_uris":{"android":"levelo://app?vid=d6d31ec3-e9c0-4de3-8565-92e833d0bfe7","ios":"levelo://app?vid=d6d31ec3-e9c0-4de3-8565-92e833d0bfe7"},"vehicle_type_id":"4","last_reported":1727204828,"current_range_meters":28000,"station_id":"ce4bhi12rcd13ifvqfo0","pricing_plan_id":"cebpf4jnsgd1na2vs0mg"},{"bike_id":"b859d033-1095-4e5e-a6d2-faa05166d5e6","system_id":"levelo_inurba_marseille","lat":43.29436,"lon":5.39744,"is_reserved":false,"is_disabled":false,"rental_uris":{"android":"levelo://app?vid=b859d033-1095-4e5e-a6d2-faa05166d5e6","ios":"levelo://app?vid=b859d033-1095-4e5e-a6d2-faa05166d5e6"},"vehicle_type_id":"4","last_reported":1727204828,"current_range_meters":12000,"station_id":"ce4bh3h2rcd13ifvqdo0","pricing_plan_id":"cebpf4jnsgd1na2vs0mg"},{"bike_id":"211e0346-61e5-4760-a281-2cb54eb23737","system_id":"levelo_inurba_marseille","lat":43.30785,"lon":5.37637,"is_reserved":false,"is_disabled":false,"rental_uris":{"android":"levelo://app?vid=211e0346-61e5-4760-a281-2cb54eb23737","ios":"levelo://app?vid=211e0346-61e5-4760-a281-2cb54eb23737"},"vehicle_type_id":"4","last_reported":1727204828,"current_range_meters":25600,"station_id":"ce4bgv92rcd13ifvqcq0","pricing_plan_id":"cebpf4jnsgd1na2vs0mg"},{"bike_id":"8e2ed437-a79e-4ecb-9f43-b77398df59a2","system_id":"levelo_inurba_marseille","lat":43.28005,"lon":5.40018,"is_reserved":false,"is_disabled":false,"rental_uris":{"android":"levelo://app?vid=8e2ed437-a79e-4ecb-9f43-b77398df59a2","ios":"levelo://app?vid=8e2ed437-a79e-4ecb-9f43-b77398df59a2"},"vehicle_type_id":"4","last_reported":1727204828,"current_range_meters":6400,"station_id":"ce4bho92rcd13ifvqh4g","pricing_plan_id":"cebpf4jnsgd1na2vs0mg"},{"bike_id":"c39b9ebf-3474-4128-98e6-09b47ddcbf97","system_id":"levelo_inurba_marseille","lat":43.2707,"lon":5.42281,"is_reserved":false,"is_disabled":false,"rental_uris":{"android":"levelo://app?vid=c39b9ebf-3474-4128-98e6-09b47ddcbf97","ios":"levelo://app?vid=c39b9ebf-3474-4128-98e6-09b47ddcbf97"},"vehicle_type_id":"4","last_reported":1727204828,"current_range_meters":8000,"station_id":"ce4bhk92rcd13ifvqgb0","pricing_plan_id":"cebpf4jnsgd1na2vs0mg"},{"bike_id":"81fe2cdc-578f-4aef-b667-c4b7e0aa10ee","system_id":"levelo_inurba_marseille","lat":43.30652,"lon":5.40096,"is_reserved":false,"is_disabled":false,"rental_uris":{"android":"levelo://app?vid=81fe2cdc-578f-4aef-b667-c4b7e0aa10ee","ios":"levelo://app?vid=81fe2cdc-578f-4aef-b667-c4b7e0aa10ee"},"vehicle_type_id":"4","last_reported":1727204828,"current_range_meters":14800,"station_id":"ce4bh112rcd13ifvqda0","pricing_plan_id":"cebpf4jnsgd1na2vs0mg"},{"bike_id":"f13dd0a6-0c05-4961-ba5c-9a16b7c9bd53","system_id":"levelo_inurba_marseille","lat":43.28367,"lon":5.38632,"is_reserved":false,"is_disabled":false,"rental_uris":{"android":"levelo://app?vid=f13dd0a6-0c05-4961-ba5c-9a16b7c9bd53","ios":"levelo://app?vid=f13dd0a6-0c05-4961-ba5c-9a16b7c9bd53"},"vehicle_type_id":"4","last_reported":1727204828,"current_range_meters":16800,"station_id":"ce4bh492rcd13ifvqdvg","pricing_plan_id":"cebpf4jnsgd1na2vs0mg"},{"bike_id":"c318942e-4f56-4ec8-aca5-cd5cb8cd1c0a","system_id":"levelo_inurba_marseille","lat":43.29426,"lon":5.38623,"is_reserved":false,"is_disabled":false,"rental_uris":{"android":"levelo://app?vid=c318942e-4f56-4ec8-aca5-cd5cb8cd1c0a","ios":"levelo://app?vid=c318942e-4f56-4ec8-aca5-cd5cb8cd1c0a"},"vehicle_type_id":"4","last_reported":1727204828,"current_range_meters":22400,"station_id":"ce4bh2h2rcd13ifvqdh0","pricing_plan_id":"cebpf4jnsgd1na2vs0mg"},{"bike_id":"b1f73128-5271-43d8-af34-94e10e3b804a","system_id":"levelo_inurba_marseille","lat":43.33144,"lon":5.39136,"is_reserved":false,"is_disabled":false,"rental_uris":{"android":"levelo://app?vid=b1f73128-5271-43d8-af34-94e10e3b804a","ios":"levelo://app?vid=b1f73128-5271-43d8-af34-94e10e3b804a"},"vehicle_type_id":"4","last_reported":1727204828,"current_range_meters":38400,"station_id":"","pricing_plan_id":"cebpf4jnsgd1na2vs0mg"},{"bike_id":"58885abd-3ec1-4ffc-9605-f582f02f12b5","system_id":"levelo_inurba_marseille","lat":43.290649,"lon":5.371621,"is_reserved":false,"is_disabled":false,"rental_uris":{"android":"levelo://app?vid=58885abd-3ec1-4ffc-9605-f582f02f12b5","ios":"levelo://app?vid=58885abd-3ec1-4ffc-9605-f582f02f12b5"},"vehicle_type_id":"4","last_reported":1727204828,"current_range_meters":14800,"station_id":"ce4bh5p2rcd13ifvqe4g","pricing_plan_id":"cebpf4jnsgd1na2vs0mg"},{"bike_id":"a1d82605-350d-4120-889c-7761b40719ec","system_id":"levelo_inurba_marseille","lat":43.32104,"lon":5.3678,"is_reserved":false,"is_disabled":false,"rental_uris":{"android":"levelo://app?vid=a1d82605-350d-4120-889c-7761b40719ec","ios":"levelo://app?vid=a1d82605-350d-4120-889c-7761b40719ec"},"vehicle_type_id":"4","last_reported":1727204828,"current_range_meters":24400,"station_id":"ce4bhrh2rcd13ifvqhug","pricing_plan_id":"cebpf4jnsgd1na2vs0mg"},{"bike_id":"0d40be1b-02b0-4a28-bcf1-606d3f64f250","system_id":"levelo_inurba_marseille","lat":43.281769,"lon":5.424255,"is_reserved":false,"is_disabled":false,"rental_uris":{"android":"levelo://app?vid=0d40be1b-02b0-4a28-bcf1-606d3f64f250","ios":"levelo://app?vid=0d40be1b-02b0-4a28-bcf1-606d3f64f250"},"vehicle_type_id":"4","last_reported":1727204828,"current_range_meters":6800,"station_id":"ce4bhnh2rcd13ifvqgug","pricing_plan_id":"cebpf4jnsgd1na2vs0mg"},{"bike_id":"9fbf48b7-8efe-482d-9e8c-afafd6f0902f","system_id":"levelo_inurba_marseille","lat":43.27998,"lon":5.40014,"is_reserved":false,"is_disabled":false,"rental_uris":{"android":"levelo://app?vid=9fbf48b7-8efe-482d-9e8c-afafd6f0902f","ios":"levelo://app?vid=9fbf48b7-8efe-482d-9e8c-afafd6f0902f"},"vehicle_type_id":"4","last_reported":1727204828,"current_range_meters":10800,"station_id":"ce4bho92rcd13ifvqh4g","pricing_plan_id":"cebpf4jnsgd1na2vs0mg"},{"bike_id":"26be7a40-51ac-4890-8b66-a0c532bdfd1d","system_id":"levelo_inurba_marseille","lat":43.29418,"lon":5.38622,"is_reserved":false,"is_disabled":false,"rental_uris":{"android":"levelo://app?vid=26be7a40-51ac-4890-8b66-a0c532bdfd1d","ios":"levelo://app?vid=26be7a40-51ac-4890-8b66-a0c532bdfd1d"},"vehicle_type_id":"4","last_reported":1727204828,"current_range_meters":11600,"station_id":"ce4bh2h2rcd13ifvqdh0","pricing_plan_id":"cebpf4jnsgd1na2vs0mg"},{"bike_id":"c0c4ac2c-dbd6-405c-ae94-75c9c39bd7ab","system_id":"levelo_inurba_marseille","lat":43.250833,"lon":5.395147,"is_reserved":false,"is_disabled":false,"rental_uris":{"android":"levelo://app?vid=c0c4ac2c-dbd6-405c-ae94-75c9c39bd7ab","ios":"levelo://app?vid=c0c4ac2c-dbd6-405c-ae94-75c9c39bd7ab"},"vehicle_type_id":"4","last_reported":1727204828,"current_range_meters":38800,"station_id":"ce4bhm12rcd13ifvqgkg","pricing_plan_id":"cebpf4jnsgd1na2vs0mg"},{"bike_id":"88c80a33-3d69-470f-adf0-5a7aac7ac96a","system_id":"levelo_inurba_marseille","lat":43.28717,"lon":5.37945,"is_reserved":false,"is_disabled":false,"rental_uris":{"android":"levelo://app?vid=88c80a33-3d69-470f-adf0-5a7aac7ac96a","ios":"levelo://app?vid=88c80a33-3d69-470f-adf0-5a7aac7ac96a"},"vehicle_type_id":"4","last_reported":1727204828,"current_range_meters":8800,"station_id":"ce4bh9p2rcd13ifvqec0","pricing_plan_id":"cebpf4jnsgd1na2vs0mg"},{"bike_id":"1166f6b1-5b87-4bc1-b21d-c61655b2fee0","system_id":"levelo_inurba_marseille","lat":43.29456,"lon":5.38061,"is_reserved":false,"is_disabled":false,"rental_uris":{"android":"levelo://app?vid=1166f6b1-5b87-4bc1-b21d-c61655b2fee0","ios":"levelo://app?vid=1166f6b1-5b87-4bc1-b21d-c61655b2fee0"},"vehicle_type_id":"4","last_reported":1727204828,"current_range_meters":36800,"station_id":"","pricing_plan_id":"cebpf4jnsgd1na2vs0mg"},{"bike_id":"e1795019-8f30-497c-8957-dd02477936ec","system_id":"levelo_inurba_marseille","lat":43.27993,"lon":5.40017,"is_reserved":false,"is_disabled":false,"rental_uris":{"android":"levelo://app?vid=e1795019-8f30-497c-8957-dd02477936ec","ios":"levelo://app?vid=e1795019-8f30-497c-8957-dd02477936ec"},"vehicle_type_id":"4","last_reported":1727204828,"current_range_meters":33200,"station_id":"ce4bho92rcd13ifvqh4g","pricing_plan_id":"cebpf4jnsgd1na2vs0mg"},{"bike_id":"6cf02193-3ded-4cde-a5e9-273e1e7f9133","system_id":"levelo_inurba_marseille","lat":43.30794,"lon":5.43528,"is_reserved":false,"is_disabled":false,"rental_uris":{"android":"levelo://app?vid=6cf02193-3ded-4cde-a5e9-273e1e7f9133","ios":"levelo://app?vid=6cf02193-3ded-4cde-a5e9-273e1e7f9133"},"vehicle_type_id":"4","last_reported":1727204828,"current_range_meters":30400,"station_id":"ce4bhph2rcd13ifvqheg","pricing_plan_id":"cebpf4jnsgd1na2vs0mg"},{"bike_id":"ab46ab3c-91ca-4d84-817e-df721969ee60","system_id":"levelo_inurba_marseille","lat":43.27996,"lon":5.40012,"is_reserved":false,"is_disabled":false,"rental_uris":{"android":"levelo://app?vid=ab46ab3c-91ca-4d84-817e-df721969ee60","ios":"levelo://app?vid=ab46ab3c-91ca-4d84-817e-df721969ee60"},"vehicle_type_id":"4","last_reported":1727204828,"current_range_meters":10800,"station_id":"ce4bho92rcd13ifvqh4g","pricing_plan_id":"cebpf4jnsgd1na2vs0mg"},{"bike_id":"6f4b0626-981e-4ce1-8870-0a8f5c7cb37d","system_id":"levelo_inurba_marseille","lat":43.30425,"lon":5.38894,"is_reserved":false,"is_disabled":false,"rental_uris":{"android":"levelo://app?vid=6f4b0626-981e-4ce1-8870-0a8f5c7cb37d","ios":"levelo://app?vid=6f4b0626-981e-4ce1-8870-0a8f5c7cb37d"},"vehicle_type_id":"4","last_reported":1727204828,"current_range_meters":9600,"station_id":"ce4bgk12rcd13ifvqbi0","pricing_plan_id":"cebpf4jnsgd1na2vs0mg"},{"bike_id":"c517eafc-0d84-46c5-8fed-1b42b71b7911","system_id":"levelo_inurba_marseille","lat":43.31753,"lon":5.39024,"is_reserved":false,"is_disabled":false,"rental_uris":{"android":"levelo://app?vid=c517eafc-0d84-46c5-8fed-1b42b71b7911","ios":"levelo://app?vid=c517eafc-0d84-46c5-8fed-1b42b71b7911"},"vehicle_type_id":"4","last_reported":1727204828,"current_range_meters":19200,"station_id":"ce4bhqp2rcd13ifvqhng","pricing_plan_id":"cebpf4jnsgd1na2vs0mg"},{"bike_id":"daee9fa7-3bc5-44d7-9ace-70830363f730","system_id":"levelo_inurba_marseille","lat":43.27912,"lon":5.41238,"is_reserved":false,"is_disabled":false,"rental_uris":{"android":"levelo://app?vid=daee9fa7-3bc5-44d7-9ace-70830363f730","ios":"levelo://app?vid=daee9fa7-3bc5-44d7-9ace-70830363f730"},"vehicle_type_id":"4","last_reported":1727204828,"current_range_meters":8400,"station_id":"","pricing_plan_id":"cebpf4jnsgd1na2vs0mg"},{"bike_id":"26c2aed2-aaa8-4e2d-9818-cb1c3fb87147","system_id":"levelo_inurba_marseille","lat":43.24986,"lon":5.38938,"is_reserved":false,"is_disabled":false,"rental_uris":{"android":"levelo://app?vid=26c2aed2-aaa8-4e2d-9818-cb1c3fb87147","ios":"levelo://app?vid=26c2aed2-aaa8-4e2d-9818-cb1c3fb87147"},"vehicle_type_id":"4","last_reported":1727204828,"current_range_meters":6400,"station_id":"ce4bhgp2rcd13ifvqfd0","pricing_plan_id":"cebpf4jnsgd1na2vs0mg"},{"bike_id":"e3acbfee-7351-435c-b163-0f9702d9d7f7","system_id":"levelo_inurba_marseille","lat":43.29557,"lon":5.42284,"is_reserved":false,"is_disabled":false,"rental_uris":{"android":"levelo://app?vid=e3acbfee-7351-435c-b163-0f9702d9d7f7","ios":"levelo://app?vid=e3acbfee-7351-435c-b163-0f9702d9d7f7"},"vehicle_type_id":"4","last_reported":1727204828,"current_range_meters":6000,"station_id":"ce4bhph2rcd13ifvqhdg","pricing_plan_id":"cebpf4jnsgd1na2vs0mg"},{"bike_id":"5d22d37c-c8d4-4feb-8685-bf150cafbdc6","system_id":"levelo_inurba_marseille","lat":43.24069,"lon":5.37757,"is_reserved":false,"is_disabled":false,"rental_uris":{"android":"levelo://app?vid=5d22d37c-c8d4-4feb-8685-bf150cafbdc6","ios":"levelo://app?vid=5d22d37c-c8d4-4feb-8685-bf150cafbdc6"},"vehicle_type_id":"4","last_reported":1727204828,"current_range_meters":22800,"station_id":"ce4bhnp2rcd13ifvqgvg","pricing_plan_id":"cebpf4jnsgd1na2vs0mg"},{"bike_id":"81000a3a-c11c-4d08-8723-5803ef31d63a","system_id":"levelo_inurba_marseille","lat":43.296313,"lon":5.405973,"is_reserved":false,"is_disabled":false,"rental_uris":{"android":"levelo://app?vid=81000a3a-c11c-4d08-8723-5803ef31d63a","ios":"levelo://app?vid=81000a3a-c11c-4d08-8723-5803ef31d63a"},"vehicle_type_id":"4","last_reported":1727204828,"current_range_meters":24400,"station_id":"ce4bhr12rcd13ifvqhpg","pricing_plan_id":"cebpf4jnsgd1na2vs0mg"},{"bike_id":"17701005-77c3-4e4f-a0b4-b2ece630517d","system_id":"levelo_inurba_marseille","lat":43.23956,"lon":5.36633,"is_reserved":false,"is_disabled":false,"rental_uris":{"android":"levelo://app?vid=17701005-77c3-4e4f-a0b4-b2ece630517d","ios":"levelo://app?vid=17701005-77c3-4e4f-a0b4-b2ece630517d"},"vehicle_type_id":"4","last_reported":1727204828,"current_range_meters":38800,"station_id":"ce4bhi12rcd13ifvqfp0","pricing_plan_id":"cebpf4jnsgd1na2vs0mg"},{"bike_id":"d93eaed6-b9c4-46f6-8fd1-f9812128cad5","system_id":"levelo_inurba_marseille","lat":43.31282,"lon":5.36846,"is_reserved":false,"is_disabled":false,"rental_uris":{"android":"levelo://app?vid=d93eaed6-b9c4-46f6-8fd1-f9812128cad5","ios":"levelo://app?vid=d93eaed6-b9c4-46f6-8fd1-f9812128cad5"},"vehicle_type_id":"4","last_reported":1727204828,"current_range_meters":23200,"station_id":"ce4bgl92rcd13ifvqbq0","pricing_plan_id":"cebpf4jnsgd1na2vs0mg"},{"bike_id":"333e6827-424a-474c-a812-b71b3ffd0940","system_id":"levelo_inurba_marseille","lat":43.29195,"lon":5.35806,"is_reserved":false,"is_disabled":false,"rental_uris":{"android":"levelo://app?vid=333e6827-424a-474c-a812-b71b3ffd0940","ios":"levelo://app?vid=333e6827-424a-474c-a812-b71b3ffd0940"},"vehicle_type_id":"4","last_reported":1727204828,"current_range_meters":5600,"station_id":"ce4bhb12rcd13ifvqel0","pricing_plan_id":"cebpf4jnsgd1na2vs0mg"},{"bike_id":"c8e2e608-f468-4c9b-9708-10e6f0f0d98d","system_id":"levelo_inurba_marseille","lat":43.23183,"lon":5.39997,"is_reserved":false,"is_disabled":false,"rental_uris":{"android":"levelo://app?vid=c8e2e608-f468-4c9b-9708-10e6f0f0d98d","ios":"levelo://app?vid=c8e2e608-f468-4c9b-9708-10e6f0f0d98d"},"vehicle_type_id":"4","last_reported":1727204828,"current_range_meters":8800,"station_id":"ce4bhn12rcd13ifvqgqg","pricing_plan_id":"cebpf4jnsgd1na2vs0mg"},{"bike_id":"c60901a6-e0c0-4f7e-851a-f54a10f5276f","system_id":"levelo_inurba_marseille","lat":43.25824,"lon":5.39438,"is_reserved":false,"is_disabled":false,"rental_uris":{"android":"levelo://app?vid=c60901a6-e0c0-4f7e-851a-f54a10f5276f","ios":"levelo://app?vid=c60901a6-e0c0-4f7e-851a-f54a10f5276f"},"vehicle_type_id":"4","last_reported":1727204828,"current_range_meters":25200,"station_id":"ce4bhip2rcd13ifvqft0","pricing_plan_id":"cebpf4jnsgd1na2vs0mg"},{"bike_id":"c55d969d-1a93-4935-b9ee-d0eb1291eb7d","system_id":"levelo_inurba_marseille","lat":43.29085,"lon":5.38146,"is_reserved":false,"is_disabled":false,"rental_uris":{"android":"levelo://app?vid=c55d969d-1a93-4935-b9ee-d0eb1291eb7d","ios":"levelo://app?vid=c55d969d-1a93-4935-b9ee-d0eb1291eb7d"},"vehicle_type_id":"4","last_reported":1727204828,"current_range_meters":18000,"station_id":"ce4bh512rcd13ifvqe2g","pricing_plan_id":"cebpf4jnsgd1na2vs0mg"},{"bike_id":"39054abe-c3dc-4128-9189-d27a6517f884","system_id":"levelo_inurba_marseille","lat":43.26793,"lon":5.3941,"is_reserved":false,"is_disabled":false,"rental_uris":{"android":"levelo://app?vid=39054abe-c3dc-4128-9189-d27a6517f884","ios":"levelo://app?vid=39054abe-c3dc-4128-9189-d27a6517f884"},"vehicle_type_id":"4","last_reported":1727204828,"current_range_meters":7200,"station_id":"ce4bhh12rcd13ifvqfg0","pricing_plan_id":"cebpf4jnsgd1na2vs0mg"},{"bike_id":"7e9e8414-11aa-4516-a0ba-b99da07411a2","system_id":"levelo_inurba_marseille","lat":43.24075,"lon":5.37761,"is_reserved":false,"is_disabled":false,"rental_uris":{"android":"levelo://app?vid=7e9e8414-11aa-4516-a0ba-b99da07411a2","ios":"levelo://app?vid=7e9e8414-11aa-4516-a0ba-b99da07411a2"},"vehicle_type_id":"4","last_reported":1727204828,"current_range_meters":20000,"station_id":"ce4bhnp2rcd13ifvqgvg","pricing_plan_id":"cebpf4jnsgd1na2vs0mg"},{"bike_id":"08aeb96c-2414-43fb-a731-004123e5f581","system_id":"levelo_inurba_marseille","lat":43.313354,"lon":5.396938,"is_reserved":false,"is_disabled":false,"rental_uris":{"android":"levelo://app?vid=08aeb96c-2414-43fb-a731-004123e5f581","ios":"levelo://app?vid=08aeb96c-2414-43fb-a731-004123e5f581"},"vehicle_type_id":"4","last_reported":1727204828,"current_range_meters":6800,"station_id":"ce4bgvp2rcd13ifvqcu0","pricing_plan_id":"cebpf4jnsgd1na2vs0mg"},{"bike_id":"d5aa1add-115d-4e1a-b824-66ecde93a367","system_id":"levelo_inurba_marseille","lat":43.24082,"lon":5.37759,"is_reserved":false,"is_disabled":false,"rental_uris":{"android":"levelo://app?vid=d5aa1add-115d-4e1a-b824-66ecde93a367","ios":"levelo://app?vid=d5aa1add-115d-4e1a-b824-66ecde93a367"},"vehicle_type_id":"4","last_reported":1727204828,"current_range_meters":11200,"station_id":"ce4bhnp2rcd13ifvqgvg","pricing_plan_id":"cebpf4jnsgd1na2vs0mg"},{"bike_id":"7ce6e443-37bf-4f82-9641-2fa0f0bf1e6d","system_id":"levelo_inurba_marseille","lat":43.302124,"lon":5.394678,"is_reserved":false,"is_disabled":false,"rental_uris":{"android":"levelo://app?vid=7ce6e443-37bf-4f82-9641-2fa0f0bf1e6d","ios":"levelo://app?vid=7ce6e443-37bf-4f82-9641-2fa0f0bf1e6d"},"vehicle_type_id":"4","last_reported":1727204828,"current_range_meters":29600,"station_id":"ce4bh0p2rcd13ifvqd70","pricing_plan_id":"cebpf4jnsgd1na2vs0mg"},{"bike_id":"d24bbf1b-3aea-42be-a965-80ffa4745455","system_id":"levelo_inurba_marseille","lat":43.28359,"lon":5.38115,"is_reserved":false,"is_disabled":false,"rental_uris":{"android":"levelo://app?vid=d24bbf1b-3aea-42be-a965-80ffa4745455","ios":"levelo://app?vid=d24bbf1b-3aea-42be-a965-80ffa4745455"},"vehicle_type_id":"4","last_reported":1727204828,"current_range_meters":8800,"station_id":"ce4bh412rcd13ifvqdr0","pricing_plan_id":"cebpf4jnsgd1na2vs0mg"},{"bike_id":"a7bca3df-0344-4204-86d7-b742d4769839","system_id":"levelo_inurba_marseille","lat":43.30863,"lon":5.3685,"is_reserved":false,"is_disabled":false,"rental_uris":{"android":"levelo://app?vid=a7bca3df-0344-4204-86d7-b742d4769839","ios":"levelo://app?vid=a7bca3df-0344-4204-86d7-b742d4769839"},"vehicle_type_id":"4","last_reported":1727204828,"current_range_meters":32000,"station_id":"ce4bgn92rcd13ifvqbvg","pricing_plan_id":"cebpf4jnsgd1na2vs0mg"},{"bike_id":"9b540e7a-4a10-493c-9a54-7177a36f5c46","system_id":"levelo_inurba_marseille","lat":43.2871,"lon":5.37944,"is_reserved":false,"is_disabled":false,"rental_uris":{"android":"levelo://app?vid=9b540e7a-4a10-493c-9a54-7177a36f5c46","ios":"levelo://app?vid=9b540e7a-4a10-493c-9a54-7177a36f5c46"},"vehicle_type_id":"4","last_reported":1727204828,"current_range_meters":38800,"station_id":"ce4bh9p2rcd13ifvqec0","pricing_plan_id":"cebpf4jnsgd1na2vs0mg"},{"bike_id":"7a8a0800-f777-46b2-8e82-362f8ebbd9e6","system_id":"levelo_inurba_marseille","lat":43.32287,"lon":5.38258,"is_reserved":false,"is_disabled":false,"rental_uris":{"android":"levelo://app?vid=7a8a0800-f777-46b2-8e82-362f8ebbd9e6","ios":"levelo://app?vid=7a8a0800-f777-46b2-8e82-362f8ebbd9e6"},"vehicle_type_id":"4","last_reported":1727204828,"current_range_meters":29600,"station_id":"ce4bhr12rcd13ifvqhqg","pricing_plan_id":"cebpf4jnsgd1na2vs0mg"},{"bike_id":"29cef338-028b-46be-aec2-2de217d46e45","system_id":"levelo_inurba_marseille","lat":43.32366,"lon":5.3889,"is_reserved":false,"is_disabled":false,"rental_uris":{"android":"levelo://app?vid=29cef338-028b-46be-aec2-2de217d46e45","ios":"levelo://app?vid=29cef338-028b-46be-aec2-2de217d46e45"},"vehicle_type_id":"4","last_reported":1727204828,"current_range_meters":32000,"station_id":"ce4bhqp2rcd13ifvqhog","pricing_plan_id":"cebpf4jnsgd1na2vs0mg"},{"bike_id":"d831a0c8-0bcd-4449-91a5-836df1a52d4b","system_id":"levelo_inurba_marseille","lat":43.307135,"lon":5.372845,"is_reserved":false,"is_disabled":false,"rental_uris":{"android":"levelo://app?vid=d831a0c8-0bcd-4449-91a5-836df1a52d4b","ios":"levelo://app?vid=d831a0c8-0bcd-4449-91a5-836df1a52d4b"},"vehicle_type_id":"4","last_reported":1727204828,"current_range_meters":14400,"station_id":"","pricing_plan_id":"cebpf4jnsgd1na2vs0mg"},{"bike_id":"37ea3e6e-16e9-42b3-b4f9-836c84a7a894","system_id":"levelo_inurba_marseille","lat":43.23181,"lon":5.39989,"is_reserved":false,"is_disabled":false,"rental_uris":{"android":"levelo://app?vid=37ea3e6e-16e9-42b3-b4f9-836c84a7a894","ios":"levelo://app?vid=37ea3e6e-16e9-42b3-b4f9-836c84a7a894"},"vehicle_type_id":"4","last_reported":1727204828,"current_range_meters":33200,"station_id":"ce4bhn12rcd13ifvqgqg","pricing_plan_id":"cebpf4jnsgd1na2vs0mg"},{"bike_id":"337d797f-5bad-4e42-a3a9-741eceae0aa0","system_id":"levelo_inurba_marseille","lat":43.33724,"lon":5.39186,"is_reserved":false,"is_disabled":false,"rental_uris":{"android":"levelo://app?vid=337d797f-5bad-4e42-a3a9-741eceae0aa0","ios":"levelo://app?vid=337d797f-5bad-4e42-a3a9-741eceae0aa0"},"vehicle_type_id":"4","last_reported":1727204828,"current_range_meters":35600,"station_id":"ce4bhr92rcd13ifvqhsg","pricing_plan_id":"cebpf4jnsgd1na2vs0mg"},{"bike_id":"c429e26a-1acd-4e91-9809-a448ccb99898","system_id":"levelo_inurba_marseille","lat":43.28123,"lon":5.40592,"is_reserved":false,"is_disabled":false,"rental_uris":{"android":"levelo://app?vid=c429e26a-1acd-4e91-9809-a448ccb99898","ios":"levelo://app?vid=c429e26a-1acd-4e91-9809-a448ccb99898"},"vehicle_type_id":"4","last_reported":1727204828,"current_range_meters":38800,"station_id":"","pricing_plan_id":"cebpf4jnsgd1na2vs0mg"},{"bike_id":"7d13bfe6-cac1-417a-a866-11f3f6431dbc","system_id":"levelo_inurba_marseille","lat":43.2861,"lon":5.37066,"is_reserved":false,"is_disabled":false,"rental_uris":{"android":"levelo://app?vid=7d13bfe6-cac1-417a-a866-11f3f6431dbc","ios":"levelo://app?vid=7d13bfe6-cac1-417a-a866-11f3f6431dbc"},"vehicle_type_id":"4","last_reported":1727204828,"current_range_meters":30000,"station_id":"ce4bht12rcd13ifvqi60","pricing_plan_id":"cebpf4jnsgd1na2vs0mg"},{"bike_id":"4a4bfd88-bdfc-4802-b3a8-e798e4274727","system_id":"levelo_inurba_marseille","lat":43.32294,"lon":5.3826,"is_reserved":false,"is_disabled":false,"rental_uris":{"android":"levelo://app?vid=4a4bfd88-bdfc-4802-b3a8-e798e4274727","ios":"levelo://app?vid=4a4bfd88-bdfc-4802-b3a8-e798e4274727"},"vehicle_type_id":"4","last_reported":1727204828,"current_range_meters":32000,"station_id":"ce4bhr12rcd13ifvqhqg","pricing_plan_id":"cebpf4jnsgd1na2vs0mg"},{"bike_id":"9fa6ce40-a2c5-4b94-8815-5c21202a1327","system_id":"levelo_inurba_marseille","lat":43.31756,"lon":5.39021,"is_reserved":false,"is_disabled":false,"rental_uris":{"android":"levelo://app?vid=9fa6ce40-a2c5-4b94-8815-5c21202a1327","ios":"levelo://app?vid=9fa6ce40-a2c5-4b94-8815-5c21202a1327"},"vehicle_type_id":"4","last_reported":1727204828,"current_range_meters":10000,"station_id":"ce4bhqp2rcd13ifvqhng","pricing_plan_id":"cebpf4jnsgd1na2vs0mg"},{"bike_id":"86898526-a4d9-47cf-b306-df317b0d9e78","system_id":"levelo_inurba_marseille","lat":43.23195,"lon":5.35556,"is_reserved":false,"is_disabled":false,"rental_uris":{"android":"levelo://app?vid=86898526-a4d9-47cf-b306-df317b0d9e78","ios":"levelo://app?vid=86898526-a4d9-47cf-b306-df317b0d9e78"},"vehicle_type_id":"4","last_reported":1727204828,"current_range_meters":22800,"station_id":"ce4bhu92rcd13ifvqi70","pricing_plan_id":"cebpf4jnsgd1na2vs0mg"},{"bike_id":"27ac37a7-d66d-42a4-b40f-f61eedcb3b40","system_id":"levelo_inurba_marseille","lat":43.27996,"lon":5.40013,"is_reserved":false,"is_disabled":false,"rental_uris":{"android":"levelo://app?vid=27ac37a7-d66d-42a4-b40f-f61eedcb3b40","ios":"levelo://app?vid=27ac37a7-d66d-42a4-b40f-f61eedcb3b40"},"vehicle_type_id":"4","last_reported":1727204828,"current_range_meters":38800,"station_id":"ce4bho92rcd13ifvqh4g","pricing_plan_id":"cebpf4jnsgd1na2vs0mg"},{"bike_id":"ad8ded45-0462-4e57-bc0f-f5f82d6ad96d","system_id":"levelo_inurba_marseille","lat":43.29859,"lon":5.39728,"is_reserved":false,"is_disabled":false,"rental_uris":{"android":"levelo://app?vid=ad8ded45-0462-4e57-bc0f-f5f82d6ad96d","ios":"levelo://app?vid=ad8ded45-0462-4e57-bc0f-f5f82d6ad96d"},"vehicle_type_id":"4","last_reported":1727204828,"current_range_meters":22400,"station_id":"ce4bh0h2rcd13ifvqd50","pricing_plan_id":"cebpf4jnsgd1na2vs0mg"},{"bike_id":"d54561ae-5749-4596-b6e3-6044884946c4","system_id":"levelo_inurba_marseille","lat":43.27175,"lon":5.40992,"is_reserved":false,"is_disabled":false,"rental_uris":{"android":"levelo://app?vid=d54561ae-5749-4596-b6e3-6044884946c4","ios":"levelo://app?vid=d54561ae-5749-4596-b6e3-6044884946c4"},"vehicle_type_id":"4","last_reported":1727204828,"current_range_meters":6400,"station_id":"ce4bhl12rcd13ifvqgf0","pricing_plan_id":"cebpf4jnsgd1na2vs0mg"},{"bike_id":"9ac9d415-314c-47c9-83c9-409ec35ee620","system_id":"levelo_inurba_marseille","lat":43.2407,"lon":5.37762,"is_reserved":false,"is_disabled":false,"rental_uris":{"android":"levelo://app?vid=9ac9d415-314c-47c9-83c9-409ec35ee620","ios":"levelo://app?vid=9ac9d415-314c-47c9-83c9-409ec35ee620"},"vehicle_type_id":"4","last_reported":1727204828,"current_range_meters":6400,"station_id":"ce4bhnp2rcd13ifvqgvg","pricing_plan_id":"cebpf4jnsgd1na2vs0mg"},{"bike_id":"2182745b-13df-4c49-a9f7-2a798f35e947","system_id":"levelo_inurba_marseille","lat":43.23963,"lon":5.36636,"is_reserved":false,"is_disabled":false,"rental_uris":{"android":"levelo://app?vid=2182745b-13df-4c49-a9f7-2a798f35e947","ios":"levelo://app?vid=2182745b-13df-4c49-a9f7-2a798f35e947"},"vehicle_type_id":"4","last_reported":1727204828,"current_range_meters":38000,"station_id":"ce4bhi12rcd13ifvqfp0","pricing_plan_id":"cebpf4jnsgd1na2vs0mg"},{"bike_id":"e96bce9f-f1b1-4946-bcc6-0d5e6e9eae4b","system_id":"levelo_inurba_marseille","lat":43.309512,"lon":5.390282,"is_reserved":false,"is_disabled":false,"rental_uris":{"android":"levelo://app?vid=e96bce9f-f1b1-4946-bcc6-0d5e6e9eae4b","ios":"levelo://app?vid=e96bce9f-f1b1-4946-bcc6-0d5e6e9eae4b"},"vehicle_type_id":"4","last_reported":1727204828,"current_range_meters":9600,"station_id":"ce4bgup2rcd13ifvqco0","pricing_plan_id":"cebpf4jnsgd1na2vs0mg"},{"bike_id":"c3635c8f-c073-4e2e-9a6d-ca3c8ef40eb7","system_id":"levelo_inurba_marseille","lat":43.313224,"lon":5.386318,"is_reserved":false,"is_disabled":false,"rental_uris":{"android":"levelo://app?vid=c3635c8f-c073-4e2e-9a6d-ca3c8ef40eb7","ios":"levelo://app?vid=c3635c8f-c073-4e2e-9a6d-ca3c8ef40eb7"},"vehicle_type_id":"4","last_reported":1727204828,"current_range_meters":30400,"station_id":"","pricing_plan_id":"cebpf4jnsgd1na2vs0mg"},{"bike_id":"3a5182df-8aae-47ec-b5d4-1edd42fa0e80","system_id":"levelo_inurba_marseille","lat":43.31531,"lon":5.38035,"is_reserved":false,"is_disabled":false,"rental_uris":{"android":"levelo://app?vid=3a5182df-8aae-47ec-b5d4-1edd42fa0e80","ios":"levelo://app?vid=3a5182df-8aae-47ec-b5d4-1edd42fa0e80"},"vehicle_type_id":"4","last_reported":1727204828,"current_range_meters":23200,"station_id":"ce4bhsp2rcd13ifvqi50","pricing_plan_id":"cebpf4jnsgd1na2vs0mg"},{"bike_id":"ede37da0-431f-462e-af97-45c71435ab2a","system_id":"levelo_inurba_marseille","lat":43.24182,"lon":5.39717,"is_reserved":false,"is_disabled":false,"rental_uris":{"android":"levelo://app?vid=ede37da0-431f-462e-af97-45c71435ab2a","ios":"levelo://app?vid=ede37da0-431f-462e-af97-45c71435ab2a"},"vehicle_type_id":"4","last_reported":1727204828,"current_range_meters":24800,"station_id":"ce4bhn12rcd13ifvqgpg","pricing_plan_id":"cebpf4jnsgd1na2vs0mg"},{"bike_id":"9559b53b-c56e-48cd-8fc6-433930529f8d","system_id":"levelo_inurba_marseille","lat":43.27912,"lon":5.39586,"is_reserved":false,"is_disabled":false,"rental_uris":{"android":"levelo://app?vid=9559b53b-c56e-48cd-8fc6-433930529f8d","ios":"levelo://app?vid=9559b53b-c56e-48cd-8fc6-433930529f8d"},"vehicle_type_id":"4","last_reported":1727204828,"current_range_meters":27200,"station_id":"ce4bhf92rcd13ifvqf40","pricing_plan_id":"cebpf4jnsgd1na2vs0mg"},{"bike_id":"5cd2987c-b4c1-4dea-9d60-3fdb684ce320","system_id":"levelo_inurba_marseille","lat":43.29892,"lon":5.436727,"is_reserved":false,"is_disabled":false,"rental_uris":{"android":"levelo://app?vid=5cd2987c-b4c1-4dea-9d60-3fdb684ce320","ios":"levelo://app?vid=5cd2987c-b4c1-4dea-9d60-3fdb684ce320"},"vehicle_type_id":"4","last_reported":1727204828,"current_range_meters":28000,"station_id":"ce4bhp92rcd13ifvqhbg","pricing_plan_id":"cebpf4jnsgd1na2vs0mg"},{"bike_id":"c809b4e3-1ad9-49ec-b850-4c2202458623","system_id":"levelo_inurba_marseille","lat":43.28419,"lon":5.37518,"is_reserved":false,"is_disabled":false,"rental_uris":{"android":"levelo://app?vid=c809b4e3-1ad9-49ec-b850-4c2202458623","ios":"levelo://app?vid=c809b4e3-1ad9-49ec-b850-4c2202458623"},"vehicle_type_id":"4","last_reported":1727204828,"current_range_meters":19200,"station_id":"ce4bh412rcd13ifvqds0","pricing_plan_id":"cebpf4jnsgd1na2vs0mg"},{"bike_id":"9355b769-996d-4f4f-b5dd-c0b8373b1b70","system_id":"levelo_inurba_marseille","lat":43.31319,"lon":5.39695,"is_reserved":false,"is_disabled":false,"rental_uris":{"android":"levelo://app?vid=9355b769-996d-4f4f-b5dd-c0b8373b1b70","ios":"levelo://app?vid=9355b769-996d-4f4f-b5dd-c0b8373b1b70"},"vehicle_type_id":"4","last_reported":1727204828,"current_range_meters":24000,"station_id":"ce4bgvp2rcd13ifvqcu0","pricing_plan_id":"cebpf4jnsgd1na2vs0mg"},{"bike_id":"1c17febc-8f7d-4c75-a8ff-fc36e863973e","system_id":"levelo_inurba_marseille","lat":43.27994,"lon":5.4001,"is_reserved":false,"is_disabled":false,"rental_uris":{"android":"levelo://app?vid=1c17febc-8f7d-4c75-a8ff-fc36e863973e","ios":"levelo://app?vid=1c17febc-8f7d-4c75-a8ff-fc36e863973e"},"vehicle_type_id":"4","last_reported":1727204828,"current_range_meters":8800,"station_id":"ce4bho92rcd13ifvqh4g","pricing_plan_id":"cebpf4jnsgd1na2vs0mg"},{"bike_id":"9772998c-2089-4fea-ad97-2dcfbb28f75e","system_id":"levelo_inurba_marseille","lat":43.28727,"lon":5.3608,"is_reserved":false,"is_disabled":false,"rental_uris":{"android":"levelo://app?vid=9772998c-2089-4fea-ad97-2dcfbb28f75e","ios":"levelo://app?vid=9772998c-2089-4fea-ad97-2dcfbb28f75e"},"vehicle_type_id":"4","last_reported":1727204828,"current_range_meters":16000,"station_id":"cki0cbj6b192h4jlfktg","pricing_plan_id":"cebpf4jnsgd1na2vs0mg"},{"bike_id":"ca01abf1-be19-44e8-b135-6c2b31a7b934","system_id":"levelo_inurba_marseille","lat":43.29527,"lon":5.38551,"is_reserved":false,"is_disabled":false,"rental_uris":{"android":"levelo://app?vid=ca01abf1-be19-44e8-b135-6c2b31a7b934","ios":"levelo://app?vid=ca01abf1-be19-44e8-b135-6c2b31a7b934"},"vehicle_type_id":"4","last_reported":1727204828,"current_range_meters":38800,"station_id":"ce4bgih2rcd13ifvqba0","pricing_plan_id":"cebpf4jnsgd1na2vs0mg"},{"bike_id":"39a04d7f-16d2-49c5-8c69-3147c5aa8fb0","system_id":"levelo_inurba_marseille","lat":43.27941,"lon":5.41041,"is_reserved":false,"is_disabled":false,"rental_uris":{"android":"levelo://app?vid=39a04d7f-16d2-49c5-8c69-3147c5aa8fb0","ios":"levelo://app?vid=39a04d7f-16d2-49c5-8c69-3147c5aa8fb0"},"vehicle_type_id":"4","last_reported":1727204828,"current_range_meters":38800,"station_id":"ce4bhnp2rcd13ifvqh0g","pricing_plan_id":"cebpf4jnsgd1na2vs0mg"},{"bike_id":"dc0c13c9-3471-4327-8a75-c86213fe27d7","system_id":"levelo_inurba_marseille","lat":43.27937,"lon":5.41052,"is_reserved":false,"is_disabled":false,"rental_uris":{"android":"levelo://app?vid=dc0c13c9-3471-4327-8a75-c86213fe27d7","ios":"levelo://app?vid=dc0c13c9-3471-4327-8a75-c86213fe27d7"},"vehicle_type_id":"4","last_reported":1727204828,"current_range_meters":16000,"station_id":"ce4bhnp2rcd13ifvqh0g","pricing_plan_id":"cebpf4jnsgd1na2vs0mg"},{"bike_id":"1d1ffb7d-642d-4a0f-817d-7a24a930d1c9","system_id":"levelo_inurba_marseille","lat":43.28939,"lon":5.36635,"is_reserved":false,"is_disabled":false,"rental_uris":{"android":"levelo://app?vid=1d1ffb7d-642d-4a0f-817d-7a24a930d1c9","ios":"levelo://app?vid=1d1ffb7d-642d-4a0f-817d-7a24a930d1c9"},"vehicle_type_id":"4","last_reported":1727204828,"current_range_meters":38800,"station_id":"ce4bhap2rcd13ifvqek0","pricing_plan_id":"cebpf4jnsgd1na2vs0mg"},{"bike_id":"43c26b03-5857-406f-b065-434d526f0a1d","system_id":"levelo_inurba_marseille","lat":43.28858,"lon":5.35852,"is_reserved":false,"is_disabled":false,"rental_uris":{"android":"levelo://app?vid=43c26b03-5857-406f-b065-434d526f0a1d","ios":"levelo://app?vid=43c26b03-5857-406f-b065-434d526f0a1d"},"vehicle_type_id":"4","last_reported":1727204828,"current_range_meters":16000,"station_id":"ce4bhb12rcd13ifvqem0","pricing_plan_id":"cebpf4jnsgd1na2vs0mg"},{"bike_id":"6f80dd58-e61e-4a18-8b7a-cfb2f00d6d03","system_id":"levelo_inurba_marseille","lat":43.31371,"lon":5.38493,"is_reserved":false,"is_disabled":false,"rental_uris":{"android":"levelo://app?vid=6f80dd58-e61e-4a18-8b7a-cfb2f00d6d03","ios":"levelo://app?vid=6f80dd58-e61e-4a18-8b7a-cfb2f00d6d03"},"vehicle_type_id":"4","last_reported":1727204828,"current_range_meters":22800,"station_id":"ce4bgt92rcd13ifvqcf0","pricing_plan_id":"cebpf4jnsgd1na2vs0mg"},{"bike_id":"3cdb199b-bacd-44b6-8eed-476c74758fbd","system_id":"levelo_inurba_marseille","lat":43.32106,"lon":5.36768,"is_reserved":false,"is_disabled":false,"rental_uris":{"android":"levelo://app?vid=3cdb199b-bacd-44b6-8eed-476c74758fbd","ios":"levelo://app?vid=3cdb199b-bacd-44b6-8eed-476c74758fbd"},"vehicle_type_id":"4","last_reported":1727204828,"current_range_meters":28400,"station_id":"ce4bhrh2rcd13ifvqhug","pricing_plan_id":"cebpf4jnsgd1na2vs0mg"},{"bike_id":"b61db326-8959-4831-b92b-21785dbdfdc9","system_id":"levelo_inurba_marseille","lat":43.29174,"lon":5.37164,"is_reserved":false,"is_disabled":false,"rental_uris":{"android":"levelo://app?vid=b61db326-8959-4831-b92b-21785dbdfdc9","ios":"levelo://app?vid=b61db326-8959-4831-b92b-21785dbdfdc9"},"vehicle_type_id":"4","last_reported":1727204828,"current_range_meters":8000,"station_id":"ce4bha92rcd13ifvqeh0","pricing_plan_id":"cebpf4jnsgd1na2vs0mg"},{"bike_id":"6ddafbe1-16f1-463a-be44-0bef68acf23b","system_id":"levelo_inurba_marseille","lat":43.2718,"lon":5.40995,"is_reserved":false,"is_disabled":false,"rental_uris":{"android":"levelo://app?vid=6ddafbe1-16f1-463a-be44-0bef68acf23b","ios":"levelo://app?vid=6ddafbe1-16f1-463a-be44-0bef68acf23b"},"vehicle_type_id":"4","last_reported":1727204828,"current_range_meters":30000,"station_id":"ce4bhl12rcd13ifvqgf0","pricing_plan_id":"cebpf4jnsgd1na2vs0mg"},{"bike_id":"fd13c5d1-27ce-499a-a2cf-5e8475e4fd05","system_id":"levelo_inurba_marseille","lat":43.32286,"lon":5.3828,"is_reserved":false,"is_disabled":false,"rental_uris":{"android":"levelo://app?vid=fd13c5d1-27ce-499a-a2cf-5e8475e4fd05","ios":"levelo://app?vid=fd13c5d1-27ce-499a-a2cf-5e8475e4fd05"},"vehicle_type_id":"4","last_reported":1727204828,"current_range_meters":11600,"station_id":"ce4bhr12rcd13ifvqhqg","pricing_plan_id":"cebpf4jnsgd1na2vs0mg"},{"bike_id":"0a7a1bef-aa3e-453e-a664-284526262201","system_id":"levelo_inurba_marseille","lat":43.29527,"lon":5.39397,"is_reserved":false,"is_disabled":false,"rental_uris":{"android":"levelo://app?vid=0a7a1bef-aa3e-453e-a664-284526262201","ios":"levelo://app?vid=0a7a1bef-aa3e-453e-a664-284526262201"},"vehicle_type_id":"4","last_reported":1727204828,"current_range_meters":24800,"station_id":"ce4bh292rcd13ifvqdf0","pricing_plan_id":"cebpf4jnsgd1na2vs0mg"},{"bike_id":"cabbcbaf-7532-447c-9461-78dd1ee2e2c7","system_id":"levelo_inurba_marseille","lat":43.29023,"lon":5.3865,"is_reserved":false,"is_disabled":false,"rental_uris":{"android":"levelo://app?vid=cabbcbaf-7532-447c-9461-78dd1ee2e2c7","ios":"levelo://app?vid=cabbcbaf-7532-447c-9461-78dd1ee2e2c7"},"vehicle_type_id":"4","last_reported":1727204828,"current_range_meters":32800,"station_id":"ce4bh4p2rcd13ifvqe0g","pricing_plan_id":"cebpf4jnsgd1na2vs0mg"},{"bike_id":"9dfbea95-3d2c-409e-a157-4594dca0e186","system_id":"levelo_inurba_marseille","lat":43.287,"lon":5.37394,"is_reserved":false,"is_disabled":false,"rental_uris":{"android":"levelo://app?vid=9dfbea95-3d2c-409e-a157-4594dca0e186","ios":"levelo://app?vid=9dfbea95-3d2c-409e-a157-4594dca0e186"},"vehicle_type_id":"4","last_reported":1727204828,"current_range_meters":38800,"station_id":"ce4bh3p2rcd13ifvqdq0","pricing_plan_id":"cebpf4jnsgd1na2vs0mg"},{"bike_id":"d2331cf8-9200-46f3-9444-fe0b9cc3dd99","system_id":"levelo_inurba_marseille","lat":43.26197,"lon":5.37935,"is_reserved":false,"is_disabled":false,"rental_uris":{"android":"levelo://app?vid=d2331cf8-9200-46f3-9444-fe0b9cc3dd99","ios":"levelo://app?vid=d2331cf8-9200-46f3-9444-fe0b9cc3dd99"},"vehicle_type_id":"4","last_reported":1727204828,"current_range_meters":16400,"station_id":"ce4bhjp2rcd13ifvqg90","pricing_plan_id":"cebpf4jnsgd1na2vs0mg"},{"bike_id":"9fb726a0-b7a2-4a60-ae93-2dee31f49029","system_id":"levelo_inurba_marseille","lat":43.30191,"lon":5.394854,"is_reserved":false,"is_disabled":false,"rental_uris":{"android":"levelo://app?vid=9fb726a0-b7a2-4a60-ae93-2dee31f49029","ios":"levelo://app?vid=9fb726a0-b7a2-4a60-ae93-2dee31f49029"},"vehicle_type_id":"4","last_reported":1727204828,"current_range_meters":12800,"station_id":"ce4bh0p2rcd13ifvqd70","pricing_plan_id":"cebpf4jnsgd1na2vs0mg"},{"bike_id":"59498af8-d85e-459b-912a-ec5626a43118","system_id":"levelo_inurba_marseille","lat":43.316878,"lon":5.40472,"is_reserved":false,"is_disabled":false,"rental_uris":{"android":"levelo://app?vid=59498af8-d85e-459b-912a-ec5626a43118","ios":"levelo://app?vid=59498af8-d85e-459b-912a-ec5626a43118"},"vehicle_type_id":"4","last_reported":1727204828,"current_range_meters":38800,"station_id":"ce4bh012rcd13ifvqd00","pricing_plan_id":"cebpf4jnsgd1na2vs0mg"},{"bike_id":"dcfd1a3f-06b1-4c63-993b-b79e5484eea9","system_id":"levelo_inurba_marseille","lat":43.31718,"lon":5.43707,"is_reserved":false,"is_disabled":false,"rental_uris":{"android":"levelo://app?vid=dcfd1a3f-06b1-4c63-993b-b79e5484eea9","ios":"levelo://app?vid=dcfd1a3f-06b1-4c63-993b-b79e5484eea9"},"vehicle_type_id":"4","last_reported":1727204828,"current_range_meters":30000,"station_id":"ce4bhp92rcd13ifvqhcg","pricing_plan_id":"cebpf4jnsgd1na2vs0mg"},{"bike_id":"d82c7c51-c376-48ae-bad8-66d7ae0dfdbb","system_id":"levelo_inurba_marseille","lat":43.27529,"lon":5.39575,"is_reserved":false,"is_disabled":false,"rental_uris":{"android":"levelo://app?vid=d82c7c51-c376-48ae-bad8-66d7ae0dfdbb","ios":"levelo://app?vid=d82c7c51-c376-48ae-bad8-66d7ae0dfdbb"},"vehicle_type_id":"4","last_reported":1727204828,"current_range_meters":9600,"station_id":"ce4bho92rcd13ifvqh4g","pricing_plan_id":"cebpf4jnsgd1na2vs0mg"},{"bike_id":"6141735e-7059-41f3-8389-1e470856a440","system_id":"levelo_inurba_marseille","lat":43.3229,"lon":5.38274,"is_reserved":false,"is_disabled":false,"rental_uris":{"android":"levelo://app?vid=6141735e-7059-41f3-8389-1e470856a440","ios":"levelo://app?vid=6141735e-7059-41f3-8389-1e470856a440"},"vehicle_type_id":"4","last_reported":1727204828,"current_range_meters":11600,"station_id":"ce4bhr12rcd13ifvqhqg","pricing_plan_id":"cebpf4jnsgd1na2vs0mg"},{"bike_id":"efdc599c-8a7b-48c2-8976-95247a3f6678","system_id":"levelo_inurba_marseille","lat":43.27999,"lon":5.40018,"is_reserved":false,"is_disabled":false,"rental_uris":{"android":"levelo://app?vid=efdc599c-8a7b-48c2-8976-95247a3f6678","ios":"levelo://app?vid=efdc599c-8a7b-48c2-8976-95247a3f6678"},"vehicle_type_id":"4","last_reported":1727204828,"current_range_meters":25600,"station_id":"ce4bho92rcd13ifvqh4g","pricing_plan_id":"cebpf4jnsgd1na2vs0mg"},{"bike_id":"bcef0ecf-36c3-4241-adfd-fafc3cc67695","system_id":"levelo_inurba_marseille","lat":43.29584,"lon":5.36731,"is_reserved":false,"is_disabled":false,"rental_uris":{"android":"levelo://app?vid=bcef0ecf-36c3-4241-adfd-fafc3cc67695","ios":"levelo://app?vid=bcef0ecf-36c3-4241-adfd-fafc3cc67695"},"vehicle_type_id":"4","last_reported":1727204828,"current_range_meters":7200,"station_id":"ce4bgph2rcd13ifvqc2g","pricing_plan_id":"cebpf4jnsgd1na2vs0mg"},{"bike_id":"4b73b2db-354d-4117-b8ed-a57eb4d44d7a","system_id":"levelo_inurba_marseille","lat":43.29932,"lon":5.36553,"is_reserved":false,"is_disabled":false,"rental_uris":{"android":"levelo://app?vid=4b73b2db-354d-4117-b8ed-a57eb4d44d7a","ios":"levelo://app?vid=4b73b2db-354d-4117-b8ed-a57eb4d44d7a"},"vehicle_type_id":"4","last_reported":1727204828,"current_range_meters":26800,"station_id":"ce4bgm92rcd13ifvqbr0","pricing_plan_id":"cebpf4jnsgd1na2vs0mg"},{"bike_id":"1ed71ef6-3c10-4900-83be-95d39f424656","system_id":"levelo_inurba_marseille","lat":43.29443,"lon":5.39753,"is_reserved":false,"is_disabled":false,"rental_uris":{"android":"levelo://app?vid=1ed71ef6-3c10-4900-83be-95d39f424656","ios":"levelo://app?vid=1ed71ef6-3c10-4900-83be-95d39f424656"},"vehicle_type_id":"4","last_reported":1727204828,"current_range_meters":12400,"station_id":"ce4bh3h2rcd13ifvqdo0","pricing_plan_id":"cebpf4jnsgd1na2vs0mg"},{"bike_id":"96b51059-b6cb-414c-8dbc-70787d2f17ac","system_id":"levelo_inurba_marseille","lat":43.24807,"lon":5.37463,"is_reserved":false,"is_disabled":false,"rental_uris":{"android":"levelo://app?vid=96b51059-b6cb-414c-8dbc-70787d2f17ac","ios":"levelo://app?vid=96b51059-b6cb-414c-8dbc-70787d2f17ac"},"vehicle_type_id":"4","last_reported":1727204828,"current_range_meters":23200,"station_id":"ce4bhgh2rcd13ifvqfb0","pricing_plan_id":"cebpf4jnsgd1na2vs0mg"},{"bike_id":"68081c0b-9a92-490a-bdd1-ff5103721787","system_id":"levelo_inurba_marseille","lat":43.27071,"lon":5.42279,"is_reserved":false,"is_disabled":false,"rental_uris":{"android":"levelo://app?vid=68081c0b-9a92-490a-bdd1-ff5103721787","ios":"levelo://app?vid=68081c0b-9a92-490a-bdd1-ff5103721787"},"vehicle_type_id":"4","last_reported":1727204828,"current_range_meters":16400,"station_id":"ce4bhk92rcd13ifvqgb0","pricing_plan_id":"cebpf4jnsgd1na2vs0mg"},{"bike_id":"69aae0c0-8704-47b8-8759-b7fa3b6dd031","system_id":"levelo_inurba_marseille","lat":43.27374,"lon":5.36262,"is_reserved":false,"is_disabled":false,"rental_uris":{"android":"levelo://app?vid=69aae0c0-8704-47b8-8759-b7fa3b6dd031","ios":"levelo://app?vid=69aae0c0-8704-47b8-8759-b7fa3b6dd031"},"vehicle_type_id":"4","last_reported":1727204828,"current_range_meters":18800,"station_id":"ce4bhbh2rcd13ifvqeo0","pricing_plan_id":"cebpf4jnsgd1na2vs0mg"},{"bike_id":"21881301-1073-42bd-b35a-adfc042eb2aa","system_id":"levelo_inurba_marseille","lat":43.31711,"lon":5.43708,"is_reserved":false,"is_disabled":false,"rental_uris":{"android":"levelo://app?vid=21881301-1073-42bd-b35a-adfc042eb2aa","ios":"levelo://app?vid=21881301-1073-42bd-b35a-adfc042eb2aa"},"vehicle_type_id":"4","last_reported":1727204828,"current_range_meters":3600,"station_id":"ce4bhp92rcd13ifvqhcg","pricing_plan_id":"cebpf4jnsgd1na2vs0mg"},{"bike_id":"d71ab7e0-eafe-48e2-805a-4b6637ccddc2","system_id":"levelo_inurba_marseille","lat":43.34162,"lon":5.40891,"is_reserved":false,"is_disabled":false,"rental_uris":{"android":"levelo://app?vid=d71ab7e0-eafe-48e2-805a-4b6637ccddc2","ios":"levelo://app?vid=d71ab7e0-eafe-48e2-805a-4b6637ccddc2"},"vehicle_type_id":"4","last_reported":1727204828,"current_range_meters":9600,"station_id":"ce4bhqh2rcd13ifvqhlg","pricing_plan_id":"cebpf4jnsgd1na2vs0mg"},{"bike_id":"23122e1c-edb1-4f32-a961-cc8b2fc92f66","system_id":"levelo_inurba_marseille","lat":43.23963,"lon":5.36625,"is_reserved":false,"is_disabled":false,"rental_uris":{"android":"levelo://app?vid=23122e1c-edb1-4f32-a961-cc8b2fc92f66","ios":"levelo://app?vid=23122e1c-edb1-4f32-a961-cc8b2fc92f66"},"vehicle_type_id":"4","last_reported":1727204828,"current_range_meters":4800,"station_id":"ce4bhi12rcd13ifvqfp0","pricing_plan_id":"cebpf4jnsgd1na2vs0mg"},{"bike_id":"772a410c-a0e1-45f3-a765-11f9d8121406","system_id":"levelo_inurba_marseille","lat":43.28369,"lon":5.38611,"is_reserved":false,"is_disabled":false,"rental_uris":{"android":"levelo://app?vid=772a410c-a0e1-45f3-a765-11f9d8121406","ios":"levelo://app?vid=772a410c-a0e1-45f3-a765-11f9d8121406"},"vehicle_type_id":"4","last_reported":1727204828,"current_range_meters":3600,"station_id":"ce4bh492rcd13ifvqdvg","pricing_plan_id":"cebpf4jnsgd1na2vs0mg"},{"bike_id":"31bb3d52-6f91-4925-9c4f-45a888e4ce31","system_id":"levelo_inurba_marseille","lat":43.29171,"lon":5.38607,"is_reserved":false,"is_disabled":false,"rental_uris":{"android":"levelo://app?vid=31bb3d52-6f91-4925-9c4f-45a888e4ce31","ios":"levelo://app?vid=31bb3d52-6f91-4925-9c4f-45a888e4ce31"},"vehicle_type_id":"4","last_reported":1727204828,"current_range_meters":16400,"station_id":"","pricing_plan_id":"cebpf4jnsgd1na2vs0mg"},{"bike_id":"d00adc07-cd64-4f29-a247-2c15859e955b","system_id":"levelo_inurba_marseille","lat":43.28094,"lon":5.37846,"is_reserved":false,"is_disabled":false,"rental_uris":{"android":"levelo://app?vid=d00adc07-cd64-4f29-a247-2c15859e955b","ios":"levelo://app?vid=d00adc07-cd64-4f29-a247-2c15859e955b"},"vehicle_type_id":"4","last_reported":1727204828,"current_range_meters":38800,"station_id":"ce4bha12rcd13ifvqee0","pricing_plan_id":"cebpf4jnsgd1na2vs0mg"},{"bike_id":"95f8ac12-05ad-433a-bab5-6c2ee3d4d27e","system_id":"levelo_inurba_marseille","lat":43.31997,"lon":5.3815,"is_reserved":false,"is_disabled":false,"rental_uris":{"android":"levelo://app?vid=95f8ac12-05ad-433a-bab5-6c2ee3d4d27e","ios":"levelo://app?vid=95f8ac12-05ad-433a-bab5-6c2ee3d4d27e"},"vehicle_type_id":"4","last_reported":1727204828,"current_range_meters":32000,"station_id":"ce4bhr12rcd13ifvqhpg","pricing_plan_id":"cebpf4jnsgd1na2vs0mg"},{"bike_id":"a41c21b6-863a-4a6e-9072-95c30dbe6d9f","system_id":"levelo_inurba_marseille","lat":43.27943,"lon":5.41043,"is_reserved":false,"is_disabled":false,"rental_uris":{"android":"levelo://app?vid=a41c21b6-863a-4a6e-9072-95c30dbe6d9f","ios":"levelo://app?vid=a41c21b6-863a-4a6e-9072-95c30dbe6d9f"},"vehicle_type_id":"4","last_reported":1727204828,"current_range_meters":30400,"station_id":"ce4bhnp2rcd13ifvqh0g","pricing_plan_id":"cebpf4jnsgd1na2vs0mg"},{"bike_id":"5c4e73b5-923e-456b-b867-892be152e33d","system_id":"levelo_inurba_marseille","lat":43.25575,"lon":5.38231,"is_reserved":false,"is_disabled":false,"rental_uris":{"android":"levelo://app?vid=5c4e73b5-923e-456b-b867-892be152e33d","ios":"levelo://app?vid=5c4e73b5-923e-456b-b867-892be152e33d"},"vehicle_type_id":"4","last_reported":1727204828,"current_range_meters":19200,"station_id":"ce4bhih2rcd13ifvqfs0","pricing_plan_id":"cebpf4jnsgd1na2vs0mg"},