{"last_updated":1745837062,"ttl":60,"version":"2.2","data":{"bikes":[{"bike_id":"0d42d741-2505-42aa-b79a-41df572094e2","system_id":"levelo_inurba_marseille","lat":43.27617,"lon":5.39319,"is_reserved":false,"is_disabled":true,"rental_uris":{"android":"levelo://app?vid=0d42d741-2505-42aa-b79a-41df572094e2","ios":"levelo://app?vid=0d42d741-2505-42aa-b79a-41df572094e2"},"vehicle_type_id":"4","last_reported":1745837062,"current_range_meters":0,"station_id":"","pricing_plan_id":"cebpf4jnsgd1na2vs0mg"},{"bike_id":"b156cb3a-a131-4c8b-b3b5-13ae6db8151f","system_id":"levelo_inurba_marseille","lat":43.26873,"lon":5.38197,"is_reserved":false,"is_disabled":true,"rental_uris":{"android":"levelo://app?vid=b156cb3a-a131-4c8b-b3b5-13ae6db8151f","ios":"levelo://app?vid=b156cb3a-a131-4c8b-b3b5-13ae6db8151f"},"vehicle_type_id":"4","last_reported":1745837062,"current_range_meters":0,"station_id":"","pricing_plan_id":"cebpf4jnsgd1na2vs0mg"},{"bike_id":"2f4bacf9-8ead-47de-b319-bf743a4ec869","system_id":"levelo_inurba_marseille","lat":43.26254,"lon":5.38777,"is_reserved":false,"is_disabled":true,"rental_uris":{"android":"levelo://app?vid=2f4bacf9-8ead-47de-b319-bf743a4ec869","ios":"levelo://app?vid=2f4bacf9-8ead-47de-b319-bf743a4ec869"},"vehicle_type_id":"4","last_reported":1745837062,"current_range_meters":0,"station_id":"","pricing_plan_id":"cebpf4jnsgd1na2vs0mg"},{"bike_id":"72bfeb00-9650-4ca9-9aa6-53fb9d831ff8","system_id":"levelo_inurba_marseille","lat":43.3187,"lon":5.36758,"is_reserved":false,"is_disabled":true,"rental_uris":{"android":"levelo://app?vid=72bfeb00-9650-4ca9-9aa6-53fb9d831ff8","ios":"levelo://app?vid=72bfeb00-9650-4ca9-9aa6-53fb9d831ff8"},"vehicle_type_id":"4","last_reported":1745837062,"current_range_meters":0,"station_id":"","pricing_plan_id":"cebpf4jnsgd1na2vs0mg"},{"bike_id":"8f515858-71d6-4b47-b989-20758303e199","system_id":"levelo_inurba_marseille","lat":43.26795,"lon":5.42699,"is_reserved":false,"is_disabled":true,"rental_uris":{"android":"levelo://app?vid=8f515858-71d6-4b47-b989-20758303e199","ios":"levelo://app?vid=8f515858-71d6-4b47-b989-20758303e199"},"vehicle_type_id":"4","last_reported":1745837062,"current_range_meters":0,"station_id":"","pricing_plan_id":"cebpf4jnsgd1na2vs0mg"},{"bike_id":"a00a24bb-1133-4122-9792-70ce66982cb7","system_id":"levelo_inurba_marseille","lat":43.29423,"lon":5.38617,"is_reserved":false,"is_disabled":true,"rental_uris":{"android":"levelo://app?vid=a00a24bb-1133-4122-9792-70ce66982cb7","ios":"levelo://app?vid=a00a24bb-1133-4122-9792-70ce66982cb7"},"vehicle_type_id":"4","last_reported":1745837062,"current_range_meters":0,"station_id":"ce4bh2h2rcd13ifvqdh0","pricing_plan_id":"cebpf4jnsgd1na2vs0mg"},{"bike_id":"8c8aab4d-3b88-4eb3-981e-9c9e7be53a0e","system_id":"levelo_inurba_marseille","lat":43.28465,"lon":5.35885,"is_reserved":false,"is_disabled":true,"rental_uris":{"android":"levelo://app?vid=8c8aab4d-3b88-4eb3-981e-9c9e7be53a0e","ios":"levelo://app?vid=8c8aab4d-3b88-4eb3-981e-9c9e7be53a0e"},"vehicle_type_id":"4","last_reported":1745837062,"current_range_meters":0,"station_id":"ce4bhah2rcd13ifvqei0","pricing_plan_id":"cebpf4jnsgd1na2vs0mg"},{"bike_id":"1e5918ca-5310-4e4d-a097-4c11284ede6d","system_id":"levelo_inurba_marseille","lat":43.262115,"lon":5.374675,"is_reserved":false,"is_disabled":true,"rental_uris":{"android":"levelo://app?vid=1e5918ca-5310-4e4d-a097-4c11284ede6d","ios":"levelo://app?vid=1e5918ca-5310-4e4d-a097-4c11284ede6d"},"vehicle_type_id":"4","last_reported":1745837062,"current_range_meters":0,"station_id":"ce4bhgp2rcd13ifvqfc0","pricing_plan_id":"cebpf4jnsgd1na2vs0mg"},{"bike_id":"ba792260-9668-41e6-8213-6b192c3bcfb8","system_id":"levelo_inurba_marseille","lat":43.27185,"lon":5.39171,"is_reserved":false,"is_disabled":true,"rental_uris":{"android":"levelo://app?vid=ba792260-9668-41e6-8213-6b192c3bcfb8","ios":"levelo://app?vid=ba792260-9668-41e6-8213-6b192c3bcfb8"},"vehicle_type_id":"4","last_reported":1745837062,"current_range_meters":0,"station_id":"ce4bhhp2rcd13ifvqfm0","pricing_plan_id":"cebpf4jnsgd1na2vs0mg"},{"bike_id":"db8faadc-cfd8-476f-bbed-9926c84554b7","system_id":"levelo_inurba_marseille","lat":43.27094,"lon":5.42284,"is_reserved":false,"is_disabled":true,"rental_uris":{"android":"levelo://app?vid=db8faadc-cfd8-476f-bbed-9926c84554b7","ios":"levelo://app?vid=db8faadc-cfd8-476f-bbed-9926c84554b7"},"vehicle_type_id":"4","last_reported":1745837062,"current_range_meters":0,"station_id":"ce4bhk92rcd13ifvqgb0","pricing_plan_id":"cebpf4jnsgd1na2vs0mg"},{"bike_id":"bd9ae5a3-befb-48d9-ab21-43ce59c55d96","system_id":"levelo_inurba_marseille","lat":43.257221,"lon":5.411007,"is_reserved":false,"is_disabled":true,"rental_uris":{"android":"levelo://app?vid=bd9ae5a3-befb-48d9-ab21-43ce59c55d96","ios":"levelo://app?vid=bd9ae5a3-befb-48d9-ab21-43ce59c55d96"},"vehicle_type_id":"4","last_reported":1745837062,"current_range_meters":0,"station_id":"ce4bhkp2rcd13ifvqgd0","pricing_plan_id":"cebpf4jnsgd1na2vs0mg"},{"bike_id":"f24fa6a2-6d3f-4493-95e6-08fbf09d9ada","system_id":"levelo_inurba_marseille","lat":43.30545,"lon":5.36714,"is_reserved":false,"is_disabled":true,"rental_uris":{"android":"levelo://app?vid=f24fa6a2-6d3f-4493-95e6-08fbf09d9ada","ios":"levelo://app?vid=f24fa6a2-6d3f-4493-95e6-08fbf09d9ada"},"vehicle_type_id":"4","last_reported":1745837062,"current_range_meters":400,"station_id":"ce4bgrp2rcd13ifvqc9g","pricing_plan_id":"cebpf4jnsgd1na2vs0mg"},{"bike_id":"bba05b6e-1455-45ff-9566-1cbe2a19ab54","system_id":"levelo_inurba_marseille","lat":43.23151,"lon":5.43712,"is_reserved":false,"is_disabled":true,"rental_uris":{"android":"levelo://app?vid=bba05b6e-1455-45ff-9566-1cbe2a19ab54","ios":"levelo://app?vid=bba05b6e-1455-45ff-9566-1cbe2a19ab54"},"vehicle_type_id":"4","last_reported":1745837062,"current_range_meters":400,"station_id":"ce4bhmp2rcd13ifvqgog","pricing_plan_id":"cebpf4jnsgd1na2vs0mg"},{"bike_id":"1204525e-434c-41bb-9b11-cb59e440aac1","system_id":"levelo_inurba_marseille","lat":43.28271,"lon":5.35065,"is_reserved":false,"is_disabled":true,"rental_uris":{"android":"levelo://app?vid=1204525e-434c-41bb-9b11-cb59e440aac1","ios":"levelo://app?vid=1204525e-434c-41bb-9b11-cb59e440aac1"},"vehicle_type_id":"4","last_reported":1745837062,"current_range_meters":800,"station_id":"ce4bhbp2rcd13ifvqerg","pricing_plan_id":"cebpf4jnsgd1na2vs0mg"},{"bike_id":"d202ffed-74d3-40f9-9acf-267b5c81ef46","system_id":"levelo_inurba_marseille","lat":43.34167,"lon":5.40912,"is_reserved":false,"is_disabled":true,"rental_uris":{"android":"levelo://app?vid=d202ffed-74d3-40f9-9acf-267b5c81ef46","ios":"levelo://app?vid=d202ffed-74d3-40f9-9acf-267b5c81ef46"},"vehicle_type_id":"4","last_reported":1745837062,"current_range_meters":800,"station_id":"ce4bhqh2rcd13ifvqhlg","pricing_plan_id":"cebpf4jnsgd1na2vs0mg"},{"bike_id":"a013a361-5d6d-4d99-b636-806e1c86ba48","system_id":"levelo_inurba_marseille","lat":43.22932,"lon":5.35376,"is_reserved":false,"is_disabled":true,"rental_uris":{"android":"levelo://app?vid=a013a361-5d6d-4d99-b636-806e1c86ba48","ios":"levelo://app?vid=a013a361-5d6d-4d99-b636-806e1c86ba48"},"vehicle_type_id":"4","last_reported":1745837062,"current_range_meters":800,"station_id":"cpo3532slgdg3j2ikp40","pricing_plan_id":"cebpf4jnsgd1na2vs0mg"},{"bike_id":"3d1c2b38-4b7c-47e9-a220-f2736aea069f","system_id":"levelo_inurba_marseille","lat":43.31219,"lon":5.36849,"is_reserved":false,"is_disabled":true,"rental_uris":{"android":"levelo://app?vid=3d1c2b38-4b7c-47e9-a220-f2736aea069f","ios":"levelo://app?vid=3d1c2b38-4b7c-47e9-a220-f2736aea069f"},"vehicle_type_id":"4","last_reported":1745837062,"current_range_meters":1200,"station_id":"ce4bgl92rcd13ifvqbq0","pricing_plan_id":"cebpf4jnsgd1na2vs0mg"},{"bike_id":"0965c4e7-c308-463c-bca6-209d285eb161","system_id":"levelo_inurba_marseille","lat":43.30789,"lon":5.37652,"is_reserved":false,"is_disabled":true,"rental_uris":{"android":"levelo://app?vid=0965c4e7-c308-463c-bca6-209d285eb161","ios":"levelo://app?vid=0965c4e7-c308-463c-bca6-209d285eb161"},"vehicle_type_id":"4","last_reported":1745837062,"current_range_meters":1200,"station_id":"ce4bgv92rcd13ifvqcq0","pricing_plan_id":"cebpf4jnsgd1na2vs0mg"},{"bike_id":"35c89c8d-37c0-4ea2-b74d-d7a4495b7f68","system_id":"levelo_inurba_marseille","lat":43.29253,"lon":5.40903,"is_reserved":false,"is_disabled":true,"rental_uris":{"android":"levelo://app?vid=35c89c8d-37c0-4ea2-b74d-d7a4495b7f68","ios":"levelo://app?vid=35c89c8d-37c0-4ea2-b74d-d7a4495b7f68"},"vehicle_type_id":"4","last_reported":1745837062,"current_range_meters":1200,"station_id":"ce4bh192rcd13ifvqdc0","pricing_plan_id":"cebpf4jnsgd1na2vs0mg"},{"bike_id":"76f33a1e-ec92-4c5a-861d-dc2d0ce6fab3","system_id":"levelo_inurba_marseille","lat":43.270447,"lon":5.402513,"is_reserved":false,"is_disabled":false,"rental_uris":{"android":"levelo://app?vid=76f33a1e-ec92-4c5a-861d-dc2d0ce6fab3","ios":"levelo://app?vid=76f33a1e-ec92-4c5a-861d-dc2d0ce6fab3"},"vehicle_type_id":"4","last_reported":1745837062,"current_range_meters":2000,"station_id":"ce4bhk92rcd13ifvqgc0","pricing_plan_id":"cebpf4jnsgd1na2vs0mg"},{"bike_id":"254c943b-757a-48e9-91d4-f52712e3bfda","system_id":"levelo_inurba_marseille","lat":43.28613,"lon":5.35106,"is_reserved":false,"is_disabled":false,"rental_uris":{"android":"levelo://app?vid=254c943b-757a-48e9-91d4-f52712e3bfda","ios":"levelo://app?vid=254c943b-757a-48e9-91d4-f52712e3bfda"},"vehicle_type_id":"4","last_reported":1745837062,"current_range_meters":2800,"station_id":"ce4bhch2rcd13ifvqeug","pricing_plan_id":"cebpf4jnsgd1na2vs0mg"},{"bike_id":"03735012-b23c-4bdb-b70b-8e3da6fdbc36","system_id":"levelo_inurba_marseille","lat":43.2122,"lon":5.35052,"is_reserved":false,"is_disabled":false,"rental_uris":{"android":"levelo://app?vid=03735012-b23c-4bdb-b70b-8e3da6fdbc36","ios":"levelo://app?vid=03735012-b23c-4bdb-b70b-8e3da6fdbc36"},"vehicle_type_id":"4","last_reported":1745837062,"current_range_meters":2800,"station_id":"st_cvj6sg6p6f1abm77japg","pricing_plan_id":"cebpf4jnsgd1na2vs0mg"},{"bike_id":"f7a94721-f51e-474f-878d-ba44d72027dc","system_id":"levelo_inurba_marseille","lat":43.22932,"lon":5.35374,"is_reserved":false,"is_disabled":false,"rental_uris":{"android":"levelo://app?vid=f7a94721-f51e-474f-878d-ba44d72027dc","ios":"levelo://app?vid=f7a94721-f51e-474f-878d-ba44d72027dc"},"vehicle_type_id":"4","last_reported":1745837062,"current_range_meters":3200,"station_id":"cpo3532slgdg3j2ikp40","pricing_plan_id":"cebpf4jnsgd1na2vs0mg"},{"bike_id":"07f8cc29-b86f-4696-ac39-20f0f7e0a392","system_id":"levelo_inurba_marseille","lat":43.23364,"lon":5.36041,"is_reserved":false,"is_disabled":false,"rental_uris":{"android":"levelo://app?vid=07f8cc29-b86f-4696-ac39-20f0f7e0a392","ios":"levelo://app?vid=07f8cc29-b86f-4696-ac39-20f0f7e0a392"},"vehicle_type_id":"4","last_reported":1745837062,"current_range_meters":3600,"station_id":"","pricing_plan_id":"cebpf4jnsgd1na2vs0mg"},{"bike_id":"5acd9963-4b75-4375-b4df-835b725d6641","system_id":"levelo_inurba_marseille","lat":43.30309,"lon":5.36891,"is_reserved":false,"is_disabled":false,"rental_uris":{"android":"levelo://app?vid=5acd9963-4b75-4375-b4df-835b725d6641","ios":"levelo://app?vid=5acd9963-4b75-4375-b4df-835b725d6641"},"vehicle_type_id":"4","last_reported":1745837062,"current_range_meters":3600,"station_id":"ce4bgqh2rcd13ifvqc5g","pricing_plan_id":"cebpf4jnsgd1na2vs0mg"},{"bike_id":"0d8b40d0-5d50-4162-bc9d-16a08eb05e82","system_id":"levelo_inurba_marseille","lat":43.275043,"lon":5.42438,"is_reserved":false,"is_disabled":false,"rental_uris":{"android":"levelo://app?vid=0d8b40d0-5d50-4162-bc9d-16a08eb05e82","ios":"levelo://app?vid=0d8b40d0-5d50-4162-bc9d-16a08eb05e82"},"vehicle_type_id":"4","last_reported":1745837062,"current_range_meters":3600,"station_id":"ce4bhn92rcd13ifvqgrg","pricing_plan_id":"cebpf4jnsgd1na2vs0mg"},{"bike_id":"db034fb6-1028-4760-b93c-39df55f8add5","system_id":"levelo_inurba_marseille","lat":43.25537,"lon":5.37612,"is_reserved":false,"is_disabled":false,"rental_uris":{"android":"levelo://app?vid=db034fb6-1028-4760-b93c-39df55f8add5","ios":"levelo://app?vid=db034fb6-1028-4760-b93c-39df55f8add5"},"vehicle_type_id":"4","last_reported":1745837062,"current_range_meters":4000,"station_id":"","pricing_plan_id":"cebpf4jnsgd1na2vs0mg"},{"bike_id":"9e2ed24c-a8e8-4759-b396-7d820551a1cd","system_id":"levelo_inurba_marseille","lat":43.26135,"lon":5.38724,"is_reserved":false,"is_disabled":false,"rental_uris":{"android":"levelo://app?vid=9e2ed24c-a8e8-4759-b396-7d820551a1cd","ios":"levelo://app?vid=9e2ed24c-a8e8-4759-b396-7d820551a1cd"},"vehicle_type_id":"4","last_reported":1745837062,"current_range_meters":4000,"station_id":"","pricing_plan_id":"cebpf4jnsgd1na2vs0mg"},{"bike_id":"1c66a2dd-97bf-4e51-b78f-b7e7ecf56519","system_id":"levelo_inurba_marseille","lat":43.28262,"lon":5.35069,"is_reserved":false,"is_disabled":false,"rental_uris":{"android":"levelo://app?vid=1c66a2dd-97bf-4e51-b78f-b7e7ecf56519","ios":"levelo://app?vid=1c66a2dd-97bf-4e51-b78f-b7e7ecf56519"},"vehicle_type_id":"4","last_reported":1745837062,"current_range_meters":4000,"station_id":"ce4bhbp2rcd13ifvqerg","pricing_plan_id":"cebpf4jnsgd1na2vs0mg"},{"bike_id":"e2325172-db38-4ee3-b71d-c17274294852","system_id":"levelo_inurba_marseille","lat":43.24394,"lon":5.37066,"is_reserved":false,"is_disabled":false,"rental_uris":{"android":"levelo://app?vid=e2325172-db38-4ee3-b71d-c17274294852","ios":"levelo://app?vid=e2325172-db38-4ee3-b71d-c17274294852"},"vehicle_type_id":"4","last_reported":1745837062,"current_range_meters":4000,"station_id":"ce4bhhh2rcd13ifvqfk0","pricing_plan_id":"cebpf4jnsgd1na2vs0mg"},{"bike_id":"e42d6b58-3ca0-4a89-9a56-5a85f5cda8bb","system_id":"levelo_inurba_marseille","lat":43.31454,"lon":5.36562,"is_reserved":false,"is_disabled":false,"rental_uris":{"android":"levelo://app?vid=e42d6b58-3ca0-4a89-9a56-5a85f5cda8bb","ios":"levelo://app?vid=e42d6b58-3ca0-4a89-9a56-5a85f5cda8bb"},"vehicle_type_id":"4","last_reported":1745837062,"current_range_meters":4400,"station_id":"ce4bgr92rcd13ifvqc6g","pricing_plan_id":"cebpf4jnsgd1na2vs0mg"},{"bike_id":"3c6ec21a-08df-4894-a161-2699f9dc117c","system_id":"levelo_inurba_marseille","lat":43.30468,"lon":5.37904,"is_reserved":false,"is_disabled":false,"rental_uris":{"android":"levelo://app?vid=3c6ec21a-08df-4894-a161-2699f9dc117c","ios":"levelo://app?vid=3c6ec21a-08df-4894-a161-2699f9dc117c"},"vehicle_type_id":"4","last_reported":1745837062,"current_range_meters":4400,"station_id":"ce4bgup2rcd13ifvqcn0","pricing_plan_id":"cebpf4jnsgd1na2vs0mg"},{"bike_id":"96ec26f6-f03f-42eb-8e39-a2691c5effa7","system_id":"levelo_inurba_marseille","lat":43.29044,"lon":5.39962,"is_reserved":false,"is_disabled":false,"rental_uris":{"android":"levelo://app?vid=96ec26f6-f03f-42eb-8e39-a2691c5effa7","ios":"levelo://app?vid=96ec26f6-f03f-42eb-8e39-a2691c5effa7"},"vehicle_type_id":"4","last_reported":1745837062,"current_range_meters":4400,"station_id":"ce4bh392rcd13ifvqdm0","pricing_plan_id":"cebpf4jnsgd1na2vs0mg"},{"bike_id":"74677f28-3596-4c5b-98de-ba4120a70f9d","system_id":"levelo_inurba_marseille","lat":43.25615,"lon":5.41205,"is_reserved":false,"is_disabled":false,"rental_uris":{"android":"levelo://app?vid=74677f28-3596-4c5b-98de-ba4120a70f9d","ios":"levelo://app?vid=74677f28-3596-4c5b-98de-ba4120a70f9d"},"vehicle_type_id":"4","last_reported":1745837062,"current_range_meters":5600,"station_id":"","pricing_plan_id":"cebpf4jnsgd1na2vs0mg"},{"bike_id":"9698920a-1bf7-43c9-8e2f-77f28055a742","system_id":"levelo_inurba_marseille","lat":43.2314,"lon":5.4373,"is_reserved":false,"is_disabled":false,"rental_uris":{"android":"levelo://app?vid=9698920a-1bf7-43c9-8e2f-77f28055a742","ios":"levelo://app?vid=9698920a-1bf7-43c9-8e2f-77f28055a742"},"vehicle_type_id":"4","last_reported":1745837062,"current_range_meters":5600,"station_id":"ce4bhmp2rcd13ifvqgog","pricing_plan_id":"cebpf4jnsgd1na2vs0mg"},{"bike_id":"5224b08d-6ef7-4680-b88a-98328021a8cf","system_id":"levelo_inurba_marseille","lat":43.27204,"lon":5.39181,"is_reserved":false,"is_disabled":false,"rental_uris":{"android":"levelo://app?vid=5224b08d-6ef7-4680-b88a-98328021a8cf","ios":"levelo://app?vid=5224b08d-6ef7-4680-b88a-98328021a8cf"},"vehicle_type_id":"4","last_reported":1745837062,"current_range_meters":6000,"station_id":"ce4bhhp2rcd13ifvqfm0","pricing_plan_id":"cebpf4jnsgd1na2vs0mg"},{"bike_id":"8bb84123-6154-462e-9d32-d03936906181","system_id":"levelo_inurba_marseille","lat":43.27998,"lon":5.4167,"is_reserved":false,"is_disabled":false,"rental_uris":{"android":"levelo://app?vid=8bb84123-6154-462e-9d32-d03936906181","ios":"levelo://app?vid=8bb84123-6154-462e-9d32-d03936906181"},"vehicle_type_id":"4","last_reported":1745837062,"current_range_meters":6400,"station_id":"ce4bho12rcd13ifvqh1g","pricing_plan_id":"cebpf4jnsgd1na2vs0mg"},{"bike_id":"78b9bb88-3a00-4760-8a43-e68743ab22f2","system_id":"levelo_inurba_marseille","lat":43.302997,"lon":5.36772,"is_reserved":false,"is_disabled":false,"rental_uris":{"android":"levelo://app?vid=78b9bb88-3a00-4760-8a43-e68743ab22f2","ios":"levelo://app?vid=78b9bb88-3a00-4760-8a43-e68743ab22f2"},"vehicle_type_id":"4","last_reported":1745837062,"current_range_meters":6800,"station_id":"","pricing_plan_id":"cebpf4jnsgd1na2vs0mg"},{"bike_id":"f3f06d2b-43a3-4e42-a022-b35fd9f5cc48","system_id":"levelo_inurba_marseille","lat":43.29703,"lon":5.36616,"is_reserved":false,"is_disabled":false,"rental_uris":{"android":"levelo://app?vid=f3f06d2b-43a3-4e42-a022-b35fd9f5cc48","ios":"levelo://app?vid=f3f06d2b-43a3-4e42-a022-b35fd9f5cc48"},"vehicle_type_id":"4","last_reported":1745837062,"current_range_meters":6800,"station_id":"ce4bgn12rcd13ifvqbt0","pricing_plan_id":"cebpf4jnsgd1na2vs0mg"},{"bike_id":"f5985a90-192c-4d74-a842-a0344698b15f","system_id":"levelo_inurba_marseille","lat":43.30137,"lon":5.39879,"is_reserved":false,"is_disabled":false,"rental_uris":{"android":"levelo://app?vid=f5985a90-192c-4d74-a842-a0344698b15f","ios":"levelo://app?vid=f5985a90-192c-4d74-a842-a0344698b15f"},"vehicle_type_id":"4","last_reported":1745837062,"current_range_meters":6800,"station_id":"ce4bh0h2rcd13ifvqd40","pricing_plan_id":"cebpf4jnsgd1na2vs0mg"},{"bike_id":"b6b55b4f-0e94-4844-a34d-939bda3a53ba","system_id":"levelo_inurba_marseille","lat":43.29025,"lon":5.38124,"is_reserved":false,"is_disabled":false,"rental_uris":{"android":"levelo://app?vid=b6b55b4f-0e94-4844-a34d-939bda3a53ba","ios":"levelo://app?vid=b6b55b4f-0e94-4844-a34d-939bda3a53ba"},"vehicle_type_id":"4","last_reported":1745837062,"current_range_meters":6800,"station_id":"ce4bh4p2rcd13ifvqe1g","pricing_plan_id":"cebpf4jnsgd1na2vs0mg"},{"bike_id":"4c9a73de-c6b0-4b55-bed7-3a315915449f","system_id":"levelo_inurba_marseille","lat":43.24083,"lon":5.3775,"is_reserved":false,"is_disabled":false,"rental_uris":{"android":"levelo://app?vid=4c9a73de-c6b0-4b55-bed7-3a315915449f","ios":"levelo://app?vid=4c9a73de-c6b0-4b55-bed7-3a315915449f"},"vehicle_type_id":"4","last_reported":1745837062,"current_range_meters":6800,"station_id":"ce4bhnp2rcd13ifvqgvg","pricing_plan_id":"cebpf4jnsgd1na2vs0mg"},{"bike_id":"9d9875ff-d33f-4959-b8e1-3198d56603ab","system_id":"levelo_inurba_marseille","lat":43.30154,"lon":5.38093,"is_reserved":false,"is_disabled":false,"rental_uris":{"android":"levelo://app?vid=9d9875ff-d33f-4959-b8e1-3198d56603ab","ios":"levelo://app?vid=9d9875ff-d33f-4959-b8e1-3198d56603ab"},"vehicle_type_id":"4","last_reported":1745837062,"current_range_meters":7200,"station_id":"ce4bgjp2rcd13ifvqbh0","pricing_plan_id":"cebpf4jnsgd1na2vs0mg"},{"bike_id":"82a43703-dea9-4374-8c8d-7d9d67216988","system_id":"levelo_inurba_marseille","lat":43.21197,"lon":5.35072,"is_reserved":false,"is_disabled":false,"rental_uris":{"android":"levelo://app?vid=82a43703-dea9-4374-8c8d-7d9d67216988","ios":"levelo://app?vid=82a43703-dea9-4374-8c8d-7d9d67216988"},"vehicle_type_id":"4","last_reported":1745837062,"current_range_meters":7200,"station_id":"st_cvj6sg6p6f1abm77japg","pricing_plan_id":"cebpf4jnsgd1na2vs0mg"},{"bike_id":"ae2ca624-1390-4180-a701-20506ee4d03f","system_id":"levelo_inurba_marseille","lat":43.21197,"lon":5.35048,"is_reserved":false,"is_disabled":false,"rental_uris":{"android":"levelo://app?vid=ae2ca624-1390-4180-a701-20506ee4d03f","ios":"levelo://app?vid=ae2ca624-1390-4180-a701-20506ee4d03f"},"vehicle_type_id":"4","last_reported":1745837062,"current_range_meters":7200,"station_id":"st_cvj6sg6p6f1abm77japg","pricing_plan_id":"cebpf4jnsgd1na2vs0mg"},{"bike_id":"650d7a9e-2a85-4346-862d-6eec5b96e7b5","system_id":"levelo_inurba_marseille","lat":43.249992,"lon":5.389153,"is_reserved":false,"is_disabled":false,"rental_uris":{"android":"levelo://app?vid=650d7a9e-2a85-4346-862d-6eec5b96e7b5","ios":"levelo://app?vid=650d7a9e-2a85-4346-862d-6eec5b96e7b5"},"vehicle_type_id":"4","last_reported":1745837062,"current_range_meters":8000,"station_id":"ce4bhgp2rcd13ifvqfd0","pricing_plan_id":"cebpf4jnsgd1na2vs0mg"},{"bike_id":"f42266be-5bdb-4abc-ac40-e100e8fdb14b","system_id":"levelo_inurba_marseille","lat":43.23146,"lon":5.43713,"is_reserved":false,"is_disabled":false,"rental_uris":{"android":"levelo://app?vid=f42266be-5bdb-4abc-ac40-e100e8fdb14b","ios":"levelo://app?vid=f42266be-5bdb-4abc-ac40-e100e8fdb14b"},"vehicle_type_id":"4","last_reported":1745837062,"current_range_meters":8000,"station_id":"ce4bhmp2rcd13ifvqgog","pricing_plan_id":"cebpf4jnsgd1na2vs0mg"},{"bike_id":"3895874d-1b1d-4fb7-825c-2c8432d7ccc7","system_id":"levelo_inurba_marseille","lat":43.27955,"lon":5.41026,"is_reserved":false,"is_disabled":false,"rental_uris":{"android":"levelo://app?vid=3895874d-1b1d-4fb7-825c-2c8432d7ccc7","ios":"levelo://app?vid=3895874d-1b1d-4fb7-825c-2c8432d7ccc7"},"vehicle_type_id":"4","last_reported":1745837062,"current_range_meters":8000,"station_id":"ce4bhnp2rcd13ifvqh0g","pricing_plan_id":"cebpf4jnsgd1na2vs0mg"},{"bike_id":"56a3dead-29ba-4af8-ad15-94463866f375","system_id":"levelo_inurba_marseille","lat":43.24883,"lon":5.42521,"is_reserved":false,"is_disabled":false,"rental_uris":{"android":"levelo://app?vid=56a3dead-29ba-4af8-ad15-94463866f375","ios":"levelo://app?vid=56a3dead-29ba-4af8-ad15-94463866f375"},"vehicle_type_id":"4","last_reported":1745837062,"current_range_meters":8400,"station_id":"","pricing_plan_id":"cebpf4jnsgd1na2vs0mg"},{"bike_id":"51c1adc9-7cd7-4ffb-971e-7b36309eb47d","system_id":"levelo_inurba_marseille","lat":43.31064,"lon":5.36467,"is_reserved":false,"is_disabled":false,"rental_uris":{"android":"levelo://app?vid=51c1adc9-7cd7-4ffb-971e-7b36309eb47d","ios":"levelo://app?vid=51c1adc9-7cd7-4ffb-971e-7b36309eb47d"},"vehicle_type_id":"4","last_reported":1745837062,"current_range_meters":8400,"station_id":"","pricing_plan_id":"cebpf4jnsgd1na2vs0mg"},{"bike_id":"e04a0375-0edb-4351-afdd-fc10fee2f8db","system_id":"levelo_inurba_marseille","lat":43.3361,"lon":5.41044,"is_reserved":false,"is_disabled":false,"rental_uris":{"android":"levelo://app?vid=e04a0375-0edb-4351-afdd-fc10fee2f8db","ios":"levelo://app?vid=e04a0375-0edb-4351-afdd-fc10fee2f8db"},"vehicle_type_id":"4","last_reported":1745837062,"current_range_meters":8400,"station_id":"ce4bhqh2rcd13ifvqhmg","pricing_plan_id":"cebpf4jnsgd1na2vs0mg"},{"bike_id":"3ecea0bb-69f4-44be-8f28-d70ddbbf2482","system_id":"levelo_inurba_marseille","lat":43.21201,"lon":5.35061,"is_reserved":false,"is_disabled":false,"rental_uris":{"android":"levelo://app?vid=3ecea0bb-69f4-44be-8f28-d70ddbbf2482","ios":"levelo://app?vid=3ecea0bb-69f4-44be-8f28-d70ddbbf2482"},"vehicle_type_id":"4","last_reported":1745837062,"current_range_meters":8400,"station_id":"st_cvj6sg6p6f1abm77japg","pricing_plan_id":"cebpf4jnsgd1na2vs0mg"},{"bike_id":"790cfa3d-eb53-4377-8265-6ed9faeea847","system_id":"levelo_inurba_marseille","lat":43.26021,"lon":5.41737,"is_reserved":false,"is_disabled":false,"rental_uris":{"android":"levelo://app?vid=790cfa3d-eb53-4377-8265-6ed9faeea847","ios":"levelo://app?vid=790cfa3d-eb53-4377-8265-6ed9faeea847"},"vehicle_type_id":"4","last_reported":1745837062,"current_range_meters":8800,"station_id":"","pricing_plan_id":"cebpf4jnsgd1na2vs0mg"},{"bike_id":"a4c8a335-745b-4d95-97e0-7bac3cb18549","system_id":"levelo_inurba_marseille","lat":43.2812,"lon":5.39865,"is_reserved":false,"is_disabled":false,"rental_uris":{"android":"levelo://app?vid=a4c8a335-745b-4d95-97e0-7bac3cb18549","ios":"levelo://app?vid=a4c8a335-745b-4d95-97e0-7bac3cb18549"},"vehicle_type_id":"4","last_reported":1745837062,"current_range_meters":8800,"station_id":"","pricing_plan_id":"cebpf4jnsgd1na2vs0mg"},{"bike_id":"6f47322d-c58b-4afb-88a0-37f65e725e39","system_id":"levelo_inurba_marseille","lat":43.314954,"lon":5.373027,"is_reserved":false,"is_disabled":false,"rental_uris":{"android":"levelo://app?vid=6f47322d-c58b-4afb-88a0-37f65e725e39","ios":"levelo://app?vid=6f47322d-c58b-4afb-88a0-37f65e725e39"},"vehicle_type_id":"4","last_reported":1745837062,"current_range_meters":8800,"station_id":"ce4bgt12rcd13ifvqcd0","pricing_plan_id":"cebpf4jnsgd1na2vs0mg"},{"bike_id":"0f41dbe6-9ef4-4153-90ca-923a363cd5be","system_id":"levelo_inurba_marseille","lat":43.231455,"lon":5.437189,"is_reserved":false,"is_disabled":false,"rental_uris":{"android":"levelo://app?vid=0f41dbe6-9ef4-4153-90ca-923a363cd5be","ios":"levelo://app?vid=0f41dbe6-9ef4-4153-90ca-923a363cd5be"},"vehicle_type_id":"4","last_reported":1745837062,"current_range_meters":8800,"station_id":"ce4bhmp2rcd13ifvqgog","pricing_plan_id":"cebpf4jnsgd1na2vs0mg"},{"bike_id":"4f6f9062-67f1-4e5c-bced-a7956b91025b","system_id":"levelo_inurba_marseille","lat":43.324826,"lon":5.365734,"is_reserved":false,"is_disabled":false,"rental_uris":{"android":"levelo://app?vid=4f6f9062-67f1-4e5c-bced-a7956b91025b","ios":"levelo://app?vid=4f6f9062-67f1-4e5c-bced-a7956b91025b"},"vehicle_type_id":"4","last_reported":1745837062,"current_range_meters":8800,"station_id":"ce4bhs12rcd13ifvqhvg","pricing_plan_id":"cebpf4jnsgd1na2vs0mg"},{"bike_id":"5d63572f-4985-439f-899d-072a73e72ea8","system_id":"levelo_inurba_marseille","lat":43.28941,"lon":5.36642,"is_reserved":false,"is_disabled":false,"rental_uris":{"android":"levelo://app?vid=5d63572f-4985-439f-899d-072a73e72ea8","ios":"levelo://app?vid=5d63572f-4985-439f-899d-072a73e72ea8"},"vehicle_type_id":"4","last_reported":1745837062,"current_range_meters":9200,"station_id":"ce4bhap2rcd13ifvqek0","pricing_plan_id":"cebpf4jnsgd1na2vs0mg"},{"bike_id":"7f863785-f72f-48cf-8cae-74f557391806","system_id":"levelo_inurba_marseille","lat":43.24646,"lon":5.38912,"is_reserved":false,"is_disabled":false,"rental_uris":{"android":"levelo://app?vid=7f863785-f72f-48cf-8cae-74f557391806","ios":"levelo://app?vid=7f863785-f72f-48cf-8cae-74f557391806"},"vehicle_type_id":"4","last_reported":1745837062,"current_range_meters":9200,"station_id":"ce4bhg12rcd13ifvqf60","pricing_plan_id":"cebpf4jnsgd1na2vs0mg"},{"bike_id":"e5852571-6172-4e15-ae44-66c76900275a","system_id":"levelo_inurba_marseille","lat":43.32364,"lon":5.36747,"is_reserved":false,"is_disabled":false,"rental_uris":{"android":"levelo://app?vid=e5852571-6172-4e15-ae44-66c76900275a","ios":"levelo://app?vid=e5852571-6172-4e15-ae44-66c76900275a"},"vehicle_type_id":"4","last_reported":1745837062,"current_range_meters":9200,"station_id":"ce4bhsh2rcd13ifvqi2g","pricing_plan_id":"cebpf4jnsgd1na2vs0mg"},{"bike_id":"1c0041bc-a7d2-4614-9fd7-0484169bed01","system_id":"levelo_inurba_marseille","lat":43.296033,"lon":5.38103,"is_reserved":false,"is_disabled":false,"rental_uris":{"android":"levelo://app?vid=1c0041bc-a7d2-4614-9fd7-0484169bed01","ios":"levelo://app?vid=1c0041bc-a7d2-4614-9fd7-0484169bed01"},"vehicle_type_id":"4","last_reported":1745837062,"current_range_meters":9600,"station_id":"ce4bgl12rcd13ifvqbo0","pricing_plan_id":"cebpf4jnsgd1na2vs0mg"},{"bike_id":"90c3abbe-523e-468d-bf9e-c008808c7285","system_id":"levelo_inurba_marseille","lat":43.29045,"lon":5.35905,"is_reserved":false,"is_disabled":false,"rental_uris":{"android":"levelo://app?vid=90c3abbe-523e-468d-bf9e-c008808c7285","ios":"levelo://app?vid=90c3abbe-523e-468d-bf9e-c008808c7285"},"vehicle_type_id":"4","last_reported":1745837062,"current_range_meters":9600,"station_id":"ce4bha92rcd13ifvqeg0","pricing_plan_id":"cebpf4jnsgd1na2vs0mg"},{"bike_id":"153b412e-a27c-4282-b7fe-3b0ad2bed4c5","system_id":"levelo_inurba_marseille","lat":43.32371,"lon":5.36777,"is_reserved":false,"is_disabled":false,"rental_uris":{"android":"levelo://app?vid=153b412e-a27c-4282-b7fe-3b0ad2bed4c5","ios":"levelo://app?vid=153b412e-a27c-4282-b7fe-3b0ad2bed4c5"},"vehicle_type_id":"4","last_reported":1745837062,"current_range_meters":9600,"station_id":"ce4bhsh2rcd13ifvqi2g","pricing_plan_id":"cebpf4jnsgd1na2vs0mg"},{"bike_id":"af4f0c69-e62d-4155-b1d1-a67b45271ae1","system_id":"levelo_inurba_marseille","lat":43.24741,"lon":5.4118,"is_reserved":false,"is_disabled":false,"rental_uris":{"android":"levelo://app?vid=af4f0c69-e62d-4155-b1d1-a67b45271ae1","ios":"levelo://app?vid=af4f0c69-e62d-4155-b1d1-a67b45271ae1"},"vehicle_type_id":"4","last_reported":1745837062,"current_range_meters":10000,"station_id":"","pricing_plan_id":"cebpf4jnsgd1na2vs0mg"},{"bike_id":"53e83d78-bc7f-4a9d-9711-958dfd1d562a","system_id":"levelo_inurba_marseille","lat":43.28269,"lon":5.35076,"is_reserved":false,"is_disabled":false,"rental_uris":{"android":"levelo://app?vid=53e83d78-bc7f-4a9d-9711-958dfd1d562a","ios":"levelo://app?vid=53e83d78-bc7f-4a9d-9711-958dfd1d562a"},"vehicle_type_id":"4","last_reported":1745837062,"current_range_meters":10000,"station_id":"ce4bhbp2rcd13ifvqerg","pricing_plan_id":"cebpf4jnsgd1na2vs0mg"},{"bike_id":"6fd6d493-134e-402b-a2f7-58b850f2bd3a","system_id":"levelo_inurba_marseille","lat":43.28706,"lon":5.39992,"is_reserved":false,"is_disabled":false,"rental_uris":{"android":"levelo://app?vid=6fd6d493-134e-402b-a2f7-58b850f2bd3a","ios":"levelo://app?vid=6fd6d493-134e-402b-a2f7-58b850f2bd3a"},"vehicle_type_id":"4","last_reported":1745837062,"current_range_meters":10000,"station_id":"ce4bho92rcd13ifvqh3g","pricing_plan_id":"cebpf4jnsgd1na2vs0mg"},{"bike_id":"435c9d4d-a282-425a-8e26-71f1d9c8bddb","system_id":"levelo_inurba_marseille","lat":43.26806,"lon":5.40268,"is_reserved":false,"is_disabled":false,"rental_uris":{"android":"levelo://app?vid=435c9d4d-a282-425a-8e26-71f1d9c8bddb","ios":"levelo://app?vid=435c9d4d-a282-425a-8e26-71f1d9c8bddb"},"vehicle_type_id":"4","last_reported":1745837062,"current_range_meters":10000,"station_id":"ce501612rcd8frsf0b60","pricing_plan_id":"cebpf4jnsgd1na2vs0mg"},{"bike_id":"2f651f7d-9696-4f99-956f-cc9c18b5be47","system_id":"levelo_inurba_marseille","lat":43.2968,"lon":5.37296,"is_reserved":false,"is_disabled":false,"rental_uris":{"android":"levelo://app?vid=2f651f7d-9696-4f99-956f-cc9c18b5be47","ios":"levelo://app?vid=2f651f7d-9696-4f99-956f-cc9c18b5be47"},"vehicle_type_id":"4","last_reported":1745837062,"current_range_meters":10800,"station_id":"ce4bgk12rcd13ifvqbj0","pricing_plan_id":"cebpf4jnsgd1na2vs0mg"},{"bike_id":"56b6a792-292f-4285-a546-34cfb533cae0","system_id":"levelo_inurba_marseille","lat":43.27306,"lon":5.39085,"is_reserved":false,"is_disabled":false,"rental_uris":{"android":"levelo://app?vid=56b6a792-292f-4285-a546-34cfb533cae0","ios":"levelo://app?vid=56b6a792-292f-4285-a546-34cfb533cae0"},"vehicle_type_id":"4","last_reported":1745837062,"current_range_meters":10800,"station_id":"ce4bhgp2rcd13ifvqfe0","pricing_plan_id":"cebpf4jnsgd1na2vs0mg"},{"bike_id":"be496c9c-fee6-4dd3-8745-5e29592ed83c","system_id":"levelo_inurba_marseille","lat":43.3247,"lon":5.3653,"is_reserved":false,"is_disabled":false,"rental_uris":{"android":"levelo://app?vid=be496c9c-fee6-4dd3-8745-5e29592ed83c","ios":"levelo://app?vid=be496c9c-fee6-4dd3-8745-5e29592ed83c"},"vehicle_type_id":"4","last_reported":1745837062,"current_range_meters":10800,"station_id":"ce4bhs12rcd13ifvqhvg","pricing_plan_id":"cebpf4jnsgd1na2vs0mg"},{"bike_id":"68718b75-ddda-4bca-bff2-b33167ef2d0b","system_id":"levelo_inurba_marseille","lat":43.21193,"lon":5.35076,"is_reserved":false,"is_disabled":false,"rental_uris":{"android":"levelo://app?vid=68718b75-ddda-4bca-bff2-b33167ef2d0b","ios":"levelo://app?vid=68718b75-ddda-4bca-bff2-b33167ef2d0b"},"vehicle_type_id":"4","last_reported":1745837062,"current_range_meters":10800,"station_id":"st_cvj6sg6p6f1abm77japg","pricing_plan_id":"cebpf4jnsgd1na2vs0mg"},{"bike_id":"6d371176-aac3-483a-95b7-727a7fab27c1","system_id":"levelo_inurba_marseille","lat":43.30904,"lon":5.36841,"is_reserved":false,"is_disabled":false,"rental_uris":{"android":"levelo://app?vid=6d371176-aac3-483a-95b7-727a7fab27c1","ios":"levelo://app?vid=6d371176-aac3-483a-95b7-727a7fab27c1"},"vehicle_type_id":"4","last_reported":1745837062,"current_range_meters":11200,"station_id":"ce4bgn92rcd13ifvqbvg","pricing_plan_id":"cebpf4jnsgd1na2vs0mg"},{"bike_id":"69c7c3d6-547a-4f56-950a-097daaed6494","system_id":"levelo_inurba_marseille","lat":43.30909,"lon":5.36824,"is_reserved":false,"is_disabled":false,"rental_uris":{"android":"levelo://app?vid=69c7c3d6-547a-4f56-950a-097daaed6494","ios":"levelo://app?vid=69c7c3d6-547a-4f56-950a-097daaed6494"},"vehicle_type_id":"4","last_reported":1745837062,"current_range_meters":11200,"station_id":"ce4bgn92rcd13ifvqbvg","pricing_plan_id":"cebpf4jnsgd1na2vs0mg"},{"bike_id":"0d13ccd9-d5c8-4166-8fed-89e485fc53f7","system_id":"levelo_inurba_marseille","lat":43.25105,"lon":5.40323,"is_reserved":false,"is_disabled":false,"rental_uris":{"android":"levelo://app?vid=0d13ccd9-d5c8-4166-8fed-89e485fc53f7","ios":"levelo://app?vid=0d13ccd9-d5c8-4166-8fed-89e485fc53f7"},"vehicle_type_id":"4","last_reported":1745837062,"current_range_meters":11200,"station_id":"ce4bhlh2rcd13ifvqgig","pricing_plan_id":"cebpf4jnsgd1na2vs0mg"},{"bike_id":"89928720-e33a-4ae0-b234-90090c5f6810","system_id":"levelo_inurba_marseille","lat":43.30153,"lon":5.38086,"is_reserved":false,"is_disabled":false,"rental_uris":{"android":"levelo://app?vid=89928720-e33a-4ae0-b234-90090c5f6810","ios":"levelo://app?vid=89928720-e33a-4ae0-b234-90090c5f6810"},"vehicle_type_id":"4","last_reported":1745837062,"current_range_meters":11600,"station_id":"ce4bgjp2rcd13ifvqbh0","pricing_plan_id":"cebpf4jnsgd1na2vs0mg"},{"bike_id":"466f6408-ad2d-436b-b9ce-cf6ddfdd2e8d","system_id":"levelo_inurba_marseille","lat":43.30138,"lon":5.38061,"is_reserved":false,"is_disabled":false,"rental_uris":{"android":"levelo://app?vid=466f6408-ad2d-436b-b9ce-cf6ddfdd2e8d","ios":"levelo://app?vid=466f6408-ad2d-436b-b9ce-cf6ddfdd2e8d"},"vehicle_type_id":"4","last_reported":1745837062,"current_range_meters":11600,"station_id":"ce4bgjp2rcd13ifvqbh0","pricing_plan_id":"cebpf4jnsgd1na2vs0mg"},{"bike_id":"a7a56339-930a-4dec-bf7b-e2aa5c53a05d","system_id":"levelo_inurba_marseille","lat":43.31369,"lon":5.36616,"is_reserved":false,"is_disabled":false,"rental_uris":{"android":"levelo://app?vid=a7a56339-930a-4dec-bf7b-e2aa5c53a05d","ios":"levelo://app?vid=a7a56339-930a-4dec-bf7b-e2aa5c53a05d"},"vehicle_type_id":"4","last_reported":1745837062,"current_range_meters":11600,"station_id":"ce4bgr92rcd13ifvqc6g","pricing_plan_id":"cebpf4jnsgd1na2vs0mg"},{"bike_id":"0ac8c11d-8b73-4276-9acc-59560d122ec6","system_id":"levelo_inurba_marseille","lat":43.304596,"lon":5.379069,"is_reserved":false,"is_disabled":false,"rental_uris":{"android":"levelo://app?vid=0ac8c11d-8b73-4276-9acc-59560d122ec6","ios":"levelo://app?vid=0ac8c11d-8b73-4276-9acc-59560d122ec6"},"vehicle_type_id":"4","last_reported":1745837062,"current_range_meters":11600,"station_id":"ce4bgup2rcd13ifvqcn0","pricing_plan_id":"cebpf4jnsgd1na2vs0mg"},{"bike_id":"719866fa-58f1-47cb-8033-633d00d59dd6","system_id":"levelo_inurba_marseille","lat":43.32496,"lon":5.36583,"is_reserved":false,"is_disabled":false,"rental_uris":{"android":"levelo://app?vid=719866fa-58f1-47cb-8033-633d00d59dd6","ios":"levelo://app?vid=719866fa-58f1-47cb-8033-633d00d59dd6"},"vehicle_type_id":"4","last_reported":1745837062,"current_range_meters":11600,"station_id":"ce4bhs12rcd13ifvqhvg","pricing_plan_id":"cebpf4jnsgd1na2vs0mg"},{"bike_id":"748dc265-2824-4c8a-9092-d9224448fe6d","system_id":"levelo_inurba_marseille","lat":43.31348,"lon":5.36718,"is_reserved":false,"is_disabled":false,"rental_uris":{"android":"levelo://app?vid=748dc265-2824-4c8a-9092-d9224448fe6d","ios":"levelo://app?vid=748dc265-2824-4c8a-9092-d9224448fe6d"},"vehicle_type_id":"4","last_reported":1745837062,"current_range_meters":12000,"station_id":"ce4bgr92rcd13ifvqc6g","pricing_plan_id":"cebpf4jnsgd1na2vs0mg"},{"bike_id":"8aeb03b7-5bee-4bd3-b68f-c95549ef3a0c","system_id":"levelo_inurba_marseille","lat":43.30796,"lon":5.38167,"is_reserved":false,"is_disabled":false,"rental_uris":{"android":"levelo://app?vid=8aeb03b7-5bee-4bd3-b68f-c95549ef3a0c","ios":"levelo://app?vid=8aeb03b7-5bee-4bd3-b68f-c95549ef3a0c"},"vehicle_type_id":"4","last_reported":1745837062,"current_range_meters":12000,"station_id":"ce4bgt12rcd13ifvqce0","pricing_plan_id":"cebpf4jnsgd1na2vs0mg"},{"bike_id":"90347b7e-97ff-4111-bd51-d1d72305a219","system_id":"levelo_inurba_marseille","lat":43.30454,"lon":5.37895,"is_reserved":false,"is_disabled":false,"rental_uris":{"android":"levelo://app?vid=90347b7e-97ff-4111-bd51-d1d72305a219","ios":"levelo://app?vid=90347b7e-97ff-4111-bd51-d1d72305a219"},"vehicle_type_id":"4","last_reported":1745837062,"current_range_meters":12000,"station_id":"ce4bgup2rcd13ifvqcn0","pricing_plan_id":"cebpf4jnsgd1na2vs0mg"},{"bike_id":"0e650543-6676-45a0-93f6-f170747f2c4c","system_id":"levelo_inurba_marseille","lat":43.298711,"lon":5.397406,"is_reserved":false,"is_disabled":false,"rental_uris":{"android":"levelo://app?vid=0e650543-6676-45a0-93f6-f170747f2c4c","ios":"levelo://app?vid=0e650543-6676-45a0-93f6-f170747f2c4c"},"vehicle_type_id":"4","last_reported":1745837062,"current_range_meters":12000,"station_id":"ce4bh0h2rcd13ifvqd50","pricing_plan_id":"cebpf4jnsgd1na2vs0mg"},{"bike_id":"46999c6f-2261-4dad-a0eb-a36c26686522","system_id":"levelo_inurba_marseille","lat":43.28412,"lon":5.37499,"is_reserved":false,"is_disabled":false,"rental_uris":{"android":"levelo://app?vid=46999c6f-2261-4dad-a0eb-a36c26686522","ios":"levelo://app?vid=46999c6f-2261-4dad-a0eb-a36c26686522"},"vehicle_type_id":"4","last_reported":1745837062,"current_range_meters":12000,"station_id":"ce4bh412rcd13ifvqds0","pricing_plan_id":"cebpf4jnsgd1na2vs0mg"},{"bike_id":"7e3742db-f274-4d55-89c6-06da24d6f614","system_id":"levelo_inurba_marseille","lat":43.24646,"lon":5.38889,"is_reserved":false,"is_disabled":false,"rental_uris":{"android":"levelo://app?vid=7e3742db-f274-4d55-89c6-06da24d6f614","ios":"levelo://app?vid=7e3742db-f274-4d55-89c6-06da24d6f614"},"vehicle_type_id":"4","last_reported":1745837062,"current_range_meters":12000,"station_id":"ce4bhg12rcd13ifvqf60","pricing_plan_id":"cebpf4jnsgd1na2vs0mg"},{"bike_id":"b36efa90-8621-4753-94f2-43bdfa2a35d5","system_id":"levelo_inurba_marseille","lat":43.32653,"lon":5.40985,"is_reserved":false,"is_disabled":false,"rental_uris":{"android":"levelo://app?vid=b36efa90-8621-4753-94f2-43bdfa2a35d5","ios":"levelo://app?vid=b36efa90-8621-4753-94f2-43bdfa2a35d5"},"vehicle_type_id":"4","last_reported":1745837062,"current_range_meters":12000,"station_id":"ce4bhpp2rcd13ifvqhgg","pricing_plan_id":"cebpf4jnsgd1na2vs0mg"},{"bike_id":"e8eca32c-5d2e-4994-990f-44acc4be6d8d","system_id":"levelo_inurba_marseille","lat":43.28352,"lon":5.38114,"is_reserved":false,"is_disabled":false,"rental_uris":{"android":"levelo://app?vid=e8eca32c-5d2e-4994-990f-44acc4be6d8d","ios":"levelo://app?vid=e8eca32c-5d2e-4994-990f-44acc4be6d8d"},"vehicle_type_id":"4","last_reported":1745837062,"current_range_meters":12400,"station_id":"ce4bh412rcd13ifvqdr0","pricing_plan_id":"cebpf4jnsgd1na2vs0mg"},{"bike_id":"227ca334-788d-4829-bf31-2f856c9ca09f","system_id":"levelo_inurba_marseille","lat":43.27504,"lon":5.42445,"is_reserved":false,"is_disabled":false,"rental_uris":{"android":"levelo://app?vid=227ca334-788d-4829-bf31-2f856c9ca09f","ios":"levelo://app?vid=227ca334-788d-4829-bf31-2f856c9ca09f"},"vehicle_type_id":"4","last_reported":1745837062,"current_range_meters":12400,"station_id":"ce4bhn92rcd13ifvqgrg","pricing_plan_id":"cebpf4jnsgd1na2vs0mg"},{"bike_id":"bc8b13ab-35fe-46ba-a35d-1d4f4cf26725","system_id":"levelo_inurba_marseille","lat":43.2175,"lon":5.34597,"is_reserved":false,"is_disabled":false,"rental_uris":{"android":"levelo://app?vid=bc8b13ab-35fe-46ba-a35d-1d4f4cf26725","ios":"levelo://app?vid=bc8b13ab-35fe-46ba-a35d-1d4f4cf26725"},"vehicle_type_id":"4","last_reported":1745837062,"current_range_meters":12400,"station_id":"st_cvj6r9ubvosntc0bgbag","pricing_plan_id":"cebpf4jnsgd1na2vs0mg"},{"bike_id":"e5b4b90d-e268-4de2-98f4-f6d0513f8801","system_id":"levelo_inurba_marseille","lat":43.26556,"lon":5.42202,"is_reserved":false,"is_disabled":false,"rental_uris":{"android":"levelo://app?vid=e5b4b90d-e268-4de2-98f4-f6d0513f8801","ios":"levelo://app?vid=e5b4b90d-e268-4de2-98f4-f6d0513f8801"},"vehicle_type_id":"4","last_reported":1745837062,"current_range_meters":12800,"station_id":"","pricing_plan_id":"cebpf4jnsgd1na2vs0mg"},{"bike_id":"c3d2e21f-c7f8-489a-b1fe-aa4a4a481b03","system_id":"levelo_inurba_marseille","lat":43.27173,"lon":5.40992,"is_reserved":false,"is_disabled":false,"rental_uris":{"android":"levelo://app?vid=c3d2e21f-c7f8-489a-b1fe-aa4a4a481b03","ios":"levelo://app?vid=c3d2e21f-c7f8-489a-b1fe-aa4a4a481b03"},"vehicle_type_id":"4","last_reported":1745837062,"current_range_meters":12800,"station_id":"ce4bhl12rcd13ifvqgf0","pricing_plan_id":"cebpf4jnsgd1na2vs0mg"},{"bike_id":"6bf3518e-285f-4669-b340-659cbfeecee3","system_id":"levelo_inurba_marseille","lat":43.27499,"lon":5.42449,"is_reserved":false,"is_disabled":false,"rental_uris":{"android":"levelo://app?vid=6bf3518e-285f-4669-b340-659cbfeecee3","ios":"levelo://app?vid=6bf3518e-285f-4669-b340-659cbfeecee3"},"vehicle_type_id":"4","last_reported":1745837062,"current_range_meters":12800,"station_id":"ce4bhn92rcd13ifvqgrg","pricing_plan_id":"cebpf4jnsgd1na2vs0mg"},{"bike_id":"16af3d10-9c3c-48c2-a94b-0651d4aa98dc","system_id":"levelo_inurba_marseille","lat":43.2119,"lon":5.35057,"is_reserved":false,"is_disabled":false,"rental_uris":{"android":"levelo://app?vid=16af3d10-9c3c-48c2-a94b-0651d4aa98dc","ios":"levelo://app?vid=16af3d10-9c3c-48c2-a94b-0651d4aa98dc"},"vehicle_type_id":"4","last_reported":1745837062,"current_range_meters":12800,"station_id":"st_cvj6sg6p6f1abm77japg","pricing_plan_id":"cebpf4jnsgd1na2vs0mg"},{"bike_id":"1c9ef566-1aea-49e7-bcec-4f4a90f793b7","system_id":"levelo_inurba_marseille","lat":43.239626,"lon":5.366545,"is_reserved":false,"is_disabled":false,"rental_uris":{"android":"levelo://app?vid=1c9ef566-1aea-49e7-bcec-4f4a90f793b7","ios":"levelo://app?vid=1c9ef566-1aea-49e7-bcec-4f4a90f793b7"},"vehicle_type_id":"4","last_reported":1745837062,"current_range_meters":13600,"station_id":"ce4bhi12rcd13ifvqfp0","pricing_plan_id":"cebpf4jnsgd1na2vs0mg"},{"bike_id":"457407ea-0c66-49a9-a6aa-4fe294a150a7","system_id":"levelo_inurba_marseille","lat":43.25109,"lon":5.4032,"is_reserved":false,"is_disabled":false,"rental_uris":{"android":"levelo://app?vid=457407ea-0c66-49a9-a6aa-4fe294a150a7","ios":"levelo://app?vid=457407ea-0c66-49a9-a6aa-4fe294a150a7"},"vehicle_type_id":"4","last_reported":1745837062,"current_range_meters":13600,"station_id":"ce4bhlh2rcd13ifvqgig","pricing_plan_id":"cebpf4jnsgd1na2vs0mg"},{"bike_id":"be53975d-c2a0-4e41-b5eb-c7b3aed0b16e","system_id":"levelo_inurba_marseille","lat":43.23163,"lon":5.43684,"is_reserved":false,"is_disabled":false,"rental_uris":{"android":"levelo://app?vid=be53975d-c2a0-4e41-b5eb-c7b3aed0b16e","ios":"levelo://app?vid=be53975d-c2a0-4e41-b5eb-c7b3aed0b16e"},"vehicle_type_id":"4","last_reported":1745837062,"current_range_meters":13600,"station_id":"ce4bhmp2rcd13ifvqgog","pricing_plan_id":"cebpf4jnsgd1na2vs0mg"},{"bike_id":"5f2c92e9-71ec-4260-a82c-f012965bc0d0","system_id":"levelo_inurba_marseille","lat":43.231521,"lon":5.437065,"is_reserved":false,"is_disabled":false,"rental_uris":{"android":"levelo://app?vid=5f2c92e9-71ec-4260-a82c-f012965bc0d0","ios":"levelo://app?vid=5f2c92e9-71ec-4260-a82c-f012965bc0d0"},"vehicle_type_id":"4","last_reported":1745837062,"current_range_meters":13600,"station_id":"ce4bhmp2rcd13ifvqgog","pricing_plan_id":"cebpf4jnsgd1na2vs0mg"},{"bike_id":"f8559b85-4c46-4316-84b2-80a5af39f58a","system_id":"levelo_inurba_marseille","lat":43.2175,"lon":5.34602,"is_reserved":false,"is_disabled":false,"rental_uris":{"android":"levelo://app?vid=f8559b85-4c46-4316-84b2-80a5af39f58a","ios":"levelo://app?vid=f8559b85-4c46-4316-84b2-80a5af39f58a"},"vehicle_type_id":"4","last_reported":1745837062,"current_range_meters":13600,"station_id":"st_cvj6r9ubvosntc0bgbag","pricing_plan_id":"cebpf4jnsgd1na2vs0mg"},{"bike_id":"ab4612c3-85f5-4cb4-9ce2-46373d9c1c69","system_id":"levelo_inurba_marseille","lat":43.25789,"lon":5.38583,"is_reserved":false,"is_disabled":false,"rental_uris":{"android":"levelo://app?vid=ab4612c3-85f5-4cb4-9ce2-46373d9c1c69","ios":"levelo://app?vid=ab4612c3-85f5-4cb4-9ce2-46373d9c1c69"},"vehicle_type_id":"4","last_reported":1745837062,"current_range_meters":14000,"station_id":"","pricing_plan_id":"cebpf4jnsgd1na2vs0mg"},{"bike_id":"f202635c-f432-45bb-8936-347170dc85ef","system_id":"levelo_inurba_marseille","lat":43.31498,"lon":5.37296,"is_reserved":false,"is_disabled":false,"rental_uris":{"android":"levelo://app?vid=f202635c-f432-45bb-8936-347170dc85ef","ios":"levelo://app?vid=f202635c-f432-45bb-8936-347170dc85ef"},"vehicle_type_id":"4","last_reported":1745837062,"current_range_meters":14000,"station_id":"ce4bgt12rcd13ifvqcd0","pricing_plan_id":"cebpf4jnsgd1na2vs0mg"},{"bike_id":"86c0598b-4818-471f-9a8b-081ecdc96572","system_id":"levelo_inurba_marseille","lat":43.25545,"lon":5.38268,"is_reserved":false,"is_disabled":false,"rental_uris":{"android":"levelo://app?vid=86c0598b-4818-471f-9a8b-081ecdc96572","ios":"levelo://app?vid=86c0598b-4818-471f-9a8b-081ecdc96572"},"vehicle_type_id":"4","last_reported":1745837062,"current_range_meters":14000,"station_id":"ce4bhih2rcd13ifvqfs0","pricing_plan_id":"cebpf4jnsgd1na2vs0mg"},{"bike_id":"3bee5c48-e362-4820-8acb-6b830321be74","system_id":"levelo_inurba_marseille","lat":43.23146,"lon":5.43701,"is_reserved":false,"is_disabled":false,"rental_uris":{"android":"levelo://app?vid=3bee5c48-e362-4820-8acb-6b830321be74","ios":"levelo://app?vid=3bee5c48-e362-4820-8acb-6b830321be74"},"vehicle_type_id":"4","last_reported":1745837062,"current_range_meters":14000,"station_id":"ce4bhmp2rcd13ifvqgog","pricing_plan_id":"cebpf4jnsgd1na2vs0mg"},{"bike_id":"b5767cca-0e93-4afc-aae1-18c8669860ad","system_id":"levelo_inurba_marseille","lat":43.21754,"lon":5.34603,"is_reserved":false,"is_disabled":false,"rental_uris":{"android":"levelo://app?vid=b5767cca-0e93-4afc-aae1-18c8669860ad","ios":"levelo://app?vid=b5767cca-0e93-4afc-aae1-18c8669860ad"},"vehicle_type_id":"4","last_reported":1745837062,"current_range_meters":14000,"station_id":"st_cvj6r9ubvosntc0bgbag","pricing_plan_id":"cebpf4jnsgd1na2vs0mg"},{"bike_id":"5710287a-5ce9-4766-aaab-8282d0d8bc11","system_id":"levelo_inurba_marseille","lat":43.30862,"lon":5.37113,"is_reserved":false,"is_disabled":false,"rental_uris":{"android":"levelo://app?vid=5710287a-5ce9-4766-aaab-8282d0d8bc11","ios":"levelo://app?vid=5710287a-5ce9-4766-aaab-8282d0d8bc11"},"vehicle_type_id":"4","last_reported":1745837062,"current_range_meters":14400,"station_id":"","pricing_plan_id":"cebpf4jnsgd1na2vs0mg"},{"bike_id":"1fd1e429-289e-45e7-b5ec-a3da090c8d5c","system_id":"levelo_inurba_marseille","lat":43.30152,"lon":5.3808,"is_reserved":false,"is_disabled":false,"rental_uris":{"android":"levelo://app?vid=1fd1e429-289e-45e7-b5ec-a3da090c8d5c","ios":"levelo://app?vid=1fd1e429-289e-45e7-b5ec-a3da090c8d5c"},"vehicle_type_id":"4","last_reported":1745837062,"current_range_meters":14400,"station_id":"ce4bgjp2rcd13ifvqbh0","pricing_plan_id":"cebpf4jnsgd1na2vs0mg"},{"bike_id":"bac36f70-d246-40ca-8cca-9aed2c416e51","system_id":"levelo_inurba_marseille","lat":43.31501,"lon":5.373,"is_reserved":false,"is_disabled":false,"rental_uris":{"android":"levelo://app?vid=bac36f70-d246-40ca-8cca-9aed2c416e51","ios":"levelo://app?vid=bac36f70-d246-40ca-8cca-9aed2c416e51"},"vehicle_type_id":"4","last_reported":1745837062,"current_range_meters":14400,"station_id":"ce4bgt12rcd13ifvqcd0","pricing_plan_id":"cebpf4jnsgd1na2vs0mg"},{"bike_id":"aa5ee7ca-cf05-4c7b-934c-8c587b93d7a9","system_id":"levelo_inurba_marseille","lat":43.32659,"lon":5.40998,"is_reserved":false,"is_disabled":false,"rental_uris":{"android":"levelo://app?vid=aa5ee7ca-cf05-4c7b-934c-8c587b93d7a9","ios":"levelo://app?vid=aa5ee7ca-cf05-4c7b-934c-8c587b93d7a9"},"vehicle_type_id":"4","last_reported":1745837062,"current_range_meters":14400,"station_id":"ce4bhpp2rcd13ifvqhgg","pricing_plan_id":"cebpf4jnsgd1na2vs0mg"},{"bike_id":"bc7e4f7e-7a6d-45e1-8d13-50c3fa265a5f","system_id":"levelo_inurba_marseille","lat":43.21723,"lon":5.34583,"is_reserved":false,"is_disabled":false,"rental_uris":{"android":"levelo://app?vid=bc7e4f7e-7a6d-45e1-8d13-50c3fa265a5f","ios":"levelo://app?vid=bc7e4f7e-7a6d-45e1-8d13-50c3fa265a5f"},"vehicle_type_id":"4","last_reported":1745837062,"current_range_meters":14400,"station_id":"st_cvj6r9ubvosntc0bgbag","pricing_plan_id":"cebpf4jnsgd1na2vs0mg"},{"bike_id":"c0d6e2d8-d13d-4347-9824-79ab397c2ab2","system_id":"levelo_inurba_marseille","lat":43.24659,"lon":5.38876,"is_reserved":false,"is_disabled":false,"rental_uris":{"android":"levelo://app?vid=c0d6e2d8-d13d-4347-9824-79ab397c2ab2","ios":"levelo://app?vid=c0d6e2d8-d13d-4347-9824-79ab397c2ab2"},"vehicle_type_id":"4","last_reported":1745837062,"current_range_meters":14800,"station_id":"ce4bhg12rcd13ifvqf60","pricing_plan_id":"cebpf4jnsgd1na2vs0mg"},{"bike_id":"2bb49bb4-6558-43b2-bfd6-3aeca63af260","system_id":"levelo_inurba_marseille","lat":43.25495,"lon":5.37653,"is_reserved":false,"is_disabled":false,"rental_uris":{"android":"levelo://app?vid=2bb49bb4-6558-43b2-bfd6-3aeca63af260","ios":"levelo://app?vid=2bb49bb4-6558-43b2-bfd6-3aeca63af260"},"vehicle_type_id":"4","last_reported":1745837062,"current_range_meters":14800,"station_id":"ce4bhh12rcd13ifvqff0","pricing_plan_id":"cebpf4jnsgd1na2vs0mg"},{"bike_id":"732b9749-781f-411b-b804-69d6d383cc53","system_id":"levelo_inurba_marseille","lat":43.25086,"lon":5.39525,"is_reserved":false,"is_disabled":false,"rental_uris":{"android":"levelo://app?vid=732b9749-781f-411b-b804-69d6d383cc53","ios":"levelo://app?vid=732b9749-781f-411b-b804-69d6d383cc53"},"vehicle_type_id":"4","last_reported":1745837062,"current_range_meters":14800,"station_id":"ce4bhm12rcd13ifvqgkg","pricing_plan_id":"cebpf4jnsgd1na2vs0mg"},{"bike_id":"f3e6f7ea-0b61-4cf3-825e-ef2178c4a995","system_id":"levelo_inurba_marseille","lat":43.32098,"lon":5.36793,"is_reserved":false,"is_disabled":false,"rental_uris":{"android":"levelo://app?vid=f3e6f7ea-0b61-4cf3-825e-ef2178c4a995","ios":"levelo://app?vid=f3e6f7ea-0b61-4cf3-825e-ef2178c4a995"},"vehicle_type_id":"4","last_reported":1745837062,"current_range_meters":14800,"station_id":"ce4bhrh2rcd13ifvqhug","pricing_plan_id":"cebpf4jnsgd1na2vs0mg"},{"bike_id":"22ec3646-09dc-4724-a86e-f3c2aa2b0c80","system_id":"levelo_inurba_marseille","lat":43.23154,"lon":5.43705,"is_reserved":false,"is_disabled":false,"rental_uris":{"android":"levelo://app?vid=22ec3646-09dc-4724-a86e-f3c2aa2b0c80","ios":"levelo://app?vid=22ec3646-09dc-4724-a86e-f3c2aa2b0c80"},"vehicle_type_id":"4","last_reported":1745837062,"current_range_meters":15200,"station_id":"ce4bhmp2rcd13ifvqgog","pricing_plan_id":"cebpf4jnsgd1na2vs0mg"},{"bike_id":"2e301011-885b-4cd7-89c6-b074eaf40bae","system_id":"levelo_inurba_marseille","lat":43.31488,"lon":5.37283,"is_reserved":false,"is_disabled":false,"rental_uris":{"android":"levelo://app?vid=2e301011-885b-4cd7-89c6-b074eaf40bae","ios":"levelo://app?vid=2e301011-885b-4cd7-89c6-b074eaf40bae"},"vehicle_type_id":"4","last_reported":1745837062,"current_range_meters":16000,"station_id":"ce4bgt12rcd13ifvqcd0","pricing_plan_id":"cebpf4jnsgd1na2vs0mg"},{"bike_id":"f291db04-b5f6-44bd-b05a-39ea13340d6e","system_id":"levelo_inurba_marseille","lat":43.3111,"lon":5.37761,"is_reserved":false,"is_disabled":false,"rental_uris":{"android":"levelo://app?vid=f291db04-b5f6-44bd-b05a-39ea13340d6e","ios":"levelo://app?vid=f291db04-b5f6-44bd-b05a-39ea13340d6e"},"vehicle_type_id":"4","last_reported":1745837062,"current_range_meters":16000,"station_id":"ce4bgt92rcd13ifvqcg0","pricing_plan_id":"cebpf4jnsgd1na2vs0mg"},{"bike_id":"d36e7e81-843f-4cf7-8c6b-43702c1d8eb8","system_id":"levelo_inurba_marseille","lat":43.30279,"lon":5.37713,"is_reserved":false,"is_disabled":false,"rental_uris":{"android":"levelo://app?vid=d36e7e81-843f-4cf7-8c6b-43702c1d8eb8","ios":"levelo://app?vid=d36e7e81-843f-4cf7-8c6b-43702c1d8eb8"},"vehicle_type_id":"4","last_reported":1745837062,"current_range_meters":16000,"station_id":"ce4bguh2rcd13ifvqcj0","pricing_plan_id":"cebpf4jnsgd1na2vs0mg"},{"bike_id":"6b88ae52-4470-4609-9540-2ec7e9358c2c","system_id":"levelo_inurba_marseille","lat":43.23963,"lon":5.36638,"is_reserved":false,"is_disabled":false,"rental_uris":{"android":"levelo://app?vid=6b88ae52-4470-4609-9540-2ec7e9358c2c","ios":"levelo://app?vid=6b88ae52-4470-4609-9540-2ec7e9358c2c"},"vehicle_type_id":"4","last_reported":1745837062,"current_range_meters":16000,"station_id":"ce4bhi12rcd13ifvqfp0","pricing_plan_id":"cebpf4jnsgd1na2vs0mg"},{"bike_id":"ec6e0813-3957-420e-b184-a8c06ab80d5e","system_id":"levelo_inurba_marseille","lat":43.27507,"lon":5.42453,"is_reserved":false,"is_disabled":false,"rental_uris":{"android":"levelo://app?vid=ec6e0813-3957-420e-b184-a8c06ab80d5e","ios":"levelo://app?vid=ec6e0813-3957-420e-b184-a8c06ab80d5e"},"vehicle_type_id":"4","last_reported":1745837062,"current_range_meters":16000,"station_id":"ce4bhn92rcd13ifvqgrg","pricing_plan_id":"cebpf4jnsgd1na2vs0mg"},{"bike_id":"58865173-a345-4f8d-98dd-7b190a36c52d","system_id":"levelo_inurba_marseille","lat":43.32359,"lon":5.36758,"is_reserved":false,"is_disabled":false,"rental_uris":{"android":"levelo://app?vid=58865173-a345-4f8d-98dd-7b190a36c52d","ios":"levelo://app?vid=58865173-a345-4f8d-98dd-7b190a36c52d"},"vehicle_type_id":"4","last_reported":1745837062,"current_range_meters":16000,"station_id":"ce4bhsh2rcd13ifvqi2g","pricing_plan_id":"cebpf4jnsgd1na2vs0mg"},{"bike_id":"f8f2924a-3c1c-4803-9d97-5b3d75fb0eb6","system_id":"levelo_inurba_marseille","lat":43.28147,"lon":5.42704,"is_reserved":false,"is_disabled":false,"rental_uris":{"android":"levelo://app?vid=f8f2924a-3c1c-4803-9d97-5b3d75fb0eb6","ios":"levelo://app?vid=f8f2924a-3c1c-4803-9d97-5b3d75fb0eb6"},"vehicle_type_id":"4","last_reported":1745837062,"current_range_meters":16400,"station_id":"","pricing_plan_id":"cebpf4jnsgd1na2vs0mg"},{"bike_id":"20e93102-c413-4bcd-9609-b15d7f010ca6","system_id":"levelo_inurba_marseille","lat":43.31684,"lon":5.40474,"is_reserved":false,"is_disabled":false,"rental_uris":{"android":"levelo://app?vid=20e93102-c413-4bcd-9609-b15d7f010ca6","ios":"levelo://app?vid=20e93102-c413-4bcd-9609-b15d7f010ca6"},"vehicle_type_id":"4","last_reported":1745837062,"current_range_meters":16400,"station_id":"ce4bh012rcd13ifvqd00","pricing_plan_id":"cebpf4jnsgd1na2vs0mg"},{"bike_id":"aec68e48-1826-4845-812c-b555a289adc5","system_id":"levelo_inurba_marseille","lat":43.23135,"lon":5.43711,"is_reserved":false,"is_disabled":false,"rental_uris":{"android":"levelo://app?vid=aec68e48-1826-4845-812c-b555a289adc5","ios":"levelo://app?vid=aec68e48-1826-4845-812c-b555a289adc5"},"vehicle_type_id":"4","last_reported":1745837062,"current_range_meters":16400,"station_id":"ce4bhmp2rcd13ifvqgog","pricing_plan_id":"cebpf4jnsgd1na2vs0mg"},{"bike_id":"28894e81-ede6-4351-84e3-e6b48081a345","system_id":"levelo_inurba_marseille","lat":43.33314,"lon":5.4007,"is_reserved":false,"is_disabled":false,"rental_uris":{"android":"levelo://app?vid=28894e81-ede6-4351-84e3-e6b48081a345","ios":"levelo://app?vid=28894e81-ede6-4351-84e3-e6b48081a345"},"vehicle_type_id":"4","last_reported":1745837062,"current_range_meters":16800,"station_id":"","pricing_plan_id":"cebpf4jnsgd1na2vs0mg"},{"bike_id":"85805f00-d01b-4d24-872a-b0c6b4f523d8","system_id":"levelo_inurba_marseille","lat":43.31231,"lon":5.36881,"is_reserved":false,"is_disabled":false,"rental_uris":{"android":"levelo://app?vid=85805f00-d01b-4d24-872a-b0c6b4f523d8","ios":"levelo://app?vid=85805f00-d01b-4d24-872a-b0c6b4f523d8"},"vehicle_type_id":"4","last_reported":1745837062,"current_range_meters":16800,"station_id":"ce4bgl92rcd13ifvqbq0","pricing_plan_id":"cebpf4jnsgd1na2vs0mg"},{"bike_id":"29cc6b36-65a2-4157-a9c9-013bddb90a4e","system_id":"levelo_inurba_marseille","lat":43.313472,"lon":5.36705,"is_reserved":false,"is_disabled":false,"rental_uris":{"android":"levelo://app?vid=29cc6b36-65a2-4157-a9c9-013bddb90a4e","ios":"levelo://app?vid=29cc6b36-65a2-4157-a9c9-013bddb90a4e"},"vehicle_type_id":"4","last_reported":1745837062,"current_range_meters":16800,"station_id":"ce4bgr92rcd13ifvqc6g","pricing_plan_id":"cebpf4jnsgd1na2vs0mg"},{"bike_id":"03299859-06ba-4498-8d37-c9971e4fc59c","system_id":"levelo_inurba_marseille","lat":43.30129,"lon":5.39906,"is_reserved":false,"is_disabled":false,"rental_uris":{"android":"levelo://app?vid=03299859-06ba-4498-8d37-c9971e4fc59c","ios":"levelo://app?vid=03299859-06ba-4498-8d37-c9971e4fc59c"},"vehicle_type_id":"4","last_reported":1745837062,"current_range_meters":16800,"station_id":"ce4bh0h2rcd13ifvqd40","pricing_plan_id":"cebpf4jnsgd1na2vs0mg"},{"bike_id":"428846f0-be8c-4595-bf31-adf78f30d270","system_id":"levelo_inurba_marseille","lat":43.27841,"lon":5.39214,"is_reserved":false,"is_disabled":false,"rental_uris":{"android":"levelo://app?vid=428846f0-be8c-4595-bf31-adf78f30d270","ios":"levelo://app?vid=428846f0-be8c-4595-bf31-adf78f30d270"},"vehicle_type_id":"4","last_reported":1745837062,"current_range_meters":16800,"station_id":"ce4bhjp2rcd13ifvqga0","pricing_plan_id":"cebpf4jnsgd1na2vs0mg"},{"bike_id":"7dcad94f-0e3a-43f3-a1c0-898d6c1667da","system_id":"levelo_inurba_marseille","lat":43.23182,"lon":5.39992,"is_reserved":false,"is_disabled":false,"rental_uris":{"android":"levelo://app?vid=7dcad94f-0e3a-43f3-a1c0-898d6c1667da","ios":"levelo://app?vid=7dcad94f-0e3a-43f3-a1c0-898d6c1667da"},"vehicle_type_id":"4","last_reported":1745837062,"current_range_meters":16800,"station_id":"ce4bhn12rcd13ifvqgqg","pricing_plan_id":"cebpf4jnsgd1na2vs0mg"},{"bike_id":"9f6a75f5-b970-4a7f-b19c-5a22d1d8d28c","system_id":"levelo_inurba_marseille","lat":43.3257,"lon":5.41428,"is_reserved":false,"is_disabled":false,"rental_uris":{"android":"levelo://app?vid=9f6a75f5-b970-4a7f-b19c-5a22d1d8d28c","ios":"levelo://app?vid=9f6a75f5-b970-4a7f-b19c-5a22d1d8d28c"},"vehicle_type_id":"4","last_reported":1745837062,"current_range_meters":17200,"station_id":"","pricing_plan_id":"cebpf4jnsgd1na2vs0mg"},{"bike_id":"71059f3e-c57d-4ae2-a9ec-020257c4221a","system_id":"levelo_inurba_marseille","lat":43.31229,"lon":5.36887,"is_reserved":false,"is_disabled":false,"rental_uris":{"android":"levelo://app?vid=71059f3e-c57d-4ae2-a9ec-020257c4221a","ios":"levelo://app?vid=71059f3e-c57d-4ae2-a9ec-020257c4221a"},"vehicle_type_id":"4","last_reported":1745837062,"current_range_meters":17200,"station_id":"ce4bgl92rcd13ifvqbq0","pricing_plan_id":"cebpf4jnsgd1na2vs0mg"},{"bike_id":"b81b96bf-57a4-4db3-8f31-ae4dd78c3ff0","system_id":"levelo_inurba_marseille","lat":43.28272,"lon":5.35064,"is_reserved":false,"is_disabled":false,"rental_uris":{"android":"levelo://app?vid=b81b96bf-57a4-4db3-8f31-ae4dd78c3ff0","ios":"levelo://app?vid=b81b96bf-57a4-4db3-8f31-ae4dd78c3ff0"},"vehicle_type_id":"4","last_reported":1745837062,"current_range_meters":17200,"station_id":"ce4bhbp2rcd13ifvqerg","pricing_plan_id":"cebpf4jnsgd1na2vs0mg"},{"bike_id":"b8390791-02ea-47cc-bfda-3bd1ffc50030","system_id":"levelo_inurba_marseille","lat":43.25916,"lon":5.40876,"is_reserved":false,"is_disabled":false,"rental_uris":{"android":"levelo://app?vid=b8390791-02ea-47cc-bfda-3bd1ffc50030","ios":"levelo://app?vid=b8390791-02ea-47cc-bfda-3bd1ffc50030"},"vehicle_type_id":"4","last_reported":1745837062,"current_range_meters":17200,"station_id":"ce4bhm92rcd13ifvqglg","pricing_plan_id":"cebpf4jnsgd1na2vs0mg"},{"bike_id":"234cf48e-3fa8-4bf1-84e0-a1b4379826c1","system_id":"levelo_inurba_marseille","lat":43.27513,"lon":5.42446,"is_reserved":false,"is_disabled":false,"rental_uris":{"android":"levelo://app?vid=234cf48e-3fa8-4bf1-84e0-a1b4379826c1","ios":"levelo://app?vid=234cf48e-3fa8-4bf1-84e0-a1b4379826c1"},"vehicle_type_id":"4","last_reported":1745837062,"current_range_meters":17200,"station_id":"ce4bhn92rcd13ifvqgrg","pricing_plan_id":"cebpf4jnsgd1na2vs0mg"},{"bike_id":"e7161ccd-afd5-4692-9a43-81faf3ae8118","system_id":"levelo_inurba_marseille","lat":43.30574,"lon":5.36511,"is_reserved":false,"is_disabled":false,"rental_uris":{"android":"levelo://app?vid=e7161ccd-afd5-4692-9a43-81faf3ae8118","ios":"levelo://app?vid=e7161ccd-afd5-4692-9a43-81faf3ae8118"},"vehicle_type_id":"4","last_reported":1745837062,"current_range_meters":17600,"station_id":"ce4bgs12rcd13ifvqcag","pricing_plan_id":"cebpf4jnsgd1na2vs0mg"},{"bike_id":"498fc6d6-d844-4a75-9f01-a7bb619a7e53","system_id":"levelo_inurba_marseille","lat":43.28488,"lon":5.38419,"is_reserved":false,"is_disabled":false,"rental_uris":{"android":"levelo://app?vid=498fc6d6-d844-4a75-9f01-a7bb619a7e53","ios":"levelo://app?vid=498fc6d6-d844-4a75-9f01-a7bb619a7e53"},"vehicle_type_id":"4","last_reported":1745837062,"current_range_meters":17600,"station_id":"ce4bh512rcd13ifvqe3g","pricing_plan_id":"cebpf4jnsgd1na2vs0mg"},{"bike_id":"9691f481-2e04-4dbd-8eeb-62e0fa37616c","system_id":"levelo_inurba_marseille","lat":43.25938,"lon":5.40844,"is_reserved":false,"is_disabled":false,"rental_uris":{"android":"levelo://app?vid=9691f481-2e04-4dbd-8eeb-62e0fa37616c","ios":"levelo://app?vid=9691f481-2e04-4dbd-8eeb-62e0fa37616c"},"vehicle_type_id":"4","last_reported":1745837062,"current_range_meters":17600,"station_id":"ce4bhm92rcd13ifvqglg","pricing_plan_id":"cebpf4jnsgd1na2vs0mg"},{"bike_id":"0ddb8378-4ea7-4530-823c-b3eb275d0e79","system_id":"levelo_inurba_marseille","lat":43.287004,"lon":5.399907,"is_reserved":false,"is_disabled":false,"rental_uris":{"android":"levelo://app?vid=0ddb8378-4ea7-4530-823c-b3eb275d0e79","ios":"levelo://app?vid=0ddb8378-4ea7-4530-823c-b3eb275d0e79"},"vehicle_type_id":"4","last_reported":1745837062,"current_range_meters":17600,"station_id":"ce4bho92rcd13ifvqh3g","pricing_plan_id":"cebpf4jnsgd1na2vs0mg"},{"bike_id":"489415b8-9254-45c1-b00c-e7554d56755c","system_id":"levelo_inurba_marseille","lat":43.24548,"lon":5.4121,"is_reserved":false,"is_disabled":false,"rental_uris":{"android":"levelo://app?vid=489415b8-9254-45c1-b00c-e7554d56755c","ios":"levelo://app?vid=489415b8-9254-45c1-b00c-e7554d56755c"},"vehicle_type_id":"4","last_reported":1745837062,"current_range_meters":18000,"station_id":"","pricing_plan_id":"cebpf4jnsgd1na2vs0mg"},{"bike_id":"47b342f0-4f58-46e8-b3a7-53e3b93957c0","system_id":"levelo_inurba_marseille","lat":43.298444,"lon":5.362552,"is_reserved":false,"is_disabled":false,"rental_uris":{"android":"levelo://app?vid=47b342f0-4f58-46e8-b3a7-53e3b93957c0","ios":"levelo://app?vid=47b342f0-4f58-46e8-b3a7-53e3b93957c0"},"vehicle_type_id":"4","last_reported":1745837062,"current_range_meters":18000,"station_id":"ce4bgpp2rcd13ifvqc3g","pricing_plan_id":"cebpf4jnsgd1na2vs0mg"},{"bike_id":"da5b11ba-1b24-45fb-b11f-bf47fc842f46","system_id":"levelo_inurba_marseille","lat":43.3053,"lon":5.36715,"is_reserved":false,"is_disabled":false,"rental_uris":{"android":"levelo://app?vid=da5b11ba-1b24-45fb-b11f-bf47fc842f46","ios":"levelo://app?vid=da5b11ba-1b24-45fb-b11f-bf47fc842f46"},"vehicle_type_id":"4","last_reported":1745837062,"current_range_meters":18000,"station_id":"ce4bgrp2rcd13ifvqc9g","pricing_plan_id":"cebpf4jnsgd1na2vs0mg"},{"bike_id":"1116269a-a32d-4915-8403-921d7f67e4a0","system_id":"levelo_inurba_marseille","lat":43.25945,"lon":5.40861,"is_reserved":false,"is_disabled":false,"rental_uris":{"android":"levelo://app?vid=1116269a-a32d-4915-8403-921d7f67e4a0","ios":"levelo://app?vid=1116269a-a32d-4915-8403-921d7f67e4a0"},"vehicle_type_id":"4","last_reported":1745837062,"current_range_meters":18000,"station_id":"ce4bhm92rcd13ifvqglg","pricing_plan_id":"cebpf4jnsgd1na2vs0mg"},{"bike_id":"c1691ddb-e581-4f44-82e5-e603a6e9d830","system_id":"levelo_inurba_marseille","lat":43.2318,"lon":5.43706,"is_reserved":false,"is_disabled":false,"rental_uris":{"android":"levelo://app?vid=c1691ddb-e581-4f44-82e5-e603a6e9d830","ios":"levelo://app?vid=c1691ddb-e581-4f44-82e5-e603a6e9d830"},"vehicle_type_id":"4","last_reported":1745837062,"current_range_meters":18000,"station_id":"ce4bhmp2rcd13ifvqgog","pricing_plan_id":"cebpf4jnsgd1na2vs0mg"},{"bike_id":"76d1cf43-a6ab-4195-b28e-34c5f4208dc1","system_id":"levelo_inurba_marseille","lat":43.304565,"lon":5.379079,"is_reserved":false,"is_disabled":false,"rental_uris":{"android":"levelo://app?vid=76d1cf43-a6ab-4195-b28e-34c5f4208dc1","ios":"levelo://app?vid=76d1cf43-a6ab-4195-b28e-34c5f4208dc1"},"vehicle_type_id":"4","last_reported":1745837062,"current_range_meters":18800,"station_id":"ce4bgup2rcd13ifvqcn0","pricing_plan_id":"cebpf4jnsgd1na2vs0mg"},{"bike_id":"d829190a-d04e-47fa-9628-f35e3f86242d","system_id":"levelo_inurba_marseille","lat":43.290283,"lon":5.386504,"is_reserved":false,"is_disabled":false,"rental_uris":{"android":"levelo://app?vid=d829190a-d04e-47fa-9628-f35e3f86242d","ios":"levelo://app?vid=d829190a-d04e-47fa-9628-f35e3f86242d"},"vehicle_type_id":"4","last_reported":1745837062,"current_range_meters":18800,"station_id":"ce4bh4p2rcd13ifvqe0g","pricing_plan_id":"cebpf4jnsgd1na2vs0mg"},{"bike_id":"8042b1b7-8546-4d6f-bb22-0aa3e46408e9","system_id":"levelo_inurba_marseille","lat":43.29025,"lon":5.38157,"is_reserved":false,"is_disabled":false,"rental_uris":{"android":"levelo://app?vid=8042b1b7-8546-4d6f-bb22-0aa3e46408e9","ios":"levelo://app?vid=8042b1b7-8546-4d6f-bb22-0aa3e46408e9"},"vehicle_type_id":"4","last_reported":1745837062,"current_range_meters":18800,"station_id":"ce4bh4p2rcd13ifvqe1g","pricing_plan_id":"cebpf4jnsgd1na2vs0mg"},{"bike_id":"1dc4fc8e-929a-40c7-abe5-7d17fc60f53c","system_id":"levelo_inurba_marseille","lat":43.26212,"lon":5.37442,"is_reserved":false,"is_disabled":false,"rental_uris":{"android":"levelo://app?vid=1dc4fc8e-929a-40c7-abe5-7d17fc60f53c","ios":"levelo://app?vid=1dc4fc8e-929a-40c7-abe5-7d17fc60f53c"},"vehicle_type_id":"4","last_reported":1745837062,"current_range_meters":18800,"station_id":"ce4bhgp2rcd13ifvqfc0","pricing_plan_id":"cebpf4jnsgd1na2vs0mg"},{"bike_id":"b79ad8b3-c47d-4ab9-bd7d-ce8dba96fd7a","system_id":"levelo_inurba_marseille","lat":43.2396,"lon":5.36673,"is_reserved":false,"is_disabled":false,"rental_uris":{"android":"levelo://app?vid=b79ad8b3-c47d-4ab9-bd7d-ce8dba96fd7a","ios":"levelo://app?vid=b79ad8b3-c47d-4ab9-bd7d-ce8dba96fd7a"},"vehicle_type_id":"4","last_reported":1745837062,"current_range_meters":18800,"station_id":"ce4bhi12rcd13ifvqfp0","pricing_plan_id":"cebpf4jnsgd1na2vs0mg"},{"bike_id":"387a6b71-1a87-487f-aa39-06ce84c75d15","system_id":"levelo_inurba_marseille","lat":43.27479,"lon":5.42453,"is_reserved":false,"is_disabled":false,"rental_uris":{"android":"levelo://app?vid=387a6b71-1a87-487f-aa39-06ce84c75d15","ios":"levelo://app?vid=387a6b71-1a87-487f-aa39-06ce84c75d15"},"vehicle_type_id":"4","last_reported":1745837062,"current_range_meters":18800,"station_id":"ce4bhn92rcd13ifvqgrg","pricing_plan_id":"cebpf4jnsgd1na2vs0mg"},{"bike_id":"e82df68e-5061-4731-9a4b-eb95d2ce3c90","system_id":"levelo_inurba_marseille","lat":43.29971,"lon":5.3718,"is_reserved":false,"is_disabled":false,"rental_uris":{"android":"levelo://app?vid=e82df68e-5061-4731-9a4b-eb95d2ce3c90","ios":"levelo://app?vid=e82df68e-5061-4731-9a4b-eb95d2ce3c90"},"vehicle_type_id":"4","last_reported":1745837062,"current_range_meters":19200,"station_id":"ce4bgr92rcd13ifvqc7g","pricing_plan_id":"cebpf4jnsgd1na2vs0mg"},{"bike_id":"6ecc9699-5780-4576-8470-7ef2cd7cea36","system_id":"levelo_inurba_marseille","lat":43.2835,"lon":5.381,"is_reserved":false,"is_disabled":false,"rental_uris":{"android":"levelo://app?vid=6ecc9699-5780-4576-8470-7ef2cd7cea36","ios":"levelo://app?vid=6ecc9699-5780-4576-8470-7ef2cd7cea36"},"vehicle_type_id":"4","last_reported":1745837062,"current_range_meters":19200,"station_id":"ce4bh412rcd13ifvqdr0","pricing_plan_id":"cebpf4jnsgd1na2vs0mg"},{"bike_id":"abeff63a-73d2-4275-96ad-74b8e1b845dd","system_id":"levelo_inurba_marseille","lat":43.292422,"lon":5.360308,"is_reserved":false,"is_disabled":false,"rental_uris":{"android":"levelo://app?vid=abeff63a-73d2-4275-96ad-74b8e1b845dd","ios":"levelo://app?vid=abeff63a-73d2-4275-96ad-74b8e1b845dd"},"vehicle_type_id":"4","last_reported":1745837062,"current_range_meters":19200,"station_id":"ce4bhbh2rcd13ifvqeqg","pricing_plan_id":"cebpf4jnsgd1na2vs0mg"},{"bike_id":"d130208d-3492-4659-a1ec-979c5abad431","system_id":"levelo_inurba_marseille","lat":43.26216,"lon":5.37929,"is_reserved":false,"is_disabled":false,"rental_uris":{"android":"levelo://app?vid=d130208d-3492-4659-a1ec-979c5abad431","ios":"levelo://app?vid=d130208d-3492-4659-a1ec-979c5abad431"},"vehicle_type_id":"4","last_reported":1745837062,"current_range_meters":19200,"station_id":"ce4bhjp2rcd13ifvqg90","pricing_plan_id":"cebpf4jnsgd1na2vs0mg"},{"bike_id":"0f9bf8e6-27a1-4e1c-adb9-036c58dec009","system_id":"levelo_inurba_marseille","lat":43.27954,"lon":5.41033,"is_reserved":false,"is_disabled":false,"rental_uris":{"android":"levelo://app?vid=0f9bf8e6-27a1-4e1c-adb9-036c58dec009","ios":"levelo://app?vid=0f9bf8e6-27a1-4e1c-adb9-036c58dec009"},"vehicle_type_id":"4","last_reported":1745837062,"current_range_meters":19200,"station_id":"ce4bhnp2rcd13ifvqh0g","pricing_plan_id":"cebpf4jnsgd1na2vs0mg"},{"bike_id":"3c198dd3-4601-4b4e-9a9c-1ea7d8d093b1","system_id":"levelo_inurba_marseille","lat":43.23193,"lon":5.35553,"is_reserved":false,"is_disabled":false,"rental_uris":{"android":"levelo://app?vid=3c198dd3-4601-4b4e-9a9c-1ea7d8d093b1","ios":"levelo://app?vid=3c198dd3-4601-4b4e-9a9c-1ea7d8d093b1"},"vehicle_type_id":"4","last_reported":1745837062,"current_range_meters":19200,"station_id":"ce4bhu92rcd13ifvqi70","pricing_plan_id":"cebpf4jnsgd1na2vs0mg"},{"bike_id":"683f93fc-6236-42f2-97f8-619442970a09","system_id":"levelo_inurba_marseille","lat":43.3019,"lon":5.36617,"is_reserved":false,"is_disabled":false,"rental_uris":{"android":"levelo://app?vid=683f93fc-6236-42f2-97f8-619442970a09","ios":"levelo://app?vid=683f93fc-6236-42f2-97f8-619442970a09"},"vehicle_type_id":"4","last_reported":1745837062,"current_range_meters":19600,"station_id":"ce4bgrh2rcd13ifvqc8g","pricing_plan_id":"cebpf4jnsgd1na2vs0mg"},{"bike_id":"b03b5a9b-26ba-4263-b3c7-79c555f133f5","system_id":"levelo_inurba_marseille","lat":43.239628,"lon":5.36623,"is_reserved":false,"is_disabled":false,"rental_uris":{"android":"levelo://app?vid=b03b5a9b-26ba-4263-b3c7-79c555f133f5","ios":"levelo://app?vid=b03b5a9b-26ba-4263-b3c7-79c555f133f5"},"vehicle_type_id":"4","last_reported":1745837062,"current_range_meters":19600,"station_id":"ce4bhi12rcd13ifvqfp0","pricing_plan_id":"cebpf4jnsgd1na2vs0mg"},{"bike_id":"839c7799-2548-405a-a7f6-99a1a7ec0549","system_id":"levelo_inurba_marseille","lat":43.29897,"lon":5.43666,"is_reserved":false,"is_disabled":false,"rental_uris":{"android":"levelo://app?vid=839c7799-2548-405a-a7f6-99a1a7ec0549","ios":"levelo://app?vid=839c7799-2548-405a-a7f6-99a1a7ec0549"},"vehicle_type_id":"4","last_reported":1745837062,"current_range_meters":19600,"station_id":"ce4bhpp2rcd13ifvqhfg","pricing_plan_id":"cebpf4jnsgd1na2vs0mg"},{"bike_id":"ee624db8-1833-46d6-9224-b3b7b9eea276","system_id":"levelo_inurba_marseille","lat":43.33718,"lon":5.39199,"is_reserved":false,"is_disabled":false,"rental_uris":{"android":"levelo://app?vid=ee624db8-1833-46d6-9224-b3b7b9eea276","ios":"levelo://app?vid=ee624db8-1833-46d6-9224-b3b7b9eea276"},"vehicle_type_id":"4","last_reported":1745837062,"current_range_meters":19600,"station_id":"ce4bhr92rcd13ifvqhsg","pricing_plan_id":"cebpf4jnsgd1na2vs0mg"},{"bike_id":"a990f424-b727-4c59-a50a-2df309014924","system_id":"levelo_inurba_marseille","lat":43.32113,"lon":5.36782,"is_reserved":false,"is_disabled":false,"rental_uris":{"android":"levelo://app?vid=a990f424-b727-4c59-a50a-2df309014924","ios":"levelo://app?vid=a990f424-b727-4c59-a50a-2df309014924"},"vehicle_type_id":"4","last_reported":1745837062,"current_range_meters":19600,"station_id":"ce4bhrh2rcd13ifvqhug","pricing_plan_id":"cebpf4jnsgd1na2vs0mg"},{"bike_id":"824bc5f1-7b43-4a9e-9cb4-7558b39b171a","system_id":"levelo_inurba_marseille","lat":43.30913,"lon":5.37104,"is_reserved":false,"is_disabled":false,"rental_uris":{"android":"levelo://app?vid=824bc5f1-7b43-4a9e-9cb4-7558b39b171a","ios":"levelo://app?vid=824bc5f1-7b43-4a9e-9cb4-7558b39b171a"},"vehicle_type_id":"4","last_reported":1745837062,"current_range_meters":20000,"station_id":"","pricing_plan_id":"cebpf4jnsgd1na2vs0mg"},{"bike_id":"22a650e2-af69-41e5-9501-328ced12ea90","system_id":"levelo_inurba_marseille","lat":43.27651,"lon":5.42203,"is_reserved":false,"is_disabled":false,"rental_uris":{"android":"levelo://app?vid=22a650e2-af69-41e5-9501-328ced12ea90","ios":"levelo://app?vid=22a650e2-af69-41e5-9501-328ced12ea90"},"vehicle_type_id":"4","last_reported":1745837062,"current_range_meters":20000,"station_id":"","pricing_plan_id":"cebpf4jnsgd1na2vs0mg"},{"bike_id":"919aaa37-dd9e-42b0-9b39-3ff79ba2dd94","system_id":"levelo_inurba_marseille","lat":43.29982,"lon":5.37178,"is_reserved":false,"is_disabled":false,"rental_uris":{"android":"levelo://app?vid=919aaa37-dd9e-42b0-9b39-3ff79ba2dd94","ios":"levelo://app?vid=919aaa37-dd9e-42b0-9b39-3ff79ba2dd94"},"vehicle_type_id":"4","last_reported":1745837062,"current_range_meters":20000,"station_id":"ce4bgr92rcd13ifvqc7g","pricing_plan_id":"cebpf4jnsgd1na2vs0mg"},{"bike_id":"448e38b2-599b-4efb-8a57-4e903d1b2586","system_id":"levelo_inurba_marseille","lat":43.27943,"lon":5.41041,"is_reserved":false,"is_disabled":false,"rental_uris":{"android":"levelo://app?vid=448e38b2-599b-4efb-8a57-4e903d1b2586","ios":"levelo://app?vid=448e38b2-599b-4efb-8a57-4e903d1b2586"},"vehicle_type_id":"4","last_reported":1745837062,"current_range_meters":20000,"station_id":"ce4bhnp2rcd13ifvqh0g","pricing_plan_id":"cebpf4jnsgd1na2vs0mg"},{"bike_id":"12a6663d-0d54-4fbe-947a-373e72560f14","system_id":"levelo_inurba_marseille","lat":43.27938,"lon":5.41049,"is_reserved":false,"is_disabled":false,"rental_uris":{"android":"levelo://app?vid=12a6663d-0d54-4fbe-947a-373e72560f14","ios":"levelo://app?vid=12a6663d-0d54-4fbe-947a-373e72560f14"},"vehicle_type_id":"4","last_reported":1745837062,"current_range_meters":20000,"station_id":"ce4bhnp2rcd13ifvqh0g","pricing_plan_id":"cebpf4jnsgd1na2vs0mg"},{"bike_id":"d80c0066-5acb-4360-a284-039e6be53b44","system_id":"levelo_inurba_marseille","lat":43.28076,"lon":5.39644,"is_reserved":false,"is_disabled":false,"rental_uris":{"android":"levelo://app?vid=d80c0066-5acb-4360-a284-039e6be53b44","ios":"levelo://app?vid=d80c0066-5acb-4360-a284-039e6be53b44"},"vehicle_type_id":"4","last_reported":1745837062,"current_range_meters":20000,"station_id":"ce4bho12rcd13ifvqh2g","pricing_plan_id":"cebpf4jnsgd1na2vs0mg"},{"bike_id":"bec2efc9-6128-40e6-ab69-bcc70a0e7cb1","system_id":"levelo_inurba_marseille","lat":43.304596,"lon":5.379094,"is_reserved":false,"is_disabled":false,"rental_uris":{"android":"levelo://app?vid=bec2efc9-6128-40e6-ab69-bcc70a0e7cb1","ios":"levelo://app?vid=bec2efc9-6128-40e6-ab69-bcc70a0e7cb1"},"vehicle_type_id":"4","last_reported":1745837062,"current_range_meters":20400,"station_id":"","pricing_plan_id":"cebpf4jnsgd1na2vs0mg"},{"bike_id":"03f81684-fd62-4522-b9c2-5d9d7930669d","system_id":"levelo_inurba_marseille","lat":43.29978,"lon":5.3718,"is_reserved":false,"is_disabled":false,"rental_uris":{"android":"levelo://app?vid=03f81684-fd62-4522-b9c2-5d9d7930669d","ios":"levelo://app?vid=03f81684-fd62-4522-b9c2-5d9d7930669d"},"vehicle_type_id":"4","last_reported":1745837062,"current_range_meters":20400,"station_id":"ce4bgr92rcd13ifvqc7g","pricing_plan_id":"cebpf4jnsgd1na2vs0mg"},{"bike_id":"82fe774f-ce76-4762-80db-902c9cfe05c8","system_id":"levelo_inurba_marseille","lat":43.29527,"lon":5.39041,"is_reserved":false,"is_disabled":false,"rental_uris":{"android":"levelo://app?vid=82fe774f-ce76-4762-80db-902c9cfe05c8","ios":"levelo://app?vid=82fe774f-ce76-4762-80db-902c9cfe05c8"},"vehicle_type_id":"4","last_reported":1745837062,"current_range_meters":20400,"station_id":"ce4bh3p2rcd13ifvqdp0","pricing_plan_id":"cebpf4jnsgd1na2vs0mg"},{"bike_id":"490b9744-204a-49a5-aded-29040fd875e2","system_id":"levelo_inurba_marseille","lat":43.28452,"lon":5.35878,"is_reserved":false,"is_disabled":false,"rental_uris":{"android":"levelo://app?vid=490b9744-204a-49a5-aded-29040fd875e2","ios":"levelo://app?vid=490b9744-204a-49a5-aded-29040fd875e2"},"vehicle_type_id":"4","last_reported":1745837062,"current_range_meters":20400,"station_id":"ce4bhah2rcd13ifvqei0","pricing_plan_id":"cebpf4jnsgd1na2vs0mg"},{"bike_id":"02ce4ffc-507f-4802-bc1b-a8e3a6bdc798","system_id":"levelo_inurba_marseille","lat":43.33603,"lon":5.410327,"is_reserved":false,"is_disabled":false,"rental_uris":{"android":"levelo://app?vid=02ce4ffc-507f-4802-bc1b-a8e3a6bdc798","ios":"levelo://app?vid=02ce4ffc-507f-4802-bc1b-a8e3a6bdc798"},"vehicle_type_id":"4","last_reported":1745837062,"current_range_meters":20400,"station_id":"ce4bhqh2rcd13ifvqhmg","pricing_plan_id":"cebpf4jnsgd1na2vs0mg"},{"bike_id":"64191783-ed9f-4c27-8a03-122e82563278","system_id":"levelo_inurba_marseille","lat":43.32301,"lon":5.36698,"is_reserved":false,"is_disabled":false,"rental_uris":{"android":"levelo://app?vid=64191783-ed9f-4c27-8a03-122e82563278","ios":"levelo://app?vid=64191783-ed9f-4c27-8a03-122e82563278"},"vehicle_type_id":"4","last_reported":1745837062,"current_range_meters":20400,"station_id":"ce4bhsh2rcd13ifvqi2g","pricing_plan_id":"cebpf4jnsgd1na2vs0mg"},{"bike_id":"b3717973-786a-436d-a301-6d02bf52800e","system_id":"levelo_inurba_marseille","lat":43.24666,"lon":5.38171,"is_reserved":false,"is_disabled":false,"rental_uris":{"android":"levelo://app?vid=b3717973-786a-436d-a301-6d02bf52800e","ios":"levelo://app?vid=b3717973-786a-436d-a301-6d02bf52800e"},"vehicle_type_id":"4","last_reported":1745837062,"current_range_meters":20800,"station_id":"ce4bhih2rcd13ifvqfr0","pricing_plan_id":"cebpf4jnsgd1na2vs0mg"},{"bike_id":"7cac85ab-5336-4ecb-a87b-28248930414b","system_id":"levelo_inurba_marseille","lat":43.23156,"lon":5.4371,"is_reserved":false,"is_disabled":false,"rental_uris":{"android":"levelo://app?vid=7cac85ab-5336-4ecb-a87b-28248930414b","ios":"levelo://app?vid=7cac85ab-5336-4ecb-a87b-28248930414b"},"vehicle_type_id":"4","last_reported":1745837062,"current_range_meters":20800,"station_id":"ce4bhmp2rcd13ifvqgog","pricing_plan_id":"cebpf4jnsgd1na2vs0mg"},{"bike_id":"90479ac8-8d10-4e51-a2e6-e82d47c4d0e1","system_id":"levelo_inurba_marseille","lat":43.24185,"lon":5.39714,"is_reserved":false,"is_disabled":false,"rental_uris":{"android":"levelo://app?vid=90479ac8-8d10-4e51-a2e6-e82d47c4d0e1","ios":"levelo://app?vid=90479ac8-8d10-4e51-a2e6-e82d47c4d0e1"},"vehicle_type_id":"4","last_reported":1745837062,"current_range_meters":20800,"station_id":"ce4bhn12rcd13ifvqgpg","pricing_plan_id":"cebpf4jnsgd1na2vs0mg"},{"bike_id":"28c8eefd-8686-40fa-9e4f-1c8bacaec5b0","system_id":"levelo_inurba_marseille","lat":43.27806,"lon":5.40714,"is_reserved":false,"is_disabled":false,"rental_uris":{"android":"levelo://app?vid=28c8eefd-8686-40fa-9e4f-1c8bacaec5b0","ios":"levelo://app?vid=28c8eefd-8686-40fa-9e4f-1c8bacaec5b0"},"vehicle_type_id":"4","last_reported":1745837062,"current_range_meters":20800,"station_id":"ce4bhnh2rcd13ifvqgtg","pricing_plan_id":"cebpf4jnsgd1na2vs0mg"},{"bike_id":"5ad0c737-3bfe-483f-a394-73b7c3dc7ada","system_id":"levelo_inurba_marseille","lat":43.30149,"lon":5.38081,"is_reserved":false,"is_disabled":false,"rental_uris":{"android":"levelo://app?vid=5ad0c737-3bfe-483f-a394-73b7c3dc7ada","ios":"levelo://app?vid=5ad0c737-3bfe-483f-a394-73b7c3dc7ada"},"vehicle_type_id":"4","last_reported":1745837062,"current_range_meters":21600,"station_id":"ce4bgjp2rcd13ifvqbh0","pricing_plan_id":"cebpf4jnsgd1na2vs0mg"},{"bike_id":"310bb477-a970-4673-afeb-91763474ba72","system_id":"levelo_inurba_marseille","lat":43.30921,"lon":5.36844,"is_reserved":false,"is_disabled":false,"rental_uris":{"android":"levelo://app?vid=310bb477-a970-4673-afeb-91763474ba72","ios":"levelo://app?vid=310bb477-a970-4673-afeb-91763474ba72"},"vehicle_type_id":"4","last_reported":1745837062,"current_range_meters":21600,"station_id":"ce4bgn92rcd13ifvqbvg","pricing_plan_id":"cebpf4jnsgd1na2vs0mg"},{"bike_id":"953eea7c-1ace-49f3-ad2f-ec47702bd84a","system_id":"levelo_inurba_marseille","lat":43.23962,"lon":5.36619,"is_reserved":false,"is_disabled":false,"rental_uris":{"android":"levelo://app?vid=953eea7c-1ace-49f3-ad2f-ec47702bd84a","ios":"levelo://app?vid=953eea7c-1ace-49f3-ad2f-ec47702bd84a"},"vehicle_type_id":"4","last_reported":1745837062,"current_range_meters":21600,"station_id":"ce4bhi12rcd13ifvqfp0","pricing_plan_id":"cebpf4jnsgd1na2vs0mg"},{"bike_id":"b3842733-02fa-4c3a-aaea-5567ceed6506","system_id":"levelo_inurba_marseille","lat":43.29524,"lon":5.3749,"is_reserved":false,"is_disabled":false,"rental_uris":{"android":"levelo://app?vid=b3842733-02fa-4c3a-aaea-5567ceed6506","ios":"levelo://app?vid=b3842733-02fa-4c3a-aaea-5567ceed6506"},"vehicle_type_id":"4","last_reported":1745837062,"current_range_meters":22000,"station_id":"ce4bgkp2rcd13ifvqbmg","pricing_plan_id":"cebpf4jnsgd1na2vs0mg"},{"bike_id":"0a2a1132-06e0-4edd-9537-f95f73195286","system_id":"levelo_inurba_marseille","lat":43.30184,"lon":5.36618,"is_reserved":false,"is_disabled":false,"rental_uris":{"android":"levelo://app?vid=0a2a1132-06e0-4edd-9537-f95f73195286","ios":"levelo://app?vid=0a2a1132-06e0-4edd-9537-f95f73195286"},"vehicle_type_id":"4","last_reported":1745837062,"current_range_meters":22000,"station_id":"ce4bgrh2rcd13ifvqc8g","pricing_plan_id":"cebpf4jnsgd1na2vs0mg"},{"bike_id":"549e900c-3e72-4906-a6be-0480ebde8ffc","system_id":"levelo_inurba_marseille","lat":43.3035,"lon":5.41871,"is_reserved":false,"is_disabled":false,"rental_uris":{"android":"levelo://app?vid=549e900c-3e72-4906-a6be-0480ebde8ffc","ios":"levelo://app?vid=549e900c-3e72-4906-a6be-0480ebde8ffc"},"vehicle_type_id":"4","last_reported":1745837062,"current_range_meters":22000,"station_id":"ce4bhop2rcd13ifvqh7g","pricing_plan_id":"cebpf4jnsgd1na2vs0mg"},{"bike_id":"6753eecb-7d97-4416-a820-c42c9398c3ce","system_id":"levelo_inurba_marseille","lat":43.33609,"lon":5.41024,"is_reserved":false,"is_disabled":false,"rental_uris":{"android":"levelo://app?vid=6753eecb-7d97-4416-a820-c42c9398c3ce","ios":"levelo://app?vid=6753eecb-7d97-4416-a820-c42c9398c3ce"},"vehicle_type_id":"4","last_reported":1745837062,"current_range_meters":22000,"station_id":"ce4bhqh2rcd13ifvqhmg","pricing_plan_id":"cebpf4jnsgd1na2vs0mg"},{"bike_id":"9048a988-1cb8-4aa3-ab23-aeb571c1efe3","system_id":"levelo_inurba_marseille","lat":43.24158,"lon":5.3639,"is_reserved":false,"is_disabled":false,"rental_uris":{"android":"levelo://app?vid=9048a988-1cb8-4aa3-ab23-aeb571c1efe3","ios":"levelo://app?vid=9048a988-1cb8-4aa3-ab23-aeb571c1efe3"},"vehicle_type_id":"4","last_reported":1745837062,"current_range_meters":22000,"station_id":"cpo36qri1sfpv3e86is0","pricing_plan_id":"cebpf4jnsgd1na2vs0mg"},{"bike_id":"40a6ef5e-8d13-4ef4-bc31-5def185fa671","system_id":"levelo_inurba_marseille","lat":43.30911,"lon":5.36848,"is_reserved":false,"is_disabled":false,"rental_uris":{"android":"levelo://app?vid=40a6ef5e-8d13-4ef4-bc31-5def185fa671","ios":"levelo://app?vid=40a6ef5e-8d13-4ef4-bc31-5def185fa671"},"vehicle_type_id":"4","last_reported":1745837062,"current_range_meters":22400,"station_id":"ce4bgn92rcd13ifvqbvg","pricing_plan_id":"cebpf4jnsgd1na2vs0mg"},{"bike_id":"614acf72-bf4e-446f-b324-8fb5cce61214","system_id":"levelo_inurba_marseille","lat":43.25909,"lon":5.40876,"is_reserved":false,"is_disabled":false,"rental_uris":{"android":"levelo://app?vid=614acf72-bf4e-446f-b324-8fb5cce61214","ios":"levelo://app?vid=614acf72-bf4e-446f-b324-8fb5cce61214"},"vehicle_type_id":"4","last_reported":1745837062,"current_range_meters":22400,"station_id":"ce4bhm92rcd13ifvqglg","pricing_plan_id":"cebpf4jnsgd1na2vs0mg"},{"bike_id":"aa4e23a3-d857-497d-b49d-75994f0ef3b6","system_id":"levelo_inurba_marseille","lat":43.23188,"lon":5.39988,"is_reserved":false,"is_disabled":false,"rental_uris":{"android":"levelo://app?vid=aa4e23a3-d857-497d-b49d-75994f0ef3b6","ios":"levelo://app?vid=aa4e23a3-d857-497d-b49d-75994f0ef3b6"},"vehicle_type_id":"4","last_reported":1745837062,"current_range_meters":22400,"station_id":"ce4bhn12rcd13ifvqgqg","pricing_plan_id":"cebpf4jnsgd1na2vs0mg"},{"bike_id":"dcc08f6b-7d0d-4aea-b64d-65a4601fe8c4","system_id":"levelo_inurba_marseille","lat":43.275062,"lon":5.424535,"is_reserved":false,"is_disabled":false,"rental_uris":{"android":"levelo://app?vid=dcc08f6b-7d0d-4aea-b64d-65a4601fe8c4","ios":"levelo://app?vid=dcc08f6b-7d0d-4aea-b64d-65a4601fe8c4"},"vehicle_type_id":"4","last_reported":1745837062,"current_range_meters":22400,"station_id":"ce4bhn92rcd13ifvqgrg","pricing_plan_id":"cebpf4jnsgd1na2vs0mg"},{"bike_id":"3796228c-1d83-4a1f-8cb2-c1eb9d9e8fec","system_id":"levelo_inurba_marseille","lat":43.279388,"lon":5.410508,"is_reserved":false,"is_disabled":false,"rental_uris":{"android":"levelo://app?vid=3796228c-1d83-4a1f-8cb2-c1eb9d9e8fec","ios":"levelo://app?vid=3796228c-1d83-4a1f-8cb2-c1eb9d9e8fec"},"vehicle_type_id":"4","last_reported":1745837062,"current_range_meters":22400,"station_id":"ce4bhnp2rcd13ifvqh0g","pricing_plan_id":"cebpf4jnsgd1na2vs0mg"},{"bike_id":"5bd7dcef-0e51-42c7-a571-c755e8bf69db","system_id":"levelo_inurba_marseille","lat":43.27939,"lon":5.41048,"is_reserved":false,"is_disabled":false,"rental_uris":{"android":"levelo://app?vid=5bd7dcef-0e51-42c7-a571-c755e8bf69db","ios":"levelo://app?vid=5bd7dcef-0e51-42c7-a571-c755e8bf69db"},"vehicle_type_id":"4","last_reported":1745837062,"current_range_meters":22400,"station_id":"ce4bhnp2rcd13ifvqh0g","pricing_plan_id":"cebpf4jnsgd1na2vs0mg"},{"bike_id":"f521556a-165e-4fb9-93ab-687fc4294680","system_id":"levelo_inurba_marseille","lat":43.29986,"lon":5.37191,"is_reserved":false,"is_disabled":false,"rental_uris":{"android":"levelo://app?vid=f521556a-165e-4fb9-93ab-687fc4294680","ios":"levelo://app?vid=f521556a-165e-4fb9-93ab-687fc4294680"},"vehicle_type_id":"4","last_reported":1745837062,"current_range_meters":22800,"station_id":"ce4bgr92rcd13ifvqc7g","pricing_plan_id":"cebpf4jnsgd1na2vs0mg"},{"bike_id":"035cdc5a-c646-4c28-82dc-a8991c21d159","system_id":"levelo_inurba_marseille","lat":43.31489,"lon":5.37303,"is_reserved":false,"is_disabled":false,"rental_uris":{"android":"levelo://app?vid=035cdc5a-c646-4c28-82dc-a8991c21d159","ios":"levelo://app?vid=035cdc5a-c646-4c28-82dc-a8991c21d159"},"vehicle_type_id":"4","last_reported":1745837062,"current_range_meters":22800,"station_id":"ce4bgt12rcd13ifvqcd0","pricing_plan_id":"cebpf4jnsgd1na2vs0mg"},{"bike_id":"a21b2aa7-fe8a-4333-b246-4ef0e19bdbb5","system_id":"levelo_inurba_marseille","lat":43.3133,"lon":5.39691,"is_reserved":false,"is_disabled":false,"rental_uris":{"android":"levelo://app?vid=a21b2aa7-fe8a-4333-b246-4ef0e19bdbb5","ios":"levelo://app?vid=a21b2aa7-fe8a-4333-b246-4ef0e19bdbb5"},"vehicle_type_id":"4","last_reported":1745837062,"current_range_meters":22800,"station_id":"ce4bgvp2rcd13ifvqcu0","pricing_plan_id":"cebpf4jnsgd1na2vs0mg"},{"bike_id":"b8aa1b9f-bc14-4ca4-b744-a36102b31360","system_id":"levelo_inurba_marseille","lat":43.29103,"lon":5.38142,"is_reserved":false,"is_disabled":false,"rental_uris":{"android":"levelo://app?vid=b8aa1b9f-bc14-4ca4-b744-a36102b31360","ios":"levelo://app?vid=b8aa1b9f-bc14-4ca4-b744-a36102b31360"},"vehicle_type_id":"4","last_reported":1745837062,"current_range_meters":22800,"station_id":"ce4bh512rcd13ifvqe2g","pricing_plan_id":"cebpf4jnsgd1na2vs0mg"},{"bike_id":"ff111d7b-6da2-4020-b5af-1e042cf32dec","system_id":"levelo_inurba_marseille","lat":43.2439,"lon":5.37061,"is_reserved":false,"is_disabled":false,"rental_uris":{"android":"levelo://app?vid=ff111d7b-6da2-4020-b5af-1e042cf32dec","ios":"levelo://app?vid=ff111d7b-6da2-4020-b5af-1e042cf32dec"},"vehicle_type_id":"4","last_reported":1745837062,"current_range_meters":22800,"station_id":"ce4bhhh2rcd13ifvqfk0","pricing_plan_id":"cebpf4jnsgd1na2vs0mg"},{"bike_id":"9bf71197-07d3-499e-a431-c33ff22da08d","system_id":"levelo_inurba_marseille","lat":43.27499,"lon":5.42455,"is_reserved":false,"is_disabled":false,"rental_uris":{"android":"levelo://app?vid=9bf71197-07d3-499e-a431-c33ff22da08d","ios":"levelo://app?vid=9bf71197-07d3-499e-a431-c33ff22da08d"},"vehicle_type_id":"4","last_reported":1745837062,"current_range_meters":22800,"station_id":"ce4bhn92rcd13ifvqgrg","pricing_plan_id":"cebpf4jnsgd1na2vs0mg"},{"bike_id":"14156387-e351-49be-91dd-330aae2604d0","system_id":"levelo_inurba_marseille","lat":43.2175,"lon":5.34602,"is_reserved":false,"is_disabled":false,"rental_uris":{"android":"levelo://app?vid=14156387-e351-49be-91dd-330aae2604d0","ios":"levelo://app?vid=14156387-e351-49be-91dd-330aae2604d0"},"vehicle_type_id":"4","last_reported":1745837062,"current_range_meters":22800,"station_id":"st_cvj6r9ubvosntc0bgbag","pricing_plan_id":"cebpf4jnsgd1na2vs0mg"},{"bike_id":"4d6cc11d-0743-49c5-968a-00141cfe9f70","system_id":"levelo_inurba_marseille","lat":43.25534,"lon":5.37605,"is_reserved":false,"is_disabled":false,"rental_uris":{"android":"levelo://app?vid=4d6cc11d-0743-49c5-968a-00141cfe9f70","ios":"levelo://app?vid=4d6cc11d-0743-49c5-968a-00141cfe9f70"},"vehicle_type_id":"4","last_reported":1745837062,"current_range_meters":23200,"station_id":"","pricing_plan_id":"cebpf4jnsgd1na2vs0mg"},{"bike_id":"6c309a23-f237-43e1-b809-7e530b70e000","system_id":"levelo_inurba_marseille","lat":43.30431,"lon":5.38883,"is_reserved":false,"is_disabled":false,"rental_uris":{"android":"levelo://app?vid=6c309a23-f237-43e1-b809-7e530b70e000","ios":"levelo://app?vid=6c309a23-f237-43e1-b809-7e530b70e000"},"vehicle_type_id":"4","last_reported":1745837062,"current_range_meters":23200,"station_id":"ce4bgk12rcd13ifvqbi0","pricing_plan_id":"cebpf4jnsgd1na2vs0mg"},{"bike_id":"7d8fd621-3e88-4e04-8e23-091d4749d817","system_id":"levelo_inurba_marseille","lat":43.30313,"lon":5.36885,"is_reserved":false,"is_disabled":false,"rental_uris":{"android":"levelo://app?vid=7d8fd621-3e88-4e04-8e23-091d4749d817","ios":"levelo://app?vid=7d8fd621-3e88-4e04-8e23-091d4749d817"},"vehicle_type_id":"4","last_reported":1745837062,"current_range_meters":23200,"station_id":"ce4bgqh2rcd13ifvqc5g","pricing_plan_id":"cebpf4jnsgd1na2vs0mg"},{"bike_id":"fd2138cc-488f-4480-aa76-ef915e97aff9","system_id":"levelo_inurba_marseille","lat":43.29966,"lon":5.37169,"is_reserved":false,"is_disabled":false,"rental_uris":{"android":"levelo://app?vid=fd2138cc-488f-4480-aa76-ef915e97aff9","ios":"levelo://app?vid=fd2138cc-488f-4480-aa76-ef915e97aff9"},"vehicle_type_id":"4","last_reported":1745837062,"current_range_meters":23200,"station_id":"ce4bgr92rcd13ifvqc7g","pricing_plan_id":"cebpf4jnsgd1na2vs0mg"},{"bike_id":"4b903211-6710-4e1c-9d4d-6ee384bd6d05","system_id":"levelo_inurba_marseille","lat":43.287138,"lon":5.374186,"is_reserved":false,"is_disabled":false,"rental_uris":{"android":"levelo://app?vid=4b903211-6710-4e1c-9d4d-6ee384bd6d05","ios":"levelo://app?vid=4b903211-6710-4e1c-9d4d-6ee384bd6d05"},"vehicle_type_id":"4","last_reported":1745837062,"current_range_meters":23200,"station_id":"ce4bh612rcd13ifvqe6g","pricing_plan_id":"cebpf4jnsgd1na2vs0mg"},{"bike_id":"763f710d-8dde-423d-a40c-a7a60c83825b","system_id":"levelo_inurba_marseille","lat":43.24652,"lon":5.38885,"is_reserved":false,"is_disabled":false,"rental_uris":{"android":"levelo://app?vid=763f710d-8dde-423d-a40c-a7a60c83825b","ios":"levelo://app?vid=763f710d-8dde-423d-a40c-a7a60c83825b"},"vehicle_type_id":"4","last_reported":1745837062,"current_range_meters":23200,"station_id":"ce4bhg12rcd13ifvqf60","pricing_plan_id":"cebpf4jnsgd1na2vs0mg"},{"bike_id":"b02df811-55e3-42e8-b0d7-37141a012db4","system_id":"levelo_inurba_marseille","lat":43.27941,"lon":5.4103,"is_reserved":false,"is_disabled":false,"rental_uris":{"android":"levelo://app?vid=b02df811-55e3-42e8-b0d7-37141a012db4","ios":"levelo://app?vid=b02df811-55e3-42e8-b0d7-37141a012db4"},"vehicle_type_id":"4","last_reported":1745837062,"current_range_meters":23200,"station_id":"ce4bhnp2rcd13ifvqh0g","pricing_plan_id":"cebpf4jnsgd1na2vs0mg"},{"bike_id":"a5c09769-3f6a-4cb3-a39e-6b61043ef208","system_id":"levelo_inurba_marseille","lat":43.31203,"lon":5.36865,"is_reserved":false,"is_disabled":false,"rental_uris":{"android":"levelo://app?vid=a5c09769-3f6a-4cb3-a39e-6b61043ef208","ios":"levelo://app?vid=a5c09769-3f6a-4cb3-a39e-6b61043ef208"},"vehicle_type_id":"4","last_reported":1745837062,"current_range_meters":24000,"station_id":"ce4bgl92rcd13ifvqbq0","pricing_plan_id":"cebpf4jnsgd1na2vs0mg"},{"bike_id":"254a82b3-1bfa-44d0-bb2c-211fbec80e17","system_id":"levelo_inurba_marseille","lat":43.2796,"lon":5.38744,"is_reserved":false,"is_disabled":false,"rental_uris":{"android":"levelo://app?vid=254a82b3-1bfa-44d0-bb2c-211fbec80e17","ios":"levelo://app?vid=254a82b3-1bfa-44d0-bb2c-211fbec80e17"},"vehicle_type_id":"4","last_reported":1745837062,"current_range_meters":24000,"station_id":"ce4bhg12rcd13ifvqf80","pricing_plan_id":"cebpf4jnsgd1na2vs0mg"},{"bike_id":"63cf0dfe-bed6-4cdc-865c-78f642a57684","system_id":"levelo_inurba_marseille","lat":43.27949,"lon":5.41052,"is_reserved":false,"is_disabled":false,"rental_uris":{"android":"levelo://app?vid=63cf0dfe-bed6-4cdc-865c-78f642a57684","ios":"levelo://app?vid=63cf0dfe-bed6-4cdc-865c-78f642a57684"},"vehicle_type_id":"4","last_reported":1745837062,"current_range_meters":24000,"station_id":"ce4bhnp2rcd13ifvqh0g","pricing_plan_id":"cebpf4jnsgd1na2vs0mg"},{"bike_id":"b26a0b33-650f-4f7b-8536-58a942167ba4","system_id":"levelo_inurba_marseille","lat":43.231893,"lon":5.355563,"is_reserved":false,"is_disabled":false,"rental_uris":{"android":"levelo://app?vid=b26a0b33-650f-4f7b-8536-58a942167ba4","ios":"levelo://app?vid=b26a0b33-650f-4f7b-8536-58a942167ba4"},"vehicle_type_id":"4","last_reported":1745837062,"current_range_meters":24000,"station_id":"ce4bhu92rcd13ifvqi70","pricing_plan_id":"cebpf4jnsgd1na2vs0mg"},{"bike_id":"c5ec2f16-a0cf-4cce-978b-c5061c81c44a","system_id":"levelo_inurba_marseille","lat":43.226693,"lon":5.348043,"is_reserved":false,"is_disabled":false,"rental_uris":{"android":"levelo://app?vid=c5ec2f16-a0cf-4cce-978b-c5061c81c44a","ios":"levelo://app?vid=c5ec2f16-a0cf-4cce-978b-c5061c81c44a"},"vehicle_type_id":"4","last_reported":1745837062,"current_range_meters":24400,"station_id":"","pricing_plan_id":"cebpf4jnsgd1na2vs0mg"},{"bike_id":"f5c6f2d0-2d40-4d18-adbe-c9f6b6427ddb","system_id":"levelo_inurba_marseille","lat":43.30527,"lon":5.36689,"is_reserved":false,"is_disabled":false,"rental_uris":{"android":"levelo://app?vid=f5c6f2d0-2d40-4d18-adbe-c9f6b6427ddb","ios":"levelo://app?vid=f5c6f2d0-2d40-4d18-adbe-c9f6b6427ddb"},"vehicle_type_id":"4","last_reported":1745837062,"current_range_meters":24400,"station_id":"ce4bgrp2rcd13ifvqc9g","pricing_plan_id":"cebpf4jnsgd1na2vs0mg"},{"bike_id":"a05ce99b-5090-45d9-9dd4-ac247a888af9","system_id":"levelo_inurba_marseille","lat":43.288543,"lon":5.393157,"is_reserved":false,"is_disabled":false,"rental_uris":{"android":"levelo://app?vid=a05ce99b-5090-45d9-9dd4-ac247a888af9","ios":"levelo://app?vid=a05ce99b-5090-45d9-9dd4-ac247a888af9"},"vehicle_type_id":"4","last_reported":1745837062,"current_range_meters":24400,"station_id":"ce4bh2p2rcd13ifvqdi0","pricing_plan_id":"cebpf4jnsgd1na2vs0mg"},{"bike_id":"11292790-872f-4858-baad-676bdcad3c30","system_id":"levelo_inurba_marseille","lat":43.28358,"lon":5.38653,"is_reserved":false,"is_disabled":false,"rental_uris":{"android":"levelo://app?vid=11292790-872f-4858-baad-676bdcad3c30","ios":"levelo://app?vid=11292790-872f-4858-baad-676bdcad3c30"},"vehicle_type_id":"4","last_reported":1745837062,"current_range_meters":24400,"station_id":"ce4bh492rcd13ifvqdvg","pricing_plan_id":"cebpf4jnsgd1na2vs0mg"},{"bike_id":"5ab314fd-9cc2-4919-af55-d9e7d339e51f","system_id":"levelo_inurba_marseille","lat":43.25939,"lon":5.409021,"is_reserved":false,"is_disabled":false,"rental_uris":{"android":"levelo://app?vid=5ab314fd-9cc2-4919-af55-d9e7d339e51f","ios":"levelo://app?vid=5ab314fd-9cc2-4919-af55-d9e7d339e51f"},"vehicle_type_id":"4","last_reported":1745837062,"current_range_meters":24400,"station_id":"ce4bhm92rcd13ifvqglg","pricing_plan_id":"cebpf4jnsgd1na2vs0mg"},{"bike_id":"88f6416c-a8cf-48b6-bb44-3988c8b89e2f","system_id":"levelo_inurba_marseille","lat":43.241746,"lon":5.363932,"is_reserved":false,"is_disabled":false,"rental_uris":{"android":"levelo://app?vid=88f6416c-a8cf-48b6-bb44-3988c8b89e2f","ios":"levelo://app?vid=88f6416c-a8cf-48b6-bb44-3988c8b89e2f"},"vehicle_type_id":"4","last_reported":1745837062,"current_range_meters":24400,"station_id":"cpo36qri1sfpv3e86is0","pricing_plan_id":"cebpf4jnsgd1na2vs0mg"},{"bike_id":"6f07a4c6-c9d8-4425-9447-8676203a33a0","system_id":"levelo_inurba_marseille","lat":43.24173,"lon":5.363904,"is_reserved":false,"is_disabled":false,"rental_uris":{"android":"levelo://app?vid=6f07a4c6-c9d8-4425-9447-8676203a33a0","ios":"levelo://app?vid=6f07a4c6-c9d8-4425-9447-8676203a33a0"},"vehicle_type_id":"4","last_reported":1745837062,"current_range_meters":24400,"station_id":"cpo36qri1sfpv3e86is0","pricing_plan_id":"cebpf4jnsgd1na2vs0mg"},{"bike_id":"c4559b9f-dce1-4d25-947d-823a7477de77","system_id":"levelo_inurba_marseille","lat":43.3137,"lon":5.39598,"is_reserved":false,"is_disabled":false,"rental_uris":{"android":"levelo://app?vid=c4559b9f-dce1-4d25-947d-823a7477de77","ios":"levelo://app?vid=c4559b9f-dce1-4d25-947d-823a7477de77"},"vehicle_type_id":"4","last_reported":1745837062,"current_range_meters":24800,"station_id":"","pricing_plan_id":"cebpf4jnsgd1na2vs0mg"},{"bike_id":"85ef152f-49ba-4c59-bf1f-2956323f3b52","system_id":"levelo_inurba_marseille","lat":43.299671,"lon":5.371794,"is_reserved":false,"is_disabled":false,"rental_uris":{"android":"levelo://app?vid=85ef152f-49ba-4c59-bf1f-2956323f3b52","ios":"levelo://app?vid=85ef152f-49ba-4c59-bf1f-2956323f3b52"},"vehicle_type_id":"4","last_reported":1745837062,"current_range_meters":24800,"station_id":"ce4bgr92rcd13ifvqc7g","pricing_plan_id":"cebpf4jnsgd1na2vs0mg"},{"bike_id":"9cfb1bae-44a7-455a-a49e-8625e7e9900e","system_id":"levelo_inurba_marseille","lat":43.30568,"lon":5.36498,"is_reserved":false,"is_disabled":false,"rental_uris":{"android":"levelo://app?vid=9cfb1bae-44a7-455a-a49e-8625e7e9900e","ios":"levelo://app?vid=9cfb1bae-44a7-455a-a49e-8625e7e9900e"},"vehicle_type_id":"4","last_reported":1745837062,"current_range_meters":24800,"station_id":"ce4bgs12rcd13ifvqcag","pricing_plan_id":"cebpf4jnsgd1na2vs0mg"},{"bike_id":"6793eb22-2d11-4e7c-92b9-968099963423","system_id":"levelo_inurba_marseille","lat":43.29037,"lon":5.37566,"is_reserved":false,"is_disabled":false,"rental_uris":{"android":"levelo://app?vid=6793eb22-2d11-4e7c-92b9-968099963423","ios":"levelo://app?vid=6793eb22-2d11-4e7c-92b9-968099963423"},"vehicle_type_id":"4","last_reported":1745837062,"current_range_meters":24800,"station_id":"ce4bh692rcd13ifvqe90","pricing_plan_id":"cebpf4jnsgd1na2vs0mg"},{"bike_id":"dc28fc6e-d680-4477-bbc1-f4611ff292f9","system_id":"levelo_inurba_marseille","lat":43.24663,"lon":5.38178,"is_reserved":false,"is_disabled":false,"rental_uris":{"android":"levelo://app?vid=dc28fc6e-d680-4477-bbc1-f4611ff292f9","ios":"levelo://app?vid=dc28fc6e-d680-4477-bbc1-f4611ff292f9"},"vehicle_type_id":"4","last_reported":1745837062,"current_range_meters":24800,"station_id":"ce4bhih2rcd13ifvqfr0","pricing_plan_id":"cebpf4jnsgd1na2vs0mg"},{"bike_id":"90ba42c0-3df3-4ede-ad71-97c50d51f22c","system_id":"levelo_inurba_marseille","lat":43.27939,"lon":5.41031,"is_reserved":false,"is_disabled":false,"rental_uris":{"android":"levelo://app?vid=90ba42c0-3df3-4ede-ad71-97c50d51f22c","ios":"levelo://app?vid=90ba42c0-3df3-4ede-ad71-97c50d51f22c"},"vehicle_type_id":"4","last_reported":1745837062,"current_range_meters":24800,"station_id":"ce4bhnp2rcd13ifvqh0g","pricing_plan_id":"cebpf4jnsgd1na2vs0mg"},