{"last_updated":1751810959,"ttl":60,"version":"2.2","data":{"bikes":[{"bike_id":"3da29fb8-fc97-44c6-b9ac-31dd456b2fd4","system_id":"levelo_inurba_marseille","lat":43.33771,"lon":5.37424,"is_reserved":false,"is_disabled":true,"rental_uris":{"android":"levelo://app?vid=3da29fb8-fc97-44c6-b9ac-31dd456b2fd4","ios":"levelo://app?vid=3da29fb8-fc97-44c6-b9ac-31dd456b2fd4"},"vehicle_type_id":"4","last_reported":1751810959,"current_range_meters":0,"station_id":"","pricing_plan_id":"cebpf4jnsgd1na2vs0mg"},{"bike_id":"01861ad8-a8d7-4be6-816e-651927c87584","system_id":"levelo_inurba_marseille","lat":43.33751,"lon":5.37456,"is_reserved":false,"is_disabled":true,"rental_uris":{"android":"levelo://app?vid=01861ad8-a8d7-4be6-816e-651927c87584","ios":"levelo://app?vid=01861ad8-a8d7-4be6-816e-651927c87584"},"vehicle_type_id":"4","last_reported":1751810959,"current_range_meters":0,"station_id":"","pricing_plan_id":"cebpf4jnsgd1na2vs0mg"},{"bike_id":"c1af52b7-f892-4de0-adb4-fb0c70d1c4e6","system_id":"levelo_inurba_marseille","lat":43.32247,"lon":5.43997,"is_reserved":false,"is_disabled":true,"rental_uris":{"android":"levelo://app?vid=c1af52b7-f892-4de0-adb4-fb0c70d1c4e6","ios":"levelo://app?vid=c1af52b7-f892-4de0-adb4-fb0c70d1c4e6"},"vehicle_type_id":"4","last_reported":1751810959,"current_range_meters":0,"station_id":"","pricing_plan_id":"cebpf4jnsgd1na2vs0mg"},{"bike_id":"1ad7dec6-0d72-44b8-8a91-8bff1291b188","system_id":"levelo_inurba_marseille","lat":43.28879,"lon":5.46045,"is_reserved":false,"is_disabled":true,"rental_uris":{"android":"levelo://app?vid=1ad7dec6-0d72-44b8-8a91-8bff1291b188","ios":"levelo://app?vid=1ad7dec6-0d72-44b8-8a91-8bff1291b188"},"vehicle_type_id":"4","last_reported":1751810959,"current_range_meters":0,"station_id":"","pricing_plan_id":"cebpf4jnsgd1na2vs0mg"},{"bike_id":"5e4fccb6-1c76-4083-a352-a6af734b928a","system_id":"levelo_inurba_marseille","lat":43.32207,"lon":5.44051,"is_reserved":false,"is_disabled":true,"rental_uris":{"android":"levelo://app?vid=5e4fccb6-1c76-4083-a352-a6af734b928a","ios":"levelo://app?vid=5e4fccb6-1c76-4083-a352-a6af734b928a"},"vehicle_type_id":"4","last_reported":1751810959,"current_range_meters":0,"station_id":"","pricing_plan_id":"cebpf4jnsgd1na2vs0mg"},{"bike_id":"cd1b69f3-983e-4e3a-b585-8a68b3780105","system_id":"levelo_inurba_marseille","lat":43.2179,"lon":5.34581,"is_reserved":false,"is_disabled":true,"rental_uris":{"android":"levelo://app?vid=cd1b69f3-983e-4e3a-b585-8a68b3780105","ios":"levelo://app?vid=cd1b69f3-983e-4e3a-b585-8a68b3780105"},"vehicle_type_id":"4","last_reported":1751810959,"current_range_meters":0,"station_id":"","pricing_plan_id":"cebpf4jnsgd1na2vs0mg"},{"bike_id":"8652339f-9d11-400b-929d-c2312323370f","system_id":"levelo_inurba_marseille","lat":43.32719,"lon":5.42353,"is_reserved":false,"is_disabled":true,"rental_uris":{"android":"levelo://app?vid=8652339f-9d11-400b-929d-c2312323370f","ios":"levelo://app?vid=8652339f-9d11-400b-929d-c2312323370f"},"vehicle_type_id":"4","last_reported":1751810959,"current_range_meters":0,"station_id":"","pricing_plan_id":"cebpf4jnsgd1na2vs0mg"},{"bike_id":"1c57a3c7-1fe2-49b4-93b2-29842e960d9b","system_id":"levelo_inurba_marseille","lat":43.25422,"lon":5.38155,"is_reserved":false,"is_disabled":true,"rental_uris":{"android":"levelo://app?vid=1c57a3c7-1fe2-49b4-93b2-29842e960d9b","ios":"levelo://app?vid=1c57a3c7-1fe2-49b4-93b2-29842e960d9b"},"vehicle_type_id":"4","last_reported":1751810959,"current_range_meters":0,"station_id":"","pricing_plan_id":"cebpf4jnsgd1na2vs0mg"},{"bike_id":"7dcd7a07-5f87-4c92-963d-06318b468193","system_id":"levelo_inurba_marseille","lat":43.29594,"lon":5.37731,"is_reserved":false,"is_disabled":true,"rental_uris":{"android":"levelo://app?vid=7dcd7a07-5f87-4c92-963d-06318b468193","ios":"levelo://app?vid=7dcd7a07-5f87-4c92-963d-06318b468193"},"vehicle_type_id":"4","last_reported":1751810959,"current_range_meters":0,"station_id":"ce4bgi92rcd13ifvqb90","pricing_plan_id":"cebpf4jnsgd1na2vs0mg"},{"bike_id":"cda68521-7c9e-4f75-99fa-2df8a8f7eff0","system_id":"levelo_inurba_marseille","lat":43.30926,"lon":5.4014,"is_reserved":false,"is_disabled":true,"rental_uris":{"android":"levelo://app?vid=cda68521-7c9e-4f75-99fa-2df8a8f7eff0","ios":"levelo://app?vid=cda68521-7c9e-4f75-99fa-2df8a8f7eff0"},"vehicle_type_id":"4","last_reported":1751810959,"current_range_meters":0,"station_id":"ce4bgvp2rcd13ifvqct0","pricing_plan_id":"cebpf4jnsgd1na2vs0mg"},{"bike_id":"a1c26aa6-796e-4fca-97a8-cbf8263b0f5e","system_id":"levelo_inurba_marseille","lat":43.29196,"lon":5.39312,"is_reserved":false,"is_disabled":true,"rental_uris":{"android":"levelo://app?vid=a1c26aa6-796e-4fca-97a8-cbf8263b0f5e","ios":"levelo://app?vid=a1c26aa6-796e-4fca-97a8-cbf8263b0f5e"},"vehicle_type_id":"4","last_reported":1751810959,"current_range_meters":0,"station_id":"ce4bh192rcd13ifvqdd0","pricing_plan_id":"cebpf4jnsgd1na2vs0mg"},{"bike_id":"78593a1c-a2e5-4b87-b065-9480e4f598ce","system_id":"levelo_inurba_marseille","lat":43.28573,"lon":5.39494,"is_reserved":false,"is_disabled":true,"rental_uris":{"android":"levelo://app?vid=78593a1c-a2e5-4b87-b065-9480e4f598ce","ios":"levelo://app?vid=78593a1c-a2e5-4b87-b065-9480e4f598ce"},"vehicle_type_id":"4","last_reported":1751810959,"current_range_meters":0,"station_id":"ce4bh292rcd13ifvqdg0","pricing_plan_id":"cebpf4jnsgd1na2vs0mg"},{"bike_id":"0c214b5c-c6b2-4568-8313-bcb1af973010","system_id":"levelo_inurba_marseille","lat":43.29277,"lon":5.40122,"is_reserved":false,"is_disabled":true,"rental_uris":{"android":"levelo://app?vid=0c214b5c-c6b2-4568-8313-bcb1af973010","ios":"levelo://app?vid=0c214b5c-c6b2-4568-8313-bcb1af973010"},"vehicle_type_id":"4","last_reported":1751810959,"current_range_meters":0,"station_id":"ce4bh312rcd13ifvqdk0","pricing_plan_id":"cebpf4jnsgd1na2vs0mg"},{"bike_id":"9095cfb6-3ef9-4ea0-9693-de05c5e7a9d4","system_id":"levelo_inurba_marseille","lat":43.290145,"lon":5.381383,"is_reserved":false,"is_disabled":true,"rental_uris":{"android":"levelo://app?vid=9095cfb6-3ef9-4ea0-9693-de05c5e7a9d4","ios":"levelo://app?vid=9095cfb6-3ef9-4ea0-9693-de05c5e7a9d4"},"vehicle_type_id":"4","last_reported":1751810959,"current_range_meters":0,"station_id":"ce4bh4p2rcd13ifvqe1g","pricing_plan_id":"cebpf4jnsgd1na2vs0mg"},{"bike_id":"46170bb5-555c-4c84-8187-d738f3934636","system_id":"levelo_inurba_marseille","lat":43.29258,"lon":5.38441,"is_reserved":false,"is_disabled":true,"rental_uris":{"android":"levelo://app?vid=46170bb5-555c-4c84-8187-d738f3934636","ios":"levelo://app?vid=46170bb5-555c-4c84-8187-d738f3934636"},"vehicle_type_id":"4","last_reported":1751810959,"current_range_meters":0,"station_id":"ce4bh692rcd13ifvqea0","pricing_plan_id":"cebpf4jnsgd1na2vs0mg"},{"bike_id":"ce202c77-3f4e-41ad-a115-4e6c21357167","system_id":"levelo_inurba_marseille","lat":43.2926,"lon":5.38444,"is_reserved":false,"is_disabled":true,"rental_uris":{"android":"levelo://app?vid=ce202c77-3f4e-41ad-a115-4e6c21357167","ios":"levelo://app?vid=ce202c77-3f4e-41ad-a115-4e6c21357167"},"vehicle_type_id":"4","last_reported":1751810959,"current_range_meters":0,"station_id":"ce4bh692rcd13ifvqea0","pricing_plan_id":"cebpf4jnsgd1na2vs0mg"},{"bike_id":"3b1ae5d9-9675-4c5d-bf57-e6a91f296fe2","system_id":"levelo_inurba_marseille","lat":43.28711,"lon":5.37921,"is_reserved":false,"is_disabled":true,"rental_uris":{"android":"levelo://app?vid=3b1ae5d9-9675-4c5d-bf57-e6a91f296fe2","ios":"levelo://app?vid=3b1ae5d9-9675-4c5d-bf57-e6a91f296fe2"},"vehicle_type_id":"4","last_reported":1751810959,"current_range_meters":0,"station_id":"ce4bh9p2rcd13ifvqec0","pricing_plan_id":"cebpf4jnsgd1na2vs0mg"},{"bike_id":"4ff4c22e-a296-427e-94a4-ccc833119fc9","system_id":"levelo_inurba_marseille","lat":43.265509,"lon":5.372784,"is_reserved":false,"is_disabled":true,"rental_uris":{"android":"levelo://app?vid=4ff4c22e-a296-427e-94a4-ccc833119fc9","ios":"levelo://app?vid=4ff4c22e-a296-427e-94a4-ccc833119fc9"},"vehicle_type_id":"4","last_reported":1751810959,"current_range_meters":0,"station_id":"ce4bhb12rcd13ifvqel0","pricing_plan_id":"cebpf4jnsgd1na2vs0mg"},{"bike_id":"560de5c4-76c7-474f-9834-fcd35a5b24d0","system_id":"levelo_inurba_marseille","lat":43.29002,"lon":5.35613,"is_reserved":false,"is_disabled":true,"rental_uris":{"android":"levelo://app?vid=560de5c4-76c7-474f-9834-fcd35a5b24d0","ios":"levelo://app?vid=560de5c4-76c7-474f-9834-fcd35a5b24d0"},"vehicle_type_id":"4","last_reported":1751810959,"current_range_meters":0,"station_id":"ce4bhb92rcd13ifvqen0","pricing_plan_id":"cebpf4jnsgd1na2vs0mg"},{"bike_id":"2520035a-a3ab-4c9e-b086-445faa706efb","system_id":"levelo_inurba_marseille","lat":43.28997,"lon":5.35601,"is_reserved":false,"is_disabled":true,"rental_uris":{"android":"levelo://app?vid=2520035a-a3ab-4c9e-b086-445faa706efb","ios":"levelo://app?vid=2520035a-a3ab-4c9e-b086-445faa706efb"},"vehicle_type_id":"4","last_reported":1751810959,"current_range_meters":0,"station_id":"ce4bhb92rcd13ifvqen0","pricing_plan_id":"cebpf4jnsgd1na2vs0mg"},{"bike_id":"5c50dd3a-a252-4926-abc5-e9d6cc2d48b3","system_id":"levelo_inurba_marseille","lat":43.28416,"lon":5.3499,"is_reserved":false,"is_disabled":true,"rental_uris":{"android":"levelo://app?vid=5c50dd3a-a252-4926-abc5-e9d6cc2d48b3","ios":"levelo://app?vid=5c50dd3a-a252-4926-abc5-e9d6cc2d48b3"},"vehicle_type_id":"4","last_reported":1751810959,"current_range_meters":0,"station_id":"ce4bhbh2rcd13ifvqepg","pricing_plan_id":"cebpf4jnsgd1na2vs0mg"},{"bike_id":"877a9acb-9e7d-4ecf-8bed-3997ca1f2695","system_id":"levelo_inurba_marseille","lat":43.29219,"lon":5.36065,"is_reserved":false,"is_disabled":true,"rental_uris":{"android":"levelo://app?vid=877a9acb-9e7d-4ecf-8bed-3997ca1f2695","ios":"levelo://app?vid=877a9acb-9e7d-4ecf-8bed-3997ca1f2695"},"vehicle_type_id":"4","last_reported":1751810959,"current_range_meters":0,"station_id":"ce4bhbh2rcd13ifvqeqg","pricing_plan_id":"cebpf4jnsgd1na2vs0mg"},{"bike_id":"cfd4ffa8-ff68-4419-998a-bca5e32d51c2","system_id":"levelo_inurba_marseille","lat":43.2928,"lon":5.36843,"is_reserved":false,"is_disabled":true,"rental_uris":{"android":"levelo://app?vid=cfd4ffa8-ff68-4419-998a-bca5e32d51c2","ios":"levelo://app?vid=cfd4ffa8-ff68-4419-998a-bca5e32d51c2"},"vehicle_type_id":"4","last_reported":1751810959,"current_range_meters":0,"station_id":"ce4bhbp2rcd13ifvqesg","pricing_plan_id":"cebpf4jnsgd1na2vs0mg"},{"bike_id":"02794ab8-7068-4d2b-9d31-b6c09f96b055","system_id":"levelo_inurba_marseille","lat":43.26022,"lon":5.37558,"is_reserved":false,"is_disabled":true,"rental_uris":{"android":"levelo://app?vid=02794ab8-7068-4d2b-9d31-b6c09f96b055","ios":"levelo://app?vid=02794ab8-7068-4d2b-9d31-b6c09f96b055"},"vehicle_type_id":"4","last_reported":1751810959,"current_range_meters":0,"station_id":"ce4bhgh2rcd13ifvqfa0","pricing_plan_id":"cebpf4jnsgd1na2vs0mg"},{"bike_id":"9660879f-aef8-43dc-ae0d-26cc59732c9f","system_id":"levelo_inurba_marseille","lat":43.255013,"lon":5.376515,"is_reserved":false,"is_disabled":true,"rental_uris":{"android":"levelo://app?vid=9660879f-aef8-43dc-ae0d-26cc59732c9f","ios":"levelo://app?vid=9660879f-aef8-43dc-ae0d-26cc59732c9f"},"vehicle_type_id":"4","last_reported":1751810959,"current_range_meters":0,"station_id":"ce4bhh12rcd13ifvqff0","pricing_plan_id":"cebpf4jnsgd1na2vs0mg"},{"bike_id":"b1d4cc18-a9a3-4a78-9e23-e098d3fbf686","system_id":"levelo_inurba_marseille","lat":43.30366,"lon":5.425,"is_reserved":false,"is_disabled":true,"rental_uris":{"android":"levelo://app?vid=b1d4cc18-a9a3-4a78-9e23-e098d3fbf686","ios":"levelo://app?vid=b1d4cc18-a9a3-4a78-9e23-e098d3fbf686"},"vehicle_type_id":"4","last_reported":1751810959,"current_range_meters":0,"station_id":"ce4bhoh2rcd13ifvqh6g","pricing_plan_id":"cebpf4jnsgd1na2vs0mg"},{"bike_id":"228c2141-1ea2-4307-b204-f508148ec2d0","system_id":"levelo_inurba_marseille","lat":43.29888,"lon":5.4366,"is_reserved":false,"is_disabled":true,"rental_uris":{"android":"levelo://app?vid=228c2141-1ea2-4307-b204-f508148ec2d0","ios":"levelo://app?vid=228c2141-1ea2-4307-b204-f508148ec2d0"},"vehicle_type_id":"4","last_reported":1751810959,"current_range_meters":0,"station_id":"ce4bhpp2rcd13ifvqhfg","pricing_plan_id":"cebpf4jnsgd1na2vs0mg"},{"bike_id":"b1ec0e88-5af9-46f4-b48d-003034f04c6f","system_id":"levelo_inurba_marseille","lat":43.23345,"lon":5.358197,"is_reserved":false,"is_disabled":true,"rental_uris":{"android":"levelo://app?vid=b1ec0e88-5af9-46f4-b48d-003034f04c6f","ios":"levelo://app?vid=b1ec0e88-5af9-46f4-b48d-003034f04c6f"},"vehicle_type_id":"4","last_reported":1751810959,"current_range_meters":0,"station_id":"ce4bhu92rcd13ifvqi70","pricing_plan_id":"cebpf4jnsgd1na2vs0mg"},{"bike_id":"42f994ad-8f57-4c52-b01c-2ce1f3bbf08b","system_id":"levelo_inurba_marseille","lat":43.26935,"lon":5.40259,"is_reserved":false,"is_disabled":true,"rental_uris":{"android":"levelo://app?vid=42f994ad-8f57-4c52-b01c-2ce1f3bbf08b","ios":"levelo://app?vid=42f994ad-8f57-4c52-b01c-2ce1f3bbf08b"},"vehicle_type_id":"4","last_reported":1751810959,"current_range_meters":0,"station_id":"cjm6bp8fraef2m0cb0m0","pricing_plan_id":"cebpf4jnsgd1na2vs0mg"},{"bike_id":"d1444e94-489f-4fa9-9e06-4bdf6ba47149","system_id":"levelo_inurba_marseille","lat":43.22482,"lon":5.34801,"is_reserved":false,"is_disabled":true,"rental_uris":{"android":"levelo://app?vid=d1444e94-489f-4fa9-9e06-4bdf6ba47149","ios":"levelo://app?vid=d1444e94-489f-4fa9-9e06-4bdf6ba47149"},"vehicle_type_id":"4","last_reported":1751810959,"current_range_meters":0,"station_id":"st_cvj5dfep6f1abm77gieg","pricing_plan_id":"cebpf4jnsgd1na2vs0mg"},{"bike_id":"8e705061-bdf0-422d-b178-e50353401331","system_id":"levelo_inurba_marseille","lat":43.21747,"lon":5.345967,"is_reserved":false,"is_disabled":true,"rental_uris":{"android":"levelo://app?vid=8e705061-bdf0-422d-b178-e50353401331","ios":"levelo://app?vid=8e705061-bdf0-422d-b178-e50353401331"},"vehicle_type_id":"4","last_reported":1751810959,"current_range_meters":0,"station_id":"st_cvj6r9ubvosntc0bgbag","pricing_plan_id":"cebpf4jnsgd1na2vs0mg"},{"bike_id":"01e7b5f2-8f67-4e49-aba6-db3c1b32897d","system_id":"levelo_inurba_marseille","lat":43.21198,"lon":5.35072,"is_reserved":false,"is_disabled":true,"rental_uris":{"android":"levelo://app?vid=01e7b5f2-8f67-4e49-aba6-db3c1b32897d","ios":"levelo://app?vid=01e7b5f2-8f67-4e49-aba6-db3c1b32897d"},"vehicle_type_id":"4","last_reported":1751810959,"current_range_meters":0,"station_id":"st_cvj6sg6p6f1abm77japg","pricing_plan_id":"cebpf4jnsgd1na2vs0mg"},{"bike_id":"c8c4de1a-846f-4f5b-aace-9fb14bf7ad52","system_id":"levelo_inurba_marseille","lat":43.21188,"lon":5.35071,"is_reserved":false,"is_disabled":true,"rental_uris":{"android":"levelo://app?vid=c8c4de1a-846f-4f5b-aace-9fb14bf7ad52","ios":"levelo://app?vid=c8c4de1a-846f-4f5b-aace-9fb14bf7ad52"},"vehicle_type_id":"4","last_reported":1751810959,"current_range_meters":0,"station_id":"st_cvj6sg6p6f1abm77japg","pricing_plan_id":"cebpf4jnsgd1na2vs0mg"},{"bike_id":"e86ba8c9-208d-482c-a826-4c100938472a","system_id":"levelo_inurba_marseille","lat":43.21186,"lon":5.35081,"is_reserved":false,"is_disabled":true,"rental_uris":{"android":"levelo://app?vid=e86ba8c9-208d-482c-a826-4c100938472a","ios":"levelo://app?vid=e86ba8c9-208d-482c-a826-4c100938472a"},"vehicle_type_id":"4","last_reported":1751810959,"current_range_meters":0,"station_id":"st_cvj6sg6p6f1abm77japg","pricing_plan_id":"cebpf4jnsgd1na2vs0mg"},{"bike_id":"9f0b80db-4f7e-4445-895a-28171363da30","system_id":"levelo_inurba_marseille","lat":43.326211,"lon":5.423574,"is_reserved":false,"is_disabled":true,"rental_uris":{"android":"levelo://app?vid=9f0b80db-4f7e-4445-895a-28171363da30","ios":"levelo://app?vid=9f0b80db-4f7e-4445-895a-28171363da30"},"vehicle_type_id":"4","last_reported":1751810959,"current_range_meters":400,"station_id":"","pricing_plan_id":"cebpf4jnsgd1na2vs0mg"},{"bike_id":"13450f72-f319-4a45-b4f7-832ace0e8c53","system_id":"levelo_inurba_marseille","lat":43.29596,"lon":5.380925,"is_reserved":false,"is_disabled":true,"rental_uris":{"android":"levelo://app?vid=13450f72-f319-4a45-b4f7-832ace0e8c53","ios":"levelo://app?vid=13450f72-f319-4a45-b4f7-832ace0e8c53"},"vehicle_type_id":"4","last_reported":1751810959,"current_range_meters":400,"station_id":"ce4bgl12rcd13ifvqbo0","pricing_plan_id":"cebpf4jnsgd1na2vs0mg"},{"bike_id":"5660da20-3aee-4b96-9b3c-27d18df1fbba","system_id":"levelo_inurba_marseille","lat":43.30383,"lon":5.42488,"is_reserved":false,"is_disabled":true,"rental_uris":{"android":"levelo://app?vid=5660da20-3aee-4b96-9b3c-27d18df1fbba","ios":"levelo://app?vid=5660da20-3aee-4b96-9b3c-27d18df1fbba"},"vehicle_type_id":"4","last_reported":1751810959,"current_range_meters":400,"station_id":"ce4bhoh2rcd13ifvqh6g","pricing_plan_id":"cebpf4jnsgd1na2vs0mg"},{"bike_id":"de3d7484-84bf-48c4-a7f2-8c06d7aaeefd","system_id":"levelo_inurba_marseille","lat":43.29254,"lon":5.38442,"is_reserved":false,"is_disabled":true,"rental_uris":{"android":"levelo://app?vid=de3d7484-84bf-48c4-a7f2-8c06d7aaeefd","ios":"levelo://app?vid=de3d7484-84bf-48c4-a7f2-8c06d7aaeefd"},"vehicle_type_id":"4","last_reported":1751810959,"current_range_meters":800,"station_id":"ce4bh692rcd13ifvqea0","pricing_plan_id":"cebpf4jnsgd1na2vs0mg"},{"bike_id":"bb141b4b-c046-4385-9b39-cd4349d3365e","system_id":"levelo_inurba_marseille","lat":43.292697,"lon":5.384203,"is_reserved":false,"is_disabled":true,"rental_uris":{"android":"levelo://app?vid=bb141b4b-c046-4385-9b39-cd4349d3365e","ios":"levelo://app?vid=bb141b4b-c046-4385-9b39-cd4349d3365e"},"vehicle_type_id":"4","last_reported":1751810959,"current_range_meters":800,"station_id":"ce4bh692rcd13ifvqea0","pricing_plan_id":"cebpf4jnsgd1na2vs0mg"},{"bike_id":"ff3eb657-5e69-488a-8abb-a86dac70caf8","system_id":"levelo_inurba_marseille","lat":43.3043,"lon":5.38885,"is_reserved":false,"is_disabled":true,"rental_uris":{"android":"levelo://app?vid=ff3eb657-5e69-488a-8abb-a86dac70caf8","ios":"levelo://app?vid=ff3eb657-5e69-488a-8abb-a86dac70caf8"},"vehicle_type_id":"4","last_reported":1751810959,"current_range_meters":1200,"station_id":"ce4bgk12rcd13ifvqbi0","pricing_plan_id":"cebpf4jnsgd1na2vs0mg"},{"bike_id":"b9782840-3059-4912-a7b8-15bd8cc55072","system_id":"levelo_inurba_marseille","lat":43.28423,"lon":5.3751,"is_reserved":false,"is_disabled":true,"rental_uris":{"android":"levelo://app?vid=b9782840-3059-4912-a7b8-15bd8cc55072","ios":"levelo://app?vid=b9782840-3059-4912-a7b8-15bd8cc55072"},"vehicle_type_id":"4","last_reported":1751810959,"current_range_meters":1200,"station_id":"ce4bh412rcd13ifvqds0","pricing_plan_id":"cebpf4jnsgd1na2vs0mg"},{"bike_id":"f5993d96-6e75-4289-b749-e9f18b02082a","system_id":"levelo_inurba_marseille","lat":43.282631,"lon":5.35062,"is_reserved":false,"is_disabled":true,"rental_uris":{"android":"levelo://app?vid=f5993d96-6e75-4289-b749-e9f18b02082a","ios":"levelo://app?vid=f5993d96-6e75-4289-b749-e9f18b02082a"},"vehicle_type_id":"4","last_reported":1751810959,"current_range_meters":1200,"station_id":"ce4bhbp2rcd13ifvqerg","pricing_plan_id":"cebpf4jnsgd1na2vs0mg"},{"bike_id":"9ba1cf55-b64b-4389-816c-0a8a8cde3e5c","system_id":"levelo_inurba_marseille","lat":43.28262,"lon":5.35062,"is_reserved":false,"is_disabled":true,"rental_uris":{"android":"levelo://app?vid=9ba1cf55-b64b-4389-816c-0a8a8cde3e5c","ios":"levelo://app?vid=9ba1cf55-b64b-4389-816c-0a8a8cde3e5c"},"vehicle_type_id":"4","last_reported":1751810959,"current_range_meters":1200,"station_id":"ce4bhbp2rcd13ifvqerg","pricing_plan_id":"cebpf4jnsgd1na2vs0mg"},{"bike_id":"886767f3-caa6-4ec6-8e6a-b275d970e796","system_id":"levelo_inurba_marseille","lat":43.29632,"lon":5.36712,"is_reserved":false,"is_disabled":true,"rental_uris":{"android":"levelo://app?vid=886767f3-caa6-4ec6-8e6a-b275d970e796","ios":"levelo://app?vid=886767f3-caa6-4ec6-8e6a-b275d970e796"},"vehicle_type_id":"4","last_reported":1751810959,"current_range_meters":1600,"station_id":"","pricing_plan_id":"cebpf4jnsgd1na2vs0mg"},{"bike_id":"7b250e9a-987b-4ed5-ad1d-2e6df27c05a9","system_id":"levelo_inurba_marseille","lat":43.29306,"lon":5.37178,"is_reserved":false,"is_disabled":true,"rental_uris":{"android":"levelo://app?vid=7b250e9a-987b-4ed5-ad1d-2e6df27c05a9","ios":"levelo://app?vid=7b250e9a-987b-4ed5-ad1d-2e6df27c05a9"},"vehicle_type_id":"4","last_reported":1751810959,"current_range_meters":1600,"station_id":"ce4bgh92rcd13ifvqb40","pricing_plan_id":"cebpf4jnsgd1na2vs0mg"},{"bike_id":"9e848f4a-4f51-40fa-b1e9-9fc8dc35fea8","system_id":"levelo_inurba_marseille","lat":43.30133,"lon":5.38793,"is_reserved":false,"is_disabled":true,"rental_uris":{"android":"levelo://app?vid=9e848f4a-4f51-40fa-b1e9-9fc8dc35fea8","ios":"levelo://app?vid=9e848f4a-4f51-40fa-b1e9-9fc8dc35fea8"},"vehicle_type_id":"4","last_reported":1751810959,"current_range_meters":1600,"station_id":"ce4bghh2rcd13ifvqb60","pricing_plan_id":"cebpf4jnsgd1na2vs0mg"},{"bike_id":"6dd989fa-e757-4f71-8c9a-4b29f4ab74e9","system_id":"levelo_inurba_marseille","lat":43.29213,"lon":5.36032,"is_reserved":false,"is_disabled":true,"rental_uris":{"android":"levelo://app?vid=6dd989fa-e757-4f71-8c9a-4b29f4ab74e9","ios":"levelo://app?vid=6dd989fa-e757-4f71-8c9a-4b29f4ab74e9"},"vehicle_type_id":"4","last_reported":1751810959,"current_range_meters":1600,"station_id":"ce4bhbh2rcd13ifvqeqg","pricing_plan_id":"cebpf4jnsgd1na2vs0mg"},{"bike_id":"ad0cd0f9-bee8-4154-8ca0-356acc2fabce","system_id":"levelo_inurba_marseille","lat":43.21748,"lon":5.34604,"is_reserved":false,"is_disabled":true,"rental_uris":{"android":"levelo://app?vid=ad0cd0f9-bee8-4154-8ca0-356acc2fabce","ios":"levelo://app?vid=ad0cd0f9-bee8-4154-8ca0-356acc2fabce"},"vehicle_type_id":"4","last_reported":1751810959,"current_range_meters":1600,"station_id":"st_cvj6r9ubvosntc0bgbag","pricing_plan_id":"cebpf4jnsgd1na2vs0mg"},{"bike_id":"c20ca296-4d61-4bcf-85dd-10b51abf3283","system_id":"levelo_inurba_marseille","lat":43.29846,"lon":5.36286,"is_reserved":false,"is_disabled":true,"rental_uris":{"android":"levelo://app?vid=c20ca296-4d61-4bcf-85dd-10b51abf3283","ios":"levelo://app?vid=c20ca296-4d61-4bcf-85dd-10b51abf3283"},"vehicle_type_id":"4","last_reported":1751810959,"current_range_meters":2000,"station_id":"ce4bgpp2rcd13ifvqc3g","pricing_plan_id":"cebpf4jnsgd1na2vs0mg"},{"bike_id":"013ac8ab-92cb-441b-9ba6-c0296074631c","system_id":"levelo_inurba_marseille","lat":43.30638,"lon":5.3967,"is_reserved":false,"is_disabled":false,"rental_uris":{"android":"levelo://app?vid=013ac8ab-92cb-441b-9ba6-c0296074631c","ios":"levelo://app?vid=013ac8ab-92cb-441b-9ba6-c0296074631c"},"vehicle_type_id":"4","last_reported":1751810959,"current_range_meters":2800,"station_id":"","pricing_plan_id":"cebpf4jnsgd1na2vs0mg"},{"bike_id":"0c4b7fdb-b39e-49b3-a2b0-ae3d0f43e89d","system_id":"levelo_inurba_marseille","lat":43.328892,"lon":5.405567,"is_reserved":false,"is_disabled":false,"rental_uris":{"android":"levelo://app?vid=0c4b7fdb-b39e-49b3-a2b0-ae3d0f43e89d","ios":"levelo://app?vid=0c4b7fdb-b39e-49b3-a2b0-ae3d0f43e89d"},"vehicle_type_id":"4","last_reported":1751810959,"current_range_meters":2800,"station_id":"","pricing_plan_id":"cebpf4jnsgd1na2vs0mg"},{"bike_id":"856deb22-0543-42cb-b431-94856aa9b6f3","system_id":"levelo_inurba_marseille","lat":43.29306,"lon":5.37181,"is_reserved":false,"is_disabled":false,"rental_uris":{"android":"levelo://app?vid=856deb22-0543-42cb-b431-94856aa9b6f3","ios":"levelo://app?vid=856deb22-0543-42cb-b431-94856aa9b6f3"},"vehicle_type_id":"4","last_reported":1751810959,"current_range_meters":2800,"station_id":"ce4bgh92rcd13ifvqb40","pricing_plan_id":"cebpf4jnsgd1na2vs0mg"},{"bike_id":"b87f02d0-36f9-4491-9a56-7eee4899a2de","system_id":"levelo_inurba_marseille","lat":43.25495,"lon":5.37645,"is_reserved":false,"is_disabled":false,"rental_uris":{"android":"levelo://app?vid=b87f02d0-36f9-4491-9a56-7eee4899a2de","ios":"levelo://app?vid=b87f02d0-36f9-4491-9a56-7eee4899a2de"},"vehicle_type_id":"4","last_reported":1751810959,"current_range_meters":2800,"station_id":"ce4bhh12rcd13ifvqff0","pricing_plan_id":"cebpf4jnsgd1na2vs0mg"},{"bike_id":"e4fc72af-50c0-4896-bd09-4ac0e903f778","system_id":"levelo_inurba_marseille","lat":43.30372,"lon":5.42484,"is_reserved":false,"is_disabled":false,"rental_uris":{"android":"levelo://app?vid=e4fc72af-50c0-4896-bd09-4ac0e903f778","ios":"levelo://app?vid=e4fc72af-50c0-4896-bd09-4ac0e903f778"},"vehicle_type_id":"4","last_reported":1751810959,"current_range_meters":2800,"station_id":"ce4bhoh2rcd13ifvqh6g","pricing_plan_id":"cebpf4jnsgd1na2vs0mg"},{"bike_id":"9ab27fdb-2504-4ffa-af73-ca648d2f6bfd","system_id":"levelo_inurba_marseille","lat":43.304155,"lon":5.412842,"is_reserved":false,"is_disabled":false,"rental_uris":{"android":"levelo://app?vid=9ab27fdb-2504-4ffa-af73-ca648d2f6bfd","ios":"levelo://app?vid=9ab27fdb-2504-4ffa-af73-ca648d2f6bfd"},"vehicle_type_id":"4","last_reported":1751810959,"current_range_meters":2800,"station_id":"ce4bhop2rcd13ifvqh8g","pricing_plan_id":"cebpf4jnsgd1na2vs0mg"},{"bike_id":"bfb455e5-e27a-42e5-9328-a16d4df5a347","system_id":"levelo_inurba_marseille","lat":43.22505,"lon":5.34785,"is_reserved":false,"is_disabled":false,"rental_uris":{"android":"levelo://app?vid=bfb455e5-e27a-42e5-9328-a16d4df5a347","ios":"levelo://app?vid=bfb455e5-e27a-42e5-9328-a16d4df5a347"},"vehicle_type_id":"4","last_reported":1751810959,"current_range_meters":3200,"station_id":"st_cvj5dfep6f1abm77gieg","pricing_plan_id":"cebpf4jnsgd1na2vs0mg"},{"bike_id":"883a31b2-32d0-40ae-abfb-0a8cad9f140f","system_id":"levelo_inurba_marseille","lat":43.30907,"lon":5.38666,"is_reserved":false,"is_disabled":false,"rental_uris":{"android":"levelo://app?vid=883a31b2-32d0-40ae-abfb-0a8cad9f140f","ios":"levelo://app?vid=883a31b2-32d0-40ae-abfb-0a8cad9f140f"},"vehicle_type_id":"4","last_reported":1751810959,"current_range_meters":3600,"station_id":"","pricing_plan_id":"cebpf4jnsgd1na2vs0mg"},{"bike_id":"7ae2fcdc-5a35-4e72-b64a-bd3f357343da","system_id":"levelo_inurba_marseille","lat":43.26678,"lon":5.38262,"is_reserved":false,"is_disabled":false,"rental_uris":{"android":"levelo://app?vid=7ae2fcdc-5a35-4e72-b64a-bd3f357343da","ios":"levelo://app?vid=7ae2fcdc-5a35-4e72-b64a-bd3f357343da"},"vehicle_type_id":"4","last_reported":1751810959,"current_range_meters":3600,"station_id":"ce4bhg92rcd13ifvqf90","pricing_plan_id":"cebpf4jnsgd1na2vs0mg"},{"bike_id":"c552bf66-bc88-4cf6-a6c0-64c5b01434ff","system_id":"levelo_inurba_marseille","lat":43.30423,"lon":5.3974,"is_reserved":false,"is_disabled":false,"rental_uris":{"android":"levelo://app?vid=c552bf66-bc88-4cf6-a6c0-64c5b01434ff","ios":"levelo://app?vid=c552bf66-bc88-4cf6-a6c0-64c5b01434ff"},"vehicle_type_id":"4","last_reported":1751810959,"current_range_meters":4000,"station_id":"ce4bh092rcd13ifvqd20","pricing_plan_id":"cebpf4jnsgd1na2vs0mg"},{"bike_id":"0597237c-7be5-4bce-87d6-b4c6614d1ee2","system_id":"levelo_inurba_marseille","lat":43.2549,"lon":5.37647,"is_reserved":false,"is_disabled":false,"rental_uris":{"android":"levelo://app?vid=0597237c-7be5-4bce-87d6-b4c6614d1ee2","ios":"levelo://app?vid=0597237c-7be5-4bce-87d6-b4c6614d1ee2"},"vehicle_type_id":"4","last_reported":1751810959,"current_range_meters":4000,"station_id":"ce4bhh12rcd13ifvqff0","pricing_plan_id":"cebpf4jnsgd1na2vs0mg"},{"bike_id":"c4eb00ea-d062-4a56-bf50-d27257be7cf3","system_id":"levelo_inurba_marseille","lat":43.286041,"lon":5.370691,"is_reserved":false,"is_disabled":false,"rental_uris":{"android":"levelo://app?vid=c4eb00ea-d062-4a56-bf50-d27257be7cf3","ios":"levelo://app?vid=c4eb00ea-d062-4a56-bf50-d27257be7cf3"},"vehicle_type_id":"4","last_reported":1751810959,"current_range_meters":4000,"station_id":"ce4bht12rcd13ifvqi60","pricing_plan_id":"cebpf4jnsgd1na2vs0mg"},{"bike_id":"e332016a-eed1-4e58-bb37-6a7fd0151114","system_id":"levelo_inurba_marseille","lat":43.21757,"lon":5.34578,"is_reserved":false,"is_disabled":true,"rental_uris":{"android":"levelo://app?vid=e332016a-eed1-4e58-bb37-6a7fd0151114","ios":"levelo://app?vid=e332016a-eed1-4e58-bb37-6a7fd0151114"},"vehicle_type_id":"4","last_reported":1751810959,"current_range_meters":4400,"station_id":"st_cvj6r9ubvosntc0bgbag","pricing_plan_id":"cebpf4jnsgd1na2vs0mg"},{"bike_id":"f0a19a9e-f150-4c1e-bcc6-db3195370cac","system_id":"levelo_inurba_marseille","lat":43.32685,"lon":5.43147,"is_reserved":false,"is_disabled":false,"rental_uris":{"android":"levelo://app?vid=f0a19a9e-f150-4c1e-bcc6-db3195370cac","ios":"levelo://app?vid=f0a19a9e-f150-4c1e-bcc6-db3195370cac"},"vehicle_type_id":"4","last_reported":1751810959,"current_range_meters":5600,"station_id":"","pricing_plan_id":"cebpf4jnsgd1na2vs0mg"},{"bike_id":"b26fae72-751e-4090-a9c4-76ff5de1ad66","system_id":"levelo_inurba_marseille","lat":43.33241,"lon":5.38021,"is_reserved":false,"is_disabled":false,"rental_uris":{"android":"levelo://app?vid=b26fae72-751e-4090-a9c4-76ff5de1ad66","ios":"levelo://app?vid=b26fae72-751e-4090-a9c4-76ff5de1ad66"},"vehicle_type_id":"4","last_reported":1751810959,"current_range_meters":5600,"station_id":"","pricing_plan_id":"cebpf4jnsgd1na2vs0mg"},{"bike_id":"1c8ab180-05fd-405f-9922-b2b2c2d5142f","system_id":"levelo_inurba_marseille","lat":43.337855,"lon":5.38122,"is_reserved":false,"is_disabled":false,"rental_uris":{"android":"levelo://app?vid=1c8ab180-05fd-405f-9922-b2b2c2d5142f","ios":"levelo://app?vid=1c8ab180-05fd-405f-9922-b2b2c2d5142f"},"vehicle_type_id":"4","last_reported":1751810959,"current_range_meters":6000,"station_id":"","pricing_plan_id":"cebpf4jnsgd1na2vs0mg"},{"bike_id":"8205bdf4-ee83-4bb6-bcbe-d476b17ea327","system_id":"levelo_inurba_marseille","lat":43.32015,"lon":5.41321,"is_reserved":false,"is_disabled":false,"rental_uris":{"android":"levelo://app?vid=8205bdf4-ee83-4bb6-bcbe-d476b17ea327","ios":"levelo://app?vid=8205bdf4-ee83-4bb6-bcbe-d476b17ea327"},"vehicle_type_id":"4","last_reported":1751810959,"current_range_meters":6000,"station_id":"","pricing_plan_id":"cebpf4jnsgd1na2vs0mg"},{"bike_id":"9db51c42-7cdb-4164-92c2-39a3d4f5b167","system_id":"levelo_inurba_marseille","lat":43.28482,"lon":5.38414,"is_reserved":false,"is_disabled":false,"rental_uris":{"android":"levelo://app?vid=9db51c42-7cdb-4164-92c2-39a3d4f5b167","ios":"levelo://app?vid=9db51c42-7cdb-4164-92c2-39a3d4f5b167"},"vehicle_type_id":"4","last_reported":1751810959,"current_range_meters":6000,"station_id":"ce4bh512rcd13ifvqe3g","pricing_plan_id":"cebpf4jnsgd1na2vs0mg"},{"bike_id":"615b68ff-da33-4a0e-a27c-99269ad32c64","system_id":"levelo_inurba_marseille","lat":43.28269,"lon":5.35084,"is_reserved":false,"is_disabled":false,"rental_uris":{"android":"levelo://app?vid=615b68ff-da33-4a0e-a27c-99269ad32c64","ios":"levelo://app?vid=615b68ff-da33-4a0e-a27c-99269ad32c64"},"vehicle_type_id":"4","last_reported":1751810959,"current_range_meters":6400,"station_id":"ce4bhbp2rcd13ifvqerg","pricing_plan_id":"cebpf4jnsgd1na2vs0mg"},{"bike_id":"c3039e0b-f2aa-4656-9a2f-27eb16abc715","system_id":"levelo_inurba_marseille","lat":43.29276,"lon":5.36848,"is_reserved":false,"is_disabled":false,"rental_uris":{"android":"levelo://app?vid=c3039e0b-f2aa-4656-9a2f-27eb16abc715","ios":"levelo://app?vid=c3039e0b-f2aa-4656-9a2f-27eb16abc715"},"vehicle_type_id":"4","last_reported":1751810959,"current_range_meters":6400,"station_id":"ce4bhbp2rcd13ifvqesg","pricing_plan_id":"cebpf4jnsgd1na2vs0mg"},{"bike_id":"4b8da722-ee9e-48a4-a5e5-3a8a10364708","system_id":"levelo_inurba_marseille","lat":43.312307,"lon":5.378232,"is_reserved":false,"is_disabled":false,"rental_uris":{"android":"levelo://app?vid=4b8da722-ee9e-48a4-a5e5-3a8a10364708","ios":"levelo://app?vid=4b8da722-ee9e-48a4-a5e5-3a8a10364708"},"vehicle_type_id":"4","last_reported":1751810959,"current_range_meters":6800,"station_id":"","pricing_plan_id":"cebpf4jnsgd1na2vs0mg"},{"bike_id":"69c2280d-9883-47db-99f2-c073a6babae6","system_id":"levelo_inurba_marseille","lat":43.30846,"lon":5.37037,"is_reserved":false,"is_disabled":false,"rental_uris":{"android":"levelo://app?vid=69c2280d-9883-47db-99f2-c073a6babae6","ios":"levelo://app?vid=69c2280d-9883-47db-99f2-c073a6babae6"},"vehicle_type_id":"4","last_reported":1751810959,"current_range_meters":6800,"station_id":"","pricing_plan_id":"cebpf4jnsgd1na2vs0mg"},{"bike_id":"71ae1b96-3c87-47f6-84c1-eb797576bd71","system_id":"levelo_inurba_marseille","lat":43.31563,"lon":5.38381,"is_reserved":false,"is_disabled":false,"rental_uris":{"android":"levelo://app?vid=71ae1b96-3c87-47f6-84c1-eb797576bd71","ios":"levelo://app?vid=71ae1b96-3c87-47f6-84c1-eb797576bd71"},"vehicle_type_id":"4","last_reported":1751810959,"current_range_meters":7200,"station_id":"","pricing_plan_id":"cebpf4jnsgd1na2vs0mg"},{"bike_id":"1e04b9e2-27c6-4b30-b902-6c81e18716e2","system_id":"levelo_inurba_marseille","lat":43.31181,"lon":5.37774,"is_reserved":false,"is_disabled":false,"rental_uris":{"android":"levelo://app?vid=1e04b9e2-27c6-4b30-b902-6c81e18716e2","ios":"levelo://app?vid=1e04b9e2-27c6-4b30-b902-6c81e18716e2"},"vehicle_type_id":"4","last_reported":1751810959,"current_range_meters":8000,"station_id":"","pricing_plan_id":"cebpf4jnsgd1na2vs0mg"},{"bike_id":"561db4a4-3716-4586-9c90-bc6f60f34dcc","system_id":"levelo_inurba_marseille","lat":43.25579,"lon":5.38238,"is_reserved":false,"is_disabled":false,"rental_uris":{"android":"levelo://app?vid=561db4a4-3716-4586-9c90-bc6f60f34dcc","ios":"levelo://app?vid=561db4a4-3716-4586-9c90-bc6f60f34dcc"},"vehicle_type_id":"4","last_reported":1751810959,"current_range_meters":8000,"station_id":"ce4bhih2rcd13ifvqfs0","pricing_plan_id":"cebpf4jnsgd1na2vs0mg"},{"bike_id":"d63ed742-670a-472e-8d22-e41f721d95bc","system_id":"levelo_inurba_marseille","lat":43.28476,"lon":5.38418,"is_reserved":false,"is_disabled":false,"rental_uris":{"android":"levelo://app?vid=d63ed742-670a-472e-8d22-e41f721d95bc","ios":"levelo://app?vid=d63ed742-670a-472e-8d22-e41f721d95bc"},"vehicle_type_id":"4","last_reported":1751810959,"current_range_meters":8400,"station_id":"ce4bh512rcd13ifvqe3g","pricing_plan_id":"cebpf4jnsgd1na2vs0mg"},{"bike_id":"b685efed-7a48-45e7-9274-ebea419117f8","system_id":"levelo_inurba_marseille","lat":43.25727,"lon":5.41108,"is_reserved":false,"is_disabled":false,"rental_uris":{"android":"levelo://app?vid=b685efed-7a48-45e7-9274-ebea419117f8","ios":"levelo://app?vid=b685efed-7a48-45e7-9274-ebea419117f8"},"vehicle_type_id":"4","last_reported":1751810959,"current_range_meters":8400,"station_id":"ce4bhkp2rcd13ifvqgd0","pricing_plan_id":"cebpf4jnsgd1na2vs0mg"},{"bike_id":"452e8211-4f44-45d0-814a-3e9e25b8c44e","system_id":"levelo_inurba_marseille","lat":43.21197,"lon":5.35062,"is_reserved":false,"is_disabled":false,"rental_uris":{"android":"levelo://app?vid=452e8211-4f44-45d0-814a-3e9e25b8c44e","ios":"levelo://app?vid=452e8211-4f44-45d0-814a-3e9e25b8c44e"},"vehicle_type_id":"4","last_reported":1751810959,"current_range_meters":8400,"station_id":"st_cvj6sg6p6f1abm77japg","pricing_plan_id":"cebpf4jnsgd1na2vs0mg"},{"bike_id":"8eb283fe-44c7-4bb1-836e-cde6c55f1adf","system_id":"levelo_inurba_marseille","lat":43.318,"lon":5.36816,"is_reserved":false,"is_disabled":false,"rental_uris":{"android":"levelo://app?vid=8eb283fe-44c7-4bb1-836e-cde6c55f1adf","ios":"levelo://app?vid=8eb283fe-44c7-4bb1-836e-cde6c55f1adf"},"vehicle_type_id":"4","last_reported":1751810959,"current_range_meters":8800,"station_id":"","pricing_plan_id":"cebpf4jnsgd1na2vs0mg"},{"bike_id":"36f9c75b-5d6c-412a-b395-ad8ffc2d771a","system_id":"levelo_inurba_marseille","lat":43.26012,"lon":5.41754,"is_reserved":false,"is_disabled":false,"rental_uris":{"android":"levelo://app?vid=36f9c75b-5d6c-412a-b395-ad8ffc2d771a","ios":"levelo://app?vid=36f9c75b-5d6c-412a-b395-ad8ffc2d771a"},"vehicle_type_id":"4","last_reported":1751810959,"current_range_meters":8800,"station_id":"","pricing_plan_id":"cebpf4jnsgd1na2vs0mg"},{"bike_id":"b04ed794-9e20-4823-bf8c-2c9c56c8c9f5","system_id":"levelo_inurba_marseille","lat":43.24999,"lon":5.38922,"is_reserved":false,"is_disabled":false,"rental_uris":{"android":"levelo://app?vid=b04ed794-9e20-4823-bf8c-2c9c56c8c9f5","ios":"levelo://app?vid=b04ed794-9e20-4823-bf8c-2c9c56c8c9f5"},"vehicle_type_id":"4","last_reported":1751810959,"current_range_meters":8800,"station_id":"ce4bhgp2rcd13ifvqfd0","pricing_plan_id":"cebpf4jnsgd1na2vs0mg"},{"bike_id":"4d59d020-ea15-4b32-a9d3-4489e240b788","system_id":"levelo_inurba_marseille","lat":43.21766,"lon":5.34628,"is_reserved":false,"is_disabled":false,"rental_uris":{"android":"levelo://app?vid=4d59d020-ea15-4b32-a9d3-4489e240b788","ios":"levelo://app?vid=4d59d020-ea15-4b32-a9d3-4489e240b788"},"vehicle_type_id":"4","last_reported":1751810959,"current_range_meters":8800,"station_id":"st_cvj6r9ubvosntc0bgbag","pricing_plan_id":"cebpf4jnsgd1na2vs0mg"},{"bike_id":"b1d40197-e49c-4962-8cd8-0babe05d31a6","system_id":"levelo_inurba_marseille","lat":43.21277,"lon":5.35262,"is_reserved":false,"is_disabled":false,"rental_uris":{"android":"levelo://app?vid=b1d40197-e49c-4962-8cd8-0babe05d31a6","ios":"levelo://app?vid=b1d40197-e49c-4962-8cd8-0babe05d31a6"},"vehicle_type_id":"4","last_reported":1751810959,"current_range_meters":9200,"station_id":"","pricing_plan_id":"cebpf4jnsgd1na2vs0mg"},{"bike_id":"78715d31-0b93-4645-bd3b-8fec9455ecbd","system_id":"levelo_inurba_marseille","lat":43.286175,"lon":5.351034,"is_reserved":false,"is_disabled":false,"rental_uris":{"android":"levelo://app?vid=78715d31-0b93-4645-bd3b-8fec9455ecbd","ios":"levelo://app?vid=78715d31-0b93-4645-bd3b-8fec9455ecbd"},"vehicle_type_id":"4","last_reported":1751810959,"current_range_meters":9200,"station_id":"ce4bgi92rcd13ifvqb90","pricing_plan_id":"cebpf4jnsgd1na2vs0mg"},{"bike_id":"d858b784-4fd9-41d7-8169-6d2f7e176251","system_id":"levelo_inurba_marseille","lat":43.300375,"lon":5.378113,"is_reserved":false,"is_disabled":false,"rental_uris":{"android":"levelo://app?vid=d858b784-4fd9-41d7-8169-6d2f7e176251","ios":"levelo://app?vid=d858b784-4fd9-41d7-8169-6d2f7e176251"},"vehicle_type_id":"4","last_reported":1751810959,"current_range_meters":9600,"station_id":"","pricing_plan_id":"cebpf4jnsgd1na2vs0mg"},{"bike_id":"86c92dc1-b4da-49d9-acb8-ba390f939865","system_id":"levelo_inurba_marseille","lat":43.33031,"lon":5.39239,"is_reserved":false,"is_disabled":false,"rental_uris":{"android":"levelo://app?vid=86c92dc1-b4da-49d9-acb8-ba390f939865","ios":"levelo://app?vid=86c92dc1-b4da-49d9-acb8-ba390f939865"},"vehicle_type_id":"4","last_reported":1751810959,"current_range_meters":9600,"station_id":"","pricing_plan_id":"cebpf4jnsgd1na2vs0mg"},{"bike_id":"383be31e-65b1-4493-839b-b13b996d0e5d","system_id":"levelo_inurba_marseille","lat":43.29095,"lon":5.3813,"is_reserved":false,"is_disabled":false,"rental_uris":{"android":"levelo://app?vid=383be31e-65b1-4493-839b-b13b996d0e5d","ios":"levelo://app?vid=383be31e-65b1-4493-839b-b13b996d0e5d"},"vehicle_type_id":"4","last_reported":1751810959,"current_range_meters":9600,"station_id":"ce4bh512rcd13ifvqe2g","pricing_plan_id":"cebpf4jnsgd1na2vs0mg"},{"bike_id":"0805f50b-40fd-45ef-be93-ff0e9245bfa6","system_id":"levelo_inurba_marseille","lat":43.28418,"lon":5.35002,"is_reserved":false,"is_disabled":false,"rental_uris":{"android":"levelo://app?vid=0805f50b-40fd-45ef-be93-ff0e9245bfa6","ios":"levelo://app?vid=0805f50b-40fd-45ef-be93-ff0e9245bfa6"},"vehicle_type_id":"4","last_reported":1751810959,"current_range_meters":9600,"station_id":"ce4bhbh2rcd13ifvqepg","pricing_plan_id":"cebpf4jnsgd1na2vs0mg"},{"bike_id":"5f65328a-0e1b-40a2-9ceb-eabe560de112","system_id":"levelo_inurba_marseille","lat":43.28246,"lon":5.35075,"is_reserved":false,"is_disabled":false,"rental_uris":{"android":"levelo://app?vid=5f65328a-0e1b-40a2-9ceb-eabe560de112","ios":"levelo://app?vid=5f65328a-0e1b-40a2-9ceb-eabe560de112"},"vehicle_type_id":"4","last_reported":1751810959,"current_range_meters":9600,"station_id":"ce4bhbp2rcd13ifvqerg","pricing_plan_id":"cebpf4jnsgd1na2vs0mg"},{"bike_id":"adf1d38d-1f03-40cf-9b57-0a8f15f62b2d","system_id":"levelo_inurba_marseille","lat":43.329211,"lon":5.364064,"is_reserved":false,"is_disabled":false,"rental_uris":{"android":"levelo://app?vid=adf1d38d-1f03-40cf-9b57-0a8f15f62b2d","ios":"levelo://app?vid=adf1d38d-1f03-40cf-9b57-0a8f15f62b2d"},"vehicle_type_id":"4","last_reported":1751810959,"current_range_meters":10000,"station_id":"","pricing_plan_id":"cebpf4jnsgd1na2vs0mg"},{"bike_id":"264896b4-9e95-4b16-beca-94e9c1c5af65","system_id":"levelo_inurba_marseille","lat":43.29579,"lon":5.37523,"is_reserved":false,"is_disabled":false,"rental_uris":{"android":"levelo://app?vid=264896b4-9e95-4b16-beca-94e9c1c5af65","ios":"levelo://app?vid=264896b4-9e95-4b16-beca-94e9c1c5af65"},"vehicle_type_id":"4","last_reported":1751810959,"current_range_meters":10000,"station_id":"ce4bgh92rcd13ifvqb50","pricing_plan_id":"cebpf4jnsgd1na2vs0mg"},{"bike_id":"2dfe9a6c-c017-4c3c-b211-38be4ceaca18","system_id":"levelo_inurba_marseille","lat":43.25067,"lon":5.39526,"is_reserved":false,"is_disabled":false,"rental_uris":{"android":"levelo://app?vid=2dfe9a6c-c017-4c3c-b211-38be4ceaca18","ios":"levelo://app?vid=2dfe9a6c-c017-4c3c-b211-38be4ceaca18"},"vehicle_type_id":"4","last_reported":1751810959,"current_range_meters":10000,"station_id":"ce4bhm12rcd13ifvqgkg","pricing_plan_id":"cebpf4jnsgd1na2vs0mg"},{"bike_id":"af49b832-1416-49c0-89a1-fdae241b06f6","system_id":"levelo_inurba_marseille","lat":43.29897,"lon":5.43653,"is_reserved":false,"is_disabled":false,"rental_uris":{"android":"levelo://app?vid=af49b832-1416-49c0-89a1-fdae241b06f6","ios":"levelo://app?vid=af49b832-1416-49c0-89a1-fdae241b06f6"},"vehicle_type_id":"4","last_reported":1751810959,"current_range_meters":10000,"station_id":"ce4bhpp2rcd13ifvqhfg","pricing_plan_id":"cebpf4jnsgd1na2vs0mg"},{"bike_id":"fe8ee84c-fdfc-40aa-a1c2-6e36409c0740","system_id":"levelo_inurba_marseille","lat":43.26831,"lon":5.39058,"is_reserved":false,"is_disabled":false,"rental_uris":{"android":"levelo://app?vid=fe8ee84c-fdfc-40aa-a1c2-6e36409c0740","ios":"levelo://app?vid=fe8ee84c-fdfc-40aa-a1c2-6e36409c0740"},"vehicle_type_id":"4","last_reported":1751810959,"current_range_meters":10800,"station_id":"","pricing_plan_id":"cebpf4jnsgd1na2vs0mg"},{"bike_id":"84229d79-63a9-417f-9ad3-2f0ab7956b45","system_id":"levelo_inurba_marseille","lat":43.24072,"lon":5.3777,"is_reserved":false,"is_disabled":false,"rental_uris":{"android":"levelo://app?vid=84229d79-63a9-417f-9ad3-2f0ab7956b45","ios":"levelo://app?vid=84229d79-63a9-417f-9ad3-2f0ab7956b45"},"vehicle_type_id":"4","last_reported":1751810959,"current_range_meters":10800,"station_id":"ce4bhnp2rcd13ifvqgvg","pricing_plan_id":"cebpf4jnsgd1na2vs0mg"},{"bike_id":"242b724f-fe88-483c-89a3-315957136a70","system_id":"levelo_inurba_marseille","lat":43.21761,"lon":5.34583,"is_reserved":false,"is_disabled":false,"rental_uris":{"android":"levelo://app?vid=242b724f-fe88-483c-89a3-315957136a70","ios":"levelo://app?vid=242b724f-fe88-483c-89a3-315957136a70"},"vehicle_type_id":"4","last_reported":1751810959,"current_range_meters":10800,"station_id":"st_cvj6r9ubvosntc0bgbag","pricing_plan_id":"cebpf4jnsgd1na2vs0mg"},{"bike_id":"f24de232-65c7-4be7-9e98-e4a9a828fd58","system_id":"levelo_inurba_marseille","lat":43.24274,"lon":5.38859,"is_reserved":false,"is_disabled":false,"rental_uris":{"android":"levelo://app?vid=f24de232-65c7-4be7-9e98-e4a9a828fd58","ios":"levelo://app?vid=f24de232-65c7-4be7-9e98-e4a9a828fd58"},"vehicle_type_id":"4","last_reported":1751810959,"current_range_meters":11200,"station_id":"","pricing_plan_id":"cebpf4jnsgd1na2vs0mg"},{"bike_id":"22adfcc0-3228-49e4-a7c4-c69a715257e8","system_id":"levelo_inurba_marseille","lat":43.31327,"lon":5.39693,"is_reserved":false,"is_disabled":false,"rental_uris":{"android":"levelo://app?vid=22adfcc0-3228-49e4-a7c4-c69a715257e8","ios":"levelo://app?vid=22adfcc0-3228-49e4-a7c4-c69a715257e8"},"vehicle_type_id":"4","last_reported":1751810959,"current_range_meters":11200,"station_id":"ce4bgvp2rcd13ifvqcu0","pricing_plan_id":"cebpf4jnsgd1na2vs0mg"},{"bike_id":"fa520eb7-7938-4be3-8d8b-8e09423d54b4","system_id":"levelo_inurba_marseille","lat":43.30424,"lon":5.39748,"is_reserved":false,"is_disabled":false,"rental_uris":{"android":"levelo://app?vid=fa520eb7-7938-4be3-8d8b-8e09423d54b4","ios":"levelo://app?vid=fa520eb7-7938-4be3-8d8b-8e09423d54b4"},"vehicle_type_id":"4","last_reported":1751810959,"current_range_meters":11200,"station_id":"ce4bh092rcd13ifvqd20","pricing_plan_id":"cebpf4jnsgd1na2vs0mg"},{"bike_id":"50780aff-d2c2-45d9-93f5-ee9f5478edf3","system_id":"levelo_inurba_marseille","lat":43.28267,"lon":5.35069,"is_reserved":false,"is_disabled":false,"rental_uris":{"android":"levelo://app?vid=50780aff-d2c2-45d9-93f5-ee9f5478edf3","ios":"levelo://app?vid=50780aff-d2c2-45d9-93f5-ee9f5478edf3"},"vehicle_type_id":"4","last_reported":1751810959,"current_range_meters":11200,"station_id":"ce4bhbp2rcd13ifvqerg","pricing_plan_id":"cebpf4jnsgd1na2vs0mg"},{"bike_id":"e6447eff-34e4-4551-a772-997b95c9bc0d","system_id":"levelo_inurba_marseille","lat":43.2573,"lon":5.41107,"is_reserved":false,"is_disabled":false,"rental_uris":{"android":"levelo://app?vid=e6447eff-34e4-4551-a772-997b95c9bc0d","ios":"levelo://app?vid=e6447eff-34e4-4551-a772-997b95c9bc0d"},"vehicle_type_id":"4","last_reported":1751810959,"current_range_meters":11200,"station_id":"ce501612rcd8frsf0b60","pricing_plan_id":"cebpf4jnsgd1na2vs0mg"},{"bike_id":"5721378a-4fab-4eae-86af-0685cd9383f4","system_id":"levelo_inurba_marseille","lat":43.21752,"lon":5.34586,"is_reserved":false,"is_disabled":false,"rental_uris":{"android":"levelo://app?vid=5721378a-4fab-4eae-86af-0685cd9383f4","ios":"levelo://app?vid=5721378a-4fab-4eae-86af-0685cd9383f4"},"vehicle_type_id":"4","last_reported":1751810959,"current_range_meters":11200,"station_id":"st_cvj6r9ubvosntc0bgbag","pricing_plan_id":"cebpf4jnsgd1na2vs0mg"},{"bike_id":"ed290504-6948-4f69-8584-2e2b0286febf","system_id":"levelo_inurba_marseille","lat":43.21188,"lon":5.3507,"is_reserved":false,"is_disabled":false,"rental_uris":{"android":"levelo://app?vid=ed290504-6948-4f69-8584-2e2b0286febf","ios":"levelo://app?vid=ed290504-6948-4f69-8584-2e2b0286febf"},"vehicle_type_id":"4","last_reported":1751810959,"current_range_meters":11200,"station_id":"st_cvj6sg6p6f1abm77japg","pricing_plan_id":"cebpf4jnsgd1na2vs0mg"},{"bike_id":"f010bc66-9295-4bf0-bf0f-21924ad6a68c","system_id":"levelo_inurba_marseille","lat":43.2798,"lon":5.38748,"is_reserved":false,"is_disabled":false,"rental_uris":{"android":"levelo://app?vid=f010bc66-9295-4bf0-bf0f-21924ad6a68c","ios":"levelo://app?vid=f010bc66-9295-4bf0-bf0f-21924ad6a68c"},"vehicle_type_id":"4","last_reported":1751810959,"current_range_meters":11600,"station_id":"ce4bhg12rcd13ifvqf80","pricing_plan_id":"cebpf4jnsgd1na2vs0mg"},{"bike_id":"e934df3a-55ad-4287-be0e-970eb81a614c","system_id":"levelo_inurba_marseille","lat":43.337355,"lon":5.391869,"is_reserved":false,"is_disabled":false,"rental_uris":{"android":"levelo://app?vid=e934df3a-55ad-4287-be0e-970eb81a614c","ios":"levelo://app?vid=e934df3a-55ad-4287-be0e-970eb81a614c"},"vehicle_type_id":"4","last_reported":1751810959,"current_range_meters":11600,"station_id":"ce4bhr92rcd13ifvqhsg","pricing_plan_id":"cebpf4jnsgd1na2vs0mg"},{"bike_id":"c81dc2e6-92e1-4ae2-b690-46addd796bdb","system_id":"levelo_inurba_marseille","lat":43.28616,"lon":5.35102,"is_reserved":false,"is_disabled":false,"rental_uris":{"android":"levelo://app?vid=c81dc2e6-92e1-4ae2-b690-46addd796bdb","ios":"levelo://app?vid=c81dc2e6-92e1-4ae2-b690-46addd796bdb"},"vehicle_type_id":"4","last_reported":1751810959,"current_range_meters":12400,"station_id":"ce4bhch2rcd13ifvqeug","pricing_plan_id":"cebpf4jnsgd1na2vs0mg"},{"bike_id":"948b1bda-1cfb-48a6-84ae-be0e69ee72b3","system_id":"levelo_inurba_marseille","lat":43.25489,"lon":5.37647,"is_reserved":false,"is_disabled":false,"rental_uris":{"android":"levelo://app?vid=948b1bda-1cfb-48a6-84ae-be0e69ee72b3","ios":"levelo://app?vid=948b1bda-1cfb-48a6-84ae-be0e69ee72b3"},"vehicle_type_id":"4","last_reported":1751810959,"current_range_meters":12400,"station_id":"ce4bhh12rcd13ifvqff0","pricing_plan_id":"cebpf4jnsgd1na2vs0mg"},{"bike_id":"4d516fb5-34a1-4d5d-bac2-fed96559e94b","system_id":"levelo_inurba_marseille","lat":43.24383,"lon":5.37059,"is_reserved":false,"is_disabled":false,"rental_uris":{"android":"levelo://app?vid=4d516fb5-34a1-4d5d-bac2-fed96559e94b","ios":"levelo://app?vid=4d516fb5-34a1-4d5d-bac2-fed96559e94b"},"vehicle_type_id":"4","last_reported":1751810959,"current_range_meters":12400,"station_id":"ce4bhhh2rcd13ifvqfk0","pricing_plan_id":"cebpf4jnsgd1na2vs0mg"},{"bike_id":"3e0f8be8-dba9-42cd-8520-71f7b019883a","system_id":"levelo_inurba_marseille","lat":43.22933,"lon":5.35372,"is_reserved":false,"is_disabled":false,"rental_uris":{"android":"levelo://app?vid=3e0f8be8-dba9-42cd-8520-71f7b019883a","ios":"levelo://app?vid=3e0f8be8-dba9-42cd-8520-71f7b019883a"},"vehicle_type_id":"4","last_reported":1751810959,"current_range_meters":12400,"station_id":"cpo3532slgdg3j2ikp40","pricing_plan_id":"cebpf4jnsgd1na2vs0mg"},{"bike_id":"f4a15f7b-6acc-4450-ae32-78d740a7bd8e","system_id":"levelo_inurba_marseille","lat":43.30183,"lon":5.36613,"is_reserved":false,"is_disabled":false,"rental_uris":{"android":"levelo://app?vid=f4a15f7b-6acc-4450-ae32-78d740a7bd8e","ios":"levelo://app?vid=f4a15f7b-6acc-4450-ae32-78d740a7bd8e"},"vehicle_type_id":"4","last_reported":1751810959,"current_range_meters":12800,"station_id":"ce4bgrh2rcd13ifvqc8g","pricing_plan_id":"cebpf4jnsgd1na2vs0mg"},{"bike_id":"b1c56edb-4d0c-44c3-8905-3a9daaf36eb2","system_id":"levelo_inurba_marseille","lat":43.28483,"lon":5.3856,"is_reserved":false,"is_disabled":false,"rental_uris":{"android":"levelo://app?vid=b1c56edb-4d0c-44c3-8905-3a9daaf36eb2","ios":"levelo://app?vid=b1c56edb-4d0c-44c3-8905-3a9daaf36eb2"},"vehicle_type_id":"4","last_reported":1751810959,"current_range_meters":13600,"station_id":"ce4bh8p2rcd13ifvqeb0","pricing_plan_id":"cebpf4jnsgd1na2vs0mg"},{"bike_id":"f0f5480c-40ba-4897-b55b-fcab9ada1fbe","system_id":"levelo_inurba_marseille","lat":43.27942,"lon":5.41038,"is_reserved":false,"is_disabled":false,"rental_uris":{"android":"levelo://app?vid=f0f5480c-40ba-4897-b55b-fcab9ada1fbe","ios":"levelo://app?vid=f0f5480c-40ba-4897-b55b-fcab9ada1fbe"},"vehicle_type_id":"4","last_reported":1751810959,"current_range_meters":13600,"station_id":"ce4bhnp2rcd13ifvqh0g","pricing_plan_id":"cebpf4jnsgd1na2vs0mg"},{"bike_id":"44c5d8b4-a09b-481c-b3d7-d51bb5029874","system_id":"levelo_inurba_marseille","lat":43.21758,"lon":5.34626,"is_reserved":false,"is_disabled":false,"rental_uris":{"android":"levelo://app?vid=44c5d8b4-a09b-481c-b3d7-d51bb5029874","ios":"levelo://app?vid=44c5d8b4-a09b-481c-b3d7-d51bb5029874"},"vehicle_type_id":"4","last_reported":1751810959,"current_range_meters":13600,"station_id":"st_cvj6r9ubvosntc0bgbag","pricing_plan_id":"cebpf4jnsgd1na2vs0mg"},{"bike_id":"663d563d-36f1-4cf2-9217-576cc7b3f7c2","system_id":"levelo_inurba_marseille","lat":43.29793,"lon":5.363,"is_reserved":false,"is_disabled":false,"rental_uris":{"android":"levelo://app?vid=663d563d-36f1-4cf2-9217-576cc7b3f7c2","ios":"levelo://app?vid=663d563d-36f1-4cf2-9217-576cc7b3f7c2"},"vehicle_type_id":"4","last_reported":1751810959,"current_range_meters":14000,"station_id":"","pricing_plan_id":"cebpf4jnsgd1na2vs0mg"},{"bike_id":"41266bdc-83c3-4054-ae66-e606d2963ce7","system_id":"levelo_inurba_marseille","lat":43.26215,"lon":5.37449,"is_reserved":false,"is_disabled":false,"rental_uris":{"android":"levelo://app?vid=41266bdc-83c3-4054-ae66-e606d2963ce7","ios":"levelo://app?vid=41266bdc-83c3-4054-ae66-e606d2963ce7"},"vehicle_type_id":"4","last_reported":1751810959,"current_range_meters":14000,"station_id":"ce4bhgp2rcd13ifvqfc0","pricing_plan_id":"cebpf4jnsgd1na2vs0mg"},{"bike_id":"b5f7697c-1651-425b-9e4d-d5929cda941f","system_id":"levelo_inurba_marseille","lat":43.262146,"lon":5.374634,"is_reserved":false,"is_disabled":false,"rental_uris":{"android":"levelo://app?vid=b5f7697c-1651-425b-9e4d-d5929cda941f","ios":"levelo://app?vid=b5f7697c-1651-425b-9e4d-d5929cda941f"},"vehicle_type_id":"4","last_reported":1751810959,"current_range_meters":14000,"station_id":"ce4bhgp2rcd13ifvqfc0","pricing_plan_id":"cebpf4jnsgd1na2vs0mg"},{"bike_id":"799eabc5-b610-4ac4-948e-1f7fde07ea20","system_id":"levelo_inurba_marseille","lat":43.27576,"lon":5.38421,"is_reserved":false,"is_disabled":false,"rental_uris":{"android":"levelo://app?vid=799eabc5-b610-4ac4-948e-1f7fde07ea20","ios":"levelo://app?vid=799eabc5-b610-4ac4-948e-1f7fde07ea20"},"vehicle_type_id":"4","last_reported":1751810959,"current_range_meters":14000,"station_id":"ce4bhh92rcd13ifvqfi0","pricing_plan_id":"cebpf4jnsgd1na2vs0mg"},{"bike_id":"aca47642-4ceb-4a40-bae0-66b7f0d6dee2","system_id":"levelo_inurba_marseille","lat":43.22509,"lon":5.34769,"is_reserved":false,"is_disabled":false,"rental_uris":{"android":"levelo://app?vid=aca47642-4ceb-4a40-bae0-66b7f0d6dee2","ios":"levelo://app?vid=aca47642-4ceb-4a40-bae0-66b7f0d6dee2"},"vehicle_type_id":"4","last_reported":1751810959,"current_range_meters":14000,"station_id":"st_cvj5dfep6f1abm77gieg","pricing_plan_id":"cebpf4jnsgd1na2vs0mg"},{"bike_id":"e55cea4f-26d4-4f9c-bf7a-025fd9a4a22d","system_id":"levelo_inurba_marseille","lat":43.23432,"lon":5.3591,"is_reserved":false,"is_disabled":false,"rental_uris":{"android":"levelo://app?vid=e55cea4f-26d4-4f9c-bf7a-025fd9a4a22d","ios":"levelo://app?vid=e55cea4f-26d4-4f9c-bf7a-025fd9a4a22d"},"vehicle_type_id":"4","last_reported":1751810959,"current_range_meters":14400,"station_id":"","pricing_plan_id":"cebpf4jnsgd1na2vs0mg"},{"bike_id":"5a86c329-699e-4e19-80f3-47f5854769c4","system_id":"levelo_inurba_marseille","lat":43.25581,"lon":5.38231,"is_reserved":false,"is_disabled":false,"rental_uris":{"android":"levelo://app?vid=5a86c329-699e-4e19-80f3-47f5854769c4","ios":"levelo://app?vid=5a86c329-699e-4e19-80f3-47f5854769c4"},"vehicle_type_id":"4","last_reported":1751810959,"current_range_meters":14400,"station_id":"ce4bhih2rcd13ifvqfs0","pricing_plan_id":"cebpf4jnsgd1na2vs0mg"},{"bike_id":"36308028-25e5-4ae9-b23f-6574ad5696d7","system_id":"levelo_inurba_marseille","lat":43.26681,"lon":5.38273,"is_reserved":false,"is_disabled":false,"rental_uris":{"android":"levelo://app?vid=36308028-25e5-4ae9-b23f-6574ad5696d7","ios":"levelo://app?vid=36308028-25e5-4ae9-b23f-6574ad5696d7"},"vehicle_type_id":"4","last_reported":1751810959,"current_range_meters":14800,"station_id":"ce4bhg92rcd13ifvqf90","pricing_plan_id":"cebpf4jnsgd1na2vs0mg"},{"bike_id":"cd6f91d4-bdaf-4e38-b4f5-14f6e83055e8","system_id":"levelo_inurba_marseille","lat":43.21187,"lon":5.35071,"is_reserved":false,"is_disabled":false,"rental_uris":{"android":"levelo://app?vid=cd6f91d4-bdaf-4e38-b4f5-14f6e83055e8","ios":"levelo://app?vid=cd6f91d4-bdaf-4e38-b4f5-14f6e83055e8"},"vehicle_type_id":"4","last_reported":1751810959,"current_range_meters":14800,"station_id":"st_cvj6sg6p6f1abm77japg","pricing_plan_id":"cebpf4jnsgd1na2vs0mg"},{"bike_id":"095253af-5bfc-4437-9bb5-7da78f7b5c4d","system_id":"levelo_inurba_marseille","lat":43.28399,"lon":5.34993,"is_reserved":false,"is_disabled":false,"rental_uris":{"android":"levelo://app?vid=095253af-5bfc-4437-9bb5-7da78f7b5c4d","ios":"levelo://app?vid=095253af-5bfc-4437-9bb5-7da78f7b5c4d"},"vehicle_type_id":"4","last_reported":1751810959,"current_range_meters":15200,"station_id":"ce4bhbh2rcd13ifvqepg","pricing_plan_id":"cebpf4jnsgd1na2vs0mg"},{"bike_id":"01b6cae2-c15e-497e-8f24-32288b1baf9b","system_id":"levelo_inurba_marseille","lat":43.285549,"lon":5.350532,"is_reserved":false,"is_disabled":false,"rental_uris":{"android":"levelo://app?vid=01b6cae2-c15e-497e-8f24-32288b1baf9b","ios":"levelo://app?vid=01b6cae2-c15e-497e-8f24-32288b1baf9b"},"vehicle_type_id":"4","last_reported":1751810959,"current_range_meters":15200,"station_id":"ce4bhbh2rcd13ifvqepg","pricing_plan_id":"cebpf4jnsgd1na2vs0mg"},{"bike_id":"ef40b324-d214-4e73-9d7c-ab8616d5b4ea","system_id":"levelo_inurba_marseille","lat":43.28263,"lon":5.35068,"is_reserved":false,"is_disabled":false,"rental_uris":{"android":"levelo://app?vid=ef40b324-d214-4e73-9d7c-ab8616d5b4ea","ios":"levelo://app?vid=ef40b324-d214-4e73-9d7c-ab8616d5b4ea"},"vehicle_type_id":"4","last_reported":1751810959,"current_range_meters":15200,"station_id":"ce4bhbp2rcd13ifvqerg","pricing_plan_id":"cebpf4jnsgd1na2vs0mg"},{"bike_id":"1666c958-931d-445e-9197-718e727f181d","system_id":"levelo_inurba_marseille","lat":43.28728,"lon":5.36081,"is_reserved":false,"is_disabled":false,"rental_uris":{"android":"levelo://app?vid=1666c958-931d-445e-9197-718e727f181d","ios":"levelo://app?vid=1666c958-931d-445e-9197-718e727f181d"},"vehicle_type_id":"4","last_reported":1751810959,"current_range_meters":15200,"station_id":"cki0cbj6b192h4jlfktg","pricing_plan_id":"cebpf4jnsgd1na2vs0mg"},{"bike_id":"3b22f952-d0bc-4c00-8fd3-7e27b88aea23","system_id":"levelo_inurba_marseille","lat":43.29659,"lon":5.36245,"is_reserved":false,"is_disabled":false,"rental_uris":{"android":"levelo://app?vid=3b22f952-d0bc-4c00-8fd3-7e27b88aea23","ios":"levelo://app?vid=3b22f952-d0bc-4c00-8fd3-7e27b88aea23"},"vehicle_type_id":"4","last_reported":1751810959,"current_range_meters":16000,"station_id":"","pricing_plan_id":"cebpf4jnsgd1na2vs0mg"},{"bike_id":"fd0c40bb-13af-456a-83c0-b62ac6fc7ee4","system_id":"levelo_inurba_marseille","lat":43.284166,"lon":5.349853,"is_reserved":false,"is_disabled":false,"rental_uris":{"android":"levelo://app?vid=fd0c40bb-13af-456a-83c0-b62ac6fc7ee4","ios":"levelo://app?vid=fd0c40bb-13af-456a-83c0-b62ac6fc7ee4"},"vehicle_type_id":"4","last_reported":1751810959,"current_range_meters":16000,"station_id":"ce4bhbh2rcd13ifvqepg","pricing_plan_id":"cebpf4jnsgd1na2vs0mg"},{"bike_id":"8ae4b4aa-597a-41eb-a714-3e7e375236cf","system_id":"levelo_inurba_marseille","lat":43.28406,"lon":5.34994,"is_reserved":false,"is_disabled":false,"rental_uris":{"android":"levelo://app?vid=8ae4b4aa-597a-41eb-a714-3e7e375236cf","ios":"levelo://app?vid=8ae4b4aa-597a-41eb-a714-3e7e375236cf"},"vehicle_type_id":"4","last_reported":1751810959,"current_range_meters":16000,"station_id":"ce4bhbh2rcd13ifvqepg","pricing_plan_id":"cebpf4jnsgd1na2vs0mg"},{"bike_id":"cf6b891f-82a2-45b2-9895-19e0bc392857","system_id":"levelo_inurba_marseille","lat":43.29216,"lon":5.36053,"is_reserved":false,"is_disabled":false,"rental_uris":{"android":"levelo://app?vid=cf6b891f-82a2-45b2-9895-19e0bc392857","ios":"levelo://app?vid=cf6b891f-82a2-45b2-9895-19e0bc392857"},"vehicle_type_id":"4","last_reported":1751810959,"current_range_meters":16000,"station_id":"ce4bhbh2rcd13ifvqeqg","pricing_plan_id":"cebpf4jnsgd1na2vs0mg"},{"bike_id":"a1392210-8d87-4d7e-8043-178803ddcc0f","system_id":"levelo_inurba_marseille","lat":43.23961,"lon":5.36639,"is_reserved":false,"is_disabled":false,"rental_uris":{"android":"levelo://app?vid=a1392210-8d87-4d7e-8043-178803ddcc0f","ios":"levelo://app?vid=a1392210-8d87-4d7e-8043-178803ddcc0f"},"vehicle_type_id":"4","last_reported":1751810959,"current_range_meters":16000,"station_id":"ce4bhi12rcd13ifvqfp0","pricing_plan_id":"cebpf4jnsgd1na2vs0mg"},{"bike_id":"d77d9f44-3927-43ab-a6ef-3fbea8696914","system_id":"levelo_inurba_marseille","lat":43.2558,"lon":5.382497,"is_reserved":false,"is_disabled":false,"rental_uris":{"android":"levelo://app?vid=d77d9f44-3927-43ab-a6ef-3fbea8696914","ios":"levelo://app?vid=d77d9f44-3927-43ab-a6ef-3fbea8696914"},"vehicle_type_id":"4","last_reported":1751810959,"current_range_meters":16000,"station_id":"ce4bhih2rcd13ifvqfs0","pricing_plan_id":"cebpf4jnsgd1na2vs0mg"},{"bike_id":"e113175a-26c2-4709-bd2e-8b90ec8dd3ee","system_id":"levelo_inurba_marseille","lat":43.274925,"lon":5.4246,"is_reserved":false,"is_disabled":false,"rental_uris":{"android":"levelo://app?vid=e113175a-26c2-4709-bd2e-8b90ec8dd3ee","ios":"levelo://app?vid=e113175a-26c2-4709-bd2e-8b90ec8dd3ee"},"vehicle_type_id":"4","last_reported":1751810959,"current_range_meters":16000,"station_id":"ce4bhn92rcd13ifvqgrg","pricing_plan_id":"cebpf4jnsgd1na2vs0mg"},{"bike_id":"7fbe4325-9f3f-4695-972a-53bbf1a31ef7","system_id":"levelo_inurba_marseille","lat":43.2119,"lon":5.35087,"is_reserved":false,"is_disabled":false,"rental_uris":{"android":"levelo://app?vid=7fbe4325-9f3f-4695-972a-53bbf1a31ef7","ios":"levelo://app?vid=7fbe4325-9f3f-4695-972a-53bbf1a31ef7"},"vehicle_type_id":"4","last_reported":1751810959,"current_range_meters":16000,"station_id":"st_cvj6sg6p6f1abm77japg","pricing_plan_id":"cebpf4jnsgd1na2vs0mg"},{"bike_id":"80955d0f-8669-4c02-b90f-c6fe20790c37","system_id":"levelo_inurba_marseille","lat":43.23182,"lon":5.35083,"is_reserved":false,"is_disabled":false,"rental_uris":{"android":"levelo://app?vid=80955d0f-8669-4c02-b90f-c6fe20790c37","ios":"levelo://app?vid=80955d0f-8669-4c02-b90f-c6fe20790c37"},"vehicle_type_id":"4","last_reported":1751810959,"current_range_meters":16400,"station_id":"","pricing_plan_id":"cebpf4jnsgd1na2vs0mg"},{"bike_id":"0ae54d68-df13-4e15-8c05-29109251c426","system_id":"levelo_inurba_marseille","lat":43.28262,"lon":5.35064,"is_reserved":false,"is_disabled":false,"rental_uris":{"android":"levelo://app?vid=0ae54d68-df13-4e15-8c05-29109251c426","ios":"levelo://app?vid=0ae54d68-df13-4e15-8c05-29109251c426"},"vehicle_type_id":"4","last_reported":1751810959,"current_range_meters":16400,"station_id":"ce4bhbp2rcd13ifvqerg","pricing_plan_id":"cebpf4jnsgd1na2vs0mg"},{"bike_id":"1c12da94-d788-4db7-bea9-aa04743baa20","system_id":"levelo_inurba_marseille","lat":43.262117,"lon":5.374317,"is_reserved":false,"is_disabled":false,"rental_uris":{"android":"levelo://app?vid=1c12da94-d788-4db7-bea9-aa04743baa20","ios":"levelo://app?vid=1c12da94-d788-4db7-bea9-aa04743baa20"},"vehicle_type_id":"4","last_reported":1751810959,"current_range_meters":16400,"station_id":"ce4bhgp2rcd13ifvqfc0","pricing_plan_id":"cebpf4jnsgd1na2vs0mg"},{"bike_id":"37f2becd-23f9-4f13-a711-38b8024eeec7","system_id":"levelo_inurba_marseille","lat":43.33768,"lon":5.37516,"is_reserved":false,"is_disabled":false,"rental_uris":{"android":"levelo://app?vid=37f2becd-23f9-4f13-a711-38b8024eeec7","ios":"levelo://app?vid=37f2becd-23f9-4f13-a711-38b8024eeec7"},"vehicle_type_id":"4","last_reported":1751810959,"current_range_meters":16800,"station_id":"","pricing_plan_id":"cebpf4jnsgd1na2vs0mg"},{"bike_id":"65072e38-7284-42b0-ab16-14d0174840c5","system_id":"levelo_inurba_marseille","lat":43.28852,"lon":5.39304,"is_reserved":false,"is_disabled":false,"rental_uris":{"android":"levelo://app?vid=65072e38-7284-42b0-ab16-14d0174840c5","ios":"levelo://app?vid=65072e38-7284-42b0-ab16-14d0174840c5"},"vehicle_type_id":"4","last_reported":1751810959,"current_range_meters":16800,"station_id":"ce4bh2p2rcd13ifvqdi0","pricing_plan_id":"cebpf4jnsgd1na2vs0mg"},{"bike_id":"0fad0e94-d83e-456e-b2df-665694d6794f","system_id":"levelo_inurba_marseille","lat":43.28102,"lon":5.37848,"is_reserved":false,"is_disabled":false,"rental_uris":{"android":"levelo://app?vid=0fad0e94-d83e-456e-b2df-665694d6794f","ios":"levelo://app?vid=0fad0e94-d83e-456e-b2df-665694d6794f"},"vehicle_type_id":"4","last_reported":1751810959,"current_range_meters":16800,"station_id":"ce4bha12rcd13ifvqee0","pricing_plan_id":"cebpf4jnsgd1na2vs0mg"},{"bike_id":"e9c42127-9367-475a-bd8e-edfa7c280ec4","system_id":"levelo_inurba_marseille","lat":43.28402,"lon":5.34994,"is_reserved":false,"is_disabled":false,"rental_uris":{"android":"levelo://app?vid=e9c42127-9367-475a-bd8e-edfa7c280ec4","ios":"levelo://app?vid=e9c42127-9367-475a-bd8e-edfa7c280ec4"},"vehicle_type_id":"4","last_reported":1751810959,"current_range_meters":16800,"station_id":"ce4bhbh2rcd13ifvqepg","pricing_plan_id":"cebpf4jnsgd1na2vs0mg"},{"bike_id":"f658a814-1441-47a0-8738-7d54af2d97a6","system_id":"levelo_inurba_marseille","lat":43.341557,"lon":5.408974,"is_reserved":false,"is_disabled":false,"rental_uris":{"android":"levelo://app?vid=f658a814-1441-47a0-8738-7d54af2d97a6","ios":"levelo://app?vid=f658a814-1441-47a0-8738-7d54af2d97a6"},"vehicle_type_id":"4","last_reported":1751810959,"current_range_meters":16800,"station_id":"ce4bhqh2rcd13ifvqhlg","pricing_plan_id":"cebpf4jnsgd1na2vs0mg"},{"bike_id":"aa8f61d8-323f-47e5-890f-90ad80dab82c","system_id":"levelo_inurba_marseille","lat":43.33728,"lon":5.39223,"is_reserved":false,"is_disabled":false,"rental_uris":{"android":"levelo://app?vid=aa8f61d8-323f-47e5-890f-90ad80dab82c","ios":"levelo://app?vid=aa8f61d8-323f-47e5-890f-90ad80dab82c"},"vehicle_type_id":"4","last_reported":1751810959,"current_range_meters":16800,"station_id":"ce4bhr92rcd13ifvqhsg","pricing_plan_id":"cebpf4jnsgd1na2vs0mg"},{"bike_id":"7d3ff233-0eee-4c35-bb3b-478bf2bec50c","system_id":"levelo_inurba_marseille","lat":43.2176,"lon":5.3462,"is_reserved":false,"is_disabled":false,"rental_uris":{"android":"levelo://app?vid=7d3ff233-0eee-4c35-bb3b-478bf2bec50c","ios":"levelo://app?vid=7d3ff233-0eee-4c35-bb3b-478bf2bec50c"},"vehicle_type_id":"4","last_reported":1751810959,"current_range_meters":16800,"station_id":"st_cvj6r9ubvosntc0bgbag","pricing_plan_id":"cebpf4jnsgd1na2vs0mg"},{"bike_id":"7b6120de-7b13-47a6-97f0-486439cc110c","system_id":"levelo_inurba_marseille","lat":43.21779,"lon":5.34595,"is_reserved":false,"is_disabled":false,"rental_uris":{"android":"levelo://app?vid=7b6120de-7b13-47a6-97f0-486439cc110c","ios":"levelo://app?vid=7b6120de-7b13-47a6-97f0-486439cc110c"},"vehicle_type_id":"4","last_reported":1751810959,"current_range_meters":16800,"station_id":"st_cvj6r9ubvosntc0bgbag","pricing_plan_id":"cebpf4jnsgd1na2vs0mg"},{"bike_id":"7b527f00-f6ea-4963-b59d-8da04a2feedb","system_id":"levelo_inurba_marseille","lat":43.320798,"lon":5.401206,"is_reserved":false,"is_disabled":false,"rental_uris":{"android":"levelo://app?vid=7b527f00-f6ea-4963-b59d-8da04a2feedb","ios":"levelo://app?vid=7b527f00-f6ea-4963-b59d-8da04a2feedb"},"vehicle_type_id":"4","last_reported":1751810959,"current_range_meters":17200,"station_id":"","pricing_plan_id":"cebpf4jnsgd1na2vs0mg"},{"bike_id":"fbb6eb26-f5ee-4d8b-a185-17f748b796b4","system_id":"levelo_inurba_marseille","lat":43.32281,"lon":5.44014,"is_reserved":false,"is_disabled":false,"rental_uris":{"android":"levelo://app?vid=fbb6eb26-f5ee-4d8b-a185-17f748b796b4","ios":"levelo://app?vid=fbb6eb26-f5ee-4d8b-a185-17f748b796b4"},"vehicle_type_id":"4","last_reported":1751810959,"current_range_meters":17200,"station_id":"","pricing_plan_id":"cebpf4jnsgd1na2vs0mg"},{"bike_id":"9a08daf3-1646-44cb-8ad7-f79f2bfa8f49","system_id":"levelo_inurba_marseille","lat":43.25725,"lon":5.41108,"is_reserved":false,"is_disabled":false,"rental_uris":{"android":"levelo://app?vid=9a08daf3-1646-44cb-8ad7-f79f2bfa8f49","ios":"levelo://app?vid=9a08daf3-1646-44cb-8ad7-f79f2bfa8f49"},"vehicle_type_id":"4","last_reported":1751810959,"current_range_meters":17200,"station_id":"ce4bhkp2rcd13ifvqgd0","pricing_plan_id":"cebpf4jnsgd1na2vs0mg"},{"bike_id":"94a38e64-8dd8-4e2e-bcd6-3aa7bd281314","system_id":"levelo_inurba_marseille","lat":43.25121,"lon":5.40323,"is_reserved":false,"is_disabled":false,"rental_uris":{"android":"levelo://app?vid=94a38e64-8dd8-4e2e-bcd6-3aa7bd281314","ios":"levelo://app?vid=94a38e64-8dd8-4e2e-bcd6-3aa7bd281314"},"vehicle_type_id":"4","last_reported":1751810959,"current_range_meters":17200,"station_id":"ce4bhlh2rcd13ifvqgig","pricing_plan_id":"cebpf4jnsgd1na2vs0mg"},{"bike_id":"680ee95d-9c1e-41c3-8af6-acd7ca043aca","system_id":"levelo_inurba_marseille","lat":43.30418,"lon":5.41282,"is_reserved":false,"is_disabled":false,"rental_uris":{"android":"levelo://app?vid=680ee95d-9c1e-41c3-8af6-acd7ca043aca","ios":"levelo://app?vid=680ee95d-9c1e-41c3-8af6-acd7ca043aca"},"vehicle_type_id":"4","last_reported":1751810959,"current_range_meters":17200,"station_id":"ce4bhop2rcd13ifvqh8g","pricing_plan_id":"cebpf4jnsgd1na2vs0mg"},{"bike_id":"e8d7fcf5-14a0-430b-a247-ddceafd06b95","system_id":"levelo_inurba_marseille","lat":43.22504,"lon":5.34784,"is_reserved":false,"is_disabled":false,"rental_uris":{"android":"levelo://app?vid=e8d7fcf5-14a0-430b-a247-ddceafd06b95","ios":"levelo://app?vid=e8d7fcf5-14a0-430b-a247-ddceafd06b95"},"vehicle_type_id":"4","last_reported":1751810959,"current_range_meters":17200,"station_id":"st_cvj5dfep6f1abm77gieg","pricing_plan_id":"cebpf4jnsgd1na2vs0mg"},{"bike_id":"27acac9f-029d-40c3-a2a9-badfe177c925","system_id":"levelo_inurba_marseille","lat":43.271909,"lon":5.391788,"is_reserved":false,"is_disabled":false,"rental_uris":{"android":"levelo://app?vid=27acac9f-029d-40c3-a2a9-badfe177c925","ios":"levelo://app?vid=27acac9f-029d-40c3-a2a9-badfe177c925"},"vehicle_type_id":"4","last_reported":1751810959,"current_range_meters":17600,"station_id":"ce4bh292rcd13ifvqdg0","pricing_plan_id":"cebpf4jnsgd1na2vs0mg"},{"bike_id":"d5ef770d-9759-47e3-b3a5-7d2785ef76db","system_id":"levelo_inurba_marseille","lat":43.33089,"lon":5.38965,"is_reserved":false,"is_disabled":false,"rental_uris":{"android":"levelo://app?vid=d5ef770d-9759-47e3-b3a5-7d2785ef76db","ios":"levelo://app?vid=d5ef770d-9759-47e3-b3a5-7d2785ef76db"},"vehicle_type_id":"4","last_reported":1751810959,"current_range_meters":18000,"station_id":"","pricing_plan_id":"cebpf4jnsgd1na2vs0mg"},{"bike_id":"c7397c87-5738-4812-9f4b-0d531a6f59f6","system_id":"levelo_inurba_marseille","lat":43.27998,"lon":5.40016,"is_reserved":false,"is_disabled":false,"rental_uris":{"android":"levelo://app?vid=c7397c87-5738-4812-9f4b-0d531a6f59f6","ios":"levelo://app?vid=c7397c87-5738-4812-9f4b-0d531a6f59f6"},"vehicle_type_id":"4","last_reported":1751810959,"current_range_meters":18000,"station_id":"","pricing_plan_id":"cebpf4jnsgd1na2vs0mg"},{"bike_id":"e7137259-a8cc-465f-80c9-301193a6bbc3","system_id":"levelo_inurba_marseille","lat":43.21229,"lon":5.35081,"is_reserved":false,"is_disabled":false,"rental_uris":{"android":"levelo://app?vid=e7137259-a8cc-465f-80c9-301193a6bbc3","ios":"levelo://app?vid=e7137259-a8cc-465f-80c9-301193a6bbc3"},"vehicle_type_id":"4","last_reported":1751810959,"current_range_meters":18000,"station_id":"","pricing_plan_id":"cebpf4jnsgd1na2vs0mg"},{"bike_id":"17f6476a-2819-4abd-8077-86f3760e3d31","system_id":"levelo_inurba_marseille","lat":43.30644,"lon":5.40105,"is_reserved":false,"is_disabled":false,"rental_uris":{"android":"levelo://app?vid=17f6476a-2819-4abd-8077-86f3760e3d31","ios":"levelo://app?vid=17f6476a-2819-4abd-8077-86f3760e3d31"},"vehicle_type_id":"4","last_reported":1751810959,"current_range_meters":18000,"station_id":"ce4bh112rcd13ifvqda0","pricing_plan_id":"cebpf4jnsgd1na2vs0mg"},{"bike_id":"5bf9a66d-f823-4d09-b761-45ea3803c134","system_id":"levelo_inurba_marseille","lat":43.28415,"lon":5.34997,"is_reserved":false,"is_disabled":false,"rental_uris":{"android":"levelo://app?vid=5bf9a66d-f823-4d09-b761-45ea3803c134","ios":"levelo://app?vid=5bf9a66d-f823-4d09-b761-45ea3803c134"},"vehicle_type_id":"4","last_reported":1751810959,"current_range_meters":18000,"station_id":"ce4bhbh2rcd13ifvqepg","pricing_plan_id":"cebpf4jnsgd1na2vs0mg"},{"bike_id":"fce11d80-77eb-474f-9ca1-d94124035584","system_id":"levelo_inurba_marseille","lat":43.24997,"lon":5.38939,"is_reserved":false,"is_disabled":false,"rental_uris":{"android":"levelo://app?vid=fce11d80-77eb-474f-9ca1-d94124035584","ios":"levelo://app?vid=fce11d80-77eb-474f-9ca1-d94124035584"},"vehicle_type_id":"4","last_reported":1751810959,"current_range_meters":18000,"station_id":"ce4bhgp2rcd13ifvqfd0","pricing_plan_id":"cebpf4jnsgd1na2vs0mg"},{"bike_id":"4ff462f8-c5e2-4891-8834-832316ffb3ec","system_id":"levelo_inurba_marseille","lat":43.27668,"lon":5.38875,"is_reserved":false,"is_disabled":false,"rental_uris":{"android":"levelo://app?vid=4ff462f8-c5e2-4891-8834-832316ffb3ec","ios":"levelo://app?vid=4ff462f8-c5e2-4891-8834-832316ffb3ec"},"vehicle_type_id":"4","last_reported":1751810959,"current_range_meters":18000,"station_id":"ce4bhi12rcd13ifvqfo0","pricing_plan_id":"cebpf4jnsgd1na2vs0mg"},{"bike_id":"98a4af1f-f23c-453a-b71a-7ce3342b9fd4","system_id":"levelo_inurba_marseille","lat":43.28473,"lon":5.38415,"is_reserved":false,"is_disabled":false,"rental_uris":{"android":"levelo://app?vid=98a4af1f-f23c-453a-b71a-7ce3342b9fd4","ios":"levelo://app?vid=98a4af1f-f23c-453a-b71a-7ce3342b9fd4"},"vehicle_type_id":"4","last_reported":1751810959,"current_range_meters":18800,"station_id":"ce4bh512rcd13ifvqe3g","pricing_plan_id":"cebpf4jnsgd1na2vs0mg"},{"bike_id":"9600aa5c-f4f8-46ee-a539-0f5e445f6743","system_id":"levelo_inurba_marseille","lat":43.28731,"lon":5.37945,"is_reserved":false,"is_disabled":false,"rental_uris":{"android":"levelo://app?vid=9600aa5c-f4f8-46ee-a539-0f5e445f6743","ios":"levelo://app?vid=9600aa5c-f4f8-46ee-a539-0f5e445f6743"},"vehicle_type_id":"4","last_reported":1751810959,"current_range_meters":18800,"station_id":"ce4bh9p2rcd13ifvqec0","pricing_plan_id":"cebpf4jnsgd1na2vs0mg"},{"bike_id":"5f22506e-f57d-48f1-99cc-23ad0b080983","system_id":"levelo_inurba_marseille","lat":43.270695,"lon":5.422948,"is_reserved":false,"is_disabled":false,"rental_uris":{"android":"levelo://app?vid=5f22506e-f57d-48f1-99cc-23ad0b080983","ios":"levelo://app?vid=5f22506e-f57d-48f1-99cc-23ad0b080983"},"vehicle_type_id":"4","last_reported":1751810959,"current_range_meters":18800,"station_id":"ce4bhk92rcd13ifvqgb0","pricing_plan_id":"cebpf4jnsgd1na2vs0mg"},{"bike_id":"369c8dd5-1813-419d-a4e5-23b99d5734f3","system_id":"levelo_inurba_marseille","lat":43.21201,"lon":5.3509,"is_reserved":false,"is_disabled":false,"rental_uris":{"android":"levelo://app?vid=369c8dd5-1813-419d-a4e5-23b99d5734f3","ios":"levelo://app?vid=369c8dd5-1813-419d-a4e5-23b99d5734f3"},"vehicle_type_id":"4","last_reported":1751810959,"current_range_meters":18800,"station_id":"st_cvj6sg6p6f1abm77japg","pricing_plan_id":"cebpf4jnsgd1na2vs0mg"},{"bike_id":"89e2352f-f58b-4095-8a03-e2b9f796df9d","system_id":"levelo_inurba_marseille","lat":43.30536,"lon":5.36537,"is_reserved":false,"is_disabled":false,"rental_uris":{"android":"levelo://app?vid=89e2352f-f58b-4095-8a03-e2b9f796df9d","ios":"levelo://app?vid=89e2352f-f58b-4095-8a03-e2b9f796df9d"},"vehicle_type_id":"4","last_reported":1751810959,"current_range_meters":19200,"station_id":"ce4bgs12rcd13ifvqcag","pricing_plan_id":"cebpf4jnsgd1na2vs0mg"},{"bike_id":"afc8216a-338e-4995-aa5e-894b2c093ddf","system_id":"levelo_inurba_marseille","lat":43.25085,"lon":5.39526,"is_reserved":false,"is_disabled":false,"rental_uris":{"android":"levelo://app?vid=afc8216a-338e-4995-aa5e-894b2c093ddf","ios":"levelo://app?vid=afc8216a-338e-4995-aa5e-894b2c093ddf"},"vehicle_type_id":"4","last_reported":1751810959,"current_range_meters":19200,"station_id":"ce4bhm12rcd13ifvqgkg","pricing_plan_id":"cebpf4jnsgd1na2vs0mg"},{"bike_id":"e7af0a00-6167-4e68-bd0f-3f5a807e7848","system_id":"levelo_inurba_marseille","lat":43.323729,"lon":5.388802,"is_reserved":false,"is_disabled":false,"rental_uris":{"android":"levelo://app?vid=e7af0a00-6167-4e68-bd0f-3f5a807e7848","ios":"levelo://app?vid=e7af0a00-6167-4e68-bd0f-3f5a807e7848"},"vehicle_type_id":"4","last_reported":1751810959,"current_range_meters":19200,"station_id":"ce4bhqp2rcd13ifvqhog","pricing_plan_id":"cebpf4jnsgd1na2vs0mg"},{"bike_id":"60a65829-8569-43a4-8bac-b873797c9955","system_id":"levelo_inurba_marseille","lat":43.22923,"lon":5.35379,"is_reserved":false,"is_disabled":false,"rental_uris":{"android":"levelo://app?vid=60a65829-8569-43a4-8bac-b873797c9955","ios":"levelo://app?vid=60a65829-8569-43a4-8bac-b873797c9955"},"vehicle_type_id":"4","last_reported":1751810959,"current_range_meters":19200,"station_id":"cpo3532slgdg3j2ikp40","pricing_plan_id":"cebpf4jnsgd1na2vs0mg"},{"bike_id":"434c24df-e6f9-4187-95a0-b2401877468f","system_id":"levelo_inurba_marseille","lat":43.28461,"lon":5.35895,"is_reserved":false,"is_disabled":false,"rental_uris":{"android":"levelo://app?vid=434c24df-e6f9-4187-95a0-b2401877468f","ios":"levelo://app?vid=434c24df-e6f9-4187-95a0-b2401877468f"},"vehicle_type_id":"4","last_reported":1751810959,"current_range_meters":19600,"station_id":"ce4bhah2rcd13ifvqei0","pricing_plan_id":"cebpf4jnsgd1na2vs0mg"},{"bike_id":"e3dd042b-63d4-41f0-a954-a6779524ad5f","system_id":"levelo_inurba_marseille","lat":43.2842,"lon":5.35003,"is_reserved":false,"is_disabled":false,"rental_uris":{"android":"levelo://app?vid=e3dd042b-63d4-41f0-a954-a6779524ad5f","ios":"levelo://app?vid=e3dd042b-63d4-41f0-a954-a6779524ad5f"},"vehicle_type_id":"4","last_reported":1751810959,"current_range_meters":19600,"station_id":"ce4bhbh2rcd13ifvqepg","pricing_plan_id":"cebpf4jnsgd1na2vs0mg"},{"bike_id":"0509d1c8-16bc-44f6-9b17-208f37f23fcf","system_id":"levelo_inurba_marseille","lat":43.24798,"lon":5.37451,"is_reserved":false,"is_disabled":false,"rental_uris":{"android":"levelo://app?vid=0509d1c8-16bc-44f6-9b17-208f37f23fcf","ios":"levelo://app?vid=0509d1c8-16bc-44f6-9b17-208f37f23fcf"},"vehicle_type_id":"4","last_reported":1751810959,"current_range_meters":19600,"station_id":"ce4bhgh2rcd13ifvqfb0","pricing_plan_id":"cebpf4jnsgd1na2vs0mg"},{"bike_id":"5ed49339-7408-478a-93e6-a83736aae6bb","system_id":"levelo_inurba_marseille","lat":43.27807,"lon":5.40726,"is_reserved":false,"is_disabled":false,"rental_uris":{"android":"levelo://app?vid=5ed49339-7408-478a-93e6-a83736aae6bb","ios":"levelo://app?vid=5ed49339-7408-478a-93e6-a83736aae6bb"},"vehicle_type_id":"4","last_reported":1751810959,"current_range_meters":19600,"station_id":"ce4bhnh2rcd13ifvqgtg","pricing_plan_id":"cebpf4jnsgd1na2vs0mg"},{"bike_id":"994815cf-43e6-438e-bfae-b5de2bd8f666","system_id":"levelo_inurba_marseille","lat":43.23062,"lon":5.35488,"is_reserved":false,"is_disabled":false,"rental_uris":{"android":"levelo://app?vid=994815cf-43e6-438e-bfae-b5de2bd8f666","ios":"levelo://app?vid=994815cf-43e6-438e-bfae-b5de2bd8f666"},"vehicle_type_id":"4","last_reported":1751810959,"current_range_meters":19600,"station_id":"cpo3342slgdg3j2ifvpg","pricing_plan_id":"cebpf4jnsgd1na2vs0mg"},{"bike_id":"a768c01a-cb3b-4f30-a642-cb6aa6a87890","system_id":"levelo_inurba_marseille","lat":43.22928,"lon":5.35379,"is_reserved":false,"is_disabled":false,"rental_uris":{"android":"levelo://app?vid=a768c01a-cb3b-4f30-a642-cb6aa6a87890","ios":"levelo://app?vid=a768c01a-cb3b-4f30-a642-cb6aa6a87890"},"vehicle_type_id":"4","last_reported":1751810959,"current_range_meters":19600,"station_id":"cpo3532slgdg3j2ikp40","pricing_plan_id":"cebpf4jnsgd1na2vs0mg"},{"bike_id":"2ba89e04-9389-46c0-8332-f71ab425c714","system_id":"levelo_inurba_marseille","lat":43.22506,"lon":5.34785,"is_reserved":false,"is_disabled":false,"rental_uris":{"android":"levelo://app?vid=2ba89e04-9389-46c0-8332-f71ab425c714","ios":"levelo://app?vid=2ba89e04-9389-46c0-8332-f71ab425c714"},"vehicle_type_id":"4","last_reported":1751810959,"current_range_meters":19600,"station_id":"st_cvj5dfep6f1abm77gieg","pricing_plan_id":"cebpf4jnsgd1na2vs0mg"},{"bike_id":"46becf28-4829-40d7-b039-9d88b6d09367","system_id":"levelo_inurba_marseille","lat":43.21753,"lon":5.34586,"is_reserved":false,"is_disabled":false,"rental_uris":{"android":"levelo://app?vid=46becf28-4829-40d7-b039-9d88b6d09367","ios":"levelo://app?vid=46becf28-4829-40d7-b039-9d88b6d09367"},"vehicle_type_id":"4","last_reported":1751810959,"current_range_meters":19600,"station_id":"st_cvj6r9ubvosntc0bgbag","pricing_plan_id":"cebpf4jnsgd1na2vs0mg"},{"bike_id":"4ce9a064-53fd-4eb5-852c-d7f976265e16","system_id":"levelo_inurba_marseille","lat":43.30605,"lon":5.37223,"is_reserved":false,"is_disabled":false,"rental_uris":{"android":"levelo://app?vid=4ce9a064-53fd-4eb5-852c-d7f976265e16","ios":"levelo://app?vid=4ce9a064-53fd-4eb5-852c-d7f976265e16"},"vehicle_type_id":"4","last_reported":1751810959,"current_range_meters":20000,"station_id":"","pricing_plan_id":"cebpf4jnsgd1na2vs0mg"},{"bike_id":"9b904cae-0cb7-49a2-8e53-a47cb9c98316","system_id":"levelo_inurba_marseille","lat":43.24811,"lon":5.37459,"is_reserved":false,"is_disabled":false,"rental_uris":{"android":"levelo://app?vid=9b904cae-0cb7-49a2-8e53-a47cb9c98316","ios":"levelo://app?vid=9b904cae-0cb7-49a2-8e53-a47cb9c98316"},"vehicle_type_id":"4","last_reported":1751810959,"current_range_meters":20000,"station_id":"ce4bhgh2rcd13ifvqfb0","pricing_plan_id":"cebpf4jnsgd1na2vs0mg"},{"bike_id":"a14d83b1-9bad-46fe-a7e6-f9ded602c941","system_id":"levelo_inurba_marseille","lat":43.2396,"lon":5.36633,"is_reserved":false,"is_disabled":false,"rental_uris":{"android":"levelo://app?vid=a14d83b1-9bad-46fe-a7e6-f9ded602c941","ios":"levelo://app?vid=a14d83b1-9bad-46fe-a7e6-f9ded602c941"},"vehicle_type_id":"4","last_reported":1751810959,"current_range_meters":20000,"station_id":"ce4bhi12rcd13ifvqfp0","pricing_plan_id":"cebpf4jnsgd1na2vs0mg"},{"bike_id":"8f066635-8faf-4fe9-9787-930b155e412e","system_id":"levelo_inurba_marseille","lat":43.23959,"lon":5.36641,"is_reserved":false,"is_disabled":false,"rental_uris":{"android":"levelo://app?vid=8f066635-8faf-4fe9-9787-930b155e412e","ios":"levelo://app?vid=8f066635-8faf-4fe9-9787-930b155e412e"},"vehicle_type_id":"4","last_reported":1751810959,"current_range_meters":20000,"station_id":"ce4bhi12rcd13ifvqfp0","pricing_plan_id":"cebpf4jnsgd1na2vs0mg"},{"bike_id":"cc47cd4d-b526-4f51-b64b-782b3e8a473a","system_id":"levelo_inurba_marseille","lat":43.27941,"lon":5.41048,"is_reserved":false,"is_disabled":false,"rental_uris":{"android":"levelo://app?vid=cc47cd4d-b526-4f51-b64b-782b3e8a473a","ios":"levelo://app?vid=cc47cd4d-b526-4f51-b64b-782b3e8a473a"},"vehicle_type_id":"4","last_reported":1751810959,"current_range_meters":20000,"station_id":"ce4bhnp2rcd13ifvqh0g","pricing_plan_id":"cebpf4jnsgd1na2vs0mg"},{"bike_id":"9879207b-4b19-4093-a6d7-7649c1af8249","system_id":"levelo_inurba_marseille","lat":43.24171,"lon":5.36382,"is_reserved":false,"is_disabled":false,"rental_uris":{"android":"levelo://app?vid=9879207b-4b19-4093-a6d7-7649c1af8249","ios":"levelo://app?vid=9879207b-4b19-4093-a6d7-7649c1af8249"},"vehicle_type_id":"4","last_reported":1751810959,"current_range_meters":20000,"station_id":"cpo36qri1sfpv3e86is0","pricing_plan_id":"cebpf4jnsgd1na2vs0mg"},{"bike_id":"b85b1c43-2a92-4e8a-888c-f159a903f72d","system_id":"levelo_inurba_marseille","lat":43.27277,"lon":5.41642,"is_reserved":false,"is_disabled":false,"rental_uris":{"android":"levelo://app?vid=b85b1c43-2a92-4e8a-888c-f159a903f72d","ios":"levelo://app?vid=b85b1c43-2a92-4e8a-888c-f159a903f72d"},"vehicle_type_id":"4","last_reported":1751810959,"current_range_meters":20400,"station_id":"","pricing_plan_id":"cebpf4jnsgd1na2vs0mg"},{"bike_id":"914ae700-95a7-4f0c-8373-6bc0de3d183a","system_id":"levelo_inurba_marseille","lat":43.29933,"lon":5.36566,"is_reserved":false,"is_disabled":false,"rental_uris":{"android":"levelo://app?vid=914ae700-95a7-4f0c-8373-6bc0de3d183a","ios":"levelo://app?vid=914ae700-95a7-4f0c-8373-6bc0de3d183a"},"vehicle_type_id":"4","last_reported":1751810959,"current_range_meters":20400,"station_id":"ce4bgm92rcd13ifvqbr0","pricing_plan_id":"cebpf4jnsgd1na2vs0mg"},{"bike_id":"5c2ae883-4afe-421f-93ff-dfccb37eb490","system_id":"levelo_inurba_marseille","lat":43.29258,"lon":5.40901,"is_reserved":false,"is_disabled":false,"rental_uris":{"android":"levelo://app?vid=5c2ae883-4afe-421f-93ff-dfccb37eb490","ios":"levelo://app?vid=5c2ae883-4afe-421f-93ff-dfccb37eb490"},"vehicle_type_id":"4","last_reported":1751810959,"current_range_meters":20400,"station_id":"ce4bh192rcd13ifvqdc0","pricing_plan_id":"cebpf4jnsgd1na2vs0mg"},{"bike_id":"bae41396-847a-4ec0-9dba-24aa9ed7c701","system_id":"levelo_inurba_marseille","lat":43.28262,"lon":5.35085,"is_reserved":false,"is_disabled":false,"rental_uris":{"android":"levelo://app?vid=bae41396-847a-4ec0-9dba-24aa9ed7c701","ios":"levelo://app?vid=bae41396-847a-4ec0-9dba-24aa9ed7c701"},"vehicle_type_id":"4","last_reported":1751810959,"current_range_meters":20400,"station_id":"ce4bhbp2rcd13ifvqerg","pricing_plan_id":"cebpf4jnsgd1na2vs0mg"},{"bike_id":"0ce95632-4154-4bce-a3be-c43d2c582498","system_id":"levelo_inurba_marseille","lat":43.286145,"lon":5.35101,"is_reserved":false,"is_disabled":false,"rental_uris":{"android":"levelo://app?vid=0ce95632-4154-4bce-a3be-c43d2c582498","ios":"levelo://app?vid=0ce95632-4154-4bce-a3be-c43d2c582498"},"vehicle_type_id":"4","last_reported":1751810959,"current_range_meters":20400,"station_id":"ce4bhch2rcd13ifvqeug","pricing_plan_id":"cebpf4jnsgd1na2vs0mg"},{"bike_id":"c753d2f0-00bf-46b0-9256-c723db17d627","system_id":"levelo_inurba_marseille","lat":43.24808,"lon":5.37459,"is_reserved":false,"is_disabled":false,"rental_uris":{"android":"levelo://app?vid=c753d2f0-00bf-46b0-9256-c723db17d627","ios":"levelo://app?vid=c753d2f0-00bf-46b0-9256-c723db17d627"},"vehicle_type_id":"4","last_reported":1751810959,"current_range_meters":20400,"station_id":"ce4bhgh2rcd13ifvqfb0","pricing_plan_id":"cebpf4jnsgd1na2vs0mg"},{"bike_id":"fa795352-c052-46d7-b8a1-7eb43b872aad","system_id":"levelo_inurba_marseille","lat":43.26194,"lon":5.37445,"is_reserved":false,"is_disabled":false,"rental_uris":{"android":"levelo://app?vid=fa795352-c052-46d7-b8a1-7eb43b872aad","ios":"levelo://app?vid=fa795352-c052-46d7-b8a1-7eb43b872aad"},"vehicle_type_id":"4","last_reported":1751810959,"current_range_meters":20400,"station_id":"ce4bhgp2rcd13ifvqfc0","pricing_plan_id":"cebpf4jnsgd1na2vs0mg"},{"bike_id":"735776f9-6c59-407a-9f44-6cabaf38677d","system_id":"levelo_inurba_marseille","lat":43.24387,"lon":5.370621,"is_reserved":false,"is_disabled":false,"rental_uris":{"android":"levelo://app?vid=735776f9-6c59-407a-9f44-6cabaf38677d","ios":"levelo://app?vid=735776f9-6c59-407a-9f44-6cabaf38677d"},"vehicle_type_id":"4","last_reported":1751810959,"current_range_meters":20400,"station_id":"ce4bhhh2rcd13ifvqfk0","pricing_plan_id":"cebpf4jnsgd1na2vs0mg"},{"bike_id":"2e933973-3f50-4499-86a8-1317fd85a233","system_id":"levelo_inurba_marseille","lat":43.21189,"lon":5.35071,"is_reserved":false,"is_disabled":false,"rental_uris":{"android":"levelo://app?vid=2e933973-3f50-4499-86a8-1317fd85a233","ios":"levelo://app?vid=2e933973-3f50-4499-86a8-1317fd85a233"},"vehicle_type_id":"4","last_reported":1751810959,"current_range_meters":20400,"station_id":"st_cvj6sg6p6f1abm77japg","pricing_plan_id":"cebpf4jnsgd1na2vs0mg"},{"bike_id":"ec3f65cf-8046-4295-9468-2979cb218118","system_id":"levelo_inurba_marseille","lat":43.21667,"lon":5.34647,"is_reserved":false,"is_disabled":false,"rental_uris":{"android":"levelo://app?vid=ec3f65cf-8046-4295-9468-2979cb218118","ios":"levelo://app?vid=ec3f65cf-8046-4295-9468-2979cb218118"},"vehicle_type_id":"4","last_reported":1751810959,"current_range_meters":20800,"station_id":"","pricing_plan_id":"cebpf4jnsgd1na2vs0mg"},{"bike_id":"58aae648-2b49-43c5-9658-8c2b502cf334","system_id":"levelo_inurba_marseille","lat":43.31584,"lon":5.38457,"is_reserved":false,"is_disabled":false,"rental_uris":{"android":"levelo://app?vid=58aae648-2b49-43c5-9658-8c2b502cf334","ios":"levelo://app?vid=58aae648-2b49-43c5-9658-8c2b502cf334"},"vehicle_type_id":"4","last_reported":1751810959,"current_range_meters":20800,"station_id":"","pricing_plan_id":"cebpf4jnsgd1na2vs0mg"},{"bike_id":"a837b7dc-5abc-4375-8484-2d8b61115bc3","system_id":"levelo_inurba_marseille","lat":43.28267,"lon":5.35074,"is_reserved":false,"is_disabled":false,"rental_uris":{"android":"levelo://app?vid=a837b7dc-5abc-4375-8484-2d8b61115bc3","ios":"levelo://app?vid=a837b7dc-5abc-4375-8484-2d8b61115bc3"},"vehicle_type_id":"4","last_reported":1751810959,"current_range_meters":20800,"station_id":"ce4bhbp2rcd13ifvqerg","pricing_plan_id":"cebpf4jnsgd1na2vs0mg"},{"bike_id":"25b7c751-361f-47e6-9d7b-2f9f83808cb9","system_id":"levelo_inurba_marseille","lat":43.28267,"lon":5.35082,"is_reserved":false,"is_disabled":false,"rental_uris":{"android":"levelo://app?vid=25b7c751-361f-47e6-9d7b-2f9f83808cb9","ios":"levelo://app?vid=25b7c751-361f-47e6-9d7b-2f9f83808cb9"},"vehicle_type_id":"4","last_reported":1751810959,"current_range_meters":20800,"station_id":"ce4bhbp2rcd13ifvqerg","pricing_plan_id":"cebpf4jnsgd1na2vs0mg"},{"bike_id":"faeb5b8c-bad9-40fb-b18b-2fd925c3d25d","system_id":"levelo_inurba_marseille","lat":43.25573,"lon":5.38226,"is_reserved":false,"is_disabled":false,"rental_uris":{"android":"levelo://app?vid=faeb5b8c-bad9-40fb-b18b-2fd925c3d25d","ios":"levelo://app?vid=faeb5b8c-bad9-40fb-b18b-2fd925c3d25d"},"vehicle_type_id":"4","last_reported":1751810959,"current_range_meters":20800,"station_id":"ce4bhih2rcd13ifvqfs0","pricing_plan_id":"cebpf4jnsgd1na2vs0mg"},{"bike_id":"db3c825b-c4e1-4869-9f4d-7aa0086cdbef","system_id":"levelo_inurba_marseille","lat":43.32655,"lon":5.40997,"is_reserved":false,"is_disabled":false,"rental_uris":{"android":"levelo://app?vid=db3c825b-c4e1-4869-9f4d-7aa0086cdbef","ios":"levelo://app?vid=db3c825b-c4e1-4869-9f4d-7aa0086cdbef"},"vehicle_type_id":"4","last_reported":1751810959,"current_range_meters":20800,"station_id":"ce4bhpp2rcd13ifvqhgg","pricing_plan_id":"cebpf4jnsgd1na2vs0mg"},{"bike_id":"4117424d-2cdf-4341-942c-114b77d3d3f7","system_id":"levelo_inurba_marseille","lat":43.304181,"lon":5.412846,"is_reserved":false,"is_disabled":false,"rental_uris":{"android":"levelo://app?vid=4117424d-2cdf-4341-942c-114b77d3d3f7","ios":"levelo://app?vid=4117424d-2cdf-4341-942c-114b77d3d3f7"},"vehicle_type_id":"4","last_reported":1751810959,"current_range_meters":21600,"station_id":"ce4bhop2rcd13ifvqh8g","pricing_plan_id":"cebpf4jnsgd1na2vs0mg"},{"bike_id":"4ec3367a-4e1e-4095-8fbe-7d5df0533589","system_id":"levelo_inurba_marseille","lat":43.32479,"lon":5.365601,"is_reserved":false,"is_disabled":false,"rental_uris":{"android":"levelo://app?vid=4ec3367a-4e1e-4095-8fbe-7d5df0533589","ios":"levelo://app?vid=4ec3367a-4e1e-4095-8fbe-7d5df0533589"},"vehicle_type_id":"4","last_reported":1751810959,"current_range_meters":21600,"station_id":"ce4bhs12rcd13ifvqhvg","pricing_plan_id":"cebpf4jnsgd1na2vs0mg"},{"bike_id":"c9d4b074-a657-42e4-a289-d2302d03c2ca","system_id":"levelo_inurba_marseille","lat":43.287211,"lon":5.432328,"is_reserved":false,"is_disabled":false,"rental_uris":{"android":"levelo://app?vid=c9d4b074-a657-42e4-a289-d2302d03c2ca","ios":"levelo://app?vid=c9d4b074-a657-42e4-a289-d2302d03c2ca"},"vehicle_type_id":"4","last_reported":1751810959,"current_range_meters":22000,"station_id":"","pricing_plan_id":"cebpf4jnsgd1na2vs0mg"},{"bike_id":"87920946-536b-442d-b1e2-8560261916aa","system_id":"levelo_inurba_marseille","lat":43.28611,"lon":5.3511,"is_reserved":false,"is_disabled":false,"rental_uris":{"android":"levelo://app?vid=87920946-536b-442d-b1e2-8560261916aa","ios":"levelo://app?vid=87920946-536b-442d-b1e2-8560261916aa"},"vehicle_type_id":"4","last_reported":1751810959,"current_range_meters":22000,"station_id":"ce4bhch2rcd13ifvqeug","pricing_plan_id":"cebpf4jnsgd1na2vs0mg"},{"bike_id":"23746e0a-2909-43bc-8a6d-4bf5e9fffd57","system_id":"levelo_inurba_marseille","lat":43.24168,"lon":5.39739,"is_reserved":false,"is_disabled":false,"rental_uris":{"android":"levelo://app?vid=23746e0a-2909-43bc-8a6d-4bf5e9fffd57","ios":"levelo://app?vid=23746e0a-2909-43bc-8a6d-4bf5e9fffd57"},"vehicle_type_id":"4","last_reported":1751810959,"current_range_meters":22000,"station_id":"ce4bhn12rcd13ifvqgpg","pricing_plan_id":"cebpf4jnsgd1na2vs0mg"},{"bike_id":"d2cdccef-dff6-4fac-b0f7-c9018d1b2b9a","system_id":"levelo_inurba_marseille","lat":43.304103,"lon":5.412793,"is_reserved":false,"is_disabled":false,"rental_uris":{"android":"levelo://app?vid=d2cdccef-dff6-4fac-b0f7-c9018d1b2b9a","ios":"levelo://app?vid=d2cdccef-dff6-4fac-b0f7-c9018d1b2b9a"},"vehicle_type_id":"4","last_reported":1751810959,"current_range_meters":22000,"station_id":"ce4bhop2rcd13ifvqh8g","pricing_plan_id":"cebpf4jnsgd1na2vs0mg"},{"bike_id":"6a3a3e65-1839-43d5-b574-3a73e4e32dac","system_id":"levelo_inurba_marseille","lat":43.32321,"lon":5.3887,"is_reserved":false,"is_disabled":false,"rental_uris":{"android":"levelo://app?vid=6a3a3e65-1839-43d5-b574-3a73e4e32dac","ios":"levelo://app?vid=6a3a3e65-1839-43d5-b574-3a73e4e32dac"},"vehicle_type_id":"4","last_reported":1751810959,"current_range_meters":22400,"station_id":"","pricing_plan_id":"cebpf4jnsgd1na2vs0mg"},{"bike_id":"6b4ad8be-7236-41a0-8971-0d9af3b6ac7f","system_id":"levelo_inurba_marseille","lat":43.307996,"lon":5.381488,"is_reserved":false,"is_disabled":false,"rental_uris":{"android":"levelo://app?vid=6b4ad8be-7236-41a0-8971-0d9af3b6ac7f","ios":"levelo://app?vid=6b4ad8be-7236-41a0-8971-0d9af3b6ac7f"},"vehicle_type_id":"4","last_reported":1751810959,"current_range_meters":22400,"station_id":"ce4bgt12rcd13ifvqce0","pricing_plan_id":"cebpf4jnsgd1na2vs0mg"},{"bike_id":"cfddacc6-f20a-4b8f-9483-cc95be1400ce","system_id":"levelo_inurba_marseille","lat":43.28621,"lon":5.35084,"is_reserved":false,"is_disabled":false,"rental_uris":{"android":"levelo://app?vid=cfddacc6-f20a-4b8f-9483-cc95be1400ce","ios":"levelo://app?vid=cfddacc6-f20a-4b8f-9483-cc95be1400ce"},"vehicle_type_id":"4","last_reported":1751810959,"current_range_meters":22400,"station_id":"ce4bhch2rcd13ifvqeug","pricing_plan_id":"cebpf4jnsgd1na2vs0mg"},{"bike_id":"7333bdd4-fd05-455b-a6d8-c408def5a917","system_id":"levelo_inurba_marseille","lat":43.27993,"lon":5.41661,"is_reserved":false,"is_disabled":false,"rental_uris":{"android":"levelo://app?vid=7333bdd4-fd05-455b-a6d8-c408def5a917","ios":"levelo://app?vid=7333bdd4-fd05-455b-a6d8-c408def5a917"},"vehicle_type_id":"4","last_reported":1751810959,"current_range_meters":22400,"station_id":"ce4bho12rcd13ifvqh1g","pricing_plan_id":"cebpf4jnsgd1na2vs0mg"},{"bike_id":"d40dded5-2a66-486c-830e-ded2ed9ebfd0","system_id":"levelo_inurba_marseille","lat":43.27994,"lon":5.40013,"is_reserved":false,"is_disabled":false,"rental_uris":{"android":"levelo://app?vid=d40dded5-2a66-486c-830e-ded2ed9ebfd0","ios":"levelo://app?vid=d40dded5-2a66-486c-830e-ded2ed9ebfd0"},"vehicle_type_id":"4","last_reported":1751810959,"current_range_meters":22400,"station_id":"ce4bho92rcd13ifvqh4g","pricing_plan_id":"cebpf4jnsgd1na2vs0mg"},{"bike_id":"c2fb0d5f-790f-46eb-ae9e-e6015526241b","system_id":"levelo_inurba_marseille","lat":43.21197,"lon":5.35072,"is_reserved":false,"is_disabled":false,"rental_uris":{"android":"levelo://app?vid=c2fb0d5f-790f-46eb-ae9e-e6015526241b","ios":"levelo://app?vid=c2fb0d5f-790f-46eb-ae9e-e6015526241b"},"vehicle_type_id":"4","last_reported":1751810959,"current_range_meters":22400,"station_id":"st_cvj6sg6p6f1abm77japg","pricing_plan_id":"cebpf4jnsgd1na2vs0mg"},{"bike_id":"5a66d250-2a08-40f3-826e-ff3217e04cec","system_id":"levelo_inurba_marseille","lat":43.2682,"lon":5.41107,"is_reserved":false,"is_disabled":false,"rental_uris":{"android":"levelo://app?vid=5a66d250-2a08-40f3-826e-ff3217e04cec","ios":"levelo://app?vid=5a66d250-2a08-40f3-826e-ff3217e04cec"},"vehicle_type_id":"4","last_reported":1751810959,"current_range_meters":22800,"station_id":"","pricing_plan_id":"cebpf4jnsgd1na2vs0mg"},{"bike_id":"cb64d4b8-f483-4aa3-9d70-6b79d760b72f","system_id":"levelo_inurba_marseille","lat":43.285712,"lon":5.394992,"is_reserved":false,"is_disabled":false,"rental_uris":{"android":"levelo://app?vid=cb64d4b8-f483-4aa3-9d70-6b79d760b72f","ios":"levelo://app?vid=cb64d4b8-f483-4aa3-9d70-6b79d760b72f"},"vehicle_type_id":"4","last_reported":1751810959,"current_range_meters":22800,"station_id":"ce4bh292rcd13ifvqdg0","pricing_plan_id":"cebpf4jnsgd1na2vs0mg"},{"bike_id":"b0d55032-6351-4ef8-a430-58335ed08aaf","system_id":"levelo_inurba_marseille","lat":43.26239,"lon":5.40452,"is_reserved":false,"is_disabled":false,"rental_uris":{"android":"levelo://app?vid=b0d55032-6351-4ef8-a430-58335ed08aaf","ios":"levelo://app?vid=b0d55032-6351-4ef8-a430-58335ed08aaf"},"vehicle_type_id":"4","last_reported":1751810959,"current_range_meters":22800,"station_id":"ce4bhmh2rcd13ifvqgmg","pricing_plan_id":"cebpf4jnsgd1na2vs0mg"},{"bike_id":"6fe224a1-e28a-4dd4-ac0b-e0b679fa313b","system_id":"levelo_inurba_marseille","lat":43.29914,"lon":5.43653,"is_reserved":false,"is_disabled":false,"rental_uris":{"android":"levelo://app?vid=6fe224a1-e28a-4dd4-ac0b-e0b679fa313b","ios":"levelo://app?vid=6fe224a1-e28a-4dd4-ac0b-e0b679fa313b"},"vehicle_type_id":"4","last_reported":1751810959,"current_range_meters":22800,"station_id":"ce4bhpp2rcd13ifvqhfg","pricing_plan_id":"cebpf4jnsgd1na2vs0mg"},{"bike_id":"8f03969b-3e6d-45a2-920d-cd715a38fc69","system_id":"levelo_inurba_marseille","lat":43.21193,"lon":5.3509,"is_reserved":false,"is_disabled":false,"rental_uris":{"android":"levelo://app?vid=8f03969b-3e6d-45a2-920d-cd715a38fc69","ios":"levelo://app?vid=8f03969b-3e6d-45a2-920d-cd715a38fc69"},"vehicle_type_id":"4","last_reported":1751810959,"current_range_meters":22800,"station_id":"st_cvj6sg6p6f1abm77japg","pricing_plan_id":"cebpf4jnsgd1na2vs0mg"},{"bike_id":"9bfc7d3d-4e60-4f8a-9c32-ef3d0e77ec5b","system_id":"levelo_inurba_marseille","lat":43.21189,"lon":5.35078,"is_reserved":false,"is_disabled":false,"rental_uris":{"android":"levelo://app?vid=9bfc7d3d-4e60-4f8a-9c32-ef3d0e77ec5b","ios":"levelo://app?vid=9bfc7d3d-4e60-4f8a-9c32-ef3d0e77ec5b"},"vehicle_type_id":"4","last_reported":1751810959,"current_range_meters":22800,"station_id":"st_cvj6sg6p6f1abm77japg","pricing_plan_id":"cebpf4jnsgd1na2vs0mg"},{"bike_id":"7d43a9ca-ef5c-4c5a-9fb7-68a13ba78113","system_id":"levelo_inurba_marseille","lat":43.28871,"lon":5.3591,"is_reserved":false,"is_disabled":false,"rental_uris":{"android":"levelo://app?vid=7d43a9ca-ef5c-4c5a-9fb7-68a13ba78113","ios":"levelo://app?vid=7d43a9ca-ef5c-4c5a-9fb7-68a13ba78113"},"vehicle_type_id":"4","last_reported":1751810959,"current_range_meters":23200,"station_id":"","pricing_plan_id":"cebpf4jnsgd1na2vs0mg"},{"bike_id":"0984473e-59cf-4f12-a598-7b378699d33a","system_id":"levelo_inurba_marseille","lat":43.286171,"lon":5.351071,"is_reserved":false,"is_disabled":false,"rental_uris":{"android":"levelo://app?vid=0984473e-59cf-4f12-a598-7b378699d33a","ios":"levelo://app?vid=0984473e-59cf-4f12-a598-7b378699d33a"},"vehicle_type_id":"4","last_reported":1751810959,"current_range_meters":23200,"station_id":"ce4bhch2rcd13ifvqeug","pricing_plan_id":"cebpf4jnsgd1na2vs0mg"},{"bike_id":"6d0f4145-b535-499f-9ae6-53404f8a2307","system_id":"levelo_inurba_marseille","lat":43.28613,"lon":5.3511,"is_reserved":false,"is_disabled":false,"rental_uris":{"android":"levelo://app?vid=6d0f4145-b535-499f-9ae6-53404f8a2307","ios":"levelo://app?vid=6d0f4145-b535-499f-9ae6-53404f8a2307"},"vehicle_type_id":"4","last_reported":1751810959,"current_range_meters":23200,"station_id":"ce4bhch2rcd13ifvqeug","pricing_plan_id":"cebpf4jnsgd1na2vs0mg"},{"bike_id":"7c950583-8bac-4742-862c-e657874b2760","system_id":"levelo_inurba_marseille","lat":43.32338,"lon":5.40629,"is_reserved":false,"is_disabled":false,"rental_uris":{"android":"levelo://app?vid=7c950583-8bac-4742-862c-e657874b2760","ios":"levelo://app?vid=7c950583-8bac-4742-862c-e657874b2760"},"vehicle_type_id":"4","last_reported":1751810959,"current_range_meters":23200,"station_id":"ce4bhq92rcd13ifvqhjg","pricing_plan_id":"cebpf4jnsgd1na2vs0mg"},{"bike_id":"a80ce6e7-b496-431b-bbc3-e3a41c66bc81","system_id":"levelo_inurba_marseille","lat":43.2617,"lon":5.4044,"is_reserved":false,"is_disabled":false,"rental_uris":{"android":"levelo://app?vid=a80ce6e7-b496-431b-bbc3-e3a41c66bc81","ios":"levelo://app?vid=a80ce6e7-b496-431b-bbc3-e3a41c66bc81"},"vehicle_type_id":"4","last_reported":1751810959,"current_range_meters":24000,"station_id":"","pricing_plan_id":"cebpf4jnsgd1na2vs0mg"},{"bike_id":"87c2d236-4978-4760-be77-27d7f5a212e4","system_id":"levelo_inurba_marseille","lat":43.29644,"lon":5.36205,"is_reserved":false,"is_disabled":false,"rental_uris":{"android":"levelo://app?vid=87c2d236-4978-4760-be77-27d7f5a212e4","ios":"levelo://app?vid=87c2d236-4978-4760-be77-27d7f5a212e4"},"vehicle_type_id":"4","last_reported":1751810959,"current_range_meters":24000,"station_id":"","pricing_plan_id":"cebpf4jnsgd1na2vs0mg"},{"bike_id":"f819da31-36b8-4850-b126-da7286b0e109","system_id":"levelo_inurba_marseille","lat":43.24783,"lon":5.37449,"is_reserved":false,"is_disabled":false,"rental_uris":{"android":"levelo://app?vid=f819da31-36b8-4850-b126-da7286b0e109","ios":"levelo://app?vid=f819da31-36b8-4850-b126-da7286b0e109"},"vehicle_type_id":"4","last_reported":1751810959,"current_range_meters":24000,"station_id":"ce4bhgh2rcd13ifvqfb0","pricing_plan_id":"cebpf4jnsgd1na2vs0mg"},{"bike_id":"f1f4a8d9-de8e-4453-b6d2-3582ca9658e8","system_id":"levelo_inurba_marseille","lat":43.25569,"lon":5.38261,"is_reserved":false,"is_disabled":false,"rental_uris":{"android":"levelo://app?vid=f1f4a8d9-de8e-4453-b6d2-3582ca9658e8","ios":"levelo://app?vid=f1f4a8d9-de8e-4453-b6d2-3582ca9658e8"},"vehicle_type_id":"4","last_reported":1751810959,"current_range_meters":24000,"station_id":"ce4bhih2rcd13ifvqfs0","pricing_plan_id":"cebpf4jnsgd1na2vs0mg"},