{"last_updated":1726823503,"ttl":30,"version":"2.2","data":{"bikes":[{"bike_id":"8ac6d82f-5b78-477d-a9cb-5c523e12158a","system_id":"levelo_inurba_marseille","lat":43.28357,"lon":5.3811,"is_reserved":false,"is_disabled":false,"rental_uris":{"android":"levelo://app?vid=8ac6d82f-5b78-477d-a9cb-5c523e12158a","ios":"levelo://app?vid=8ac6d82f-5b78-477d-a9cb-5c523e12158a"},"vehicle_type_id":"4","last_reported":1726823503,"current_range_meters":26800,"station_id":"ce4bh412rcd13ifvqdr0","pricing_plan_id":"cebpf4jnsgd1na2vs0mg"},{"bike_id":"4ffbcc01-7039-49cb-989b-f710e35f7fbc","system_id":"levelo_inurba_marseille","lat":43.31485,"lon":5.37308,"is_reserved":false,"is_disabled":false,"rental_uris":{"android":"levelo://app?vid=4ffbcc01-7039-49cb-989b-f710e35f7fbc","ios":"levelo://app?vid=4ffbcc01-7039-49cb-989b-f710e35f7fbc"},"vehicle_type_id":"4","last_reported":1726823503,"current_range_meters":24000,"station_id":"ce4bgt12rcd13ifvqcd0","pricing_plan_id":"cebpf4jnsgd1na2vs0mg"},{"bike_id":"2489db8b-9ee0-4e86-a716-2e18d273648b","system_id":"levelo_inurba_marseille","lat":43.30355,"lon":5.41877,"is_reserved":false,"is_disabled":false,"rental_uris":{"android":"levelo://app?vid=2489db8b-9ee0-4e86-a716-2e18d273648b","ios":"levelo://app?vid=2489db8b-9ee0-4e86-a716-2e18d273648b"},"vehicle_type_id":"4","last_reported":1726823503,"current_range_meters":25200,"station_id":"ce4bhop2rcd13ifvqh7g","pricing_plan_id":"cebpf4jnsgd1na2vs0mg"},{"bike_id":"80859240-be3d-466c-b746-15fa2d12c0a8","system_id":"levelo_inurba_marseille","lat":43.27376,"lon":5.36262,"is_reserved":false,"is_disabled":false,"rental_uris":{"android":"levelo://app?vid=80859240-be3d-466c-b746-15fa2d12c0a8","ios":"levelo://app?vid=80859240-be3d-466c-b746-15fa2d12c0a8"},"vehicle_type_id":"4","last_reported":1726823503,"current_range_meters":38000,"station_id":"ce4bhbh2rcd13ifvqeo0","pricing_plan_id":"cebpf4jnsgd1na2vs0mg"},{"bike_id":"b9585ecf-f944-4472-b847-6f7eb1439340","system_id":"levelo_inurba_marseille","lat":43.30412,"lon":5.41297,"is_reserved":false,"is_disabled":false,"rental_uris":{"android":"levelo://app?vid=b9585ecf-f944-4472-b847-6f7eb1439340","ios":"levelo://app?vid=b9585ecf-f944-4472-b847-6f7eb1439340"},"vehicle_type_id":"4","last_reported":1726823503,"current_range_meters":34000,"station_id":"ce4bhop2rcd13ifvqh8g","pricing_plan_id":"cebpf4jnsgd1na2vs0mg"},{"bike_id":"33907146-c065-427e-a223-e4226e3a7601","system_id":"levelo_inurba_marseille","lat":43.29058,"lon":5.35918,"is_reserved":false,"is_disabled":false,"rental_uris":{"android":"levelo://app?vid=33907146-c065-427e-a223-e4226e3a7601","ios":"levelo://app?vid=33907146-c065-427e-a223-e4226e3a7601"},"vehicle_type_id":"4","last_reported":1726823503,"current_range_meters":9600,"station_id":"ce4bha92rcd13ifvqeg0","pricing_plan_id":"cebpf4jnsgd1na2vs0mg"},{"bike_id":"ee228979-1d72-475d-8ae1-9f52d797b43d","system_id":"levelo_inurba_marseille","lat":43.258636,"lon":5.398969,"is_reserved":false,"is_disabled":false,"rental_uris":{"android":"levelo://app?vid=ee228979-1d72-475d-8ae1-9f52d797b43d","ios":"levelo://app?vid=ee228979-1d72-475d-8ae1-9f52d797b43d"},"vehicle_type_id":"4","last_reported":1726823503,"current_range_meters":28000,"station_id":"ce4bhl92rcd13ifvqghg","pricing_plan_id":"cebpf4jnsgd1na2vs0mg"},{"bike_id":"f882f190-1890-487b-837d-55f6d80e6a14","system_id":"levelo_inurba_marseille","lat":43.3135,"lon":5.36735,"is_reserved":false,"is_disabled":false,"rental_uris":{"android":"levelo://app?vid=f882f190-1890-487b-837d-55f6d80e6a14","ios":"levelo://app?vid=f882f190-1890-487b-837d-55f6d80e6a14"},"vehicle_type_id":"4","last_reported":1726823503,"current_range_meters":30400,"station_id":"ce4bgr92rcd13ifvqc6g","pricing_plan_id":"cebpf4jnsgd1na2vs0mg"},{"bike_id":"e532fd53-ad12-4848-82ea-70ac934c1c37","system_id":"levelo_inurba_marseille","lat":43.3375,"lon":5.37446,"is_reserved":false,"is_disabled":false,"rental_uris":{"android":"levelo://app?vid=e532fd53-ad12-4848-82ea-70ac934c1c37","ios":"levelo://app?vid=e532fd53-ad12-4848-82ea-70ac934c1c37"},"vehicle_type_id":"4","last_reported":1726823503,"current_range_meters":33600,"station_id":"","pricing_plan_id":"cebpf4jnsgd1na2vs0mg"},{"bike_id":"c7d4ab82-b4ba-46c9-9db0-e90f652728b9","system_id":"levelo_inurba_marseille","lat":43.26557,"lon":5.37284,"is_reserved":false,"is_disabled":false,"rental_uris":{"android":"levelo://app?vid=c7d4ab82-b4ba-46c9-9db0-e90f652728b9","ios":"levelo://app?vid=c7d4ab82-b4ba-46c9-9db0-e90f652728b9"},"vehicle_type_id":"4","last_reported":1726823503,"current_range_meters":38800,"station_id":"ce4bhg12rcd13ifvqf70","pricing_plan_id":"cebpf4jnsgd1na2vs0mg"},{"bike_id":"caacc5f9-63ca-414d-9124-88e29a835149","system_id":"levelo_inurba_marseille","lat":43.29851,"lon":5.36286,"is_reserved":false,"is_disabled":false,"rental_uris":{"android":"levelo://app?vid=caacc5f9-63ca-414d-9124-88e29a835149","ios":"levelo://app?vid=caacc5f9-63ca-414d-9124-88e29a835149"},"vehicle_type_id":"4","last_reported":1726823503,"current_range_meters":7200,"station_id":"ce4bgpp2rcd13ifvqc3g","pricing_plan_id":"cebpf4jnsgd1na2vs0mg"},{"bike_id":"7ae54c23-d029-4df1-ac7f-dc61dfb3bf8f","system_id":"levelo_inurba_marseille","lat":43.32479,"lon":5.36557,"is_reserved":false,"is_disabled":false,"rental_uris":{"android":"levelo://app?vid=7ae54c23-d029-4df1-ac7f-dc61dfb3bf8f","ios":"levelo://app?vid=7ae54c23-d029-4df1-ac7f-dc61dfb3bf8f"},"vehicle_type_id":"4","last_reported":1726823503,"current_range_meters":14000,"station_id":"ce4bhs12rcd13ifvqhvg","pricing_plan_id":"cebpf4jnsgd1na2vs0mg"},{"bike_id":"7ec01ccc-afe3-4f46-82f9-a24f1ada3fdf","system_id":"levelo_inurba_marseille","lat":43.34152,"lon":5.40911,"is_reserved":false,"is_disabled":false,"rental_uris":{"android":"levelo://app?vid=7ec01ccc-afe3-4f46-82f9-a24f1ada3fdf","ios":"levelo://app?vid=7ec01ccc-afe3-4f46-82f9-a24f1ada3fdf"},"vehicle_type_id":"4","last_reported":1726823503,"current_range_meters":32400,"station_id":"ce4bhqh2rcd13ifvqhlg","pricing_plan_id":"cebpf4jnsgd1na2vs0mg"},{"bike_id":"e05daa81-8cb2-40cd-816a-d73f50da7d4d","system_id":"levelo_inurba_marseille","lat":43.30547,"lon":5.36536,"is_reserved":false,"is_disabled":false,"rental_uris":{"android":"levelo://app?vid=e05daa81-8cb2-40cd-816a-d73f50da7d4d","ios":"levelo://app?vid=e05daa81-8cb2-40cd-816a-d73f50da7d4d"},"vehicle_type_id":"4","last_reported":1726823503,"current_range_meters":23200,"station_id":"ce4bgs12rcd13ifvqcag","pricing_plan_id":"cebpf4jnsgd1na2vs0mg"},{"bike_id":"fdc69bcf-7945-4097-982d-215e43619115","system_id":"levelo_inurba_marseille","lat":43.29845,"lon":5.36277,"is_reserved":false,"is_disabled":false,"rental_uris":{"android":"levelo://app?vid=fdc69bcf-7945-4097-982d-215e43619115","ios":"levelo://app?vid=fdc69bcf-7945-4097-982d-215e43619115"},"vehicle_type_id":"4","last_reported":1726823503,"current_range_meters":37600,"station_id":"ce4bgpp2rcd13ifvqc3g","pricing_plan_id":"cebpf4jnsgd1na2vs0mg"},{"bike_id":"b9e1d6ef-037d-4e06-aad7-7d9852b429ed","system_id":"levelo_inurba_marseille","lat":43.25941,"lon":5.40906,"is_reserved":false,"is_disabled":false,"rental_uris":{"android":"levelo://app?vid=b9e1d6ef-037d-4e06-aad7-7d9852b429ed","ios":"levelo://app?vid=b9e1d6ef-037d-4e06-aad7-7d9852b429ed"},"vehicle_type_id":"4","last_reported":1726823503,"current_range_meters":27600,"station_id":"ce4bhm92rcd13ifvqglg","pricing_plan_id":"cebpf4jnsgd1na2vs0mg"},{"bike_id":"ac4570dc-1f12-4c2c-aeb8-bec5840e3c7d","system_id":"levelo_inurba_marseille","lat":43.27492,"lon":5.42459,"is_reserved":false,"is_disabled":false,"rental_uris":{"android":"levelo://app?vid=ac4570dc-1f12-4c2c-aeb8-bec5840e3c7d","ios":"levelo://app?vid=ac4570dc-1f12-4c2c-aeb8-bec5840e3c7d"},"vehicle_type_id":"4","last_reported":1726823503,"current_range_meters":23200,"station_id":"ce4bhn92rcd13ifvqgrg","pricing_plan_id":"cebpf4jnsgd1na2vs0mg"},{"bike_id":"00479890-5c7f-4820-8b84-7d690960759a","system_id":"levelo_inurba_marseille","lat":43.28147,"lon":5.42644,"is_reserved":false,"is_disabled":false,"rental_uris":{"android":"levelo://app?vid=00479890-5c7f-4820-8b84-7d690960759a","ios":"levelo://app?vid=00479890-5c7f-4820-8b84-7d690960759a"},"vehicle_type_id":"4","last_reported":1726823503,"current_range_meters":30800,"station_id":"ce4bhnh2rcd13ifvqgug","pricing_plan_id":"cebpf4jnsgd1na2vs0mg"},{"bike_id":"1c66f49b-4363-4cca-97a6-cfccf25e74c8","system_id":"levelo_inurba_marseille","lat":43.30262,"lon":5.37704,"is_reserved":false,"is_disabled":false,"rental_uris":{"android":"levelo://app?vid=1c66f49b-4363-4cca-97a6-cfccf25e74c8","ios":"levelo://app?vid=1c66f49b-4363-4cca-97a6-cfccf25e74c8"},"vehicle_type_id":"4","last_reported":1726823503,"current_range_meters":39200,"station_id":"ce4bguh2rcd13ifvqcj0","pricing_plan_id":"cebpf4jnsgd1na2vs0mg"},{"bike_id":"84b0c742-2fae-43bf-b4cf-65dfb3f0a0fa","system_id":"levelo_inurba_marseille","lat":43.29621,"lon":5.37722,"is_reserved":false,"is_disabled":false,"rental_uris":{"android":"levelo://app?vid=84b0c742-2fae-43bf-b4cf-65dfb3f0a0fa","ios":"levelo://app?vid=84b0c742-2fae-43bf-b4cf-65dfb3f0a0fa"},"vehicle_type_id":"4","last_reported":1726823503,"current_range_meters":34000,"station_id":"ce4bgi92rcd13ifvqb90","pricing_plan_id":"cebpf4jnsgd1na2vs0mg"},{"bike_id":"0d197c14-823a-4063-8ecb-b214e88b0f7d","system_id":"levelo_inurba_marseille","lat":43.28148,"lon":5.42646,"is_reserved":false,"is_disabled":false,"rental_uris":{"android":"levelo://app?vid=0d197c14-823a-4063-8ecb-b214e88b0f7d","ios":"levelo://app?vid=0d197c14-823a-4063-8ecb-b214e88b0f7d"},"vehicle_type_id":"4","last_reported":1726823503,"current_range_meters":35200,"station_id":"ce4bhnh2rcd13ifvqgug","pricing_plan_id":"cebpf4jnsgd1na2vs0mg"},{"bike_id":"838e99a9-3d23-4997-ab0d-600a12008281","system_id":"levelo_inurba_marseille","lat":43.27501,"lon":5.4245,"is_reserved":false,"is_disabled":false,"rental_uris":{"android":"levelo://app?vid=838e99a9-3d23-4997-ab0d-600a12008281","ios":"levelo://app?vid=838e99a9-3d23-4997-ab0d-600a12008281"},"vehicle_type_id":"4","last_reported":1726823503,"current_range_meters":20800,"station_id":"ce4bhn92rcd13ifvqgrg","pricing_plan_id":"cebpf4jnsgd1na2vs0mg"},{"bike_id":"06eef320-c2b1-42ca-bda3-e896022e4f06","system_id":"levelo_inurba_marseille","lat":43.27076,"lon":5.42279,"is_reserved":false,"is_disabled":false,"rental_uris":{"android":"levelo://app?vid=06eef320-c2b1-42ca-bda3-e896022e4f06","ios":"levelo://app?vid=06eef320-c2b1-42ca-bda3-e896022e4f06"},"vehicle_type_id":"4","last_reported":1726823503,"current_range_meters":14000,"station_id":"ce4bhk92rcd13ifvqgb0","pricing_plan_id":"cebpf4jnsgd1na2vs0mg"},{"bike_id":"95b17ed6-dc14-4e73-8f87-d1807275f8c4","system_id":"levelo_inurba_marseille","lat":43.2847,"lon":5.38421,"is_reserved":false,"is_disabled":false,"rental_uris":{"android":"levelo://app?vid=95b17ed6-dc14-4e73-8f87-d1807275f8c4","ios":"levelo://app?vid=95b17ed6-dc14-4e73-8f87-d1807275f8c4"},"vehicle_type_id":"4","last_reported":1726823503,"current_range_meters":17200,"station_id":"ce4bh512rcd13ifvqe3g","pricing_plan_id":"cebpf4jnsgd1na2vs0mg"},{"bike_id":"6869f381-3eaf-46dd-9861-db2e719ca23b","system_id":"levelo_inurba_marseille","lat":43.312696,"lon":5.40171,"is_reserved":false,"is_disabled":false,"rental_uris":{"android":"levelo://app?vid=6869f381-3eaf-46dd-9861-db2e719ca23b","ios":"levelo://app?vid=6869f381-3eaf-46dd-9861-db2e719ca23b"},"vehicle_type_id":"4","last_reported":1726823503,"current_range_meters":3200,"station_id":"ce4bh092rcd13ifvqd30","pricing_plan_id":"cebpf4jnsgd1na2vs0mg"},{"bike_id":"5f2e4fae-bb33-4e4e-81dc-fbf1953aa152","system_id":"levelo_inurba_marseille","lat":43.30557,"lon":5.36529,"is_reserved":false,"is_disabled":false,"rental_uris":{"android":"levelo://app?vid=5f2e4fae-bb33-4e4e-81dc-fbf1953aa152","ios":"levelo://app?vid=5f2e4fae-bb33-4e4e-81dc-fbf1953aa152"},"vehicle_type_id":"4","last_reported":1726823503,"current_range_meters":24800,"station_id":"ce4bgs12rcd13ifvqcag","pricing_plan_id":"cebpf4jnsgd1na2vs0mg"},{"bike_id":"e8a43349-6e7a-4086-bc82-dc073f429ffd","system_id":"levelo_inurba_marseille","lat":43.29962,"lon":5.41323,"is_reserved":false,"is_disabled":false,"rental_uris":{"android":"levelo://app?vid=e8a43349-6e7a-4086-bc82-dc073f429ffd","ios":"levelo://app?vid=e8a43349-6e7a-4086-bc82-dc073f429ffd"},"vehicle_type_id":"4","last_reported":1726823503,"current_range_meters":38800,"station_id":"ce4bhp12rcd13ifvqh9g","pricing_plan_id":"cebpf4jnsgd1na2vs0mg"},{"bike_id":"c9f49b48-5873-49e2-bab7-f1ba0d8a08cc","system_id":"levelo_inurba_marseille","lat":43.27209,"lon":5.39178,"is_reserved":false,"is_disabled":false,"rental_uris":{"android":"levelo://app?vid=c9f49b48-5873-49e2-bab7-f1ba0d8a08cc","ios":"levelo://app?vid=c9f49b48-5873-49e2-bab7-f1ba0d8a08cc"},"vehicle_type_id":"4","last_reported":1726823503,"current_range_meters":38800,"station_id":"ce4bhhp2rcd13ifvqfm0","pricing_plan_id":"cebpf4jnsgd1na2vs0mg"},{"bike_id":"849a2a2b-020a-41ab-b272-88ef32f73787","system_id":"levelo_inurba_marseille","lat":43.28939,"lon":5.38404,"is_reserved":false,"is_disabled":false,"rental_uris":{"android":"levelo://app?vid=849a2a2b-020a-41ab-b272-88ef32f73787","ios":"levelo://app?vid=849a2a2b-020a-41ab-b272-88ef32f73787"},"vehicle_type_id":"4","last_reported":1726823503,"current_range_meters":27600,"station_id":"ce4bhhh2rcd13ifvqfk0","pricing_plan_id":"cebpf4jnsgd1na2vs0mg"},{"bike_id":"82a011ee-927c-4b1e-a350-b969affb7d65","system_id":"levelo_inurba_marseille","lat":43.3361,"lon":5.41022,"is_reserved":false,"is_disabled":false,"rental_uris":{"android":"levelo://app?vid=82a011ee-927c-4b1e-a350-b969affb7d65","ios":"levelo://app?vid=82a011ee-927c-4b1e-a350-b969affb7d65"},"vehicle_type_id":"4","last_reported":1726823503,"current_range_meters":38000,"station_id":"ce4bhqh2rcd13ifvqhmg","pricing_plan_id":"cebpf4jnsgd1na2vs0mg"},{"bike_id":"ce9d87f2-9941-4431-9f3a-b0e277f41807","system_id":"levelo_inurba_marseille","lat":43.3135,"lon":5.36721,"is_reserved":false,"is_disabled":false,"rental_uris":{"android":"levelo://app?vid=ce9d87f2-9941-4431-9f3a-b0e277f41807","ios":"levelo://app?vid=ce9d87f2-9941-4431-9f3a-b0e277f41807"},"vehicle_type_id":"4","last_reported":1726823503,"current_range_meters":39200,"station_id":"ce4bgr92rcd13ifvqc6g","pricing_plan_id":"cebpf4jnsgd1na2vs0mg"},{"bike_id":"84b7fd90-c524-4b9b-9aa1-bc5fa908eace","system_id":"levelo_inurba_marseille","lat":43.286072,"lon":5.37065,"is_reserved":false,"is_disabled":false,"rental_uris":{"android":"levelo://app?vid=84b7fd90-c524-4b9b-9aa1-bc5fa908eace","ios":"levelo://app?vid=84b7fd90-c524-4b9b-9aa1-bc5fa908eace"},"vehicle_type_id":"4","last_reported":1726823503,"current_range_meters":19200,"station_id":"ce4bht12rcd13ifvqi60","pricing_plan_id":"cebpf4jnsgd1na2vs0mg"},{"bike_id":"036ab25f-0c34-4c45-8e88-1fc9200da6fd","system_id":"levelo_inurba_marseille","lat":43.27189,"lon":5.42691,"is_reserved":false,"is_disabled":false,"rental_uris":{"android":"levelo://app?vid=036ab25f-0c34-4c45-8e88-1fc9200da6fd","ios":"levelo://app?vid=036ab25f-0c34-4c45-8e88-1fc9200da6fd"},"vehicle_type_id":"4","last_reported":1726823503,"current_range_meters":26800,"station_id":"","pricing_plan_id":"cebpf4jnsgd1na2vs0mg"},{"bike_id":"40e5b403-5590-4098-a474-822a4163b2a7","system_id":"levelo_inurba_marseille","lat":43.24086,"lon":5.37739,"is_reserved":false,"is_disabled":false,"rental_uris":{"android":"levelo://app?vid=40e5b403-5590-4098-a474-822a4163b2a7","ios":"levelo://app?vid=40e5b403-5590-4098-a474-822a4163b2a7"},"vehicle_type_id":"4","last_reported":1726823503,"current_range_meters":24800,"station_id":"ce4bhnp2rcd13ifvqgvg","pricing_plan_id":"cebpf4jnsgd1na2vs0mg"},{"bike_id":"30373eaa-e13e-49bd-8fa2-94449f87858f","system_id":"levelo_inurba_marseille","lat":43.296785,"lon":5.372791,"is_reserved":false,"is_disabled":false,"rental_uris":{"android":"levelo://app?vid=30373eaa-e13e-49bd-8fa2-94449f87858f","ios":"levelo://app?vid=30373eaa-e13e-49bd-8fa2-94449f87858f"},"vehicle_type_id":"4","last_reported":1726823503,"current_range_meters":27600,"station_id":"ce4bgk12rcd13ifvqbj0","pricing_plan_id":"cebpf4jnsgd1na2vs0mg"},{"bike_id":"0fb42f67-e6d4-4b33-8619-af1b1d2a30e9","system_id":"levelo_inurba_marseille","lat":43.23156,"lon":5.43727,"is_reserved":false,"is_disabled":false,"rental_uris":{"android":"levelo://app?vid=0fb42f67-e6d4-4b33-8619-af1b1d2a30e9","ios":"levelo://app?vid=0fb42f67-e6d4-4b33-8619-af1b1d2a30e9"},"vehicle_type_id":"4","last_reported":1726823503,"current_range_meters":38800,"station_id":"ce4bhmp2rcd13ifvqgog","pricing_plan_id":"cebpf4jnsgd1na2vs0mg"},{"bike_id":"238ebec5-71d1-4fbb-8f9a-d93fe49d135d","system_id":"levelo_inurba_marseille","lat":43.25503,"lon":5.37654,"is_reserved":false,"is_disabled":false,"rental_uris":{"android":"levelo://app?vid=238ebec5-71d1-4fbb-8f9a-d93fe49d135d","ios":"levelo://app?vid=238ebec5-71d1-4fbb-8f9a-d93fe49d135d"},"vehicle_type_id":"4","last_reported":1726823503,"current_range_meters":28800,"station_id":"ce4bhh12rcd13ifvqff0","pricing_plan_id":"cebpf4jnsgd1na2vs0mg"},{"bike_id":"ce008494-5b91-486a-9a09-4de0fcfb0821","system_id":"levelo_inurba_marseille","lat":43.337444,"lon":5.374475,"is_reserved":false,"is_disabled":false,"rental_uris":{"android":"levelo://app?vid=ce008494-5b91-486a-9a09-4de0fcfb0821","ios":"levelo://app?vid=ce008494-5b91-486a-9a09-4de0fcfb0821"},"vehicle_type_id":"4","last_reported":1726823503,"current_range_meters":19200,"station_id":"ce4bhbh2rcd13ifvqeo0","pricing_plan_id":"cebpf4jnsgd1na2vs0mg"},{"bike_id":"1968a456-3c5e-4ce2-8ef4-1e4c031fda3d","system_id":"levelo_inurba_marseille","lat":43.30475,"lon":5.379,"is_reserved":false,"is_disabled":false,"rental_uris":{"android":"levelo://app?vid=1968a456-3c5e-4ce2-8ef4-1e4c031fda3d","ios":"levelo://app?vid=1968a456-3c5e-4ce2-8ef4-1e4c031fda3d"},"vehicle_type_id":"4","last_reported":1726823503,"current_range_meters":36800,"station_id":"ce4bgup2rcd13ifvqcn0","pricing_plan_id":"cebpf4jnsgd1na2vs0mg"},{"bike_id":"e3157b7d-f63e-4215-9b0b-bec081b31a83","system_id":"levelo_inurba_marseille","lat":43.32487,"lon":5.36572,"is_reserved":false,"is_disabled":false,"rental_uris":{"android":"levelo://app?vid=e3157b7d-f63e-4215-9b0b-bec081b31a83","ios":"levelo://app?vid=e3157b7d-f63e-4215-9b0b-bec081b31a83"},"vehicle_type_id":"4","last_reported":1726823503,"current_range_meters":6800,"station_id":"ce4bhs12rcd13ifvqhvg","pricing_plan_id":"cebpf4jnsgd1na2vs0mg"},{"bike_id":"9e4ee180-d896-4674-9f65-8fcd7298a6ec","system_id":"levelo_inurba_marseille","lat":43.27486,"lon":5.42466,"is_reserved":false,"is_disabled":false,"rental_uris":{"android":"levelo://app?vid=9e4ee180-d896-4674-9f65-8fcd7298a6ec","ios":"levelo://app?vid=9e4ee180-d896-4674-9f65-8fcd7298a6ec"},"vehicle_type_id":"4","last_reported":1726823503,"current_range_meters":37600,"station_id":"ce4bhn92rcd13ifvqgrg","pricing_plan_id":"cebpf4jnsgd1na2vs0mg"},{"bike_id":"751f90c9-696d-43a3-abf5-68be55a262c9","system_id":"levelo_inurba_marseille","lat":43.33622,"lon":5.41038,"is_reserved":false,"is_disabled":false,"rental_uris":{"android":"levelo://app?vid=751f90c9-696d-43a3-abf5-68be55a262c9","ios":"levelo://app?vid=751f90c9-696d-43a3-abf5-68be55a262c9"},"vehicle_type_id":"4","last_reported":1726823503,"current_range_meters":16400,"station_id":"ce4bhqh2rcd13ifvqhmg","pricing_plan_id":"cebpf4jnsgd1na2vs0mg"},{"bike_id":"9899969d-4f8e-4fed-bc43-e675716ac04a","system_id":"levelo_inurba_marseille","lat":43.23153,"lon":5.43715,"is_reserved":false,"is_disabled":false,"rental_uris":{"android":"levelo://app?vid=9899969d-4f8e-4fed-bc43-e675716ac04a","ios":"levelo://app?vid=9899969d-4f8e-4fed-bc43-e675716ac04a"},"vehicle_type_id":"4","last_reported":1726823503,"current_range_meters":39200,"station_id":"ce4bhmp2rcd13ifvqgog","pricing_plan_id":"cebpf4jnsgd1na2vs0mg"},{"bike_id":"edfb1ff5-b81b-4225-8da9-100a9115b1e3","system_id":"levelo_inurba_marseille","lat":43.29735,"lon":5.36561,"is_reserved":false,"is_disabled":false,"rental_uris":{"android":"levelo://app?vid=edfb1ff5-b81b-4225-8da9-100a9115b1e3","ios":"levelo://app?vid=edfb1ff5-b81b-4225-8da9-100a9115b1e3"},"vehicle_type_id":"4","last_reported":1726823503,"current_range_meters":13600,"station_id":"","pricing_plan_id":"cebpf4jnsgd1na2vs0mg"},{"bike_id":"fee14bd9-4d8d-4aae-a39a-19d9f53a67a6","system_id":"levelo_inurba_marseille","lat":43.30281,"lon":5.37704,"is_reserved":false,"is_disabled":false,"rental_uris":{"android":"levelo://app?vid=fee14bd9-4d8d-4aae-a39a-19d9f53a67a6","ios":"levelo://app?vid=fee14bd9-4d8d-4aae-a39a-19d9f53a67a6"},"vehicle_type_id":"4","last_reported":1726823503,"current_range_meters":38800,"station_id":"ce4bguh2rcd13ifvqcj0","pricing_plan_id":"cebpf4jnsgd1na2vs0mg"},{"bike_id":"310fd0d7-5f1d-4f0e-bcd6-9df4466c866d","system_id":"levelo_inurba_marseille","lat":43.30953,"lon":5.39037,"is_reserved":false,"is_disabled":false,"rental_uris":{"android":"levelo://app?vid=310fd0d7-5f1d-4f0e-bcd6-9df4466c866d","ios":"levelo://app?vid=310fd0d7-5f1d-4f0e-bcd6-9df4466c866d"},"vehicle_type_id":"4","last_reported":1726823503,"current_range_meters":22800,"station_id":"ce4bgup2rcd13ifvqco0","pricing_plan_id":"cebpf4jnsgd1na2vs0mg"},{"bike_id":"9c265d7b-b0a5-4799-b251-6fc39180cbcb","system_id":"levelo_inurba_marseille","lat":43.32529,"lon":5.4142,"is_reserved":false,"is_disabled":false,"rental_uris":{"android":"levelo://app?vid=9c265d7b-b0a5-4799-b251-6fc39180cbcb","ios":"levelo://app?vid=9c265d7b-b0a5-4799-b251-6fc39180cbcb"},"vehicle_type_id":"4","last_reported":1726823503,"current_range_meters":32400,"station_id":"ce4bhq12rcd13ifvqhhg","pricing_plan_id":"cebpf4jnsgd1na2vs0mg"},{"bike_id":"1177f99b-98bd-42c7-86aa-32b531828272","system_id":"levelo_inurba_marseille","lat":43.29939,"lon":5.36536,"is_reserved":false,"is_disabled":false,"rental_uris":{"android":"levelo://app?vid=1177f99b-98bd-42c7-86aa-32b531828272","ios":"levelo://app?vid=1177f99b-98bd-42c7-86aa-32b531828272"},"vehicle_type_id":"4","last_reported":1726823503,"current_range_meters":24800,"station_id":"ce4bgm92rcd13ifvqbr0","pricing_plan_id":"cebpf4jnsgd1na2vs0mg"},{"bike_id":"fe6fd166-77f8-4250-a84f-7adb4aab3478","system_id":"levelo_inurba_marseille","lat":43.31713,"lon":5.4371,"is_reserved":false,"is_disabled":false,"rental_uris":{"android":"levelo://app?vid=fe6fd166-77f8-4250-a84f-7adb4aab3478","ios":"levelo://app?vid=fe6fd166-77f8-4250-a84f-7adb4aab3478"},"vehicle_type_id":"4","last_reported":1726823503,"current_range_meters":2000,"station_id":"ce4bhp92rcd13ifvqhcg","pricing_plan_id":"cebpf4jnsgd1na2vs0mg"},{"bike_id":"bd9dc574-40ac-47dc-a3de-f8195b34f0de","system_id":"levelo_inurba_marseille","lat":43.33607,"lon":5.41035,"is_reserved":false,"is_disabled":false,"rental_uris":{"android":"levelo://app?vid=bd9dc574-40ac-47dc-a3de-f8195b34f0de","ios":"levelo://app?vid=bd9dc574-40ac-47dc-a3de-f8195b34f0de"},"vehicle_type_id":"4","last_reported":1726823503,"current_range_meters":16000,"station_id":"ce4bhqh2rcd13ifvqhmg","pricing_plan_id":"cebpf4jnsgd1na2vs0mg"},{"bike_id":"a1defe3d-7ef8-422e-8197-b2cd120a3257","system_id":"levelo_inurba_marseille","lat":43.28985,"lon":5.37838,"is_reserved":false,"is_disabled":false,"rental_uris":{"android":"levelo://app?vid=a1defe3d-7ef8-422e-8197-b2cd120a3257","ios":"levelo://app?vid=a1defe3d-7ef8-422e-8197-b2cd120a3257"},"vehicle_type_id":"4","last_reported":1726823503,"current_range_meters":24800,"station_id":"ce4bh9p2rcd13ifvqed0","pricing_plan_id":"cebpf4jnsgd1na2vs0mg"},{"bike_id":"e8a1ac1d-9e10-4e94-9ed7-5b9ab1ebe882","system_id":"levelo_inurba_marseille","lat":43.23148,"lon":5.43732,"is_reserved":false,"is_disabled":false,"rental_uris":{"android":"levelo://app?vid=e8a1ac1d-9e10-4e94-9ed7-5b9ab1ebe882","ios":"levelo://app?vid=e8a1ac1d-9e10-4e94-9ed7-5b9ab1ebe882"},"vehicle_type_id":"4","last_reported":1726823503,"current_range_meters":20000,"station_id":"ce4bhmp2rcd13ifvqgog","pricing_plan_id":"cebpf4jnsgd1na2vs0mg"},{"bike_id":"b767e618-2fa8-406f-9fc8-970b1602eb26","system_id":"levelo_inurba_marseille","lat":43.2898,"lon":5.3784,"is_reserved":false,"is_disabled":false,"rental_uris":{"android":"levelo://app?vid=b767e618-2fa8-406f-9fc8-970b1602eb26","ios":"levelo://app?vid=b767e618-2fa8-406f-9fc8-970b1602eb26"},"vehicle_type_id":"4","last_reported":1726823503,"current_range_meters":36000,"station_id":"ce4bh9p2rcd13ifvqed0","pricing_plan_id":"cebpf4jnsgd1na2vs0mg"},{"bike_id":"ff13ccc6-5f9f-47d0-a5ae-87d8650fc89a","system_id":"levelo_inurba_marseille","lat":43.28354,"lon":5.38107,"is_reserved":false,"is_disabled":false,"rental_uris":{"android":"levelo://app?vid=ff13ccc6-5f9f-47d0-a5ae-87d8650fc89a","ios":"levelo://app?vid=ff13ccc6-5f9f-47d0-a5ae-87d8650fc89a"},"vehicle_type_id":"4","last_reported":1726823503,"current_range_meters":25600,"station_id":"ce4bh412rcd13ifvqdr0","pricing_plan_id":"cebpf4jnsgd1na2vs0mg"},{"bike_id":"a79f1891-ee3f-48b3-876d-6060610e547a","system_id":"levelo_inurba_marseille","lat":43.29994,"lon":5.38081,"is_reserved":false,"is_disabled":false,"rental_uris":{"android":"levelo://app?vid=a79f1891-ee3f-48b3-876d-6060610e547a","ios":"levelo://app?vid=a79f1891-ee3f-48b3-876d-6060610e547a"},"vehicle_type_id":"4","last_reported":1726823503,"current_range_meters":34000,"station_id":"","pricing_plan_id":"cebpf4jnsgd1na2vs0mg"},{"bike_id":"28747450-c42f-4ba6-a1d3-35ec4a385103","system_id":"levelo_inurba_marseille","lat":43.30158,"lon":5.38069,"is_reserved":false,"is_disabled":false,"rental_uris":{"android":"levelo://app?vid=28747450-c42f-4ba6-a1d3-35ec4a385103","ios":"levelo://app?vid=28747450-c42f-4ba6-a1d3-35ec4a385103"},"vehicle_type_id":"4","last_reported":1726823503,"current_range_meters":14800,"station_id":"ce4bgjp2rcd13ifvqbh0","pricing_plan_id":"cebpf4jnsgd1na2vs0mg"},{"bike_id":"43356356-1ebf-41d4-a9de-4fa2973940ef","system_id":"levelo_inurba_marseille","lat":43.29961,"lon":5.41333,"is_reserved":false,"is_disabled":false,"rental_uris":{"android":"levelo://app?vid=43356356-1ebf-41d4-a9de-4fa2973940ef","ios":"levelo://app?vid=43356356-1ebf-41d4-a9de-4fa2973940ef"},"vehicle_type_id":"4","last_reported":1726823503,"current_range_meters":32400,"station_id":"ce4bhp12rcd13ifvqh9g","pricing_plan_id":"cebpf4jnsgd1na2vs0mg"},{"bike_id":"6bbab1e7-c46d-4bcc-afb5-894cf0ac646b","system_id":"levelo_inurba_marseille","lat":43.26681,"lon":5.38266,"is_reserved":false,"is_disabled":false,"rental_uris":{"android":"levelo://app?vid=6bbab1e7-c46d-4bcc-afb5-894cf0ac646b","ios":"levelo://app?vid=6bbab1e7-c46d-4bcc-afb5-894cf0ac646b"},"vehicle_type_id":"4","last_reported":1726823503,"current_range_meters":8400,"station_id":"ce4bhg92rcd13ifvqf90","pricing_plan_id":"cebpf4jnsgd1na2vs0mg"},{"bike_id":"b431aa11-7864-481f-af3a-c99c02ad287c","system_id":"levelo_inurba_marseille","lat":43.23958,"lon":5.3664,"is_reserved":false,"is_disabled":false,"rental_uris":{"android":"levelo://app?vid=b431aa11-7864-481f-af3a-c99c02ad287c","ios":"levelo://app?vid=b431aa11-7864-481f-af3a-c99c02ad287c"},"vehicle_type_id":"4","last_reported":1726823503,"current_range_meters":37600,"station_id":"ce4bhi12rcd13ifvqfp0","pricing_plan_id":"cebpf4jnsgd1na2vs0mg"},{"bike_id":"e6805398-14bf-4c72-b165-1bedb5484a2a","system_id":"levelo_inurba_marseille","lat":43.29844,"lon":5.36269,"is_reserved":false,"is_disabled":false,"rental_uris":{"android":"levelo://app?vid=e6805398-14bf-4c72-b165-1bedb5484a2a","ios":"levelo://app?vid=e6805398-14bf-4c72-b165-1bedb5484a2a"},"vehicle_type_id":"4","last_reported":1726823503,"current_range_meters":38400,"station_id":"ce4bgpp2rcd13ifvqc3g","pricing_plan_id":"cebpf4jnsgd1na2vs0mg"},{"bike_id":"656659b7-cfa6-44c3-bf12-ac0d935d6f26","system_id":"levelo_inurba_marseille","lat":43.25582,"lon":5.3824,"is_reserved":false,"is_disabled":false,"rental_uris":{"android":"levelo://app?vid=656659b7-cfa6-44c3-bf12-ac0d935d6f26","ios":"levelo://app?vid=656659b7-cfa6-44c3-bf12-ac0d935d6f26"},"vehicle_type_id":"4","last_reported":1726823503,"current_range_meters":35200,"station_id":"ce4bhih2rcd13ifvqfs0","pricing_plan_id":"cebpf4jnsgd1na2vs0mg"},{"bike_id":"8e43a5d5-a37c-4f5c-8b2b-231507e2de5e","system_id":"levelo_inurba_marseille","lat":43.27212,"lon":5.3919,"is_reserved":false,"is_disabled":false,"rental_uris":{"android":"levelo://app?vid=8e43a5d5-a37c-4f5c-8b2b-231507e2de5e","ios":"levelo://app?vid=8e43a5d5-a37c-4f5c-8b2b-231507e2de5e"},"vehicle_type_id":"4","last_reported":1726823503,"current_range_meters":18000,"station_id":"ce4bhhp2rcd13ifvqfm0","pricing_plan_id":"cebpf4jnsgd1na2vs0mg"},{"bike_id":"b1cb1e9f-3e69-46f2-9aa0-798c2ddb2e2b","system_id":"levelo_inurba_marseille","lat":43.25005,"lon":5.38909,"is_reserved":false,"is_disabled":false,"rental_uris":{"android":"levelo://app?vid=b1cb1e9f-3e69-46f2-9aa0-798c2ddb2e2b","ios":"levelo://app?vid=b1cb1e9f-3e69-46f2-9aa0-798c2ddb2e2b"},"vehicle_type_id":"4","last_reported":1726823503,"current_range_meters":22400,"station_id":"ce4bhgp2rcd13ifvqfd0","pricing_plan_id":"cebpf4jnsgd1na2vs0mg"},{"bike_id":"c98f7ff1-f3c9-40cb-965e-23ea7f6f3219","system_id":"levelo_inurba_marseille","lat":43.24084,"lon":5.3775,"is_reserved":false,"is_disabled":false,"rental_uris":{"android":"levelo://app?vid=c98f7ff1-f3c9-40cb-965e-23ea7f6f3219","ios":"levelo://app?vid=c98f7ff1-f3c9-40cb-965e-23ea7f6f3219"},"vehicle_type_id":"4","last_reported":1726823503,"current_range_meters":36400,"station_id":"ce4bhnp2rcd13ifvqgvg","pricing_plan_id":"cebpf4jnsgd1na2vs0mg"},{"bike_id":"ff074547-5dac-4335-b69d-ff38a9163b61","system_id":"levelo_inurba_marseille","lat":43.29007,"lon":5.35617,"is_reserved":false,"is_disabled":false,"rental_uris":{"android":"levelo://app?vid=ff074547-5dac-4335-b69d-ff38a9163b61","ios":"levelo://app?vid=ff074547-5dac-4335-b69d-ff38a9163b61"},"vehicle_type_id":"4","last_reported":1726823503,"current_range_meters":38400,"station_id":"ce4bhb92rcd13ifvqen0","pricing_plan_id":"cebpf4jnsgd1na2vs0mg"},{"bike_id":"85d5201c-522f-4cbd-ae43-eaf7a287246f","system_id":"levelo_inurba_marseille","lat":43.2408,"lon":5.37754,"is_reserved":false,"is_disabled":false,"rental_uris":{"android":"levelo://app?vid=85d5201c-522f-4cbd-ae43-eaf7a287246f","ios":"levelo://app?vid=85d5201c-522f-4cbd-ae43-eaf7a287246f"},"vehicle_type_id":"4","last_reported":1726823503,"current_range_meters":32800,"station_id":"ce4bhnp2rcd13ifvqgvg","pricing_plan_id":"cebpf4jnsgd1na2vs0mg"},{"bike_id":"0ac15010-dd38-4741-a92d-67db1c58b97f","system_id":"levelo_inurba_marseille","lat":43.32494,"lon":5.36563,"is_reserved":false,"is_disabled":false,"rental_uris":{"android":"levelo://app?vid=0ac15010-dd38-4741-a92d-67db1c58b97f","ios":"levelo://app?vid=0ac15010-dd38-4741-a92d-67db1c58b97f"},"vehicle_type_id":"4","last_reported":1726823503,"current_range_meters":17200,"station_id":"ce4bhs12rcd13ifvqhvg","pricing_plan_id":"cebpf4jnsgd1na2vs0mg"},{"bike_id":"06160354-60df-4cba-b7d5-441cbcd00837","system_id":"levelo_inurba_marseille","lat":43.30474,"lon":5.37901,"is_reserved":false,"is_disabled":false,"rental_uris":{"android":"levelo://app?vid=06160354-60df-4cba-b7d5-441cbcd00837","ios":"levelo://app?vid=06160354-60df-4cba-b7d5-441cbcd00837"},"vehicle_type_id":"4","last_reported":1726823503,"current_range_meters":37600,"station_id":"ce4bgup2rcd13ifvqcn0","pricing_plan_id":"cebpf4jnsgd1na2vs0mg"},{"bike_id":"306549f4-d300-4209-9498-1103ebfb72df","system_id":"levelo_inurba_marseille","lat":43.30536,"lon":5.36545,"is_reserved":false,"is_disabled":false,"rental_uris":{"android":"levelo://app?vid=306549f4-d300-4209-9498-1103ebfb72df","ios":"levelo://app?vid=306549f4-d300-4209-9498-1103ebfb72df"},"vehicle_type_id":"4","last_reported":1726823503,"current_range_meters":28800,"station_id":"ce4bgs12rcd13ifvqcag","pricing_plan_id":"cebpf4jnsgd1na2vs0mg"},{"bike_id":"2a7cd1f9-25c0-4cce-9c52-6c5254072d68","system_id":"levelo_inurba_marseille","lat":43.29007,"lon":5.35616,"is_reserved":false,"is_disabled":false,"rental_uris":{"android":"levelo://app?vid=2a7cd1f9-25c0-4cce-9c52-6c5254072d68","ios":"levelo://app?vid=2a7cd1f9-25c0-4cce-9c52-6c5254072d68"},"vehicle_type_id":"4","last_reported":1726823503,"current_range_meters":38400,"station_id":"ce4bhb92rcd13ifvqen0","pricing_plan_id":"cebpf4jnsgd1na2vs0mg"},{"bike_id":"896e6927-c5f6-4910-b508-b7785967479b","system_id":"levelo_inurba_marseille","lat":43.26212,"lon":5.37928,"is_reserved":false,"is_disabled":false,"rental_uris":{"android":"levelo://app?vid=896e6927-c5f6-4910-b508-b7785967479b","ios":"levelo://app?vid=896e6927-c5f6-4910-b508-b7785967479b"},"vehicle_type_id":"4","last_reported":1726823503,"current_range_meters":39200,"station_id":"ce4bhjp2rcd13ifvqg90","pricing_plan_id":"cebpf4jnsgd1na2vs0mg"},{"bike_id":"cf555b44-67b0-41d4-a5f9-65b67db51574","system_id":"levelo_inurba_marseille","lat":43.24085,"lon":5.37757,"is_reserved":false,"is_disabled":false,"rental_uris":{"android":"levelo://app?vid=cf555b44-67b0-41d4-a5f9-65b67db51574","ios":"levelo://app?vid=cf555b44-67b0-41d4-a5f9-65b67db51574"},"vehicle_type_id":"4","last_reported":1726823503,"current_range_meters":2800,"station_id":"ce4bhnp2rcd13ifvqgvg","pricing_plan_id":"cebpf4jnsgd1na2vs0mg"},{"bike_id":"5e8cd25f-f66f-44f9-a20a-ca52de41cf51","system_id":"levelo_inurba_marseille","lat":43.30139,"lon":5.37418,"is_reserved":false,"is_disabled":false,"rental_uris":{"android":"levelo://app?vid=5e8cd25f-f66f-44f9-a20a-ca52de41cf51","ios":"levelo://app?vid=5e8cd25f-f66f-44f9-a20a-ca52de41cf51"},"vehicle_type_id":"4","last_reported":1726823503,"current_range_meters":36800,"station_id":"ce4bgs92rcd13ifvqcc0","pricing_plan_id":"cebpf4jnsgd1na2vs0mg"},{"bike_id":"2b2df78e-3214-4699-829a-8f95a79667af","system_id":"levelo_inurba_marseille","lat":43.24079,"lon":5.37742,"is_reserved":false,"is_disabled":false,"rental_uris":{"android":"levelo://app?vid=2b2df78e-3214-4699-829a-8f95a79667af","ios":"levelo://app?vid=2b2df78e-3214-4699-829a-8f95a79667af"},"vehicle_type_id":"4","last_reported":1726823503,"current_range_meters":25200,"station_id":"ce4bhnp2rcd13ifvqgvg","pricing_plan_id":"cebpf4jnsgd1na2vs0mg"},{"bike_id":"f104eaef-b3b0-4392-ad0b-884d81f7af7f","system_id":"levelo_inurba_marseille","lat":43.27495,"lon":5.42464,"is_reserved":false,"is_disabled":false,"rental_uris":{"android":"levelo://app?vid=f104eaef-b3b0-4392-ad0b-884d81f7af7f","ios":"levelo://app?vid=f104eaef-b3b0-4392-ad0b-884d81f7af7f"},"vehicle_type_id":"4","last_reported":1726823503,"current_range_meters":33600,"station_id":"ce4bhn92rcd13ifvqgrg","pricing_plan_id":"cebpf4jnsgd1na2vs0mg"},{"bike_id":"f87be47e-32d1-4f8a-818b-778dfb1144f9","system_id":"levelo_inurba_marseille","lat":43.30181,"lon":5.36616,"is_reserved":false,"is_disabled":false,"rental_uris":{"android":"levelo://app?vid=f87be47e-32d1-4f8a-818b-778dfb1144f9","ios":"levelo://app?vid=f87be47e-32d1-4f8a-818b-778dfb1144f9"},"vehicle_type_id":"4","last_reported":1726823503,"current_range_meters":38000,"station_id":"ce4bgrh2rcd13ifvqc8g","pricing_plan_id":"cebpf4jnsgd1na2vs0mg"},{"bike_id":"081a8b75-6ead-4da5-b1f9-60c9f6da265e","system_id":"levelo_inurba_marseille","lat":43.28384,"lon":5.38654,"is_reserved":false,"is_disabled":false,"rental_uris":{"android":"levelo://app?vid=081a8b75-6ead-4da5-b1f9-60c9f6da265e","ios":"levelo://app?vid=081a8b75-6ead-4da5-b1f9-60c9f6da265e"},"vehicle_type_id":"4","last_reported":1726823503,"current_range_meters":38400,"station_id":"ce4bh492rcd13ifvqdvg","pricing_plan_id":"cebpf4jnsgd1na2vs0mg"},{"bike_id":"9733eb26-9e68-456c-b0c3-d7415e89c90e","system_id":"levelo_inurba_marseille","lat":43.30544,"lon":5.3671,"is_reserved":false,"is_disabled":false,"rental_uris":{"android":"levelo://app?vid=9733eb26-9e68-456c-b0c3-d7415e89c90e","ios":"levelo://app?vid=9733eb26-9e68-456c-b0c3-d7415e89c90e"},"vehicle_type_id":"4","last_reported":1726823503,"current_range_meters":28800,"station_id":"ce4bgrp2rcd13ifvqc9g","pricing_plan_id":"cebpf4jnsgd1na2vs0mg"},{"bike_id":"212e06b1-a475-43d1-8093-55ef704489d2","system_id":"levelo_inurba_marseille","lat":43.299133,"lon":5.381556,"is_reserved":false,"is_disabled":false,"rental_uris":{"android":"levelo://app?vid=212e06b1-a475-43d1-8093-55ef704489d2","ios":"levelo://app?vid=212e06b1-a475-43d1-8093-55ef704489d2"},"vehicle_type_id":"4","last_reported":1726823503,"current_range_meters":24800,"station_id":"ce4bh4p2rcd13ifvqe1g","pricing_plan_id":"cebpf4jnsgd1na2vs0mg"},{"bike_id":"09450b7f-f6cd-42a7-803e-6c020016fe60","system_id":"levelo_inurba_marseille","lat":43.27284,"lon":5.39113,"is_reserved":false,"is_disabled":false,"rental_uris":{"android":"levelo://app?vid=09450b7f-f6cd-42a7-803e-6c020016fe60","ios":"levelo://app?vid=09450b7f-f6cd-42a7-803e-6c020016fe60"},"vehicle_type_id":"4","last_reported":1726823503,"current_range_meters":28000,"station_id":"ce4bhgp2rcd13ifvqfe0","pricing_plan_id":"cebpf4jnsgd1na2vs0mg"},{"bike_id":"c0a590e6-b873-45be-bd9f-ed24c1027993","system_id":"levelo_inurba_marseille","lat":43.25498,"lon":5.37654,"is_reserved":false,"is_disabled":false,"rental_uris":{"android":"levelo://app?vid=c0a590e6-b873-45be-bd9f-ed24c1027993","ios":"levelo://app?vid=c0a590e6-b873-45be-bd9f-ed24c1027993"},"vehicle_type_id":"4","last_reported":1726823503,"current_range_meters":16800,"station_id":"ce4bhh12rcd13ifvqff0","pricing_plan_id":"cebpf4jnsgd1na2vs0mg"},{"bike_id":"fddda46f-3770-430a-bd4b-01e0f31638c2","system_id":"levelo_inurba_marseille","lat":43.25941,"lon":5.40897,"is_reserved":false,"is_disabled":false,"rental_uris":{"android":"levelo://app?vid=fddda46f-3770-430a-bd4b-01e0f31638c2","ios":"levelo://app?vid=fddda46f-3770-430a-bd4b-01e0f31638c2"},"vehicle_type_id":"4","last_reported":1726823503,"current_range_meters":30800,"station_id":"ce4bhm92rcd13ifvqglg","pricing_plan_id":"cebpf4jnsgd1na2vs0mg"},{"bike_id":"8ee6d5db-cb8b-4219-a1d2-5a1a8206952f","system_id":"levelo_inurba_marseille","lat":43.29556,"lon":5.42299,"is_reserved":false,"is_disabled":false,"rental_uris":{"android":"levelo://app?vid=8ee6d5db-cb8b-4219-a1d2-5a1a8206952f","ios":"levelo://app?vid=8ee6d5db-cb8b-4219-a1d2-5a1a8206952f"},"vehicle_type_id":"4","last_reported":1726823503,"current_range_meters":37600,"station_id":"ce4bhph2rcd13ifvqhdg","pricing_plan_id":"cebpf4jnsgd1na2vs0mg"},{"bike_id":"10f12f49-4cb0-4006-af16-73843c3bf357","system_id":"levelo_inurba_marseille","lat":43.24079,"lon":5.37759,"is_reserved":false,"is_disabled":false,"rental_uris":{"android":"levelo://app?vid=10f12f49-4cb0-4006-af16-73843c3bf357","ios":"levelo://app?vid=10f12f49-4cb0-4006-af16-73843c3bf357"},"vehicle_type_id":"4","last_reported":1726823503,"current_range_meters":16400,"station_id":"ce4bhnp2rcd13ifvqgvg","pricing_plan_id":"cebpf4jnsgd1na2vs0mg"},{"bike_id":"9cd27ddd-b254-4b49-9ee2-fc9f2009dfa5","system_id":"levelo_inurba_marseille","lat":43.26063,"lon":5.39399,"is_reserved":false,"is_disabled":false,"rental_uris":{"android":"levelo://app?vid=9cd27ddd-b254-4b49-9ee2-fc9f2009dfa5","ios":"levelo://app?vid=9cd27ddd-b254-4b49-9ee2-fc9f2009dfa5"},"vehicle_type_id":"4","last_reported":1726823503,"current_range_meters":20400,"station_id":"ce4bhh92rcd13ifvqfj0","pricing_plan_id":"cebpf4jnsgd1na2vs0mg"},{"bike_id":"af42f746-66d2-45b8-9e58-3721ab0e338d","system_id":"levelo_inurba_marseille","lat":43.23197,"lon":5.35557,"is_reserved":false,"is_disabled":false,"rental_uris":{"android":"levelo://app?vid=af42f746-66d2-45b8-9e58-3721ab0e338d","ios":"levelo://app?vid=af42f746-66d2-45b8-9e58-3721ab0e338d"},"vehicle_type_id":"4","last_reported":1726823503,"current_range_meters":8400,"station_id":"ce4bhu92rcd13ifvqi70","pricing_plan_id":"cebpf4jnsgd1na2vs0mg"},{"bike_id":"b02c4222-612b-4c06-bc86-d4f2cfd5e477","system_id":"levelo_inurba_marseille","lat":43.24546,"lon":5.39533,"is_reserved":false,"is_disabled":false,"rental_uris":{"android":"levelo://app?vid=b02c4222-612b-4c06-bc86-d4f2cfd5e477","ios":"levelo://app?vid=b02c4222-612b-4c06-bc86-d4f2cfd5e477"},"vehicle_type_id":"4","last_reported":1726823503,"current_range_meters":32400,"station_id":"ce4bhlp2rcd13ifvqgjg","pricing_plan_id":"cebpf4jnsgd1na2vs0mg"},{"bike_id":"7520278d-7e09-4d82-8a4a-88669de8eda1","system_id":"levelo_inurba_marseille","lat":43.32541,"lon":5.41444,"is_reserved":false,"is_disabled":false,"rental_uris":{"android":"levelo://app?vid=7520278d-7e09-4d82-8a4a-88669de8eda1","ios":"levelo://app?vid=7520278d-7e09-4d82-8a4a-88669de8eda1"},"vehicle_type_id":"4","last_reported":1726823503,"current_range_meters":2000,"station_id":"ce4bhq12rcd13ifvqhhg","pricing_plan_id":"cebpf4jnsgd1na2vs0mg"},{"bike_id":"6cc57481-25b4-4654-8964-094a6c525f6d","system_id":"levelo_inurba_marseille","lat":43.27492,"lon":5.42448,"is_reserved":false,"is_disabled":false,"rental_uris":{"android":"levelo://app?vid=6cc57481-25b4-4654-8964-094a6c525f6d","ios":"levelo://app?vid=6cc57481-25b4-4654-8964-094a6c525f6d"},"vehicle_type_id":"4","last_reported":1726823503,"current_range_meters":38800,"station_id":"ce4bhn92rcd13ifvqgrg","pricing_plan_id":"cebpf4jnsgd1na2vs0mg"},{"bike_id":"ab704c81-0bdc-4966-a9a3-ecdb72287598","system_id":"levelo_inurba_marseille","lat":43.33607,"lon":5.41035,"is_reserved":false,"is_disabled":false,"rental_uris":{"android":"levelo://app?vid=ab704c81-0bdc-4966-a9a3-ecdb72287598","ios":"levelo://app?vid=ab704c81-0bdc-4966-a9a3-ecdb72287598"},"vehicle_type_id":"4","last_reported":1726823503,"current_range_meters":6800,"station_id":"ce4bhqh2rcd13ifvqhmg","pricing_plan_id":"cebpf4jnsgd1na2vs0mg"},{"bike_id":"bfc2814d-d660-4f27-8771-b310fb735346","system_id":"levelo_inurba_marseille","lat":43.24399,"lon":5.37063,"is_reserved":false,"is_disabled":false,"rental_uris":{"android":"levelo://app?vid=bfc2814d-d660-4f27-8771-b310fb735346","ios":"levelo://app?vid=bfc2814d-d660-4f27-8771-b310fb735346"},"vehicle_type_id":"4","last_reported":1726823503,"current_range_meters":36000,"station_id":"ce4bhhh2rcd13ifvqfk0","pricing_plan_id":"cebpf4jnsgd1na2vs0mg"},{"bike_id":"b4d90691-b2ae-447e-84f7-f1a017bf250a","system_id":"levelo_inurba_marseille","lat":43.26555,"lon":5.37286,"is_reserved":false,"is_disabled":false,"rental_uris":{"android":"levelo://app?vid=b4d90691-b2ae-447e-84f7-f1a017bf250a","ios":"levelo://app?vid=b4d90691-b2ae-447e-84f7-f1a017bf250a"},"vehicle_type_id":"4","last_reported":1726823503,"current_range_meters":14800,"station_id":"ce4bhg12rcd13ifvqf70","pricing_plan_id":"cebpf4jnsgd1na2vs0mg"},{"bike_id":"66bdbe49-6c87-4f80-b9c2-4a52c0ab5db0","system_id":"levelo_inurba_marseille","lat":43.30546,"lon":5.36698,"is_reserved":false,"is_disabled":false,"rental_uris":{"android":"levelo://app?vid=66bdbe49-6c87-4f80-b9c2-4a52c0ab5db0","ios":"levelo://app?vid=66bdbe49-6c87-4f80-b9c2-4a52c0ab5db0"},"vehicle_type_id":"4","last_reported":1726823503,"current_range_meters":16000,"station_id":"ce4bgrp2rcd13ifvqc9g","pricing_plan_id":"cebpf4jnsgd1na2vs0mg"},{"bike_id":"04157135-60aa-4e75-9cfc-414e05ad81d1","system_id":"levelo_inurba_marseille","lat":43.29937,"lon":5.36539,"is_reserved":false,"is_disabled":false,"rental_uris":{"android":"levelo://app?vid=04157135-60aa-4e75-9cfc-414e05ad81d1","ios":"levelo://app?vid=04157135-60aa-4e75-9cfc-414e05ad81d1"},"vehicle_type_id":"4","last_reported":1726823503,"current_range_meters":20400,"station_id":"ce4bgm92rcd13ifvqbr0","pricing_plan_id":"cebpf4jnsgd1na2vs0mg"},{"bike_id":"7604bb9e-fa4f-4017-a5c9-663dd19f2ba8","system_id":"levelo_inurba_marseille","lat":43.25944,"lon":5.40902,"is_reserved":false,"is_disabled":false,"rental_uris":{"android":"levelo://app?vid=7604bb9e-fa4f-4017-a5c9-663dd19f2ba8","ios":"levelo://app?vid=7604bb9e-fa4f-4017-a5c9-663dd19f2ba8"},"vehicle_type_id":"4","last_reported":1726823503,"current_range_meters":26800,"station_id":"ce4bhm92rcd13ifvqglg","pricing_plan_id":"cebpf4jnsgd1na2vs0mg"},{"bike_id":"adc21963-f90b-490e-a9d1-eb2095221ef0","system_id":"levelo_inurba_marseille","lat":43.27492,"lon":5.42459,"is_reserved":false,"is_disabled":false,"rental_uris":{"android":"levelo://app?vid=adc21963-f90b-490e-a9d1-eb2095221ef0","ios":"levelo://app?vid=adc21963-f90b-490e-a9d1-eb2095221ef0"},"vehicle_type_id":"4","last_reported":1726823503,"current_range_meters":38800,"station_id":"ce4bhn92rcd13ifvqgrg","pricing_plan_id":"cebpf4jnsgd1na2vs0mg"},{"bike_id":"470d5d03-2251-4f98-9029-c3fecaef5730","system_id":"levelo_inurba_marseille","lat":43.23969,"lon":5.36636,"is_reserved":false,"is_disabled":false,"rental_uris":{"android":"levelo://app?vid=470d5d03-2251-4f98-9029-c3fecaef5730","ios":"levelo://app?vid=470d5d03-2251-4f98-9029-c3fecaef5730"},"vehicle_type_id":"4","last_reported":1726823503,"current_range_meters":32800,"station_id":"ce4bhi12rcd13ifvqfp0","pricing_plan_id":"cebpf4jnsgd1na2vs0mg"},{"bike_id":"5835972c-3486-46b5-af58-e2444cd3592d","system_id":"levelo_inurba_marseille","lat":43.30545,"lon":5.36693,"is_reserved":false,"is_disabled":false,"rental_uris":{"android":"levelo://app?vid=5835972c-3486-46b5-af58-e2444cd3592d","ios":"levelo://app?vid=5835972c-3486-46b5-af58-e2444cd3592d"},"vehicle_type_id":"4","last_reported":1726823503,"current_range_meters":38800,"station_id":"ce4bgrp2rcd13ifvqc9g","pricing_plan_id":"cebpf4jnsgd1na2vs0mg"},{"bike_id":"b153f585-91a7-4778-8e3b-fba7bd4d15f4","system_id":"levelo_inurba_marseille","lat":43.31361,"lon":5.36703,"is_reserved":false,"is_disabled":false,"rental_uris":{"android":"levelo://app?vid=b153f585-91a7-4778-8e3b-fba7bd4d15f4","ios":"levelo://app?vid=b153f585-91a7-4778-8e3b-fba7bd4d15f4"},"vehicle_type_id":"4","last_reported":1726823503,"current_range_meters":39200,"station_id":"ce4bgr92rcd13ifvqc6g","pricing_plan_id":"cebpf4jnsgd1na2vs0mg"},{"bike_id":"5f7fe5f6-0f33-4b71-8b30-37f45d3bbd53","system_id":"levelo_inurba_marseille","lat":43.28158,"lon":5.42643,"is_reserved":false,"is_disabled":false,"rental_uris":{"android":"levelo://app?vid=5f7fe5f6-0f33-4b71-8b30-37f45d3bbd53","ios":"levelo://app?vid=5f7fe5f6-0f33-4b71-8b30-37f45d3bbd53"},"vehicle_type_id":"4","last_reported":1726823503,"current_range_meters":14000,"station_id":"ce4bhnh2rcd13ifvqgug","pricing_plan_id":"cebpf4jnsgd1na2vs0mg"},{"bike_id":"3b514ebd-a1fe-4f1f-ae15-f0ead64a7251","system_id":"levelo_inurba_marseille","lat":43.27377,"lon":5.36259,"is_reserved":false,"is_disabled":false,"rental_uris":{"android":"levelo://app?vid=3b514ebd-a1fe-4f1f-ae15-f0ead64a7251","ios":"levelo://app?vid=3b514ebd-a1fe-4f1f-ae15-f0ead64a7251"},"vehicle_type_id":"4","last_reported":1726823503,"current_range_meters":24000,"station_id":"ce4bhbh2rcd13ifvqeo0","pricing_plan_id":"cebpf4jnsgd1na2vs0mg"},{"bike_id":"aa8c723a-18e1-4191-a83a-484ae857f704","system_id":"levelo_inurba_marseille","lat":43.34154,"lon":5.40915,"is_reserved":false,"is_disabled":false,"rental_uris":{"android":"levelo://app?vid=aa8c723a-18e1-4191-a83a-484ae857f704","ios":"levelo://app?vid=aa8c723a-18e1-4191-a83a-484ae857f704"},"vehicle_type_id":"4","last_reported":1726823503,"current_range_meters":27600,"station_id":"ce4bhqh2rcd13ifvqhlg","pricing_plan_id":"cebpf4jnsgd1na2vs0mg"},{"bike_id":"a036a2a0-6219-461f-bb0b-f34736ab1d2c","system_id":"levelo_inurba_marseille","lat":43.30907,"lon":5.36861,"is_reserved":false,"is_disabled":false,"rental_uris":{"android":"levelo://app?vid=a036a2a0-6219-461f-bb0b-f34736ab1d2c","ios":"levelo://app?vid=a036a2a0-6219-461f-bb0b-f34736ab1d2c"},"vehicle_type_id":"4","last_reported":1726823503,"current_range_meters":4000,"station_id":"ce4bgn92rcd13ifvqbvg","pricing_plan_id":"cebpf4jnsgd1na2vs0mg"},{"bike_id":"9e17731e-35d9-4aa0-92b3-bc18bc20078c","system_id":"levelo_inurba_marseille","lat":43.30955,"lon":5.39044,"is_reserved":false,"is_disabled":false,"rental_uris":{"android":"levelo://app?vid=9e17731e-35d9-4aa0-92b3-bc18bc20078c","ios":"levelo://app?vid=9e17731e-35d9-4aa0-92b3-bc18bc20078c"},"vehicle_type_id":"4","last_reported":1726823503,"current_range_meters":24800,"station_id":"ce4bgup2rcd13ifvqco0","pricing_plan_id":"cebpf4jnsgd1na2vs0mg"},{"bike_id":"247f8924-d2ca-48e7-b639-f5097299ef61","system_id":"levelo_inurba_marseille","lat":43.24388,"lon":5.37051,"is_reserved":false,"is_disabled":false,"rental_uris":{"android":"levelo://app?vid=247f8924-d2ca-48e7-b639-f5097299ef61","ios":"levelo://app?vid=247f8924-d2ca-48e7-b639-f5097299ef61"},"vehicle_type_id":"4","last_reported":1726823503,"current_range_meters":39200,"station_id":"ce4bhhh2rcd13ifvqfk0","pricing_plan_id":"cebpf4jnsgd1na2vs0mg"},{"bike_id":"bd84ece4-126a-4b12-8836-cea47ffa79e9","system_id":"levelo_inurba_marseille","lat":43.30547,"lon":5.36712,"is_reserved":false,"is_disabled":false,"rental_uris":{"android":"levelo://app?vid=bd84ece4-126a-4b12-8836-cea47ffa79e9","ios":"levelo://app?vid=bd84ece4-126a-4b12-8836-cea47ffa79e9"},"vehicle_type_id":"4","last_reported":1726823503,"current_range_meters":32000,"station_id":"ce4bgrp2rcd13ifvqc9g","pricing_plan_id":"cebpf4jnsgd1na2vs0mg"},{"bike_id":"6b0b777a-8312-49d9-bdfc-41a6c52e6b37","system_id":"levelo_inurba_marseille","lat":43.30463,"lon":5.37907,"is_reserved":false,"is_disabled":false,"rental_uris":{"android":"levelo://app?vid=6b0b777a-8312-49d9-bdfc-41a6c52e6b37","ios":"levelo://app?vid=6b0b777a-8312-49d9-bdfc-41a6c52e6b37"},"vehicle_type_id":"4","last_reported":1726823503,"current_range_meters":33600,"station_id":"ce4bgup2rcd13ifvqcn0","pricing_plan_id":"cebpf4jnsgd1na2vs0mg"},{"bike_id":"604c9531-be4f-4974-bfe2-bd7828d7386f","system_id":"levelo_inurba_marseille","lat":43.29905,"lon":5.43672,"is_reserved":false,"is_disabled":false,"rental_uris":{"android":"levelo://app?vid=604c9531-be4f-4974-bfe2-bd7828d7386f","ios":"levelo://app?vid=604c9531-be4f-4974-bfe2-bd7828d7386f"},"vehicle_type_id":"4","last_reported":1726823503,"current_range_meters":28400,"station_id":"ce4bhpp2rcd13ifvqhfg","pricing_plan_id":"cebpf4jnsgd1na2vs0mg"},{"bike_id":"44da3e59-dcf2-4354-910f-f3fece0ed467","system_id":"levelo_inurba_marseille","lat":43.27064,"lon":5.42275,"is_reserved":false,"is_disabled":false,"rental_uris":{"android":"levelo://app?vid=44da3e59-dcf2-4354-910f-f3fece0ed467","ios":"levelo://app?vid=44da3e59-dcf2-4354-910f-f3fece0ed467"},"vehicle_type_id":"4","last_reported":1726823503,"current_range_meters":37600,"station_id":"ce4bhk92rcd13ifvqgb0","pricing_plan_id":"cebpf4jnsgd1na2vs0mg"},{"bike_id":"eb2ef9af-e9bb-4b94-aee1-3fb33b5e66f9","system_id":"levelo_inurba_marseille","lat":43.28,"lon":5.41668,"is_reserved":false,"is_disabled":false,"rental_uris":{"android":"levelo://app?vid=eb2ef9af-e9bb-4b94-aee1-3fb33b5e66f9","ios":"levelo://app?vid=eb2ef9af-e9bb-4b94-aee1-3fb33b5e66f9"},"vehicle_type_id":"4","last_reported":1726823503,"current_range_meters":37600,"station_id":"ce4bho12rcd13ifvqh1g","pricing_plan_id":"cebpf4jnsgd1na2vs0mg"},{"bike_id":"ad9c983a-6c32-49a5-9db8-e9658c88e94d","system_id":"levelo_inurba_marseille","lat":43.299759,"lon":5.384913,"is_reserved":false,"is_disabled":false,"rental_uris":{"android":"levelo://app?vid=ad9c983a-6c32-49a5-9db8-e9658c88e94d","ios":"levelo://app?vid=ad9c983a-6c32-49a5-9db8-e9658c88e94d"},"vehicle_type_id":"4","last_reported":1726823503,"current_range_meters":17200,"station_id":"ce4bgnh2rcd13ifvqc0g","pricing_plan_id":"cebpf4jnsgd1na2vs0mg"},{"bike_id":"be365c2e-80e2-44c5-a20e-0144c10d6da3","system_id":"levelo_inurba_marseille","lat":43.26957,"lon":5.38634,"is_reserved":false,"is_disabled":false,"rental_uris":{"android":"levelo://app?vid=be365c2e-80e2-44c5-a20e-0144c10d6da3","ios":"levelo://app?vid=be365c2e-80e2-44c5-a20e-0144c10d6da3"},"vehicle_type_id":"4","last_reported":1726823503,"current_range_meters":39200,"station_id":"ce4bhh92rcd13ifvqfh0","pricing_plan_id":"cebpf4jnsgd1na2vs0mg"},{"bike_id":"bbabc812-5d4f-4dde-ac4b-6c59e8a40a27","system_id":"levelo_inurba_marseille","lat":43.27492,"lon":5.4245,"is_reserved":false,"is_disabled":false,"rental_uris":{"android":"levelo://app?vid=bbabc812-5d4f-4dde-ac4b-6c59e8a40a27","ios":"levelo://app?vid=bbabc812-5d4f-4dde-ac4b-6c59e8a40a27"},"vehicle_type_id":"4","last_reported":1726823503,"current_range_meters":38800,"station_id":"ce4bhn92rcd13ifvqgrg","pricing_plan_id":"cebpf4jnsgd1na2vs0mg"},{"bike_id":"15bbdbd8-fa35-4790-b472-706c4e2f4e69","system_id":"levelo_inurba_marseille","lat":43.3053,"lon":5.37272,"is_reserved":false,"is_disabled":false,"rental_uris":{"android":"levelo://app?vid=15bbdbd8-fa35-4790-b472-706c4e2f4e69","ios":"levelo://app?vid=15bbdbd8-fa35-4790-b472-706c4e2f4e69"},"vehicle_type_id":"4","last_reported":1726823503,"current_range_meters":6000,"station_id":"","pricing_plan_id":"cebpf4jnsgd1na2vs0mg"},{"bike_id":"ef6e8a6b-dbc8-497d-adeb-1b246e1a7dec","system_id":"levelo_inurba_marseille","lat":43.24174,"lon":5.39737,"is_reserved":false,"is_disabled":false,"rental_uris":{"android":"levelo://app?vid=ef6e8a6b-dbc8-497d-adeb-1b246e1a7dec","ios":"levelo://app?vid=ef6e8a6b-dbc8-497d-adeb-1b246e1a7dec"},"vehicle_type_id":"4","last_reported":1726823503,"current_range_meters":39200,"station_id":"ce4bhn12rcd13ifvqgpg","pricing_plan_id":"cebpf4jnsgd1na2vs0mg"},{"bike_id":"9f8649e2-75d2-4d09-94ee-538fd13f9680","system_id":"levelo_inurba_marseille","lat":43.33605,"lon":5.41021,"is_reserved":false,"is_disabled":false,"rental_uris":{"android":"levelo://app?vid=9f8649e2-75d2-4d09-94ee-538fd13f9680","ios":"levelo://app?vid=9f8649e2-75d2-4d09-94ee-538fd13f9680"},"vehicle_type_id":"4","last_reported":1726823503,"current_range_meters":39200,"station_id":"ce4bhqh2rcd13ifvqhmg","pricing_plan_id":"cebpf4jnsgd1na2vs0mg"},{"bike_id":"eba8614c-0914-4ce7-a706-4d43d12ff0e3","system_id":"levelo_inurba_marseille","lat":43.28152,"lon":5.4265,"is_reserved":false,"is_disabled":false,"rental_uris":{"android":"levelo://app?vid=eba8614c-0914-4ce7-a706-4d43d12ff0e3","ios":"levelo://app?vid=eba8614c-0914-4ce7-a706-4d43d12ff0e3"},"vehicle_type_id":"4","last_reported":1726823503,"current_range_meters":32800,"station_id":"ce4bhnh2rcd13ifvqgug","pricing_plan_id":"cebpf4jnsgd1na2vs0mg"},{"bike_id":"95b41d6d-fd81-42f3-8c2c-23df7314a0a1","system_id":"levelo_inurba_marseille","lat":43.25119,"lon":5.40325,"is_reserved":false,"is_disabled":false,"rental_uris":{"android":"levelo://app?vid=95b41d6d-fd81-42f3-8c2c-23df7314a0a1","ios":"levelo://app?vid=95b41d6d-fd81-42f3-8c2c-23df7314a0a1"},"vehicle_type_id":"4","last_reported":1726823503,"current_range_meters":11600,"station_id":"ce4bhlh2rcd13ifvqgig","pricing_plan_id":"cebpf4jnsgd1na2vs0mg"},{"bike_id":"8416540e-d71b-4793-a08d-f7aca3c1bdd3","system_id":"levelo_inurba_marseille","lat":43.287,"lon":5.37393,"is_reserved":false,"is_disabled":false,"rental_uris":{"android":"levelo://app?vid=8416540e-d71b-4793-a08d-f7aca3c1bdd3","ios":"levelo://app?vid=8416540e-d71b-4793-a08d-f7aca3c1bdd3"},"vehicle_type_id":"4","last_reported":1726823503,"current_range_meters":33200,"station_id":"ce4bh3p2rcd13ifvqdq0","pricing_plan_id":"cebpf4jnsgd1na2vs0mg"},{"bike_id":"1ce6f2fa-3eda-4afe-9a3d-bca54103af66","system_id":"levelo_inurba_marseille","lat":43.30263,"lon":5.37727,"is_reserved":false,"is_disabled":false,"rental_uris":{"android":"levelo://app?vid=1ce6f2fa-3eda-4afe-9a3d-bca54103af66","ios":"levelo://app?vid=1ce6f2fa-3eda-4afe-9a3d-bca54103af66"},"vehicle_type_id":"4","last_reported":1726823503,"current_range_meters":26800,"station_id":"ce4bguh2rcd13ifvqcj0","pricing_plan_id":"cebpf4jnsgd1na2vs0mg"},{"bike_id":"70331b43-50c9-422f-9128-10b07d75c932","system_id":"levelo_inurba_marseille","lat":43.278122,"lon":5.407107,"is_reserved":false,"is_disabled":false,"rental_uris":{"android":"levelo://app?vid=70331b43-50c9-422f-9128-10b07d75c932","ios":"levelo://app?vid=70331b43-50c9-422f-9128-10b07d75c932"},"vehicle_type_id":"4","last_reported":1726823503,"current_range_meters":22000,"station_id":"ce4bhc92rcd13ifvqetg","pricing_plan_id":"cebpf4jnsgd1na2vs0mg"},{"bike_id":"8bded9b1-4958-41a5-9529-392455536bc5","system_id":"levelo_inurba_marseille","lat":43.27494,"lon":5.42452,"is_reserved":false,"is_disabled":false,"rental_uris":{"android":"levelo://app?vid=8bded9b1-4958-41a5-9529-392455536bc5","ios":"levelo://app?vid=8bded9b1-4958-41a5-9529-392455536bc5"},"vehicle_type_id":"4","last_reported":1726823503,"current_range_meters":38800,"station_id":"ce4bhn92rcd13ifvqgrg","pricing_plan_id":"cebpf4jnsgd1na2vs0mg"},{"bike_id":"923be1b8-882a-445b-83fa-e72f0e039471","system_id":"levelo_inurba_marseille","lat":43.30552,"lon":5.36542,"is_reserved":false,"is_disabled":false,"rental_uris":{"android":"levelo://app?vid=923be1b8-882a-445b-83fa-e72f0e039471","ios":"levelo://app?vid=923be1b8-882a-445b-83fa-e72f0e039471"},"vehicle_type_id":"4","last_reported":1726823503,"current_range_meters":39200,"station_id":"ce4bgs12rcd13ifvqcag","pricing_plan_id":"cebpf4jnsgd1na2vs0mg"},{"bike_id":"dadfc56a-5577-4de9-9516-d324c3caaf84","system_id":"levelo_inurba_marseille","lat":43.337444,"lon":5.374475,"is_reserved":false,"is_disabled":false,"rental_uris":{"android":"levelo://app?vid=dadfc56a-5577-4de9-9516-d324c3caaf84","ios":"levelo://app?vid=dadfc56a-5577-4de9-9516-d324c3caaf84"},"vehicle_type_id":"4","last_reported":1726823503,"current_range_meters":38000,"station_id":"","pricing_plan_id":"cebpf4jnsgd1na2vs0mg"},{"bike_id":"4d06619f-d24d-491c-bbc5-29d9e1b62801","system_id":"levelo_inurba_marseille","lat":43.30544,"lon":5.36555,"is_reserved":false,"is_disabled":false,"rental_uris":{"android":"levelo://app?vid=4d06619f-d24d-491c-bbc5-29d9e1b62801","ios":"levelo://app?vid=4d06619f-d24d-491c-bbc5-29d9e1b62801"},"vehicle_type_id":"4","last_reported":1726823503,"current_range_meters":36800,"station_id":"ce4bgs12rcd13ifvqcag","pricing_plan_id":"cebpf4jnsgd1na2vs0mg"},{"bike_id":"4fa0ca0d-342c-4cd6-990b-f5e4ae40db2b","system_id":"levelo_inurba_marseille","lat":43.29963,"lon":5.41325,"is_reserved":false,"is_disabled":false,"rental_uris":{"android":"levelo://app?vid=4fa0ca0d-342c-4cd6-990b-f5e4ae40db2b","ios":"levelo://app?vid=4fa0ca0d-342c-4cd6-990b-f5e4ae40db2b"},"vehicle_type_id":"4","last_reported":1726823503,"current_range_meters":36800,"station_id":"ce4bhp12rcd13ifvqh9g","pricing_plan_id":"cebpf4jnsgd1na2vs0mg"},{"bike_id":"1b297945-7c8a-4e0e-b2c4-bc43a6c00be3","system_id":"levelo_inurba_marseille","lat":43.2465,"lon":5.38907,"is_reserved":false,"is_disabled":false,"rental_uris":{"android":"levelo://app?vid=1b297945-7c8a-4e0e-b2c4-bc43a6c00be3","ios":"levelo://app?vid=1b297945-7c8a-4e0e-b2c4-bc43a6c00be3"},"vehicle_type_id":"4","last_reported":1726823503,"current_range_meters":38800,"station_id":"ce4bhg12rcd13ifvqf60","pricing_plan_id":"cebpf4jnsgd1na2vs0mg"},{"bike_id":"0e22d5a2-1a21-4e01-8fff-7c220578f054","system_id":"levelo_inurba_marseille","lat":43.29709,"lon":5.36611,"is_reserved":false,"is_disabled":false,"rental_uris":{"android":"levelo://app?vid=0e22d5a2-1a21-4e01-8fff-7c220578f054","ios":"levelo://app?vid=0e22d5a2-1a21-4e01-8fff-7c220578f054"},"vehicle_type_id":"4","last_reported":1726823503,"current_range_meters":16400,"station_id":"ce4bgn12rcd13ifvqbt0","pricing_plan_id":"cebpf4jnsgd1na2vs0mg"},{"bike_id":"095bce12-a265-4024-af82-00aeaf3b4828","system_id":"levelo_inurba_marseille","lat":43.291059,"lon":5.381399,"is_reserved":false,"is_disabled":false,"rental_uris":{"android":"levelo://app?vid=095bce12-a265-4024-af82-00aeaf3b4828","ios":"levelo://app?vid=095bce12-a265-4024-af82-00aeaf3b4828"},"vehicle_type_id":"4","last_reported":1726823503,"current_range_meters":10800,"station_id":"ce4bh512rcd13ifvqe2g","pricing_plan_id":"cebpf4jnsgd1na2vs0mg"},{"bike_id":"58e2312c-dfbb-45af-856a-fd76963d823a","system_id":"levelo_inurba_marseille","lat":43.28617,"lon":5.35104,"is_reserved":false,"is_disabled":false,"rental_uris":{"android":"levelo://app?vid=58e2312c-dfbb-45af-856a-fd76963d823a","ios":"levelo://app?vid=58e2312c-dfbb-45af-856a-fd76963d823a"},"vehicle_type_id":"4","last_reported":1726823503,"current_range_meters":23200,"station_id":"ce4bhch2rcd13ifvqeug","pricing_plan_id":"cebpf4jnsgd1na2vs0mg"},{"bike_id":"f8571aad-5f92-4ec9-b9ed-faec8639629b","system_id":"levelo_inurba_marseille","lat":43.3362,"lon":5.41019,"is_reserved":false,"is_disabled":false,"rental_uris":{"android":"levelo://app?vid=f8571aad-5f92-4ec9-b9ed-faec8639629b","ios":"levelo://app?vid=f8571aad-5f92-4ec9-b9ed-faec8639629b"},"vehicle_type_id":"4","last_reported":1726823503,"current_range_meters":16800,"station_id":"ce4bhqh2rcd13ifvqhmg","pricing_plan_id":"cebpf4jnsgd1na2vs0mg"},{"bike_id":"79c66cf1-cd91-4389-b17f-aaf81e94c310","system_id":"levelo_inurba_marseille","lat":43.23153,"lon":5.43726,"is_reserved":false,"is_disabled":false,"rental_uris":{"android":"levelo://app?vid=79c66cf1-cd91-4389-b17f-aaf81e94c310","ios":"levelo://app?vid=79c66cf1-cd91-4389-b17f-aaf81e94c310"},"vehicle_type_id":"4","last_reported":1726823503,"current_range_meters":28800,"station_id":"ce4bhmp2rcd13ifvqgog","pricing_plan_id":"cebpf4jnsgd1na2vs0mg"},{"bike_id":"9029c59f-5616-4636-a3a2-5d0cfac2c465","system_id":"levelo_inurba_marseille","lat":43.25827,"lon":5.39425,"is_reserved":false,"is_disabled":false,"rental_uris":{"android":"levelo://app?vid=9029c59f-5616-4636-a3a2-5d0cfac2c465","ios":"levelo://app?vid=9029c59f-5616-4636-a3a2-5d0cfac2c465"},"vehicle_type_id":"4","last_reported":1726823503,"current_range_meters":20000,"station_id":"ce4bhip2rcd13ifvqft0","pricing_plan_id":"cebpf4jnsgd1na2vs0mg"},{"bike_id":"8a12d865-b083-4883-b5aa-f97910a59200","system_id":"levelo_inurba_marseille","lat":43.30156,"lon":5.38084,"is_reserved":false,"is_disabled":false,"rental_uris":{"android":"levelo://app?vid=8a12d865-b083-4883-b5aa-f97910a59200","ios":"levelo://app?vid=8a12d865-b083-4883-b5aa-f97910a59200"},"vehicle_type_id":"4","last_reported":1726823503,"current_range_meters":32000,"station_id":"ce4bgjp2rcd13ifvqbh0","pricing_plan_id":"cebpf4jnsgd1na2vs0mg"},{"bike_id":"084cf6df-dabb-4d3c-b823-2c74f4e5856c","system_id":"levelo_inurba_marseille","lat":43.337444,"lon":5.374475,"is_reserved":false,"is_disabled":false,"rental_uris":{"android":"levelo://app?vid=084cf6df-dabb-4d3c-b823-2c74f4e5856c","ios":"levelo://app?vid=084cf6df-dabb-4d3c-b823-2c74f4e5856c"},"vehicle_type_id":"4","last_reported":1726823503,"current_range_meters":33600,"station_id":"","pricing_plan_id":"cebpf4jnsgd1na2vs0mg"},{"bike_id":"eb1171f2-348b-4c4f-8355-c239b05d4e51","system_id":"levelo_inurba_marseille","lat":43.2827,"lon":5.3506,"is_reserved":false,"is_disabled":false,"rental_uris":{"android":"levelo://app?vid=eb1171f2-348b-4c4f-8355-c239b05d4e51","ios":"levelo://app?vid=eb1171f2-348b-4c4f-8355-c239b05d4e51"},"vehicle_type_id":"4","last_reported":1726823503,"current_range_meters":16000,"station_id":"ce4bhbp2rcd13ifvqerg","pricing_plan_id":"cebpf4jnsgd1na2vs0mg"},{"bike_id":"283085bc-c3f6-4452-931b-d999c2f07c43","system_id":"levelo_inurba_marseille","lat":43.24079,"lon":5.37754,"is_reserved":false,"is_disabled":false,"rental_uris":{"android":"levelo://app?vid=283085bc-c3f6-4452-931b-d999c2f07c43","ios":"levelo://app?vid=283085bc-c3f6-4452-931b-d999c2f07c43"},"vehicle_type_id":"4","last_reported":1726823503,"current_range_meters":30000,"station_id":"ce4bhnp2rcd13ifvqgvg","pricing_plan_id":"cebpf4jnsgd1na2vs0mg"},{"bike_id":"4f9594be-eb89-451c-99e6-1d1b91e83878","system_id":"levelo_inurba_marseille","lat":43.28765,"lon":5.37845,"is_reserved":false,"is_disabled":false,"rental_uris":{"android":"levelo://app?vid=4f9594be-eb89-451c-99e6-1d1b91e83878","ios":"levelo://app?vid=4f9594be-eb89-451c-99e6-1d1b91e83878"},"vehicle_type_id":"4","last_reported":1726823503,"current_range_meters":8800,"station_id":"","pricing_plan_id":"cebpf4jnsgd1na2vs0mg"},{"bike_id":"5705acbc-d503-4f36-a9f5-13b5f18aa34d","system_id":"levelo_inurba_marseille","lat":43.23962,"lon":5.36658,"is_reserved":false,"is_disabled":false,"rental_uris":{"android":"levelo://app?vid=5705acbc-d503-4f36-a9f5-13b5f18aa34d","ios":"levelo://app?vid=5705acbc-d503-4f36-a9f5-13b5f18aa34d"},"vehicle_type_id":"4","last_reported":1726823503,"current_range_meters":36000,"station_id":"ce4bhi12rcd13ifvqfp0","pricing_plan_id":"cebpf4jnsgd1na2vs0mg"},{"bike_id":"00e526e2-50eb-42e1-aded-5554238a0edf","system_id":"levelo_inurba_marseille","lat":43.25506,"lon":5.37658,"is_reserved":false,"is_disabled":false,"rental_uris":{"android":"levelo://app?vid=00e526e2-50eb-42e1-aded-5554238a0edf","ios":"levelo://app?vid=00e526e2-50eb-42e1-aded-5554238a0edf"},"vehicle_type_id":"4","last_reported":1726823503,"current_range_meters":27200,"station_id":"ce4bhh12rcd13ifvqff0","pricing_plan_id":"cebpf4jnsgd1na2vs0mg"},{"bike_id":"9c371f02-eb9c-4bde-85ae-3beaa032df1e","system_id":"levelo_inurba_marseille","lat":43.29963,"lon":5.385,"is_reserved":false,"is_disabled":false,"rental_uris":{"android":"levelo://app?vid=9c371f02-eb9c-4bde-85ae-3beaa032df1e","ios":"levelo://app?vid=9c371f02-eb9c-4bde-85ae-3beaa032df1e"},"vehicle_type_id":"4","last_reported":1726823503,"current_range_meters":30000,"station_id":"ce4bgj92rcd13ifvqbd0","pricing_plan_id":"cebpf4jnsgd1na2vs0mg"},{"bike_id":"3306c566-4baa-453b-af41-0b38979e7e4e","system_id":"levelo_inurba_marseille","lat":43.24392,"lon":5.37067,"is_reserved":false,"is_disabled":false,"rental_uris":{"android":"levelo://app?vid=3306c566-4baa-453b-af41-0b38979e7e4e","ios":"levelo://app?vid=3306c566-4baa-453b-af41-0b38979e7e4e"},"vehicle_type_id":"4","last_reported":1726823503,"current_range_meters":5600,"station_id":"ce4bhhh2rcd13ifvqfk0","pricing_plan_id":"cebpf4jnsgd1na2vs0mg"},{"bike_id":"3542f62e-a0f1-48ca-827b-79008293c554","system_id":"levelo_inurba_marseille","lat":43.295544,"lon":5.432286,"is_reserved":false,"is_disabled":false,"rental_uris":{"android":"levelo://app?vid=3542f62e-a0f1-48ca-827b-79008293c554","ios":"levelo://app?vid=3542f62e-a0f1-48ca-827b-79008293c554"},"vehicle_type_id":"4","last_reported":1726823503,"current_range_meters":18000,"station_id":"ce4bhpp2rcd13ifvqhfg","pricing_plan_id":"cebpf4jnsgd1na2vs0mg"},{"bike_id":"6891a506-ca8f-4c85-b0e4-4edd7a4e2bed","system_id":"levelo_inurba_marseille","lat":43.26208,"lon":5.3793,"is_reserved":false,"is_disabled":false,"rental_uris":{"android":"levelo://app?vid=6891a506-ca8f-4c85-b0e4-4edd7a4e2bed","ios":"levelo://app?vid=6891a506-ca8f-4c85-b0e4-4edd7a4e2bed"},"vehicle_type_id":"4","last_reported":1726823503,"current_range_meters":24800,"station_id":"ce4bhjp2rcd13ifvqg90","pricing_plan_id":"cebpf4jnsgd1na2vs0mg"},{"bike_id":"6026054c-8ecd-4a9f-8487-3cea352da042","system_id":"levelo_inurba_marseille","lat":43.29576,"lon":5.39968,"is_reserved":false,"is_disabled":false,"rental_uris":{"android":"levelo://app?vid=6026054c-8ecd-4a9f-8487-3cea352da042","ios":"levelo://app?vid=6026054c-8ecd-4a9f-8487-3cea352da042"},"vehicle_type_id":"4","last_reported":1726823503,"current_range_meters":28400,"station_id":"ce4bh312rcd13ifvqdj0","pricing_plan_id":"cebpf4jnsgd1na2vs0mg"},{"bike_id":"7b9dd459-340b-4978-bfb0-6c163a5263e8","system_id":"levelo_inurba_marseille","lat":43.23198,"lon":5.35554,"is_reserved":false,"is_disabled":false,"rental_uris":{"android":"levelo://app?vid=7b9dd459-340b-4978-bfb0-6c163a5263e8","ios":"levelo://app?vid=7b9dd459-340b-4978-bfb0-6c163a5263e8"},"vehicle_type_id":"4","last_reported":1726823503,"current_range_meters":38800,"station_id":"ce4bhu92rcd13ifvqi70","pricing_plan_id":"cebpf4jnsgd1na2vs0mg"},{"bike_id":"4f43dba0-3939-44ed-896a-3812c56c94e0","system_id":"levelo_inurba_marseille","lat":43.30154,"lon":5.38081,"is_reserved":false,"is_disabled":false,"rental_uris":{"android":"levelo://app?vid=4f43dba0-3939-44ed-896a-3812c56c94e0","ios":"levelo://app?vid=4f43dba0-3939-44ed-896a-3812c56c94e0"},"vehicle_type_id":"4","last_reported":1726823503,"current_range_meters":20400,"station_id":"ce4bgjp2rcd13ifvqbh0","pricing_plan_id":"cebpf4jnsgd1na2vs0mg"},{"bike_id":"8a8b9775-ebde-4d45-82eb-edb2dda75711","system_id":"levelo_inurba_marseille","lat":43.30282,"lon":5.37713,"is_reserved":false,"is_disabled":false,"rental_uris":{"android":"levelo://app?vid=8a8b9775-ebde-4d45-82eb-edb2dda75711","ios":"levelo://app?vid=8a8b9775-ebde-4d45-82eb-edb2dda75711"},"vehicle_type_id":"4","last_reported":1726823503,"current_range_meters":22000,"station_id":"ce4bguh2rcd13ifvqcj0","pricing_plan_id":"cebpf4jnsgd1na2vs0mg"},{"bike_id":"51b1a09f-d635-4809-b97d-525892f1dc1d","system_id":"levelo_inurba_marseille","lat":43.29227,"lon":5.36078,"is_reserved":false,"is_disabled":false,"rental_uris":{"android":"levelo://app?vid=51b1a09f-d635-4809-b97d-525892f1dc1d","ios":"levelo://app?vid=51b1a09f-d635-4809-b97d-525892f1dc1d"},"vehicle_type_id":"4","last_reported":1726823503,"current_range_meters":30000,"station_id":"ce4bhbh2rcd13ifvqeqg","pricing_plan_id":"cebpf4jnsgd1na2vs0mg"},{"bike_id":"30d03598-4584-4809-9303-434479df300e","system_id":"levelo_inurba_marseille","lat":43.32484,"lon":5.3657,"is_reserved":false,"is_disabled":false,"rental_uris":{"android":"levelo://app?vid=30d03598-4584-4809-9303-434479df300e","ios":"levelo://app?vid=30d03598-4584-4809-9303-434479df300e"},"vehicle_type_id":"4","last_reported":1726823503,"current_range_meters":30800,"station_id":"ce4bhs12rcd13ifvqhvg","pricing_plan_id":"cebpf4jnsgd1na2vs0mg"},{"bike_id":"e66f6a7c-0945-4eac-a431-c4ce32f9eb61","system_id":"levelo_inurba_marseille","lat":43.295238,"lon":5.390475,"is_reserved":false,"is_disabled":false,"rental_uris":{"android":"levelo://app?vid=e66f6a7c-0945-4eac-a431-c4ce32f9eb61","ios":"levelo://app?vid=e66f6a7c-0945-4eac-a431-c4ce32f9eb61"},"vehicle_type_id":"4","last_reported":1726823503,"current_range_meters":7200,"station_id":"ce4bh3p2rcd13ifvqdp0","pricing_plan_id":"cebpf4jnsgd1na2vs0mg"},{"bike_id":"59526314-6814-428f-9df0-ead1cf1c2777","system_id":"levelo_inurba_marseille","lat":43.25934,"lon":5.40917,"is_reserved":false,"is_disabled":false,"rental_uris":{"android":"levelo://app?vid=59526314-6814-428f-9df0-ead1cf1c2777","ios":"levelo://app?vid=59526314-6814-428f-9df0-ead1cf1c2777"},"vehicle_type_id":"4","last_reported":1726823503,"current_range_meters":35200,"station_id":"ce4bhm92rcd13ifvqglg","pricing_plan_id":"cebpf4jnsgd1na2vs0mg"},{"bike_id":"32d4a5c9-769a-4251-b032-0492dfb4b942","system_id":"levelo_inurba_marseille","lat":43.27494,"lon":5.42464,"is_reserved":false,"is_disabled":false,"rental_uris":{"android":"levelo://app?vid=32d4a5c9-769a-4251-b032-0492dfb4b942","ios":"levelo://app?vid=32d4a5c9-769a-4251-b032-0492dfb4b942"},"vehicle_type_id":"4","last_reported":1726823503,"current_range_meters":32400,"station_id":"ce4bhn92rcd13ifvqgrg","pricing_plan_id":"cebpf4jnsgd1na2vs0mg"},{"bike_id":"9d6aad91-3bde-49e8-a584-69fb053fee45","system_id":"levelo_inurba_marseille","lat":43.27996,"lon":5.40011,"is_reserved":false,"is_disabled":false,"rental_uris":{"android":"levelo://app?vid=9d6aad91-3bde-49e8-a584-69fb053fee45","ios":"levelo://app?vid=9d6aad91-3bde-49e8-a584-69fb053fee45"},"vehicle_type_id":"4","last_reported":1726823503,"current_range_meters":16400,"station_id":"ce4bho92rcd13ifvqh4g","pricing_plan_id":"cebpf4jnsgd1na2vs0mg"},{"bike_id":"69bbfd59-fc16-411e-a1f5-96425a817f6c","system_id":"levelo_inurba_marseille","lat":43.26953,"lon":5.3863,"is_reserved":false,"is_disabled":false,"rental_uris":{"android":"levelo://app?vid=69bbfd59-fc16-411e-a1f5-96425a817f6c","ios":"levelo://app?vid=69bbfd59-fc16-411e-a1f5-96425a817f6c"},"vehicle_type_id":"4","last_reported":1726823503,"current_range_meters":31200,"station_id":"ce4bhh92rcd13ifvqfh0","pricing_plan_id":"cebpf4jnsgd1na2vs0mg"},{"bike_id":"bb3a2c43-8a8b-47bb-b663-0dda93e4af37","system_id":"levelo_inurba_marseille","lat":43.29354,"lon":5.37843,"is_reserved":false,"is_disabled":false,"rental_uris":{"android":"levelo://app?vid=bb3a2c43-8a8b-47bb-b663-0dda93e4af37","ios":"levelo://app?vid=bb3a2c43-8a8b-47bb-b663-0dda93e4af37"},"vehicle_type_id":"4","last_reported":1726823503,"current_range_meters":12400,"station_id":"ce4bgjh2rcd13ifvqbf0","pricing_plan_id":"cebpf4jnsgd1na2vs0mg"},{"bike_id":"b3d39a3c-0271-40ca-9144-acc31cfc237a","system_id":"levelo_inurba_marseille","lat":43.25939,"lon":5.40907,"is_reserved":false,"is_disabled":false,"rental_uris":{"android":"levelo://app?vid=b3d39a3c-0271-40ca-9144-acc31cfc237a","ios":"levelo://app?vid=b3d39a3c-0271-40ca-9144-acc31cfc237a"},"vehicle_type_id":"4","last_reported":1726823503,"current_range_meters":8000,"station_id":"ce4bhm92rcd13ifvqglg","pricing_plan_id":"cebpf4jnsgd1na2vs0mg"},{"bike_id":"ffddd2d0-239b-4ad9-bf5e-964f010aa097","system_id":"levelo_inurba_marseille","lat":43.24082,"lon":5.37751,"is_reserved":false,"is_disabled":false,"rental_uris":{"android":"levelo://app?vid=ffddd2d0-239b-4ad9-bf5e-964f010aa097","ios":"levelo://app?vid=ffddd2d0-239b-4ad9-bf5e-964f010aa097"},"vehicle_type_id":"4","last_reported":1726823503,"current_range_meters":25600,"station_id":"ce4bhnp2rcd13ifvqgvg","pricing_plan_id":"cebpf4jnsgd1na2vs0mg"},{"bike_id":"953d3fb6-bcd6-43d5-a729-cf2cc0c9556b","system_id":"levelo_inurba_marseille","lat":43.30135,"lon":5.37425,"is_reserved":false,"is_disabled":false,"rental_uris":{"android":"levelo://app?vid=953d3fb6-bcd6-43d5-a729-cf2cc0c9556b","ios":"levelo://app?vid=953d3fb6-bcd6-43d5-a729-cf2cc0c9556b"},"vehicle_type_id":"4","last_reported":1726823503,"current_range_meters":38800,"station_id":"ce4bgs92rcd13ifvqcc0","pricing_plan_id":"cebpf4jnsgd1na2vs0mg"},{"bike_id":"e8838fc0-3cd4-4213-84e3-c33f37fcda59","system_id":"levelo_inurba_marseille","lat":43.25826,"lon":5.39428,"is_reserved":false,"is_disabled":false,"rental_uris":{"android":"levelo://app?vid=e8838fc0-3cd4-4213-84e3-c33f37fcda59","ios":"levelo://app?vid=e8838fc0-3cd4-4213-84e3-c33f37fcda59"},"vehicle_type_id":"4","last_reported":1726823503,"current_range_meters":38800,"station_id":"ce4bhip2rcd13ifvqft0","pricing_plan_id":"cebpf4jnsgd1na2vs0mg"},{"bike_id":"95944423-9315-4fc8-b4c2-8ffdc932537a","system_id":"levelo_inurba_marseille","lat":43.29202,"lon":5.39317,"is_reserved":false,"is_disabled":false,"rental_uris":{"android":"levelo://app?vid=95944423-9315-4fc8-b4c2-8ffdc932537a","ios":"levelo://app?vid=95944423-9315-4fc8-b4c2-8ffdc932537a"},"vehicle_type_id":"4","last_reported":1726823503,"current_range_meters":39200,"station_id":"ce4bh192rcd13ifvqdd0","pricing_plan_id":"cebpf4jnsgd1na2vs0mg"},{"bike_id":"625efc9f-ff46-4ca3-aaac-13f8f46af8bc","system_id":"levelo_inurba_marseille","lat":43.30951,"lon":5.39045,"is_reserved":false,"is_disabled":false,"rental_uris":{"android":"levelo://app?vid=625efc9f-ff46-4ca3-aaac-13f8f46af8bc","ios":"levelo://app?vid=625efc9f-ff46-4ca3-aaac-13f8f46af8bc"},"vehicle_type_id":"4","last_reported":1726823503,"current_range_meters":32000,"station_id":"ce4bgup2rcd13ifvqco0","pricing_plan_id":"cebpf4jnsgd1na2vs0mg"},{"bike_id":"eb2bede7-1cfc-481d-95f0-4175f9ef21df","system_id":"levelo_inurba_marseille","lat":43.25946,"lon":5.40908,"is_reserved":false,"is_disabled":false,"rental_uris":{"android":"levelo://app?vid=eb2bede7-1cfc-481d-95f0-4175f9ef21df","ios":"levelo://app?vid=eb2bede7-1cfc-481d-95f0-4175f9ef21df"},"vehicle_type_id":"4","last_reported":1726823503,"current_range_meters":16800,"station_id":"ce4bhm92rcd13ifvqglg","pricing_plan_id":"cebpf4jnsgd1na2vs0mg"},{"bike_id":"5fb2b33f-9b55-4868-891c-201ab6300066","system_id":"levelo_inurba_marseille","lat":43.24808,"lon":5.37454,"is_reserved":false,"is_disabled":false,"rental_uris":{"android":"levelo://app?vid=5fb2b33f-9b55-4868-891c-201ab6300066","ios":"levelo://app?vid=5fb2b33f-9b55-4868-891c-201ab6300066"},"vehicle_type_id":"4","last_reported":1726823503,"current_range_meters":37600,"station_id":"ce4bhgh2rcd13ifvqfb0","pricing_plan_id":"cebpf4jnsgd1na2vs0mg"},{"bike_id":"99fcb7bc-1d51-4e0c-a95a-06fe8f2d2e50","system_id":"levelo_inurba_marseille","lat":43.2919,"lon":5.35805,"is_reserved":false,"is_disabled":false,"rental_uris":{"android":"levelo://app?vid=99fcb7bc-1d51-4e0c-a95a-06fe8f2d2e50","ios":"levelo://app?vid=99fcb7bc-1d51-4e0c-a95a-06fe8f2d2e50"},"vehicle_type_id":"4","last_reported":1726823503,"current_range_meters":26000,"station_id":"ce4bhb12rcd13ifvqel0","pricing_plan_id":"cebpf4jnsgd1na2vs0mg"},{"bike_id":"8252c765-e1e7-4ef5-92fb-809ea1e6a090","system_id":"levelo_inurba_marseille","lat":43.30511,"lon":5.36544,"is_reserved":false,"is_disabled":false,"rental_uris":{"android":"levelo://app?vid=8252c765-e1e7-4ef5-92fb-809ea1e6a090","ios":"levelo://app?vid=8252c765-e1e7-4ef5-92fb-809ea1e6a090"},"vehicle_type_id":"4","last_reported":1726823503,"current_range_meters":18000,"station_id":"","pricing_plan_id":"cebpf4jnsgd1na2vs0mg"},{"bike_id":"93e94795-a222-4c33-8338-9093dd96735b","system_id":"levelo_inurba_marseille","lat":43.32547,"lon":5.41442,"is_reserved":false,"is_disabled":false,"rental_uris":{"android":"levelo://app?vid=93e94795-a222-4c33-8338-9093dd96735b","ios":"levelo://app?vid=93e94795-a222-4c33-8338-9093dd96735b"},"vehicle_type_id":"4","last_reported":1726823503,"current_range_meters":38800,"station_id":"ce4bhq12rcd13ifvqhhg","pricing_plan_id":"cebpf4jnsgd1na2vs0mg"},{"bike_id":"45fc1de9-a92f-4c99-9ed8-671eaafb29db","system_id":"levelo_inurba_marseille","lat":43.30786,"lon":5.37657,"is_reserved":false,"is_disabled":false,"rental_uris":{"android":"levelo://app?vid=45fc1de9-a92f-4c99-9ed8-671eaafb29db","ios":"levelo://app?vid=45fc1de9-a92f-4c99-9ed8-671eaafb29db"},"vehicle_type_id":"4","last_reported":1726823503,"current_range_meters":20800,"station_id":"ce4bgv92rcd13ifvqcq0","pricing_plan_id":"cebpf4jnsgd1na2vs0mg"},{"bike_id":"3f92bbb0-67da-49b7-a380-d3e998be8116","system_id":"levelo_inurba_marseille","lat":43.30542,"lon":5.36715,"is_reserved":false,"is_disabled":false,"rental_uris":{"android":"levelo://app?vid=3f92bbb0-67da-49b7-a380-d3e998be8116","ios":"levelo://app?vid=3f92bbb0-67da-49b7-a380-d3e998be8116"},"vehicle_type_id":"4","last_reported":1726823503,"current_range_meters":38800,"station_id":"ce4bgrp2rcd13ifvqc9g","pricing_plan_id":"cebpf4jnsgd1na2vs0mg"},{"bike_id":"16153942-1726-423e-9491-af7b2ea5791a","system_id":"levelo_inurba_marseille","lat":43.25588,"lon":5.3824,"is_reserved":false,"is_disabled":false,"rental_uris":{"android":"levelo://app?vid=16153942-1726-423e-9491-af7b2ea5791a","ios":"levelo://app?vid=16153942-1726-423e-9491-af7b2ea5791a"},"vehicle_type_id":"4","last_reported":1726823503,"current_range_meters":28000,"station_id":"ce4bhih2rcd13ifvqfs0","pricing_plan_id":"cebpf4jnsgd1na2vs0mg"},{"bike_id":"82ea35eb-356c-435a-af7e-f3943eee0033","system_id":"levelo_inurba_marseille","lat":43.31528,"lon":5.3804,"is_reserved":false,"is_disabled":false,"rental_uris":{"android":"levelo://app?vid=82ea35eb-356c-435a-af7e-f3943eee0033","ios":"levelo://app?vid=82ea35eb-356c-435a-af7e-f3943eee0033"},"vehicle_type_id":"4","last_reported":1726823503,"current_range_meters":38800,"station_id":"ce4bhsp2rcd13ifvqi50","pricing_plan_id":"cebpf4jnsgd1na2vs0mg"},{"bike_id":"787016c0-3af2-4dc1-8aeb-8fd1d9648c80","system_id":"levelo_inurba_marseille","lat":43.27494,"lon":5.42456,"is_reserved":false,"is_disabled":false,"rental_uris":{"android":"levelo://app?vid=787016c0-3af2-4dc1-8aeb-8fd1d9648c80","ios":"levelo://app?vid=787016c0-3af2-4dc1-8aeb-8fd1d9648c80"},"vehicle_type_id":"4","last_reported":1726823503,"current_range_meters":28400,"station_id":"ce4bhn92rcd13ifvqgrg","pricing_plan_id":"cebpf4jnsgd1na2vs0mg"},{"bike_id":"59bcf95b-4fb4-4ef5-bbe9-00138aa77003","system_id":"levelo_inurba_marseille","lat":43.24172,"lon":5.3974,"is_reserved":false,"is_disabled":false,"rental_uris":{"android":"levelo://app?vid=59bcf95b-4fb4-4ef5-bbe9-00138aa77003","ios":"levelo://app?vid=59bcf95b-4fb4-4ef5-bbe9-00138aa77003"},"vehicle_type_id":"4","last_reported":1726823503,"current_range_meters":18000,"station_id":"ce4bhn12rcd13ifvqgpg","pricing_plan_id":"cebpf4jnsgd1na2vs0mg"},{"bike_id":"0e2fe41f-ec69-40f0-8f9e-497a2367d1be","system_id":"levelo_inurba_marseille","lat":43.27495,"lon":5.42453,"is_reserved":false,"is_disabled":false,"rental_uris":{"android":"levelo://app?vid=0e2fe41f-ec69-40f0-8f9e-497a2367d1be","ios":"levelo://app?vid=0e2fe41f-ec69-40f0-8f9e-497a2367d1be"},"vehicle_type_id":"4","last_reported":1726823503,"current_range_meters":22000,"station_id":"ce4bhn92rcd13ifvqgrg","pricing_plan_id":"cebpf4jnsgd1na2vs0mg"},{"bike_id":"1bc5f145-d3dc-45af-9824-71907294b673","system_id":"levelo_inurba_marseille","lat":43.27916,"lon":5.39588,"is_reserved":false,"is_disabled":false,"rental_uris":{"android":"levelo://app?vid=1bc5f145-d3dc-45af-9824-71907294b673","ios":"levelo://app?vid=1bc5f145-d3dc-45af-9824-71907294b673"},"vehicle_type_id":"4","last_reported":1726823503,"current_range_meters":2800,"station_id":"ce4bhf92rcd13ifvqf40","pricing_plan_id":"cebpf4jnsgd1na2vs0mg"},{"bike_id":"346e8fea-955d-4950-8c2d-9b8b8eacddfd","system_id":"levelo_inurba_marseille","lat":43.30906,"lon":5.36862,"is_reserved":false,"is_disabled":false,"rental_uris":{"android":"levelo://app?vid=346e8fea-955d-4950-8c2d-9b8b8eacddfd","ios":"levelo://app?vid=346e8fea-955d-4950-8c2d-9b8b8eacddfd"},"vehicle_type_id":"4","last_reported":1726823503,"current_range_meters":34000,"station_id":"ce4bgn92rcd13ifvqbvg","pricing_plan_id":"cebpf4jnsgd1na2vs0mg"},{"bike_id":"12d37568-4574-4e56-ba42-36463fce6ab1","system_id":"levelo_inurba_marseille","lat":43.29225,"lon":5.36065,"is_reserved":false,"is_disabled":false,"rental_uris":{"android":"levelo://app?vid=12d37568-4574-4e56-ba42-36463fce6ab1","ios":"levelo://app?vid=12d37568-4574-4e56-ba42-36463fce6ab1"},"vehicle_type_id":"4","last_reported":1726823503,"current_range_meters":18000,"station_id":"ce4bhbh2rcd13ifvqeqg","pricing_plan_id":"cebpf4jnsgd1na2vs0mg"},{"bike_id":"84f68348-b1f8-40b8-a55d-82c254a1a023","system_id":"levelo_inurba_marseille","lat":43.24387,"lon":5.37055,"is_reserved":false,"is_disabled":false,"rental_uris":{"android":"levelo://app?vid=84f68348-b1f8-40b8-a55d-82c254a1a023","ios":"levelo://app?vid=84f68348-b1f8-40b8-a55d-82c254a1a023"},"vehicle_type_id":"4","last_reported":1726823503,"current_range_meters":28400,"station_id":"ce4bhhh2rcd13ifvqfk0","pricing_plan_id":"cebpf4jnsgd1na2vs0mg"},{"bike_id":"db5bed51-afb9-4548-98e9-7b7ae226c501","system_id":"levelo_inurba_marseille","lat":43.33756,"lon":5.37453,"is_reserved":false,"is_disabled":false,"rental_uris":{"android":"levelo://app?vid=db5bed51-afb9-4548-98e9-7b7ae226c501","ios":"levelo://app?vid=db5bed51-afb9-4548-98e9-7b7ae226c501"},"vehicle_type_id":"4","last_reported":1726823503,"current_range_meters":19200,"station_id":"","pricing_plan_id":"cebpf4jnsgd1na2vs0mg"},{"bike_id":"d58c5fc3-d6a1-4c23-a04e-221816470e08","system_id":"levelo_inurba_marseille","lat":43.28725,"lon":5.37953,"is_reserved":false,"is_disabled":false,"rental_uris":{"android":"levelo://app?vid=d58c5fc3-d6a1-4c23-a04e-221816470e08","ios":"levelo://app?vid=d58c5fc3-d6a1-4c23-a04e-221816470e08"},"vehicle_type_id":"4","last_reported":1726823503,"current_range_meters":32000,"station_id":"ce4bh9p2rcd13ifvqec0","pricing_plan_id":"cebpf4jnsgd1na2vs0mg"},{"bike_id":"4f755e06-83cd-4f7c-83ce-c0e0c9ca166d","system_id":"levelo_inurba_marseille","lat":43.31718,"lon":5.43713,"is_reserved":false,"is_disabled":false,"rental_uris":{"android":"levelo://app?vid=4f755e06-83cd-4f7c-83ce-c0e0c9ca166d","ios":"levelo://app?vid=4f755e06-83cd-4f7c-83ce-c0e0c9ca166d"},"vehicle_type_id":"4","last_reported":1726823503,"current_range_meters":17200,"station_id":"ce4bhp92rcd13ifvqhcg","pricing_plan_id":"cebpf4jnsgd1na2vs0mg"},{"bike_id":"0d1a7982-a640-4dc4-90da-1842e46ce6f2","system_id":"levelo_inurba_marseille","lat":43.32286,"lon":5.38272,"is_reserved":false,"is_disabled":false,"rental_uris":{"android":"levelo://app?vid=0d1a7982-a640-4dc4-90da-1842e46ce6f2","ios":"levelo://app?vid=0d1a7982-a640-4dc4-90da-1842e46ce6f2"},"vehicle_type_id":"4","last_reported":1726823503,"current_range_meters":26800,"station_id":"ce4bhr12rcd13ifvqhqg","pricing_plan_id":"cebpf4jnsgd1na2vs0mg"},{"bike_id":"aca43297-4d94-4cd9-ab44-962e9c380d03","system_id":"levelo_inurba_marseille","lat":43.29557,"lon":5.42292,"is_reserved":false,"is_disabled":false,"rental_uris":{"android":"levelo://app?vid=aca43297-4d94-4cd9-ab44-962e9c380d03","ios":"levelo://app?vid=aca43297-4d94-4cd9-ab44-962e9c380d03"},"vehicle_type_id":"4","last_reported":1726823503,"current_range_meters":9200,"station_id":"ce4bhph2rcd13ifvqhdg","pricing_plan_id":"cebpf4jnsgd1na2vs0mg"},{"bike_id":"91a8417e-1594-4797-8051-7046abb38c00","system_id":"levelo_inurba_marseille","lat":43.28351,"lon":5.38109,"is_reserved":false,"is_disabled":false,"rental_uris":{"android":"levelo://app?vid=91a8417e-1594-4797-8051-7046abb38c00","ios":"levelo://app?vid=91a8417e-1594-4797-8051-7046abb38c00"},"vehicle_type_id":"4","last_reported":1726823503,"current_range_meters":37600,"station_id":"ce4bh412rcd13ifvqdr0","pricing_plan_id":"cebpf4jnsgd1na2vs0mg"},{"bike_id":"509f9ae3-b8f2-48d0-aebc-d5ba2b423f9c","system_id":"levelo_inurba_marseille","lat":43.30466,"lon":5.37903,"is_reserved":false,"is_disabled":false,"rental_uris":{"android":"levelo://app?vid=509f9ae3-b8f2-48d0-aebc-d5ba2b423f9c","ios":"levelo://app?vid=509f9ae3-b8f2-48d0-aebc-d5ba2b423f9c"},"vehicle_type_id":"4","last_reported":1726823503,"current_range_meters":21600,"station_id":"","pricing_plan_id":"cebpf4jnsgd1na2vs0mg"},{"bike_id":"ffa23234-c1ea-4d00-b640-cd73b1915784","system_id":"levelo_inurba_marseille","lat":43.32007,"lon":5.38146,"is_reserved":false,"is_disabled":false,"rental_uris":{"android":"levelo://app?vid=ffa23234-c1ea-4d00-b640-cd73b1915784","ios":"levelo://app?vid=ffa23234-c1ea-4d00-b640-cd73b1915784"},"vehicle_type_id":"4","last_reported":1726823503,"current_range_meters":8800,"station_id":"ce4bhr12rcd13ifvqhpg","pricing_plan_id":"cebpf4jnsgd1na2vs0mg"},{"bike_id":"b87c8417-c59f-418d-bd60-25eb8e63567c","system_id":"levelo_inurba_marseille","lat":43.30542,"lon":5.36704,"is_reserved":false,"is_disabled":false,"rental_uris":{"android":"levelo://app?vid=b87c8417-c59f-418d-bd60-25eb8e63567c","ios":"levelo://app?vid=b87c8417-c59f-418d-bd60-25eb8e63567c"},"vehicle_type_id":"4","last_reported":1726823503,"current_range_meters":26000,"station_id":"ce4bgrp2rcd13ifvqc9g","pricing_plan_id":"cebpf4jnsgd1na2vs0mg"},{"bike_id":"3a5ece06-7e59-4fd4-a74b-ace8888aaf9b","system_id":"levelo_inurba_marseille","lat":43.3055,"lon":5.36565,"is_reserved":false,"is_disabled":false,"rental_uris":{"android":"levelo://app?vid=3a5ece06-7e59-4fd4-a74b-ace8888aaf9b","ios":"levelo://app?vid=3a5ece06-7e59-4fd4-a74b-ace8888aaf9b"},"vehicle_type_id":"4","last_reported":1726823503,"current_range_meters":24400,"station_id":"ce4bgs12rcd13ifvqcag","pricing_plan_id":"cebpf4jnsgd1na2vs0mg"},{"bike_id":"dfa25865-d491-4319-ac0d-4a43b0719215","system_id":"levelo_inurba_marseille","lat":43.32476,"lon":5.36573,"is_reserved":false,"is_disabled":false,"rental_uris":{"android":"levelo://app?vid=dfa25865-d491-4319-ac0d-4a43b0719215","ios":"levelo://app?vid=dfa25865-d491-4319-ac0d-4a43b0719215"},"vehicle_type_id":"4","last_reported":1726823503,"current_range_meters":7200,"station_id":"ce4bhs12rcd13ifvqhvg","pricing_plan_id":"cebpf4jnsgd1na2vs0mg"},{"bike_id":"58014cc6-4f39-4119-a8a0-cdc0e2507820","system_id":"levelo_inurba_marseille","lat":43.32292,"lon":5.38276,"is_reserved":false,"is_disabled":false,"rental_uris":{"android":"levelo://app?vid=58014cc6-4f39-4119-a8a0-cdc0e2507820","ios":"levelo://app?vid=58014cc6-4f39-4119-a8a0-cdc0e2507820"},"vehicle_type_id":"4","last_reported":1726823503,"current_range_meters":39200,"station_id":"ce4bhr12rcd13ifvqhqg","pricing_plan_id":"cebpf4jnsgd1na2vs0mg"},{"bike_id":"aa3d35ac-cbfb-4b4f-95bc-7a51e515062a","system_id":"levelo_inurba_marseille","lat":43.29579,"lon":5.37515,"is_reserved":false,"is_disabled":false,"rental_uris":{"android":"levelo://app?vid=aa3d35ac-cbfb-4b4f-95bc-7a51e515062a","ios":"levelo://app?vid=aa3d35ac-cbfb-4b4f-95bc-7a51e515062a"},"vehicle_type_id":"4","last_reported":1726823503,"current_range_meters":36000,"station_id":"ce4bgh92rcd13ifvqb50","pricing_plan_id":"cebpf4jnsgd1na2vs0mg"},{"bike_id":"14157212-06d6-4688-8139-63040cece655","system_id":"levelo_inurba_marseille","lat":43.31344,"lon":5.36741,"is_reserved":false,"is_disabled":false,"rental_uris":{"android":"levelo://app?vid=14157212-06d6-4688-8139-63040cece655","ios":"levelo://app?vid=14157212-06d6-4688-8139-63040cece655"},"vehicle_type_id":"4","last_reported":1726823503,"current_range_meters":30000,"station_id":"ce4bgr92rcd13ifvqc6g","pricing_plan_id":"cebpf4jnsgd1na2vs0mg"},{"bike_id":"8c18c09c-856a-4869-917a-c5ce5d04a0df","system_id":"levelo_inurba_marseille","lat":43.30146,"lon":5.38084,"is_reserved":false,"is_disabled":false,"rental_uris":{"android":"levelo://app?vid=8c18c09c-856a-4869-917a-c5ce5d04a0df","ios":"levelo://app?vid=8c18c09c-856a-4869-917a-c5ce5d04a0df"},"vehicle_type_id":"4","last_reported":1726823503,"current_range_meters":32000,"station_id":"ce4bgjp2rcd13ifvqbh0","pricing_plan_id":"cebpf4jnsgd1na2vs0mg"},{"bike_id":"2c805b3b-a495-4180-86b7-d5d239ddc3de","system_id":"levelo_inurba_marseille","lat":43.27493,"lon":5.42457,"is_reserved":false,"is_disabled":false,"rental_uris":{"android":"levelo://app?vid=2c805b3b-a495-4180-86b7-d5d239ddc3de","ios":"levelo://app?vid=2c805b3b-a495-4180-86b7-d5d239ddc3de"},"vehicle_type_id":"4","last_reported":1726823503,"current_range_meters":27600,"station_id":"ce4bhn92rcd13ifvqgrg","pricing_plan_id":"cebpf4jnsgd1na2vs0mg"},{"bike_id":"bce83964-771d-421d-a795-c2b376c5b9dc","system_id":"levelo_inurba_marseille","lat":43.23194,"lon":5.35548,"is_reserved":false,"is_disabled":false,"rental_uris":{"android":"levelo://app?vid=bce83964-771d-421d-a795-c2b376c5b9dc","ios":"levelo://app?vid=bce83964-771d-421d-a795-c2b376c5b9dc"},"vehicle_type_id":"4","last_reported":1726823503,"current_range_meters":18800,"station_id":"ce4bhu92rcd13ifvqi70","pricing_plan_id":"cebpf4jnsgd1na2vs0mg"},{"bike_id":"9946c7c1-813d-4973-83c5-91ccb80a9cc2","system_id":"levelo_inurba_marseille","lat":43.323,"lon":5.38282,"is_reserved":false,"is_disabled":false,"rental_uris":{"android":"levelo://app?vid=9946c7c1-813d-4973-83c5-91ccb80a9cc2","ios":"levelo://app?vid=9946c7c1-813d-4973-83c5-91ccb80a9cc2"},"vehicle_type_id":"4","last_reported":1726823503,"current_range_meters":12800,"station_id":"ce4bhr12rcd13ifvqhqg","pricing_plan_id":"cebpf4jnsgd1na2vs0mg"},{"bike_id":"2d2e086b-d7f4-4207-8d79-24b5dc2ad24f","system_id":"levelo_inurba_marseille","lat":43.27968,"lon":5.38738,"is_reserved":false,"is_disabled":false,"rental_uris":{"android":"levelo://app?vid=2d2e086b-d7f4-4207-8d79-24b5dc2ad24f","ios":"levelo://app?vid=2d2e086b-d7f4-4207-8d79-24b5dc2ad24f"},"vehicle_type_id":"4","last_reported":1726823503,"current_range_meters":38800,"station_id":"ce4bhg12rcd13ifvqf80","pricing_plan_id":"cebpf4jnsgd1na2vs0mg"},{"bike_id":"305898d2-3f83-4de7-8064-f8c9606aefbf","system_id":"levelo_inurba_marseille","lat":43.25128,"lon":5.40342,"is_reserved":false,"is_disabled":false,"rental_uris":{"android":"levelo://app?vid=305898d2-3f83-4de7-8064-f8c9606aefbf","ios":"levelo://app?vid=305898d2-3f83-4de7-8064-f8c9606aefbf"},"vehicle_type_id":"4","last_reported":1726823503,"current_range_meters":33200,"station_id":"ce4bhlh2rcd13ifvqgig","pricing_plan_id":"cebpf4jnsgd1na2vs0mg"},{"bike_id":"4e4e1e40-ee98-4ade-a5dc-d4b9306c28c9","system_id":"levelo_inurba_marseille","lat":43.27311,"lon":5.39082,"is_reserved":false,"is_disabled":false,"rental_uris":{"android":"levelo://app?vid=4e4e1e40-ee98-4ade-a5dc-d4b9306c28c9","ios":"levelo://app?vid=4e4e1e40-ee98-4ade-a5dc-d4b9306c28c9"},"vehicle_type_id":"4","last_reported":1726823503,"current_range_meters":18000,"station_id":"ce4bhgp2rcd13ifvqfe0","pricing_plan_id":"cebpf4jnsgd1na2vs0mg"},{"bike_id":"6c648bdd-85eb-4664-b61b-fc07a11b6677","system_id":"levelo_inurba_marseille","lat":43.26553,"lon":5.37284,"is_reserved":false,"is_disabled":false,"rental_uris":{"android":"levelo://app?vid=6c648bdd-85eb-4664-b61b-fc07a11b6677","ios":"levelo://app?vid=6c648bdd-85eb-4664-b61b-fc07a11b6677"},"vehicle_type_id":"4","last_reported":1726823503,"current_range_meters":20000,"station_id":"ce4bhg12rcd13ifvqf70","pricing_plan_id":"cebpf4jnsgd1na2vs0mg"},{"bike_id":"5a96b346-4bdb-41cb-8aa8-a96b50b63166","system_id":"levelo_inurba_marseille","lat":43.24074,"lon":5.37758,"is_reserved":false,"is_disabled":false,"rental_uris":{"android":"levelo://app?vid=5a96b346-4bdb-41cb-8aa8-a96b50b63166","ios":"levelo://app?vid=5a96b346-4bdb-41cb-8aa8-a96b50b63166"},"vehicle_type_id":"4","last_reported":1726823503,"current_range_meters":30800,"station_id":"ce4bhnp2rcd13ifvqgvg","pricing_plan_id":"cebpf4jnsgd1na2vs0mg"},{"bike_id":"63478cfc-fe19-4128-90c9-d9ff3e6b9a45","system_id":"levelo_inurba_marseille","lat":43.32365,"lon":5.38878,"is_reserved":false,"is_disabled":false,"rental_uris":{"android":"levelo://app?vid=63478cfc-fe19-4128-90c9-d9ff3e6b9a45","ios":"levelo://app?vid=63478cfc-fe19-4128-90c9-d9ff3e6b9a45"},"vehicle_type_id":"4","last_reported":1726823503,"current_range_meters":29600,"station_id":"ce4bhqp2rcd13ifvqhog","pricing_plan_id":"cebpf4jnsgd1na2vs0mg"},{"bike_id":"3a5970ee-b014-47da-8eb7-fc0257a68477","system_id":"levelo_inurba_marseille","lat":43.3362,"lon":5.41031,"is_reserved":false,"is_disabled":false,"rental_uris":{"android":"levelo://app?vid=3a5970ee-b014-47da-8eb7-fc0257a68477","ios":"levelo://app?vid=3a5970ee-b014-47da-8eb7-fc0257a68477"},"vehicle_type_id":"4","last_reported":1726823503,"current_range_meters":25200,"station_id":"ce4bhqh2rcd13ifvqhmg","pricing_plan_id":"cebpf4jnsgd1na2vs0mg"},{"bike_id":"f606bfdc-7831-4e19-ad16-d0f312e8d42a","system_id":"levelo_inurba_marseille","lat":43.30324,"lon":5.36901,"is_reserved":false,"is_disabled":false,"rental_uris":{"android":"levelo://app?vid=f606bfdc-7831-4e19-ad16-d0f312e8d42a","ios":"levelo://app?vid=f606bfdc-7831-4e19-ad16-d0f312e8d42a"},"vehicle_type_id":"4","last_reported":1726823503,"current_range_meters":38800,"station_id":"ce4bgqh2rcd13ifvqc5g","pricing_plan_id":"cebpf4jnsgd1na2vs0mg"},{"bike_id":"83df875a-5d3f-4c35-9ab9-74ee899a6fd0","system_id":"levelo_inurba_marseille","lat":43.30159,"lon":5.3808,"is_reserved":false,"is_disabled":false,"rental_uris":{"android":"levelo://app?vid=83df875a-5d3f-4c35-9ab9-74ee899a6fd0","ios":"levelo://app?vid=83df875a-5d3f-4c35-9ab9-74ee899a6fd0"},"vehicle_type_id":"4","last_reported":1726823503,"current_range_meters":36000,"station_id":"ce4bgjp2rcd13ifvqbh0","pricing_plan_id":"cebpf4jnsgd1na2vs0mg"},{"bike_id":"27baf3d7-7873-4e59-902f-0a748846d6f6","system_id":"levelo_inurba_marseille","lat":43.31498,"lon":5.37312,"is_reserved":false,"is_disabled":false,"rental_uris":{"android":"levelo://app?vid=27baf3d7-7873-4e59-902f-0a748846d6f6","ios":"levelo://app?vid=27baf3d7-7873-4e59-902f-0a748846d6f6"},"vehicle_type_id":"4","last_reported":1726823503,"current_range_meters":36800,"station_id":"ce4bgt12rcd13ifvqcd0","pricing_plan_id":"cebpf4jnsgd1na2vs0mg"},{"bike_id":"ecda0e21-eaba-4f88-ab83-75ab6e8ef130","system_id":"levelo_inurba_marseille","lat":43.29182,"lon":5.37138,"is_reserved":false,"is_disabled":false,"rental_uris":{"android":"levelo://app?vid=ecda0e21-eaba-4f88-ab83-75ab6e8ef130","ios":"levelo://app?vid=ecda0e21-eaba-4f88-ab83-75ab6e8ef130"},"vehicle_type_id":"4","last_reported":1726823503,"current_range_meters":30400,"station_id":"ce4bha92rcd13ifvqeh0","pricing_plan_id":"cebpf4jnsgd1na2vs0mg"},{"bike_id":"fa2e946d-01fe-4bb4-a2b0-55af60a0bcec","system_id":"levelo_inurba_marseille","lat":43.33728,"lon":5.39185,"is_reserved":false,"is_disabled":false,"rental_uris":{"android":"levelo://app?vid=fa2e946d-01fe-4bb4-a2b0-55af60a0bcec","ios":"levelo://app?vid=fa2e946d-01fe-4bb4-a2b0-55af60a0bcec"},"vehicle_type_id":"4","last_reported":1726823503,"current_range_meters":37600,"station_id":"ce4bhr92rcd13ifvqhsg","pricing_plan_id":"cebpf4jnsgd1na2vs0mg"},{"bike_id":"c33add25-123c-4b36-8cf5-b7923beb3261","system_id":"levelo_inurba_marseille","lat":43.32485,"lon":5.36577,"is_reserved":false,"is_disabled":false,"rental_uris":{"android":"levelo://app?vid=c33add25-123c-4b36-8cf5-b7923beb3261","ios":"levelo://app?vid=c33add25-123c-4b36-8cf5-b7923beb3261"},"vehicle_type_id":"4","last_reported":1726823503,"current_range_meters":22000,"station_id":"ce4bhs12rcd13ifvqhvg","pricing_plan_id":"cebpf4jnsgd1na2vs0mg"},{"bike_id":"1556d40c-3bc6-4ccb-917c-cc814b98e117","system_id":"levelo_inurba_marseille","lat":43.2656,"lon":5.37288,"is_reserved":false,"is_disabled":false,"rental_uris":{"android":"levelo://app?vid=1556d40c-3bc6-4ccb-917c-cc814b98e117","ios":"levelo://app?vid=1556d40c-3bc6-4ccb-917c-cc814b98e117"},"vehicle_type_id":"4","last_reported":1726823503,"current_range_meters":18000,"station_id":"ce4bhg12rcd13ifvqf70","pricing_plan_id":"cebpf4jnsgd1na2vs0mg"},{"bike_id":"11d9698c-d3bf-48ca-a9ce-d5ad0d09c0f7","system_id":"levelo_inurba_marseille","lat":43.32546,"lon":5.41442,"is_reserved":false,"is_disabled":false,"rental_uris":{"android":"levelo://app?vid=11d9698c-d3bf-48ca-a9ce-d5ad0d09c0f7","ios":"levelo://app?vid=11d9698c-d3bf-48ca-a9ce-d5ad0d09c0f7"},"vehicle_type_id":"4","last_reported":1726823503,"current_range_meters":37600,"station_id":"ce4bhq12rcd13ifvqhhg","pricing_plan_id":"cebpf4jnsgd1na2vs0mg"},{"bike_id":"07163652-4d2f-4986-973d-bead02e87cdd","system_id":"levelo_inurba_marseille","lat":43.29374,"lon":5.37833,"is_reserved":false,"is_disabled":false,"rental_uris":{"android":"levelo://app?vid=07163652-4d2f-4986-973d-bead02e87cdd","ios":"levelo://app?vid=07163652-4d2f-4986-973d-bead02e87cdd"},"vehicle_type_id":"4","last_reported":1726823503,"current_range_meters":29600,"station_id":"ce4bgjh2rcd13ifvqbf0","pricing_plan_id":"cebpf4jnsgd1na2vs0mg"},{"bike_id":"7b2e01c0-d2a8-4b61-998f-ae9716277f02","system_id":"levelo_inurba_marseille","lat":43.33029,"lon":5.39058,"is_reserved":false,"is_disabled":false,"rental_uris":{"android":"levelo://app?vid=7b2e01c0-d2a8-4b61-998f-ae9716277f02","ios":"levelo://app?vid=7b2e01c0-d2a8-4b61-998f-ae9716277f02"},"vehicle_type_id":"4","last_reported":1726823503,"current_range_meters":6400,"station_id":"ce4bhr92rcd13ifvqhrg","pricing_plan_id":"cebpf4jnsgd1na2vs0mg"},{"bike_id":"9da6d2b5-5f08-48ad-803f-fd5005db9741","system_id":"levelo_inurba_marseille","lat":43.30487,"lon":5.37913,"is_reserved":false,"is_disabled":false,"rental_uris":{"android":"levelo://app?vid=9da6d2b5-5f08-48ad-803f-fd5005db9741","ios":"levelo://app?vid=9da6d2b5-5f08-48ad-803f-fd5005db9741"},"vehicle_type_id":"4","last_reported":1726823503,"current_range_meters":37600,"station_id":"ce4bgup2rcd13ifvqcn0","pricing_plan_id":"cebpf4jnsgd1na2vs0mg"},{"bike_id":"e00a5bce-4c97-4557-92d9-604d624063dd","system_id":"levelo_inurba_marseille","lat":43.29568,"lon":5.3752,"is_reserved":false,"is_disabled":false,"rental_uris":{"android":"levelo://app?vid=e00a5bce-4c97-4557-92d9-604d624063dd","ios":"levelo://app?vid=e00a5bce-4c97-4557-92d9-604d624063dd"},"vehicle_type_id":"4","last_reported":1726823503,"current_range_meters":27600,"station_id":"ce4bgh92rcd13ifvqb50","pricing_plan_id":"cebpf4jnsgd1na2vs0mg"},{"bike_id":"f6afed58-cf55-4d3c-8813-dc533e765c78","system_id":"levelo_inurba_marseille","lat":43.3361,"lon":5.41032,"is_reserved":false,"is_disabled":false,"rental_uris":{"android":"levelo://app?vid=f6afed58-cf55-4d3c-8813-dc533e765c78","ios":"levelo://app?vid=f6afed58-cf55-4d3c-8813-dc533e765c78"},"vehicle_type_id":"4","last_reported":1726823503,"current_range_meters":9600,"station_id":"ce4bhqh2rcd13ifvqhmg","pricing_plan_id":"cebpf4jnsgd1na2vs0mg"},{"bike_id":"0271e760-394a-46af-97f8-ff6577a27277","system_id":"levelo_inurba_marseille","lat":43.3054,"lon":5.36541,"is_reserved":false,"is_disabled":false,"rental_uris":{"android":"levelo://app?vid=0271e760-394a-46af-97f8-ff6577a27277","ios":"levelo://app?vid=0271e760-394a-46af-97f8-ff6577a27277"},"vehicle_type_id":"4","last_reported":1726823503,"current_range_meters":22800,"station_id":"ce4bgs12rcd13ifvqcag","pricing_plan_id":"cebpf4jnsgd1na2vs0mg"},{"bike_id":"517aabc5-f8a6-4fe2-bcfc-9786db0d86c0","system_id":"levelo_inurba_marseille","lat":43.24081,"lon":5.3775,"is_reserved":false,"is_disabled":false,"rental_uris":{"android":"levelo://app?vid=517aabc5-f8a6-4fe2-bcfc-9786db0d86c0","ios":"levelo://app?vid=517aabc5-f8a6-4fe2-bcfc-9786db0d86c0"},"vehicle_type_id":"4","last_reported":1726823503,"current_range_meters":31200,"station_id":"ce4bhnp2rcd13ifvqgvg","pricing_plan_id":"cebpf4jnsgd1na2vs0mg"},{"bike_id":"67c0d9da-13b7-41ac-a1be-c7de728164e4","system_id":"levelo_inurba_marseille","lat":43.29559,"lon":5.42287,"is_reserved":false,"is_disabled":false,"rental_uris":{"android":"levelo://app?vid=67c0d9da-13b7-41ac-a1be-c7de728164e4","ios":"levelo://app?vid=67c0d9da-13b7-41ac-a1be-c7de728164e4"},"vehicle_type_id":"4","last_reported":1726823503,"current_range_meters":30400,"station_id":"ce4bhph2rcd13ifvqhdg","pricing_plan_id":"cebpf4jnsgd1na2vs0mg"},