{"last_updated":1741727232,"ttl":60,"version":"2.2","data":{"bikes":[{"bike_id":"e3565dcf-4d34-49d7-919b-1234920ea466","system_id":"levelo_inurba_marseille","lat":43.33746,"lon":5.3745,"is_reserved":false,"is_disabled":false,"rental_uris":{"android":"levelo://app?vid=e3565dcf-4d34-49d7-919b-1234920ea466","ios":"levelo://app?vid=e3565dcf-4d34-49d7-919b-1234920ea466"},"vehicle_type_id":"4","last_reported":1741727232,"current_range_meters":20800,"station_id":"","pricing_plan_id":"cebpf4jnsgd1na2vs0mg"},{"bike_id":"62b3a7b8-8202-4684-8ab1-a7c1ed31d3f6","system_id":"levelo_inurba_marseille","lat":43.3108,"lon":5.37503,"is_reserved":false,"is_disabled":true,"rental_uris":{"android":"levelo://app?vid=62b3a7b8-8202-4684-8ab1-a7c1ed31d3f6","ios":"levelo://app?vid=62b3a7b8-8202-4684-8ab1-a7c1ed31d3f6"},"vehicle_type_id":"4","last_reported":1741727232,"current_range_meters":0,"station_id":"","pricing_plan_id":"cebpf4jnsgd1na2vs0mg"},{"bike_id":"ee1d2ad1-36ca-49dd-a328-f2a9a9994ecb","system_id":"levelo_inurba_marseille","lat":43.310869,"lon":5.38131,"is_reserved":false,"is_disabled":true,"rental_uris":{"android":"levelo://app?vid=ee1d2ad1-36ca-49dd-a328-f2a9a9994ecb","ios":"levelo://app?vid=ee1d2ad1-36ca-49dd-a328-f2a9a9994ecb"},"vehicle_type_id":"4","last_reported":1741727232,"current_range_meters":0,"station_id":"","pricing_plan_id":"cebpf4jnsgd1na2vs0mg"},{"bike_id":"6a00c328-746a-424c-873d-9d91f3d92b69","system_id":"levelo_inurba_marseille","lat":43.31332,"lon":5.37605,"is_reserved":false,"is_disabled":true,"rental_uris":{"android":"levelo://app?vid=6a00c328-746a-424c-873d-9d91f3d92b69","ios":"levelo://app?vid=6a00c328-746a-424c-873d-9d91f3d92b69"},"vehicle_type_id":"4","last_reported":1741727232,"current_range_meters":0,"station_id":"","pricing_plan_id":"cebpf4jnsgd1na2vs0mg"},{"bike_id":"a1cd1ead-ad01-47fc-89dd-b8abff0ef455","system_id":"levelo_inurba_marseille","lat":43.30658,"lon":5.40072,"is_reserved":false,"is_disabled":true,"rental_uris":{"android":"levelo://app?vid=a1cd1ead-ad01-47fc-89dd-b8abff0ef455","ios":"levelo://app?vid=a1cd1ead-ad01-47fc-89dd-b8abff0ef455"},"vehicle_type_id":"4","last_reported":1741727232,"current_range_meters":0,"station_id":"ce4bh112rcd13ifvqda0","pricing_plan_id":"cebpf4jnsgd1na2vs0mg"},{"bike_id":"c913ad42-b176-4a96-bbdf-7cd01b35e625","system_id":"levelo_inurba_marseille","lat":43.29569,"lon":5.42269,"is_reserved":false,"is_disabled":true,"rental_uris":{"android":"levelo://app?vid=c913ad42-b176-4a96-bbdf-7cd01b35e625","ios":"levelo://app?vid=c913ad42-b176-4a96-bbdf-7cd01b35e625"},"vehicle_type_id":"4","last_reported":1741727232,"current_range_meters":0,"station_id":"ce4bhph2rcd13ifvqhdg","pricing_plan_id":"cebpf4jnsgd1na2vs0mg"},{"bike_id":"6d5f61b0-6032-429f-803b-c179274db77c","system_id":"levelo_inurba_marseille","lat":43.2872,"lon":5.36081,"is_reserved":false,"is_disabled":true,"rental_uris":{"android":"levelo://app?vid=6d5f61b0-6032-429f-803b-c179274db77c","ios":"levelo://app?vid=6d5f61b0-6032-429f-803b-c179274db77c"},"vehicle_type_id":"4","last_reported":1741727232,"current_range_meters":0,"station_id":"cki0cbj6b192h4jlfktg","pricing_plan_id":"cebpf4jnsgd1na2vs0mg"},{"bike_id":"ddee9294-15e3-4883-b3ec-2735d817ee21","system_id":"levelo_inurba_marseille","lat":43.23193,"lon":5.39992,"is_reserved":false,"is_disabled":true,"rental_uris":{"android":"levelo://app?vid=ddee9294-15e3-4883-b3ec-2735d817ee21","ios":"levelo://app?vid=ddee9294-15e3-4883-b3ec-2735d817ee21"},"vehicle_type_id":"4","last_reported":1741727232,"current_range_meters":1200,"station_id":"ce4bhn12rcd13ifvqgqg","pricing_plan_id":"cebpf4jnsgd1na2vs0mg"},{"bike_id":"cf23a9fd-0081-4998-9a85-17ced94924a3","system_id":"levelo_inurba_marseille","lat":43.28727,"lon":5.37938,"is_reserved":false,"is_disabled":true,"rental_uris":{"android":"levelo://app?vid=cf23a9fd-0081-4998-9a85-17ced94924a3","ios":"levelo://app?vid=cf23a9fd-0081-4998-9a85-17ced94924a3"},"vehicle_type_id":"4","last_reported":1741727232,"current_range_meters":1600,"station_id":"ce4bh9p2rcd13ifvqec0","pricing_plan_id":"cebpf4jnsgd1na2vs0mg"},{"bike_id":"5de3609d-8bad-4cb4-9d18-8744aa0d425e","system_id":"levelo_inurba_marseille","lat":43.32969,"lon":5.3907,"is_reserved":false,"is_disabled":true,"rental_uris":{"android":"levelo://app?vid=5de3609d-8bad-4cb4-9d18-8744aa0d425e","ios":"levelo://app?vid=5de3609d-8bad-4cb4-9d18-8744aa0d425e"},"vehicle_type_id":"4","last_reported":1741727232,"current_range_meters":2000,"station_id":"","pricing_plan_id":"cebpf4jnsgd1na2vs0mg"},{"bike_id":"b104001a-10f7-4c93-b613-2b76cb885027","system_id":"levelo_inurba_marseille","lat":43.311554,"lon":5.371123,"is_reserved":false,"is_disabled":true,"rental_uris":{"android":"levelo://app?vid=b104001a-10f7-4c93-b613-2b76cb885027","ios":"levelo://app?vid=b104001a-10f7-4c93-b613-2b76cb885027"},"vehicle_type_id":"4","last_reported":1741727232,"current_range_meters":2000,"station_id":"","pricing_plan_id":"cebpf4jnsgd1na2vs0mg"},{"bike_id":"2fbb2f0e-b64e-445e-a2b3-ee5227dc63e4","system_id":"levelo_inurba_marseille","lat":43.26931,"lon":5.36713,"is_reserved":false,"is_disabled":false,"rental_uris":{"android":"levelo://app?vid=2fbb2f0e-b64e-445e-a2b3-ee5227dc63e4","ios":"levelo://app?vid=2fbb2f0e-b64e-445e-a2b3-ee5227dc63e4"},"vehicle_type_id":"4","last_reported":1741727232,"current_range_meters":2800,"station_id":"","pricing_plan_id":"cebpf4jnsgd1na2vs0mg"},{"bike_id":"9ee8d9b2-106d-4490-9546-f216244e7995","system_id":"levelo_inurba_marseille","lat":43.27704,"lon":5.37858,"is_reserved":false,"is_disabled":false,"rental_uris":{"android":"levelo://app?vid=9ee8d9b2-106d-4490-9546-f216244e7995","ios":"levelo://app?vid=9ee8d9b2-106d-4490-9546-f216244e7995"},"vehicle_type_id":"4","last_reported":1741727232,"current_range_meters":2800,"station_id":"","pricing_plan_id":"cebpf4jnsgd1na2vs0mg"},{"bike_id":"18eb4ee0-dfd1-47c5-af16-5b996cb15973","system_id":"levelo_inurba_marseille","lat":43.24072,"lon":5.37762,"is_reserved":false,"is_disabled":false,"rental_uris":{"android":"levelo://app?vid=18eb4ee0-dfd1-47c5-af16-5b996cb15973","ios":"levelo://app?vid=18eb4ee0-dfd1-47c5-af16-5b996cb15973"},"vehicle_type_id":"4","last_reported":1741727232,"current_range_meters":2800,"station_id":"ce4bhnp2rcd13ifvqgvg","pricing_plan_id":"cebpf4jnsgd1na2vs0mg"},{"bike_id":"49c43485-3d64-49c8-8a0b-99f4944864b8","system_id":"levelo_inurba_marseille","lat":43.29518,"lon":5.39394,"is_reserved":false,"is_disabled":false,"rental_uris":{"android":"levelo://app?vid=49c43485-3d64-49c8-8a0b-99f4944864b8","ios":"levelo://app?vid=49c43485-3d64-49c8-8a0b-99f4944864b8"},"vehicle_type_id":"4","last_reported":1741727232,"current_range_meters":3600,"station_id":"ce4bh292rcd13ifvqdf0","pricing_plan_id":"cebpf4jnsgd1na2vs0mg"},{"bike_id":"4db736b9-68d3-4f2a-9431-002ce7a44183","system_id":"levelo_inurba_marseille","lat":43.23151,"lon":5.4372,"is_reserved":false,"is_disabled":false,"rental_uris":{"android":"levelo://app?vid=4db736b9-68d3-4f2a-9431-002ce7a44183","ios":"levelo://app?vid=4db736b9-68d3-4f2a-9431-002ce7a44183"},"vehicle_type_id":"4","last_reported":1741727232,"current_range_meters":3600,"station_id":"ce4bhmp2rcd13ifvqgog","pricing_plan_id":"cebpf4jnsgd1na2vs0mg"},{"bike_id":"e0fca961-43ba-4cab-9be9-426992c3ad53","system_id":"levelo_inurba_marseille","lat":43.32355,"lon":5.38869,"is_reserved":false,"is_disabled":false,"rental_uris":{"android":"levelo://app?vid=e0fca961-43ba-4cab-9be9-426992c3ad53","ios":"levelo://app?vid=e0fca961-43ba-4cab-9be9-426992c3ad53"},"vehicle_type_id":"4","last_reported":1741727232,"current_range_meters":3600,"station_id":"ce4bhqp2rcd13ifvqhog","pricing_plan_id":"cebpf4jnsgd1na2vs0mg"},{"bike_id":"36a83dc7-2da9-4fd8-9caf-ab5acfefbac5","system_id":"levelo_inurba_marseille","lat":43.25715,"lon":5.41115,"is_reserved":false,"is_disabled":false,"rental_uris":{"android":"levelo://app?vid=36a83dc7-2da9-4fd8-9caf-ab5acfefbac5","ios":"levelo://app?vid=36a83dc7-2da9-4fd8-9caf-ab5acfefbac5"},"vehicle_type_id":"4","last_reported":1741727232,"current_range_meters":4000,"station_id":"ce4bhkp2rcd13ifvqgd0","pricing_plan_id":"cebpf4jnsgd1na2vs0mg"},{"bike_id":"43991684-6091-4e7b-b61b-226ca0c5b6a8","system_id":"levelo_inurba_marseille","lat":43.29902,"lon":5.43665,"is_reserved":false,"is_disabled":false,"rental_uris":{"android":"levelo://app?vid=43991684-6091-4e7b-b61b-226ca0c5b6a8","ios":"levelo://app?vid=43991684-6091-4e7b-b61b-226ca0c5b6a8"},"vehicle_type_id":"4","last_reported":1741727232,"current_range_meters":4400,"station_id":"ce4bhpp2rcd13ifvqhfg","pricing_plan_id":"cebpf4jnsgd1na2vs0mg"},{"bike_id":"a99b6d43-c91e-4a0b-9b4e-069f899bc6b8","system_id":"levelo_inurba_marseille","lat":43.32527,"lon":5.41476,"is_reserved":false,"is_disabled":false,"rental_uris":{"android":"levelo://app?vid=a99b6d43-c91e-4a0b-9b4e-069f899bc6b8","ios":"levelo://app?vid=a99b6d43-c91e-4a0b-9b4e-069f899bc6b8"},"vehicle_type_id":"4","last_reported":1741727232,"current_range_meters":4400,"station_id":"ce4bhq12rcd13ifvqhhg","pricing_plan_id":"cebpf4jnsgd1na2vs0mg"},{"bike_id":"df2eb801-7cba-4f11-b430-1677f0e58696","system_id":"levelo_inurba_marseille","lat":43.23149,"lon":5.43727,"is_reserved":false,"is_disabled":false,"rental_uris":{"android":"levelo://app?vid=df2eb801-7cba-4f11-b430-1677f0e58696","ios":"levelo://app?vid=df2eb801-7cba-4f11-b430-1677f0e58696"},"vehicle_type_id":"4","last_reported":1741727232,"current_range_meters":4800,"station_id":"ce4bhmp2rcd13ifvqgog","pricing_plan_id":"cebpf4jnsgd1na2vs0mg"},{"bike_id":"0c715c8c-ce6e-4b41-99be-57845c764907","system_id":"levelo_inurba_marseille","lat":43.23179,"lon":5.40003,"is_reserved":false,"is_disabled":false,"rental_uris":{"android":"levelo://app?vid=0c715c8c-ce6e-4b41-99be-57845c764907","ios":"levelo://app?vid=0c715c8c-ce6e-4b41-99be-57845c764907"},"vehicle_type_id":"4","last_reported":1741727232,"current_range_meters":6000,"station_id":"ce4bhn12rcd13ifvqgqg","pricing_plan_id":"cebpf4jnsgd1na2vs0mg"},{"bike_id":"42b8606a-5a39-4c18-ab8e-ae2998dcaace","system_id":"levelo_inurba_marseille","lat":43.29902,"lon":5.43649,"is_reserved":false,"is_disabled":false,"rental_uris":{"android":"levelo://app?vid=42b8606a-5a39-4c18-ab8e-ae2998dcaace","ios":"levelo://app?vid=42b8606a-5a39-4c18-ab8e-ae2998dcaace"},"vehicle_type_id":"4","last_reported":1741727232,"current_range_meters":6000,"station_id":"ce4bhpp2rcd13ifvqhfg","pricing_plan_id":"cebpf4jnsgd1na2vs0mg"},{"bike_id":"62df266c-2bf3-41c4-8372-412425141c1f","system_id":"levelo_inurba_marseille","lat":43.330228,"lon":5.39049,"is_reserved":false,"is_disabled":false,"rental_uris":{"android":"levelo://app?vid=62df266c-2bf3-41c4-8372-412425141c1f","ios":"levelo://app?vid=62df266c-2bf3-41c4-8372-412425141c1f"},"vehicle_type_id":"4","last_reported":1741727232,"current_range_meters":6000,"station_id":"ce4bhr92rcd13ifvqhrg","pricing_plan_id":"cebpf4jnsgd1na2vs0mg"},{"bike_id":"dc42e161-3661-4fd6-b581-259d0f327bf6","system_id":"levelo_inurba_marseille","lat":43.23182,"lon":5.39974,"is_reserved":false,"is_disabled":false,"rental_uris":{"android":"levelo://app?vid=dc42e161-3661-4fd6-b581-259d0f327bf6","ios":"levelo://app?vid=dc42e161-3661-4fd6-b581-259d0f327bf6"},"vehicle_type_id":"4","last_reported":1741727232,"current_range_meters":6400,"station_id":"ce4bhn12rcd13ifvqgqg","pricing_plan_id":"cebpf4jnsgd1na2vs0mg"},{"bike_id":"e5fbee0a-12df-41d3-af9f-e793ac532dce","system_id":"levelo_inurba_marseille","lat":43.33016,"lon":5.39036,"is_reserved":false,"is_disabled":false,"rental_uris":{"android":"levelo://app?vid=e5fbee0a-12df-41d3-af9f-e793ac532dce","ios":"levelo://app?vid=e5fbee0a-12df-41d3-af9f-e793ac532dce"},"vehicle_type_id":"4","last_reported":1741727232,"current_range_meters":6400,"station_id":"ce4bhr92rcd13ifvqhrg","pricing_plan_id":"cebpf4jnsgd1na2vs0mg"},{"bike_id":"cf50e632-8316-417b-8bc0-55e11c63163a","system_id":"levelo_inurba_marseille","lat":43.28895,"lon":5.37872,"is_reserved":false,"is_disabled":false,"rental_uris":{"android":"levelo://app?vid=cf50e632-8316-417b-8bc0-55e11c63163a","ios":"levelo://app?vid=cf50e632-8316-417b-8bc0-55e11c63163a"},"vehicle_type_id":"4","last_reported":1741727232,"current_range_meters":6800,"station_id":"","pricing_plan_id":"cebpf4jnsgd1na2vs0mg"},{"bike_id":"03690356-08e9-4ea7-b9a3-8e88bf471e93","system_id":"levelo_inurba_marseille","lat":43.337444,"lon":5.374475,"is_reserved":false,"is_disabled":false,"rental_uris":{"android":"levelo://app?vid=03690356-08e9-4ea7-b9a3-8e88bf471e93","ios":"levelo://app?vid=03690356-08e9-4ea7-b9a3-8e88bf471e93"},"vehicle_type_id":"4","last_reported":1741727232,"current_range_meters":6800,"station_id":"","pricing_plan_id":"cebpf4jnsgd1na2vs0mg"},{"bike_id":"f43bbec1-29f3-4b93-bf64-e23b9f27b56e","system_id":"levelo_inurba_marseille","lat":43.24815,"lon":5.37452,"is_reserved":false,"is_disabled":false,"rental_uris":{"android":"levelo://app?vid=f43bbec1-29f3-4b93-bf64-e23b9f27b56e","ios":"levelo://app?vid=f43bbec1-29f3-4b93-bf64-e23b9f27b56e"},"vehicle_type_id":"4","last_reported":1741727232,"current_range_meters":6800,"station_id":"ce4bhgh2rcd13ifvqfb0","pricing_plan_id":"cebpf4jnsgd1na2vs0mg"},{"bike_id":"530a533a-e2f4-4a77-accb-cf20c71b4586","system_id":"levelo_inurba_marseille","lat":43.23185,"lon":5.39989,"is_reserved":false,"is_disabled":false,"rental_uris":{"android":"levelo://app?vid=530a533a-e2f4-4a77-accb-cf20c71b4586","ios":"levelo://app?vid=530a533a-e2f4-4a77-accb-cf20c71b4586"},"vehicle_type_id":"4","last_reported":1741727232,"current_range_meters":6800,"station_id":"ce4bhn12rcd13ifvqgqg","pricing_plan_id":"cebpf4jnsgd1na2vs0mg"},{"bike_id":"eedda6f3-e03e-496f-9bd0-de31bfd30ce3","system_id":"levelo_inurba_marseille","lat":43.27821,"lon":5.40719,"is_reserved":false,"is_disabled":false,"rental_uris":{"android":"levelo://app?vid=eedda6f3-e03e-496f-9bd0-de31bfd30ce3","ios":"levelo://app?vid=eedda6f3-e03e-496f-9bd0-de31bfd30ce3"},"vehicle_type_id":"4","last_reported":1741727232,"current_range_meters":6800,"station_id":"ce4bhnh2rcd13ifvqgtg","pricing_plan_id":"cebpf4jnsgd1na2vs0mg"},{"bike_id":"6b42988a-de91-4a30-b407-bb1347588844","system_id":"levelo_inurba_marseille","lat":43.27826,"lon":5.40705,"is_reserved":false,"is_disabled":false,"rental_uris":{"android":"levelo://app?vid=6b42988a-de91-4a30-b407-bb1347588844","ios":"levelo://app?vid=6b42988a-de91-4a30-b407-bb1347588844"},"vehicle_type_id":"4","last_reported":1741727232,"current_range_meters":6800,"station_id":"ce4bhnh2rcd13ifvqgtg","pricing_plan_id":"cebpf4jnsgd1na2vs0mg"},{"bike_id":"c86d68f5-55ee-4a68-ba82-758fa1373f1d","system_id":"levelo_inurba_marseille","lat":43.31713,"lon":5.43704,"is_reserved":false,"is_disabled":false,"rental_uris":{"android":"levelo://app?vid=c86d68f5-55ee-4a68-ba82-758fa1373f1d","ios":"levelo://app?vid=c86d68f5-55ee-4a68-ba82-758fa1373f1d"},"vehicle_type_id":"4","last_reported":1741727232,"current_range_meters":6800,"station_id":"ce4bhp92rcd13ifvqhcg","pricing_plan_id":"cebpf4jnsgd1na2vs0mg"},{"bike_id":"0b6a8ca9-e9ca-4293-a06b-55f5dcadb99b","system_id":"levelo_inurba_marseille","lat":43.28141,"lon":5.44593,"is_reserved":false,"is_disabled":false,"rental_uris":{"android":"levelo://app?vid=0b6a8ca9-e9ca-4293-a06b-55f5dcadb99b","ios":"levelo://app?vid=0b6a8ca9-e9ca-4293-a06b-55f5dcadb99b"},"vehicle_type_id":"4","last_reported":1741727232,"current_range_meters":7200,"station_id":"","pricing_plan_id":"cebpf4jnsgd1na2vs0mg"},{"bike_id":"cbd6f8ee-d91a-4c06-a50f-8aefa40d8ceb","system_id":"levelo_inurba_marseille","lat":43.299,"lon":5.43671,"is_reserved":false,"is_disabled":false,"rental_uris":{"android":"levelo://app?vid=cbd6f8ee-d91a-4c06-a50f-8aefa40d8ceb","ios":"levelo://app?vid=cbd6f8ee-d91a-4c06-a50f-8aefa40d8ceb"},"vehicle_type_id":"4","last_reported":1741727232,"current_range_meters":7200,"station_id":"ce4bhpp2rcd13ifvqhfg","pricing_plan_id":"cebpf4jnsgd1na2vs0mg"},{"bike_id":"09bbb690-af86-458c-bbad-70d10e2033ee","system_id":"levelo_inurba_marseille","lat":43.230566,"lon":5.354939,"is_reserved":false,"is_disabled":false,"rental_uris":{"android":"levelo://app?vid=09bbb690-af86-458c-bbad-70d10e2033ee","ios":"levelo://app?vid=09bbb690-af86-458c-bbad-70d10e2033ee"},"vehicle_type_id":"4","last_reported":1741727232,"current_range_meters":7200,"station_id":"cpo3342slgdg3j2ifvpg","pricing_plan_id":"cebpf4jnsgd1na2vs0mg"},{"bike_id":"7ff20641-cc3f-4027-be6a-71b585b28ee2","system_id":"levelo_inurba_marseille","lat":43.2539,"lon":5.41864,"is_reserved":false,"is_disabled":false,"rental_uris":{"android":"levelo://app?vid=7ff20641-cc3f-4027-be6a-71b585b28ee2","ios":"levelo://app?vid=7ff20641-cc3f-4027-be6a-71b585b28ee2"},"vehicle_type_id":"4","last_reported":1741727232,"current_range_meters":8000,"station_id":"","pricing_plan_id":"cebpf4jnsgd1na2vs0mg"},{"bike_id":"bf2feb02-4272-4476-92f9-9420844c4078","system_id":"levelo_inurba_marseille","lat":43.31171,"lon":5.37603,"is_reserved":false,"is_disabled":false,"rental_uris":{"android":"levelo://app?vid=bf2feb02-4272-4476-92f9-9420844c4078","ios":"levelo://app?vid=bf2feb02-4272-4476-92f9-9420844c4078"},"vehicle_type_id":"4","last_reported":1741727232,"current_range_meters":8000,"station_id":"","pricing_plan_id":"cebpf4jnsgd1na2vs0mg"},{"bike_id":"9919f138-0ca1-45a0-bca5-0755917d4808","system_id":"levelo_inurba_marseille","lat":43.26213,"lon":5.40437,"is_reserved":false,"is_disabled":false,"rental_uris":{"android":"levelo://app?vid=9919f138-0ca1-45a0-bca5-0755917d4808","ios":"levelo://app?vid=9919f138-0ca1-45a0-bca5-0755917d4808"},"vehicle_type_id":"4","last_reported":1741727232,"current_range_meters":8000,"station_id":"ce4bhmh2rcd13ifvqgmg","pricing_plan_id":"cebpf4jnsgd1na2vs0mg"},{"bike_id":"a750f97e-9923-49f6-85ba-96e222be5f41","system_id":"levelo_inurba_marseille","lat":43.27819,"lon":5.40722,"is_reserved":false,"is_disabled":false,"rental_uris":{"android":"levelo://app?vid=a750f97e-9923-49f6-85ba-96e222be5f41","ios":"levelo://app?vid=a750f97e-9923-49f6-85ba-96e222be5f41"},"vehicle_type_id":"4","last_reported":1741727232,"current_range_meters":8000,"station_id":"ce4bhnh2rcd13ifvqgtg","pricing_plan_id":"cebpf4jnsgd1na2vs0mg"},{"bike_id":"2129e361-5aff-4286-bb3b-f380feda8bad","system_id":"levelo_inurba_marseille","lat":43.32335,"lon":5.40626,"is_reserved":false,"is_disabled":false,"rental_uris":{"android":"levelo://app?vid=2129e361-5aff-4286-bb3b-f380feda8bad","ios":"levelo://app?vid=2129e361-5aff-4286-bb3b-f380feda8bad"},"vehicle_type_id":"4","last_reported":1741727232,"current_range_meters":8000,"station_id":"ce4bhq92rcd13ifvqhjg","pricing_plan_id":"cebpf4jnsgd1na2vs0mg"},{"bike_id":"80771939-f406-42f7-81c5-33180fd8a338","system_id":"levelo_inurba_marseille","lat":43.23194,"lon":5.35553,"is_reserved":false,"is_disabled":false,"rental_uris":{"android":"levelo://app?vid=80771939-f406-42f7-81c5-33180fd8a338","ios":"levelo://app?vid=80771939-f406-42f7-81c5-33180fd8a338"},"vehicle_type_id":"4","last_reported":1741727232,"current_range_meters":8000,"station_id":"ce4bhu92rcd13ifvqi70","pricing_plan_id":"cebpf4jnsgd1na2vs0mg"},{"bike_id":"99fa219c-3172-446a-acd5-9dcd98933d08","system_id":"levelo_inurba_marseille","lat":43.28475,"lon":5.38397,"is_reserved":false,"is_disabled":false,"rental_uris":{"android":"levelo://app?vid=99fa219c-3172-446a-acd5-9dcd98933d08","ios":"levelo://app?vid=99fa219c-3172-446a-acd5-9dcd98933d08"},"vehicle_type_id":"4","last_reported":1741727232,"current_range_meters":8800,"station_id":"ce4bh512rcd13ifvqe3g","pricing_plan_id":"cebpf4jnsgd1na2vs0mg"},{"bike_id":"f33af609-15e6-4ba5-b934-4d9522d7ef64","system_id":"levelo_inurba_marseille","lat":43.26198,"lon":5.37449,"is_reserved":false,"is_disabled":false,"rental_uris":{"android":"levelo://app?vid=f33af609-15e6-4ba5-b934-4d9522d7ef64","ios":"levelo://app?vid=f33af609-15e6-4ba5-b934-4d9522d7ef64"},"vehicle_type_id":"4","last_reported":1741727232,"current_range_meters":8800,"station_id":"ce4bhgp2rcd13ifvqfc0","pricing_plan_id":"cebpf4jnsgd1na2vs0mg"},{"bike_id":"c835eee2-01bf-4ff1-a164-4c90e0a065d9","system_id":"levelo_inurba_marseille","lat":43.25004,"lon":5.38925,"is_reserved":false,"is_disabled":false,"rental_uris":{"android":"levelo://app?vid=c835eee2-01bf-4ff1-a164-4c90e0a065d9","ios":"levelo://app?vid=c835eee2-01bf-4ff1-a164-4c90e0a065d9"},"vehicle_type_id":"4","last_reported":1741727232,"current_range_meters":8800,"station_id":"ce4bhgp2rcd13ifvqfd0","pricing_plan_id":"cebpf4jnsgd1na2vs0mg"},{"bike_id":"9b75f73b-4e4f-4d50-8655-4ca7749a5646","system_id":"levelo_inurba_marseille","lat":43.27809,"lon":5.4072,"is_reserved":false,"is_disabled":false,"rental_uris":{"android":"levelo://app?vid=9b75f73b-4e4f-4d50-8655-4ca7749a5646","ios":"levelo://app?vid=9b75f73b-4e4f-4d50-8655-4ca7749a5646"},"vehicle_type_id":"4","last_reported":1741727232,"current_range_meters":8800,"station_id":"ce4bhnh2rcd13ifvqgtg","pricing_plan_id":"cebpf4jnsgd1na2vs0mg"},{"bike_id":"58d1b5b3-d322-4418-97d0-3066ec3d9afc","system_id":"levelo_inurba_marseille","lat":43.23195,"lon":5.35544,"is_reserved":false,"is_disabled":false,"rental_uris":{"android":"levelo://app?vid=58d1b5b3-d322-4418-97d0-3066ec3d9afc","ios":"levelo://app?vid=58d1b5b3-d322-4418-97d0-3066ec3d9afc"},"vehicle_type_id":"4","last_reported":1741727232,"current_range_meters":8800,"station_id":"ce4bhu92rcd13ifvqi70","pricing_plan_id":"cebpf4jnsgd1na2vs0mg"},{"bike_id":"d81463af-23d2-425d-9a90-68fbd18c5253","system_id":"levelo_inurba_marseille","lat":43.3065,"lon":5.40099,"is_reserved":false,"is_disabled":false,"rental_uris":{"android":"levelo://app?vid=d81463af-23d2-425d-9a90-68fbd18c5253","ios":"levelo://app?vid=d81463af-23d2-425d-9a90-68fbd18c5253"},"vehicle_type_id":"4","last_reported":1741727232,"current_range_meters":9200,"station_id":"ce4bh112rcd13ifvqda0","pricing_plan_id":"cebpf4jnsgd1na2vs0mg"},{"bike_id":"82885452-ea1a-47d3-8f13-47bc8c5770ee","system_id":"levelo_inurba_marseille","lat":43.27061,"lon":5.40255,"is_reserved":false,"is_disabled":false,"rental_uris":{"android":"levelo://app?vid=82885452-ea1a-47d3-8f13-47bc8c5770ee","ios":"levelo://app?vid=82885452-ea1a-47d3-8f13-47bc8c5770ee"},"vehicle_type_id":"4","last_reported":1741727232,"current_range_meters":9200,"station_id":"ce4bhk92rcd13ifvqgc0","pricing_plan_id":"cebpf4jnsgd1na2vs0mg"},{"bike_id":"bfe76b26-4cce-4a8d-8e2e-190cbae21f24","system_id":"levelo_inurba_marseille","lat":43.27205,"lon":5.40983,"is_reserved":false,"is_disabled":false,"rental_uris":{"android":"levelo://app?vid=bfe76b26-4cce-4a8d-8e2e-190cbae21f24","ios":"levelo://app?vid=bfe76b26-4cce-4a8d-8e2e-190cbae21f24"},"vehicle_type_id":"4","last_reported":1741727232,"current_range_meters":9200,"station_id":"ce4bhl12rcd13ifvqgf0","pricing_plan_id":"cebpf4jnsgd1na2vs0mg"},{"bike_id":"2b2b213a-823d-4eb7-868e-97146b595f37","system_id":"levelo_inurba_marseille","lat":43.24548,"lon":5.39527,"is_reserved":false,"is_disabled":false,"rental_uris":{"android":"levelo://app?vid=2b2b213a-823d-4eb7-868e-97146b595f37","ios":"levelo://app?vid=2b2b213a-823d-4eb7-868e-97146b595f37"},"vehicle_type_id":"4","last_reported":1741727232,"current_range_meters":9200,"station_id":"ce4bhlp2rcd13ifvqgjg","pricing_plan_id":"cebpf4jnsgd1na2vs0mg"},{"bike_id":"05388ace-665a-4114-a828-939b708a2589","system_id":"levelo_inurba_marseille","lat":43.23186,"lon":5.39995,"is_reserved":false,"is_disabled":false,"rental_uris":{"android":"levelo://app?vid=05388ace-665a-4114-a828-939b708a2589","ios":"levelo://app?vid=05388ace-665a-4114-a828-939b708a2589"},"vehicle_type_id":"4","last_reported":1741727232,"current_range_meters":9200,"station_id":"ce4bhn12rcd13ifvqgqg","pricing_plan_id":"cebpf4jnsgd1na2vs0mg"},{"bike_id":"33f5cd0a-1ec6-4a05-9077-d26f28a16b7b","system_id":"levelo_inurba_marseille","lat":43.27822,"lon":5.40705,"is_reserved":false,"is_disabled":false,"rental_uris":{"android":"levelo://app?vid=33f5cd0a-1ec6-4a05-9077-d26f28a16b7b","ios":"levelo://app?vid=33f5cd0a-1ec6-4a05-9077-d26f28a16b7b"},"vehicle_type_id":"4","last_reported":1741727232,"current_range_meters":9200,"station_id":"ce4bhnh2rcd13ifvqgtg","pricing_plan_id":"cebpf4jnsgd1na2vs0mg"},{"bike_id":"f640465e-8c9e-425a-8e36-08d8d5201bf6","system_id":"levelo_inurba_marseille","lat":43.231927,"lon":5.355467,"is_reserved":false,"is_disabled":false,"rental_uris":{"android":"levelo://app?vid=f640465e-8c9e-425a-8e36-08d8d5201bf6","ios":"levelo://app?vid=f640465e-8c9e-425a-8e36-08d8d5201bf6"},"vehicle_type_id":"4","last_reported":1741727232,"current_range_meters":9200,"station_id":"ce4bhu92rcd13ifvqi70","pricing_plan_id":"cebpf4jnsgd1na2vs0mg"},{"bike_id":"c6825682-54ea-4db3-9437-5e9594505c22","system_id":"levelo_inurba_marseille","lat":43.29878,"lon":5.39726,"is_reserved":false,"is_disabled":false,"rental_uris":{"android":"levelo://app?vid=c6825682-54ea-4db3-9437-5e9594505c22","ios":"levelo://app?vid=c6825682-54ea-4db3-9437-5e9594505c22"},"vehicle_type_id":"4","last_reported":1741727232,"current_range_meters":9600,"station_id":"ce4bh0h2rcd13ifvqd50","pricing_plan_id":"cebpf4jnsgd1na2vs0mg"},{"bike_id":"28970cae-917c-4e7f-9009-0998c9001c6f","system_id":"levelo_inurba_marseille","lat":43.28701,"lon":5.37382,"is_reserved":false,"is_disabled":false,"rental_uris":{"android":"levelo://app?vid=28970cae-917c-4e7f-9009-0998c9001c6f","ios":"levelo://app?vid=28970cae-917c-4e7f-9009-0998c9001c6f"},"vehicle_type_id":"4","last_reported":1741727232,"current_range_meters":9600,"station_id":"ce4bh3p2rcd13ifvqdq0","pricing_plan_id":"cebpf4jnsgd1na2vs0mg"},{"bike_id":"9ec64716-6862-4183-9db4-377cd6d09a43","system_id":"levelo_inurba_marseille","lat":43.29192,"lon":5.35804,"is_reserved":false,"is_disabled":false,"rental_uris":{"android":"levelo://app?vid=9ec64716-6862-4183-9db4-377cd6d09a43","ios":"levelo://app?vid=9ec64716-6862-4183-9db4-377cd6d09a43"},"vehicle_type_id":"4","last_reported":1741727232,"current_range_meters":9600,"station_id":"ce4bhb12rcd13ifvqel0","pricing_plan_id":"cebpf4jnsgd1na2vs0mg"},{"bike_id":"5b87402a-c5e5-44b0-af97-fe924e9a5c40","system_id":"levelo_inurba_marseille","lat":43.25113,"lon":5.40321,"is_reserved":false,"is_disabled":false,"rental_uris":{"android":"levelo://app?vid=5b87402a-c5e5-44b0-af97-fe924e9a5c40","ios":"levelo://app?vid=5b87402a-c5e5-44b0-af97-fe924e9a5c40"},"vehicle_type_id":"4","last_reported":1741727232,"current_range_meters":9600,"station_id":"ce4bhlh2rcd13ifvqgig","pricing_plan_id":"cebpf4jnsgd1na2vs0mg"},{"bike_id":"fb629ba8-b376-4f9a-a280-fa2aa29efcd1","system_id":"levelo_inurba_marseille","lat":43.2986,"lon":5.36331,"is_reserved":false,"is_disabled":false,"rental_uris":{"android":"levelo://app?vid=fb629ba8-b376-4f9a-a280-fa2aa29efcd1","ios":"levelo://app?vid=fb629ba8-b376-4f9a-a280-fa2aa29efcd1"},"vehicle_type_id":"4","last_reported":1741727232,"current_range_meters":10000,"station_id":"ce4bgpp2rcd13ifvqc3g","pricing_plan_id":"cebpf4jnsgd1na2vs0mg"},{"bike_id":"60ee13cf-44a1-4e0e-9eb6-02f69d58169e","system_id":"levelo_inurba_marseille","lat":43.31358,"lon":5.38486,"is_reserved":false,"is_disabled":false,"rental_uris":{"android":"levelo://app?vid=60ee13cf-44a1-4e0e-9eb6-02f69d58169e","ios":"levelo://app?vid=60ee13cf-44a1-4e0e-9eb6-02f69d58169e"},"vehicle_type_id":"4","last_reported":1741727232,"current_range_meters":10000,"station_id":"ce4bgt92rcd13ifvqcf0","pricing_plan_id":"cebpf4jnsgd1na2vs0mg"},{"bike_id":"cc5bf6b5-a7b1-49e7-be38-b0feae43fbce","system_id":"levelo_inurba_marseille","lat":43.28462,"lon":5.35884,"is_reserved":false,"is_disabled":false,"rental_uris":{"android":"levelo://app?vid=cc5bf6b5-a7b1-49e7-be38-b0feae43fbce","ios":"levelo://app?vid=cc5bf6b5-a7b1-49e7-be38-b0feae43fbce"},"vehicle_type_id":"4","last_reported":1741727232,"current_range_meters":10000,"station_id":"ce4bhah2rcd13ifvqei0","pricing_plan_id":"cebpf4jnsgd1na2vs0mg"},{"bike_id":"9acab34d-76c9-4fd5-bed6-0265a89df8bb","system_id":"levelo_inurba_marseille","lat":43.25735,"lon":5.41114,"is_reserved":false,"is_disabled":false,"rental_uris":{"android":"levelo://app?vid=9acab34d-76c9-4fd5-bed6-0265a89df8bb","ios":"levelo://app?vid=9acab34d-76c9-4fd5-bed6-0265a89df8bb"},"vehicle_type_id":"4","last_reported":1741727232,"current_range_meters":10000,"station_id":"ce4bhkp2rcd13ifvqgd0","pricing_plan_id":"cebpf4jnsgd1na2vs0mg"},{"bike_id":"074ef678-d0ea-458c-86d0-67a5bd312e87","system_id":"levelo_inurba_marseille","lat":43.25163,"lon":5.40339,"is_reserved":false,"is_disabled":false,"rental_uris":{"android":"levelo://app?vid=074ef678-d0ea-458c-86d0-67a5bd312e87","ios":"levelo://app?vid=074ef678-d0ea-458c-86d0-67a5bd312e87"},"vehicle_type_id":"4","last_reported":1741727232,"current_range_meters":10000,"station_id":"ce4bhlh2rcd13ifvqgig","pricing_plan_id":"cebpf4jnsgd1na2vs0mg"},{"bike_id":"8f36d88f-9188-4659-bc5d-ae5c7216d1ae","system_id":"levelo_inurba_marseille","lat":43.23178,"lon":5.3998,"is_reserved":false,"is_disabled":false,"rental_uris":{"android":"levelo://app?vid=8f36d88f-9188-4659-bc5d-ae5c7216d1ae","ios":"levelo://app?vid=8f36d88f-9188-4659-bc5d-ae5c7216d1ae"},"vehicle_type_id":"4","last_reported":1741727232,"current_range_meters":10000,"station_id":"ce4bhn12rcd13ifvqgqg","pricing_plan_id":"cebpf4jnsgd1na2vs0mg"},{"bike_id":"415e7a31-245d-4ead-9f33-dad092a04302","system_id":"levelo_inurba_marseille","lat":43.230619,"lon":5.354948,"is_reserved":false,"is_disabled":false,"rental_uris":{"android":"levelo://app?vid=415e7a31-245d-4ead-9f33-dad092a04302","ios":"levelo://app?vid=415e7a31-245d-4ead-9f33-dad092a04302"},"vehicle_type_id":"4","last_reported":1741727232,"current_range_meters":10000,"station_id":"cpo3342slgdg3j2ifvpg","pricing_plan_id":"cebpf4jnsgd1na2vs0mg"},{"bike_id":"e0882758-540a-4ac9-8b1c-c6cbff85ff33","system_id":"levelo_inurba_marseille","lat":43.29884,"lon":5.397345,"is_reserved":false,"is_disabled":false,"rental_uris":{"android":"levelo://app?vid=e0882758-540a-4ac9-8b1c-c6cbff85ff33","ios":"levelo://app?vid=e0882758-540a-4ac9-8b1c-c6cbff85ff33"},"vehicle_type_id":"4","last_reported":1741727232,"current_range_meters":10800,"station_id":"ce4bh0h2rcd13ifvqd50","pricing_plan_id":"cebpf4jnsgd1na2vs0mg"},{"bike_id":"40c2f6f1-6a22-4cf4-b92f-8918c6fa9a5c","system_id":"levelo_inurba_marseille","lat":43.30644,"lon":5.40082,"is_reserved":false,"is_disabled":false,"rental_uris":{"android":"levelo://app?vid=40c2f6f1-6a22-4cf4-b92f-8918c6fa9a5c","ios":"levelo://app?vid=40c2f6f1-6a22-4cf4-b92f-8918c6fa9a5c"},"vehicle_type_id":"4","last_reported":1741727232,"current_range_meters":10800,"station_id":"ce4bh112rcd13ifvqda0","pricing_plan_id":"cebpf4jnsgd1na2vs0mg"},{"bike_id":"8ffdceb6-e598-45b3-8754-b8f7e3d7a3dd","system_id":"levelo_inurba_marseille","lat":43.2903,"lon":5.38631,"is_reserved":false,"is_disabled":false,"rental_uris":{"android":"levelo://app?vid=8ffdceb6-e598-45b3-8754-b8f7e3d7a3dd","ios":"levelo://app?vid=8ffdceb6-e598-45b3-8754-b8f7e3d7a3dd"},"vehicle_type_id":"4","last_reported":1741727232,"current_range_meters":10800,"station_id":"ce4bh4p2rcd13ifvqe0g","pricing_plan_id":"cebpf4jnsgd1na2vs0mg"},{"bike_id":"d05f76f0-b258-46f3-9be5-ba2518660a0c","system_id":"levelo_inurba_marseille","lat":43.28486,"lon":5.38427,"is_reserved":false,"is_disabled":false,"rental_uris":{"android":"levelo://app?vid=d05f76f0-b258-46f3-9be5-ba2518660a0c","ios":"levelo://app?vid=d05f76f0-b258-46f3-9be5-ba2518660a0c"},"vehicle_type_id":"4","last_reported":1741727232,"current_range_meters":10800,"station_id":"ce4bh512rcd13ifvqe3g","pricing_plan_id":"cebpf4jnsgd1na2vs0mg"},{"bike_id":"29a2eadf-a51e-4030-aaa6-2edfad4c2148","system_id":"levelo_inurba_marseille","lat":43.2846,"lon":5.35908,"is_reserved":false,"is_disabled":false,"rental_uris":{"android":"levelo://app?vid=29a2eadf-a51e-4030-aaa6-2edfad4c2148","ios":"levelo://app?vid=29a2eadf-a51e-4030-aaa6-2edfad4c2148"},"vehicle_type_id":"4","last_reported":1741727232,"current_range_meters":10800,"station_id":"ce4bhah2rcd13ifvqei0","pricing_plan_id":"cebpf4jnsgd1na2vs0mg"},{"bike_id":"20c1e358-1c7f-4912-9588-5a74dcb84090","system_id":"levelo_inurba_marseille","lat":43.25002,"lon":5.38923,"is_reserved":false,"is_disabled":false,"rental_uris":{"android":"levelo://app?vid=20c1e358-1c7f-4912-9588-5a74dcb84090","ios":"levelo://app?vid=20c1e358-1c7f-4912-9588-5a74dcb84090"},"vehicle_type_id":"4","last_reported":1741727232,"current_range_meters":10800,"station_id":"ce4bhgp2rcd13ifvqfd0","pricing_plan_id":"cebpf4jnsgd1na2vs0mg"},{"bike_id":"1e383331-4cf9-4f27-840c-e013f13c25d8","system_id":"levelo_inurba_marseille","lat":43.23192,"lon":5.3998,"is_reserved":false,"is_disabled":false,"rental_uris":{"android":"levelo://app?vid=1e383331-4cf9-4f27-840c-e013f13c25d8","ios":"levelo://app?vid=1e383331-4cf9-4f27-840c-e013f13c25d8"},"vehicle_type_id":"4","last_reported":1741727232,"current_range_meters":10800,"station_id":"ce4bhn12rcd13ifvqgqg","pricing_plan_id":"cebpf4jnsgd1na2vs0mg"},{"bike_id":"28c4d59e-e5ea-4620-a059-b9d5882a5e9f","system_id":"levelo_inurba_marseille","lat":43.24175,"lon":5.36396,"is_reserved":false,"is_disabled":false,"rental_uris":{"android":"levelo://app?vid=28c4d59e-e5ea-4620-a059-b9d5882a5e9f","ios":"levelo://app?vid=28c4d59e-e5ea-4620-a059-b9d5882a5e9f"},"vehicle_type_id":"4","last_reported":1741727232,"current_range_meters":10800,"station_id":"cpo36qri1sfpv3e86is0","pricing_plan_id":"cebpf4jnsgd1na2vs0mg"},{"bike_id":"dc59114b-72ed-42f5-a3e9-e474053a7a6d","system_id":"levelo_inurba_marseille","lat":43.29296,"lon":5.37179,"is_reserved":false,"is_disabled":false,"rental_uris":{"android":"levelo://app?vid=dc59114b-72ed-42f5-a3e9-e474053a7a6d","ios":"levelo://app?vid=dc59114b-72ed-42f5-a3e9-e474053a7a6d"},"vehicle_type_id":"4","last_reported":1741727232,"current_range_meters":11200,"station_id":"ce4bgh92rcd13ifvqb40","pricing_plan_id":"cebpf4jnsgd1na2vs0mg"},{"bike_id":"03ee20f8-e9ba-4062-94fb-9c7d4ce9c7eb","system_id":"levelo_inurba_marseille","lat":43.30435,"lon":5.38885,"is_reserved":false,"is_disabled":false,"rental_uris":{"android":"levelo://app?vid=03ee20f8-e9ba-4062-94fb-9c7d4ce9c7eb","ios":"levelo://app?vid=03ee20f8-e9ba-4062-94fb-9c7d4ce9c7eb"},"vehicle_type_id":"4","last_reported":1741727232,"current_range_meters":11200,"station_id":"ce4bgk12rcd13ifvqbi0","pricing_plan_id":"cebpf4jnsgd1na2vs0mg"},{"bike_id":"4cce856f-8450-4187-bdbb-5105bd596b02","system_id":"levelo_inurba_marseille","lat":43.28619,"lon":5.35121,"is_reserved":false,"is_disabled":false,"rental_uris":{"android":"levelo://app?vid=4cce856f-8450-4187-bdbb-5105bd596b02","ios":"levelo://app?vid=4cce856f-8450-4187-bdbb-5105bd596b02"},"vehicle_type_id":"4","last_reported":1741727232,"current_range_meters":11200,"station_id":"ce4bhch2rcd13ifvqeug","pricing_plan_id":"cebpf4jnsgd1na2vs0mg"},{"bike_id":"47fa1a31-5bb3-4522-abd9-b87b4a821178","system_id":"levelo_inurba_marseille","lat":43.27822,"lon":5.40709,"is_reserved":false,"is_disabled":false,"rental_uris":{"android":"levelo://app?vid=47fa1a31-5bb3-4522-abd9-b87b4a821178","ios":"levelo://app?vid=47fa1a31-5bb3-4522-abd9-b87b4a821178"},"vehicle_type_id":"4","last_reported":1741727232,"current_range_meters":11200,"station_id":"ce4bhnh2rcd13ifvqgtg","pricing_plan_id":"cebpf4jnsgd1na2vs0mg"},{"bike_id":"2931d81f-abb3-45b8-9224-dc3fce2fae31","system_id":"levelo_inurba_marseille","lat":43.323679,"lon":5.367632,"is_reserved":false,"is_disabled":false,"rental_uris":{"android":"levelo://app?vid=2931d81f-abb3-45b8-9224-dc3fce2fae31","ios":"levelo://app?vid=2931d81f-abb3-45b8-9224-dc3fce2fae31"},"vehicle_type_id":"4","last_reported":1741727232,"current_range_meters":11200,"station_id":"ce4bhsh2rcd13ifvqi2g","pricing_plan_id":"cebpf4jnsgd1na2vs0mg"},{"bike_id":"911410d1-afe8-40dc-a6fe-68902720787a","system_id":"levelo_inurba_marseille","lat":43.30646,"lon":5.4008,"is_reserved":false,"is_disabled":false,"rental_uris":{"android":"levelo://app?vid=911410d1-afe8-40dc-a6fe-68902720787a","ios":"levelo://app?vid=911410d1-afe8-40dc-a6fe-68902720787a"},"vehicle_type_id":"4","last_reported":1741727232,"current_range_meters":11600,"station_id":"ce4bh112rcd13ifvqda0","pricing_plan_id":"cebpf4jnsgd1na2vs0mg"},{"bike_id":"0117055b-abaa-4782-a83e-c23d24cb8a2e","system_id":"levelo_inurba_marseille","lat":43.24648,"lon":5.3891,"is_reserved":false,"is_disabled":false,"rental_uris":{"android":"levelo://app?vid=0117055b-abaa-4782-a83e-c23d24cb8a2e","ios":"levelo://app?vid=0117055b-abaa-4782-a83e-c23d24cb8a2e"},"vehicle_type_id":"4","last_reported":1741727232,"current_range_meters":11600,"station_id":"ce4bhg12rcd13ifvqf60","pricing_plan_id":"cebpf4jnsgd1na2vs0mg"},{"bike_id":"9776d519-3376-4f51-aaa3-2da63911d7cc","system_id":"levelo_inurba_marseille","lat":43.25092,"lon":5.39514,"is_reserved":false,"is_disabled":false,"rental_uris":{"android":"levelo://app?vid=9776d519-3376-4f51-aaa3-2da63911d7cc","ios":"levelo://app?vid=9776d519-3376-4f51-aaa3-2da63911d7cc"},"vehicle_type_id":"4","last_reported":1741727232,"current_range_meters":11600,"station_id":"ce4bhm12rcd13ifvqgkg","pricing_plan_id":"cebpf4jnsgd1na2vs0mg"},{"bike_id":"a5490b0d-6778-4c0c-960c-3aa0b15c8435","system_id":"levelo_inurba_marseille","lat":43.31083,"lon":5.37846,"is_reserved":false,"is_disabled":false,"rental_uris":{"android":"levelo://app?vid=a5490b0d-6778-4c0c-960c-3aa0b15c8435","ios":"levelo://app?vid=a5490b0d-6778-4c0c-960c-3aa0b15c8435"},"vehicle_type_id":"4","last_reported":1741727232,"current_range_meters":12000,"station_id":"","pricing_plan_id":"cebpf4jnsgd1na2vs0mg"},{"bike_id":"9294a26b-c088-4208-917f-c73e3c4f5f46","system_id":"levelo_inurba_marseille","lat":43.30385,"lon":5.40759,"is_reserved":false,"is_disabled":false,"rental_uris":{"android":"levelo://app?vid=9294a26b-c088-4208-917f-c73e3c4f5f46","ios":"levelo://app?vid=9294a26b-c088-4208-917f-c73e3c4f5f46"},"vehicle_type_id":"4","last_reported":1741727232,"current_range_meters":12000,"station_id":"","pricing_plan_id":"cebpf4jnsgd1na2vs0mg"},{"bike_id":"479db636-0cda-4abc-ad8c-4ce5d696aad1","system_id":"levelo_inurba_marseille","lat":43.29219,"lon":5.36079,"is_reserved":false,"is_disabled":false,"rental_uris":{"android":"levelo://app?vid=479db636-0cda-4abc-ad8c-4ce5d696aad1","ios":"levelo://app?vid=479db636-0cda-4abc-ad8c-4ce5d696aad1"},"vehicle_type_id":"4","last_reported":1741727232,"current_range_meters":12000,"station_id":"ce4bhbh2rcd13ifvqeqg","pricing_plan_id":"cebpf4jnsgd1na2vs0mg"},{"bike_id":"511a478b-16c6-4549-a89d-177a4b1ec633","system_id":"levelo_inurba_marseille","lat":43.265664,"lon":5.372927,"is_reserved":false,"is_disabled":false,"rental_uris":{"android":"levelo://app?vid=511a478b-16c6-4549-a89d-177a4b1ec633","ios":"levelo://app?vid=511a478b-16c6-4549-a89d-177a4b1ec633"},"vehicle_type_id":"4","last_reported":1741727232,"current_range_meters":12000,"station_id":"ce4bhg12rcd13ifvqf70","pricing_plan_id":"cebpf4jnsgd1na2vs0mg"},{"bike_id":"1db51981-97cb-4524-901f-28266a6ea665","system_id":"levelo_inurba_marseille","lat":43.25089,"lon":5.3953,"is_reserved":false,"is_disabled":false,"rental_uris":{"android":"levelo://app?vid=1db51981-97cb-4524-901f-28266a6ea665","ios":"levelo://app?vid=1db51981-97cb-4524-901f-28266a6ea665"},"vehicle_type_id":"4","last_reported":1741727232,"current_range_meters":12000,"station_id":"ce4bhm12rcd13ifvqgkg","pricing_plan_id":"cebpf4jnsgd1na2vs0mg"},{"bike_id":"c1fdf776-5ff6-4f38-96ad-d3bee4a7cebb","system_id":"levelo_inurba_marseille","lat":43.23137,"lon":5.43729,"is_reserved":false,"is_disabled":false,"rental_uris":{"android":"levelo://app?vid=c1fdf776-5ff6-4f38-96ad-d3bee4a7cebb","ios":"levelo://app?vid=c1fdf776-5ff6-4f38-96ad-d3bee4a7cebb"},"vehicle_type_id":"4","last_reported":1741727232,"current_range_meters":12000,"station_id":"ce4bhmp2rcd13ifvqgog","pricing_plan_id":"cebpf4jnsgd1na2vs0mg"},{"bike_id":"8dee66dd-a753-4e90-9df0-a75f60b0d66f","system_id":"levelo_inurba_marseille","lat":43.28575,"lon":5.42485,"is_reserved":false,"is_disabled":false,"rental_uris":{"android":"levelo://app?vid=8dee66dd-a753-4e90-9df0-a75f60b0d66f","ios":"levelo://app?vid=8dee66dd-a753-4e90-9df0-a75f60b0d66f"},"vehicle_type_id":"4","last_reported":1741727232,"current_range_meters":12400,"station_id":"","pricing_plan_id":"cebpf4jnsgd1na2vs0mg"},{"bike_id":"4ed08569-f31f-403d-9538-514ea77c4734","system_id":"levelo_inurba_marseille","lat":43.25113,"lon":5.40325,"is_reserved":false,"is_disabled":false,"rental_uris":{"android":"levelo://app?vid=4ed08569-f31f-403d-9538-514ea77c4734","ios":"levelo://app?vid=4ed08569-f31f-403d-9538-514ea77c4734"},"vehicle_type_id":"4","last_reported":1741727232,"current_range_meters":12800,"station_id":"ce4bhlh2rcd13ifvqgig","pricing_plan_id":"cebpf4jnsgd1na2vs0mg"},{"bike_id":"cb2e12cc-fc61-45c5-8187-32dd51aea61e","system_id":"levelo_inurba_marseille","lat":43.25083,"lon":5.3953,"is_reserved":false,"is_disabled":false,"rental_uris":{"android":"levelo://app?vid=cb2e12cc-fc61-45c5-8187-32dd51aea61e","ios":"levelo://app?vid=cb2e12cc-fc61-45c5-8187-32dd51aea61e"},"vehicle_type_id":"4","last_reported":1741727232,"current_range_meters":12800,"station_id":"ce4bhm12rcd13ifvqgkg","pricing_plan_id":"cebpf4jnsgd1na2vs0mg"},{"bike_id":"d34c486a-1f4c-4633-aedb-8d2096ade05a","system_id":"levelo_inurba_marseille","lat":43.30801,"lon":5.43524,"is_reserved":false,"is_disabled":false,"rental_uris":{"android":"levelo://app?vid=d34c486a-1f4c-4633-aedb-8d2096ade05a","ios":"levelo://app?vid=d34c486a-1f4c-4633-aedb-8d2096ade05a"},"vehicle_type_id":"4","last_reported":1741727232,"current_range_meters":12800,"station_id":"ce4bhph2rcd13ifvqheg","pricing_plan_id":"cebpf4jnsgd1na2vs0mg"},{"bike_id":"f829a819-671e-4b71-9c22-56c5f8047725","system_id":"levelo_inurba_marseille","lat":43.32365,"lon":5.36767,"is_reserved":false,"is_disabled":false,"rental_uris":{"android":"levelo://app?vid=f829a819-671e-4b71-9c22-56c5f8047725","ios":"levelo://app?vid=f829a819-671e-4b71-9c22-56c5f8047725"},"vehicle_type_id":"4","last_reported":1741727232,"current_range_meters":12800,"station_id":"ce4bhsh2rcd13ifvqi2g","pricing_plan_id":"cebpf4jnsgd1na2vs0mg"},{"bike_id":"03fcef79-f017-4d15-a10d-891c5cd96db2","system_id":"levelo_inurba_marseille","lat":43.23062,"lon":5.35486,"is_reserved":false,"is_disabled":false,"rental_uris":{"android":"levelo://app?vid=03fcef79-f017-4d15-a10d-891c5cd96db2","ios":"levelo://app?vid=03fcef79-f017-4d15-a10d-891c5cd96db2"},"vehicle_type_id":"4","last_reported":1741727232,"current_range_meters":12800,"station_id":"cpo3342slgdg3j2ifvpg","pricing_plan_id":"cebpf4jnsgd1na2vs0mg"},{"bike_id":"d4031ff3-7df8-4153-b5c5-c6dcddcb0625","system_id":"levelo_inurba_marseille","lat":43.24542,"lon":5.39554,"is_reserved":false,"is_disabled":false,"rental_uris":{"android":"levelo://app?vid=d4031ff3-7df8-4153-b5c5-c6dcddcb0625","ios":"levelo://app?vid=d4031ff3-7df8-4153-b5c5-c6dcddcb0625"},"vehicle_type_id":"4","last_reported":1741727232,"current_range_meters":13600,"station_id":"ce4bhlp2rcd13ifvqgjg","pricing_plan_id":"cebpf4jnsgd1na2vs0mg"},{"bike_id":"24956a52-0069-414c-ad2b-b044caf5b758","system_id":"levelo_inurba_marseille","lat":43.31536,"lon":5.38048,"is_reserved":false,"is_disabled":false,"rental_uris":{"android":"levelo://app?vid=24956a52-0069-414c-ad2b-b044caf5b758","ios":"levelo://app?vid=24956a52-0069-414c-ad2b-b044caf5b758"},"vehicle_type_id":"4","last_reported":1741727232,"current_range_meters":13600,"station_id":"ce4bhsp2rcd13ifvqi50","pricing_plan_id":"cebpf4jnsgd1na2vs0mg"},{"bike_id":"f64f7f97-f208-4f9e-b029-0dc19800f0e1","system_id":"levelo_inurba_marseille","lat":43.28724,"lon":5.36091,"is_reserved":false,"is_disabled":false,"rental_uris":{"android":"levelo://app?vid=f64f7f97-f208-4f9e-b029-0dc19800f0e1","ios":"levelo://app?vid=f64f7f97-f208-4f9e-b029-0dc19800f0e1"},"vehicle_type_id":"4","last_reported":1741727232,"current_range_meters":13600,"station_id":"cki0cbj6b192h4jlfktg","pricing_plan_id":"cebpf4jnsgd1na2vs0mg"},{"bike_id":"28ddcdf4-024a-4f42-80ff-fb3bac3f5f61","system_id":"levelo_inurba_marseille","lat":43.24179,"lon":5.36378,"is_reserved":false,"is_disabled":false,"rental_uris":{"android":"levelo://app?vid=28ddcdf4-024a-4f42-80ff-fb3bac3f5f61","ios":"levelo://app?vid=28ddcdf4-024a-4f42-80ff-fb3bac3f5f61"},"vehicle_type_id":"4","last_reported":1741727232,"current_range_meters":13600,"station_id":"cpo36qri1sfpv3e86is0","pricing_plan_id":"cebpf4jnsgd1na2vs0mg"},{"bike_id":"8679fefc-1bde-44f4-9f91-6230b417411b","system_id":"levelo_inurba_marseille","lat":43.31111,"lon":5.37773,"is_reserved":false,"is_disabled":false,"rental_uris":{"android":"levelo://app?vid=8679fefc-1bde-44f4-9f91-6230b417411b","ios":"levelo://app?vid=8679fefc-1bde-44f4-9f91-6230b417411b"},"vehicle_type_id":"4","last_reported":1741727232,"current_range_meters":14000,"station_id":"ce4bgt92rcd13ifvqcg0","pricing_plan_id":"cebpf4jnsgd1na2vs0mg"},{"bike_id":"92574190-5672-42af-956f-546c757a93c5","system_id":"levelo_inurba_marseille","lat":43.29205,"lon":5.39335,"is_reserved":false,"is_disabled":false,"rental_uris":{"android":"levelo://app?vid=92574190-5672-42af-956f-546c757a93c5","ios":"levelo://app?vid=92574190-5672-42af-956f-546c757a93c5"},"vehicle_type_id":"4","last_reported":1741727232,"current_range_meters":14000,"station_id":"ce4bh192rcd13ifvqdd0","pricing_plan_id":"cebpf4jnsgd1na2vs0mg"},{"bike_id":"5317488a-5edb-4d42-8bda-9a2f0e18d100","system_id":"levelo_inurba_marseille","lat":43.26248,"lon":5.40489,"is_reserved":false,"is_disabled":false,"rental_uris":{"android":"levelo://app?vid=5317488a-5edb-4d42-8bda-9a2f0e18d100","ios":"levelo://app?vid=5317488a-5edb-4d42-8bda-9a2f0e18d100"},"vehicle_type_id":"4","last_reported":1741727232,"current_range_meters":14000,"station_id":"ce4bhmh2rcd13ifvqgmg","pricing_plan_id":"cebpf4jnsgd1na2vs0mg"},{"bike_id":"90c19d0c-ef69-4351-973f-1f233f8cc14d","system_id":"levelo_inurba_marseille","lat":43.27999,"lon":5.41663,"is_reserved":false,"is_disabled":false,"rental_uris":{"android":"levelo://app?vid=90c19d0c-ef69-4351-973f-1f233f8cc14d","ios":"levelo://app?vid=90c19d0c-ef69-4351-973f-1f233f8cc14d"},"vehicle_type_id":"4","last_reported":1741727232,"current_range_meters":14000,"station_id":"ce4bho12rcd13ifvqh1g","pricing_plan_id":"cebpf4jnsgd1na2vs0mg"},{"bike_id":"ec5d08ce-934d-49b5-9a73-c20b44942d11","system_id":"levelo_inurba_marseille","lat":43.31434,"lon":5.37649,"is_reserved":false,"is_disabled":false,"rental_uris":{"android":"levelo://app?vid=ec5d08ce-934d-49b5-9a73-c20b44942d11","ios":"levelo://app?vid=ec5d08ce-934d-49b5-9a73-c20b44942d11"},"vehicle_type_id":"4","last_reported":1741727232,"current_range_meters":14400,"station_id":"","pricing_plan_id":"cebpf4jnsgd1na2vs0mg"},{"bike_id":"8bca6b52-28c0-4932-8ec1-82b13d2e0c6d","system_id":"levelo_inurba_marseille","lat":43.29257,"lon":5.37635,"is_reserved":false,"is_disabled":false,"rental_uris":{"android":"levelo://app?vid=8bca6b52-28c0-4932-8ec1-82b13d2e0c6d","ios":"levelo://app?vid=8bca6b52-28c0-4932-8ec1-82b13d2e0c6d"},"vehicle_type_id":"4","last_reported":1741727232,"current_range_meters":14400,"station_id":"ce4bgi12rcd13ifvqb80","pricing_plan_id":"cebpf4jnsgd1na2vs0mg"},{"bike_id":"0eecd69f-4814-4099-9308-41706ca678d7","system_id":"levelo_inurba_marseille","lat":43.29921,"lon":5.36505,"is_reserved":false,"is_disabled":false,"rental_uris":{"android":"levelo://app?vid=0eecd69f-4814-4099-9308-41706ca678d7","ios":"levelo://app?vid=0eecd69f-4814-4099-9308-41706ca678d7"},"vehicle_type_id":"4","last_reported":1741727232,"current_range_meters":14400,"station_id":"ce4bgm92rcd13ifvqbr0","pricing_plan_id":"cebpf4jnsgd1na2vs0mg"},{"bike_id":"e43965ac-e7ae-4bd5-83eb-e739780c4a0c","system_id":"levelo_inurba_marseille","lat":43.29868,"lon":5.39734,"is_reserved":false,"is_disabled":false,"rental_uris":{"android":"levelo://app?vid=e43965ac-e7ae-4bd5-83eb-e739780c4a0c","ios":"levelo://app?vid=e43965ac-e7ae-4bd5-83eb-e739780c4a0c"},"vehicle_type_id":"4","last_reported":1741727232,"current_range_meters":14400,"station_id":"ce4bh0h2rcd13ifvqd50","pricing_plan_id":"cebpf4jnsgd1na2vs0mg"},{"bike_id":"1ed1a68a-1459-44c6-8baf-85fcda1e78ae","system_id":"levelo_inurba_marseille","lat":43.24399,"lon":5.37053,"is_reserved":false,"is_disabled":false,"rental_uris":{"android":"levelo://app?vid=1ed1a68a-1459-44c6-8baf-85fcda1e78ae","ios":"levelo://app?vid=1ed1a68a-1459-44c6-8baf-85fcda1e78ae"},"vehicle_type_id":"4","last_reported":1741727232,"current_range_meters":14400,"station_id":"ce4bhhh2rcd13ifvqfk0","pricing_plan_id":"cebpf4jnsgd1na2vs0mg"},{"bike_id":"48a7d7f7-358a-4c38-8174-a160e865a61d","system_id":"levelo_inurba_marseille","lat":43.27842,"lon":5.40705,"is_reserved":false,"is_disabled":false,"rental_uris":{"android":"levelo://app?vid=48a7d7f7-358a-4c38-8174-a160e865a61d","ios":"levelo://app?vid=48a7d7f7-358a-4c38-8174-a160e865a61d"},"vehicle_type_id":"4","last_reported":1741727232,"current_range_meters":14400,"station_id":"ce4bhnh2rcd13ifvqgtg","pricing_plan_id":"cebpf4jnsgd1na2vs0mg"},{"bike_id":"d606a2c6-2e20-4aaf-9b4d-eb9df41334e1","system_id":"levelo_inurba_marseille","lat":43.31117,"lon":5.37752,"is_reserved":false,"is_disabled":false,"rental_uris":{"android":"levelo://app?vid=d606a2c6-2e20-4aaf-9b4d-eb9df41334e1","ios":"levelo://app?vid=d606a2c6-2e20-4aaf-9b4d-eb9df41334e1"},"vehicle_type_id":"4","last_reported":1741727232,"current_range_meters":14800,"station_id":"ce4bgt92rcd13ifvqcg0","pricing_plan_id":"cebpf4jnsgd1na2vs0mg"},{"bike_id":"ff9bb893-c65e-4520-b0fc-7663b20e53c9","system_id":"levelo_inurba_marseille","lat":43.31328,"lon":5.39723,"is_reserved":false,"is_disabled":false,"rental_uris":{"android":"levelo://app?vid=ff9bb893-c65e-4520-b0fc-7663b20e53c9","ios":"levelo://app?vid=ff9bb893-c65e-4520-b0fc-7663b20e53c9"},"vehicle_type_id":"4","last_reported":1741727232,"current_range_meters":14800,"station_id":"ce4bgvp2rcd13ifvqcu0","pricing_plan_id":"cebpf4jnsgd1na2vs0mg"},{"bike_id":"0a6985ed-b84c-4033-8e3e-05aa091718f5","system_id":"levelo_inurba_marseille","lat":43.29896,"lon":5.39707,"is_reserved":false,"is_disabled":false,"rental_uris":{"android":"levelo://app?vid=0a6985ed-b84c-4033-8e3e-05aa091718f5","ios":"levelo://app?vid=0a6985ed-b84c-4033-8e3e-05aa091718f5"},"vehicle_type_id":"4","last_reported":1741727232,"current_range_meters":14800,"station_id":"ce4bh0h2rcd13ifvqd50","pricing_plan_id":"cebpf4jnsgd1na2vs0mg"},{"bike_id":"25937fb7-9dcc-40e4-8919-d293a5121ca0","system_id":"levelo_inurba_marseille","lat":43.287189,"lon":5.37944,"is_reserved":false,"is_disabled":false,"rental_uris":{"android":"levelo://app?vid=25937fb7-9dcc-40e4-8919-d293a5121ca0","ios":"levelo://app?vid=25937fb7-9dcc-40e4-8919-d293a5121ca0"},"vehicle_type_id":"4","last_reported":1741727232,"current_range_meters":14800,"station_id":"ce4bh9p2rcd13ifvqec0","pricing_plan_id":"cebpf4jnsgd1na2vs0mg"},{"bike_id":"94b1f88e-5cc7-4943-b5f7-3365383a6319","system_id":"levelo_inurba_marseille","lat":43.2319,"lon":5.39996,"is_reserved":false,"is_disabled":false,"rental_uris":{"android":"levelo://app?vid=94b1f88e-5cc7-4943-b5f7-3365383a6319","ios":"levelo://app?vid=94b1f88e-5cc7-4943-b5f7-3365383a6319"},"vehicle_type_id":"4","last_reported":1741727232,"current_range_meters":14800,"station_id":"ce4bhn12rcd13ifvqgqg","pricing_plan_id":"cebpf4jnsgd1na2vs0mg"},{"bike_id":"057b695c-8feb-4a5c-95fd-424db90366f3","system_id":"levelo_inurba_marseille","lat":43.31475,"lon":5.37301,"is_reserved":false,"is_disabled":false,"rental_uris":{"android":"levelo://app?vid=057b695c-8feb-4a5c-95fd-424db90366f3","ios":"levelo://app?vid=057b695c-8feb-4a5c-95fd-424db90366f3"},"vehicle_type_id":"4","last_reported":1741727232,"current_range_meters":15200,"station_id":"ce4bgt12rcd13ifvqcd0","pricing_plan_id":"cebpf4jnsgd1na2vs0mg"},{"bike_id":"650759ca-b2b7-4d25-ac4d-176e3a1808d7","system_id":"levelo_inurba_marseille","lat":43.30891,"lon":5.39659,"is_reserved":false,"is_disabled":false,"rental_uris":{"android":"levelo://app?vid=650759ca-b2b7-4d25-ac4d-176e3a1808d7","ios":"levelo://app?vid=650759ca-b2b7-4d25-ac4d-176e3a1808d7"},"vehicle_type_id":"4","last_reported":1741727232,"current_range_meters":15200,"station_id":"ce4bh012rcd13ifvqcv0","pricing_plan_id":"cebpf4jnsgd1na2vs0mg"},{"bike_id":"72ef060e-701d-411b-82cc-c5cdc866782e","system_id":"levelo_inurba_marseille","lat":43.29517,"lon":5.39412,"is_reserved":false,"is_disabled":false,"rental_uris":{"android":"levelo://app?vid=72ef060e-701d-411b-82cc-c5cdc866782e","ios":"levelo://app?vid=72ef060e-701d-411b-82cc-c5cdc866782e"},"vehicle_type_id":"4","last_reported":1741727232,"current_range_meters":15200,"station_id":"ce4bh292rcd13ifvqdf0","pricing_plan_id":"cebpf4jnsgd1na2vs0mg"},{"bike_id":"73b2d74d-a7f9-40b4-a609-2ee123877142","system_id":"levelo_inurba_marseille","lat":43.311188,"lon":5.377664,"is_reserved":false,"is_disabled":false,"rental_uris":{"android":"levelo://app?vid=73b2d74d-a7f9-40b4-a609-2ee123877142","ios":"levelo://app?vid=73b2d74d-a7f9-40b4-a609-2ee123877142"},"vehicle_type_id":"4","last_reported":1741727232,"current_range_meters":15200,"station_id":"ce4bh492rcd13ifvqdvg","pricing_plan_id":"cebpf4jnsgd1na2vs0mg"},{"bike_id":"0a995a9a-6122-4f4b-b298-a8b06cbca7e2","system_id":"levelo_inurba_marseille","lat":43.25017,"lon":5.38908,"is_reserved":false,"is_disabled":false,"rental_uris":{"android":"levelo://app?vid=0a995a9a-6122-4f4b-b298-a8b06cbca7e2","ios":"levelo://app?vid=0a995a9a-6122-4f4b-b298-a8b06cbca7e2"},"vehicle_type_id":"4","last_reported":1741727232,"current_range_meters":15200,"station_id":"ce4bhgp2rcd13ifvqfd0","pricing_plan_id":"cebpf4jnsgd1na2vs0mg"},{"bike_id":"b44022d5-a3c8-45f9-9984-eaba76929c7b","system_id":"levelo_inurba_marseille","lat":43.27792,"lon":5.40714,"is_reserved":false,"is_disabled":false,"rental_uris":{"android":"levelo://app?vid=b44022d5-a3c8-45f9-9984-eaba76929c7b","ios":"levelo://app?vid=b44022d5-a3c8-45f9-9984-eaba76929c7b"},"vehicle_type_id":"4","last_reported":1741727232,"current_range_meters":15200,"station_id":"ce4bhnh2rcd13ifvqgtg","pricing_plan_id":"cebpf4jnsgd1na2vs0mg"},{"bike_id":"2f8ecfaf-2a87-4f10-80ec-10a7eb94a1da","system_id":"levelo_inurba_marseille","lat":43.31531,"lon":5.38054,"is_reserved":false,"is_disabled":false,"rental_uris":{"android":"levelo://app?vid=2f8ecfaf-2a87-4f10-80ec-10a7eb94a1da","ios":"levelo://app?vid=2f8ecfaf-2a87-4f10-80ec-10a7eb94a1da"},"vehicle_type_id":"4","last_reported":1741727232,"current_range_meters":15200,"station_id":"ce4bhsp2rcd13ifvqi50","pricing_plan_id":"cebpf4jnsgd1na2vs0mg"},{"bike_id":"45345445-a78a-493f-a730-c619602e3241","system_id":"levelo_inurba_marseille","lat":43.25609,"lon":5.38549,"is_reserved":false,"is_disabled":false,"rental_uris":{"android":"levelo://app?vid=45345445-a78a-493f-a730-c619602e3241","ios":"levelo://app?vid=45345445-a78a-493f-a730-c619602e3241"},"vehicle_type_id":"4","last_reported":1741727232,"current_range_meters":16000,"station_id":"","pricing_plan_id":"cebpf4jnsgd1na2vs0mg"},{"bike_id":"a044ba3d-a00d-453b-bcfd-5d80a86f2f81","system_id":"levelo_inurba_marseille","lat":43.29372,"lon":5.37855,"is_reserved":false,"is_disabled":false,"rental_uris":{"android":"levelo://app?vid=a044ba3d-a00d-453b-bcfd-5d80a86f2f81","ios":"levelo://app?vid=a044ba3d-a00d-453b-bcfd-5d80a86f2f81"},"vehicle_type_id":"4","last_reported":1741727232,"current_range_meters":16000,"station_id":"ce4bgjh2rcd13ifvqbf0","pricing_plan_id":"cebpf4jnsgd1na2vs0mg"},{"bike_id":"bd4f393d-c78e-4515-afb5-df2dec73c5d0","system_id":"levelo_inurba_marseille","lat":43.30559,"lon":5.36544,"is_reserved":false,"is_disabled":false,"rental_uris":{"android":"levelo://app?vid=bd4f393d-c78e-4515-afb5-df2dec73c5d0","ios":"levelo://app?vid=bd4f393d-c78e-4515-afb5-df2dec73c5d0"},"vehicle_type_id":"4","last_reported":1741727232,"current_range_meters":16000,"station_id":"ce4bgs12rcd13ifvqcag","pricing_plan_id":"cebpf4jnsgd1na2vs0mg"},{"bike_id":"401c5d34-0963-44f3-88b8-76e8a132950a","system_id":"levelo_inurba_marseille","lat":43.30252,"lon":5.40074,"is_reserved":false,"is_disabled":false,"rental_uris":{"android":"levelo://app?vid=401c5d34-0963-44f3-88b8-76e8a132950a","ios":"levelo://app?vid=401c5d34-0963-44f3-88b8-76e8a132950a"},"vehicle_type_id":"4","last_reported":1741727232,"current_range_meters":16000,"station_id":"ce4bgvh2rcd13ifvqcs0","pricing_plan_id":"cebpf4jnsgd1na2vs0mg"},{"bike_id":"185dd92f-5ca3-4784-9453-5f8185d1714c","system_id":"levelo_inurba_marseille","lat":43.31313,"lon":5.39705,"is_reserved":false,"is_disabled":false,"rental_uris":{"android":"levelo://app?vid=185dd92f-5ca3-4784-9453-5f8185d1714c","ios":"levelo://app?vid=185dd92f-5ca3-4784-9453-5f8185d1714c"},"vehicle_type_id":"4","last_reported":1741727232,"current_range_meters":16000,"station_id":"ce4bgvp2rcd13ifvqcu0","pricing_plan_id":"cebpf4jnsgd1na2vs0mg"},{"bike_id":"a6eae47d-d54f-4268-999c-afd97cccda57","system_id":"levelo_inurba_marseille","lat":43.30318,"lon":5.40444,"is_reserved":false,"is_disabled":false,"rental_uris":{"android":"levelo://app?vid=a6eae47d-d54f-4268-999c-afd97cccda57","ios":"levelo://app?vid=a6eae47d-d54f-4268-999c-afd97cccda57"},"vehicle_type_id":"4","last_reported":1741727232,"current_range_meters":16000,"station_id":"ce4bh012rcd13ifvqd10","pricing_plan_id":"cebpf4jnsgd1na2vs0mg"},{"bike_id":"8c80fec3-0ced-456e-afb4-12e117658f5c","system_id":"levelo_inurba_marseille","lat":43.29872,"lon":5.38916,"is_reserved":false,"is_disabled":false,"rental_uris":{"android":"levelo://app?vid=8c80fec3-0ced-456e-afb4-12e117658f5c","ios":"levelo://app?vid=8c80fec3-0ced-456e-afb4-12e117658f5c"},"vehicle_type_id":"4","last_reported":1741727232,"current_range_meters":16000,"station_id":"ce4bh392rcd13ifvqdl0","pricing_plan_id":"cebpf4jnsgd1na2vs0mg"},{"bike_id":"200c1668-b403-444f-a98b-38324d934d8b","system_id":"levelo_inurba_marseille","lat":43.31545,"lon":5.38043,"is_reserved":false,"is_disabled":false,"rental_uris":{"android":"levelo://app?vid=200c1668-b403-444f-a98b-38324d934d8b","ios":"levelo://app?vid=200c1668-b403-444f-a98b-38324d934d8b"},"vehicle_type_id":"4","last_reported":1741727232,"current_range_meters":16000,"station_id":"ce4bhsp2rcd13ifvqi50","pricing_plan_id":"cebpf4jnsgd1na2vs0mg"},{"bike_id":"070482fa-08e5-4c92-86a2-963e7a8b42c4","system_id":"levelo_inurba_marseille","lat":43.31075,"lon":5.38354,"is_reserved":false,"is_disabled":false,"rental_uris":{"android":"levelo://app?vid=070482fa-08e5-4c92-86a2-963e7a8b42c4","ios":"levelo://app?vid=070482fa-08e5-4c92-86a2-963e7a8b42c4"},"vehicle_type_id":"4","last_reported":1741727232,"current_range_meters":16400,"station_id":"ce4bgv92rcd13ifvqcr0","pricing_plan_id":"cebpf4jnsgd1na2vs0mg"},{"bike_id":"ad1f0874-230b-46db-a514-9d4ed6d0f5f5","system_id":"levelo_inurba_marseille","lat":43.29872,"lon":5.39751,"is_reserved":false,"is_disabled":false,"rental_uris":{"android":"levelo://app?vid=ad1f0874-230b-46db-a514-9d4ed6d0f5f5","ios":"levelo://app?vid=ad1f0874-230b-46db-a514-9d4ed6d0f5f5"},"vehicle_type_id":"4","last_reported":1741727232,"current_range_meters":16400,"station_id":"ce4bh0h2rcd13ifvqd50","pricing_plan_id":"cebpf4jnsgd1na2vs0mg"},{"bike_id":"26094f51-add7-49b6-a571-d06192a82129","system_id":"levelo_inurba_marseille","lat":43.28417,"lon":5.34983,"is_reserved":false,"is_disabled":false,"rental_uris":{"android":"levelo://app?vid=26094f51-add7-49b6-a571-d06192a82129","ios":"levelo://app?vid=26094f51-add7-49b6-a571-d06192a82129"},"vehicle_type_id":"4","last_reported":1741727232,"current_range_meters":16400,"station_id":"ce4bhbh2rcd13ifvqepg","pricing_plan_id":"cebpf4jnsgd1na2vs0mg"},{"bike_id":"d22081e9-52c1-4ded-b6da-bade3b935ab2","system_id":"levelo_inurba_marseille","lat":43.26546,"lon":5.37292,"is_reserved":false,"is_disabled":false,"rental_uris":{"android":"levelo://app?vid=d22081e9-52c1-4ded-b6da-bade3b935ab2","ios":"levelo://app?vid=d22081e9-52c1-4ded-b6da-bade3b935ab2"},"vehicle_type_id":"4","last_reported":1741727232,"current_range_meters":16400,"station_id":"ce4bhg12rcd13ifvqf70","pricing_plan_id":"cebpf4jnsgd1na2vs0mg"},{"bike_id":"507abd02-8c10-470e-b802-dadd3ef21f5c","system_id":"levelo_inurba_marseille","lat":43.28079,"lon":5.39653,"is_reserved":false,"is_disabled":false,"rental_uris":{"android":"levelo://app?vid=507abd02-8c10-470e-b802-dadd3ef21f5c","ios":"levelo://app?vid=507abd02-8c10-470e-b802-dadd3ef21f5c"},"vehicle_type_id":"4","last_reported":1741727232,"current_range_meters":16400,"station_id":"ce4bho12rcd13ifvqh2g","pricing_plan_id":"cebpf4jnsgd1na2vs0mg"},{"bike_id":"2292d452-080d-44d7-bf0a-d0e9cf6f1d25","system_id":"levelo_inurba_marseille","lat":43.28007,"lon":5.40045,"is_reserved":false,"is_disabled":false,"rental_uris":{"android":"levelo://app?vid=2292d452-080d-44d7-bf0a-d0e9cf6f1d25","ios":"levelo://app?vid=2292d452-080d-44d7-bf0a-d0e9cf6f1d25"},"vehicle_type_id":"4","last_reported":1741727232,"current_range_meters":16400,"station_id":"ce4bho92rcd13ifvqh4g","pricing_plan_id":"cebpf4jnsgd1na2vs0mg"},{"bike_id":"fb55f9d1-18dc-4569-919c-3c5a2e705317","system_id":"levelo_inurba_marseille","lat":43.32474,"lon":5.3658,"is_reserved":false,"is_disabled":false,"rental_uris":{"android":"levelo://app?vid=fb55f9d1-18dc-4569-919c-3c5a2e705317","ios":"levelo://app?vid=fb55f9d1-18dc-4569-919c-3c5a2e705317"},"vehicle_type_id":"4","last_reported":1741727232,"current_range_meters":16400,"station_id":"ce4bhs12rcd13ifvqhvg","pricing_plan_id":"cebpf4jnsgd1na2vs0mg"},{"bike_id":"5c2e61b7-1991-4d2e-a0fd-817798627942","system_id":"levelo_inurba_marseille","lat":43.29781,"lon":5.3935,"is_reserved":false,"is_disabled":false,"rental_uris":{"android":"levelo://app?vid=5c2e61b7-1991-4d2e-a0fd-817798627942","ios":"levelo://app?vid=5c2e61b7-1991-4d2e-a0fd-817798627942"},"vehicle_type_id":"4","last_reported":1741727232,"current_range_meters":16400,"station_id":"chh1huq6cuj3fo74tm60","pricing_plan_id":"cebpf4jnsgd1na2vs0mg"},{"bike_id":"8cb98100-8339-480d-872a-e2c4b7cea00c","system_id":"levelo_inurba_marseille","lat":43.28105,"lon":5.39859,"is_reserved":false,"is_disabled":false,"rental_uris":{"android":"levelo://app?vid=8cb98100-8339-480d-872a-e2c4b7cea00c","ios":"levelo://app?vid=8cb98100-8339-480d-872a-e2c4b7cea00c"},"vehicle_type_id":"4","last_reported":1741727232,"current_range_meters":16800,"station_id":"","pricing_plan_id":"cebpf4jnsgd1na2vs0mg"},{"bike_id":"d09e9aab-8889-4d1d-af52-98a214c1a858","system_id":"levelo_inurba_marseille","lat":43.29709,"lon":5.36605,"is_reserved":false,"is_disabled":false,"rental_uris":{"android":"levelo://app?vid=d09e9aab-8889-4d1d-af52-98a214c1a858","ios":"levelo://app?vid=d09e9aab-8889-4d1d-af52-98a214c1a858"},"vehicle_type_id":"4","last_reported":1741727232,"current_range_meters":16800,"station_id":"ce4bgn12rcd13ifvqbt0","pricing_plan_id":"cebpf4jnsgd1na2vs0mg"},{"bike_id":"7a989acb-a5b4-45ca-a84a-95366516cfbd","system_id":"levelo_inurba_marseille","lat":43.29527,"lon":5.39033,"is_reserved":false,"is_disabled":false,"rental_uris":{"android":"levelo://app?vid=7a989acb-a5b4-45ca-a84a-95366516cfbd","ios":"levelo://app?vid=7a989acb-a5b4-45ca-a84a-95366516cfbd"},"vehicle_type_id":"4","last_reported":1741727232,"current_range_meters":16800,"station_id":"ce4bh3p2rcd13ifvqdp0","pricing_plan_id":"cebpf4jnsgd1na2vs0mg"},{"bike_id":"e0718395-0e2e-4a7a-a474-5a05d3f79c13","system_id":"levelo_inurba_marseille","lat":43.28401,"lon":5.37512,"is_reserved":false,"is_disabled":false,"rental_uris":{"android":"levelo://app?vid=e0718395-0e2e-4a7a-a474-5a05d3f79c13","ios":"levelo://app?vid=e0718395-0e2e-4a7a-a474-5a05d3f79c13"},"vehicle_type_id":"4","last_reported":1741727232,"current_range_meters":16800,"station_id":"ce4bh412rcd13ifvqds0","pricing_plan_id":"cebpf4jnsgd1na2vs0mg"},{"bike_id":"c7ba3a1f-e796-485e-b043-dfa30283a58d","system_id":"levelo_inurba_marseille","lat":43.28454,"lon":5.35888,"is_reserved":false,"is_disabled":false,"rental_uris":{"android":"levelo://app?vid=c7ba3a1f-e796-485e-b043-dfa30283a58d","ios":"levelo://app?vid=c7ba3a1f-e796-485e-b043-dfa30283a58d"},"vehicle_type_id":"4","last_reported":1741727232,"current_range_meters":16800,"station_id":"ce4bhah2rcd13ifvqei0","pricing_plan_id":"cebpf4jnsgd1na2vs0mg"},{"bike_id":"dbdd87f1-0665-4787-a25a-7e2ff74b03ca","system_id":"levelo_inurba_marseille","lat":43.28659,"lon":5.36336,"is_reserved":false,"is_disabled":false,"rental_uris":{"android":"levelo://app?vid=dbdd87f1-0665-4787-a25a-7e2ff74b03ca","ios":"levelo://app?vid=dbdd87f1-0665-4787-a25a-7e2ff74b03ca"},"vehicle_type_id":"4","last_reported":1741727232,"current_range_meters":16800,"station_id":"ce4bhah2rcd13ifvqej0","pricing_plan_id":"cebpf4jnsgd1na2vs0mg"},{"bike_id":"7df2c3a1-7501-454d-9235-c5d451b79186","system_id":"levelo_inurba_marseille","lat":43.28932,"lon":5.36639,"is_reserved":false,"is_disabled":false,"rental_uris":{"android":"levelo://app?vid=7df2c3a1-7501-454d-9235-c5d451b79186","ios":"levelo://app?vid=7df2c3a1-7501-454d-9235-c5d451b79186"},"vehicle_type_id":"4","last_reported":1741727232,"current_range_meters":16800,"station_id":"ce4bhap2rcd13ifvqek0","pricing_plan_id":"cebpf4jnsgd1na2vs0mg"},{"bike_id":"75491172-ce32-4687-b51d-86c400ad53c1","system_id":"levelo_inurba_marseille","lat":43.28615,"lon":5.35111,"is_reserved":false,"is_disabled":false,"rental_uris":{"android":"levelo://app?vid=75491172-ce32-4687-b51d-86c400ad53c1","ios":"levelo://app?vid=75491172-ce32-4687-b51d-86c400ad53c1"},"vehicle_type_id":"4","last_reported":1741727232,"current_range_meters":16800,"station_id":"ce4bhch2rcd13ifvqeug","pricing_plan_id":"cebpf4jnsgd1na2vs0mg"},{"bike_id":"bc37931e-6cb1-4309-b727-49bc8606128d","system_id":"levelo_inurba_marseille","lat":43.25573,"lon":5.3825,"is_reserved":false,"is_disabled":false,"rental_uris":{"android":"levelo://app?vid=bc37931e-6cb1-4309-b727-49bc8606128d","ios":"levelo://app?vid=bc37931e-6cb1-4309-b727-49bc8606128d"},"vehicle_type_id":"4","last_reported":1741727232,"current_range_meters":16800,"station_id":"ce4bhih2rcd13ifvqfs0","pricing_plan_id":"cebpf4jnsgd1na2vs0mg"},{"bike_id":"a52f569b-413a-4900-8dcb-5f416180c328","system_id":"levelo_inurba_marseille","lat":43.28162,"lon":5.42648,"is_reserved":false,"is_disabled":false,"rental_uris":{"android":"levelo://app?vid=a52f569b-413a-4900-8dcb-5f416180c328","ios":"levelo://app?vid=a52f569b-413a-4900-8dcb-5f416180c328"},"vehicle_type_id":"4","last_reported":1741727232,"current_range_meters":16800,"station_id":"ce4bhnh2rcd13ifvqgug","pricing_plan_id":"cebpf4jnsgd1na2vs0mg"},{"bike_id":"5098b74d-30cd-48d2-995b-36cd20bb0411","system_id":"levelo_inurba_marseille","lat":43.27816,"lon":5.40619,"is_reserved":false,"is_disabled":false,"rental_uris":{"android":"levelo://app?vid=5098b74d-30cd-48d2-995b-36cd20bb0411","ios":"levelo://app?vid=5098b74d-30cd-48d2-995b-36cd20bb0411"},"vehicle_type_id":"4","last_reported":1741727232,"current_range_meters":17200,"station_id":"","pricing_plan_id":"cebpf4jnsgd1na2vs0mg"},{"bike_id":"4c607265-c996-4d9b-81fd-daa80dd99e32","system_id":"levelo_inurba_marseille","lat":43.28759,"lon":5.38426,"is_reserved":false,"is_disabled":false,"rental_uris":{"android":"levelo://app?vid=4c607265-c996-4d9b-81fd-daa80dd99e32","ios":"levelo://app?vid=4c607265-c996-4d9b-81fd-daa80dd99e32"},"vehicle_type_id":"4","last_reported":1741727232,"current_range_meters":17200,"station_id":"","pricing_plan_id":"cebpf4jnsgd1na2vs0mg"},{"bike_id":"e7e88df6-f1ca-46bb-bd71-ae3d4a6f7eeb","system_id":"levelo_inurba_marseille","lat":43.29944,"lon":5.37492,"is_reserved":false,"is_disabled":false,"rental_uris":{"android":"levelo://app?vid=e7e88df6-f1ca-46bb-bd71-ae3d4a6f7eeb","ios":"levelo://app?vid=e7e88df6-f1ca-46bb-bd71-ae3d4a6f7eeb"},"vehicle_type_id":"4","last_reported":1741727232,"current_range_meters":17200,"station_id":"ce4bgjh2rcd13ifvqbg0","pricing_plan_id":"cebpf4jnsgd1na2vs0mg"},{"bike_id":"febafa61-9fca-4f05-8642-7cd522524da9","system_id":"levelo_inurba_marseille","lat":43.31482,"lon":5.3726,"is_reserved":false,"is_disabled":false,"rental_uris":{"android":"levelo://app?vid=febafa61-9fca-4f05-8642-7cd522524da9","ios":"levelo://app?vid=febafa61-9fca-4f05-8642-7cd522524da9"},"vehicle_type_id":"4","last_reported":1741727232,"current_range_meters":17200,"station_id":"ce4bgt12rcd13ifvqcd0","pricing_plan_id":"cebpf4jnsgd1na2vs0mg"},{"bike_id":"034d624a-df43-4eb0-8207-b3309271b8f1","system_id":"levelo_inurba_marseille","lat":43.31323,"lon":5.39723,"is_reserved":false,"is_disabled":false,"rental_uris":{"android":"levelo://app?vid=034d624a-df43-4eb0-8207-b3309271b8f1","ios":"levelo://app?vid=034d624a-df43-4eb0-8207-b3309271b8f1"},"vehicle_type_id":"4","last_reported":1741727232,"current_range_meters":17200,"station_id":"ce4bgvp2rcd13ifvqcu0","pricing_plan_id":"cebpf4jnsgd1na2vs0mg"},{"bike_id":"8f9b40e6-3022-4d5a-81fb-521deed6b1c4","system_id":"levelo_inurba_marseille","lat":43.31348,"lon":5.39708,"is_reserved":false,"is_disabled":false,"rental_uris":{"android":"levelo://app?vid=8f9b40e6-3022-4d5a-81fb-521deed6b1c4","ios":"levelo://app?vid=8f9b40e6-3022-4d5a-81fb-521deed6b1c4"},"vehicle_type_id":"4","last_reported":1741727232,"current_range_meters":17200,"station_id":"ce4bgvp2rcd13ifvqcu0","pricing_plan_id":"cebpf4jnsgd1na2vs0mg"},{"bike_id":"f21ed247-8aac-4e46-b1ff-04c532241b5e","system_id":"levelo_inurba_marseille","lat":43.28859,"lon":5.35857,"is_reserved":false,"is_disabled":false,"rental_uris":{"android":"levelo://app?vid=f21ed247-8aac-4e46-b1ff-04c532241b5e","ios":"levelo://app?vid=f21ed247-8aac-4e46-b1ff-04c532241b5e"},"vehicle_type_id":"4","last_reported":1741727232,"current_range_meters":17200,"station_id":"ce4bhb12rcd13ifvqem0","pricing_plan_id":"cebpf4jnsgd1na2vs0mg"},{"bike_id":"d1a4bc6a-254f-475e-a802-bb168c37ebc9","system_id":"levelo_inurba_marseille","lat":43.28841,"lon":5.35866,"is_reserved":false,"is_disabled":false,"rental_uris":{"android":"levelo://app?vid=d1a4bc6a-254f-475e-a802-bb168c37ebc9","ios":"levelo://app?vid=d1a4bc6a-254f-475e-a802-bb168c37ebc9"},"vehicle_type_id":"4","last_reported":1741727232,"current_range_meters":17200,"station_id":"ce4bhb12rcd13ifvqem0","pricing_plan_id":"cebpf4jnsgd1na2vs0mg"},{"bike_id":"6788ac72-97ba-4670-850c-82f03a027689","system_id":"levelo_inurba_marseille","lat":43.25084,"lon":5.39513,"is_reserved":false,"is_disabled":false,"rental_uris":{"android":"levelo://app?vid=6788ac72-97ba-4670-850c-82f03a027689","ios":"levelo://app?vid=6788ac72-97ba-4670-850c-82f03a027689"},"vehicle_type_id":"4","last_reported":1741727232,"current_range_meters":17200,"station_id":"ce4bhm12rcd13ifvqgkg","pricing_plan_id":"cebpf4jnsgd1na2vs0mg"},{"bike_id":"47000039-4034-4ec5-a69e-eabf345d8859","system_id":"levelo_inurba_marseille","lat":43.2794,"lon":5.41033,"is_reserved":false,"is_disabled":false,"rental_uris":{"android":"levelo://app?vid=47000039-4034-4ec5-a69e-eabf345d8859","ios":"levelo://app?vid=47000039-4034-4ec5-a69e-eabf345d8859"},"vehicle_type_id":"4","last_reported":1741727232,"current_range_meters":17200,"station_id":"ce4bhnp2rcd13ifvqh0g","pricing_plan_id":"cebpf4jnsgd1na2vs0mg"},{"bike_id":"3f68a372-cf2e-46ed-acb9-c395b0b783e3","system_id":"levelo_inurba_marseille","lat":43.32293,"lon":5.38262,"is_reserved":false,"is_disabled":false,"rental_uris":{"android":"levelo://app?vid=3f68a372-cf2e-46ed-acb9-c395b0b783e3","ios":"levelo://app?vid=3f68a372-cf2e-46ed-acb9-c395b0b783e3"},"vehicle_type_id":"4","last_reported":1741727232,"current_range_meters":17200,"station_id":"ce4bhr12rcd13ifvqhqg","pricing_plan_id":"cebpf4jnsgd1na2vs0mg"},{"bike_id":"c0011298-881e-43a7-90a4-b5006ae93bf7","system_id":"levelo_inurba_marseille","lat":43.29601,"lon":5.38107,"is_reserved":false,"is_disabled":false,"rental_uris":{"android":"levelo://app?vid=c0011298-881e-43a7-90a4-b5006ae93bf7","ios":"levelo://app?vid=c0011298-881e-43a7-90a4-b5006ae93bf7"},"vehicle_type_id":"4","last_reported":1741727232,"current_range_meters":17600,"station_id":"ce4bgl12rcd13ifvqbo0","pricing_plan_id":"cebpf4jnsgd1na2vs0mg"},{"bike_id":"36b29f5f-334f-4f9c-ac09-792384643ad2","system_id":"levelo_inurba_marseille","lat":43.30877,"lon":5.39632,"is_reserved":false,"is_disabled":false,"rental_uris":{"android":"levelo://app?vid=36b29f5f-334f-4f9c-ac09-792384643ad2","ios":"levelo://app?vid=36b29f5f-334f-4f9c-ac09-792384643ad2"},"vehicle_type_id":"4","last_reported":1741727232,"current_range_meters":17600,"station_id":"ce4bh012rcd13ifvqcv0","pricing_plan_id":"cebpf4jnsgd1na2vs0mg"},{"bike_id":"92bbe369-db4e-4b7a-af92-c82de1dba373","system_id":"levelo_inurba_marseille","lat":43.29414,"lon":5.38622,"is_reserved":false,"is_disabled":false,"rental_uris":{"android":"levelo://app?vid=92bbe369-db4e-4b7a-af92-c82de1dba373","ios":"levelo://app?vid=92bbe369-db4e-4b7a-af92-c82de1dba373"},"vehicle_type_id":"4","last_reported":1741727232,"current_range_meters":17600,"station_id":"ce4bh2h2rcd13ifvqdh0","pricing_plan_id":"cebpf4jnsgd1na2vs0mg"},{"bike_id":"86394c4c-de42-4a92-abd3-69db83f47f6e","system_id":"levelo_inurba_marseille","lat":43.28705,"lon":5.3741,"is_reserved":false,"is_disabled":false,"rental_uris":{"android":"levelo://app?vid=86394c4c-de42-4a92-abd3-69db83f47f6e","ios":"levelo://app?vid=86394c4c-de42-4a92-abd3-69db83f47f6e"},"vehicle_type_id":"4","last_reported":1741727232,"current_range_meters":17600,"station_id":"ce4bh3p2rcd13ifvqdq0","pricing_plan_id":"cebpf4jnsgd1na2vs0mg"},{"bike_id":"5e36b6b8-6e77-45ed-9597-025342e46c0b","system_id":"levelo_inurba_marseille","lat":43.255,"lon":5.37642,"is_reserved":false,"is_disabled":false,"rental_uris":{"android":"levelo://app?vid=5e36b6b8-6e77-45ed-9597-025342e46c0b","ios":"levelo://app?vid=5e36b6b8-6e77-45ed-9597-025342e46c0b"},"vehicle_type_id":"4","last_reported":1741727232,"current_range_meters":17600,"station_id":"ce4bhh12rcd13ifvqff0","pricing_plan_id":"cebpf4jnsgd1na2vs0mg"},{"bike_id":"6f4c9526-e882-40d0-bbc5-c3775986ec76","system_id":"levelo_inurba_marseille","lat":43.24078,"lon":5.37764,"is_reserved":false,"is_disabled":false,"rental_uris":{"android":"levelo://app?vid=6f4c9526-e882-40d0-bbc5-c3775986ec76","ios":"levelo://app?vid=6f4c9526-e882-40d0-bbc5-c3775986ec76"},"vehicle_type_id":"4","last_reported":1741727232,"current_range_meters":17600,"station_id":"ce4bhnp2rcd13ifvqgvg","pricing_plan_id":"cebpf4jnsgd1na2vs0mg"},{"bike_id":"d3ac1ba6-6349-4d47-99e4-9f85d3ef1aa5","system_id":"levelo_inurba_marseille","lat":43.28527,"lon":5.36873,"is_reserved":false,"is_disabled":false,"rental_uris":{"android":"levelo://app?vid=d3ac1ba6-6349-4d47-99e4-9f85d3ef1aa5","ios":"levelo://app?vid=d3ac1ba6-6349-4d47-99e4-9f85d3ef1aa5"},"vehicle_type_id":"4","last_reported":1741727232,"current_range_meters":18000,"station_id":"","pricing_plan_id":"cebpf4jnsgd1na2vs0mg"},{"bike_id":"e85e7281-8ded-4f9f-9074-cd43c73f5f32","system_id":"levelo_inurba_marseille","lat":43.31304,"lon":5.37337,"is_reserved":false,"is_disabled":false,"rental_uris":{"android":"levelo://app?vid=e85e7281-8ded-4f9f-9074-cd43c73f5f32","ios":"levelo://app?vid=e85e7281-8ded-4f9f-9074-cd43c73f5f32"},"vehicle_type_id":"4","last_reported":1741727232,"current_range_meters":18000,"station_id":"","pricing_plan_id":"cebpf4jnsgd1na2vs0mg"},{"bike_id":"75b57c73-f61d-43f4-b4e7-af7a50dc2f3d","system_id":"levelo_inurba_marseille","lat":43.29874,"lon":5.38898,"is_reserved":false,"is_disabled":false,"rental_uris":{"android":"levelo://app?vid=75b57c73-f61d-43f4-b4e7-af7a50dc2f3d","ios":"levelo://app?vid=75b57c73-f61d-43f4-b4e7-af7a50dc2f3d"},"vehicle_type_id":"4","last_reported":1741727232,"current_range_meters":18000,"station_id":"ce4bh392rcd13ifvqdl0","pricing_plan_id":"cebpf4jnsgd1na2vs0mg"},{"bike_id":"eb1ba1b6-2e87-45ed-8cf3-925b9709627f","system_id":"levelo_inurba_marseille","lat":43.29353,"lon":5.39281,"is_reserved":false,"is_disabled":false,"rental_uris":{"android":"levelo://app?vid=eb1ba1b6-2e87-45ed-8cf3-925b9709627f","ios":"levelo://app?vid=eb1ba1b6-2e87-45ed-8cf3-925b9709627f"},"vehicle_type_id":"4","last_reported":1741727232,"current_range_meters":18000,"station_id":"ce4bh3p2rcd13ifvqdp0","pricing_plan_id":"cebpf4jnsgd1na2vs0mg"},{"bike_id":"5e010522-ee63-447e-9bd0-e4572fe6d490","system_id":"levelo_inurba_marseille","lat":43.29592,"lon":5.36928,"is_reserved":false,"is_disabled":false,"rental_uris":{"android":"levelo://app?vid=5e010522-ee63-447e-9bd0-e4572fe6d490","ios":"levelo://app?vid=5e010522-ee63-447e-9bd0-e4572fe6d490"},"vehicle_type_id":"4","last_reported":1741727232,"current_range_meters":18800,"station_id":"","pricing_plan_id":"cebpf4jnsgd1na2vs0mg"},{"bike_id":"de2a5748-17d6-4c95-8bde-66c2531495aa","system_id":"levelo_inurba_marseille","lat":43.29968,"lon":5.38509,"is_reserved":false,"is_disabled":false,"rental_uris":{"android":"levelo://app?vid=de2a5748-17d6-4c95-8bde-66c2531495aa","ios":"levelo://app?vid=de2a5748-17d6-4c95-8bde-66c2531495aa"},"vehicle_type_id":"4","last_reported":1741727232,"current_range_meters":18800,"station_id":"ce4bgj92rcd13ifvqbd0","pricing_plan_id":"cebpf4jnsgd1na2vs0mg"},{"bike_id":"95364a58-5a19-44ad-b0b3-2022e5243fa9","system_id":"levelo_inurba_marseille","lat":43.3043,"lon":5.39742,"is_reserved":false,"is_disabled":false,"rental_uris":{"android":"levelo://app?vid=95364a58-5a19-44ad-b0b3-2022e5243fa9","ios":"levelo://app?vid=95364a58-5a19-44ad-b0b3-2022e5243fa9"},"vehicle_type_id":"4","last_reported":1741727232,"current_range_meters":18800,"station_id":"ce4bh092rcd13ifvqd20","pricing_plan_id":"cebpf4jnsgd1na2vs0mg"},{"bike_id":"40f01558-976f-40a5-a87f-d967d7fcf512","system_id":"levelo_inurba_marseille","lat":43.29201,"lon":5.39312,"is_reserved":false,"is_disabled":false,"rental_uris":{"android":"levelo://app?vid=40f01558-976f-40a5-a87f-d967d7fcf512","ios":"levelo://app?vid=40f01558-976f-40a5-a87f-d967d7fcf512"},"vehicle_type_id":"4","last_reported":1741727232,"current_range_meters":18800,"station_id":"ce4bh192rcd13ifvqdd0","pricing_plan_id":"cebpf4jnsgd1na2vs0mg"},{"bike_id":"22216196-8d47-46b8-93e8-8b63b4d8d893","system_id":"levelo_inurba_marseille","lat":43.28452,"lon":5.35888,"is_reserved":false,"is_disabled":false,"rental_uris":{"android":"levelo://app?vid=22216196-8d47-46b8-93e8-8b63b4d8d893","ios":"levelo://app?vid=22216196-8d47-46b8-93e8-8b63b4d8d893"},"vehicle_type_id":"4","last_reported":1741727232,"current_range_meters":18800,"station_id":"ce4bhah2rcd13ifvqei0","pricing_plan_id":"cebpf4jnsgd1na2vs0mg"},{"bike_id":"9ee3b534-911c-448d-bb36-2434c5536575","system_id":"levelo_inurba_marseille","lat":43.2454,"lon":5.39535,"is_reserved":false,"is_disabled":false,"rental_uris":{"android":"levelo://app?vid=9ee3b534-911c-448d-bb36-2434c5536575","ios":"levelo://app?vid=9ee3b534-911c-448d-bb36-2434c5536575"},"vehicle_type_id":"4","last_reported":1741727232,"current_range_meters":18800,"station_id":"ce4bhlp2rcd13ifvqgjg","pricing_plan_id":"cebpf4jnsgd1na2vs0mg"},{"bike_id":"0118782e-a9be-4c57-a3c6-f989e8d3b9bf","system_id":"levelo_inurba_marseille","lat":43.24173,"lon":5.39729,"is_reserved":false,"is_disabled":false,"rental_uris":{"android":"levelo://app?vid=0118782e-a9be-4c57-a3c6-f989e8d3b9bf","ios":"levelo://app?vid=0118782e-a9be-4c57-a3c6-f989e8d3b9bf"},"vehicle_type_id":"4","last_reported":1741727232,"current_range_meters":18800,"station_id":"ce4bhn12rcd13ifvqgpg","pricing_plan_id":"cebpf4jnsgd1na2vs0mg"},{"bike_id":"b479f388-c785-4947-8169-e12f78c8d169","system_id":"levelo_inurba_marseille","lat":43.23167,"lon":5.40003,"is_reserved":false,"is_disabled":false,"rental_uris":{"android":"levelo://app?vid=b479f388-c785-4947-8169-e12f78c8d169","ios":"levelo://app?vid=b479f388-c785-4947-8169-e12f78c8d169"},"vehicle_type_id":"4","last_reported":1741727232,"current_range_meters":18800,"station_id":"ce4bhn12rcd13ifvqgqg","pricing_plan_id":"cebpf4jnsgd1na2vs0mg"},{"bike_id":"4f01afe6-a3ad-48ff-acf2-b47a05bcc407","system_id":"levelo_inurba_marseille","lat":43.32332,"lon":5.40634,"is_reserved":false,"is_disabled":false,"rental_uris":{"android":"levelo://app?vid=4f01afe6-a3ad-48ff-acf2-b47a05bcc407","ios":"levelo://app?vid=4f01afe6-a3ad-48ff-acf2-b47a05bcc407"},"vehicle_type_id":"4","last_reported":1741727232,"current_range_meters":18800,"station_id":"ce4bhq92rcd13ifvqhjg","pricing_plan_id":"cebpf4jnsgd1na2vs0mg"},{"bike_id":"ca762409-3e9b-49eb-b311-18b138aaa95f","system_id":"levelo_inurba_marseille","lat":43.3373,"lon":5.3919,"is_reserved":false,"is_disabled":false,"rental_uris":{"android":"levelo://app?vid=ca762409-3e9b-49eb-b311-18b138aaa95f","ios":"levelo://app?vid=ca762409-3e9b-49eb-b311-18b138aaa95f"},"vehicle_type_id":"4","last_reported":1741727232,"current_range_meters":18800,"station_id":"ce4bhr92rcd13ifvqhsg","pricing_plan_id":"cebpf4jnsgd1na2vs0mg"},{"bike_id":"d1235ce3-1007-4d2d-9e28-ea39398a63a8","system_id":"levelo_inurba_marseille","lat":43.232,"lon":5.35559,"is_reserved":false,"is_disabled":false,"rental_uris":{"android":"levelo://app?vid=d1235ce3-1007-4d2d-9e28-ea39398a63a8","ios":"levelo://app?vid=d1235ce3-1007-4d2d-9e28-ea39398a63a8"},"vehicle_type_id":"4","last_reported":1741727232,"current_range_meters":18800,"station_id":"ce4bhu92rcd13ifvqi70","pricing_plan_id":"cebpf4jnsgd1na2vs0mg"},{"bike_id":"bdf4b3e7-bdf2-445a-8a03-46e4164568b5","system_id":"levelo_inurba_marseille","lat":43.23055,"lon":5.35482,"is_reserved":false,"is_disabled":false,"rental_uris":{"android":"levelo://app?vid=bdf4b3e7-bdf2-445a-8a03-46e4164568b5","ios":"levelo://app?vid=bdf4b3e7-bdf2-445a-8a03-46e4164568b5"},"vehicle_type_id":"4","last_reported":1741727232,"current_range_meters":18800,"station_id":"cpo3342slgdg3j2ifvpg","pricing_plan_id":"cebpf4jnsgd1na2vs0mg"},{"bike_id":"9114de4c-4ce4-4c48-b336-ef465c16dad9","system_id":"levelo_inurba_marseille","lat":43.29533,"lon":5.38537,"is_reserved":false,"is_disabled":false,"rental_uris":{"android":"levelo://app?vid=9114de4c-4ce4-4c48-b336-ef465c16dad9","ios":"levelo://app?vid=9114de4c-4ce4-4c48-b336-ef465c16dad9"},"vehicle_type_id":"4","last_reported":1741727232,"current_range_meters":19200,"station_id":"ce4bgih2rcd13ifvqba0","pricing_plan_id":"cebpf4jnsgd1na2vs0mg"},{"bike_id":"073dd3f0-7c0f-4943-be4d-78ddfddad75b","system_id":"levelo_inurba_marseille","lat":43.29978,"lon":5.3842,"is_reserved":false,"is_disabled":false,"rental_uris":{"android":"levelo://app?vid=073dd3f0-7c0f-4943-be4d-78ddfddad75b","ios":"levelo://app?vid=073dd3f0-7c0f-4943-be4d-78ddfddad75b"},"vehicle_type_id":"4","last_reported":1741727232,"current_range_meters":19200,"station_id":"ce4bgj92rcd13ifvqbd0","pricing_plan_id":"cebpf4jnsgd1na2vs0mg"},{"bike_id":"59a7a8bd-e0fa-414a-8289-2e7b78727b4e","system_id":"levelo_inurba_marseille","lat":43.30914,"lon":5.40142,"is_reserved":false,"is_disabled":false,"rental_uris":{"android":"levelo://app?vid=59a7a8bd-e0fa-414a-8289-2e7b78727b4e","ios":"levelo://app?vid=59a7a8bd-e0fa-414a-8289-2e7b78727b4e"},"vehicle_type_id":"4","last_reported":1741727232,"current_range_meters":19200,"station_id":"ce4bgvp2rcd13ifvqct0","pricing_plan_id":"cebpf4jnsgd1na2vs0mg"},{"bike_id":"99461914-1cf4-49f8-9004-31bbab81a716","system_id":"levelo_inurba_marseille","lat":43.29535,"lon":5.39036,"is_reserved":false,"is_disabled":false,"rental_uris":{"android":"levelo://app?vid=99461914-1cf4-49f8-9004-31bbab81a716","ios":"levelo://app?vid=99461914-1cf4-49f8-9004-31bbab81a716"},"vehicle_type_id":"4","last_reported":1741727232,"current_range_meters":19200,"station_id":"ce4bh3p2rcd13ifvqdp0","pricing_plan_id":"cebpf4jnsgd1na2vs0mg"},{"bike_id":"117d65c8-8149-48b4-80a2-9fc18d0aa60c","system_id":"levelo_inurba_marseille","lat":43.287032,"lon":5.373818,"is_reserved":false,"is_disabled":false,"rental_uris":{"android":"levelo://app?vid=117d65c8-8149-48b4-80a2-9fc18d0aa60c","ios":"levelo://app?vid=117d65c8-8149-48b4-80a2-9fc18d0aa60c"},"vehicle_type_id":"4","last_reported":1741727232,"current_range_meters":19200,"station_id":"ce4bh3p2rcd13ifvqdq0","pricing_plan_id":"cebpf4jnsgd1na2vs0mg"},{"bike_id":"67651cb6-eb38-489f-8577-95647d302da8","system_id":"levelo_inurba_marseille","lat":43.284,"lon":5.37532,"is_reserved":false,"is_disabled":false,"rental_uris":{"android":"levelo://app?vid=67651cb6-eb38-489f-8577-95647d302da8","ios":"levelo://app?vid=67651cb6-eb38-489f-8577-95647d302da8"},"vehicle_type_id":"4","last_reported":1741727232,"current_range_meters":19200,"station_id":"ce4bh412rcd13ifvqds0","pricing_plan_id":"cebpf4jnsgd1na2vs0mg"},{"bike_id":"c1ad6348-8b72-4449-a9bf-7358ce8f874c","system_id":"levelo_inurba_marseille","lat":43.28038,"lon":5.36946,"is_reserved":false,"is_disabled":false,"rental_uris":{"android":"levelo://app?vid=c1ad6348-8b72-4449-a9bf-7358ce8f874c","ios":"levelo://app?vid=c1ad6348-8b72-4449-a9bf-7358ce8f874c"},"vehicle_type_id":"4","last_reported":1741727232,"current_range_meters":19200,"station_id":"ce4bha12rcd13ifvqef0","pricing_plan_id":"cebpf4jnsgd1na2vs0mg"},{"bike_id":"6f8a817b-9683-40fa-bfa4-b740fec02c70","system_id":"levelo_inurba_marseille","lat":43.25,"lon":5.38923,"is_reserved":false,"is_disabled":false,"rental_uris":{"android":"levelo://app?vid=6f8a817b-9683-40fa-bfa4-b740fec02c70","ios":"levelo://app?vid=6f8a817b-9683-40fa-bfa4-b740fec02c70"},"vehicle_type_id":"4","last_reported":1741727232,"current_range_meters":19200,"station_id":"ce4bhgp2rcd13ifvqfd0","pricing_plan_id":"cebpf4jnsgd1na2vs0mg"},{"bike_id":"037c8662-4bfe-4b17-b7d6-dd6f01f380d8","system_id":"levelo_inurba_marseille","lat":43.27841,"lon":5.39203,"is_reserved":false,"is_disabled":false,"rental_uris":{"android":"levelo://app?vid=037c8662-4bfe-4b17-b7d6-dd6f01f380d8","ios":"levelo://app?vid=037c8662-4bfe-4b17-b7d6-dd6f01f380d8"},"vehicle_type_id":"4","last_reported":1741727232,"current_range_meters":19200,"station_id":"ce4bhjp2rcd13ifvqga0","pricing_plan_id":"cebpf4jnsgd1na2vs0mg"},{"bike_id":"894adb72-eba3-4c31-be33-a34cdb918fbd","system_id":"levelo_inurba_marseille","lat":43.25704,"lon":5.41041,"is_reserved":false,"is_disabled":false,"rental_uris":{"android":"levelo://app?vid=894adb72-eba3-4c31-be33-a34cdb918fbd","ios":"levelo://app?vid=894adb72-eba3-4c31-be33-a34cdb918fbd"},"vehicle_type_id":"4","last_reported":1741727232,"current_range_meters":19200,"station_id":"ce4bhkp2rcd13ifvqgd0","pricing_plan_id":"cebpf4jnsgd1na2vs0mg"},{"bike_id":"ee4e1529-8eea-4243-9dd5-f125f2832bda","system_id":"levelo_inurba_marseille","lat":43.32351,"lon":5.40607,"is_reserved":false,"is_disabled":false,"rental_uris":{"android":"levelo://app?vid=ee4e1529-8eea-4243-9dd5-f125f2832bda","ios":"levelo://app?vid=ee4e1529-8eea-4243-9dd5-f125f2832bda"},"vehicle_type_id":"4","last_reported":1741727232,"current_range_meters":19200,"station_id":"ce4bhq92rcd13ifvqhjg","pricing_plan_id":"cebpf4jnsgd1na2vs0mg"},{"bike_id":"b5076aff-5835-4635-b4e2-aa4d23c97806","system_id":"levelo_inurba_marseille","lat":43.29625,"lon":5.38077,"is_reserved":false,"is_disabled":false,"rental_uris":{"android":"levelo://app?vid=b5076aff-5835-4635-b4e2-aa4d23c97806","ios":"levelo://app?vid=b5076aff-5835-4635-b4e2-aa4d23c97806"},"vehicle_type_id":"4","last_reported":1741727232,"current_range_meters":19600,"station_id":"ce4bgl12rcd13ifvqbo0","pricing_plan_id":"cebpf4jnsgd1na2vs0mg"},{"bike_id":"40553fcb-a61f-45e6-a77e-1d5c9691fcbb","system_id":"levelo_inurba_marseille","lat":43.29944,"lon":5.36538,"is_reserved":false,"is_disabled":false,"rental_uris":{"android":"levelo://app?vid=40553fcb-a61f-45e6-a77e-1d5c9691fcbb","ios":"levelo://app?vid=40553fcb-a61f-45e6-a77e-1d5c9691fcbb"},"vehicle_type_id":"4","last_reported":1741727232,"current_range_meters":19600,"station_id":"ce4bgm92rcd13ifvqbr0","pricing_plan_id":"cebpf4jnsgd1na2vs0mg"},{"bike_id":"d635fc4e-d0d5-48cd-9305-906594fe2b69","system_id":"levelo_inurba_marseille","lat":43.29926,"lon":5.36525,"is_reserved":false,"is_disabled":false,"rental_uris":{"android":"levelo://app?vid=d635fc4e-d0d5-48cd-9305-906594fe2b69","ios":"levelo://app?vid=d635fc4e-d0d5-48cd-9305-906594fe2b69"},"vehicle_type_id":"4","last_reported":1741727232,"current_range_meters":19600,"station_id":"ce4bgm92rcd13ifvqbr0","pricing_plan_id":"cebpf4jnsgd1na2vs0mg"},{"bike_id":"b2d842e3-e48d-4edf-bbf2-f5724d2a321d","system_id":"levelo_inurba_marseille","lat":43.30536,"lon":5.36558,"is_reserved":false,"is_disabled":false,"rental_uris":{"android":"levelo://app?vid=b2d842e3-e48d-4edf-bbf2-f5724d2a321d","ios":"levelo://app?vid=b2d842e3-e48d-4edf-bbf2-f5724d2a321d"},"vehicle_type_id":"4","last_reported":1741727232,"current_range_meters":19600,"station_id":"ce4bgs12rcd13ifvqcag","pricing_plan_id":"cebpf4jnsgd1na2vs0mg"},{"bike_id":"4ca374d9-1a47-4c63-89c4-ebda5ac91d51","system_id":"levelo_inurba_marseille","lat":43.31483,"lon":5.37305,"is_reserved":false,"is_disabled":false,"rental_uris":{"android":"levelo://app?vid=4ca374d9-1a47-4c63-89c4-ebda5ac91d51","ios":"levelo://app?vid=4ca374d9-1a47-4c63-89c4-ebda5ac91d51"},"vehicle_type_id":"4","last_reported":1741727232,"current_range_meters":19600,"station_id":"ce4bgt12rcd13ifvqcd0","pricing_plan_id":"cebpf4jnsgd1na2vs0mg"},{"bike_id":"94b30f95-19e8-4b24-809a-d279976d82ea","system_id":"levelo_inurba_marseille","lat":43.313608,"lon":5.396419,"is_reserved":false,"is_disabled":false,"rental_uris":{"android":"levelo://app?vid=94b30f95-19e8-4b24-809a-d279976d82ea","ios":"levelo://app?vid=94b30f95-19e8-4b24-809a-d279976d82ea"},"vehicle_type_id":"4","last_reported":1741727232,"current_range_meters":19600,"station_id":"ce4bgvp2rcd13ifvqcu0","pricing_plan_id":"cebpf4jnsgd1na2vs0mg"},{"bike_id":"96114f57-f074-443d-9ee4-282b0360c01e","system_id":"levelo_inurba_marseille","lat":43.287236,"lon":5.379306,"is_reserved":false,"is_disabled":false,"rental_uris":{"android":"levelo://app?vid=96114f57-f074-443d-9ee4-282b0360c01e","ios":"levelo://app?vid=96114f57-f074-443d-9ee4-282b0360c01e"},"vehicle_type_id":"4","last_reported":1741727232,"current_range_meters":19600,"station_id":"ce4bh9p2rcd13ifvqec0","pricing_plan_id":"cebpf4jnsgd1na2vs0mg"},{"bike_id":"f550acae-a478-493d-8418-eb4ab17dc323","system_id":"levelo_inurba_marseille","lat":43.2501,"lon":5.38922,"is_reserved":false,"is_disabled":false,"rental_uris":{"android":"levelo://app?vid=f550acae-a478-493d-8418-eb4ab17dc323","ios":"levelo://app?vid=f550acae-a478-493d-8418-eb4ab17dc323"},"vehicle_type_id":"4","last_reported":1741727232,"current_range_meters":19600,"station_id":"ce4bhgp2rcd13ifvqfd0","pricing_plan_id":"cebpf4jnsgd1na2vs0mg"},{"bike_id":"9751c831-7708-47fb-9ff2-8b6a1b38c4d7","system_id":"levelo_inurba_marseille","lat":43.2586,"lon":5.39907,"is_reserved":false,"is_disabled":false,"rental_uris":{"android":"levelo://app?vid=9751c831-7708-47fb-9ff2-8b6a1b38c4d7","ios":"levelo://app?vid=9751c831-7708-47fb-9ff2-8b6a1b38c4d7"},"vehicle_type_id":"4","last_reported":1741727232,"current_range_meters":19600,"station_id":"ce4bhl92rcd13ifvqghg","pricing_plan_id":"cebpf4jnsgd1na2vs0mg"},{"bike_id":"ab80de43-6498-43c3-b458-44e470a38228","system_id":"levelo_inurba_marseille","lat":43.28609,"lon":5.37069,"is_reserved":false,"is_disabled":false,"rental_uris":{"android":"levelo://app?vid=ab80de43-6498-43c3-b458-44e470a38228","ios":"levelo://app?vid=ab80de43-6498-43c3-b458-44e470a38228"},"vehicle_type_id":"4","last_reported":1741727232,"current_range_meters":19600,"station_id":"ce4bht12rcd13ifvqi60","pricing_plan_id":"cebpf4jnsgd1na2vs0mg"},{"bike_id":"8e47142e-ed90-42b4-bff6-b644ca967486","system_id":"levelo_inurba_marseille","lat":43.31236,"lon":5.36891,"is_reserved":false,"is_disabled":false,"rental_uris":{"android":"levelo://app?vid=8e47142e-ed90-42b4-bff6-b644ca967486","ios":"levelo://app?vid=8e47142e-ed90-42b4-bff6-b644ca967486"},"vehicle_type_id":"4","last_reported":1741727232,"current_range_meters":20000,"station_id":"ce4bgl92rcd13ifvqbq0","pricing_plan_id":"cebpf4jnsgd1na2vs0mg"},{"bike_id":"41e33428-4955-4272-889c-a2aef7fec7f0","system_id":"levelo_inurba_marseille","lat":43.30403,"lon":5.41315,"is_reserved":false,"is_disabled":false,"rental_uris":{"android":"levelo://app?vid=41e33428-4955-4272-889c-a2aef7fec7f0","ios":"levelo://app?vid=41e33428-4955-4272-889c-a2aef7fec7f0"},"vehicle_type_id":"4","last_reported":1741727232,"current_range_meters":20000,"station_id":"ce4bhop2rcd13ifvqh8g","pricing_plan_id":"cebpf4jnsgd1na2vs0mg"},{"bike_id":"788c2400-db4e-497c-8941-c04dc4c6a6a0","system_id":"levelo_inurba_marseille","lat":43.29711,"lon":5.36622,"is_reserved":false,"is_disabled":false,"rental_uris":{"android":"levelo://app?vid=788c2400-db4e-497c-8941-c04dc4c6a6a0","ios":"levelo://app?vid=788c2400-db4e-497c-8941-c04dc4c6a6a0"},"vehicle_type_id":"4","last_reported":1741727232,"current_range_meters":20400,"station_id":"ce4bgn12rcd13ifvqbt0","pricing_plan_id":"cebpf4jnsgd1na2vs0mg"},{"bike_id":"592d515b-34e2-4b63-8e5b-b31f77f534f1","system_id":"levelo_inurba_marseille","lat":43.29613,"lon":5.37154,"is_reserved":false,"is_disabled":false,"rental_uris":{"android":"levelo://app?vid=592d515b-34e2-4b63-8e5b-b31f77f534f1","ios":"levelo://app?vid=592d515b-34e2-4b63-8e5b-b31f77f534f1"},"vehicle_type_id":"4","last_reported":1741727232,"current_range_meters":20400,"station_id":"ce4bgnh2rcd13ifvqc0g","pricing_plan_id":"cebpf4jnsgd1na2vs0mg"},{"bike_id":"dac94281-cfb6-4a34-890d-b45636b2bad7","system_id":"levelo_inurba_marseille","lat":43.29844,"lon":5.39754,"is_reserved":false,"is_disabled":false,"rental_uris":{"android":"levelo://app?vid=dac94281-cfb6-4a34-890d-b45636b2bad7","ios":"levelo://app?vid=dac94281-cfb6-4a34-890d-b45636b2bad7"},"vehicle_type_id":"4","last_reported":1741727232,"current_range_meters":20400,"station_id":"ce4bh0h2rcd13ifvqd50","pricing_plan_id":"cebpf4jnsgd1na2vs0mg"},{"bike_id":"1695b8bd-c10e-4d8d-8845-ee404ec2bfa2","system_id":"levelo_inurba_marseille","lat":43.28709,"lon":5.37399,"is_reserved":false,"is_disabled":false,"rental_uris":{"android":"levelo://app?vid=1695b8bd-c10e-4d8d-8845-ee404ec2bfa2","ios":"levelo://app?vid=1695b8bd-c10e-4d8d-8845-ee404ec2bfa2"},"vehicle_type_id":"4","last_reported":1741727232,"current_range_meters":20400,"station_id":"ce4bh3p2rcd13ifvqdq0","pricing_plan_id":"cebpf4jnsgd1na2vs0mg"},{"bike_id":"59b6b5f1-f99a-4e59-8551-ed055f001bc2","system_id":"levelo_inurba_marseille","lat":43.28914,"lon":5.38403,"is_reserved":false,"is_disabled":false,"rental_uris":{"android":"levelo://app?vid=59b6b5f1-f99a-4e59-8551-ed055f001bc2","ios":"levelo://app?vid=59b6b5f1-f99a-4e59-8551-ed055f001bc2"},"vehicle_type_id":"4","last_reported":1741727232,"current_range_meters":20400,"station_id":"ce4bh612rcd13ifvqe6g","pricing_plan_id":"cebpf4jnsgd1na2vs0mg"},{"bike_id":"204fb882-930a-4a1e-a2a6-50ac1ca48e86","system_id":"levelo_inurba_marseille","lat":43.24657,"lon":5.38169,"is_reserved":false,"is_disabled":false,"rental_uris":{"android":"levelo://app?vid=204fb882-930a-4a1e-a2a6-50ac1ca48e86","ios":"levelo://app?vid=204fb882-930a-4a1e-a2a6-50ac1ca48e86"},"vehicle_type_id":"4","last_reported":1741727232,"current_range_meters":20400,"station_id":"ce4bhih2rcd13ifvqfr0","pricing_plan_id":"cebpf4jnsgd1na2vs0mg"},{"bike_id":"06dffc77-8928-42eb-aa1b-e6406276dfe0","system_id":"levelo_inurba_marseille","lat":43.2511,"lon":5.40324,"is_reserved":false,"is_disabled":false,"rental_uris":{"android":"levelo://app?vid=06dffc77-8928-42eb-aa1b-e6406276dfe0","ios":"levelo://app?vid=06dffc77-8928-42eb-aa1b-e6406276dfe0"},"vehicle_type_id":"4","last_reported":1741727232,"current_range_meters":20400,"station_id":"ce4bhlh2rcd13ifvqgig","pricing_plan_id":"cebpf4jnsgd1na2vs0mg"},{"bike_id":"438f1c9d-42f4-4d86-8143-f77f38d0d36c","system_id":"levelo_inurba_marseille","lat":43.2315,"lon":5.43726,"is_reserved":false,"is_disabled":false,"rental_uris":{"android":"levelo://app?vid=438f1c9d-42f4-4d86-8143-f77f38d0d36c","ios":"levelo://app?vid=438f1c9d-42f4-4d86-8143-f77f38d0d36c"},"vehicle_type_id":"4","last_reported":1741727232,"current_range_meters":20400,"station_id":"ce4bhmp2rcd13ifvqgog","pricing_plan_id":"cebpf4jnsgd1na2vs0mg"},{"bike_id":"f8ebc8f4-8e5f-428c-9ca0-2dc5e34c7a14","system_id":"levelo_inurba_marseille","lat":43.3081,"lon":5.43545,"is_reserved":false,"is_disabled":false,"rental_uris":{"android":"levelo://app?vid=f8ebc8f4-8e5f-428c-9ca0-2dc5e34c7a14","ios":"levelo://app?vid=f8ebc8f4-8e5f-428c-9ca0-2dc5e34c7a14"},"vehicle_type_id":"4","last_reported":1741727232,"current_range_meters":20400,"station_id":"ce4bhph2rcd13ifvqheg","pricing_plan_id":"cebpf4jnsgd1na2vs0mg"},{"bike_id":"fa79c586-ddc0-44f8-bcff-a30051995ba6","system_id":"levelo_inurba_marseille","lat":43.31531,"lon":5.38032,"is_reserved":false,"is_disabled":false,"rental_uris":{"android":"levelo://app?vid=fa79c586-ddc0-44f8-bcff-a30051995ba6","ios":"levelo://app?vid=fa79c586-ddc0-44f8-bcff-a30051995ba6"},"vehicle_type_id":"4","last_reported":1741727232,"current_range_meters":20400,"station_id":"ce4bhsp2rcd13ifvqi50","pricing_plan_id":"cebpf4jnsgd1na2vs0mg"},{"bike_id":"ba079713-a917-48dd-97ec-19465d42d808","system_id":"levelo_inurba_marseille","lat":43.30435,"lon":5.38889,"is_reserved":false,"is_disabled":false,"rental_uris":{"android":"levelo://app?vid=ba079713-a917-48dd-97ec-19465d42d808","ios":"levelo://app?vid=ba079713-a917-48dd-97ec-19465d42d808"},"vehicle_type_id":"4","last_reported":1741727232,"current_range_meters":20800,"station_id":"ce4bgk12rcd13ifvqbi0","pricing_plan_id":"cebpf4jnsgd1na2vs0mg"},{"bike_id":"63be09c9-e2ee-4064-a59c-6045987eb2c9","system_id":"levelo_inurba_marseille","lat":43.31326,"lon":5.39692,"is_reserved":false,"is_disabled":false,"rental_uris":{"android":"levelo://app?vid=63be09c9-e2ee-4064-a59c-6045987eb2c9","ios":"levelo://app?vid=63be09c9-e2ee-4064-a59c-6045987eb2c9"},"vehicle_type_id":"4","last_reported":1741727232,"current_range_meters":20800,"station_id":"ce4bgvp2rcd13ifvqcu0","pricing_plan_id":"cebpf4jnsgd1na2vs0mg"},{"bike_id":"aeaf2c4d-79fd-4d5a-8f4d-25b5a6575fc4","system_id":"levelo_inurba_marseille","lat":43.29883,"lon":5.39745,"is_reserved":false,"is_disabled":false,"rental_uris":{"android":"levelo://app?vid=aeaf2c4d-79fd-4d5a-8f4d-25b5a6575fc4","ios":"levelo://app?vid=aeaf2c4d-79fd-4d5a-8f4d-25b5a6575fc4"},"vehicle_type_id":"4","last_reported":1741727232,"current_range_meters":20800,"station_id":"ce4bh0h2rcd13ifvqd50","pricing_plan_id":"cebpf4jnsgd1na2vs0mg"},{"bike_id":"e05213f2-5831-4c99-9844-cafac775653d","system_id":"levelo_inurba_marseille","lat":43.29526,"lon":5.39403,"is_reserved":false,"is_disabled":false,"rental_uris":{"android":"levelo://app?vid=e05213f2-5831-4c99-9844-cafac775653d","ios":"levelo://app?vid=e05213f2-5831-4c99-9844-cafac775653d"},"vehicle_type_id":"4","last_reported":1741727232,"current_range_meters":20800,"station_id":"ce4bh292rcd13ifvqdf0","pricing_plan_id":"cebpf4jnsgd1na2vs0mg"},{"bike_id":"3e339d4b-abad-428a-816f-58964d24e1df","system_id":"levelo_inurba_marseille","lat":43.29261,"lon":5.38438,"is_reserved":false,"is_disabled":false,"rental_uris":{"android":"levelo://app?vid=3e339d4b-abad-428a-816f-58964d24e1df","ios":"levelo://app?vid=3e339d4b-abad-428a-816f-58964d24e1df"},"vehicle_type_id":"4","last_reported":1741727232,"current_range_meters":20800,"station_id":"ce4bh692rcd13ifvqea0","pricing_plan_id":"cebpf4jnsgd1na2vs0mg"},{"bike_id":"6fe60277-c189-4151-a724-baa7b0188812","system_id":"levelo_inurba_marseille","lat":43.28427,"lon":5.34995,"is_reserved":false,"is_disabled":false,"rental_uris":{"android":"levelo://app?vid=6fe60277-c189-4151-a724-baa7b0188812","ios":"levelo://app?vid=6fe60277-c189-4151-a724-baa7b0188812"},"vehicle_type_id":"4","last_reported":1741727232,"current_range_meters":20800,"station_id":"ce4bhbh2rcd13ifvqepg","pricing_plan_id":"cebpf4jnsgd1na2vs0mg"},{"bike_id":"0d569717-bba7-4150-80c2-202636a9f7b8","system_id":"levelo_inurba_marseille","lat":43.30465,"lon":5.37241,"is_reserved":false,"is_disabled":false,"rental_uris":{"android":"levelo://app?vid=0d569717-bba7-4150-80c2-202636a9f7b8","ios":"levelo://app?vid=0d569717-bba7-4150-80c2-202636a9f7b8"},"vehicle_type_id":"4","last_reported":1741727232,"current_range_meters":21600,"station_id":"","pricing_plan_id":"cebpf4jnsgd1na2vs0mg"},{"bike_id":"e87143b1-9e58-4027-910b-db66df266098","system_id":"levelo_inurba_marseille","lat":43.33768,"lon":5.37473,"is_reserved":false,"is_disabled":false,"rental_uris":{"android":"levelo://app?vid=e87143b1-9e58-4027-910b-db66df266098","ios":"levelo://app?vid=e87143b1-9e58-4027-910b-db66df266098"},"vehicle_type_id":"4","last_reported":1741727232,"current_range_meters":21600,"station_id":"","pricing_plan_id":"cebpf4jnsgd1na2vs0mg"},{"bike_id":"3f5fb6ab-70c9-4053-9048-00f87210aeb7","system_id":"levelo_inurba_marseille","lat":43.24506,"lon":5.39512,"is_reserved":false,"is_disabled":false,"rental_uris":{"android":"levelo://app?vid=3f5fb6ab-70c9-4053-9048-00f87210aeb7","ios":"levelo://app?vid=3f5fb6ab-70c9-4053-9048-00f87210aeb7"},"vehicle_type_id":"4","last_reported":1741727232,"current_range_meters":21600,"station_id":"","pricing_plan_id":"cebpf4jnsgd1na2vs0mg"},