{"last_updated":1751648950,"ttl":60,"version":"2.2","data":{"bikes":[{"bike_id":"3da29fb8-fc97-44c6-b9ac-31dd456b2fd4","system_id":"levelo_inurba_marseille","lat":43.33771,"lon":5.37424,"is_reserved":false,"is_disabled":true,"rental_uris":{"android":"levelo://app?vid=3da29fb8-fc97-44c6-b9ac-31dd456b2fd4","ios":"levelo://app?vid=3da29fb8-fc97-44c6-b9ac-31dd456b2fd4"},"vehicle_type_id":"4","last_reported":1751648950,"current_range_meters":0,"station_id":"","pricing_plan_id":"cebpf4jnsgd1na2vs0mg"},{"bike_id":"01861ad8-a8d7-4be6-816e-651927c87584","system_id":"levelo_inurba_marseille","lat":43.33751,"lon":5.37456,"is_reserved":false,"is_disabled":true,"rental_uris":{"android":"levelo://app?vid=01861ad8-a8d7-4be6-816e-651927c87584","ios":"levelo://app?vid=01861ad8-a8d7-4be6-816e-651927c87584"},"vehicle_type_id":"4","last_reported":1751648950,"current_range_meters":0,"station_id":"","pricing_plan_id":"cebpf4jnsgd1na2vs0mg"},{"bike_id":"bf258842-98b1-4a26-8d22-bfd632384292","system_id":"levelo_inurba_marseille","lat":43.27056,"lon":5.40264,"is_reserved":false,"is_disabled":true,"rental_uris":{"android":"levelo://app?vid=bf258842-98b1-4a26-8d22-bfd632384292","ios":"levelo://app?vid=bf258842-98b1-4a26-8d22-bfd632384292"},"vehicle_type_id":"4","last_reported":1751648950,"current_range_meters":0,"station_id":"","pricing_plan_id":"cebpf4jnsgd1na2vs0mg"},{"bike_id":"465d4b85-5168-4e90-b08b-cff6a6bd3077","system_id":"levelo_inurba_marseille","lat":43.29059,"lon":5.37702,"is_reserved":false,"is_disabled":true,"rental_uris":{"android":"levelo://app?vid=465d4b85-5168-4e90-b08b-cff6a6bd3077","ios":"levelo://app?vid=465d4b85-5168-4e90-b08b-cff6a6bd3077"},"vehicle_type_id":"4","last_reported":1751648950,"current_range_meters":0,"station_id":"","pricing_plan_id":"cebpf4jnsgd1na2vs0mg"},{"bike_id":"fb7eaa34-3090-467a-bc3a-a4c2c7cd510d","system_id":"levelo_inurba_marseille","lat":43.21748,"lon":5.34598,"is_reserved":false,"is_disabled":true,"rental_uris":{"android":"levelo://app?vid=fb7eaa34-3090-467a-bc3a-a4c2c7cd510d","ios":"levelo://app?vid=fb7eaa34-3090-467a-bc3a-a4c2c7cd510d"},"vehicle_type_id":"4","last_reported":1751648950,"current_range_meters":0,"station_id":"","pricing_plan_id":"cebpf4jnsgd1na2vs0mg"},{"bike_id":"a3b23b87-b76c-4a0f-9800-a9672902e886","system_id":"levelo_inurba_marseille","lat":43.29622,"lon":5.37161,"is_reserved":false,"is_disabled":true,"rental_uris":{"android":"levelo://app?vid=a3b23b87-b76c-4a0f-9800-a9672902e886","ios":"levelo://app?vid=a3b23b87-b76c-4a0f-9800-a9672902e886"},"vehicle_type_id":"4","last_reported":1751648950,"current_range_meters":0,"station_id":"ce4bgnh2rcd13ifvqc0g","pricing_plan_id":"cebpf4jnsgd1na2vs0mg"},{"bike_id":"23515362-15f1-4bb6-95f1-14ea7199c381","system_id":"levelo_inurba_marseille","lat":43.29975,"lon":5.37175,"is_reserved":false,"is_disabled":true,"rental_uris":{"android":"levelo://app?vid=23515362-15f1-4bb6-95f1-14ea7199c381","ios":"levelo://app?vid=23515362-15f1-4bb6-95f1-14ea7199c381"},"vehicle_type_id":"4","last_reported":1751648950,"current_range_meters":0,"station_id":"ce4bgr92rcd13ifvqc7g","pricing_plan_id":"cebpf4jnsgd1na2vs0mg"},{"bike_id":"af457b75-0c0e-40a4-a23b-60f219909528","system_id":"levelo_inurba_marseille","lat":43.31325,"lon":5.3969,"is_reserved":false,"is_disabled":true,"rental_uris":{"android":"levelo://app?vid=af457b75-0c0e-40a4-a23b-60f219909528","ios":"levelo://app?vid=af457b75-0c0e-40a4-a23b-60f219909528"},"vehicle_type_id":"4","last_reported":1751648950,"current_range_meters":0,"station_id":"ce4bgvp2rcd13ifvqcu0","pricing_plan_id":"cebpf4jnsgd1na2vs0mg"},{"bike_id":"d594088d-7cb9-4f95-8646-b495a2c02aa9","system_id":"levelo_inurba_marseille","lat":43.31688,"lon":5.40451,"is_reserved":false,"is_disabled":true,"rental_uris":{"android":"levelo://app?vid=d594088d-7cb9-4f95-8646-b495a2c02aa9","ios":"levelo://app?vid=d594088d-7cb9-4f95-8646-b495a2c02aa9"},"vehicle_type_id":"4","last_reported":1751648950,"current_range_meters":0,"station_id":"ce4bh012rcd13ifvqd00","pricing_plan_id":"cebpf4jnsgd1na2vs0mg"},{"bike_id":"e0273622-eef9-4296-ae2b-bb8c1e44d0cd","system_id":"levelo_inurba_marseille","lat":43.30656,"lon":5.40095,"is_reserved":false,"is_disabled":true,"rental_uris":{"android":"levelo://app?vid=e0273622-eef9-4296-ae2b-bb8c1e44d0cd","ios":"levelo://app?vid=e0273622-eef9-4296-ae2b-bb8c1e44d0cd"},"vehicle_type_id":"4","last_reported":1751648950,"current_range_meters":0,"station_id":"ce4bh112rcd13ifvqda0","pricing_plan_id":"cebpf4jnsgd1na2vs0mg"},{"bike_id":"2c19fd97-c748-45a3-84be-546c5691b9f2","system_id":"levelo_inurba_marseille","lat":43.289326,"lon":5.366346,"is_reserved":false,"is_disabled":true,"rental_uris":{"android":"levelo://app?vid=2c19fd97-c748-45a3-84be-546c5691b9f2","ios":"levelo://app?vid=2c19fd97-c748-45a3-84be-546c5691b9f2"},"vehicle_type_id":"4","last_reported":1751648950,"current_range_meters":0,"station_id":"ce4bhap2rcd13ifvqek0","pricing_plan_id":"cebpf4jnsgd1na2vs0mg"},{"bike_id":"b197b3ab-3cd7-424b-9519-1128cdf4a472","system_id":"levelo_inurba_marseille","lat":43.28935,"lon":5.3662,"is_reserved":false,"is_disabled":true,"rental_uris":{"android":"levelo://app?vid=b197b3ab-3cd7-424b-9519-1128cdf4a472","ios":"levelo://app?vid=b197b3ab-3cd7-424b-9519-1128cdf4a472"},"vehicle_type_id":"4","last_reported":1751648950,"current_range_meters":0,"station_id":"ce4bhap2rcd13ifvqek0","pricing_plan_id":"cebpf4jnsgd1na2vs0mg"},{"bike_id":"d79f694a-32fc-458a-ba3b-2b1519bbab65","system_id":"levelo_inurba_marseille","lat":43.24805,"lon":5.37454,"is_reserved":false,"is_disabled":true,"rental_uris":{"android":"levelo://app?vid=d79f694a-32fc-458a-ba3b-2b1519bbab65","ios":"levelo://app?vid=d79f694a-32fc-458a-ba3b-2b1519bbab65"},"vehicle_type_id":"4","last_reported":1751648950,"current_range_meters":0,"station_id":"ce4bhgh2rcd13ifvqfb0","pricing_plan_id":"cebpf4jnsgd1na2vs0mg"},{"bike_id":"5f2e1ccb-e063-436a-9a6a-8b37c41168f6","system_id":"levelo_inurba_marseille","lat":43.26218,"lon":5.37425,"is_reserved":false,"is_disabled":true,"rental_uris":{"android":"levelo://app?vid=5f2e1ccb-e063-436a-9a6a-8b37c41168f6","ios":"levelo://app?vid=5f2e1ccb-e063-436a-9a6a-8b37c41168f6"},"vehicle_type_id":"4","last_reported":1751648950,"current_range_meters":0,"station_id":"ce4bhgp2rcd13ifvqfc0","pricing_plan_id":"cebpf4jnsgd1na2vs0mg"},{"bike_id":"7cdb62ea-cbcb-4414-8d36-64a5eb8fb9bf","system_id":"levelo_inurba_marseille","lat":43.27206,"lon":5.39175,"is_reserved":false,"is_disabled":true,"rental_uris":{"android":"levelo://app?vid=7cdb62ea-cbcb-4414-8d36-64a5eb8fb9bf","ios":"levelo://app?vid=7cdb62ea-cbcb-4414-8d36-64a5eb8fb9bf"},"vehicle_type_id":"4","last_reported":1751648950,"current_range_meters":0,"station_id":"ce4bhhp2rcd13ifvqfm0","pricing_plan_id":"cebpf4jnsgd1na2vs0mg"},{"bike_id":"d09b7602-8875-430d-83bb-0cfd04bd97eb","system_id":"levelo_inurba_marseille","lat":43.27061,"lon":5.40248,"is_reserved":false,"is_disabled":true,"rental_uris":{"android":"levelo://app?vid=d09b7602-8875-430d-83bb-0cfd04bd97eb","ios":"levelo://app?vid=d09b7602-8875-430d-83bb-0cfd04bd97eb"},"vehicle_type_id":"4","last_reported":1751648950,"current_range_meters":0,"station_id":"ce4bhk92rcd13ifvqgc0","pricing_plan_id":"cebpf4jnsgd1na2vs0mg"},{"bike_id":"1fc5b4ed-522e-4194-aeba-e7dfabc3f950","system_id":"levelo_inurba_marseille","lat":43.24185,"lon":5.39714,"is_reserved":false,"is_disabled":true,"rental_uris":{"android":"levelo://app?vid=1fc5b4ed-522e-4194-aeba-e7dfabc3f950","ios":"levelo://app?vid=1fc5b4ed-522e-4194-aeba-e7dfabc3f950"},"vehicle_type_id":"4","last_reported":1751648950,"current_range_meters":0,"station_id":"ce4bhn12rcd13ifvqgpg","pricing_plan_id":"cebpf4jnsgd1na2vs0mg"},{"bike_id":"f3ae99f2-c5cc-4a29-b634-0cf6f2dbfb3b","system_id":"levelo_inurba_marseille","lat":43.31756,"lon":5.39015,"is_reserved":false,"is_disabled":true,"rental_uris":{"android":"levelo://app?vid=f3ae99f2-c5cc-4a29-b634-0cf6f2dbfb3b","ios":"levelo://app?vid=f3ae99f2-c5cc-4a29-b634-0cf6f2dbfb3b"},"vehicle_type_id":"4","last_reported":1751648950,"current_range_meters":0,"station_id":"ce4bhqp2rcd13ifvqhng","pricing_plan_id":"cebpf4jnsgd1na2vs0mg"},{"bike_id":"4692deda-2b78-4124-b376-5c76a5c12583","system_id":"levelo_inurba_marseille","lat":43.232,"lon":5.3555,"is_reserved":false,"is_disabled":true,"rental_uris":{"android":"levelo://app?vid=4692deda-2b78-4124-b376-5c76a5c12583","ios":"levelo://app?vid=4692deda-2b78-4124-b376-5c76a5c12583"},"vehicle_type_id":"4","last_reported":1751648950,"current_range_meters":0,"station_id":"ce4bhu92rcd13ifvqi70","pricing_plan_id":"cebpf4jnsgd1na2vs0mg"},{"bike_id":"2db7de25-6c57-447b-bff5-ea01c3753780","system_id":"levelo_inurba_marseille","lat":43.21761,"lon":5.34602,"is_reserved":false,"is_disabled":true,"rental_uris":{"android":"levelo://app?vid=2db7de25-6c57-447b-bff5-ea01c3753780","ios":"levelo://app?vid=2db7de25-6c57-447b-bff5-ea01c3753780"},"vehicle_type_id":"4","last_reported":1751648950,"current_range_meters":0,"station_id":"st_cvj6r9ubvosntc0bgbag","pricing_plan_id":"cebpf4jnsgd1na2vs0mg"},{"bike_id":"5e8830ec-34e5-4f0f-b607-434b2954d153","system_id":"levelo_inurba_marseille","lat":43.21195,"lon":5.35104,"is_reserved":false,"is_disabled":true,"rental_uris":{"android":"levelo://app?vid=5e8830ec-34e5-4f0f-b607-434b2954d153","ios":"levelo://app?vid=5e8830ec-34e5-4f0f-b607-434b2954d153"},"vehicle_type_id":"4","last_reported":1751648950,"current_range_meters":0,"station_id":"st_cvj6sg6p6f1abm77japg","pricing_plan_id":"cebpf4jnsgd1na2vs0mg"},{"bike_id":"cd2a3af2-854b-4519-92e5-1eaf70ba8a37","system_id":"levelo_inurba_marseille","lat":43.21195,"lon":5.35092,"is_reserved":false,"is_disabled":true,"rental_uris":{"android":"levelo://app?vid=cd2a3af2-854b-4519-92e5-1eaf70ba8a37","ios":"levelo://app?vid=cd2a3af2-854b-4519-92e5-1eaf70ba8a37"},"vehicle_type_id":"4","last_reported":1751648950,"current_range_meters":0,"station_id":"st_cvj6sg6p6f1abm77japg","pricing_plan_id":"cebpf4jnsgd1na2vs0mg"},{"bike_id":"02af70a9-e0a7-444c-996e-a368ab437f83","system_id":"levelo_inurba_marseille","lat":43.296834,"lon":5.373183,"is_reserved":false,"is_disabled":true,"rental_uris":{"android":"levelo://app?vid=02af70a9-e0a7-444c-996e-a368ab437f83","ios":"levelo://app?vid=02af70a9-e0a7-444c-996e-a368ab437f83"},"vehicle_type_id":"4","last_reported":1751648950,"current_range_meters":400,"station_id":"ce4bgk12rcd13ifvqbj0","pricing_plan_id":"cebpf4jnsgd1na2vs0mg"},{"bike_id":"bd960b58-5ae6-479c-b437-2ed8292d607e","system_id":"levelo_inurba_marseille","lat":43.309335,"lon":5.40138,"is_reserved":false,"is_disabled":true,"rental_uris":{"android":"levelo://app?vid=bd960b58-5ae6-479c-b437-2ed8292d607e","ios":"levelo://app?vid=bd960b58-5ae6-479c-b437-2ed8292d607e"},"vehicle_type_id":"4","last_reported":1751648950,"current_range_meters":400,"station_id":"ce4bgvp2rcd13ifvqct0","pricing_plan_id":"cebpf4jnsgd1na2vs0mg"},{"bike_id":"997a74f8-d7f2-448b-8ccb-aa684a0ff42e","system_id":"levelo_inurba_marseille","lat":43.2942,"lon":5.38613,"is_reserved":false,"is_disabled":true,"rental_uris":{"android":"levelo://app?vid=997a74f8-d7f2-448b-8ccb-aa684a0ff42e","ios":"levelo://app?vid=997a74f8-d7f2-448b-8ccb-aa684a0ff42e"},"vehicle_type_id":"4","last_reported":1751648950,"current_range_meters":400,"station_id":"ce4bh2h2rcd13ifvqdh0","pricing_plan_id":"cebpf4jnsgd1na2vs0mg"},{"bike_id":"2060d243-153b-4023-8812-390db1d638de","system_id":"levelo_inurba_marseille","lat":43.28447,"lon":5.39205,"is_reserved":false,"is_disabled":true,"rental_uris":{"android":"levelo://app?vid=2060d243-153b-4023-8812-390db1d638de","ios":"levelo://app?vid=2060d243-153b-4023-8812-390db1d638de"},"vehicle_type_id":"4","last_reported":1751648950,"current_range_meters":400,"station_id":"ce4bhoh2rcd13ifvqh5g","pricing_plan_id":"cebpf4jnsgd1na2vs0mg"},{"bike_id":"b8c88b70-b2fa-425e-b1e8-536708e6db50","system_id":"levelo_inurba_marseille","lat":43.255066,"lon":5.376474,"is_reserved":false,"is_disabled":true,"rental_uris":{"android":"levelo://app?vid=b8c88b70-b2fa-425e-b1e8-536708e6db50","ios":"levelo://app?vid=b8c88b70-b2fa-425e-b1e8-536708e6db50"},"vehicle_type_id":"4","last_reported":1751648950,"current_range_meters":800,"station_id":"ce4bhh12rcd13ifvqff0","pricing_plan_id":"cebpf4jnsgd1na2vs0mg"},{"bike_id":"cee0b5b6-9b90-457a-85f4-540287a23b84","system_id":"levelo_inurba_marseille","lat":43.21191,"lon":5.35071,"is_reserved":false,"is_disabled":true,"rental_uris":{"android":"levelo://app?vid=cee0b5b6-9b90-457a-85f4-540287a23b84","ios":"levelo://app?vid=cee0b5b6-9b90-457a-85f4-540287a23b84"},"vehicle_type_id":"4","last_reported":1751648950,"current_range_meters":800,"station_id":"st_cvj6sg6p6f1abm77japg","pricing_plan_id":"cebpf4jnsgd1na2vs0mg"},{"bike_id":"d2f14b21-4ffb-417d-9ea0-04caddf61397","system_id":"levelo_inurba_marseille","lat":43.301249,"lon":5.398613,"is_reserved":false,"is_disabled":false,"rental_uris":{"android":"levelo://app?vid=d2f14b21-4ffb-417d-9ea0-04caddf61397","ios":"levelo://app?vid=d2f14b21-4ffb-417d-9ea0-04caddf61397"},"vehicle_type_id":"4","last_reported":1751648950,"current_range_meters":1200,"station_id":"ce4bh0h2rcd13ifvqd40","pricing_plan_id":"cebpf4jnsgd1na2vs0mg"},{"bike_id":"34c6e3d0-b005-424f-a0a7-52f9f8bd654f","system_id":"levelo_inurba_marseille","lat":43.23622,"lon":5.36207,"is_reserved":false,"is_disabled":true,"rental_uris":{"android":"levelo://app?vid=34c6e3d0-b005-424f-a0a7-52f9f8bd654f","ios":"levelo://app?vid=34c6e3d0-b005-424f-a0a7-52f9f8bd654f"},"vehicle_type_id":"4","last_reported":1751648950,"current_range_meters":1600,"station_id":"","pricing_plan_id":"cebpf4jnsgd1na2vs0mg"},{"bike_id":"818ee98d-d12d-46ac-b486-7b7e2e7631f8","system_id":"levelo_inurba_marseille","lat":43.29709,"lon":5.36626,"is_reserved":false,"is_disabled":true,"rental_uris":{"android":"levelo://app?vid=818ee98d-d12d-46ac-b486-7b7e2e7631f8","ios":"levelo://app?vid=818ee98d-d12d-46ac-b486-7b7e2e7631f8"},"vehicle_type_id":"4","last_reported":1751648950,"current_range_meters":1600,"station_id":"ce4bgn12rcd13ifvqbt0","pricing_plan_id":"cebpf4jnsgd1na2vs0mg"},{"bike_id":"8d6764a4-79c4-4cb4-b9b1-6398174a6c8f","system_id":"levelo_inurba_marseille","lat":43.26206,"lon":5.37447,"is_reserved":false,"is_disabled":true,"rental_uris":{"android":"levelo://app?vid=8d6764a4-79c4-4cb4-b9b1-6398174a6c8f","ios":"levelo://app?vid=8d6764a4-79c4-4cb4-b9b1-6398174a6c8f"},"vehicle_type_id":"4","last_reported":1751648950,"current_range_meters":1600,"station_id":"ce4bhgp2rcd13ifvqfc0","pricing_plan_id":"cebpf4jnsgd1na2vs0mg"},{"bike_id":"aab29586-1572-4b1d-b2a8-fce9ae695674","system_id":"levelo_inurba_marseille","lat":43.25495,"lon":5.37647,"is_reserved":false,"is_disabled":true,"rental_uris":{"android":"levelo://app?vid=aab29586-1572-4b1d-b2a8-fce9ae695674","ios":"levelo://app?vid=aab29586-1572-4b1d-b2a8-fce9ae695674"},"vehicle_type_id":"4","last_reported":1751648950,"current_range_meters":1600,"station_id":"ce4bhh12rcd13ifvqff0","pricing_plan_id":"cebpf4jnsgd1na2vs0mg"},{"bike_id":"8a23650d-5983-4bea-9bcc-dd0a38765ddf","system_id":"levelo_inurba_marseille","lat":43.240735,"lon":5.377619,"is_reserved":false,"is_disabled":true,"rental_uris":{"android":"levelo://app?vid=8a23650d-5983-4bea-9bcc-dd0a38765ddf","ios":"levelo://app?vid=8a23650d-5983-4bea-9bcc-dd0a38765ddf"},"vehicle_type_id":"4","last_reported":1751648950,"current_range_meters":1600,"station_id":"ce4bhnp2rcd13ifvqgvg","pricing_plan_id":"cebpf4jnsgd1na2vs0mg"},{"bike_id":"670151f5-a594-4f64-ba9d-f122921d0a2e","system_id":"levelo_inurba_marseille","lat":43.31482,"lon":5.37308,"is_reserved":false,"is_disabled":true,"rental_uris":{"android":"levelo://app?vid=670151f5-a594-4f64-ba9d-f122921d0a2e","ios":"levelo://app?vid=670151f5-a594-4f64-ba9d-f122921d0a2e"},"vehicle_type_id":"4","last_reported":1751648950,"current_range_meters":2000,"station_id":"ce4bgt12rcd13ifvqcd0","pricing_plan_id":"cebpf4jnsgd1na2vs0mg"},{"bike_id":"fc3aa462-6fa2-4f14-b4cc-c2d228875de0","system_id":"levelo_inurba_marseille","lat":43.31117,"lon":5.37781,"is_reserved":false,"is_disabled":true,"rental_uris":{"android":"levelo://app?vid=fc3aa462-6fa2-4f14-b4cc-c2d228875de0","ios":"levelo://app?vid=fc3aa462-6fa2-4f14-b4cc-c2d228875de0"},"vehicle_type_id":"4","last_reported":1751648950,"current_range_meters":2000,"station_id":"ce4bgt92rcd13ifvqcg0","pricing_plan_id":"cebpf4jnsgd1na2vs0mg"},{"bike_id":"7de9cad8-a850-473b-8544-de4a07bfad19","system_id":"levelo_inurba_marseille","lat":43.31324,"lon":5.39694,"is_reserved":false,"is_disabled":true,"rental_uris":{"android":"levelo://app?vid=7de9cad8-a850-473b-8544-de4a07bfad19","ios":"levelo://app?vid=7de9cad8-a850-473b-8544-de4a07bfad19"},"vehicle_type_id":"4","last_reported":1751648950,"current_range_meters":2000,"station_id":"ce4bgvp2rcd13ifvqcu0","pricing_plan_id":"cebpf4jnsgd1na2vs0mg"},{"bike_id":"479dd1a2-ded8-40b2-862c-a31efb88b563","system_id":"levelo_inurba_marseille","lat":43.29418,"lon":5.38614,"is_reserved":false,"is_disabled":true,"rental_uris":{"android":"levelo://app?vid=479dd1a2-ded8-40b2-862c-a31efb88b563","ios":"levelo://app?vid=479dd1a2-ded8-40b2-862c-a31efb88b563"},"vehicle_type_id":"4","last_reported":1751648950,"current_range_meters":2000,"station_id":"ce4bh2h2rcd13ifvqdh0","pricing_plan_id":"cebpf4jnsgd1na2vs0mg"},{"bike_id":"3cd463f1-3dba-4337-8f0b-ba684cf972fa","system_id":"levelo_inurba_marseille","lat":43.29315,"lon":5.37184,"is_reserved":false,"is_disabled":false,"rental_uris":{"android":"levelo://app?vid=3cd463f1-3dba-4337-8f0b-ba684cf972fa","ios":"levelo://app?vid=3cd463f1-3dba-4337-8f0b-ba684cf972fa"},"vehicle_type_id":"4","last_reported":1751648950,"current_range_meters":2800,"station_id":"ce4bgh92rcd13ifvqb40","pricing_plan_id":"cebpf4jnsgd1na2vs0mg"},{"bike_id":"dce5458e-0fba-47cf-9ca1-68de2f82f00e","system_id":"levelo_inurba_marseille","lat":43.297331,"lon":5.377152,"is_reserved":false,"is_disabled":false,"rental_uris":{"android":"levelo://app?vid=dce5458e-0fba-47cf-9ca1-68de2f82f00e","ios":"levelo://app?vid=dce5458e-0fba-47cf-9ca1-68de2f82f00e"},"vehicle_type_id":"4","last_reported":1751648950,"current_range_meters":2800,"station_id":"ce4bgkh2rcd13ifvqbl0","pricing_plan_id":"cebpf4jnsgd1na2vs0mg"},{"bike_id":"e6fd559f-6f85-43d4-80f0-7add026015de","system_id":"levelo_inurba_marseille","lat":43.3055,"lon":5.3656,"is_reserved":false,"is_disabled":false,"rental_uris":{"android":"levelo://app?vid=e6fd559f-6f85-43d4-80f0-7add026015de","ios":"levelo://app?vid=e6fd559f-6f85-43d4-80f0-7add026015de"},"vehicle_type_id":"4","last_reported":1751648950,"current_range_meters":2800,"station_id":"ce4bgs12rcd13ifvqcag","pricing_plan_id":"cebpf4jnsgd1na2vs0mg"},{"bike_id":"28cfa4b4-816b-4f72-a78c-93bd744445f5","system_id":"levelo_inurba_marseille","lat":43.30637,"lon":5.40098,"is_reserved":false,"is_disabled":false,"rental_uris":{"android":"levelo://app?vid=28cfa4b4-816b-4f72-a78c-93bd744445f5","ios":"levelo://app?vid=28cfa4b4-816b-4f72-a78c-93bd744445f5"},"vehicle_type_id":"4","last_reported":1751648950,"current_range_meters":2800,"station_id":"ce4bh112rcd13ifvqda0","pricing_plan_id":"cebpf4jnsgd1na2vs0mg"},{"bike_id":"428efd98-c293-4c13-9266-f5f35b946812","system_id":"levelo_inurba_marseille","lat":43.29262,"lon":5.38436,"is_reserved":false,"is_disabled":false,"rental_uris":{"android":"levelo://app?vid=428efd98-c293-4c13-9266-f5f35b946812","ios":"levelo://app?vid=428efd98-c293-4c13-9266-f5f35b946812"},"vehicle_type_id":"4","last_reported":1751648950,"current_range_meters":2800,"station_id":"ce4bh692rcd13ifvqea0","pricing_plan_id":"cebpf4jnsgd1na2vs0mg"},{"bike_id":"0296d384-798d-474a-875a-65b884f9cf5f","system_id":"levelo_inurba_marseille","lat":43.26229,"lon":5.40448,"is_reserved":false,"is_disabled":false,"rental_uris":{"android":"levelo://app?vid=0296d384-798d-474a-875a-65b884f9cf5f","ios":"levelo://app?vid=0296d384-798d-474a-875a-65b884f9cf5f"},"vehicle_type_id":"4","last_reported":1751648950,"current_range_meters":2800,"station_id":"ce4bhmh2rcd13ifvqgmg","pricing_plan_id":"cebpf4jnsgd1na2vs0mg"},{"bike_id":"59344d6a-3485-422d-8c91-5da1b565a735","system_id":"levelo_inurba_marseille","lat":43.29059,"lon":5.37157,"is_reserved":false,"is_disabled":false,"rental_uris":{"android":"levelo://app?vid=59344d6a-3485-422d-8c91-5da1b565a735","ios":"levelo://app?vid=59344d6a-3485-422d-8c91-5da1b565a735"},"vehicle_type_id":"4","last_reported":1751648950,"current_range_meters":3600,"station_id":"ce4bh5p2rcd13ifvqe4g","pricing_plan_id":"cebpf4jnsgd1na2vs0mg"},{"bike_id":"11e7b8be-6254-46c8-a705-c6941c346d56","system_id":"levelo_inurba_marseille","lat":43.30145,"lon":5.37731,"is_reserved":false,"is_disabled":false,"rental_uris":{"android":"levelo://app?vid=11e7b8be-6254-46c8-a705-c6941c346d56","ios":"levelo://app?vid=11e7b8be-6254-46c8-a705-c6941c346d56"},"vehicle_type_id":"4","last_reported":1751648950,"current_range_meters":4000,"station_id":"","pricing_plan_id":"cebpf4jnsgd1na2vs0mg"},{"bike_id":"5e690d90-830d-47e9-96a5-96ac1f91acc1","system_id":"levelo_inurba_marseille","lat":43.2984,"lon":5.36265,"is_reserved":false,"is_disabled":false,"rental_uris":{"android":"levelo://app?vid=5e690d90-830d-47e9-96a5-96ac1f91acc1","ios":"levelo://app?vid=5e690d90-830d-47e9-96a5-96ac1f91acc1"},"vehicle_type_id":"4","last_reported":1751648950,"current_range_meters":4000,"station_id":"ce4bgpp2rcd13ifvqc3g","pricing_plan_id":"cebpf4jnsgd1na2vs0mg"},{"bike_id":"517a72ad-be63-4873-8f3f-1a328c7560a0","system_id":"levelo_inurba_marseille","lat":43.30786,"lon":5.37646,"is_reserved":false,"is_disabled":false,"rental_uris":{"android":"levelo://app?vid=517a72ad-be63-4873-8f3f-1a328c7560a0","ios":"levelo://app?vid=517a72ad-be63-4873-8f3f-1a328c7560a0"},"vehicle_type_id":"4","last_reported":1751648950,"current_range_meters":4000,"station_id":"ce4bgv92rcd13ifvqcq0","pricing_plan_id":"cebpf4jnsgd1na2vs0mg"},{"bike_id":"c1bb2193-9676-492c-97d7-3b93f2ec50f0","system_id":"levelo_inurba_marseille","lat":43.27374,"lon":5.36263,"is_reserved":false,"is_disabled":false,"rental_uris":{"android":"levelo://app?vid=c1bb2193-9676-492c-97d7-3b93f2ec50f0","ios":"levelo://app?vid=c1bb2193-9676-492c-97d7-3b93f2ec50f0"},"vehicle_type_id":"4","last_reported":1751648950,"current_range_meters":4000,"station_id":"ce4bhbh2rcd13ifvqeo0","pricing_plan_id":"cebpf4jnsgd1na2vs0mg"},{"bike_id":"b51adc48-f69a-4139-a813-6db4ec82cff2","system_id":"levelo_inurba_marseille","lat":43.24807,"lon":5.37458,"is_reserved":false,"is_disabled":false,"rental_uris":{"android":"levelo://app?vid=b51adc48-f69a-4139-a813-6db4ec82cff2","ios":"levelo://app?vid=b51adc48-f69a-4139-a813-6db4ec82cff2"},"vehicle_type_id":"4","last_reported":1751648950,"current_range_meters":4000,"station_id":"ce4bhgh2rcd13ifvqfb0","pricing_plan_id":"cebpf4jnsgd1na2vs0mg"},{"bike_id":"c3ae91a3-84a1-49e1-b302-b2dd0c68bce6","system_id":"levelo_inurba_marseille","lat":43.28318,"lon":5.43232,"is_reserved":false,"is_disabled":false,"rental_uris":{"android":"levelo://app?vid=c3ae91a3-84a1-49e1-b302-b2dd0c68bce6","ios":"levelo://app?vid=c3ae91a3-84a1-49e1-b302-b2dd0c68bce6"},"vehicle_type_id":"4","last_reported":1751648950,"current_range_meters":4400,"station_id":"","pricing_plan_id":"cebpf4jnsgd1na2vs0mg"},{"bike_id":"bd5a52e6-faf6-44e0-acc6-b111a2253248","system_id":"levelo_inurba_marseille","lat":43.27176,"lon":5.40996,"is_reserved":false,"is_disabled":false,"rental_uris":{"android":"levelo://app?vid=bd5a52e6-faf6-44e0-acc6-b111a2253248","ios":"levelo://app?vid=bd5a52e6-faf6-44e0-acc6-b111a2253248"},"vehicle_type_id":"4","last_reported":1751648950,"current_range_meters":4800,"station_id":"ce4bhl12rcd13ifvqgf0","pricing_plan_id":"cebpf4jnsgd1na2vs0mg"},{"bike_id":"8afa7640-ebe8-4025-983a-c83f3912a2dd","system_id":"levelo_inurba_marseille","lat":43.21188,"lon":5.35075,"is_reserved":false,"is_disabled":false,"rental_uris":{"android":"levelo://app?vid=8afa7640-ebe8-4025-983a-c83f3912a2dd","ios":"levelo://app?vid=8afa7640-ebe8-4025-983a-c83f3912a2dd"},"vehicle_type_id":"4","last_reported":1751648950,"current_range_meters":4800,"station_id":"st_cvj6sg6p6f1abm77japg","pricing_plan_id":"cebpf4jnsgd1na2vs0mg"},{"bike_id":"e26ba497-efc7-4420-b8c5-9fa5e27f2ce4","system_id":"levelo_inurba_marseille","lat":43.31347,"lon":5.37068,"is_reserved":false,"is_disabled":false,"rental_uris":{"android":"levelo://app?vid=e26ba497-efc7-4420-b8c5-9fa5e27f2ce4","ios":"levelo://app?vid=e26ba497-efc7-4420-b8c5-9fa5e27f2ce4"},"vehicle_type_id":"4","last_reported":1751648950,"current_range_meters":5600,"station_id":"","pricing_plan_id":"cebpf4jnsgd1na2vs0mg"},{"bike_id":"d1374bb8-e0a9-451b-a404-e2351e88e221","system_id":"levelo_inurba_marseille","lat":43.28269,"lon":5.35063,"is_reserved":false,"is_disabled":false,"rental_uris":{"android":"levelo://app?vid=d1374bb8-e0a9-451b-a404-e2351e88e221","ios":"levelo://app?vid=d1374bb8-e0a9-451b-a404-e2351e88e221"},"vehicle_type_id":"4","last_reported":1751648950,"current_range_meters":5600,"station_id":"ce4bhbp2rcd13ifvqerg","pricing_plan_id":"cebpf4jnsgd1na2vs0mg"},{"bike_id":"a1907a94-9cb1-4ba4-bbbc-e35852fceea3","system_id":"levelo_inurba_marseille","lat":43.27547,"lon":5.38425,"is_reserved":false,"is_disabled":true,"rental_uris":{"android":"levelo://app?vid=a1907a94-9cb1-4ba4-bbbc-e35852fceea3","ios":"levelo://app?vid=a1907a94-9cb1-4ba4-bbbc-e35852fceea3"},"vehicle_type_id":"4","last_reported":1751648950,"current_range_meters":5600,"station_id":"ce4bhh92rcd13ifvqfi0","pricing_plan_id":"cebpf4jnsgd1na2vs0mg"},{"bike_id":"2711469c-fe4d-4051-9cd6-64332f95042a","system_id":"levelo_inurba_marseille","lat":43.31219,"lon":5.36835,"is_reserved":false,"is_disabled":false,"rental_uris":{"android":"levelo://app?vid=2711469c-fe4d-4051-9cd6-64332f95042a","ios":"levelo://app?vid=2711469c-fe4d-4051-9cd6-64332f95042a"},"vehicle_type_id":"4","last_reported":1751648950,"current_range_meters":6000,"station_id":"ce4bgl92rcd13ifvqbq0","pricing_plan_id":"cebpf4jnsgd1na2vs0mg"},{"bike_id":"e325867a-baf3-4a27-8afd-c85835e7593c","system_id":"levelo_inurba_marseille","lat":43.28032,"lon":5.36951,"is_reserved":false,"is_disabled":false,"rental_uris":{"android":"levelo://app?vid=e325867a-baf3-4a27-8afd-c85835e7593c","ios":"levelo://app?vid=e325867a-baf3-4a27-8afd-c85835e7593c"},"vehicle_type_id":"4","last_reported":1751648950,"current_range_meters":6000,"station_id":"ce4bha12rcd13ifvqef0","pricing_plan_id":"cebpf4jnsgd1na2vs0mg"},{"bike_id":"1a0e72f8-f6b2-4735-a74e-2c93173d2e3f","system_id":"levelo_inurba_marseille","lat":43.28624,"lon":5.35099,"is_reserved":false,"is_disabled":false,"rental_uris":{"android":"levelo://app?vid=1a0e72f8-f6b2-4735-a74e-2c93173d2e3f","ios":"levelo://app?vid=1a0e72f8-f6b2-4735-a74e-2c93173d2e3f"},"vehicle_type_id":"4","last_reported":1751648950,"current_range_meters":6000,"station_id":"ce4bhch2rcd13ifvqeug","pricing_plan_id":"cebpf4jnsgd1na2vs0mg"},{"bike_id":"682cdb9b-84c9-4539-8b22-8f6ac6b16532","system_id":"levelo_inurba_marseille","lat":43.2791,"lon":5.38012,"is_reserved":false,"is_disabled":false,"rental_uris":{"android":"levelo://app?vid=682cdb9b-84c9-4539-8b22-8f6ac6b16532","ios":"levelo://app?vid=682cdb9b-84c9-4539-8b22-8f6ac6b16532"},"vehicle_type_id":"4","last_reported":1751648950,"current_range_meters":6000,"station_id":"ce4bhf92rcd13ifvqf50","pricing_plan_id":"cebpf4jnsgd1na2vs0mg"},{"bike_id":"daeee421-ead9-482e-809d-b9f73a66c5e1","system_id":"levelo_inurba_marseille","lat":43.27569,"lon":5.38409,"is_reserved":false,"is_disabled":false,"rental_uris":{"android":"levelo://app?vid=daeee421-ead9-482e-809d-b9f73a66c5e1","ios":"levelo://app?vid=daeee421-ead9-482e-809d-b9f73a66c5e1"},"vehicle_type_id":"4","last_reported":1751648950,"current_range_meters":6000,"station_id":"ce4bhh92rcd13ifvqfi0","pricing_plan_id":"cebpf4jnsgd1na2vs0mg"},{"bike_id":"430293cf-5032-4974-bb40-66a721d88cf2","system_id":"levelo_inurba_marseille","lat":43.29581,"lon":5.36736,"is_reserved":false,"is_disabled":false,"rental_uris":{"android":"levelo://app?vid=430293cf-5032-4974-bb40-66a721d88cf2","ios":"levelo://app?vid=430293cf-5032-4974-bb40-66a721d88cf2"},"vehicle_type_id":"4","last_reported":1751648950,"current_range_meters":6400,"station_id":"","pricing_plan_id":"cebpf4jnsgd1na2vs0mg"},{"bike_id":"f8be30f8-163a-45dd-8ba6-1935309d6f1b","system_id":"levelo_inurba_marseille","lat":43.29309,"lon":5.37177,"is_reserved":false,"is_disabled":false,"rental_uris":{"android":"levelo://app?vid=f8be30f8-163a-45dd-8ba6-1935309d6f1b","ios":"levelo://app?vid=f8be30f8-163a-45dd-8ba6-1935309d6f1b"},"vehicle_type_id":"4","last_reported":1751648950,"current_range_meters":6400,"station_id":"ce4bgh92rcd13ifvqb40","pricing_plan_id":"cebpf4jnsgd1na2vs0mg"},{"bike_id":"6b73131a-5601-4964-ae11-b65eba19543e","system_id":"levelo_inurba_marseille","lat":43.26065,"lon":5.39395,"is_reserved":false,"is_disabled":false,"rental_uris":{"android":"levelo://app?vid=6b73131a-5601-4964-ae11-b65eba19543e","ios":"levelo://app?vid=6b73131a-5601-4964-ae11-b65eba19543e"},"vehicle_type_id":"4","last_reported":1751648950,"current_range_meters":6400,"station_id":"ce4bhh92rcd13ifvqfj0","pricing_plan_id":"cebpf4jnsgd1na2vs0mg"},{"bike_id":"ab67a452-fece-4e8b-a3f4-f738ffe3de33","system_id":"levelo_inurba_marseille","lat":43.27498,"lon":5.42445,"is_reserved":false,"is_disabled":false,"rental_uris":{"android":"levelo://app?vid=ab67a452-fece-4e8b-a3f4-f738ffe3de33","ios":"levelo://app?vid=ab67a452-fece-4e8b-a3f4-f738ffe3de33"},"vehicle_type_id":"4","last_reported":1751648950,"current_range_meters":6400,"station_id":"ce4bhn92rcd13ifvqgrg","pricing_plan_id":"cebpf4jnsgd1na2vs0mg"},{"bike_id":"d567a98a-7952-4227-875f-9176613e0a81","system_id":"levelo_inurba_marseille","lat":43.303738,"lon":5.424866,"is_reserved":false,"is_disabled":false,"rental_uris":{"android":"levelo://app?vid=d567a98a-7952-4227-875f-9176613e0a81","ios":"levelo://app?vid=d567a98a-7952-4227-875f-9176613e0a81"},"vehicle_type_id":"4","last_reported":1751648950,"current_range_meters":6400,"station_id":"ce4bhoh2rcd13ifvqh6g","pricing_plan_id":"cebpf4jnsgd1na2vs0mg"},{"bike_id":"3f712117-f3d7-4b67-9c41-9cbbcb1c1c6b","system_id":"levelo_inurba_marseille","lat":43.30146,"lon":5.38076,"is_reserved":false,"is_disabled":false,"rental_uris":{"android":"levelo://app?vid=3f712117-f3d7-4b67-9c41-9cbbcb1c1c6b","ios":"levelo://app?vid=3f712117-f3d7-4b67-9c41-9cbbcb1c1c6b"},"vehicle_type_id":"4","last_reported":1751648950,"current_range_meters":6800,"station_id":"ce4bgjp2rcd13ifvqbh0","pricing_plan_id":"cebpf4jnsgd1na2vs0mg"},{"bike_id":"09454f46-e55e-4559-820c-cbc05b531847","system_id":"levelo_inurba_marseille","lat":43.32302,"lon":5.38974,"is_reserved":false,"is_disabled":false,"rental_uris":{"android":"levelo://app?vid=09454f46-e55e-4559-820c-cbc05b531847","ios":"levelo://app?vid=09454f46-e55e-4559-820c-cbc05b531847"},"vehicle_type_id":"4","last_reported":1751648950,"current_range_meters":7200,"station_id":"","pricing_plan_id":"cebpf4jnsgd1na2vs0mg"},{"bike_id":"f9046f57-c68c-4a62-927e-916ce2910cb9","system_id":"levelo_inurba_marseille","lat":43.27622,"lon":5.36102,"is_reserved":false,"is_disabled":false,"rental_uris":{"android":"levelo://app?vid=f9046f57-c68c-4a62-927e-916ce2910cb9","ios":"levelo://app?vid=f9046f57-c68c-4a62-927e-916ce2910cb9"},"vehicle_type_id":"4","last_reported":1751648950,"current_range_meters":7200,"station_id":"ce4bgj92rcd13ifvqbe0","pricing_plan_id":"cebpf4jnsgd1na2vs0mg"},{"bike_id":"35c754a5-27c1-40ee-883a-ea009b4def3d","system_id":"levelo_inurba_marseille","lat":43.29574,"lon":5.39981,"is_reserved":false,"is_disabled":false,"rental_uris":{"android":"levelo://app?vid=35c754a5-27c1-40ee-883a-ea009b4def3d","ios":"levelo://app?vid=35c754a5-27c1-40ee-883a-ea009b4def3d"},"vehicle_type_id":"4","last_reported":1751648950,"current_range_meters":8000,"station_id":"ce4bh312rcd13ifvqdj0","pricing_plan_id":"cebpf4jnsgd1na2vs0mg"},{"bike_id":"6c4978e8-0fc5-4634-91e4-a277443beb80","system_id":"levelo_inurba_marseille","lat":43.30816,"lon":5.43536,"is_reserved":false,"is_disabled":false,"rental_uris":{"android":"levelo://app?vid=6c4978e8-0fc5-4634-91e4-a277443beb80","ios":"levelo://app?vid=6c4978e8-0fc5-4634-91e4-a277443beb80"},"vehicle_type_id":"4","last_reported":1751648950,"current_range_meters":8000,"station_id":"ce4bhph2rcd13ifvqheg","pricing_plan_id":"cebpf4jnsgd1na2vs0mg"},{"bike_id":"9bfc7d3d-4e60-4f8a-9c32-ef3d0e77ec5b","system_id":"levelo_inurba_marseille","lat":43.21187,"lon":5.35082,"is_reserved":false,"is_disabled":false,"rental_uris":{"android":"levelo://app?vid=9bfc7d3d-4e60-4f8a-9c32-ef3d0e77ec5b","ios":"levelo://app?vid=9bfc7d3d-4e60-4f8a-9c32-ef3d0e77ec5b"},"vehicle_type_id":"4","last_reported":1751648950,"current_range_meters":8000,"station_id":"st_cvj6sg6p6f1abm77japg","pricing_plan_id":"cebpf4jnsgd1na2vs0mg"},{"bike_id":"be4e2ba2-f83c-4be6-923a-932d435bb5ce","system_id":"levelo_inurba_marseille","lat":43.28229,"lon":5.40446,"is_reserved":false,"is_disabled":false,"rental_uris":{"android":"levelo://app?vid=be4e2ba2-f83c-4be6-923a-932d435bb5ce","ios":"levelo://app?vid=be4e2ba2-f83c-4be6-923a-932d435bb5ce"},"vehicle_type_id":"4","last_reported":1751648950,"current_range_meters":8400,"station_id":"","pricing_plan_id":"cebpf4jnsgd1na2vs0mg"},{"bike_id":"a5094728-4333-4a9d-9012-d05114bf34aa","system_id":"levelo_inurba_marseille","lat":43.30317,"lon":5.3921,"is_reserved":false,"is_disabled":false,"rental_uris":{"android":"levelo://app?vid=a5094728-4333-4a9d-9012-d05114bf34aa","ios":"levelo://app?vid=a5094728-4333-4a9d-9012-d05114bf34aa"},"vehicle_type_id":"4","last_reported":1751648950,"current_range_meters":8400,"station_id":"ce4bgkh2rcd13ifvqbk0","pricing_plan_id":"cebpf4jnsgd1na2vs0mg"},{"bike_id":"69420e4f-ca3d-4f95-a5ba-6f7b878537a9","system_id":"levelo_inurba_marseille","lat":43.29192,"lon":5.35794,"is_reserved":false,"is_disabled":false,"rental_uris":{"android":"levelo://app?vid=69420e4f-ca3d-4f95-a5ba-6f7b878537a9","ios":"levelo://app?vid=69420e4f-ca3d-4f95-a5ba-6f7b878537a9"},"vehicle_type_id":"4","last_reported":1751648950,"current_range_meters":8400,"station_id":"ce4bhb12rcd13ifvqel0","pricing_plan_id":"cebpf4jnsgd1na2vs0mg"},{"bike_id":"e46e7d0b-c892-421d-9976-104c91f599ce","system_id":"levelo_inurba_marseille","lat":43.26237,"lon":5.37882,"is_reserved":false,"is_disabled":false,"rental_uris":{"android":"levelo://app?vid=e46e7d0b-c892-421d-9976-104c91f599ce","ios":"levelo://app?vid=e46e7d0b-c892-421d-9976-104c91f599ce"},"vehicle_type_id":"4","last_reported":1751648950,"current_range_meters":8400,"station_id":"ce4bhjp2rcd13ifvqg90","pricing_plan_id":"cebpf4jnsgd1na2vs0mg"},{"bike_id":"2ac84a3b-f378-4742-8c75-a995f1f175b1","system_id":"levelo_inurba_marseille","lat":43.27494,"lon":5.4245,"is_reserved":false,"is_disabled":false,"rental_uris":{"android":"levelo://app?vid=2ac84a3b-f378-4742-8c75-a995f1f175b1","ios":"levelo://app?vid=2ac84a3b-f378-4742-8c75-a995f1f175b1"},"vehicle_type_id":"4","last_reported":1751648950,"current_range_meters":8400,"station_id":"ce4bhn92rcd13ifvqgrg","pricing_plan_id":"cebpf4jnsgd1na2vs0mg"},{"bike_id":"d799b321-3a7d-4201-b46e-ffe2ad124f19","system_id":"levelo_inurba_marseille","lat":43.329106,"lon":5.38388,"is_reserved":false,"is_disabled":false,"rental_uris":{"android":"levelo://app?vid=d799b321-3a7d-4201-b46e-ffe2ad124f19","ios":"levelo://app?vid=d799b321-3a7d-4201-b46e-ffe2ad124f19"},"vehicle_type_id":"4","last_reported":1751648950,"current_range_meters":8800,"station_id":"","pricing_plan_id":"cebpf4jnsgd1na2vs0mg"},{"bike_id":"78dc8c63-9c35-4044-b2cf-95f8cde89837","system_id":"levelo_inurba_marseille","lat":43.29794,"lon":5.38113,"is_reserved":false,"is_disabled":false,"rental_uris":{"android":"levelo://app?vid=78dc8c63-9c35-4044-b2cf-95f8cde89837","ios":"levelo://app?vid=78dc8c63-9c35-4044-b2cf-95f8cde89837"},"vehicle_type_id":"4","last_reported":1751648950,"current_range_meters":8800,"station_id":"ce4bgip2rcd13ifvqbb0","pricing_plan_id":"cebpf4jnsgd1na2vs0mg"},{"bike_id":"4bac3f2b-eb39-405f-9e58-7764b5148051","system_id":"levelo_inurba_marseille","lat":43.32131,"lon":5.4182,"is_reserved":false,"is_disabled":false,"rental_uris":{"android":"levelo://app?vid=4bac3f2b-eb39-405f-9e58-7764b5148051","ios":"levelo://app?vid=4bac3f2b-eb39-405f-9e58-7764b5148051"},"vehicle_type_id":"4","last_reported":1751648950,"current_range_meters":9200,"station_id":"","pricing_plan_id":"cebpf4jnsgd1na2vs0mg"},{"bike_id":"d64ddd4a-072c-4e44-8e78-b271c4c17ebf","system_id":"levelo_inurba_marseille","lat":43.30955,"lon":5.39035,"is_reserved":false,"is_disabled":false,"rental_uris":{"android":"levelo://app?vid=d64ddd4a-072c-4e44-8e78-b271c4c17ebf","ios":"levelo://app?vid=d64ddd4a-072c-4e44-8e78-b271c4c17ebf"},"vehicle_type_id":"4","last_reported":1751648950,"current_range_meters":9200,"station_id":"ce4bgup2rcd13ifvqco0","pricing_plan_id":"cebpf4jnsgd1na2vs0mg"},{"bike_id":"2eeccaa6-96f1-42e8-be0f-5648531502ba","system_id":"levelo_inurba_marseille","lat":43.284088,"lon":5.349733,"is_reserved":false,"is_disabled":false,"rental_uris":{"android":"levelo://app?vid=2eeccaa6-96f1-42e8-be0f-5648531502ba","ios":"levelo://app?vid=2eeccaa6-96f1-42e8-be0f-5648531502ba"},"vehicle_type_id":"4","last_reported":1751648950,"current_range_meters":9600,"station_id":"ce4bhbh2rcd13ifvqepg","pricing_plan_id":"cebpf4jnsgd1na2vs0mg"},{"bike_id":"c6607268-b5a4-4733-87fb-14578e700483","system_id":"levelo_inurba_marseille","lat":43.28613,"lon":5.35102,"is_reserved":false,"is_disabled":false,"rental_uris":{"android":"levelo://app?vid=c6607268-b5a4-4733-87fb-14578e700483","ios":"levelo://app?vid=c6607268-b5a4-4733-87fb-14578e700483"},"vehicle_type_id":"4","last_reported":1751648950,"current_range_meters":9600,"station_id":"ce4bhch2rcd13ifvqeug","pricing_plan_id":"cebpf4jnsgd1na2vs0mg"},{"bike_id":"29238f59-1acd-4b50-b2a1-ca79227148fe","system_id":"levelo_inurba_marseille","lat":43.27056,"lon":5.4026,"is_reserved":false,"is_disabled":false,"rental_uris":{"android":"levelo://app?vid=29238f59-1acd-4b50-b2a1-ca79227148fe","ios":"levelo://app?vid=29238f59-1acd-4b50-b2a1-ca79227148fe"},"vehicle_type_id":"4","last_reported":1751648950,"current_range_meters":9600,"station_id":"ce4bhk92rcd13ifvqgc0","pricing_plan_id":"cebpf4jnsgd1na2vs0mg"},{"bike_id":"c76381fd-b6b9-4d02-a8a4-fd4e6891e706","system_id":"levelo_inurba_marseille","lat":43.30252,"lon":5.39069,"is_reserved":false,"is_disabled":false,"rental_uris":{"android":"levelo://app?vid=c76381fd-b6b9-4d02-a8a4-fd4e6891e706","ios":"levelo://app?vid=c76381fd-b6b9-4d02-a8a4-fd4e6891e706"},"vehicle_type_id":"4","last_reported":1751648950,"current_range_meters":10000,"station_id":"","pricing_plan_id":"cebpf4jnsgd1na2vs0mg"},{"bike_id":"ba154a12-11bd-42a5-958a-5992f5d043d1","system_id":"levelo_inurba_marseille","lat":43.30499,"lon":5.370746,"is_reserved":false,"is_disabled":false,"rental_uris":{"android":"levelo://app?vid=ba154a12-11bd-42a5-958a-5992f5d043d1","ios":"levelo://app?vid=ba154a12-11bd-42a5-958a-5992f5d043d1"},"vehicle_type_id":"4","last_reported":1751648950,"current_range_meters":10000,"station_id":"","pricing_plan_id":"cebpf4jnsgd1na2vs0mg"},{"bike_id":"6b84775c-70fa-4707-a543-898c3674cd0f","system_id":"levelo_inurba_marseille","lat":43.29711,"lon":5.3769,"is_reserved":false,"is_disabled":false,"rental_uris":{"android":"levelo://app?vid=6b84775c-70fa-4707-a543-898c3674cd0f","ios":"levelo://app?vid=6b84775c-70fa-4707-a543-898c3674cd0f"},"vehicle_type_id":"4","last_reported":1751648950,"current_range_meters":10000,"station_id":"ce4bgkh2rcd13ifvqbl0","pricing_plan_id":"cebpf4jnsgd1na2vs0mg"},{"bike_id":"726f7743-e78a-495e-9869-fbab5031ba19","system_id":"levelo_inurba_marseille","lat":43.27523,"lon":5.3895,"is_reserved":false,"is_disabled":false,"rental_uris":{"android":"levelo://app?vid=726f7743-e78a-495e-9869-fbab5031ba19","ios":"levelo://app?vid=726f7743-e78a-495e-9869-fbab5031ba19"},"vehicle_type_id":"4","last_reported":1751648950,"current_range_meters":10000,"station_id":"ce4bhgp2rcd13ifvqfe0","pricing_plan_id":"cebpf4jnsgd1na2vs0mg"},{"bike_id":"16d1759c-259f-4e87-9c57-b82264347e2d","system_id":"levelo_inurba_marseille","lat":43.264884,"lon":5.395493,"is_reserved":false,"is_disabled":false,"rental_uris":{"android":"levelo://app?vid=16d1759c-259f-4e87-9c57-b82264347e2d","ios":"levelo://app?vid=16d1759c-259f-4e87-9c57-b82264347e2d"},"vehicle_type_id":"4","last_reported":1751648950,"current_range_meters":10000,"station_id":"ce4bhi12rcd13ifvqfq0","pricing_plan_id":"cebpf4jnsgd1na2vs0mg"},{"bike_id":"ab4c7d19-c46f-4e74-9b5d-22d6c9447634","system_id":"levelo_inurba_marseille","lat":43.2315,"lon":5.437232,"is_reserved":false,"is_disabled":false,"rental_uris":{"android":"levelo://app?vid=ab4c7d19-c46f-4e74-9b5d-22d6c9447634","ios":"levelo://app?vid=ab4c7d19-c46f-4e74-9b5d-22d6c9447634"},"vehicle_type_id":"4","last_reported":1751648950,"current_range_meters":10000,"station_id":"ce4bhmp2rcd13ifvqgog","pricing_plan_id":"cebpf4jnsgd1na2vs0mg"},{"bike_id":"2d66f193-8ad6-4299-991f-197a614fa50b","system_id":"levelo_inurba_marseille","lat":43.3234,"lon":5.40622,"is_reserved":false,"is_disabled":false,"rental_uris":{"android":"levelo://app?vid=2d66f193-8ad6-4299-991f-197a614fa50b","ios":"levelo://app?vid=2d66f193-8ad6-4299-991f-197a614fa50b"},"vehicle_type_id":"4","last_reported":1751648950,"current_range_meters":10000,"station_id":"ce4bhq92rcd13ifvqhjg","pricing_plan_id":"cebpf4jnsgd1na2vs0mg"},{"bike_id":"9f1f6042-7e07-4b00-9dc1-8f0343d9174e","system_id":"levelo_inurba_marseille","lat":43.212,"lon":5.35078,"is_reserved":false,"is_disabled":false,"rental_uris":{"android":"levelo://app?vid=9f1f6042-7e07-4b00-9dc1-8f0343d9174e","ios":"levelo://app?vid=9f1f6042-7e07-4b00-9dc1-8f0343d9174e"},"vehicle_type_id":"4","last_reported":1751648950,"current_range_meters":10000,"station_id":"st_cvj6sg6p6f1abm77japg","pricing_plan_id":"cebpf4jnsgd1na2vs0mg"},{"bike_id":"74afcdcb-b450-4077-9b77-274bb8e50e58","system_id":"levelo_inurba_marseille","lat":43.262,"lon":5.37935,"is_reserved":false,"is_disabled":false,"rental_uris":{"android":"levelo://app?vid=74afcdcb-b450-4077-9b77-274bb8e50e58","ios":"levelo://app?vid=74afcdcb-b450-4077-9b77-274bb8e50e58"},"vehicle_type_id":"4","last_reported":1751648950,"current_range_meters":10800,"station_id":"ce4bhjp2rcd13ifvqg90","pricing_plan_id":"cebpf4jnsgd1na2vs0mg"},{"bike_id":"33f07356-b04e-4314-a69f-1998fee4abc4","system_id":"levelo_inurba_marseille","lat":43.308114,"lon":5.435204,"is_reserved":false,"is_disabled":false,"rental_uris":{"android":"levelo://app?vid=33f07356-b04e-4314-a69f-1998fee4abc4","ios":"levelo://app?vid=33f07356-b04e-4314-a69f-1998fee4abc4"},"vehicle_type_id":"4","last_reported":1751648950,"current_range_meters":10800,"station_id":"ce4bhph2rcd13ifvqheg","pricing_plan_id":"cebpf4jnsgd1na2vs0mg"},{"bike_id":"92db54ca-2cf9-4534-b83c-9c27752abc9f","system_id":"levelo_inurba_marseille","lat":43.3202,"lon":5.4154,"is_reserved":false,"is_disabled":false,"rental_uris":{"android":"levelo://app?vid=92db54ca-2cf9-4534-b83c-9c27752abc9f","ios":"levelo://app?vid=92db54ca-2cf9-4534-b83c-9c27752abc9f"},"vehicle_type_id":"4","last_reported":1751648950,"current_range_meters":10800,"station_id":"ce4bhq92rcd13ifvqhkg","pricing_plan_id":"cebpf4jnsgd1na2vs0mg"},{"bike_id":"7f8b1271-dec3-4709-8564-680b8de4d582","system_id":"levelo_inurba_marseille","lat":43.21751,"lon":5.34598,"is_reserved":false,"is_disabled":false,"rental_uris":{"android":"levelo://app?vid=7f8b1271-dec3-4709-8564-680b8de4d582","ios":"levelo://app?vid=7f8b1271-dec3-4709-8564-680b8de4d582"},"vehicle_type_id":"4","last_reported":1751648950,"current_range_meters":10800,"station_id":"st_cvj6r9ubvosntc0bgbag","pricing_plan_id":"cebpf4jnsgd1na2vs0mg"},{"bike_id":"0c4b7fdb-b39e-49b3-a2b0-ae3d0f43e89d","system_id":"levelo_inurba_marseille","lat":43.32913,"lon":5.40575,"is_reserved":false,"is_disabled":false,"rental_uris":{"android":"levelo://app?vid=0c4b7fdb-b39e-49b3-a2b0-ae3d0f43e89d","ios":"levelo://app?vid=0c4b7fdb-b39e-49b3-a2b0-ae3d0f43e89d"},"vehicle_type_id":"4","last_reported":1751648950,"current_range_meters":11200,"station_id":"","pricing_plan_id":"cebpf4jnsgd1na2vs0mg"},{"bike_id":"175513bb-dce2-48e2-83c8-1e9f1cb23cd0","system_id":"levelo_inurba_marseille","lat":43.286255,"lon":5.412651,"is_reserved":false,"is_disabled":false,"rental_uris":{"android":"levelo://app?vid=175513bb-dce2-48e2-83c8-1e9f1cb23cd0","ios":"levelo://app?vid=175513bb-dce2-48e2-83c8-1e9f1cb23cd0"},"vehicle_type_id":"4","last_reported":1751648950,"current_range_meters":11200,"station_id":"","pricing_plan_id":"cebpf4jnsgd1na2vs0mg"},{"bike_id":"df22815d-8ec5-4424-b352-7aa8dbdb0a86","system_id":"levelo_inurba_marseille","lat":43.24806,"lon":5.37454,"is_reserved":false,"is_disabled":false,"rental_uris":{"android":"levelo://app?vid=df22815d-8ec5-4424-b352-7aa8dbdb0a86","ios":"levelo://app?vid=df22815d-8ec5-4424-b352-7aa8dbdb0a86"},"vehicle_type_id":"4","last_reported":1751648950,"current_range_meters":11200,"station_id":"ce4bhgh2rcd13ifvqfb0","pricing_plan_id":"cebpf4jnsgd1na2vs0mg"},{"bike_id":"15f6f7b1-9290-40cf-84b5-c21f8b6cd29f","system_id":"levelo_inurba_marseille","lat":43.23152,"lon":5.43717,"is_reserved":false,"is_disabled":false,"rental_uris":{"android":"levelo://app?vid=15f6f7b1-9290-40cf-84b5-c21f8b6cd29f","ios":"levelo://app?vid=15f6f7b1-9290-40cf-84b5-c21f8b6cd29f"},"vehicle_type_id":"4","last_reported":1751648950,"current_range_meters":11200,"station_id":"ce4bhmp2rcd13ifvqgog","pricing_plan_id":"cebpf4jnsgd1na2vs0mg"},{"bike_id":"18e03d2b-69ba-4af2-bdb8-60416e0aab62","system_id":"levelo_inurba_marseille","lat":43.29899,"lon":5.43667,"is_reserved":false,"is_disabled":false,"rental_uris":{"android":"levelo://app?vid=18e03d2b-69ba-4af2-bdb8-60416e0aab62","ios":"levelo://app?vid=18e03d2b-69ba-4af2-bdb8-60416e0aab62"},"vehicle_type_id":"4","last_reported":1751648950,"current_range_meters":11200,"station_id":"ce4bhpp2rcd13ifvqhfg","pricing_plan_id":"cebpf4jnsgd1na2vs0mg"},{"bike_id":"b26fae72-751e-4090-a9c4-76ff5de1ad66","system_id":"levelo_inurba_marseille","lat":43.3328,"lon":5.38084,"is_reserved":false,"is_disabled":false,"rental_uris":{"android":"levelo://app?vid=b26fae72-751e-4090-a9c4-76ff5de1ad66","ios":"levelo://app?vid=b26fae72-751e-4090-a9c4-76ff5de1ad66"},"vehicle_type_id":"4","last_reported":1751648950,"current_range_meters":11600,"station_id":"","pricing_plan_id":"cebpf4jnsgd1na2vs0mg"},{"bike_id":"46b697cb-ebb1-4ed7-b40f-c483550a473f","system_id":"levelo_inurba_marseille","lat":43.29625,"lon":5.37161,"is_reserved":false,"is_disabled":false,"rental_uris":{"android":"levelo://app?vid=46b697cb-ebb1-4ed7-b40f-c483550a473f","ios":"levelo://app?vid=46b697cb-ebb1-4ed7-b40f-c483550a473f"},"vehicle_type_id":"4","last_reported":1751648950,"current_range_meters":11600,"station_id":"ce4bgnh2rcd13ifvqc0g","pricing_plan_id":"cebpf4jnsgd1na2vs0mg"},{"bike_id":"243ed435-6dd8-4418-8108-4a803582120e","system_id":"levelo_inurba_marseille","lat":43.28425,"lon":5.34976,"is_reserved":false,"is_disabled":false,"rental_uris":{"android":"levelo://app?vid=243ed435-6dd8-4418-8108-4a803582120e","ios":"levelo://app?vid=243ed435-6dd8-4418-8108-4a803582120e"},"vehicle_type_id":"4","last_reported":1751648950,"current_range_meters":11600,"station_id":"ce4bhbh2rcd13ifvqepg","pricing_plan_id":"cebpf4jnsgd1na2vs0mg"},{"bike_id":"ee23c8c9-4b9d-4553-88ca-823f2562232b","system_id":"levelo_inurba_marseille","lat":43.28627,"lon":5.351035,"is_reserved":false,"is_disabled":false,"rental_uris":{"android":"levelo://app?vid=ee23c8c9-4b9d-4553-88ca-823f2562232b","ios":"levelo://app?vid=ee23c8c9-4b9d-4553-88ca-823f2562232b"},"vehicle_type_id":"4","last_reported":1751648950,"current_range_meters":11600,"station_id":"ce4bhch2rcd13ifvqeug","pricing_plan_id":"cebpf4jnsgd1na2vs0mg"},{"bike_id":"be6e2f28-20a7-4b08-b403-fa03c5d87915","system_id":"levelo_inurba_marseille","lat":43.29553,"lon":5.42293,"is_reserved":false,"is_disabled":false,"rental_uris":{"android":"levelo://app?vid=be6e2f28-20a7-4b08-b403-fa03c5d87915","ios":"levelo://app?vid=be6e2f28-20a7-4b08-b403-fa03c5d87915"},"vehicle_type_id":"4","last_reported":1751648950,"current_range_meters":11600,"station_id":"ce4bhph2rcd13ifvqhdg","pricing_plan_id":"cebpf4jnsgd1na2vs0mg"},{"bike_id":"3f93fb99-f2c5-46a2-ad14-fac198ce4bc8","system_id":"levelo_inurba_marseille","lat":43.30687,"lon":5.40094,"is_reserved":false,"is_disabled":false,"rental_uris":{"android":"levelo://app?vid=3f93fb99-f2c5-46a2-ad14-fac198ce4bc8","ios":"levelo://app?vid=3f93fb99-f2c5-46a2-ad14-fac198ce4bc8"},"vehicle_type_id":"4","last_reported":1751648950,"current_range_meters":12000,"station_id":"","pricing_plan_id":"cebpf4jnsgd1na2vs0mg"},{"bike_id":"5e197122-e8ec-4f01-b370-6bbfc10c6950","system_id":"levelo_inurba_marseille","lat":43.21194,"lon":5.35079,"is_reserved":false,"is_disabled":false,"rental_uris":{"android":"levelo://app?vid=5e197122-e8ec-4f01-b370-6bbfc10c6950","ios":"levelo://app?vid=5e197122-e8ec-4f01-b370-6bbfc10c6950"},"vehicle_type_id":"4","last_reported":1751648950,"current_range_meters":12000,"station_id":"st_cvj6sg6p6f1abm77japg","pricing_plan_id":"cebpf4jnsgd1na2vs0mg"},{"bike_id":"43b8b648-960e-46ea-bfad-839bb09cb576","system_id":"levelo_inurba_marseille","lat":43.26214,"lon":5.37041,"is_reserved":false,"is_disabled":false,"rental_uris":{"android":"levelo://app?vid=43b8b648-960e-46ea-bfad-839bb09cb576","ios":"levelo://app?vid=43b8b648-960e-46ea-bfad-839bb09cb576"},"vehicle_type_id":"4","last_reported":1751648950,"current_range_meters":12400,"station_id":"","pricing_plan_id":"cebpf4jnsgd1na2vs0mg"},{"bike_id":"804d36b2-9341-4b9e-b75a-85fda8570534","system_id":"levelo_inurba_marseille","lat":43.31123,"lon":5.3775,"is_reserved":false,"is_disabled":false,"rental_uris":{"android":"levelo://app?vid=804d36b2-9341-4b9e-b75a-85fda8570534","ios":"levelo://app?vid=804d36b2-9341-4b9e-b75a-85fda8570534"},"vehicle_type_id":"4","last_reported":1751648950,"current_range_meters":12400,"station_id":"ce4bgt92rcd13ifvqcg0","pricing_plan_id":"cebpf4jnsgd1na2vs0mg"},{"bike_id":"693d67bb-cef1-459e-8181-378490c2ddd1","system_id":"levelo_inurba_marseille","lat":43.28932,"lon":5.38383,"is_reserved":false,"is_disabled":false,"rental_uris":{"android":"levelo://app?vid=693d67bb-cef1-459e-8181-378490c2ddd1","ios":"levelo://app?vid=693d67bb-cef1-459e-8181-378490c2ddd1"},"vehicle_type_id":"4","last_reported":1751648950,"current_range_meters":12400,"station_id":"ce4bh612rcd13ifvqe6g","pricing_plan_id":"cebpf4jnsgd1na2vs0mg"},{"bike_id":"cb051a2f-651c-49f3-8f73-932224d0f7e8","system_id":"levelo_inurba_marseille","lat":43.24804,"lon":5.37454,"is_reserved":false,"is_disabled":false,"rental_uris":{"android":"levelo://app?vid=cb051a2f-651c-49f3-8f73-932224d0f7e8","ios":"levelo://app?vid=cb051a2f-651c-49f3-8f73-932224d0f7e8"},"vehicle_type_id":"4","last_reported":1751648950,"current_range_meters":12400,"station_id":"ce4bhgh2rcd13ifvqfb0","pricing_plan_id":"cebpf4jnsgd1na2vs0mg"},{"bike_id":"d221504f-7809-4c2c-ba09-74094b230f86","system_id":"levelo_inurba_marseille","lat":43.2418,"lon":5.39725,"is_reserved":false,"is_disabled":false,"rental_uris":{"android":"levelo://app?vid=d221504f-7809-4c2c-ba09-74094b230f86","ios":"levelo://app?vid=d221504f-7809-4c2c-ba09-74094b230f86"},"vehicle_type_id":"4","last_reported":1751648950,"current_range_meters":12400,"station_id":"ce4bhn12rcd13ifvqgpg","pricing_plan_id":"cebpf4jnsgd1na2vs0mg"},{"bike_id":"d7d5b776-bcc7-423d-8a89-6abd09a6c07c","system_id":"levelo_inurba_marseille","lat":43.24172,"lon":5.36386,"is_reserved":false,"is_disabled":false,"rental_uris":{"android":"levelo://app?vid=d7d5b776-bcc7-423d-8a89-6abd09a6c07c","ios":"levelo://app?vid=d7d5b776-bcc7-423d-8a89-6abd09a6c07c"},"vehicle_type_id":"4","last_reported":1751648950,"current_range_meters":12400,"station_id":"cpo36qri1sfpv3e86is0","pricing_plan_id":"cebpf4jnsgd1na2vs0mg"},{"bike_id":"22888734-05db-4b2c-9ebf-e2f83575acc2","system_id":"levelo_inurba_marseille","lat":43.28404,"lon":5.34989,"is_reserved":false,"is_disabled":false,"rental_uris":{"android":"levelo://app?vid=22888734-05db-4b2c-9ebf-e2f83575acc2","ios":"levelo://app?vid=22888734-05db-4b2c-9ebf-e2f83575acc2"},"vehicle_type_id":"4","last_reported":1751648950,"current_range_meters":12800,"station_id":"ce4bhbh2rcd13ifvqepg","pricing_plan_id":"cebpf4jnsgd1na2vs0mg"},{"bike_id":"1c8ab180-05fd-405f-9922-b2b2c2d5142f","system_id":"levelo_inurba_marseille","lat":43.33784,"lon":5.38118,"is_reserved":false,"is_disabled":false,"rental_uris":{"android":"levelo://app?vid=1c8ab180-05fd-405f-9922-b2b2c2d5142f","ios":"levelo://app?vid=1c8ab180-05fd-405f-9922-b2b2c2d5142f"},"vehicle_type_id":"4","last_reported":1751648950,"current_range_meters":13600,"station_id":"","pricing_plan_id":"cebpf4jnsgd1na2vs0mg"},{"bike_id":"a518760b-8c98-4197-9fcb-f363fa3c6359","system_id":"levelo_inurba_marseille","lat":43.30302,"lon":5.39209,"is_reserved":false,"is_disabled":false,"rental_uris":{"android":"levelo://app?vid=a518760b-8c98-4197-9fcb-f363fa3c6359","ios":"levelo://app?vid=a518760b-8c98-4197-9fcb-f363fa3c6359"},"vehicle_type_id":"4","last_reported":1751648950,"current_range_meters":13600,"station_id":"ce4bgkh2rcd13ifvqbk0","pricing_plan_id":"cebpf4jnsgd1na2vs0mg"},{"bike_id":"fdbca52a-0d1e-48bb-bae1-18dce5ce8efc","system_id":"levelo_inurba_marseille","lat":43.28407,"lon":5.34995,"is_reserved":false,"is_disabled":false,"rental_uris":{"android":"levelo://app?vid=fdbca52a-0d1e-48bb-bae1-18dce5ce8efc","ios":"levelo://app?vid=fdbca52a-0d1e-48bb-bae1-18dce5ce8efc"},"vehicle_type_id":"4","last_reported":1751648950,"current_range_meters":13600,"station_id":"ce4bhbh2rcd13ifvqepg","pricing_plan_id":"cebpf4jnsgd1na2vs0mg"},{"bike_id":"bf3d6f1f-bd58-495e-9496-07ed886eb058","system_id":"levelo_inurba_marseille","lat":43.28415,"lon":5.34975,"is_reserved":false,"is_disabled":false,"rental_uris":{"android":"levelo://app?vid=bf3d6f1f-bd58-495e-9496-07ed886eb058","ios":"levelo://app?vid=bf3d6f1f-bd58-495e-9496-07ed886eb058"},"vehicle_type_id":"4","last_reported":1751648950,"current_range_meters":13600,"station_id":"ce4bhbh2rcd13ifvqepg","pricing_plan_id":"cebpf4jnsgd1na2vs0mg"},{"bike_id":"bb11d3ca-ef41-489b-9f2d-4015605b0a3d","system_id":"levelo_inurba_marseille","lat":43.29595,"lon":5.38082,"is_reserved":false,"is_disabled":false,"rental_uris":{"android":"levelo://app?vid=bb11d3ca-ef41-489b-9f2d-4015605b0a3d","ios":"levelo://app?vid=bb11d3ca-ef41-489b-9f2d-4015605b0a3d"},"vehicle_type_id":"4","last_reported":1751648950,"current_range_meters":14000,"station_id":"ce4bgl12rcd13ifvqbo0","pricing_plan_id":"cebpf4jnsgd1na2vs0mg"},{"bike_id":"3ccba8d6-82da-4180-b5cd-b6e64d0a00c9","system_id":"levelo_inurba_marseille","lat":43.28427,"lon":5.34983,"is_reserved":false,"is_disabled":false,"rental_uris":{"android":"levelo://app?vid=3ccba8d6-82da-4180-b5cd-b6e64d0a00c9","ios":"levelo://app?vid=3ccba8d6-82da-4180-b5cd-b6e64d0a00c9"},"vehicle_type_id":"4","last_reported":1751648950,"current_range_meters":14000,"station_id":"ce4bhbh2rcd13ifvqepg","pricing_plan_id":"cebpf4jnsgd1na2vs0mg"},{"bike_id":"858d5ff2-4514-4dc8-b984-af28387a5b3b","system_id":"levelo_inurba_marseille","lat":43.260216,"lon":5.375506,"is_reserved":false,"is_disabled":false,"rental_uris":{"android":"levelo://app?vid=858d5ff2-4514-4dc8-b984-af28387a5b3b","ios":"levelo://app?vid=858d5ff2-4514-4dc8-b984-af28387a5b3b"},"vehicle_type_id":"4","last_reported":1751648950,"current_range_meters":14000,"station_id":"ce4bhgh2rcd13ifvqfa0","pricing_plan_id":"cebpf4jnsgd1na2vs0mg"},{"bike_id":"3068e15c-9d9c-4e47-9b39-227daa99a7db","system_id":"levelo_inurba_marseille","lat":43.28162,"lon":5.4262,"is_reserved":false,"is_disabled":false,"rental_uris":{"android":"levelo://app?vid=3068e15c-9d9c-4e47-9b39-227daa99a7db","ios":"levelo://app?vid=3068e15c-9d9c-4e47-9b39-227daa99a7db"},"vehicle_type_id":"4","last_reported":1751648950,"current_range_meters":14000,"station_id":"ce4bhnh2rcd13ifvqgug","pricing_plan_id":"cebpf4jnsgd1na2vs0mg"},{"bike_id":"bf16840f-2e0f-47eb-8d30-3dc4199df254","system_id":"levelo_inurba_marseille","lat":43.31771,"lon":5.39006,"is_reserved":false,"is_disabled":false,"rental_uris":{"android":"levelo://app?vid=bf16840f-2e0f-47eb-8d30-3dc4199df254","ios":"levelo://app?vid=bf16840f-2e0f-47eb-8d30-3dc4199df254"},"vehicle_type_id":"4","last_reported":1751648950,"current_range_meters":14000,"station_id":"ce4bhqp2rcd13ifvqhng","pricing_plan_id":"cebpf4jnsgd1na2vs0mg"},{"bike_id":"8d1da0a6-2662-4920-9ad3-8fcfb5c95811","system_id":"levelo_inurba_marseille","lat":43.28271,"lon":5.35067,"is_reserved":false,"is_disabled":false,"rental_uris":{"android":"levelo://app?vid=8d1da0a6-2662-4920-9ad3-8fcfb5c95811","ios":"levelo://app?vid=8d1da0a6-2662-4920-9ad3-8fcfb5c95811"},"vehicle_type_id":"4","last_reported":1751648950,"current_range_meters":14400,"station_id":"ce4bhbp2rcd13ifvqerg","pricing_plan_id":"cebpf4jnsgd1na2vs0mg"},{"bike_id":"e8b199ed-744c-47f9-ad68-7c59de5be47d","system_id":"levelo_inurba_marseille","lat":43.28617,"lon":5.35104,"is_reserved":false,"is_disabled":false,"rental_uris":{"android":"levelo://app?vid=e8b199ed-744c-47f9-ad68-7c59de5be47d","ios":"levelo://app?vid=e8b199ed-744c-47f9-ad68-7c59de5be47d"},"vehicle_type_id":"4","last_reported":1751648950,"current_range_meters":14400,"station_id":"ce4bhch2rcd13ifvqeug","pricing_plan_id":"cebpf4jnsgd1na2vs0mg"},{"bike_id":"f5e3c48b-288c-4c4d-a596-03e1ea8cde12","system_id":"levelo_inurba_marseille","lat":43.26808,"lon":5.40271,"is_reserved":false,"is_disabled":false,"rental_uris":{"android":"levelo://app?vid=f5e3c48b-288c-4c4d-a596-03e1ea8cde12","ios":"levelo://app?vid=f5e3c48b-288c-4c4d-a596-03e1ea8cde12"},"vehicle_type_id":"4","last_reported":1751648950,"current_range_meters":14400,"station_id":"ce501612rcd8frsf0b60","pricing_plan_id":"cebpf4jnsgd1na2vs0mg"},{"bike_id":"13c915d8-3e00-4771-9d48-912414fe93ca","system_id":"levelo_inurba_marseille","lat":43.27622,"lon":5.36102,"is_reserved":false,"is_disabled":false,"rental_uris":{"android":"levelo://app?vid=13c915d8-3e00-4771-9d48-912414fe93ca","ios":"levelo://app?vid=13c915d8-3e00-4771-9d48-912414fe93ca"},"vehicle_type_id":"4","last_reported":1751648950,"current_range_meters":14800,"station_id":"ce4bgj92rcd13ifvqbe0","pricing_plan_id":"cebpf4jnsgd1na2vs0mg"},{"bike_id":"f6d526d1-8c13-4228-a7a8-adb5903ac999","system_id":"levelo_inurba_marseille","lat":43.286652,"lon":5.374142,"is_reserved":false,"is_disabled":false,"rental_uris":{"android":"levelo://app?vid=f6d526d1-8c13-4228-a7a8-adb5903ac999","ios":"levelo://app?vid=f6d526d1-8c13-4228-a7a8-adb5903ac999"},"vehicle_type_id":"4","last_reported":1751648950,"current_range_meters":14800,"station_id":"ce4bh3p2rcd13ifvqdq0","pricing_plan_id":"cebpf4jnsgd1na2vs0mg"},{"bike_id":"bf41255f-1041-471a-b6b4-5edb283b0bd1","system_id":"levelo_inurba_marseille","lat":43.28105,"lon":5.37827,"is_reserved":false,"is_disabled":false,"rental_uris":{"android":"levelo://app?vid=bf41255f-1041-471a-b6b4-5edb283b0bd1","ios":"levelo://app?vid=bf41255f-1041-471a-b6b4-5edb283b0bd1"},"vehicle_type_id":"4","last_reported":1751648950,"current_range_meters":14800,"station_id":"ce4bha12rcd13ifvqee0","pricing_plan_id":"cebpf4jnsgd1na2vs0mg"},{"bike_id":"a11488dd-1c6b-401a-90c5-b07b1e6b0dd3","system_id":"levelo_inurba_marseille","lat":43.28278,"lon":5.35076,"is_reserved":false,"is_disabled":false,"rental_uris":{"android":"levelo://app?vid=a11488dd-1c6b-401a-90c5-b07b1e6b0dd3","ios":"levelo://app?vid=a11488dd-1c6b-401a-90c5-b07b1e6b0dd3"},"vehicle_type_id":"4","last_reported":1751648950,"current_range_meters":14800,"station_id":"ce4bhbp2rcd13ifvqerg","pricing_plan_id":"cebpf4jnsgd1na2vs0mg"},{"bike_id":"282f46f6-58bd-4bef-8b1a-429186abaf07","system_id":"levelo_inurba_marseille","lat":43.28605,"lon":5.3511,"is_reserved":false,"is_disabled":false,"rental_uris":{"android":"levelo://app?vid=282f46f6-58bd-4bef-8b1a-429186abaf07","ios":"levelo://app?vid=282f46f6-58bd-4bef-8b1a-429186abaf07"},"vehicle_type_id":"4","last_reported":1751648950,"current_range_meters":14800,"station_id":"ce4bhch2rcd13ifvqeug","pricing_plan_id":"cebpf4jnsgd1na2vs0mg"},{"bike_id":"ac00e223-eace-4129-bba2-b5db79a4a623","system_id":"levelo_inurba_marseille","lat":43.28426,"lon":5.34974,"is_reserved":false,"is_disabled":false,"rental_uris":{"android":"levelo://app?vid=ac00e223-eace-4129-bba2-b5db79a4a623","ios":"levelo://app?vid=ac00e223-eace-4129-bba2-b5db79a4a623"},"vehicle_type_id":"4","last_reported":1751648950,"current_range_meters":15200,"station_id":"","pricing_plan_id":"cebpf4jnsgd1na2vs0mg"},{"bike_id":"fd9e11cf-6806-41ff-bce2-0dd66386883d","system_id":"levelo_inurba_marseille","lat":43.28425,"lon":5.34982,"is_reserved":false,"is_disabled":false,"rental_uris":{"android":"levelo://app?vid=fd9e11cf-6806-41ff-bce2-0dd66386883d","ios":"levelo://app?vid=fd9e11cf-6806-41ff-bce2-0dd66386883d"},"vehicle_type_id":"4","last_reported":1751648950,"current_range_meters":15200,"station_id":"ce4bhbh2rcd13ifvqepg","pricing_plan_id":"cebpf4jnsgd1na2vs0mg"},{"bike_id":"45e55c31-83a6-4508-986b-e2ff0117f409","system_id":"levelo_inurba_marseille","lat":43.28617,"lon":5.35106,"is_reserved":false,"is_disabled":false,"rental_uris":{"android":"levelo://app?vid=45e55c31-83a6-4508-986b-e2ff0117f409","ios":"levelo://app?vid=45e55c31-83a6-4508-986b-e2ff0117f409"},"vehicle_type_id":"4","last_reported":1751648950,"current_range_meters":15200,"station_id":"ce4bhch2rcd13ifvqeug","pricing_plan_id":"cebpf4jnsgd1na2vs0mg"},{"bike_id":"5d5db2ec-cda7-4436-8d94-288db2657953","system_id":"levelo_inurba_marseille","lat":43.27175,"lon":5.4099,"is_reserved":false,"is_disabled":false,"rental_uris":{"android":"levelo://app?vid=5d5db2ec-cda7-4436-8d94-288db2657953","ios":"levelo://app?vid=5d5db2ec-cda7-4436-8d94-288db2657953"},"vehicle_type_id":"4","last_reported":1751648950,"current_range_meters":15200,"station_id":"ce4bhl12rcd13ifvqgf0","pricing_plan_id":"cebpf4jnsgd1na2vs0mg"},{"bike_id":"094015c2-44e4-40f7-a843-9cd2d9cb1f82","system_id":"levelo_inurba_marseille","lat":43.21758,"lon":5.34613,"is_reserved":false,"is_disabled":false,"rental_uris":{"android":"levelo://app?vid=094015c2-44e4-40f7-a843-9cd2d9cb1f82","ios":"levelo://app?vid=094015c2-44e4-40f7-a843-9cd2d9cb1f82"},"vehicle_type_id":"4","last_reported":1751648950,"current_range_meters":15200,"station_id":"st_cvj6r9ubvosntc0bgbag","pricing_plan_id":"cebpf4jnsgd1na2vs0mg"},{"bike_id":"4b8da722-ee9e-48a4-a5e5-3a8a10364708","system_id":"levelo_inurba_marseille","lat":43.312307,"lon":5.378176,"is_reserved":false,"is_disabled":false,"rental_uris":{"android":"levelo://app?vid=4b8da722-ee9e-48a4-a5e5-3a8a10364708","ios":"levelo://app?vid=4b8da722-ee9e-48a4-a5e5-3a8a10364708"},"vehicle_type_id":"4","last_reported":1751648950,"current_range_meters":16000,"station_id":"","pricing_plan_id":"cebpf4jnsgd1na2vs0mg"},{"bike_id":"2c8d6737-b89d-408d-8770-af93b507a41f","system_id":"levelo_inurba_marseille","lat":43.30121,"lon":5.40049,"is_reserved":false,"is_disabled":false,"rental_uris":{"android":"levelo://app?vid=2c8d6737-b89d-408d-8770-af93b507a41f","ios":"levelo://app?vid=2c8d6737-b89d-408d-8770-af93b507a41f"},"vehicle_type_id":"4","last_reported":1751648950,"current_range_meters":16000,"station_id":"","pricing_plan_id":"cebpf4jnsgd1na2vs0mg"},{"bike_id":"5a390b9a-9238-4599-973d-a15b77e32778","system_id":"levelo_inurba_marseille","lat":43.2957,"lon":5.39962,"is_reserved":false,"is_disabled":false,"rental_uris":{"android":"levelo://app?vid=5a390b9a-9238-4599-973d-a15b77e32778","ios":"levelo://app?vid=5a390b9a-9238-4599-973d-a15b77e32778"},"vehicle_type_id":"4","last_reported":1751648950,"current_range_meters":16000,"station_id":"ce4bh312rcd13ifvqdj0","pricing_plan_id":"cebpf4jnsgd1na2vs0mg"},{"bike_id":"d9ba24b2-ff34-4854-a35e-589d36bef122","system_id":"levelo_inurba_marseille","lat":43.29197,"lon":5.35794,"is_reserved":false,"is_disabled":false,"rental_uris":{"android":"levelo://app?vid=d9ba24b2-ff34-4854-a35e-589d36bef122","ios":"levelo://app?vid=d9ba24b2-ff34-4854-a35e-589d36bef122"},"vehicle_type_id":"4","last_reported":1751648950,"current_range_meters":16000,"station_id":"ce4bhb12rcd13ifvqel0","pricing_plan_id":"cebpf4jnsgd1na2vs0mg"},{"bike_id":"9fefc881-cb44-4f8a-be0a-2f1b51b3fa55","system_id":"levelo_inurba_marseille","lat":43.28412,"lon":5.34988,"is_reserved":false,"is_disabled":false,"rental_uris":{"android":"levelo://app?vid=9fefc881-cb44-4f8a-be0a-2f1b51b3fa55","ios":"levelo://app?vid=9fefc881-cb44-4f8a-be0a-2f1b51b3fa55"},"vehicle_type_id":"4","last_reported":1751648950,"current_range_meters":16000,"station_id":"ce4bhbh2rcd13ifvqepg","pricing_plan_id":"cebpf4jnsgd1na2vs0mg"},{"bike_id":"0ffe100f-03d5-4d9c-bd45-4de1a82f5b87","system_id":"levelo_inurba_marseille","lat":43.28273,"lon":5.35068,"is_reserved":false,"is_disabled":false,"rental_uris":{"android":"levelo://app?vid=0ffe100f-03d5-4d9c-bd45-4de1a82f5b87","ios":"levelo://app?vid=0ffe100f-03d5-4d9c-bd45-4de1a82f5b87"},"vehicle_type_id":"4","last_reported":1751648950,"current_range_meters":16000,"station_id":"ce4bhbp2rcd13ifvqerg","pricing_plan_id":"cebpf4jnsgd1na2vs0mg"},{"bike_id":"0f283137-45a2-42d4-b58d-88e420e4638b","system_id":"levelo_inurba_marseille","lat":43.2896,"lon":5.36381,"is_reserved":false,"is_disabled":false,"rental_uris":{"android":"levelo://app?vid=0f283137-45a2-42d4-b58d-88e420e4638b","ios":"levelo://app?vid=0f283137-45a2-42d4-b58d-88e420e4638b"},"vehicle_type_id":"4","last_reported":1751648950,"current_range_meters":16000,"station_id":"ce4bhc92rcd13ifvqetg","pricing_plan_id":"cebpf4jnsgd1na2vs0mg"},{"bike_id":"cc691ccb-edf3-4792-a217-f69116462577","system_id":"levelo_inurba_marseille","lat":43.26029,"lon":5.37549,"is_reserved":false,"is_disabled":false,"rental_uris":{"android":"levelo://app?vid=cc691ccb-edf3-4792-a217-f69116462577","ios":"levelo://app?vid=cc691ccb-edf3-4792-a217-f69116462577"},"vehicle_type_id":"4","last_reported":1751648950,"current_range_meters":16000,"station_id":"ce4bhgh2rcd13ifvqfa0","pricing_plan_id":"cebpf4jnsgd1na2vs0mg"},{"bike_id":"1fbba32a-4aca-4ba3-97a2-4f56c9ade373","system_id":"levelo_inurba_marseille","lat":43.29522,"lon":5.39037,"is_reserved":false,"is_disabled":false,"rental_uris":{"android":"levelo://app?vid=1fbba32a-4aca-4ba3-97a2-4f56c9ade373","ios":"levelo://app?vid=1fbba32a-4aca-4ba3-97a2-4f56c9ade373"},"vehicle_type_id":"4","last_reported":1751648950,"current_range_meters":16400,"station_id":"ce4bh3p2rcd13ifvqdp0","pricing_plan_id":"cebpf4jnsgd1na2vs0mg"},{"bike_id":"e4156c8b-0441-4c70-a51a-e3bd830f2a62","system_id":"levelo_inurba_marseille","lat":43.28415,"lon":5.34986,"is_reserved":false,"is_disabled":false,"rental_uris":{"android":"levelo://app?vid=e4156c8b-0441-4c70-a51a-e3bd830f2a62","ios":"levelo://app?vid=e4156c8b-0441-4c70-a51a-e3bd830f2a62"},"vehicle_type_id":"4","last_reported":1751648950,"current_range_meters":16400,"station_id":"ce4bhbh2rcd13ifvqepg","pricing_plan_id":"cebpf4jnsgd1na2vs0mg"},{"bike_id":"95c0efac-0ec1-43a4-9549-3557f75703fc","system_id":"levelo_inurba_marseille","lat":43.25015,"lon":5.38908,"is_reserved":false,"is_disabled":false,"rental_uris":{"android":"levelo://app?vid=95c0efac-0ec1-43a4-9549-3557f75703fc","ios":"levelo://app?vid=95c0efac-0ec1-43a4-9549-3557f75703fc"},"vehicle_type_id":"4","last_reported":1751648950,"current_range_meters":16400,"station_id":"ce4bhgp2rcd13ifvqfd0","pricing_plan_id":"cebpf4jnsgd1na2vs0mg"},{"bike_id":"37dcabc0-c775-4230-aa19-fe5bf4a755f8","system_id":"levelo_inurba_marseille","lat":43.278107,"lon":5.40712,"is_reserved":false,"is_disabled":false,"rental_uris":{"android":"levelo://app?vid=37dcabc0-c775-4230-aa19-fe5bf4a755f8","ios":"levelo://app?vid=37dcabc0-c775-4230-aa19-fe5bf4a755f8"},"vehicle_type_id":"4","last_reported":1751648950,"current_range_meters":16400,"station_id":"ce4bhnh2rcd13ifvqgtg","pricing_plan_id":"cebpf4jnsgd1na2vs0mg"},{"bike_id":"3847022a-5187-4521-af78-80f88fe96595","system_id":"levelo_inurba_marseille","lat":43.21182,"lon":5.35074,"is_reserved":false,"is_disabled":false,"rental_uris":{"android":"levelo://app?vid=3847022a-5187-4521-af78-80f88fe96595","ios":"levelo://app?vid=3847022a-5187-4521-af78-80f88fe96595"},"vehicle_type_id":"4","last_reported":1751648950,"current_range_meters":16400,"station_id":"st_cvj6sg6p6f1abm77japg","pricing_plan_id":"cebpf4jnsgd1na2vs0mg"},{"bike_id":"4db45513-e520-4598-82fa-5809d80d4f3d","system_id":"levelo_inurba_marseille","lat":43.28099,"lon":5.35482,"is_reserved":false,"is_disabled":false,"rental_uris":{"android":"levelo://app?vid=4db45513-e520-4598-82fa-5809d80d4f3d","ios":"levelo://app?vid=4db45513-e520-4598-82fa-5809d80d4f3d"},"vehicle_type_id":"4","last_reported":1751648950,"current_range_meters":16800,"station_id":"","pricing_plan_id":"cebpf4jnsgd1na2vs0mg"},{"bike_id":"52b3a478-bf6d-412e-bd99-30a9b793e7ef","system_id":"levelo_inurba_marseille","lat":43.29708,"lon":5.36616,"is_reserved":false,"is_disabled":false,"rental_uris":{"android":"levelo://app?vid=52b3a478-bf6d-412e-bd99-30a9b793e7ef","ios":"levelo://app?vid=52b3a478-bf6d-412e-bd99-30a9b793e7ef"},"vehicle_type_id":"4","last_reported":1751648950,"current_range_meters":16800,"station_id":"ce4bgn12rcd13ifvqbt0","pricing_plan_id":"cebpf4jnsgd1na2vs0mg"},{"bike_id":"d6c8fd92-db64-4f48-b850-1a28e6d2bfa7","system_id":"levelo_inurba_marseille","lat":43.29191,"lon":5.35792,"is_reserved":false,"is_disabled":false,"rental_uris":{"android":"levelo://app?vid=d6c8fd92-db64-4f48-b850-1a28e6d2bfa7","ios":"levelo://app?vid=d6c8fd92-db64-4f48-b850-1a28e6d2bfa7"},"vehicle_type_id":"4","last_reported":1751648950,"current_range_meters":16800,"station_id":"ce4bhb12rcd13ifvqel0","pricing_plan_id":"cebpf4jnsgd1na2vs0mg"},{"bike_id":"c5401d1a-3211-425d-8900-7e256f6118b6","system_id":"levelo_inurba_marseille","lat":43.28631,"lon":5.35091,"is_reserved":false,"is_disabled":false,"rental_uris":{"android":"levelo://app?vid=c5401d1a-3211-425d-8900-7e256f6118b6","ios":"levelo://app?vid=c5401d1a-3211-425d-8900-7e256f6118b6"},"vehicle_type_id":"4","last_reported":1751648950,"current_range_meters":16800,"station_id":"ce4bhch2rcd13ifvqeug","pricing_plan_id":"cebpf4jnsgd1na2vs0mg"},{"bike_id":"567c8a1b-879d-4d76-806f-97fa85be6117","system_id":"levelo_inurba_marseille","lat":43.32077,"lon":5.41531,"is_reserved":false,"is_disabled":false,"rental_uris":{"android":"levelo://app?vid=567c8a1b-879d-4d76-806f-97fa85be6117","ios":"levelo://app?vid=567c8a1b-879d-4d76-806f-97fa85be6117"},"vehicle_type_id":"4","last_reported":1751648950,"current_range_meters":16800,"station_id":"ce4bhq92rcd13ifvqhkg","pricing_plan_id":"cebpf4jnsgd1na2vs0mg"},{"bike_id":"062cdbb3-c7f5-4500-9343-db69844d5a26","system_id":"levelo_inurba_marseille","lat":43.30324,"lon":5.40436,"is_reserved":false,"is_disabled":false,"rental_uris":{"android":"levelo://app?vid=062cdbb3-c7f5-4500-9343-db69844d5a26","ios":"levelo://app?vid=062cdbb3-c7f5-4500-9343-db69844d5a26"},"vehicle_type_id":"4","last_reported":1751648950,"current_range_meters":17200,"station_id":"ce4bh012rcd13ifvqd10","pricing_plan_id":"cebpf4jnsgd1na2vs0mg"},{"bike_id":"a70e5335-fb5d-4e50-af2f-e7fb4ef6c838","system_id":"levelo_inurba_marseille","lat":43.2842,"lon":5.34993,"is_reserved":false,"is_disabled":false,"rental_uris":{"android":"levelo://app?vid=a70e5335-fb5d-4e50-af2f-e7fb4ef6c838","ios":"levelo://app?vid=a70e5335-fb5d-4e50-af2f-e7fb4ef6c838"},"vehicle_type_id":"4","last_reported":1751648950,"current_range_meters":17200,"station_id":"ce4bhbh2rcd13ifvqepg","pricing_plan_id":"cebpf4jnsgd1na2vs0mg"},{"bike_id":"29b19e99-4845-4ee3-b1ee-35721cd36dc7","system_id":"levelo_inurba_marseille","lat":43.23192,"lon":5.35545,"is_reserved":false,"is_disabled":false,"rental_uris":{"android":"levelo://app?vid=29b19e99-4845-4ee3-b1ee-35721cd36dc7","ios":"levelo://app?vid=29b19e99-4845-4ee3-b1ee-35721cd36dc7"},"vehicle_type_id":"4","last_reported":1751648950,"current_range_meters":17200,"station_id":"ce4bhu92rcd13ifvqi70","pricing_plan_id":"cebpf4jnsgd1na2vs0mg"},{"bike_id":"5f470112-8139-4343-b082-08a74e0b7074","system_id":"levelo_inurba_marseille","lat":43.21202,"lon":5.35082,"is_reserved":false,"is_disabled":false,"rental_uris":{"android":"levelo://app?vid=5f470112-8139-4343-b082-08a74e0b7074","ios":"levelo://app?vid=5f470112-8139-4343-b082-08a74e0b7074"},"vehicle_type_id":"4","last_reported":1751648950,"current_range_meters":17200,"station_id":"st_cvj6sg6p6f1abm77japg","pricing_plan_id":"cebpf4jnsgd1na2vs0mg"},{"bike_id":"b1d40197-e49c-4962-8cd8-0babe05d31a6","system_id":"levelo_inurba_marseille","lat":43.21282,"lon":5.35266,"is_reserved":false,"is_disabled":false,"rental_uris":{"android":"levelo://app?vid=b1d40197-e49c-4962-8cd8-0babe05d31a6","ios":"levelo://app?vid=b1d40197-e49c-4962-8cd8-0babe05d31a6"},"vehicle_type_id":"4","last_reported":1751648950,"current_range_meters":17600,"station_id":"","pricing_plan_id":"cebpf4jnsgd1na2vs0mg"},{"bike_id":"a6820e73-81ac-43ee-a4d9-094bbcd82724","system_id":"levelo_inurba_marseille","lat":43.306,"lon":5.39357,"is_reserved":false,"is_disabled":false,"rental_uris":{"android":"levelo://app?vid=a6820e73-81ac-43ee-a4d9-094bbcd82724","ios":"levelo://app?vid=a6820e73-81ac-43ee-a4d9-094bbcd82724"},"vehicle_type_id":"4","last_reported":1751648950,"current_range_meters":17600,"station_id":"ce4bh0p2rcd13ifvqd80","pricing_plan_id":"cebpf4jnsgd1na2vs0mg"},{"bike_id":"8ab58e32-2b65-4431-a845-d231cc6ef01b","system_id":"levelo_inurba_marseille","lat":43.29008,"lon":5.35614,"is_reserved":false,"is_disabled":false,"rental_uris":{"android":"levelo://app?vid=8ab58e32-2b65-4431-a845-d231cc6ef01b","ios":"levelo://app?vid=8ab58e32-2b65-4431-a845-d231cc6ef01b"},"vehicle_type_id":"4","last_reported":1751648950,"current_range_meters":17600,"station_id":"ce4bhb92rcd13ifvqen0","pricing_plan_id":"cebpf4jnsgd1na2vs0mg"},{"bike_id":"552bcf28-72f1-4f10-b8f6-f0512fe0cc4b","system_id":"levelo_inurba_marseille","lat":43.2738,"lon":5.36263,"is_reserved":false,"is_disabled":false,"rental_uris":{"android":"levelo://app?vid=552bcf28-72f1-4f10-b8f6-f0512fe0cc4b","ios":"levelo://app?vid=552bcf28-72f1-4f10-b8f6-f0512fe0cc4b"},"vehicle_type_id":"4","last_reported":1751648950,"current_range_meters":17600,"station_id":"ce4bhbh2rcd13ifvqeo0","pricing_plan_id":"cebpf4jnsgd1na2vs0mg"},{"bike_id":"49b7d108-94a8-4101-98f1-03c80d1e3bd4","system_id":"levelo_inurba_marseille","lat":43.324937,"lon":5.365804,"is_reserved":false,"is_disabled":false,"rental_uris":{"android":"levelo://app?vid=49b7d108-94a8-4101-98f1-03c80d1e3bd4","ios":"levelo://app?vid=49b7d108-94a8-4101-98f1-03c80d1e3bd4"},"vehicle_type_id":"4","last_reported":1751648950,"current_range_meters":17600,"station_id":"ce4bhs12rcd13ifvqhvg","pricing_plan_id":"cebpf4jnsgd1na2vs0mg"},{"bike_id":"29ade5b3-0c24-42d4-87d5-b56ee0267083","system_id":"levelo_inurba_marseille","lat":43.305847,"lon":5.393543,"is_reserved":false,"is_disabled":false,"rental_uris":{"android":"levelo://app?vid=29ade5b3-0c24-42d4-87d5-b56ee0267083","ios":"levelo://app?vid=29ade5b3-0c24-42d4-87d5-b56ee0267083"},"vehicle_type_id":"4","last_reported":1751648950,"current_range_meters":18000,"station_id":"","pricing_plan_id":"cebpf4jnsgd1na2vs0mg"},{"bike_id":"3c1f56c8-4e3b-48bc-a009-7f70fcdbcdd5","system_id":"levelo_inurba_marseille","lat":43.30582,"lon":5.39348,"is_reserved":false,"is_disabled":false,"rental_uris":{"android":"levelo://app?vid=3c1f56c8-4e3b-48bc-a009-7f70fcdbcdd5","ios":"levelo://app?vid=3c1f56c8-4e3b-48bc-a009-7f70fcdbcdd5"},"vehicle_type_id":"4","last_reported":1751648950,"current_range_meters":18000,"station_id":"ce4bh0p2rcd13ifvqd80","pricing_plan_id":"cebpf4jnsgd1na2vs0mg"},{"bike_id":"ffbee037-c28c-4bd4-acfd-fad70d66e16c","system_id":"levelo_inurba_marseille","lat":43.28267,"lon":5.3507,"is_reserved":false,"is_disabled":false,"rental_uris":{"android":"levelo://app?vid=ffbee037-c28c-4bd4-acfd-fad70d66e16c","ios":"levelo://app?vid=ffbee037-c28c-4bd4-acfd-fad70d66e16c"},"vehicle_type_id":"4","last_reported":1751648950,"current_range_meters":18000,"station_id":"ce4bhbp2rcd13ifvqerg","pricing_plan_id":"cebpf4jnsgd1na2vs0mg"},{"bike_id":"fca35252-6d64-42b2-b9ee-98edaaf7fc8a","system_id":"levelo_inurba_marseille","lat":43.28618,"lon":5.35104,"is_reserved":false,"is_disabled":false,"rental_uris":{"android":"levelo://app?vid=fca35252-6d64-42b2-b9ee-98edaaf7fc8a","ios":"levelo://app?vid=fca35252-6d64-42b2-b9ee-98edaaf7fc8a"},"vehicle_type_id":"4","last_reported":1751648950,"current_range_meters":18000,"station_id":"ce4bhch2rcd13ifvqeug","pricing_plan_id":"cebpf4jnsgd1na2vs0mg"},{"bike_id":"3cf0bd9e-a6b9-41bd-95c5-e8f2f38ad360","system_id":"levelo_inurba_marseille","lat":43.26554,"lon":5.37284,"is_reserved":false,"is_disabled":false,"rental_uris":{"android":"levelo://app?vid=3cf0bd9e-a6b9-41bd-95c5-e8f2f38ad360","ios":"levelo://app?vid=3cf0bd9e-a6b9-41bd-95c5-e8f2f38ad360"},"vehicle_type_id":"4","last_reported":1751648950,"current_range_meters":18000,"station_id":"ce4bhg12rcd13ifvqf70","pricing_plan_id":"cebpf4jnsgd1na2vs0mg"},{"bike_id":"4fc690c8-41ff-46d3-ad6b-f61599f22e68","system_id":"levelo_inurba_marseille","lat":43.2715,"lon":5.40994,"is_reserved":false,"is_disabled":false,"rental_uris":{"android":"levelo://app?vid=4fc690c8-41ff-46d3-ad6b-f61599f22e68","ios":"levelo://app?vid=4fc690c8-41ff-46d3-ad6b-f61599f22e68"},"vehicle_type_id":"4","last_reported":1751648950,"current_range_meters":18000,"station_id":"ce4bhl12rcd13ifvqgf0","pricing_plan_id":"cebpf4jnsgd1na2vs0mg"},{"bike_id":"85e59ae2-b351-4789-8c40-11e04c4e6808","system_id":"levelo_inurba_marseille","lat":43.23203,"lon":5.35544,"is_reserved":false,"is_disabled":false,"rental_uris":{"android":"levelo://app?vid=85e59ae2-b351-4789-8c40-11e04c4e6808","ios":"levelo://app?vid=85e59ae2-b351-4789-8c40-11e04c4e6808"},"vehicle_type_id":"4","last_reported":1751648950,"current_range_meters":18000,"station_id":"ce4bhu92rcd13ifvqi70","pricing_plan_id":"cebpf4jnsgd1na2vs0mg"},{"bike_id":"8501c7f1-4540-433a-9226-9677bd87b71a","system_id":"levelo_inurba_marseille","lat":43.21197,"lon":5.35068,"is_reserved":false,"is_disabled":false,"rental_uris":{"android":"levelo://app?vid=8501c7f1-4540-433a-9226-9677bd87b71a","ios":"levelo://app?vid=8501c7f1-4540-433a-9226-9677bd87b71a"},"vehicle_type_id":"4","last_reported":1751648950,"current_range_meters":18000,"station_id":"st_cvj6sg6p6f1abm77japg","pricing_plan_id":"cebpf4jnsgd1na2vs0mg"},{"bike_id":"25d65b54-2483-49ad-9e8c-b4102ded682f","system_id":"levelo_inurba_marseille","lat":43.21207,"lon":5.3508,"is_reserved":false,"is_disabled":false,"rental_uris":{"android":"levelo://app?vid=25d65b54-2483-49ad-9e8c-b4102ded682f","ios":"levelo://app?vid=25d65b54-2483-49ad-9e8c-b4102ded682f"},"vehicle_type_id":"4","last_reported":1751648950,"current_range_meters":18000,"station_id":"st_cvj6sg6p6f1abm77japg","pricing_plan_id":"cebpf4jnsgd1na2vs0mg"},{"bike_id":"b67e3de7-3a98-48a8-ada1-6072073e6e54","system_id":"levelo_inurba_marseille","lat":43.24572,"lon":5.37353,"is_reserved":false,"is_disabled":false,"rental_uris":{"android":"levelo://app?vid=b67e3de7-3a98-48a8-ada1-6072073e6e54","ios":"levelo://app?vid=b67e3de7-3a98-48a8-ada1-6072073e6e54"},"vehicle_type_id":"4","last_reported":1751648950,"current_range_meters":18800,"station_id":"","pricing_plan_id":"cebpf4jnsgd1na2vs0mg"},{"bike_id":"eee40584-a53a-46c2-94a4-491b77e8d9d1","system_id":"levelo_inurba_marseille","lat":43.217438,"lon":5.346125,"is_reserved":false,"is_disabled":false,"rental_uris":{"android":"levelo://app?vid=eee40584-a53a-46c2-94a4-491b77e8d9d1","ios":"levelo://app?vid=eee40584-a53a-46c2-94a4-491b77e8d9d1"},"vehicle_type_id":"4","last_reported":1751648950,"current_range_meters":18800,"station_id":"","pricing_plan_id":"cebpf4jnsgd1na2vs0mg"},{"bike_id":"adf1d38d-1f03-40cf-9b57-0a8f15f62b2d","system_id":"levelo_inurba_marseille","lat":43.32968,"lon":5.3641,"is_reserved":false,"is_disabled":false,"rental_uris":{"android":"levelo://app?vid=adf1d38d-1f03-40cf-9b57-0a8f15f62b2d","ios":"levelo://app?vid=adf1d38d-1f03-40cf-9b57-0a8f15f62b2d"},"vehicle_type_id":"4","last_reported":1751648950,"current_range_meters":18800,"station_id":"","pricing_plan_id":"cebpf4jnsgd1na2vs0mg"},{"bike_id":"c8a35068-4228-41b5-a339-a47933f1ab07","system_id":"levelo_inurba_marseille","lat":43.30931,"lon":5.39035,"is_reserved":false,"is_disabled":false,"rental_uris":{"android":"levelo://app?vid=c8a35068-4228-41b5-a339-a47933f1ab07","ios":"levelo://app?vid=c8a35068-4228-41b5-a339-a47933f1ab07"},"vehicle_type_id":"4","last_reported":1751648950,"current_range_meters":18800,"station_id":"ce4bgup2rcd13ifvqco0","pricing_plan_id":"cebpf4jnsgd1na2vs0mg"},{"bike_id":"aca05101-36a3-469a-8f75-e3270e85fd82","system_id":"levelo_inurba_marseille","lat":43.28407,"lon":5.34981,"is_reserved":false,"is_disabled":false,"rental_uris":{"android":"levelo://app?vid=aca05101-36a3-469a-8f75-e3270e85fd82","ios":"levelo://app?vid=aca05101-36a3-469a-8f75-e3270e85fd82"},"vehicle_type_id":"4","last_reported":1751648950,"current_range_meters":18800,"station_id":"ce4bhbh2rcd13ifvqepg","pricing_plan_id":"cebpf4jnsgd1na2vs0mg"},{"bike_id":"f451538d-2ed7-4580-9741-ad992acdae8d","system_id":"levelo_inurba_marseille","lat":43.28247,"lon":5.35083,"is_reserved":false,"is_disabled":false,"rental_uris":{"android":"levelo://app?vid=f451538d-2ed7-4580-9741-ad992acdae8d","ios":"levelo://app?vid=f451538d-2ed7-4580-9741-ad992acdae8d"},"vehicle_type_id":"4","last_reported":1751648950,"current_range_meters":18800,"station_id":"ce4bhbp2rcd13ifvqerg","pricing_plan_id":"cebpf4jnsgd1na2vs0mg"},{"bike_id":"bda7eb87-8e42-45a8-b810-0d53ae5ac69c","system_id":"levelo_inurba_marseille","lat":43.28266,"lon":5.3506,"is_reserved":false,"is_disabled":false,"rental_uris":{"android":"levelo://app?vid=bda7eb87-8e42-45a8-b810-0d53ae5ac69c","ios":"levelo://app?vid=bda7eb87-8e42-45a8-b810-0d53ae5ac69c"},"vehicle_type_id":"4","last_reported":1751648950,"current_range_meters":18800,"station_id":"ce4bhbp2rcd13ifvqerg","pricing_plan_id":"cebpf4jnsgd1na2vs0mg"},{"bike_id":"54756faf-cb40-4ef1-aa74-0a23070f1a67","system_id":"levelo_inurba_marseille","lat":43.26216,"lon":5.37438,"is_reserved":false,"is_disabled":false,"rental_uris":{"android":"levelo://app?vid=54756faf-cb40-4ef1-aa74-0a23070f1a67","ios":"levelo://app?vid=54756faf-cb40-4ef1-aa74-0a23070f1a67"},"vehicle_type_id":"4","last_reported":1751648950,"current_range_meters":18800,"station_id":"ce4bhgp2rcd13ifvqfc0","pricing_plan_id":"cebpf4jnsgd1na2vs0mg"},{"bike_id":"7bffb2ac-cfbe-46cb-b09c-e7a1b0640d0f","system_id":"levelo_inurba_marseille","lat":43.27072,"lon":5.42265,"is_reserved":false,"is_disabled":false,"rental_uris":{"android":"levelo://app?vid=7bffb2ac-cfbe-46cb-b09c-e7a1b0640d0f","ios":"levelo://app?vid=7bffb2ac-cfbe-46cb-b09c-e7a1b0640d0f"},"vehicle_type_id":"4","last_reported":1751648950,"current_range_meters":18800,"station_id":"ce4bhk92rcd13ifvqgb0","pricing_plan_id":"cebpf4jnsgd1na2vs0mg"},{"bike_id":"07f081a2-566a-4c1a-969c-88e4a79d9f17","system_id":"levelo_inurba_marseille","lat":43.281566,"lon":5.426444,"is_reserved":false,"is_disabled":false,"rental_uris":{"android":"levelo://app?vid=07f081a2-566a-4c1a-969c-88e4a79d9f17","ios":"levelo://app?vid=07f081a2-566a-4c1a-969c-88e4a79d9f17"},"vehicle_type_id":"4","last_reported":1751648950,"current_range_meters":18800,"station_id":"ce4bhnh2rcd13ifvqgug","pricing_plan_id":"cebpf4jnsgd1na2vs0mg"},{"bike_id":"1f970516-2340-4fe4-946a-9ffac343ed31","system_id":"levelo_inurba_marseille","lat":43.24166,"lon":5.36398,"is_reserved":false,"is_disabled":false,"rental_uris":{"android":"levelo://app?vid=1f970516-2340-4fe4-946a-9ffac343ed31","ios":"levelo://app?vid=1f970516-2340-4fe4-946a-9ffac343ed31"},"vehicle_type_id":"4","last_reported":1751648950,"current_range_meters":18800,"station_id":"cpo36qri1sfpv3e86is0","pricing_plan_id":"cebpf4jnsgd1na2vs0mg"},{"bike_id":"94b8253a-c816-47be-9f9e-876cf02f4a4f","system_id":"levelo_inurba_marseille","lat":43.2119,"lon":5.35061,"is_reserved":false,"is_disabled":false,"rental_uris":{"android":"levelo://app?vid=94b8253a-c816-47be-9f9e-876cf02f4a4f","ios":"levelo://app?vid=94b8253a-c816-47be-9f9e-876cf02f4a4f"},"vehicle_type_id":"4","last_reported":1751648950,"current_range_meters":18800,"station_id":"st_cvj6sg6p6f1abm77japg","pricing_plan_id":"cebpf4jnsgd1na2vs0mg"},{"bike_id":"134a6fd1-cb8b-4ade-a0c2-0b22bf7dca76","system_id":"levelo_inurba_marseille","lat":43.211891,"lon":5.350727,"is_reserved":false,"is_disabled":false,"rental_uris":{"android":"levelo://app?vid=134a6fd1-cb8b-4ade-a0c2-0b22bf7dca76","ios":"levelo://app?vid=134a6fd1-cb8b-4ade-a0c2-0b22bf7dca76"},"vehicle_type_id":"4","last_reported":1751648950,"current_range_meters":18800,"station_id":"st_cvj6sg6p6f1abm77japg","pricing_plan_id":"cebpf4jnsgd1na2vs0mg"},{"bike_id":"d4345a8e-7aa2-4c8a-8d19-5846acc24fe2","system_id":"levelo_inurba_marseille","lat":43.30142,"lon":5.38776,"is_reserved":false,"is_disabled":false,"rental_uris":{"android":"levelo://app?vid=d4345a8e-7aa2-4c8a-8d19-5846acc24fe2","ios":"levelo://app?vid=d4345a8e-7aa2-4c8a-8d19-5846acc24fe2"},"vehicle_type_id":"4","last_reported":1751648950,"current_range_meters":19200,"station_id":"ce4bghh2rcd13ifvqb60","pricing_plan_id":"cebpf4jnsgd1na2vs0mg"},{"bike_id":"a584e8ba-cc7d-49c8-818b-96b2cf09a742","system_id":"levelo_inurba_marseille","lat":43.27621,"lon":5.36107,"is_reserved":false,"is_disabled":false,"rental_uris":{"android":"levelo://app?vid=a584e8ba-cc7d-49c8-818b-96b2cf09a742","ios":"levelo://app?vid=a584e8ba-cc7d-49c8-818b-96b2cf09a742"},"vehicle_type_id":"4","last_reported":1751648950,"current_range_meters":19200,"station_id":"ce4bgj92rcd13ifvqbe0","pricing_plan_id":"cebpf4jnsgd1na2vs0mg"},{"bike_id":"2eaff819-17d1-426e-9e73-eca677836486","system_id":"levelo_inurba_marseille","lat":43.29003,"lon":5.35602,"is_reserved":false,"is_disabled":false,"rental_uris":{"android":"levelo://app?vid=2eaff819-17d1-426e-9e73-eca677836486","ios":"levelo://app?vid=2eaff819-17d1-426e-9e73-eca677836486"},"vehicle_type_id":"4","last_reported":1751648950,"current_range_meters":19200,"station_id":"ce4bhb92rcd13ifvqen0","pricing_plan_id":"cebpf4jnsgd1na2vs0mg"},{"bike_id":"76a2bef7-398e-4f1f-8e0a-99cd2bb38c2d","system_id":"levelo_inurba_marseille","lat":43.28616,"lon":5.35112,"is_reserved":false,"is_disabled":false,"rental_uris":{"android":"levelo://app?vid=76a2bef7-398e-4f1f-8e0a-99cd2bb38c2d","ios":"levelo://app?vid=76a2bef7-398e-4f1f-8e0a-99cd2bb38c2d"},"vehicle_type_id":"4","last_reported":1751648950,"current_range_meters":19200,"station_id":"ce4bhch2rcd13ifvqeug","pricing_plan_id":"cebpf4jnsgd1na2vs0mg"},{"bike_id":"2dfefc75-ee6a-4525-ab73-850b46d8f26c","system_id":"levelo_inurba_marseille","lat":43.260324,"lon":5.375415,"is_reserved":false,"is_disabled":false,"rental_uris":{"android":"levelo://app?vid=2dfefc75-ee6a-4525-ab73-850b46d8f26c","ios":"levelo://app?vid=2dfefc75-ee6a-4525-ab73-850b46d8f26c"},"vehicle_type_id":"4","last_reported":1751648950,"current_range_meters":19200,"station_id":"ce4bhgh2rcd13ifvqfa0","pricing_plan_id":"cebpf4jnsgd1na2vs0mg"},{"bike_id":"fe8ee84c-fdfc-40aa-a1c2-6e36409c0740","system_id":"levelo_inurba_marseille","lat":43.268098,"lon":5.390651,"is_reserved":false,"is_disabled":false,"rental_uris":{"android":"levelo://app?vid=fe8ee84c-fdfc-40aa-a1c2-6e36409c0740","ios":"levelo://app?vid=fe8ee84c-fdfc-40aa-a1c2-6e36409c0740"},"vehicle_type_id":"4","last_reported":1751648950,"current_range_meters":19600,"station_id":"","pricing_plan_id":"cebpf4jnsgd1na2vs0mg"},{"bike_id":"3fc62123-78f7-4bfd-9645-67a7412e0768","system_id":"levelo_inurba_marseille","lat":43.2573,"lon":5.41107,"is_reserved":false,"is_disabled":false,"rental_uris":{"android":"levelo://app?vid=3fc62123-78f7-4bfd-9645-67a7412e0768","ios":"levelo://app?vid=3fc62123-78f7-4bfd-9645-67a7412e0768"},"vehicle_type_id":"4","last_reported":1751648950,"current_range_meters":19600,"station_id":"","pricing_plan_id":"cebpf4jnsgd1na2vs0mg"},{"bike_id":"f541560e-fc1c-473f-853b-18d90076463c","system_id":"levelo_inurba_marseille","lat":43.28419,"lon":5.34985,"is_reserved":false,"is_disabled":false,"rental_uris":{"android":"levelo://app?vid=f541560e-fc1c-473f-853b-18d90076463c","ios":"levelo://app?vid=f541560e-fc1c-473f-853b-18d90076463c"},"vehicle_type_id":"4","last_reported":1751648950,"current_range_meters":19600,"station_id":"ce4bhbh2rcd13ifvqepg","pricing_plan_id":"cebpf4jnsgd1na2vs0mg"},{"bike_id":"3ad44345-9616-42e5-8a13-a2e22cbbf363","system_id":"levelo_inurba_marseille","lat":43.28432,"lon":5.34991,"is_reserved":false,"is_disabled":false,"rental_uris":{"android":"levelo://app?vid=3ad44345-9616-42e5-8a13-a2e22cbbf363","ios":"levelo://app?vid=3ad44345-9616-42e5-8a13-a2e22cbbf363"},"vehicle_type_id":"4","last_reported":1751648950,"current_range_meters":19600,"station_id":"ce4bhbh2rcd13ifvqepg","pricing_plan_id":"cebpf4jnsgd1na2vs0mg"},{"bike_id":"1f0b82ba-cbcd-4944-98b7-17d8a0aec6e9","system_id":"levelo_inurba_marseille","lat":43.28414,"lon":5.34989,"is_reserved":false,"is_disabled":false,"rental_uris":{"android":"levelo://app?vid=1f0b82ba-cbcd-4944-98b7-17d8a0aec6e9","ios":"levelo://app?vid=1f0b82ba-cbcd-4944-98b7-17d8a0aec6e9"},"vehicle_type_id":"4","last_reported":1751648950,"current_range_meters":19600,"station_id":"ce4bhbh2rcd13ifvqepg","pricing_plan_id":"cebpf4jnsgd1na2vs0mg"},{"bike_id":"db41792f-81e6-4396-955a-7c06aefea4f1","system_id":"levelo_inurba_marseille","lat":43.239668,"lon":5.366309,"is_reserved":false,"is_disabled":false,"rental_uris":{"android":"levelo://app?vid=db41792f-81e6-4396-955a-7c06aefea4f1","ios":"levelo://app?vid=db41792f-81e6-4396-955a-7c06aefea4f1"},"vehicle_type_id":"4","last_reported":1751648950,"current_range_meters":19600,"station_id":"ce4bhi12rcd13ifvqfp0","pricing_plan_id":"cebpf4jnsgd1na2vs0mg"},{"bike_id":"997e8cbc-581a-436f-8334-2958b6d5e898","system_id":"levelo_inurba_marseille","lat":43.24068,"lon":5.37765,"is_reserved":false,"is_disabled":false,"rental_uris":{"android":"levelo://app?vid=997e8cbc-581a-436f-8334-2958b6d5e898","ios":"levelo://app?vid=997e8cbc-581a-436f-8334-2958b6d5e898"},"vehicle_type_id":"4","last_reported":1751648950,"current_range_meters":19600,"station_id":"ce4bhnp2rcd13ifvqgvg","pricing_plan_id":"cebpf4jnsgd1na2vs0mg"},{"bike_id":"d5ef770d-9759-47e3-b3a5-7d2785ef76db","system_id":"levelo_inurba_marseille","lat":43.3305,"lon":5.39021,"is_reserved":false,"is_disabled":false,"rental_uris":{"android":"levelo://app?vid=d5ef770d-9759-47e3-b3a5-7d2785ef76db","ios":"levelo://app?vid=d5ef770d-9759-47e3-b3a5-7d2785ef76db"},"vehicle_type_id":"4","last_reported":1751648950,"current_range_meters":19600,"station_id":"ce4bhr92rcd13ifvqhrg","pricing_plan_id":"cebpf4jnsgd1na2vs0mg"},{"bike_id":"5fe94004-3a53-40ab-be2e-4f3ac524a0e8","system_id":"levelo_inurba_marseille","lat":43.23062,"lon":5.35495,"is_reserved":false,"is_disabled":false,"rental_uris":{"android":"levelo://app?vid=5fe94004-3a53-40ab-be2e-4f3ac524a0e8","ios":"levelo://app?vid=5fe94004-3a53-40ab-be2e-4f3ac524a0e8"},"vehicle_type_id":"4","last_reported":1751648950,"current_range_meters":19600,"station_id":"cpo3342slgdg3j2ifvpg","pricing_plan_id":"cebpf4jnsgd1na2vs0mg"},{"bike_id":"bf24b26e-7f51-4120-9a48-54c87edaa2f7","system_id":"levelo_inurba_marseille","lat":43.21209,"lon":5.35098,"is_reserved":false,"is_disabled":false,"rental_uris":{"android":"levelo://app?vid=bf24b26e-7f51-4120-9a48-54c87edaa2f7","ios":"levelo://app?vid=bf24b26e-7f51-4120-9a48-54c87edaa2f7"},"vehicle_type_id":"4","last_reported":1751648950,"current_range_meters":19600,"station_id":"st_cvj6sg6p6f1abm77japg","pricing_plan_id":"cebpf4jnsgd1na2vs0mg"},{"bike_id":"de82732e-0a39-4d40-b3cf-607f82f986f4","system_id":"levelo_inurba_marseille","lat":43.26878,"lon":5.36864,"is_reserved":false,"is_disabled":false,"rental_uris":{"android":"levelo://app?vid=de82732e-0a39-4d40-b3cf-607f82f986f4","ios":"levelo://app?vid=de82732e-0a39-4d40-b3cf-607f82f986f4"},"vehicle_type_id":"4","last_reported":1751648950,"current_range_meters":20000,"station_id":"","pricing_plan_id":"cebpf4jnsgd1na2vs0mg"},{"bike_id":"5b5ca915-19f5-4c5c-ba88-71fe4a9869eb","system_id":"levelo_inurba_marseille","lat":43.316941,"lon":5.377676,"is_reserved":false,"is_disabled":false,"rental_uris":{"android":"levelo://app?vid=5b5ca915-19f5-4c5c-ba88-71fe4a9869eb","ios":"levelo://app?vid=5b5ca915-19f5-4c5c-ba88-71fe4a9869eb"},"vehicle_type_id":"4","last_reported":1751648950,"current_range_meters":20000,"station_id":"ce4bgth2rcd13ifvqch0","pricing_plan_id":"cebpf4jnsgd1na2vs0mg"},{"bike_id":"3e9f2742-ac46-41ca-b950-9cabece2c617","system_id":"levelo_inurba_marseille","lat":43.27373,"lon":5.3626,"is_reserved":false,"is_disabled":false,"rental_uris":{"android":"levelo://app?vid=3e9f2742-ac46-41ca-b950-9cabece2c617","ios":"levelo://app?vid=3e9f2742-ac46-41ca-b950-9cabece2c617"},"vehicle_type_id":"4","last_reported":1751648950,"current_range_meters":20000,"station_id":"ce4bhbh2rcd13ifvqeo0","pricing_plan_id":"cebpf4jnsgd1na2vs0mg"},{"bike_id":"7bba8a3e-5b56-4797-a43e-860cbf4b2360","system_id":"levelo_inurba_marseille","lat":43.27372,"lon":5.36253,"is_reserved":false,"is_disabled":false,"rental_uris":{"android":"levelo://app?vid=7bba8a3e-5b56-4797-a43e-860cbf4b2360","ios":"levelo://app?vid=7bba8a3e-5b56-4797-a43e-860cbf4b2360"},"vehicle_type_id":"4","last_reported":1751648950,"current_range_meters":20000,"station_id":"ce4bhbh2rcd13ifvqeo0","pricing_plan_id":"cebpf4jnsgd1na2vs0mg"},{"bike_id":"5e892ba8-ca6b-49a5-bade-0e0704019d8d","system_id":"levelo_inurba_marseille","lat":43.282742,"lon":5.350628,"is_reserved":false,"is_disabled":false,"rental_uris":{"android":"levelo://app?vid=5e892ba8-ca6b-49a5-bade-0e0704019d8d","ios":"levelo://app?vid=5e892ba8-ca6b-49a5-bade-0e0704019d8d"},"vehicle_type_id":"4","last_reported":1751648950,"current_range_meters":20000,"station_id":"ce4bhbp2rcd13ifvqerg","pricing_plan_id":"cebpf4jnsgd1na2vs0mg"},{"bike_id":"d79582d6-f852-42e4-b0e4-8e8e52185a45","system_id":"levelo_inurba_marseille","lat":43.28626,"lon":5.35125,"is_reserved":false,"is_disabled":false,"rental_uris":{"android":"levelo://app?vid=d79582d6-f852-42e4-b0e4-8e8e52185a45","ios":"levelo://app?vid=d79582d6-f852-42e4-b0e4-8e8e52185a45"},"vehicle_type_id":"4","last_reported":1751648950,"current_range_meters":20000,"station_id":"ce4bhch2rcd13ifvqeug","pricing_plan_id":"cebpf4jnsgd1na2vs0mg"},{"bike_id":"08f024a2-052b-49f2-b915-5fcd37b7665a","system_id":"levelo_inurba_marseille","lat":43.229338,"lon":5.353662,"is_reserved":false,"is_disabled":false,"rental_uris":{"android":"levelo://app?vid=08f024a2-052b-49f2-b915-5fcd37b7665a","ios":"levelo://app?vid=08f024a2-052b-49f2-b915-5fcd37b7665a"},"vehicle_type_id":"4","last_reported":1751648950,"current_range_meters":20000,"station_id":"cpo3342slgdg3j2ifvpg","pricing_plan_id":"cebpf4jnsgd1na2vs0mg"},{"bike_id":"48c0f9e1-29c0-418e-bd30-228584210a70","system_id":"levelo_inurba_marseille","lat":43.28423,"lon":5.34983,"is_reserved":false,"is_disabled":false,"rental_uris":{"android":"levelo://app?vid=48c0f9e1-29c0-418e-bd30-228584210a70","ios":"levelo://app?vid=48c0f9e1-29c0-418e-bd30-228584210a70"},"vehicle_type_id":"4","last_reported":1751648950,"current_range_meters":20400,"station_id":"ce4bhbh2rcd13ifvqepg","pricing_plan_id":"cebpf4jnsgd1na2vs0mg"},{"bike_id":"2878b601-b4b1-4a08-98dc-b73345687e2a","system_id":"levelo_inurba_marseille","lat":43.26683,"lon":5.38253,"is_reserved":false,"is_disabled":false,"rental_uris":{"android":"levelo://app?vid=2878b601-b4b1-4a08-98dc-b73345687e2a","ios":"levelo://app?vid=2878b601-b4b1-4a08-98dc-b73345687e2a"},"vehicle_type_id":"4","last_reported":1751648950,"current_range_meters":20400,"station_id":"ce4bhg92rcd13ifvqf90","pricing_plan_id":"cebpf4jnsgd1na2vs0mg"},{"bike_id":"ad002f05-232b-4c3b-8abf-d597dbfa8a55","system_id":"levelo_inurba_marseille","lat":43.2408,"lon":5.3775,"is_reserved":false,"is_disabled":false,"rental_uris":{"android":"levelo://app?vid=ad002f05-232b-4c3b-8abf-d597dbfa8a55","ios":"levelo://app?vid=ad002f05-232b-4c3b-8abf-d597dbfa8a55"},"vehicle_type_id":"4","last_reported":1751648950,"current_range_meters":20400,"station_id":"ce4bhnp2rcd13ifvqgvg","pricing_plan_id":"cebpf4jnsgd1na2vs0mg"},{"bike_id":"e449aa29-cae1-4432-9aec-dedc13360b20","system_id":"levelo_inurba_marseille","lat":43.21201,"lon":5.35083,"is_reserved":false,"is_disabled":false,"rental_uris":{"android":"levelo://app?vid=e449aa29-cae1-4432-9aec-dedc13360b20","ios":"levelo://app?vid=e449aa29-cae1-4432-9aec-dedc13360b20"},"vehicle_type_id":"4","last_reported":1751648950,"current_range_meters":20400,"station_id":"st_cvj6sg6p6f1abm77japg","pricing_plan_id":"cebpf4jnsgd1na2vs0mg"},{"bike_id":"1036f3b5-5954-48a3-93e5-d291f1ca0c73","system_id":"levelo_inurba_marseille","lat":43.29597,"lon":5.37497,"is_reserved":false,"is_disabled":false,"rental_uris":{"android":"levelo://app?vid=1036f3b5-5954-48a3-93e5-d291f1ca0c73","ios":"levelo://app?vid=1036f3b5-5954-48a3-93e5-d291f1ca0c73"},"vehicle_type_id":"4","last_reported":1751648950,"current_range_meters":20800,"station_id":"ce4bgh92rcd13ifvqb50","pricing_plan_id":"cebpf4jnsgd1na2vs0mg"},{"bike_id":"01ceb79c-6f0e-492a-bc7a-543748abc6f9","system_id":"levelo_inurba_marseille","lat":43.28427,"lon":5.3498,"is_reserved":false,"is_disabled":false,"rental_uris":{"android":"levelo://app?vid=01ceb79c-6f0e-492a-bc7a-543748abc6f9","ios":"levelo://app?vid=01ceb79c-6f0e-492a-bc7a-543748abc6f9"},"vehicle_type_id":"4","last_reported":1751648950,"current_range_meters":20800,"station_id":"ce4bhbh2rcd13ifvqepg","pricing_plan_id":"cebpf4jnsgd1na2vs0mg"},{"bike_id":"5d8cb03a-7878-4238-ae47-d87d1e9276fa","system_id":"levelo_inurba_marseille","lat":43.28266,"lon":5.3506,"is_reserved":false,"is_disabled":false,"rental_uris":{"android":"levelo://app?vid=5d8cb03a-7878-4238-ae47-d87d1e9276fa","ios":"levelo://app?vid=5d8cb03a-7878-4238-ae47-d87d1e9276fa"},"vehicle_type_id":"4","last_reported":1751648950,"current_range_meters":20800,"station_id":"ce4bhbp2rcd13ifvqerg","pricing_plan_id":"cebpf4jnsgd1na2vs0mg"},{"bike_id":"b97b3186-d840-43f5-afd3-3ac264b76d29","system_id":"levelo_inurba_marseille","lat":43.27921,"lon":5.3957,"is_reserved":false,"is_disabled":false,"rental_uris":{"android":"levelo://app?vid=b97b3186-d840-43f5-afd3-3ac264b76d29","ios":"levelo://app?vid=b97b3186-d840-43f5-afd3-3ac264b76d29"},"vehicle_type_id":"4","last_reported":1751648950,"current_range_meters":20800,"station_id":"ce4bhf92rcd13ifvqf40","pricing_plan_id":"cebpf4jnsgd1na2vs0mg"},{"bike_id":"1ce8d2ba-d49e-4384-9b38-6dec4c97f6f9","system_id":"levelo_inurba_marseille","lat":43.2603,"lon":5.37599,"is_reserved":false,"is_disabled":false,"rental_uris":{"android":"levelo://app?vid=1ce8d2ba-d49e-4384-9b38-6dec4c97f6f9","ios":"levelo://app?vid=1ce8d2ba-d49e-4384-9b38-6dec4c97f6f9"},"vehicle_type_id":"4","last_reported":1751648950,"current_range_meters":20800,"station_id":"ce4bhgh2rcd13ifvqfa0","pricing_plan_id":"cebpf4jnsgd1na2vs0mg"},{"bike_id":"57cc1a44-904e-4955-a3fb-cbc128a0069f","system_id":"levelo_inurba_marseille","lat":43.31084,"lon":5.42432,"is_reserved":false,"is_disabled":false,"rental_uris":{"android":"levelo://app?vid=57cc1a44-904e-4955-a3fb-cbc128a0069f","ios":"levelo://app?vid=57cc1a44-904e-4955-a3fb-cbc128a0069f"},"vehicle_type_id":"4","last_reported":1751648950,"current_range_meters":20800,"station_id":"ce4bhp92rcd13ifvqhag","pricing_plan_id":"cebpf4jnsgd1na2vs0mg"},{"bike_id":"f37760c6-ab8b-450e-9ddc-f3de596404e2","system_id":"levelo_inurba_marseille","lat":43.290224,"lon":5.375486,"is_reserved":false,"is_disabled":false,"rental_uris":{"android":"levelo://app?vid=f37760c6-ab8b-450e-9ddc-f3de596404e2","ios":"levelo://app?vid=f37760c6-ab8b-450e-9ddc-f3de596404e2"},"vehicle_type_id":"4","last_reported":1751648950,"current_range_meters":21600,"station_id":"","pricing_plan_id":"cebpf4jnsgd1na2vs0mg"},{"bike_id":"81bf903b-7a5e-4e1d-a703-4b324b33d19e","system_id":"levelo_inurba_marseille","lat":43.293098,"lon":5.371673,"is_reserved":false,"is_disabled":false,"rental_uris":{"android":"levelo://app?vid=81bf903b-7a5e-4e1d-a703-4b324b33d19e","ios":"levelo://app?vid=81bf903b-7a5e-4e1d-a703-4b324b33d19e"},"vehicle_type_id":"4","last_reported":1751648950,"current_range_meters":21600,"station_id":"ce4bgh92rcd13ifvqb40","pricing_plan_id":"cebpf4jnsgd1na2vs0mg"},