{"last_updated":1732090397,"ttl":60,"version":"2.2","data":{"bikes":[{"bike_id":"cacde89c-5086-4b87-8bcd-a2b586b3345d","system_id":"levelo_inurba_marseille","lat":43.30147,"lon":5.38101,"is_reserved":false,"is_disabled":true,"rental_uris":{"android":"levelo://app?vid=cacde89c-5086-4b87-8bcd-a2b586b3345d","ios":"levelo://app?vid=cacde89c-5086-4b87-8bcd-a2b586b3345d"},"vehicle_type_id":"4","last_reported":1732090397,"current_range_meters":36800,"station_id":"ce4bgjp2rcd13ifvqbh0","pricing_plan_id":"cebpf4jnsgd1na2vs0mg"},{"bike_id":"69bc41dd-8c27-411f-977d-6976b6646e45","system_id":"levelo_inurba_marseille","lat":43.29097,"lon":5.38142,"is_reserved":false,"is_disabled":false,"rental_uris":{"android":"levelo://app?vid=69bc41dd-8c27-411f-977d-6976b6646e45","ios":"levelo://app?vid=69bc41dd-8c27-411f-977d-6976b6646e45"},"vehicle_type_id":"4","last_reported":1732090397,"current_range_meters":5600,"station_id":"ce4bh512rcd13ifvqe2g","pricing_plan_id":"cebpf4jnsgd1na2vs0mg"},{"bike_id":"b21da081-9879-40dd-84c5-23f42e6f5e53","system_id":"levelo_inurba_marseille","lat":43.27948,"lon":5.41051,"is_reserved":false,"is_disabled":true,"rental_uris":{"android":"levelo://app?vid=b21da081-9879-40dd-84c5-23f42e6f5e53","ios":"levelo://app?vid=b21da081-9879-40dd-84c5-23f42e6f5e53"},"vehicle_type_id":"4","last_reported":1732090397,"current_range_meters":14400,"station_id":"ce4bhnp2rcd13ifvqh0g","pricing_plan_id":"cebpf4jnsgd1na2vs0mg"},{"bike_id":"31ed4694-f31b-4304-8c48-115859d389ea","system_id":"levelo_inurba_marseille","lat":43.25085,"lon":5.39522,"is_reserved":false,"is_disabled":false,"rental_uris":{"android":"levelo://app?vid=31ed4694-f31b-4304-8c48-115859d389ea","ios":"levelo://app?vid=31ed4694-f31b-4304-8c48-115859d389ea"},"vehicle_type_id":"4","last_reported":1732090397,"current_range_meters":38800,"station_id":"ce4bhm12rcd13ifvqgkg","pricing_plan_id":"cebpf4jnsgd1na2vs0mg"},{"bike_id":"740ae0f4-690e-4909-a4ab-8443a16c90b8","system_id":"levelo_inurba_marseille","lat":43.280376,"lon":5.369458,"is_reserved":false,"is_disabled":false,"rental_uris":{"android":"levelo://app?vid=740ae0f4-690e-4909-a4ab-8443a16c90b8","ios":"levelo://app?vid=740ae0f4-690e-4909-a4ab-8443a16c90b8"},"vehicle_type_id":"4","last_reported":1732090397,"current_range_meters":37600,"station_id":"ce4bha12rcd13ifvqef0","pricing_plan_id":"cebpf4jnsgd1na2vs0mg"},{"bike_id":"35287b6f-5229-4071-966e-4bfca0ae7163","system_id":"levelo_inurba_marseille","lat":43.337444,"lon":5.374475,"is_reserved":false,"is_disabled":false,"rental_uris":{"android":"levelo://app?vid=35287b6f-5229-4071-966e-4bfca0ae7163","ios":"levelo://app?vid=35287b6f-5229-4071-966e-4bfca0ae7163"},"vehicle_type_id":"4","last_reported":1732090397,"current_range_meters":37600,"station_id":"","pricing_plan_id":"cebpf4jnsgd1na2vs0mg"},{"bike_id":"81d34042-a037-42c7-9436-1187b5706698","system_id":"levelo_inurba_marseille","lat":43.31011,"lon":5.40298,"is_reserved":false,"is_disabled":false,"rental_uris":{"android":"levelo://app?vid=81d34042-a037-42c7-9436-1187b5706698","ios":"levelo://app?vid=81d34042-a037-42c7-9436-1187b5706698"},"vehicle_type_id":"4","last_reported":1732090397,"current_range_meters":18800,"station_id":"","pricing_plan_id":"cebpf4jnsgd1na2vs0mg"},{"bike_id":"730a134f-924e-40b7-945a-d4f2d323d986","system_id":"levelo_inurba_marseille","lat":43.29617,"lon":5.37155,"is_reserved":false,"is_disabled":false,"rental_uris":{"android":"levelo://app?vid=730a134f-924e-40b7-945a-d4f2d323d986","ios":"levelo://app?vid=730a134f-924e-40b7-945a-d4f2d323d986"},"vehicle_type_id":"4","last_reported":1732090397,"current_range_meters":30000,"station_id":"ce4bgnh2rcd13ifvqc0g","pricing_plan_id":"cebpf4jnsgd1na2vs0mg"},{"bike_id":"df89f28d-09ef-4d95-998a-b310ab3afea0","system_id":"levelo_inurba_marseille","lat":43.33024,"lon":5.3905,"is_reserved":false,"is_disabled":true,"rental_uris":{"android":"levelo://app?vid=df89f28d-09ef-4d95-998a-b310ab3afea0","ios":"levelo://app?vid=df89f28d-09ef-4d95-998a-b310ab3afea0"},"vehicle_type_id":"4","last_reported":1732090397,"current_range_meters":8400,"station_id":"ce4bhr92rcd13ifvqhrg","pricing_plan_id":"cebpf4jnsgd1na2vs0mg"},{"bike_id":"e0d5bfc6-40b3-49c5-94bf-c130a2d6cfa9","system_id":"levelo_inurba_marseille","lat":43.2894,"lon":5.36639,"is_reserved":false,"is_disabled":false,"rental_uris":{"android":"levelo://app?vid=e0d5bfc6-40b3-49c5-94bf-c130a2d6cfa9","ios":"levelo://app?vid=e0d5bfc6-40b3-49c5-94bf-c130a2d6cfa9"},"vehicle_type_id":"4","last_reported":1732090397,"current_range_meters":10000,"station_id":"ce4bhap2rcd13ifvqek0","pricing_plan_id":"cebpf4jnsgd1na2vs0mg"},{"bike_id":"84d4df27-2b97-423b-bf7d-6029ee544425","system_id":"levelo_inurba_marseille","lat":43.32494,"lon":5.36566,"is_reserved":false,"is_disabled":false,"rental_uris":{"android":"levelo://app?vid=84d4df27-2b97-423b-bf7d-6029ee544425","ios":"levelo://app?vid=84d4df27-2b97-423b-bf7d-6029ee544425"},"vehicle_type_id":"4","last_reported":1732090397,"current_range_meters":30800,"station_id":"ce4bhs12rcd13ifvqhvg","pricing_plan_id":"cebpf4jnsgd1na2vs0mg"},{"bike_id":"fed94823-67f3-4adc-962b-1350a7a918b6","system_id":"levelo_inurba_marseille","lat":43.3123,"lon":5.36855,"is_reserved":false,"is_disabled":false,"rental_uris":{"android":"levelo://app?vid=fed94823-67f3-4adc-962b-1350a7a918b6","ios":"levelo://app?vid=fed94823-67f3-4adc-962b-1350a7a918b6"},"vehicle_type_id":"4","last_reported":1732090397,"current_range_meters":8400,"station_id":"ce4bgl92rcd13ifvqbq0","pricing_plan_id":"cebpf4jnsgd1na2vs0mg"},{"bike_id":"c927b74d-29b7-42c1-8253-95810c18b6dc","system_id":"levelo_inurba_marseille","lat":43.25936,"lon":5.40911,"is_reserved":false,"is_disabled":true,"rental_uris":{"android":"levelo://app?vid=c927b74d-29b7-42c1-8253-95810c18b6dc","ios":"levelo://app?vid=c927b74d-29b7-42c1-8253-95810c18b6dc"},"vehicle_type_id":"4","last_reported":1732090397,"current_range_meters":34000,"station_id":"ce4bhm92rcd13ifvqglg","pricing_plan_id":"cebpf4jnsgd1na2vs0mg"},{"bike_id":"3fc2a91c-eed2-4174-8396-3a1de2e8318d","system_id":"levelo_inurba_marseille","lat":43.30466,"lon":5.37909,"is_reserved":false,"is_disabled":false,"rental_uris":{"android":"levelo://app?vid=3fc2a91c-eed2-4174-8396-3a1de2e8318d","ios":"levelo://app?vid=3fc2a91c-eed2-4174-8396-3a1de2e8318d"},"vehicle_type_id":"4","last_reported":1732090397,"current_range_meters":23200,"station_id":"ce4bgup2rcd13ifvqcn0","pricing_plan_id":"cebpf4jnsgd1na2vs0mg"},{"bike_id":"122b8c9f-821b-4320-8f89-f1c7267f8d64","system_id":"levelo_inurba_marseille","lat":43.3254,"lon":5.41443,"is_reserved":false,"is_disabled":false,"rental_uris":{"android":"levelo://app?vid=122b8c9f-821b-4320-8f89-f1c7267f8d64","ios":"levelo://app?vid=122b8c9f-821b-4320-8f89-f1c7267f8d64"},"vehicle_type_id":"4","last_reported":1732090397,"current_range_meters":38800,"station_id":"ce4bhq12rcd13ifvqhhg","pricing_plan_id":"cebpf4jnsgd1na2vs0mg"},{"bike_id":"0ea93326-5034-4b5e-97b8-0a33b4d38611","system_id":"levelo_inurba_marseille","lat":43.30156,"lon":5.38097,"is_reserved":false,"is_disabled":true,"rental_uris":{"android":"levelo://app?vid=0ea93326-5034-4b5e-97b8-0a33b4d38611","ios":"levelo://app?vid=0ea93326-5034-4b5e-97b8-0a33b4d38611"},"vehicle_type_id":"4","last_reported":1732090397,"current_range_meters":0,"station_id":"ce4bgjp2rcd13ifvqbh0","pricing_plan_id":"cebpf4jnsgd1na2vs0mg"},{"bike_id":"e14f29ed-b84d-4f6d-833b-2f6b93384f88","system_id":"levelo_inurba_marseille","lat":43.28068,"lon":5.39649,"is_reserved":false,"is_disabled":false,"rental_uris":{"android":"levelo://app?vid=e14f29ed-b84d-4f6d-833b-2f6b93384f88","ios":"levelo://app?vid=e14f29ed-b84d-4f6d-833b-2f6b93384f88"},"vehicle_type_id":"4","last_reported":1732090397,"current_range_meters":27600,"station_id":"ce4bho12rcd13ifvqh2g","pricing_plan_id":"cebpf4jnsgd1na2vs0mg"},{"bike_id":"8ba3c856-1684-4090-8782-f0f1bad00a99","system_id":"levelo_inurba_marseille","lat":43.298,"lon":5.38095,"is_reserved":false,"is_disabled":false,"rental_uris":{"android":"levelo://app?vid=8ba3c856-1684-4090-8782-f0f1bad00a99","ios":"levelo://app?vid=8ba3c856-1684-4090-8782-f0f1bad00a99"},"vehicle_type_id":"4","last_reported":1732090397,"current_range_meters":37600,"station_id":"ce4bgip2rcd13ifvqbb0","pricing_plan_id":"cebpf4jnsgd1na2vs0mg"},{"bike_id":"2ebc184b-6538-4e73-a732-c7d5673d9b3c","system_id":"levelo_inurba_marseille","lat":43.24073,"lon":5.37756,"is_reserved":false,"is_disabled":false,"rental_uris":{"android":"levelo://app?vid=2ebc184b-6538-4e73-a732-c7d5673d9b3c","ios":"levelo://app?vid=2ebc184b-6538-4e73-a732-c7d5673d9b3c"},"vehicle_type_id":"4","last_reported":1732090397,"current_range_meters":2800,"station_id":"ce4bhnp2rcd13ifvqgvg","pricing_plan_id":"cebpf4jnsgd1na2vs0mg"},{"bike_id":"acfddb80-3a0b-4852-af08-2a13b834b82b","system_id":"levelo_inurba_marseille","lat":43.31363,"lon":5.36703,"is_reserved":false,"is_disabled":false,"rental_uris":{"android":"levelo://app?vid=acfddb80-3a0b-4852-af08-2a13b834b82b","ios":"levelo://app?vid=acfddb80-3a0b-4852-af08-2a13b834b82b"},"vehicle_type_id":"4","last_reported":1732090397,"current_range_meters":21600,"station_id":"ce4bgr92rcd13ifvqc6g","pricing_plan_id":"cebpf4jnsgd1na2vs0mg"},{"bike_id":"d8b445ea-03e8-410a-b823-4bb1f56afb86","system_id":"levelo_inurba_marseille","lat":43.27964,"lon":5.38725,"is_reserved":false,"is_disabled":false,"rental_uris":{"android":"levelo://app?vid=d8b445ea-03e8-410a-b823-4bb1f56afb86","ios":"levelo://app?vid=d8b445ea-03e8-410a-b823-4bb1f56afb86"},"vehicle_type_id":"4","last_reported":1732090397,"current_range_meters":28000,"station_id":"ce4bhg12rcd13ifvqf80","pricing_plan_id":"cebpf4jnsgd1na2vs0mg"},{"bike_id":"1139b44c-141f-4492-8578-07982e493cef","system_id":"levelo_inurba_marseille","lat":43.30153,"lon":5.38084,"is_reserved":false,"is_disabled":false,"rental_uris":{"android":"levelo://app?vid=1139b44c-141f-4492-8578-07982e493cef","ios":"levelo://app?vid=1139b44c-141f-4492-8578-07982e493cef"},"vehicle_type_id":"4","last_reported":1732090397,"current_range_meters":8000,"station_id":"ce4bgjp2rcd13ifvqbh0","pricing_plan_id":"cebpf4jnsgd1na2vs0mg"},{"bike_id":"cfb10342-63b1-4773-818d-39a1742aa961","system_id":"levelo_inurba_marseille","lat":43.30607,"lon":5.39352,"is_reserved":false,"is_disabled":false,"rental_uris":{"android":"levelo://app?vid=cfb10342-63b1-4773-818d-39a1742aa961","ios":"levelo://app?vid=cfb10342-63b1-4773-818d-39a1742aa961"},"vehicle_type_id":"4","last_reported":1732090397,"current_range_meters":22000,"station_id":"ce4bh0p2rcd13ifvqd80","pricing_plan_id":"cebpf4jnsgd1na2vs0mg"},{"bike_id":"aa8d5a2e-c43a-42d1-9619-c0eb2a43bd46","system_id":"levelo_inurba_marseille","lat":43.30458,"lon":5.37905,"is_reserved":false,"is_disabled":false,"rental_uris":{"android":"levelo://app?vid=aa8d5a2e-c43a-42d1-9619-c0eb2a43bd46","ios":"levelo://app?vid=aa8d5a2e-c43a-42d1-9619-c0eb2a43bd46"},"vehicle_type_id":"4","last_reported":1732090397,"current_range_meters":38400,"station_id":"ce4bgup2rcd13ifvqcn0","pricing_plan_id":"cebpf4jnsgd1na2vs0mg"},{"bike_id":"dbe74249-58cd-403e-a63d-5e0a1c17b552","system_id":"levelo_inurba_marseille","lat":43.24093,"lon":5.37745,"is_reserved":false,"is_disabled":true,"rental_uris":{"android":"levelo://app?vid=dbe74249-58cd-403e-a63d-5e0a1c17b552","ios":"levelo://app?vid=dbe74249-58cd-403e-a63d-5e0a1c17b552"},"vehicle_type_id":"4","last_reported":1732090397,"current_range_meters":0,"station_id":"","pricing_plan_id":"cebpf4jnsgd1na2vs0mg"},{"bike_id":"e4624f32-fae1-428f-a986-44f323453b9a","system_id":"levelo_inurba_marseille","lat":43.29556,"lon":5.42293,"is_reserved":false,"is_disabled":true,"rental_uris":{"android":"levelo://app?vid=e4624f32-fae1-428f-a986-44f323453b9a","ios":"levelo://app?vid=e4624f32-fae1-428f-a986-44f323453b9a"},"vehicle_type_id":"4","last_reported":1732090397,"current_range_meters":1600,"station_id":"ce4bhph2rcd13ifvqhdg","pricing_plan_id":"cebpf4jnsgd1na2vs0mg"},{"bike_id":"dfb656ce-a952-4232-be58-58af15a24d97","system_id":"levelo_inurba_marseille","lat":43.23155,"lon":5.4371,"is_reserved":false,"is_disabled":false,"rental_uris":{"android":"levelo://app?vid=dfb656ce-a952-4232-be58-58af15a24d97","ios":"levelo://app?vid=dfb656ce-a952-4232-be58-58af15a24d97"},"vehicle_type_id":"4","last_reported":1732090397,"current_range_meters":20800,"station_id":"ce4bhmp2rcd13ifvqgog","pricing_plan_id":"cebpf4jnsgd1na2vs0mg"},{"bike_id":"5c3000a0-a190-4007-a723-aa2707fd1ce3","system_id":"levelo_inurba_marseille","lat":43.22912,"lon":5.35413,"is_reserved":false,"is_disabled":false,"rental_uris":{"android":"levelo://app?vid=5c3000a0-a190-4007-a723-aa2707fd1ce3","ios":"levelo://app?vid=5c3000a0-a190-4007-a723-aa2707fd1ce3"},"vehicle_type_id":"4","last_reported":1732090397,"current_range_meters":38800,"station_id":"cpo3532slgdg3j2ikp40","pricing_plan_id":"cebpf4jnsgd1na2vs0mg"},{"bike_id":"696b0521-04cd-4902-801b-dc6f3f0838a7","system_id":"levelo_inurba_marseille","lat":43.27678,"lon":5.38875,"is_reserved":false,"is_disabled":true,"rental_uris":{"android":"levelo://app?vid=696b0521-04cd-4902-801b-dc6f3f0838a7","ios":"levelo://app?vid=696b0521-04cd-4902-801b-dc6f3f0838a7"},"vehicle_type_id":"4","last_reported":1732090397,"current_range_meters":0,"station_id":"ce4bhi12rcd13ifvqfo0","pricing_plan_id":"cebpf4jnsgd1na2vs0mg"},{"bike_id":"0d7c5165-0868-459b-9d50-e69f56dc179b","system_id":"levelo_inurba_marseille","lat":43.30604,"lon":5.39357,"is_reserved":false,"is_disabled":false,"rental_uris":{"android":"levelo://app?vid=0d7c5165-0868-459b-9d50-e69f56dc179b","ios":"levelo://app?vid=0d7c5165-0868-459b-9d50-e69f56dc179b"},"vehicle_type_id":"4","last_reported":1732090397,"current_range_meters":36800,"station_id":"ce4bh0p2rcd13ifvqd80","pricing_plan_id":"cebpf4jnsgd1na2vs0mg"},{"bike_id":"07dfa307-72b1-4fd3-aaec-cc158bba164b","system_id":"levelo_inurba_marseille","lat":43.3091,"lon":5.36848,"is_reserved":false,"is_disabled":false,"rental_uris":{"android":"levelo://app?vid=07dfa307-72b1-4fd3-aaec-cc158bba164b","ios":"levelo://app?vid=07dfa307-72b1-4fd3-aaec-cc158bba164b"},"vehicle_type_id":"4","last_reported":1732090397,"current_range_meters":39200,"station_id":"ce4bgn92rcd13ifvqbvg","pricing_plan_id":"cebpf4jnsgd1na2vs0mg"},{"bike_id":"d59e6935-9e63-4ce1-ad51-92e88ad6eb3e","system_id":"levelo_inurba_marseille","lat":43.24082,"lon":5.37755,"is_reserved":false,"is_disabled":false,"rental_uris":{"android":"levelo://app?vid=d59e6935-9e63-4ce1-ad51-92e88ad6eb3e","ios":"levelo://app?vid=d59e6935-9e63-4ce1-ad51-92e88ad6eb3e"},"vehicle_type_id":"4","last_reported":1732090397,"current_range_meters":38800,"station_id":"ce4bhnp2rcd13ifvqgvg","pricing_plan_id":"cebpf4jnsgd1na2vs0mg"},{"bike_id":"8a4add61-0dbd-424f-92e3-cca38f3d6fad","system_id":"levelo_inurba_marseille","lat":43.29941,"lon":5.36548,"is_reserved":false,"is_disabled":true,"rental_uris":{"android":"levelo://app?vid=8a4add61-0dbd-424f-92e3-cca38f3d6fad","ios":"levelo://app?vid=8a4add61-0dbd-424f-92e3-cca38f3d6fad"},"vehicle_type_id":"4","last_reported":1732090397,"current_range_meters":24800,"station_id":"ce4bgm92rcd13ifvqbr0","pricing_plan_id":"cebpf4jnsgd1na2vs0mg"},{"bike_id":"80c97958-4d55-4d04-b0ef-a5b1a09d0125","system_id":"levelo_inurba_marseille","lat":43.31341,"lon":5.36709,"is_reserved":false,"is_disabled":false,"rental_uris":{"android":"levelo://app?vid=80c97958-4d55-4d04-b0ef-a5b1a09d0125","ios":"levelo://app?vid=80c97958-4d55-4d04-b0ef-a5b1a09d0125"},"vehicle_type_id":"4","last_reported":1732090397,"current_range_meters":25200,"station_id":"ce4bgr92rcd13ifvqc6g","pricing_plan_id":"cebpf4jnsgd1na2vs0mg"},{"bike_id":"e70d6c53-e30e-4508-ad78-1c3366120aec","system_id":"levelo_inurba_marseille","lat":43.26932,"lon":5.38924,"is_reserved":false,"is_disabled":false,"rental_uris":{"android":"levelo://app?vid=e70d6c53-e30e-4508-ad78-1c3366120aec","ios":"levelo://app?vid=e70d6c53-e30e-4508-ad78-1c3366120aec"},"vehicle_type_id":"4","last_reported":1732090397,"current_range_meters":17600,"station_id":"ce4bhhh2rcd13ifvqfl0","pricing_plan_id":"cebpf4jnsgd1na2vs0mg"},{"bike_id":"dc9cb95a-a0c4-401a-a3b9-c9cf0159f669","system_id":"levelo_inurba_marseille","lat":43.29574,"lon":5.39972,"is_reserved":false,"is_disabled":true,"rental_uris":{"android":"levelo://app?vid=dc9cb95a-a0c4-401a-a3b9-c9cf0159f669","ios":"levelo://app?vid=dc9cb95a-a0c4-401a-a3b9-c9cf0159f669"},"vehicle_type_id":"4","last_reported":1732090397,"current_range_meters":0,"station_id":"ce4bh312rcd13ifvqdj0","pricing_plan_id":"cebpf4jnsgd1na2vs0mg"},{"bike_id":"a1268cd6-3fef-4d8d-a3c3-f2c3e15b42cc","system_id":"levelo_inurba_marseille","lat":43.29841,"lon":5.36269,"is_reserved":false,"is_disabled":false,"rental_uris":{"android":"levelo://app?vid=a1268cd6-3fef-4d8d-a3c3-f2c3e15b42cc","ios":"levelo://app?vid=a1268cd6-3fef-4d8d-a3c3-f2c3e15b42cc"},"vehicle_type_id":"4","last_reported":1732090397,"current_range_meters":24400,"station_id":"ce4bgpp2rcd13ifvqc3g","pricing_plan_id":"cebpf4jnsgd1na2vs0mg"},{"bike_id":"c50b0d31-0abf-49a2-895c-02c04566b83d","system_id":"levelo_inurba_marseille","lat":43.28033,"lon":5.36957,"is_reserved":false,"is_disabled":false,"rental_uris":{"android":"levelo://app?vid=c50b0d31-0abf-49a2-895c-02c04566b83d","ios":"levelo://app?vid=c50b0d31-0abf-49a2-895c-02c04566b83d"},"vehicle_type_id":"4","last_reported":1732090397,"current_range_meters":21600,"station_id":"ce4bha12rcd13ifvqef0","pricing_plan_id":"cebpf4jnsgd1na2vs0mg"},{"bike_id":"85308c21-24d3-4ff7-9073-790d239a9901","system_id":"levelo_inurba_marseille","lat":43.31075,"lon":5.38352,"is_reserved":false,"is_disabled":true,"rental_uris":{"android":"levelo://app?vid=85308c21-24d3-4ff7-9073-790d239a9901","ios":"levelo://app?vid=85308c21-24d3-4ff7-9073-790d239a9901"},"vehicle_type_id":"4","last_reported":1732090397,"current_range_meters":32400,"station_id":"ce4bgv92rcd13ifvqcr0","pricing_plan_id":"cebpf4jnsgd1na2vs0mg"},{"bike_id":"de208543-9b1f-469d-95ed-a601b777cb16","system_id":"levelo_inurba_marseille","lat":43.24171,"lon":5.39724,"is_reserved":false,"is_disabled":true,"rental_uris":{"android":"levelo://app?vid=de208543-9b1f-469d-95ed-a601b777cb16","ios":"levelo://app?vid=de208543-9b1f-469d-95ed-a601b777cb16"},"vehicle_type_id":"4","last_reported":1732090397,"current_range_meters":0,"station_id":"ce4bhn12rcd13ifvqgpg","pricing_plan_id":"cebpf4jnsgd1na2vs0mg"},{"bike_id":"677aef17-34d1-42f3-9e7f-5708fd2415f6","system_id":"levelo_inurba_marseille","lat":43.30296,"lon":5.39224,"is_reserved":false,"is_disabled":false,"rental_uris":{"android":"levelo://app?vid=677aef17-34d1-42f3-9e7f-5708fd2415f6","ios":"levelo://app?vid=677aef17-34d1-42f3-9e7f-5708fd2415f6"},"vehicle_type_id":"4","last_reported":1732090397,"current_range_meters":18800,"station_id":"ce4bgkh2rcd13ifvqbk0","pricing_plan_id":"cebpf4jnsgd1na2vs0mg"},{"bike_id":"772ce743-8958-4198-b3ba-b6e0d96fa296","system_id":"levelo_inurba_marseille","lat":43.2417,"lon":5.36392,"is_reserved":false,"is_disabled":false,"rental_uris":{"android":"levelo://app?vid=772ce743-8958-4198-b3ba-b6e0d96fa296","ios":"levelo://app?vid=772ce743-8958-4198-b3ba-b6e0d96fa296"},"vehicle_type_id":"4","last_reported":1732090397,"current_range_meters":11600,"station_id":"cpo36qri1sfpv3e86is0","pricing_plan_id":"cebpf4jnsgd1na2vs0mg"},{"bike_id":"07550232-1db2-4823-a03f-2afa410b67ca","system_id":"levelo_inurba_marseille","lat":43.26948,"lon":5.38637,"is_reserved":false,"is_disabled":false,"rental_uris":{"android":"levelo://app?vid=07550232-1db2-4823-a03f-2afa410b67ca","ios":"levelo://app?vid=07550232-1db2-4823-a03f-2afa410b67ca"},"vehicle_type_id":"4","last_reported":1732090397,"current_range_meters":16400,"station_id":"ce4bhh92rcd13ifvqfh0","pricing_plan_id":"cebpf4jnsgd1na2vs0mg"},{"bike_id":"2b5d7a4d-5b25-4b80-84d9-e10589e3033b","system_id":"levelo_inurba_marseille","lat":43.23971,"lon":5.36625,"is_reserved":false,"is_disabled":true,"rental_uris":{"android":"levelo://app?vid=2b5d7a4d-5b25-4b80-84d9-e10589e3033b","ios":"levelo://app?vid=2b5d7a4d-5b25-4b80-84d9-e10589e3033b"},"vehicle_type_id":"4","last_reported":1732090397,"current_range_meters":28400,"station_id":"ce4bhi12rcd13ifvqfp0","pricing_plan_id":"cebpf4jnsgd1na2vs0mg"},{"bike_id":"a2b1274d-7fd2-4045-9cd0-ab9e0ef06dc1","system_id":"levelo_inurba_marseille","lat":43.30464,"lon":5.37905,"is_reserved":false,"is_disabled":false,"rental_uris":{"android":"levelo://app?vid=a2b1274d-7fd2-4045-9cd0-ab9e0ef06dc1","ios":"levelo://app?vid=a2b1274d-7fd2-4045-9cd0-ab9e0ef06dc1"},"vehicle_type_id":"4","last_reported":1732090397,"current_range_meters":19600,"station_id":"ce4bgup2rcd13ifvqcn0","pricing_plan_id":"cebpf4jnsgd1na2vs0mg"},{"bike_id":"3b1d62f8-a2e9-40bf-864e-d3ff5d8aeef2","system_id":"levelo_inurba_marseille","lat":43.27071,"lon":5.42281,"is_reserved":false,"is_disabled":false,"rental_uris":{"android":"levelo://app?vid=3b1d62f8-a2e9-40bf-864e-d3ff5d8aeef2","ios":"levelo://app?vid=3b1d62f8-a2e9-40bf-864e-d3ff5d8aeef2"},"vehicle_type_id":"4","last_reported":1732090397,"current_range_meters":22000,"station_id":"ce4bhk92rcd13ifvqgb0","pricing_plan_id":"cebpf4jnsgd1na2vs0mg"},{"bike_id":"34f9d597-134c-429f-81ff-a035518634d5","system_id":"levelo_inurba_marseille","lat":43.29305,"lon":5.3718,"is_reserved":false,"is_disabled":false,"rental_uris":{"android":"levelo://app?vid=34f9d597-134c-429f-81ff-a035518634d5","ios":"levelo://app?vid=34f9d597-134c-429f-81ff-a035518634d5"},"vehicle_type_id":"4","last_reported":1732090397,"current_range_meters":35200,"station_id":"ce4bgh92rcd13ifvqb40","pricing_plan_id":"cebpf4jnsgd1na2vs0mg"},{"bike_id":"e3511c0c-eb2b-4100-bb2d-c5ebcd644bea","system_id":"levelo_inurba_marseille","lat":43.23961,"lon":5.36627,"is_reserved":false,"is_disabled":true,"rental_uris":{"android":"levelo://app?vid=e3511c0c-eb2b-4100-bb2d-c5ebcd644bea","ios":"levelo://app?vid=e3511c0c-eb2b-4100-bb2d-c5ebcd644bea"},"vehicle_type_id":"4","last_reported":1732090397,"current_range_meters":30800,"station_id":"ce4bhi12rcd13ifvqfp0","pricing_plan_id":"cebpf4jnsgd1na2vs0mg"},{"bike_id":"be45ec77-743d-452f-b69d-3f12ed3bd46e","system_id":"levelo_inurba_marseille","lat":43.337444,"lon":5.374475,"is_reserved":false,"is_disabled":false,"rental_uris":{"android":"levelo://app?vid=be45ec77-743d-452f-b69d-3f12ed3bd46e","ios":"levelo://app?vid=be45ec77-743d-452f-b69d-3f12ed3bd46e"},"vehicle_type_id":"4","last_reported":1732090397,"current_range_meters":32400,"station_id":"ce4bgvp2rcd13ifvqcu0","pricing_plan_id":"cebpf4jnsgd1na2vs0mg"},{"bike_id":"71739312-6ef5-4ca6-b15a-593319b05b3a","system_id":"levelo_inurba_marseille","lat":43.29965,"lon":5.38491,"is_reserved":false,"is_disabled":false,"rental_uris":{"android":"levelo://app?vid=71739312-6ef5-4ca6-b15a-593319b05b3a","ios":"levelo://app?vid=71739312-6ef5-4ca6-b15a-593319b05b3a"},"vehicle_type_id":"4","last_reported":1732090397,"current_range_meters":36000,"station_id":"ce4bgj92rcd13ifvqbd0","pricing_plan_id":"cebpf4jnsgd1na2vs0mg"},{"bike_id":"5917a06d-1a89-42ee-9c96-70b3e49f2520","system_id":"levelo_inurba_marseille","lat":43.31699,"lon":5.40474,"is_reserved":false,"is_disabled":true,"rental_uris":{"android":"levelo://app?vid=5917a06d-1a89-42ee-9c96-70b3e49f2520","ios":"levelo://app?vid=5917a06d-1a89-42ee-9c96-70b3e49f2520"},"vehicle_type_id":"4","last_reported":1732090397,"current_range_meters":8000,"station_id":"ce4bh012rcd13ifvqd00","pricing_plan_id":"cebpf4jnsgd1na2vs0mg"},{"bike_id":"60249be1-9e95-41ab-a8e7-54792e3b8932","system_id":"levelo_inurba_marseille","lat":43.28834,"lon":5.39349,"is_reserved":false,"is_disabled":false,"rental_uris":{"android":"levelo://app?vid=60249be1-9e95-41ab-a8e7-54792e3b8932","ios":"levelo://app?vid=60249be1-9e95-41ab-a8e7-54792e3b8932"},"vehicle_type_id":"4","last_reported":1732090397,"current_range_meters":25600,"station_id":"ce4bh2p2rcd13ifvqdi0","pricing_plan_id":"cebpf4jnsgd1na2vs0mg"},{"bike_id":"497454ce-e4eb-4dce-94e8-18190e4c429b","system_id":"levelo_inurba_marseille","lat":43.278194,"lon":5.407148,"is_reserved":false,"is_disabled":true,"rental_uris":{"android":"levelo://app?vid=497454ce-e4eb-4dce-94e8-18190e4c429b","ios":"levelo://app?vid=497454ce-e4eb-4dce-94e8-18190e4c429b"},"vehicle_type_id":"4","last_reported":1732090397,"current_range_meters":0,"station_id":"ce4bhnh2rcd13ifvqgtg","pricing_plan_id":"cebpf4jnsgd1na2vs0mg"},{"bike_id":"66d97ea3-68ad-49d7-9d2c-2258c99bd49d","system_id":"levelo_inurba_marseille","lat":43.2997,"lon":5.38492,"is_reserved":false,"is_disabled":false,"rental_uris":{"android":"levelo://app?vid=66d97ea3-68ad-49d7-9d2c-2258c99bd49d","ios":"levelo://app?vid=66d97ea3-68ad-49d7-9d2c-2258c99bd49d"},"vehicle_type_id":"4","last_reported":1732090397,"current_range_meters":32400,"station_id":"ce4bgj92rcd13ifvqbd0","pricing_plan_id":"cebpf4jnsgd1na2vs0mg"},{"bike_id":"33e4c791-af81-4159-9acb-9a5ba3c67096","system_id":"levelo_inurba_marseille","lat":43.30911,"lon":5.36846,"is_reserved":false,"is_disabled":false,"rental_uris":{"android":"levelo://app?vid=33e4c791-af81-4159-9acb-9a5ba3c67096","ios":"levelo://app?vid=33e4c791-af81-4159-9acb-9a5ba3c67096"},"vehicle_type_id":"4","last_reported":1732090397,"current_range_meters":28000,"station_id":"ce4bgn92rcd13ifvqbvg","pricing_plan_id":"cebpf4jnsgd1na2vs0mg"},{"bike_id":"c6dcb907-392f-4f8c-acb9-d0c818892ebe","system_id":"levelo_inurba_marseille","lat":43.31081,"lon":5.42432,"is_reserved":false,"is_disabled":true,"rental_uris":{"android":"levelo://app?vid=c6dcb907-392f-4f8c-acb9-d0c818892ebe","ios":"levelo://app?vid=c6dcb907-392f-4f8c-acb9-d0c818892ebe"},"vehicle_type_id":"4","last_reported":1732090397,"current_range_meters":800,"station_id":"ce4bhp92rcd13ifvqhag","pricing_plan_id":"cebpf4jnsgd1na2vs0mg"},{"bike_id":"aaa01dc7-36a5-45b0-a5da-0e2ef9990f4e","system_id":"levelo_inurba_marseille","lat":43.24081,"lon":5.37747,"is_reserved":false,"is_disabled":false,"rental_uris":{"android":"levelo://app?vid=aaa01dc7-36a5-45b0-a5da-0e2ef9990f4e","ios":"levelo://app?vid=aaa01dc7-36a5-45b0-a5da-0e2ef9990f4e"},"vehicle_type_id":"4","last_reported":1732090397,"current_range_meters":36400,"station_id":"ce4bhnp2rcd13ifvqgvg","pricing_plan_id":"cebpf4jnsgd1na2vs0mg"},{"bike_id":"be283900-e45f-4f16-820c-6dd3961989b9","system_id":"levelo_inurba_marseille","lat":43.3079,"lon":5.37009,"is_reserved":false,"is_disabled":false,"rental_uris":{"android":"levelo://app?vid=be283900-e45f-4f16-820c-6dd3961989b9","ios":"levelo://app?vid=be283900-e45f-4f16-820c-6dd3961989b9"},"vehicle_type_id":"4","last_reported":1732090397,"current_range_meters":8800,"station_id":"","pricing_plan_id":"cebpf4jnsgd1na2vs0mg"},{"bike_id":"25073dac-1c4b-4235-88f2-ba7b09ca22ac","system_id":"levelo_inurba_marseille","lat":43.3229,"lon":5.38265,"is_reserved":false,"is_disabled":false,"rental_uris":{"android":"levelo://app?vid=25073dac-1c4b-4235-88f2-ba7b09ca22ac","ios":"levelo://app?vid=25073dac-1c4b-4235-88f2-ba7b09ca22ac"},"vehicle_type_id":"4","last_reported":1732090397,"current_range_meters":17600,"station_id":"ce4bhr12rcd13ifvqhqg","pricing_plan_id":"cebpf4jnsgd1na2vs0mg"},{"bike_id":"c0df1d70-348c-4c55-adf8-1a2be25dca07","system_id":"levelo_inurba_marseille","lat":43.29797,"lon":5.38105,"is_reserved":false,"is_disabled":false,"rental_uris":{"android":"levelo://app?vid=c0df1d70-348c-4c55-adf8-1a2be25dca07","ios":"levelo://app?vid=c0df1d70-348c-4c55-adf8-1a2be25dca07"},"vehicle_type_id":"4","last_reported":1732090397,"current_range_meters":28400,"station_id":"ce4bgip2rcd13ifvqbb0","pricing_plan_id":"cebpf4jnsgd1na2vs0mg"},{"bike_id":"37f14134-d611-451c-9aaa-25a59bd49fe3","system_id":"levelo_inurba_marseille","lat":43.29871,"lon":5.39734,"is_reserved":false,"is_disabled":true,"rental_uris":{"android":"levelo://app?vid=37f14134-d611-451c-9aaa-25a59bd49fe3","ios":"levelo://app?vid=37f14134-d611-451c-9aaa-25a59bd49fe3"},"vehicle_type_id":"4","last_reported":1732090397,"current_range_meters":37600,"station_id":"ce4bh0h2rcd13ifvqd50","pricing_plan_id":"cebpf4jnsgd1na2vs0mg"},{"bike_id":"cb9d2c93-f096-413d-aa97-c1617d8598e0","system_id":"levelo_inurba_marseille","lat":43.24661,"lon":5.3816,"is_reserved":false,"is_disabled":true,"rental_uris":{"android":"levelo://app?vid=cb9d2c93-f096-413d-aa97-c1617d8598e0","ios":"levelo://app?vid=cb9d2c93-f096-413d-aa97-c1617d8598e0"},"vehicle_type_id":"4","last_reported":1732090397,"current_range_meters":26800,"station_id":"ce4bhih2rcd13ifvqfr0","pricing_plan_id":"cebpf4jnsgd1na2vs0mg"},{"bike_id":"6f9a5e25-2c6f-4afb-bd3d-4ab03e374c4c","system_id":"levelo_inurba_marseille","lat":43.30467,"lon":5.37915,"is_reserved":false,"is_disabled":false,"rental_uris":{"android":"levelo://app?vid=6f9a5e25-2c6f-4afb-bd3d-4ab03e374c4c","ios":"levelo://app?vid=6f9a5e25-2c6f-4afb-bd3d-4ab03e374c4c"},"vehicle_type_id":"4","last_reported":1732090397,"current_range_meters":31200,"station_id":"ce4bgup2rcd13ifvqcn0","pricing_plan_id":"cebpf4jnsgd1na2vs0mg"},{"bike_id":"111163ee-ef9b-4fdf-a727-a62ed3ba6b98","system_id":"levelo_inurba_marseille","lat":43.27813,"lon":5.40712,"is_reserved":false,"is_disabled":true,"rental_uris":{"android":"levelo://app?vid=111163ee-ef9b-4fdf-a727-a62ed3ba6b98","ios":"levelo://app?vid=111163ee-ef9b-4fdf-a727-a62ed3ba6b98"},"vehicle_type_id":"4","last_reported":1732090397,"current_range_meters":38800,"station_id":"ce4bhnh2rcd13ifvqgtg","pricing_plan_id":"cebpf4jnsgd1na2vs0mg"},{"bike_id":"fe466b38-f08e-4c08-bae1-f457152e4063","system_id":"levelo_inurba_marseille","lat":43.31762,"lon":5.39011,"is_reserved":false,"is_disabled":true,"rental_uris":{"android":"levelo://app?vid=fe466b38-f08e-4c08-bae1-f457152e4063","ios":"levelo://app?vid=fe466b38-f08e-4c08-bae1-f457152e4063"},"vehicle_type_id":"4","last_reported":1732090397,"current_range_meters":0,"station_id":"ce4bhqp2rcd13ifvqhng","pricing_plan_id":"cebpf4jnsgd1na2vs0mg"},{"bike_id":"d674a550-723f-4e20-a0c2-89aa344c2ade","system_id":"levelo_inurba_marseille","lat":43.28203,"lon":5.4438,"is_reserved":false,"is_disabled":true,"rental_uris":{"android":"levelo://app?vid=d674a550-723f-4e20-a0c2-89aa344c2ade","ios":"levelo://app?vid=d674a550-723f-4e20-a0c2-89aa344c2ade"},"vehicle_type_id":"4","last_reported":1732090397,"current_range_meters":0,"station_id":"","pricing_plan_id":"cebpf4jnsgd1na2vs0mg"},{"bike_id":"675720b2-7990-45a4-9637-93c894b9ac8b","system_id":"levelo_inurba_marseille","lat":43.30153,"lon":5.38079,"is_reserved":false,"is_disabled":false,"rental_uris":{"android":"levelo://app?vid=675720b2-7990-45a4-9637-93c894b9ac8b","ios":"levelo://app?vid=675720b2-7990-45a4-9637-93c894b9ac8b"},"vehicle_type_id":"4","last_reported":1732090397,"current_range_meters":16000,"station_id":"ce4bgjp2rcd13ifvqbh0","pricing_plan_id":"cebpf4jnsgd1na2vs0mg"},{"bike_id":"0d35f671-9dfb-49b2-845c-3ce046f9b75c","system_id":"levelo_inurba_marseille","lat":43.25729,"lon":5.41107,"is_reserved":false,"is_disabled":true,"rental_uris":{"android":"levelo://app?vid=0d35f671-9dfb-49b2-845c-3ce046f9b75c","ios":"levelo://app?vid=0d35f671-9dfb-49b2-845c-3ce046f9b75c"},"vehicle_type_id":"4","last_reported":1732090397,"current_range_meters":32400,"station_id":"ce4bhkp2rcd13ifvqgd0","pricing_plan_id":"cebpf4jnsgd1na2vs0mg"},{"bike_id":"f5cf085e-8694-4c6f-ba9c-aa6e0d3c58c6","system_id":"levelo_inurba_marseille","lat":43.33665,"lon":5.35578,"is_reserved":false,"is_disabled":true,"rental_uris":{"android":"levelo://app?vid=f5cf085e-8694-4c6f-ba9c-aa6e0d3c58c6","ios":"levelo://app?vid=f5cf085e-8694-4c6f-ba9c-aa6e0d3c58c6"},"vehicle_type_id":"4","last_reported":1732090397,"current_range_meters":12800,"station_id":"","pricing_plan_id":"cebpf4jnsgd1na2vs0mg"},{"bike_id":"3d2beca7-eef0-4bae-98e1-8b3de347272c","system_id":"levelo_inurba_marseille","lat":43.23192,"lon":5.35551,"is_reserved":false,"is_disabled":false,"rental_uris":{"android":"levelo://app?vid=3d2beca7-eef0-4bae-98e1-8b3de347272c","ios":"levelo://app?vid=3d2beca7-eef0-4bae-98e1-8b3de347272c"},"vehicle_type_id":"4","last_reported":1732090397,"current_range_meters":38400,"station_id":"ce4bhu92rcd13ifvqi70","pricing_plan_id":"cebpf4jnsgd1na2vs0mg"},{"bike_id":"ca8d65b2-e9c0-4793-9cb6-d04a9d19a1d5","system_id":"levelo_inurba_marseille","lat":43.25933,"lon":5.40899,"is_reserved":false,"is_disabled":false,"rental_uris":{"android":"levelo://app?vid=ca8d65b2-e9c0-4793-9cb6-d04a9d19a1d5","ios":"levelo://app?vid=ca8d65b2-e9c0-4793-9cb6-d04a9d19a1d5"},"vehicle_type_id":"4","last_reported":1732090397,"current_range_meters":24800,"station_id":"ce4bhm92rcd13ifvqglg","pricing_plan_id":"cebpf4jnsgd1na2vs0mg"},{"bike_id":"2ae0bd60-1c0b-49ef-936d-f9378a12a4ee","system_id":"levelo_inurba_marseille","lat":43.3169,"lon":5.40479,"is_reserved":false,"is_disabled":false,"rental_uris":{"android":"levelo://app?vid=2ae0bd60-1c0b-49ef-936d-f9378a12a4ee","ios":"levelo://app?vid=2ae0bd60-1c0b-49ef-936d-f9378a12a4ee"},"vehicle_type_id":"4","last_reported":1732090397,"current_range_meters":35200,"station_id":"ce4bh012rcd13ifvqd00","pricing_plan_id":"cebpf4jnsgd1na2vs0mg"},{"bike_id":"70cb43d9-3c04-40f1-8fa4-2095980b8453","system_id":"levelo_inurba_marseille","lat":43.31761,"lon":5.39011,"is_reserved":false,"is_disabled":false,"rental_uris":{"android":"levelo://app?vid=70cb43d9-3c04-40f1-8fa4-2095980b8453","ios":"levelo://app?vid=70cb43d9-3c04-40f1-8fa4-2095980b8453"},"vehicle_type_id":"4","last_reported":1732090397,"current_range_meters":18800,"station_id":"ce4bhqp2rcd13ifvqhng","pricing_plan_id":"cebpf4jnsgd1na2vs0mg"},{"bike_id":"afadbd90-4ea9-4e99-ae1e-98e25bda988a","system_id":"levelo_inurba_marseille","lat":43.30472,"lon":5.37912,"is_reserved":false,"is_disabled":false,"rental_uris":{"android":"levelo://app?vid=afadbd90-4ea9-4e99-ae1e-98e25bda988a","ios":"levelo://app?vid=afadbd90-4ea9-4e99-ae1e-98e25bda988a"},"vehicle_type_id":"4","last_reported":1732090397,"current_range_meters":28400,"station_id":"ce4bgup2rcd13ifvqcn0","pricing_plan_id":"cebpf4jnsgd1na2vs0mg"},{"bike_id":"e008ea5b-9c85-47a4-8557-75f660f9a13d","system_id":"levelo_inurba_marseille","lat":43.24389,"lon":5.37053,"is_reserved":false,"is_disabled":false,"rental_uris":{"android":"levelo://app?vid=e008ea5b-9c85-47a4-8557-75f660f9a13d","ios":"levelo://app?vid=e008ea5b-9c85-47a4-8557-75f660f9a13d"},"vehicle_type_id":"4","last_reported":1732090397,"current_range_meters":38800,"station_id":"ce4bhhh2rcd13ifvqfk0","pricing_plan_id":"cebpf4jnsgd1na2vs0mg"},{"bike_id":"40ff58ba-e76e-4158-85d8-58ddf02dec86","system_id":"levelo_inurba_marseille","lat":43.26687,"lon":5.38273,"is_reserved":false,"is_disabled":false,"rental_uris":{"android":"levelo://app?vid=40ff58ba-e76e-4158-85d8-58ddf02dec86","ios":"levelo://app?vid=40ff58ba-e76e-4158-85d8-58ddf02dec86"},"vehicle_type_id":"4","last_reported":1732090397,"current_range_meters":2000,"station_id":"ce4bhg92rcd13ifvqf90","pricing_plan_id":"cebpf4jnsgd1na2vs0mg"},{"bike_id":"f327ad99-a507-4865-ac80-317fae91b821","system_id":"levelo_inurba_marseille","lat":43.28261,"lon":5.35061,"is_reserved":false,"is_disabled":false,"rental_uris":{"android":"levelo://app?vid=f327ad99-a507-4865-ac80-317fae91b821","ios":"levelo://app?vid=f327ad99-a507-4865-ac80-317fae91b821"},"vehicle_type_id":"4","last_reported":1732090397,"current_range_meters":10000,"station_id":"ce4bhbp2rcd13ifvqerg","pricing_plan_id":"cebpf4jnsgd1na2vs0mg"},{"bike_id":"2ba1b5cb-f9ca-4b58-b038-efb81c3df548","system_id":"levelo_inurba_marseille","lat":43.25938,"lon":5.40907,"is_reserved":false,"is_disabled":false,"rental_uris":{"android":"levelo://app?vid=2ba1b5cb-f9ca-4b58-b038-efb81c3df548","ios":"levelo://app?vid=2ba1b5cb-f9ca-4b58-b038-efb81c3df548"},"vehicle_type_id":"4","last_reported":1732090397,"current_range_meters":17600,"station_id":"ce4bhm92rcd13ifvqglg","pricing_plan_id":"cebpf4jnsgd1na2vs0mg"},{"bike_id":"f8523a75-107a-4abc-9357-07039562b8ba","system_id":"levelo_inurba_marseille","lat":43.30472,"lon":5.37902,"is_reserved":false,"is_disabled":false,"rental_uris":{"android":"levelo://app?vid=f8523a75-107a-4abc-9357-07039562b8ba","ios":"levelo://app?vid=f8523a75-107a-4abc-9357-07039562b8ba"},"vehicle_type_id":"4","last_reported":1732090397,"current_range_meters":24000,"station_id":"ce4bgup2rcd13ifvqcn0","pricing_plan_id":"cebpf4jnsgd1na2vs0mg"},{"bike_id":"536b8f31-f4d5-442f-b72e-cb97173ec2f4","system_id":"levelo_inurba_marseille","lat":43.30896,"lon":5.39651,"is_reserved":false,"is_disabled":false,"rental_uris":{"android":"levelo://app?vid=536b8f31-f4d5-442f-b72e-cb97173ec2f4","ios":"levelo://app?vid=536b8f31-f4d5-442f-b72e-cb97173ec2f4"},"vehicle_type_id":"4","last_reported":1732090397,"current_range_meters":28000,"station_id":"ce4bh012rcd13ifvqcv0","pricing_plan_id":"cebpf4jnsgd1na2vs0mg"},{"bike_id":"1b932605-0319-4055-926a-bc1b54b86de1","system_id":"levelo_inurba_marseille","lat":43.26932,"lon":5.3892,"is_reserved":false,"is_disabled":false,"rental_uris":{"android":"levelo://app?vid=1b932605-0319-4055-926a-bc1b54b86de1","ios":"levelo://app?vid=1b932605-0319-4055-926a-bc1b54b86de1"},"vehicle_type_id":"4","last_reported":1732090397,"current_range_meters":34000,"station_id":"ce4bhhh2rcd13ifvqfl0","pricing_plan_id":"cebpf4jnsgd1na2vs0mg"},{"bike_id":"2bb46afb-5ed2-4e41-b3ad-298e60c4059c","system_id":"levelo_inurba_marseille","lat":43.26942,"lon":5.40245,"is_reserved":false,"is_disabled":false,"rental_uris":{"android":"levelo://app?vid=2bb46afb-5ed2-4e41-b3ad-298e60c4059c","ios":"levelo://app?vid=2bb46afb-5ed2-4e41-b3ad-298e60c4059c"},"vehicle_type_id":"4","last_reported":1732090397,"current_range_meters":36400,"station_id":"cjm6bp8fraef2m0cb0m0","pricing_plan_id":"cebpf4jnsgd1na2vs0mg"},{"bike_id":"241d784b-4d0c-4875-b884-dc2576b22a9d","system_id":"levelo_inurba_marseille","lat":43.33601,"lon":5.41033,"is_reserved":false,"is_disabled":false,"rental_uris":{"android":"levelo://app?vid=241d784b-4d0c-4875-b884-dc2576b22a9d","ios":"levelo://app?vid=241d784b-4d0c-4875-b884-dc2576b22a9d"},"vehicle_type_id":"4","last_reported":1732090397,"current_range_meters":4400,"station_id":"ce4bhqh2rcd13ifvqhmg","pricing_plan_id":"cebpf4jnsgd1na2vs0mg"},{"bike_id":"53e7114a-b3d7-4356-99e2-ff85b75f791c","system_id":"levelo_inurba_marseille","lat":43.29873,"lon":5.39726,"is_reserved":false,"is_disabled":false,"rental_uris":{"android":"levelo://app?vid=53e7114a-b3d7-4356-99e2-ff85b75f791c","ios":"levelo://app?vid=53e7114a-b3d7-4356-99e2-ff85b75f791c"},"vehicle_type_id":"4","last_reported":1732090397,"current_range_meters":23200,"station_id":"ce4bh0h2rcd13ifvqd50","pricing_plan_id":"cebpf4jnsgd1na2vs0mg"},{"bike_id":"c99b1888-f627-4c5d-b4d0-df6a6abe823c","system_id":"levelo_inurba_marseille","lat":43.26952,"lon":5.38622,"is_reserved":false,"is_disabled":true,"rental_uris":{"android":"levelo://app?vid=c99b1888-f627-4c5d-b4d0-df6a6abe823c","ios":"levelo://app?vid=c99b1888-f627-4c5d-b4d0-df6a6abe823c"},"vehicle_type_id":"4","last_reported":1732090397,"current_range_meters":4000,"station_id":"ce4bhh92rcd13ifvqfh0","pricing_plan_id":"cebpf4jnsgd1na2vs0mg"},{"bike_id":"1769703b-9903-454d-ac38-a754f724b036","system_id":"levelo_inurba_marseille","lat":43.25583,"lon":5.38227,"is_reserved":false,"is_disabled":false,"rental_uris":{"android":"levelo://app?vid=1769703b-9903-454d-ac38-a754f724b036","ios":"levelo://app?vid=1769703b-9903-454d-ac38-a754f724b036"},"vehicle_type_id":"4","last_reported":1732090397,"current_range_meters":37600,"station_id":"ce4bhih2rcd13ifvqfs0","pricing_plan_id":"cebpf4jnsgd1na2vs0mg"},{"bike_id":"bc249293-6395-4334-b84a-652f70f197fc","system_id":"levelo_inurba_marseille","lat":43.27633,"lon":5.42647,"is_reserved":false,"is_disabled":true,"rental_uris":{"android":"levelo://app?vid=bc249293-6395-4334-b84a-652f70f197fc","ios":"levelo://app?vid=bc249293-6395-4334-b84a-652f70f197fc"},"vehicle_type_id":"4","last_reported":1732090397,"current_range_meters":0,"station_id":"","pricing_plan_id":"cebpf4jnsgd1na2vs0mg"},{"bike_id":"ed4fa134-c8f3-40e1-ba97-1306c197c2c6","system_id":"levelo_inurba_marseille","lat":43.30318,"lon":5.4044,"is_reserved":false,"is_disabled":false,"rental_uris":{"android":"levelo://app?vid=ed4fa134-c8f3-40e1-ba97-1306c197c2c6","ios":"levelo://app?vid=ed4fa134-c8f3-40e1-ba97-1306c197c2c6"},"vehicle_type_id":"4","last_reported":1732090397,"current_range_meters":20400,"station_id":"ce4bh012rcd13ifvqd10","pricing_plan_id":"cebpf4jnsgd1na2vs0mg"},{"bike_id":"1fb219f2-1377-403e-9f3b-4b87400e3996","system_id":"levelo_inurba_marseille","lat":43.30597,"lon":5.39339,"is_reserved":false,"is_disabled":false,"rental_uris":{"android":"levelo://app?vid=1fb219f2-1377-403e-9f3b-4b87400e3996","ios":"levelo://app?vid=1fb219f2-1377-403e-9f3b-4b87400e3996"},"vehicle_type_id":"4","last_reported":1732090397,"current_range_meters":38800,"station_id":"ce4bh0p2rcd13ifvqd80","pricing_plan_id":"cebpf4jnsgd1na2vs0mg"},{"bike_id":"be1dd5f8-91fc-4786-8461-76cd869dae13","system_id":"levelo_inurba_marseille","lat":43.31982,"lon":5.41584,"is_reserved":false,"is_disabled":true,"rental_uris":{"android":"levelo://app?vid=be1dd5f8-91fc-4786-8461-76cd869dae13","ios":"levelo://app?vid=be1dd5f8-91fc-4786-8461-76cd869dae13"},"vehicle_type_id":"4","last_reported":1732090397,"current_range_meters":22400,"station_id":"","pricing_plan_id":"cebpf4jnsgd1na2vs0mg"},{"bike_id":"a0f8ba75-a09b-4f5e-bc7d-9f8f50952733","system_id":"levelo_inurba_marseille","lat":43.25596,"lon":5.38219,"is_reserved":false,"is_disabled":true,"rental_uris":{"android":"levelo://app?vid=a0f8ba75-a09b-4f5e-bc7d-9f8f50952733","ios":"levelo://app?vid=a0f8ba75-a09b-4f5e-bc7d-9f8f50952733"},"vehicle_type_id":"4","last_reported":1732090397,"current_range_meters":0,"station_id":"ce4bhih2rcd13ifvqfs0","pricing_plan_id":"cebpf4jnsgd1na2vs0mg"},{"bike_id":"8efa2e19-22cc-44e7-9d04-f0b9b25d7392","system_id":"levelo_inurba_marseille","lat":43.24079,"lon":5.37754,"is_reserved":false,"is_disabled":false,"rental_uris":{"android":"levelo://app?vid=8efa2e19-22cc-44e7-9d04-f0b9b25d7392","ios":"levelo://app?vid=8efa2e19-22cc-44e7-9d04-f0b9b25d7392"},"vehicle_type_id":"4","last_reported":1732090397,"current_range_meters":6400,"station_id":"ce4bhnp2rcd13ifvqgvg","pricing_plan_id":"cebpf4jnsgd1na2vs0mg"},{"bike_id":"7373652f-af02-44e6-9403-d312bc985f1d","system_id":"levelo_inurba_marseille","lat":43.28926,"lon":5.38412,"is_reserved":false,"is_disabled":true,"rental_uris":{"android":"levelo://app?vid=7373652f-af02-44e6-9403-d312bc985f1d","ios":"levelo://app?vid=7373652f-af02-44e6-9403-d312bc985f1d"},"vehicle_type_id":"4","last_reported":1732090397,"current_range_meters":38800,"station_id":"ce4bh612rcd13ifvqe6g","pricing_plan_id":"cebpf4jnsgd1na2vs0mg"},{"bike_id":"cdaafd2d-0da1-4fac-9881-15c66a7cd7c0","system_id":"levelo_inurba_marseille","lat":43.231478,"lon":5.437127,"is_reserved":false,"is_disabled":true,"rental_uris":{"android":"levelo://app?vid=cdaafd2d-0da1-4fac-9881-15c66a7cd7c0","ios":"levelo://app?vid=cdaafd2d-0da1-4fac-9881-15c66a7cd7c0"},"vehicle_type_id":"4","last_reported":1732090397,"current_range_meters":0,"station_id":"ce4bhmp2rcd13ifvqgog","pricing_plan_id":"cebpf4jnsgd1na2vs0mg"},{"bike_id":"80ed2145-0455-4da8-ae4a-e36065982ce3","system_id":"levelo_inurba_marseille","lat":43.32366,"lon":5.38877,"is_reserved":false,"is_disabled":false,"rental_uris":{"android":"levelo://app?vid=80ed2145-0455-4da8-ae4a-e36065982ce3","ios":"levelo://app?vid=80ed2145-0455-4da8-ae4a-e36065982ce3"},"vehicle_type_id":"4","last_reported":1732090397,"current_range_meters":9200,"station_id":"ce4bhqp2rcd13ifvqhog","pricing_plan_id":"cebpf4jnsgd1na2vs0mg"},{"bike_id":"8d5ad0a8-268e-4afd-be61-7919f93826c7","system_id":"levelo_inurba_marseille","lat":43.29918,"lon":5.37471,"is_reserved":false,"is_disabled":true,"rental_uris":{"android":"levelo://app?vid=8d5ad0a8-268e-4afd-be61-7919f93826c7","ios":"levelo://app?vid=8d5ad0a8-268e-4afd-be61-7919f93826c7"},"vehicle_type_id":"4","last_reported":1732090397,"current_range_meters":28400,"station_id":"ce4bgjh2rcd13ifvqbg0","pricing_plan_id":"cebpf4jnsgd1na2vs0mg"},{"bike_id":"f198b97b-88d4-49aa-b205-4610520421a6","system_id":"levelo_inurba_marseille","lat":43.330273,"lon":5.39039,"is_reserved":false,"is_disabled":false,"rental_uris":{"android":"levelo://app?vid=f198b97b-88d4-49aa-b205-4610520421a6","ios":"levelo://app?vid=f198b97b-88d4-49aa-b205-4610520421a6"},"vehicle_type_id":"4","last_reported":1732090397,"current_range_meters":30400,"station_id":"ce4bhr92rcd13ifvqhrg","pricing_plan_id":"cebpf4jnsgd1na2vs0mg"},{"bike_id":"85a0f1a9-64c6-4d00-b024-9cb898d0cf69","system_id":"levelo_inurba_marseille","lat":43.28437,"lon":5.39209,"is_reserved":false,"is_disabled":true,"rental_uris":{"android":"levelo://app?vid=85a0f1a9-64c6-4d00-b024-9cb898d0cf69","ios":"levelo://app?vid=85a0f1a9-64c6-4d00-b024-9cb898d0cf69"},"vehicle_type_id":"4","last_reported":1732090397,"current_range_meters":38800,"station_id":"ce4bhoh2rcd13ifvqh5g","pricing_plan_id":"cebpf4jnsgd1na2vs0mg"},{"bike_id":"512f0f93-234a-43d5-b74c-0d33c7cff887","system_id":"levelo_inurba_marseille","lat":43.27209,"lon":5.3919,"is_reserved":false,"is_disabled":true,"rental_uris":{"android":"levelo://app?vid=512f0f93-234a-43d5-b74c-0d33c7cff887","ios":"levelo://app?vid=512f0f93-234a-43d5-b74c-0d33c7cff887"},"vehicle_type_id":"4","last_reported":1732090397,"current_range_meters":28400,"station_id":"ce4bhhp2rcd13ifvqfm0","pricing_plan_id":"cebpf4jnsgd1na2vs0mg"},{"bike_id":"cf6170af-c186-4883-b451-89bf9903d52b","system_id":"levelo_inurba_marseille","lat":43.27346,"lon":5.39112,"is_reserved":false,"is_disabled":false,"rental_uris":{"android":"levelo://app?vid=cf6170af-c186-4883-b451-89bf9903d52b","ios":"levelo://app?vid=cf6170af-c186-4883-b451-89bf9903d52b"},"vehicle_type_id":"4","last_reported":1732090397,"current_range_meters":1200,"station_id":"ce4bhgp2rcd13ifvqfe0","pricing_plan_id":"cebpf4jnsgd1na2vs0mg"},{"bike_id":"6cd2a57f-481c-4402-b368-125d141ec240","system_id":"levelo_inurba_marseille","lat":43.295234,"lon":5.390481,"is_reserved":false,"is_disabled":false,"rental_uris":{"android":"levelo://app?vid=6cd2a57f-481c-4402-b368-125d141ec240","ios":"levelo://app?vid=6cd2a57f-481c-4402-b368-125d141ec240"},"vehicle_type_id":"4","last_reported":1732090397,"current_range_meters":31200,"station_id":"ce4bh3p2rcd13ifvqdp0","pricing_plan_id":"cebpf4jnsgd1na2vs0mg"},{"bike_id":"5fe20d58-65ac-4c8a-b149-a2e6de20044d","system_id":"levelo_inurba_marseille","lat":43.29374,"lon":5.37857,"is_reserved":false,"is_disabled":false,"rental_uris":{"android":"levelo://app?vid=5fe20d58-65ac-4c8a-b149-a2e6de20044d","ios":"levelo://app?vid=5fe20d58-65ac-4c8a-b149-a2e6de20044d"},"vehicle_type_id":"4","last_reported":1732090397,"current_range_meters":28400,"station_id":"ce4bgjh2rcd13ifvqbf0","pricing_plan_id":"cebpf4jnsgd1na2vs0mg"},{"bike_id":"6a9c3b42-bbed-4a17-9d21-9d400d11f331","system_id":"levelo_inurba_marseille","lat":43.32486,"lon":5.36553,"is_reserved":false,"is_disabled":false,"rental_uris":{"android":"levelo://app?vid=6a9c3b42-bbed-4a17-9d21-9d400d11f331","ios":"levelo://app?vid=6a9c3b42-bbed-4a17-9d21-9d400d11f331"},"vehicle_type_id":"4","last_reported":1732090397,"current_range_meters":38400,"station_id":"ce4bhs12rcd13ifvqhvg","pricing_plan_id":"cebpf4jnsgd1na2vs0mg"},{"bike_id":"d2c643bf-7624-49f9-ac83-ea432bbe727a","system_id":"levelo_inurba_marseille","lat":43.24079,"lon":5.37751,"is_reserved":false,"is_disabled":false,"rental_uris":{"android":"levelo://app?vid=d2c643bf-7624-49f9-ac83-ea432bbe727a","ios":"levelo://app?vid=d2c643bf-7624-49f9-ac83-ea432bbe727a"},"vehicle_type_id":"4","last_reported":1732090397,"current_range_meters":33600,"station_id":"ce4bhnp2rcd13ifvqgvg","pricing_plan_id":"cebpf4jnsgd1na2vs0mg"},{"bike_id":"6492293b-b237-4871-b090-665f8ed67c4f","system_id":"levelo_inurba_marseille","lat":43.30468,"lon":5.37908,"is_reserved":false,"is_disabled":false,"rental_uris":{"android":"levelo://app?vid=6492293b-b237-4871-b090-665f8ed67c4f","ios":"levelo://app?vid=6492293b-b237-4871-b090-665f8ed67c4f"},"vehicle_type_id":"4","last_reported":1732090397,"current_range_meters":33200,"station_id":"ce4bgup2rcd13ifvqcn0","pricing_plan_id":"cebpf4jnsgd1na2vs0mg"},{"bike_id":"64486476-b306-47e0-9aa4-65994e58597f","system_id":"levelo_inurba_marseille","lat":43.30611,"lon":5.39352,"is_reserved":false,"is_disabled":false,"rental_uris":{"android":"levelo://app?vid=64486476-b306-47e0-9aa4-65994e58597f","ios":"levelo://app?vid=64486476-b306-47e0-9aa4-65994e58597f"},"vehicle_type_id":"4","last_reported":1732090397,"current_range_meters":38800,"station_id":"ce4bh0p2rcd13ifvqd80","pricing_plan_id":"cebpf4jnsgd1na2vs0mg"},{"bike_id":"3df07603-4cc7-450a-9655-3b7606e514c1","system_id":"levelo_inurba_marseille","lat":43.29068,"lon":5.37156,"is_reserved":false,"is_disabled":true,"rental_uris":{"android":"levelo://app?vid=3df07603-4cc7-450a-9655-3b7606e514c1","ios":"levelo://app?vid=3df07603-4cc7-450a-9655-3b7606e514c1"},"vehicle_type_id":"4","last_reported":1732090397,"current_range_meters":18000,"station_id":"ce4bh5p2rcd13ifvqe4g","pricing_plan_id":"cebpf4jnsgd1na2vs0mg"},{"bike_id":"c7194ba9-4f73-4b9b-88a7-7741411478a1","system_id":"levelo_inurba_marseille","lat":43.298205,"lon":5.371496,"is_reserved":false,"is_disabled":false,"rental_uris":{"android":"levelo://app?vid=c7194ba9-4f73-4b9b-88a7-7741411478a1","ios":"levelo://app?vid=c7194ba9-4f73-4b9b-88a7-7741411478a1"},"vehicle_type_id":"4","last_reported":1732090397,"current_range_meters":20400,"station_id":"","pricing_plan_id":"cebpf4jnsgd1na2vs0mg"},{"bike_id":"cbfc9a20-d05e-4b2a-bc9d-c388d98c9f06","system_id":"levelo_inurba_marseille","lat":43.26685,"lon":5.38276,"is_reserved":false,"is_disabled":false,"rental_uris":{"android":"levelo://app?vid=cbfc9a20-d05e-4b2a-bc9d-c388d98c9f06","ios":"levelo://app?vid=cbfc9a20-d05e-4b2a-bc9d-c388d98c9f06"},"vehicle_type_id":"4","last_reported":1732090397,"current_range_meters":30400,"station_id":"ce4bhg92rcd13ifvqf90","pricing_plan_id":"cebpf4jnsgd1na2vs0mg"},{"bike_id":"f264b414-f319-4c68-87b9-7d532c5987b6","system_id":"levelo_inurba_marseille","lat":43.30542,"lon":5.38425,"is_reserved":false,"is_disabled":false,"rental_uris":{"android":"levelo://app?vid=f264b414-f319-4c68-87b9-7d532c5987b6","ios":"levelo://app?vid=f264b414-f319-4c68-87b9-7d532c5987b6"},"vehicle_type_id":"4","last_reported":1732090397,"current_range_meters":38400,"station_id":"ce4bgg92rcd13ifvqb30","pricing_plan_id":"cebpf4jnsgd1na2vs0mg"},{"bike_id":"658c3afe-23a6-48fe-8ba4-7f0cfed06312","system_id":"levelo_inurba_marseille","lat":43.24081,"lon":5.37754,"is_reserved":false,"is_disabled":false,"rental_uris":{"android":"levelo://app?vid=658c3afe-23a6-48fe-8ba4-7f0cfed06312","ios":"levelo://app?vid=658c3afe-23a6-48fe-8ba4-7f0cfed06312"},"vehicle_type_id":"4","last_reported":1732090397,"current_range_meters":22400,"station_id":"ce4bhnp2rcd13ifvqgvg","pricing_plan_id":"cebpf4jnsgd1na2vs0mg"},{"bike_id":"fc8f2f3f-f4da-45f9-9030-978fb706c0e1","system_id":"levelo_inurba_marseille","lat":43.3136,"lon":5.36721,"is_reserved":false,"is_disabled":false,"rental_uris":{"android":"levelo://app?vid=fc8f2f3f-f4da-45f9-9030-978fb706c0e1","ios":"levelo://app?vid=fc8f2f3f-f4da-45f9-9030-978fb706c0e1"},"vehicle_type_id":"4","last_reported":1732090397,"current_range_meters":32400,"station_id":"ce4bgr92rcd13ifvqc6g","pricing_plan_id":"cebpf4jnsgd1na2vs0mg"},{"bike_id":"4bd268f3-b708-480d-b1f5-141d19aa9947","system_id":"levelo_inurba_marseille","lat":43.244727,"lon":5.377973,"is_reserved":false,"is_disabled":true,"rental_uris":{"android":"levelo://app?vid=4bd268f3-b708-480d-b1f5-141d19aa9947","ios":"levelo://app?vid=4bd268f3-b708-480d-b1f5-141d19aa9947"},"vehicle_type_id":"4","last_reported":1732090397,"current_range_meters":0,"station_id":"","pricing_plan_id":"cebpf4jnsgd1na2vs0mg"},{"bike_id":"a78bc1fa-f508-4cab-a5e8-89111600fa30","system_id":"levelo_inurba_marseille","lat":43.341401,"lon":5.409031,"is_reserved":false,"is_disabled":false,"rental_uris":{"android":"levelo://app?vid=a78bc1fa-f508-4cab-a5e8-89111600fa30","ios":"levelo://app?vid=a78bc1fa-f508-4cab-a5e8-89111600fa30"},"vehicle_type_id":"4","last_reported":1732090397,"current_range_meters":39200,"station_id":"ce4bhqh2rcd13ifvqhlg","pricing_plan_id":"cebpf4jnsgd1na2vs0mg"},{"bike_id":"9b4d52a8-a22b-418c-a556-65afaca3a235","system_id":"levelo_inurba_marseille","lat":43.33753,"lon":5.37446,"is_reserved":false,"is_disabled":false,"rental_uris":{"android":"levelo://app?vid=9b4d52a8-a22b-418c-a556-65afaca3a235","ios":"levelo://app?vid=9b4d52a8-a22b-418c-a556-65afaca3a235"},"vehicle_type_id":"4","last_reported":1732090397,"current_range_meters":17600,"station_id":"","pricing_plan_id":"cebpf4jnsgd1na2vs0mg"},{"bike_id":"8512ebf5-be13-4338-8c51-69c8f82f11b8","system_id":"levelo_inurba_marseille","lat":43.30892,"lon":5.39648,"is_reserved":false,"is_disabled":false,"rental_uris":{"android":"levelo://app?vid=8512ebf5-be13-4338-8c51-69c8f82f11b8","ios":"levelo://app?vid=8512ebf5-be13-4338-8c51-69c8f82f11b8"},"vehicle_type_id":"4","last_reported":1732090397,"current_range_meters":20000,"station_id":"ce4bh012rcd13ifvqcv0","pricing_plan_id":"cebpf4jnsgd1na2vs0mg"},{"bike_id":"ad207ff9-e382-46aa-9ab6-5f4153d9e47e","system_id":"levelo_inurba_marseille","lat":43.32533,"lon":5.41432,"is_reserved":false,"is_disabled":false,"rental_uris":{"android":"levelo://app?vid=ad207ff9-e382-46aa-9ab6-5f4153d9e47e","ios":"levelo://app?vid=ad207ff9-e382-46aa-9ab6-5f4153d9e47e"},"vehicle_type_id":"4","last_reported":1732090397,"current_range_meters":8000,"station_id":"ce4bhq12rcd13ifvqhhg","pricing_plan_id":"cebpf4jnsgd1na2vs0mg"},{"bike_id":"5746cf9f-2df8-4414-a248-cc3e269f7e61","system_id":"levelo_inurba_marseille","lat":43.30467,"lon":5.37902,"is_reserved":false,"is_disabled":false,"rental_uris":{"android":"levelo://app?vid=5746cf9f-2df8-4414-a248-cc3e269f7e61","ios":"levelo://app?vid=5746cf9f-2df8-4414-a248-cc3e269f7e61"},"vehicle_type_id":"4","last_reported":1732090397,"current_range_meters":33200,"station_id":"ce4bgup2rcd13ifvqcn0","pricing_plan_id":"cebpf4jnsgd1na2vs0mg"},{"bike_id":"75e645c8-37f2-46f8-aed0-40a13cf65202","system_id":"levelo_inurba_marseille","lat":43.29785,"lon":5.37107,"is_reserved":false,"is_disabled":false,"rental_uris":{"android":"levelo://app?vid=75e645c8-37f2-46f8-aed0-40a13cf65202","ios":"levelo://app?vid=75e645c8-37f2-46f8-aed0-40a13cf65202"},"vehicle_type_id":"4","last_reported":1732090397,"current_range_meters":38800,"station_id":"ce4bgop2rcd13ifvqc1g","pricing_plan_id":"cebpf4jnsgd1na2vs0mg"},{"bike_id":"9683e212-0188-4d1a-a99f-3d0af56226ff","system_id":"levelo_inurba_marseille","lat":43.24078,"lon":5.37754,"is_reserved":false,"is_disabled":false,"rental_uris":{"android":"levelo://app?vid=9683e212-0188-4d1a-a99f-3d0af56226ff","ios":"levelo://app?vid=9683e212-0188-4d1a-a99f-3d0af56226ff"},"vehicle_type_id":"4","last_reported":1732090397,"current_range_meters":36800,"station_id":"ce4bhnp2rcd13ifvqgvg","pricing_plan_id":"cebpf4jnsgd1na2vs0mg"},{"bike_id":"e74e8692-56b5-455e-b107-3674a73c30f0","system_id":"levelo_inurba_marseille","lat":43.29271,"lon":5.368375,"is_reserved":false,"is_disabled":true,"rental_uris":{"android":"levelo://app?vid=e74e8692-56b5-455e-b107-3674a73c30f0","ios":"levelo://app?vid=e74e8692-56b5-455e-b107-3674a73c30f0"},"vehicle_type_id":"4","last_reported":1732090397,"current_range_meters":0,"station_id":"ce4bhbp2rcd13ifvqesg","pricing_plan_id":"cebpf4jnsgd1na2vs0mg"},{"bike_id":"d914726d-cb54-4c9c-8990-0c1f00249186","system_id":"levelo_inurba_marseille","lat":43.30275,"lon":5.37722,"is_reserved":false,"is_disabled":false,"rental_uris":{"android":"levelo://app?vid=d914726d-cb54-4c9c-8990-0c1f00249186","ios":"levelo://app?vid=d914726d-cb54-4c9c-8990-0c1f00249186"},"vehicle_type_id":"4","last_reported":1732090397,"current_range_meters":36000,"station_id":"ce4bguh2rcd13ifvqcj0","pricing_plan_id":"cebpf4jnsgd1na2vs0mg"},{"bike_id":"b8e0ff19-cfbf-49c3-a9f8-f8dcefd4b613","system_id":"levelo_inurba_marseille","lat":43.27667,"lon":5.38904,"is_reserved":false,"is_disabled":true,"rental_uris":{"android":"levelo://app?vid=b8e0ff19-cfbf-49c3-a9f8-f8dcefd4b613","ios":"levelo://app?vid=b8e0ff19-cfbf-49c3-a9f8-f8dcefd4b613"},"vehicle_type_id":"4","last_reported":1732090397,"current_range_meters":34000,"station_id":"ce4bhi12rcd13ifvqfo0","pricing_plan_id":"cebpf4jnsgd1na2vs0mg"},{"bike_id":"6062c814-b29e-4547-857c-6b4aba6ee686","system_id":"levelo_inurba_marseille","lat":43.3136,"lon":5.36713,"is_reserved":false,"is_disabled":false,"rental_uris":{"android":"levelo://app?vid=6062c814-b29e-4547-857c-6b4aba6ee686","ios":"levelo://app?vid=6062c814-b29e-4547-857c-6b4aba6ee686"},"vehicle_type_id":"4","last_reported":1732090397,"current_range_meters":33200,"station_id":"ce4bgr92rcd13ifvqc6g","pricing_plan_id":"cebpf4jnsgd1na2vs0mg"},{"bike_id":"d57aac36-d542-4c08-b78f-fd1bcb1bd404","system_id":"levelo_inurba_marseille","lat":43.27494,"lon":5.42451,"is_reserved":false,"is_disabled":true,"rental_uris":{"android":"levelo://app?vid=d57aac36-d542-4c08-b78f-fd1bcb1bd404","ios":"levelo://app?vid=d57aac36-d542-4c08-b78f-fd1bcb1bd404"},"vehicle_type_id":"4","last_reported":1732090397,"current_range_meters":6000,"station_id":"ce4bhn92rcd13ifvqgrg","pricing_plan_id":"cebpf4jnsgd1na2vs0mg"},{"bike_id":"588d2d01-eb5b-4c79-b24e-e8e68a5d09b3","system_id":"levelo_inurba_marseille","lat":43.30608,"lon":5.39361,"is_reserved":false,"is_disabled":false,"rental_uris":{"android":"levelo://app?vid=588d2d01-eb5b-4c79-b24e-e8e68a5d09b3","ios":"levelo://app?vid=588d2d01-eb5b-4c79-b24e-e8e68a5d09b3"},"vehicle_type_id":"4","last_reported":1732090397,"current_range_meters":32000,"station_id":"ce4bh0p2rcd13ifvqd80","pricing_plan_id":"cebpf4jnsgd1na2vs0mg"},{"bike_id":"93df6ddb-116b-49af-8d27-10fad5b24377","system_id":"levelo_inurba_marseille","lat":43.29715,"lon":5.3768,"is_reserved":false,"is_disabled":false,"rental_uris":{"android":"levelo://app?vid=93df6ddb-116b-49af-8d27-10fad5b24377","ios":"levelo://app?vid=93df6ddb-116b-49af-8d27-10fad5b24377"},"vehicle_type_id":"4","last_reported":1732090397,"current_range_meters":35200,"station_id":"ce4bgkh2rcd13ifvqbl0","pricing_plan_id":"cebpf4jnsgd1na2vs0mg"},{"bike_id":"29bf4663-a932-44eb-84f4-3530c99daddd","system_id":"levelo_inurba_marseille","lat":43.29556,"lon":5.40024,"is_reserved":false,"is_disabled":false,"rental_uris":{"android":"levelo://app?vid=29bf4663-a932-44eb-84f4-3530c99daddd","ios":"levelo://app?vid=29bf4663-a932-44eb-84f4-3530c99daddd"},"vehicle_type_id":"4","last_reported":1732090397,"current_range_meters":28400,"station_id":"","pricing_plan_id":"cebpf4jnsgd1na2vs0mg"},{"bike_id":"1462f68e-113f-431d-9d5b-f4d7f987f2b8","system_id":"levelo_inurba_marseille","lat":43.28485,"lon":5.38427,"is_reserved":false,"is_disabled":true,"rental_uris":{"android":"levelo://app?vid=1462f68e-113f-431d-9d5b-f4d7f987f2b8","ios":"levelo://app?vid=1462f68e-113f-431d-9d5b-f4d7f987f2b8"},"vehicle_type_id":"4","last_reported":1732090397,"current_range_meters":0,"station_id":"ce4bh512rcd13ifvqe3g","pricing_plan_id":"cebpf4jnsgd1na2vs0mg"},{"bike_id":"c605fb39-9926-4cfd-8d8e-b91be610769f","system_id":"levelo_inurba_marseille","lat":43.28482,"lon":5.38555,"is_reserved":false,"is_disabled":false,"rental_uris":{"android":"levelo://app?vid=c605fb39-9926-4cfd-8d8e-b91be610769f","ios":"levelo://app?vid=c605fb39-9926-4cfd-8d8e-b91be610769f"},"vehicle_type_id":"4","last_reported":1732090397,"current_range_meters":3200,"station_id":"ce4bh8p2rcd13ifvqeb0","pricing_plan_id":"cebpf4jnsgd1na2vs0mg"},{"bike_id":"c95aa9f9-312d-41ca-8fef-e9227fcf51c7","system_id":"levelo_inurba_marseille","lat":43.26557,"lon":5.39003,"is_reserved":false,"is_disabled":false,"rental_uris":{"android":"levelo://app?vid=c95aa9f9-312d-41ca-8fef-e9227fcf51c7","ios":"levelo://app?vid=c95aa9f9-312d-41ca-8fef-e9227fcf51c7"},"vehicle_type_id":"4","last_reported":1732090397,"current_range_meters":27200,"station_id":"ce4bhe12rcd13ifvqf30","pricing_plan_id":"cebpf4jnsgd1na2vs0mg"},{"bike_id":"270c5586-8f9b-4bce-8727-3cf2154b0f5a","system_id":"levelo_inurba_marseille","lat":43.26951,"lon":5.38618,"is_reserved":false,"is_disabled":false,"rental_uris":{"android":"levelo://app?vid=270c5586-8f9b-4bce-8727-3cf2154b0f5a","ios":"levelo://app?vid=270c5586-8f9b-4bce-8727-3cf2154b0f5a"},"vehicle_type_id":"4","last_reported":1732090397,"current_range_meters":18800,"station_id":"ce4bhh92rcd13ifvqfh0","pricing_plan_id":"cebpf4jnsgd1na2vs0mg"},{"bike_id":"0b733133-03c9-4766-961e-92b775b50bbc","system_id":"levelo_inurba_marseille","lat":43.282245,"lon":5.442995,"is_reserved":false,"is_disabled":true,"rental_uris":{"android":"levelo://app?vid=0b733133-03c9-4766-961e-92b775b50bbc","ios":"levelo://app?vid=0b733133-03c9-4766-961e-92b775b50bbc"},"vehicle_type_id":"4","last_reported":1732090397,"current_range_meters":0,"station_id":"","pricing_plan_id":"cebpf4jnsgd1na2vs0mg"},{"bike_id":"9cf26411-800f-4719-8a79-af6c3051d69c","system_id":"levelo_inurba_marseille","lat":43.27053,"lon":5.40263,"is_reserved":false,"is_disabled":false,"rental_uris":{"android":"levelo://app?vid=9cf26411-800f-4719-8a79-af6c3051d69c","ios":"levelo://app?vid=9cf26411-800f-4719-8a79-af6c3051d69c"},"vehicle_type_id":"4","last_reported":1732090397,"current_range_meters":7200,"station_id":"ce4bhk92rcd13ifvqgc0","pricing_plan_id":"cebpf4jnsgd1na2vs0mg"},{"bike_id":"bd3abe87-38c1-4c3f-a9de-0d2b4cda7d87","system_id":"levelo_inurba_marseille","lat":43.28484,"lon":5.38416,"is_reserved":false,"is_disabled":false,"rental_uris":{"android":"levelo://app?vid=bd3abe87-38c1-4c3f-a9de-0d2b4cda7d87","ios":"levelo://app?vid=bd3abe87-38c1-4c3f-a9de-0d2b4cda7d87"},"vehicle_type_id":"4","last_reported":1732090397,"current_range_meters":34000,"station_id":"ce4bh512rcd13ifvqe3g","pricing_plan_id":"cebpf4jnsgd1na2vs0mg"},{"bike_id":"e4c11769-2c19-46a4-a622-9a2180bb2646","system_id":"levelo_inurba_marseille","lat":43.23154,"lon":5.43712,"is_reserved":false,"is_disabled":false,"rental_uris":{"android":"levelo://app?vid=e4c11769-2c19-46a4-a622-9a2180bb2646","ios":"levelo://app?vid=e4c11769-2c19-46a4-a622-9a2180bb2646"},"vehicle_type_id":"4","last_reported":1732090397,"current_range_meters":39200,"station_id":"ce4bhmp2rcd13ifvqgog","pricing_plan_id":"cebpf4jnsgd1na2vs0mg"},{"bike_id":"7d02f161-c4ab-430d-be6a-e052ba68aacf","system_id":"levelo_inurba_marseille","lat":43.30957,"lon":5.39028,"is_reserved":false,"is_disabled":true,"rental_uris":{"android":"levelo://app?vid=7d02f161-c4ab-430d-be6a-e052ba68aacf","ios":"levelo://app?vid=7d02f161-c4ab-430d-be6a-e052ba68aacf"},"vehicle_type_id":"4","last_reported":1732090397,"current_range_meters":8000,"station_id":"","pricing_plan_id":"cebpf4jnsgd1na2vs0mg"},{"bike_id":"5336a5b5-c183-420b-aff7-591cf3ddcaab","system_id":"levelo_inurba_marseille","lat":43.30457,"lon":5.37897,"is_reserved":false,"is_disabled":false,"rental_uris":{"android":"levelo://app?vid=5336a5b5-c183-420b-aff7-591cf3ddcaab","ios":"levelo://app?vid=5336a5b5-c183-420b-aff7-591cf3ddcaab"},"vehicle_type_id":"4","last_reported":1732090397,"current_range_meters":35600,"station_id":"ce4bgup2rcd13ifvqcn0","pricing_plan_id":"cebpf4jnsgd1na2vs0mg"},{"bike_id":"9da40e7e-4a1a-4138-b5ce-54910913c3a4","system_id":"levelo_inurba_marseille","lat":43.30252,"lon":5.40068,"is_reserved":false,"is_disabled":false,"rental_uris":{"android":"levelo://app?vid=9da40e7e-4a1a-4138-b5ce-54910913c3a4","ios":"levelo://app?vid=9da40e7e-4a1a-4138-b5ce-54910913c3a4"},"vehicle_type_id":"4","last_reported":1732090397,"current_range_meters":38400,"station_id":"ce4bgvh2rcd13ifvqcs0","pricing_plan_id":"cebpf4jnsgd1na2vs0mg"},{"bike_id":"3b44a047-a630-4d9c-981a-93fd3a434f1d","system_id":"levelo_inurba_marseille","lat":43.29226,"lon":5.36058,"is_reserved":false,"is_disabled":false,"rental_uris":{"android":"levelo://app?vid=3b44a047-a630-4d9c-981a-93fd3a434f1d","ios":"levelo://app?vid=3b44a047-a630-4d9c-981a-93fd3a434f1d"},"vehicle_type_id":"4","last_reported":1732090397,"current_range_meters":7200,"station_id":"ce4bhbh2rcd13ifvqeqg","pricing_plan_id":"cebpf4jnsgd1na2vs0mg"},{"bike_id":"1b8336fc-fb04-4ede-b968-5d72ea701c4a","system_id":"levelo_inurba_marseille","lat":43.29369,"lon":5.37837,"is_reserved":false,"is_disabled":false,"rental_uris":{"android":"levelo://app?vid=1b8336fc-fb04-4ede-b968-5d72ea701c4a","ios":"levelo://app?vid=1b8336fc-fb04-4ede-b968-5d72ea701c4a"},"vehicle_type_id":"4","last_reported":1732090397,"current_range_meters":29600,"station_id":"ce4bgjh2rcd13ifvqbf0","pricing_plan_id":"cebpf4jnsgd1na2vs0mg"},{"bike_id":"62e73b5a-9160-4545-9da4-715b86e1f5c2","system_id":"levelo_inurba_marseille","lat":43.30482,"lon":5.37891,"is_reserved":false,"is_disabled":false,"rental_uris":{"android":"levelo://app?vid=62e73b5a-9160-4545-9da4-715b86e1f5c2","ios":"levelo://app?vid=62e73b5a-9160-4545-9da4-715b86e1f5c2"},"vehicle_type_id":"4","last_reported":1732090397,"current_range_meters":38800,"station_id":"ce4bgup2rcd13ifvqcn0","pricing_plan_id":"cebpf4jnsgd1na2vs0mg"},{"bike_id":"1904e4d6-e1e0-456f-9800-8b0e0e7107b4","system_id":"levelo_inurba_marseille","lat":43.23153,"lon":5.43703,"is_reserved":false,"is_disabled":true,"rental_uris":{"android":"levelo://app?vid=1904e4d6-e1e0-456f-9800-8b0e0e7107b4","ios":"levelo://app?vid=1904e4d6-e1e0-456f-9800-8b0e0e7107b4"},"vehicle_type_id":"4","last_reported":1732090397,"current_range_meters":0,"station_id":"ce4bhmp2rcd13ifvqgog","pricing_plan_id":"cebpf4jnsgd1na2vs0mg"},{"bike_id":"1cb2c34c-674c-463f-a70d-ea22d6b364db","system_id":"levelo_inurba_marseille","lat":43.2904,"lon":5.37566,"is_reserved":false,"is_disabled":false,"rental_uris":{"android":"levelo://app?vid=1cb2c34c-674c-463f-a70d-ea22d6b364db","ios":"levelo://app?vid=1cb2c34c-674c-463f-a70d-ea22d6b364db"},"vehicle_type_id":"4","last_reported":1732090397,"current_range_meters":26000,"station_id":"ce4bh692rcd13ifvqe90","pricing_plan_id":"cebpf4jnsgd1na2vs0mg"},{"bike_id":"35ae0824-f6a1-494d-ad0e-71e2a1b9e68e","system_id":"levelo_inurba_marseille","lat":43.25498,"lon":5.37652,"is_reserved":false,"is_disabled":false,"rental_uris":{"android":"levelo://app?vid=35ae0824-f6a1-494d-ad0e-71e2a1b9e68e","ios":"levelo://app?vid=35ae0824-f6a1-494d-ad0e-71e2a1b9e68e"},"vehicle_type_id":"4","last_reported":1732090397,"current_range_meters":37600,"station_id":"ce4bhh12rcd13ifvqff0","pricing_plan_id":"cebpf4jnsgd1na2vs0mg"},{"bike_id":"ae11e008-6d1b-40d3-b8ae-f0a7e32b61fd","system_id":"levelo_inurba_marseille","lat":43.32538,"lon":5.41442,"is_reserved":false,"is_disabled":false,"rental_uris":{"android":"levelo://app?vid=ae11e008-6d1b-40d3-b8ae-f0a7e32b61fd","ios":"levelo://app?vid=ae11e008-6d1b-40d3-b8ae-f0a7e32b61fd"},"vehicle_type_id":"4","last_reported":1732090397,"current_range_meters":8000,"station_id":"ce4bhq12rcd13ifvqhhg","pricing_plan_id":"cebpf4jnsgd1na2vs0mg"},{"bike_id":"3a4fa403-18c4-4c28-bf14-b7b166e74ddb","system_id":"levelo_inurba_marseille","lat":43.32111,"lon":5.36767,"is_reserved":false,"is_disabled":false,"rental_uris":{"android":"levelo://app?vid=3a4fa403-18c4-4c28-bf14-b7b166e74ddb","ios":"levelo://app?vid=3a4fa403-18c4-4c28-bf14-b7b166e74ddb"},"vehicle_type_id":"4","last_reported":1732090397,"current_range_meters":28000,"station_id":"ce4bhrh2rcd13ifvqhug","pricing_plan_id":"cebpf4jnsgd1na2vs0mg"},{"bike_id":"1eff5ce5-2d56-4465-a12c-60db9ec2175a","system_id":"levelo_inurba_marseille","lat":43.22928,"lon":5.35375,"is_reserved":false,"is_disabled":false,"rental_uris":{"android":"levelo://app?vid=1eff5ce5-2d56-4465-a12c-60db9ec2175a","ios":"levelo://app?vid=1eff5ce5-2d56-4465-a12c-60db9ec2175a"},"vehicle_type_id":"4","last_reported":1732090397,"current_range_meters":17200,"station_id":"cpo3532slgdg3j2ikp40","pricing_plan_id":"cebpf4jnsgd1na2vs0mg"},{"bike_id":"6ac38c08-263b-4dbc-9230-678d7993bb91","system_id":"levelo_inurba_marseille","lat":43.29309,"lon":5.37183,"is_reserved":false,"is_disabled":false,"rental_uris":{"android":"levelo://app?vid=6ac38c08-263b-4dbc-9230-678d7993bb91","ios":"levelo://app?vid=6ac38c08-263b-4dbc-9230-678d7993bb91"},"vehicle_type_id":"4","last_reported":1732090397,"current_range_meters":24800,"station_id":"ce4bgh92rcd13ifvqb40","pricing_plan_id":"cebpf4jnsgd1na2vs0mg"},{"bike_id":"03c70f13-2d6f-426a-9552-7093ee42e50e","system_id":"levelo_inurba_marseille","lat":43.26956,"lon":5.38633,"is_reserved":false,"is_disabled":false,"rental_uris":{"android":"levelo://app?vid=03c70f13-2d6f-426a-9552-7093ee42e50e","ios":"levelo://app?vid=03c70f13-2d6f-426a-9552-7093ee42e50e"},"vehicle_type_id":"4","last_reported":1732090397,"current_range_meters":30400,"station_id":"ce4bhh92rcd13ifvqfh0","pricing_plan_id":"cebpf4jnsgd1na2vs0mg"},{"bike_id":"e43cda0f-ead7-41b5-a67d-222d092a48a1","system_id":"levelo_inurba_marseille","lat":43.33759,"lon":5.37429,"is_reserved":false,"is_disabled":false,"rental_uris":{"android":"levelo://app?vid=e43cda0f-ead7-41b5-a67d-222d092a48a1","ios":"levelo://app?vid=e43cda0f-ead7-41b5-a67d-222d092a48a1"},"vehicle_type_id":"4","last_reported":1732090397,"current_range_meters":38800,"station_id":"","pricing_plan_id":"cebpf4jnsgd1na2vs0mg"},{"bike_id":"9f3572b0-c0a7-43aa-8c1e-c100148af63b","system_id":"levelo_inurba_marseille","lat":43.2919,"lon":5.35792,"is_reserved":false,"is_disabled":true,"rental_uris":{"android":"levelo://app?vid=9f3572b0-c0a7-43aa-8c1e-c100148af63b","ios":"levelo://app?vid=9f3572b0-c0a7-43aa-8c1e-c100148af63b"},"vehicle_type_id":"4","last_reported":1732090397,"current_range_meters":38400,"station_id":"ce4bhb12rcd13ifvqel0","pricing_plan_id":"cebpf4jnsgd1na2vs0mg"},{"bike_id":"954054ad-77ac-46c3-a1b5-c8fc266a522b","system_id":"levelo_inurba_marseille","lat":43.31723,"lon":5.42394,"is_reserved":false,"is_disabled":false,"rental_uris":{"android":"levelo://app?vid=954054ad-77ac-46c3-a1b5-c8fc266a522b","ios":"levelo://app?vid=954054ad-77ac-46c3-a1b5-c8fc266a522b"},"vehicle_type_id":"4","last_reported":1732090397,"current_range_meters":38800,"station_id":"ce4bhp92rcd13ifvqhbg","pricing_plan_id":"cebpf4jnsgd1na2vs0mg"},{"bike_id":"0694dfa5-aa91-4175-b2b8-06f4b4a8d95c","system_id":"levelo_inurba_marseille","lat":43.26683,"lon":5.38271,"is_reserved":false,"is_disabled":true,"rental_uris":{"android":"levelo://app?vid=0694dfa5-aa91-4175-b2b8-06f4b4a8d95c","ios":"levelo://app?vid=0694dfa5-aa91-4175-b2b8-06f4b4a8d95c"},"vehicle_type_id":"4","last_reported":1732090397,"current_range_meters":38800,"station_id":"ce4bhg92rcd13ifvqf90","pricing_plan_id":"cebpf4jnsgd1na2vs0mg"},{"bike_id":"dde8cce2-2ed1-4fdd-81ed-cfda3582f0ae","system_id":"levelo_inurba_marseille","lat":43.2927,"lon":5.36846,"is_reserved":false,"is_disabled":false,"rental_uris":{"android":"levelo://app?vid=dde8cce2-2ed1-4fdd-81ed-cfda3582f0ae","ios":"levelo://app?vid=dde8cce2-2ed1-4fdd-81ed-cfda3582f0ae"},"vehicle_type_id":"4","last_reported":1732090397,"current_range_meters":36000,"station_id":"ce4bhbp2rcd13ifvqesg","pricing_plan_id":"cebpf4jnsgd1na2vs0mg"},{"bike_id":"9c4a655e-2680-4a60-a844-6a2ea62fb4b1","system_id":"levelo_inurba_marseille","lat":43.26063,"lon":5.39395,"is_reserved":false,"is_disabled":false,"rental_uris":{"android":"levelo://app?vid=9c4a655e-2680-4a60-a844-6a2ea62fb4b1","ios":"levelo://app?vid=9c4a655e-2680-4a60-a844-6a2ea62fb4b1"},"vehicle_type_id":"4","last_reported":1732090397,"current_range_meters":25600,"station_id":"ce4bhh92rcd13ifvqfj0","pricing_plan_id":"cebpf4jnsgd1na2vs0mg"},{"bike_id":"2d983866-913c-4390-ae48-1873d10c9730","system_id":"levelo_inurba_marseille","lat":43.24806,"lon":5.37462,"is_reserved":false,"is_disabled":true,"rental_uris":{"android":"levelo://app?vid=2d983866-913c-4390-ae48-1873d10c9730","ios":"levelo://app?vid=2d983866-913c-4390-ae48-1873d10c9730"},"vehicle_type_id":"4","last_reported":1732090397,"current_range_meters":10000,"station_id":"ce4bhgh2rcd13ifvqfb0","pricing_plan_id":"cebpf4jnsgd1na2vs0mg"},{"bike_id":"f0348512-5a72-4593-8c1f-7cd6e84da72d","system_id":"levelo_inurba_marseille","lat":43.31497,"lon":5.37308,"is_reserved":false,"is_disabled":true,"rental_uris":{"android":"levelo://app?vid=f0348512-5a72-4593-8c1f-7cd6e84da72d","ios":"levelo://app?vid=f0348512-5a72-4593-8c1f-7cd6e84da72d"},"vehicle_type_id":"4","last_reported":1732090397,"current_range_meters":38400,"station_id":"ce4bgt12rcd13ifvqcd0","pricing_plan_id":"cebpf4jnsgd1na2vs0mg"},{"bike_id":"f4314a8a-82cc-4e28-9519-7b232ac298b7","system_id":"levelo_inurba_marseille","lat":43.29913,"lon":5.37466,"is_reserved":false,"is_disabled":false,"rental_uris":{"android":"levelo://app?vid=f4314a8a-82cc-4e28-9519-7b232ac298b7","ios":"levelo://app?vid=f4314a8a-82cc-4e28-9519-7b232ac298b7"},"vehicle_type_id":"4","last_reported":1732090397,"current_range_meters":38800,"station_id":"ce4bgjh2rcd13ifvqbg0","pricing_plan_id":"cebpf4jnsgd1na2vs0mg"},{"bike_id":"be0057d7-36ed-4552-93a5-d26a01d6fce9","system_id":"levelo_inurba_marseille","lat":43.31675,"lon":5.3778,"is_reserved":false,"is_disabled":false,"rental_uris":{"android":"levelo://app?vid=be0057d7-36ed-4552-93a5-d26a01d6fce9","ios":"levelo://app?vid=be0057d7-36ed-4552-93a5-d26a01d6fce9"},"vehicle_type_id":"4","last_reported":1732090397,"current_range_meters":27600,"station_id":"","pricing_plan_id":"cebpf4jnsgd1na2vs0mg"},{"bike_id":"e840fe4f-47a0-4d31-8133-7c332a3d517a","system_id":"levelo_inurba_marseille","lat":43.31078,"lon":5.42432,"is_reserved":false,"is_disabled":true,"rental_uris":{"android":"levelo://app?vid=e840fe4f-47a0-4d31-8133-7c332a3d517a","ios":"levelo://app?vid=e840fe4f-47a0-4d31-8133-7c332a3d517a"},"vehicle_type_id":"4","last_reported":1732090397,"current_range_meters":12000,"station_id":"ce4bhp92rcd13ifvqhag","pricing_plan_id":"cebpf4jnsgd1na2vs0mg"},{"bike_id":"dc9b1c9c-97df-4998-a95a-6ab3dbfb98c8","system_id":"levelo_inurba_marseille","lat":43.31355,"lon":5.36709,"is_reserved":false,"is_disabled":false,"rental_uris":{"android":"levelo://app?vid=dc9b1c9c-97df-4998-a95a-6ab3dbfb98c8","ios":"levelo://app?vid=dc9b1c9c-97df-4998-a95a-6ab3dbfb98c8"},"vehicle_type_id":"4","last_reported":1732090397,"current_range_meters":8800,"station_id":"ce4bgr92rcd13ifvqc6g","pricing_plan_id":"cebpf4jnsgd1na2vs0mg"},{"bike_id":"5eefc808-3ff2-4a6a-b84f-d33aedf471a7","system_id":"levelo_inurba_marseille","lat":43.3079,"lon":5.38182,"is_reserved":false,"is_disabled":false,"rental_uris":{"android":"levelo://app?vid=5eefc808-3ff2-4a6a-b84f-d33aedf471a7","ios":"levelo://app?vid=5eefc808-3ff2-4a6a-b84f-d33aedf471a7"},"vehicle_type_id":"4","last_reported":1732090397,"current_range_meters":32800,"station_id":"ce4bgt12rcd13ifvqce0","pricing_plan_id":"cebpf4jnsgd1na2vs0mg"},{"bike_id":"d1a3cb73-f6e6-4f9a-8f38-9c42be68e4c5","system_id":"levelo_inurba_marseille","lat":43.30944,"lon":5.3904,"is_reserved":false,"is_disabled":true,"rental_uris":{"android":"levelo://app?vid=d1a3cb73-f6e6-4f9a-8f38-9c42be68e4c5","ios":"levelo://app?vid=d1a3cb73-f6e6-4f9a-8f38-9c42be68e4c5"},"vehicle_type_id":"4","last_reported":1732090397,"current_range_meters":0,"station_id":"ce4bgup2rcd13ifvqco0","pricing_plan_id":"cebpf4jnsgd1na2vs0mg"},{"bike_id":"a1cf6f06-44aa-4bc8-9eb2-8055a5e207a9","system_id":"levelo_inurba_marseille","lat":43.32484,"lon":5.36564,"is_reserved":false,"is_disabled":false,"rental_uris":{"android":"levelo://app?vid=a1cf6f06-44aa-4bc8-9eb2-8055a5e207a9","ios":"levelo://app?vid=a1cf6f06-44aa-4bc8-9eb2-8055a5e207a9"},"vehicle_type_id":"4","last_reported":1732090397,"current_range_meters":39200,"station_id":"ce4bhs12rcd13ifvqhvg","pricing_plan_id":"cebpf4jnsgd1na2vs0mg"},{"bike_id":"7bec47bd-edd4-4415-924c-dbdf57e3d376","system_id":"levelo_inurba_marseille","lat":43.31349,"lon":5.36727,"is_reserved":false,"is_disabled":false,"rental_uris":{"android":"levelo://app?vid=7bec47bd-edd4-4415-924c-dbdf57e3d376","ios":"levelo://app?vid=7bec47bd-edd4-4415-924c-dbdf57e3d376"},"vehicle_type_id":"4","last_reported":1732090397,"current_range_meters":38000,"station_id":"ce4bgr92rcd13ifvqc6g","pricing_plan_id":"cebpf4jnsgd1na2vs0mg"},{"bike_id":"bd3d0ea8-7d56-4858-8e5d-b32a9764d3b4","system_id":"levelo_inurba_marseille","lat":43.30148,"lon":5.38077,"is_reserved":false,"is_disabled":true,"rental_uris":{"android":"levelo://app?vid=bd3d0ea8-7d56-4858-8e5d-b32a9764d3b4","ios":"levelo://app?vid=bd3d0ea8-7d56-4858-8e5d-b32a9764d3b4"},"vehicle_type_id":"4","last_reported":1732090397,"current_range_meters":24400,"station_id":"ce4bgjp2rcd13ifvqbh0","pricing_plan_id":"cebpf4jnsgd1na2vs0mg"},{"bike_id":"2a527e39-3526-4d79-adec-fe1e770d1765","system_id":"levelo_inurba_marseille","lat":43.26055,"lon":5.37536,"is_reserved":false,"is_disabled":false,"rental_uris":{"android":"levelo://app?vid=2a527e39-3526-4d79-adec-fe1e770d1765","ios":"levelo://app?vid=2a527e39-3526-4d79-adec-fe1e770d1765"},"vehicle_type_id":"4","last_reported":1732090397,"current_range_meters":38800,"station_id":"ce4bhgh2rcd13ifvqfa0","pricing_plan_id":"cebpf4jnsgd1na2vs0mg"},{"bike_id":"123862ba-68e2-48f6-a477-31ab9dae8bd5","system_id":"levelo_inurba_marseille","lat":43.337444,"lon":5.374475,"is_reserved":false,"is_disabled":true,"rental_uris":{"android":"levelo://app?vid=123862ba-68e2-48f6-a477-31ab9dae8bd5","ios":"levelo://app?vid=123862ba-68e2-48f6-a477-31ab9dae8bd5"},"vehicle_type_id":"4","last_reported":1732090397,"current_range_meters":12000,"station_id":"","pricing_plan_id":"cebpf4jnsgd1na2vs0mg"},{"bike_id":"a57e1d53-2136-4179-a533-047787b1374e","system_id":"levelo_inurba_marseille","lat":43.2799,"lon":5.40007,"is_reserved":false,"is_disabled":true,"rental_uris":{"android":"levelo://app?vid=a57e1d53-2136-4179-a533-047787b1374e","ios":"levelo://app?vid=a57e1d53-2136-4179-a533-047787b1374e"},"vehicle_type_id":"4","last_reported":1732090397,"current_range_meters":36800,"station_id":"ce4bho92rcd13ifvqh4g","pricing_plan_id":"cebpf4jnsgd1na2vs0mg"},{"bike_id":"05725ad4-e1a4-4023-9f02-37bc3fcd6926","system_id":"levelo_inurba_marseille","lat":43.2315,"lon":5.43703,"is_reserved":false,"is_disabled":false,"rental_uris":{"android":"levelo://app?vid=05725ad4-e1a4-4023-9f02-37bc3fcd6926","ios":"levelo://app?vid=05725ad4-e1a4-4023-9f02-37bc3fcd6926"},"vehicle_type_id":"4","last_reported":1732090397,"current_range_meters":38800,"station_id":"ce4bhmp2rcd13ifvqgog","pricing_plan_id":"cebpf4jnsgd1na2vs0mg"},{"bike_id":"6a689696-313c-4569-b4cf-4b6fa7d2017f","system_id":"levelo_inurba_marseille","lat":43.3414,"lon":5.409,"is_reserved":false,"is_disabled":false,"rental_uris":{"android":"levelo://app?vid=6a689696-313c-4569-b4cf-4b6fa7d2017f","ios":"levelo://app?vid=6a689696-313c-4569-b4cf-4b6fa7d2017f"},"vehicle_type_id":"4","last_reported":1732090397,"current_range_meters":29600,"station_id":"ce4bhqh2rcd13ifvqhlg","pricing_plan_id":"cebpf4jnsgd1na2vs0mg"},{"bike_id":"6b3e10ea-dc88-44ac-9f7b-2fbacd5bb221","system_id":"levelo_inurba_marseille","lat":43.266815,"lon":5.382696,"is_reserved":false,"is_disabled":true,"rental_uris":{"android":"levelo://app?vid=6b3e10ea-dc88-44ac-9f7b-2fbacd5bb221","ios":"levelo://app?vid=6b3e10ea-dc88-44ac-9f7b-2fbacd5bb221"},"vehicle_type_id":"4","last_reported":1732090397,"current_range_meters":26000,"station_id":"","pricing_plan_id":"cebpf4jnsgd1na2vs0mg"},{"bike_id":"06f4a868-e634-46f0-bf50-60d0a418024f","system_id":"levelo_inurba_marseille","lat":43.31997,"lon":5.38149,"is_reserved":false,"is_disabled":false,"rental_uris":{"android":"levelo://app?vid=06f4a868-e634-46f0-bf50-60d0a418024f","ios":"levelo://app?vid=06f4a868-e634-46f0-bf50-60d0a418024f"},"vehicle_type_id":"4","last_reported":1732090397,"current_range_meters":38000,"station_id":"ce4bhr12rcd13ifvqhpg","pricing_plan_id":"cebpf4jnsgd1na2vs0mg"},{"bike_id":"f37974f3-d73d-4fbf-9d7f-6ab29c4abc3c","system_id":"levelo_inurba_marseille","lat":43.29673,"lon":5.3656,"is_reserved":false,"is_disabled":false,"rental_uris":{"android":"levelo://app?vid=f37974f3-d73d-4fbf-9d7f-6ab29c4abc3c","ios":"levelo://app?vid=f37974f3-d73d-4fbf-9d7f-6ab29c4abc3c"},"vehicle_type_id":"4","last_reported":1732090397,"current_range_meters":16000,"station_id":"ce4bgn12rcd13ifvqbt0","pricing_plan_id":"cebpf4jnsgd1na2vs0mg"},{"bike_id":"37034b7e-d5ea-4bc9-967b-ab193988c724","system_id":"levelo_inurba_marseille","lat":43.28476,"lon":5.38418,"is_reserved":false,"is_disabled":true,"rental_uris":{"android":"levelo://app?vid=37034b7e-d5ea-4bc9-967b-ab193988c724","ios":"levelo://app?vid=37034b7e-d5ea-4bc9-967b-ab193988c724"},"vehicle_type_id":"4","last_reported":1732090397,"current_range_meters":30800,"station_id":"ce4bh512rcd13ifvqe3g","pricing_plan_id":"cebpf4jnsgd1na2vs0mg"},{"bike_id":"647c7698-344c-4abe-9be6-34d3cc5921db","system_id":"levelo_inurba_marseille","lat":43.28036,"lon":5.3695,"is_reserved":false,"is_disabled":false,"rental_uris":{"android":"levelo://app?vid=647c7698-344c-4abe-9be6-34d3cc5921db","ios":"levelo://app?vid=647c7698-344c-4abe-9be6-34d3cc5921db"},"vehicle_type_id":"4","last_reported":1732090397,"current_range_meters":34000,"station_id":"ce4bha12rcd13ifvqef0","pricing_plan_id":"cebpf4jnsgd1na2vs0mg"},{"bike_id":"88b9d238-9c4f-4602-8f32-4f543d43ab52","system_id":"levelo_inurba_marseille","lat":43.24076,"lon":5.37757,"is_reserved":false,"is_disabled":false,"rental_uris":{"android":"levelo://app?vid=88b9d238-9c4f-4602-8f32-4f543d43ab52","ios":"levelo://app?vid=88b9d238-9c4f-4602-8f32-4f543d43ab52"},"vehicle_type_id":"4","last_reported":1732090397,"current_range_meters":9600,"station_id":"ce4bhnp2rcd13ifvqgvg","pricing_plan_id":"cebpf4jnsgd1na2vs0mg"},{"bike_id":"392cf7cd-9024-40f6-b624-36b5ec0412f9","system_id":"levelo_inurba_marseille","lat":43.31362,"lon":5.36712,"is_reserved":false,"is_disabled":false,"rental_uris":{"android":"levelo://app?vid=392cf7cd-9024-40f6-b624-36b5ec0412f9","ios":"levelo://app?vid=392cf7cd-9024-40f6-b624-36b5ec0412f9"},"vehicle_type_id":"4","last_reported":1732090397,"current_range_meters":14400,"station_id":"ce4bgr92rcd13ifvqc6g","pricing_plan_id":"cebpf4jnsgd1na2vs0mg"},{"bike_id":"0009ec07-8c49-43d0-9918-78167d6a99be","system_id":"levelo_inurba_marseille","lat":43.2467,"lon":5.38157,"is_reserved":false,"is_disabled":false,"rental_uris":{"android":"levelo://app?vid=0009ec07-8c49-43d0-9918-78167d6a99be","ios":"levelo://app?vid=0009ec07-8c49-43d0-9918-78167d6a99be"},"vehicle_type_id":"4","last_reported":1732090397,"current_range_meters":37600,"station_id":"ce4bhih2rcd13ifvqfr0","pricing_plan_id":"cebpf4jnsgd1na2vs0mg"},{"bike_id":"efaa20f7-d2fb-4778-9ca3-b17e9193d440","system_id":"levelo_inurba_marseille","lat":43.337177,"lon":5.391735,"is_reserved":false,"is_disabled":false,"rental_uris":{"android":"levelo://app?vid=efaa20f7-d2fb-4778-9ca3-b17e9193d440","ios":"levelo://app?vid=efaa20f7-d2fb-4778-9ca3-b17e9193d440"},"vehicle_type_id":"4","last_reported":1732090397,"current_range_meters":36000,"station_id":"ce4bhr92rcd13ifvqhsg","pricing_plan_id":"cebpf4jnsgd1na2vs0mg"},{"bike_id":"42eca287-3460-4af0-902f-a7c650ccf094","system_id":"levelo_inurba_marseille","lat":43.31688,"lon":5.40465,"is_reserved":false,"is_disabled":false,"rental_uris":{"android":"levelo://app?vid=42eca287-3460-4af0-902f-a7c650ccf094","ios":"levelo://app?vid=42eca287-3460-4af0-902f-a7c650ccf094"},"vehicle_type_id":"4","last_reported":1732090397,"current_range_meters":38000,"station_id":"ce4bh012rcd13ifvqd00","pricing_plan_id":"cebpf4jnsgd1na2vs0mg"},{"bike_id":"cbb19e09-aa20-4763-8e71-dc123172ec07","system_id":"levelo_inurba_marseille","lat":43.23152,"lon":5.4371,"is_reserved":false,"is_disabled":true,"rental_uris":{"android":"levelo://app?vid=cbb19e09-aa20-4763-8e71-dc123172ec07","ios":"levelo://app?vid=cbb19e09-aa20-4763-8e71-dc123172ec07"},"vehicle_type_id":"4","last_reported":1732090397,"current_range_meters":39200,"station_id":"ce4bhmp2rcd13ifvqgog","pricing_plan_id":"cebpf4jnsgd1na2vs0mg"},{"bike_id":"66864d75-2346-429f-8d44-6391ce3744a8","system_id":"levelo_inurba_marseille","lat":43.34145,"lon":5.40897,"is_reserved":false,"is_disabled":false,"rental_uris":{"android":"levelo://app?vid=66864d75-2346-429f-8d44-6391ce3744a8","ios":"levelo://app?vid=66864d75-2346-429f-8d44-6391ce3744a8"},"vehicle_type_id":"4","last_reported":1732090397,"current_range_meters":39200,"station_id":"ce4bhqh2rcd13ifvqhlg","pricing_plan_id":"cebpf4jnsgd1na2vs0mg"},{"bike_id":"028e5427-36e2-49e1-b3db-260058fffb58","system_id":"levelo_inurba_marseille","lat":43.25575,"lon":5.38236,"is_reserved":false,"is_disabled":false,"rental_uris":{"android":"levelo://app?vid=028e5427-36e2-49e1-b3db-260058fffb58","ios":"levelo://app?vid=028e5427-36e2-49e1-b3db-260058fffb58"},"vehicle_type_id":"4","last_reported":1732090397,"current_range_meters":28800,"station_id":"ce4bhih2rcd13ifvqfs0","pricing_plan_id":"cebpf4jnsgd1na2vs0mg"},{"bike_id":"87ab87c3-b0c0-433f-bc72-370f3dff3d3b","system_id":"levelo_inurba_marseille","lat":43.29712,"lon":5.37681,"is_reserved":false,"is_disabled":false,"rental_uris":{"android":"levelo://app?vid=87ab87c3-b0c0-433f-bc72-370f3dff3d3b","ios":"levelo://app?vid=87ab87c3-b0c0-433f-bc72-370f3dff3d3b"},"vehicle_type_id":"4","last_reported":1732090397,"current_range_meters":34000,"station_id":"ce4bgkh2rcd13ifvqbl0","pricing_plan_id":"cebpf4jnsgd1na2vs0mg"},{"bike_id":"c9ff81c5-baef-454a-8e76-82609d16ae76","system_id":"levelo_inurba_marseille","lat":43.30593,"lon":5.39357,"is_reserved":false,"is_disabled":false,"rental_uris":{"android":"levelo://app?vid=c9ff81c5-baef-454a-8e76-82609d16ae76","ios":"levelo://app?vid=c9ff81c5-baef-454a-8e76-82609d16ae76"},"vehicle_type_id":"4","last_reported":1732090397,"current_range_meters":38400,"station_id":"ce4bh0p2rcd13ifvqd80","pricing_plan_id":"cebpf4jnsgd1na2vs0mg"},{"bike_id":"9e5155cc-9158-47b5-bb3f-3254ca5454c2","system_id":"levelo_inurba_marseille","lat":43.31347,"lon":5.36724,"is_reserved":false,"is_disabled":false,"rental_uris":{"android":"levelo://app?vid=9e5155cc-9158-47b5-bb3f-3254ca5454c2","ios":"levelo://app?vid=9e5155cc-9158-47b5-bb3f-3254ca5454c2"},"vehicle_type_id":"4","last_reported":1732090397,"current_range_meters":38800,"station_id":"ce4bgr92rcd13ifvqc6g","pricing_plan_id":"cebpf4jnsgd1na2vs0mg"},{"bike_id":"401c2a19-8b43-4a12-92ed-f8e71f230e4b","system_id":"levelo_inurba_marseille","lat":43.30157,"lon":5.38083,"is_reserved":false,"is_disabled":false,"rental_uris":{"android":"levelo://app?vid=401c2a19-8b43-4a12-92ed-f8e71f230e4b","ios":"levelo://app?vid=401c2a19-8b43-4a12-92ed-f8e71f230e4b"},"vehicle_type_id":"4","last_reported":1732090397,"current_range_meters":32000,"station_id":"ce4bgjp2rcd13ifvqbh0","pricing_plan_id":"cebpf4jnsgd1na2vs0mg"},{"bike_id":"d844fd78-dab2-432a-a1c7-259ceea58301","system_id":"levelo_inurba_marseille","lat":43.29195,"lon":5.35804,"is_reserved":false,"is_disabled":true,"rental_uris":{"android":"levelo://app?vid=d844fd78-dab2-432a-a1c7-259ceea58301","ios":"levelo://app?vid=d844fd78-dab2-432a-a1c7-259ceea58301"},"vehicle_type_id":"4","last_reported":1732090397,"current_range_meters":38000,"station_id":"ce4bhb12rcd13ifvqel0","pricing_plan_id":"cebpf4jnsgd1na2vs0mg"},{"bike_id":"58b348a0-214e-4585-b413-619a307634a9","system_id":"levelo_inurba_marseille","lat":43.28926,"lon":5.38393,"is_reserved":false,"is_disabled":true,"rental_uris":{"android":"levelo://app?vid=58b348a0-214e-4585-b413-619a307634a9","ios":"levelo://app?vid=58b348a0-214e-4585-b413-619a307634a9"},"vehicle_type_id":"4","last_reported":1732090397,"current_range_meters":33200,"station_id":"ce4bh612rcd13ifvqe6g","pricing_plan_id":"cebpf4jnsgd1na2vs0mg"},{"bike_id":"eb31963b-4b61-411c-a88a-07e8f7439c2a","system_id":"levelo_inurba_marseille","lat":43.3361,"lon":5.4103,"is_reserved":false,"is_disabled":false,"rental_uris":{"android":"levelo://app?vid=eb31963b-4b61-411c-a88a-07e8f7439c2a","ios":"levelo://app?vid=eb31963b-4b61-411c-a88a-07e8f7439c2a"},"vehicle_type_id":"4","last_reported":1732090397,"current_range_meters":12800,"station_id":"ce4bhqh2rcd13ifvqhmg","pricing_plan_id":"cebpf4jnsgd1na2vs0mg"},{"bike_id":"b6a5dd45-3299-4794-bb3d-6c5c2b5a78a1","system_id":"levelo_inurba_marseille","lat":43.33023,"lon":5.39041,"is_reserved":false,"is_disabled":false,"rental_uris":{"android":"levelo://app?vid=b6a5dd45-3299-4794-bb3d-6c5c2b5a78a1","ios":"levelo://app?vid=b6a5dd45-3299-4794-bb3d-6c5c2b5a78a1"},"vehicle_type_id":"4","last_reported":1732090397,"current_range_meters":38800,"station_id":"ce4bhr92rcd13ifvqhrg","pricing_plan_id":"cebpf4jnsgd1na2vs0mg"},{"bike_id":"ea3698ba-4aa8-4712-b521-18ff56838777","system_id":"levelo_inurba_marseille","lat":43.25495,"lon":5.37644,"is_reserved":false,"is_disabled":false,"rental_uris":{"android":"levelo://app?vid=ea3698ba-4aa8-4712-b521-18ff56838777","ios":"levelo://app?vid=ea3698ba-4aa8-4712-b521-18ff56838777"},"vehicle_type_id":"4","last_reported":1732090397,"current_range_meters":38000,"station_id":"ce4bhh12rcd13ifvqff0","pricing_plan_id":"cebpf4jnsgd1na2vs0mg"},{"bike_id":"1ef57c9f-357d-4ac1-9eff-e7a289413fc4","system_id":"levelo_inurba_marseille","lat":43.25114,"lon":5.40314,"is_reserved":false,"is_disabled":false,"rental_uris":{"android":"levelo://app?vid=1ef57c9f-357d-4ac1-9eff-e7a289413fc4","ios":"levelo://app?vid=1ef57c9f-357d-4ac1-9eff-e7a289413fc4"},"vehicle_type_id":"4","last_reported":1732090397,"current_range_meters":38800,"station_id":"ce4bhlh2rcd13ifvqgig","pricing_plan_id":"cebpf4jnsgd1na2vs0mg"},{"bike_id":"97a35da9-3917-40ad-b9e7-9f7cbd6aff5c","system_id":"levelo_inurba_marseille","lat":43.30134,"lon":5.39875,"is_reserved":false,"is_disabled":true,"rental_uris":{"android":"levelo://app?vid=97a35da9-3917-40ad-b9e7-9f7cbd6aff5c","ios":"levelo://app?vid=97a35da9-3917-40ad-b9e7-9f7cbd6aff5c"},"vehicle_type_id":"4","last_reported":1732090397,"current_range_meters":28800,"station_id":"","pricing_plan_id":"cebpf4jnsgd1na2vs0mg"},{"bike_id":"c0cdb1f4-74ef-4bce-823b-0c40657ceac5","system_id":"levelo_inurba_marseille","lat":43.30952,"lon":5.39038,"is_reserved":false,"is_disabled":false,"rental_uris":{"android":"levelo://app?vid=c0cdb1f4-74ef-4bce-823b-0c40657ceac5","ios":"levelo://app?vid=c0cdb1f4-74ef-4bce-823b-0c40657ceac5"},"vehicle_type_id":"4","last_reported":1732090397,"current_range_meters":31200,"station_id":"ce4bgup2rcd13ifvqco0","pricing_plan_id":"cebpf4jnsgd1na2vs0mg"},{"bike_id":"104cfcf1-8a2a-4f4b-9142-ed1b8d36ab45","system_id":"levelo_inurba_marseille","lat":43.30541,"lon":5.36548,"is_reserved":false,"is_disabled":false,"rental_uris":{"android":"levelo://app?vid=104cfcf1-8a2a-4f4b-9142-ed1b8d36ab45","ios":"levelo://app?vid=104cfcf1-8a2a-4f4b-9142-ed1b8d36ab45"},"vehicle_type_id":"4","last_reported":1732090397,"current_range_meters":16800,"station_id":"ce4bgs12rcd13ifvqcag","pricing_plan_id":"cebpf4jnsgd1na2vs0mg"},{"bike_id":"e5951ee3-4a5a-4ebb-b469-096c5188dfa3","system_id":"levelo_inurba_marseille","lat":43.23191,"lon":5.35549,"is_reserved":false,"is_disabled":true,"rental_uris":{"android":"levelo://app?vid=e5951ee3-4a5a-4ebb-b469-096c5188dfa3","ios":"levelo://app?vid=e5951ee3-4a5a-4ebb-b469-096c5188dfa3"},"vehicle_type_id":"4","last_reported":1732090397,"current_range_meters":0,"station_id":"ce4bhu92rcd13ifvqi70","pricing_plan_id":"cebpf4jnsgd1na2vs0mg"},{"bike_id":"559dd6de-139a-4ae2-95d0-bea92e99edf5","system_id":"levelo_inurba_marseille","lat":43.30546,"lon":5.38424,"is_reserved":false,"is_disabled":false,"rental_uris":{"android":"levelo://app?vid=559dd6de-139a-4ae2-95d0-bea92e99edf5","ios":"levelo://app?vid=559dd6de-139a-4ae2-95d0-bea92e99edf5"},"vehicle_type_id":"4","last_reported":1732090397,"current_range_meters":21600,"station_id":"ce4bgg92rcd13ifvqb30","pricing_plan_id":"cebpf4jnsgd1na2vs0mg"},{"bike_id":"064e2c77-8646-40bf-8659-76cd91a65f3a","system_id":"levelo_inurba_marseille","lat":43.29274,"lon":5.36845,"is_reserved":false,"is_disabled":false,"rental_uris":{"android":"levelo://app?vid=064e2c77-8646-40bf-8659-76cd91a65f3a","ios":"levelo://app?vid=064e2c77-8646-40bf-8659-76cd91a65f3a"},"vehicle_type_id":"4","last_reported":1732090397,"current_range_meters":38800,"station_id":"ce4bhbp2rcd13ifvqesg","pricing_plan_id":"cebpf4jnsgd1na2vs0mg"},{"bike_id":"b2f6b9cf-69db-40ab-8230-689c41a2c16c","system_id":"levelo_inurba_marseille","lat":43.24164,"lon":5.36398,"is_reserved":false,"is_disabled":false,"rental_uris":{"android":"levelo://app?vid=b2f6b9cf-69db-40ab-8230-689c41a2c16c","ios":"levelo://app?vid=b2f6b9cf-69db-40ab-8230-689c41a2c16c"},"vehicle_type_id":"4","last_reported":1732090397,"current_range_meters":38400,"station_id":"cpo36qri1sfpv3e86is0","pricing_plan_id":"cebpf4jnsgd1na2vs0mg"},{"bike_id":"b8ccf5c1-5ac6-47e7-b7ff-56c39cc2dd57","system_id":"levelo_inurba_marseille","lat":43.336,"lon":5.41027,"is_reserved":false,"is_disabled":false,"rental_uris":{"android":"levelo://app?vid=b8ccf5c1-5ac6-47e7-b7ff-56c39cc2dd57","ios":"levelo://app?vid=b8ccf5c1-5ac6-47e7-b7ff-56c39cc2dd57"},"vehicle_type_id":"4","last_reported":1732090397,"current_range_meters":14400,"station_id":"ce4bhqh2rcd13ifvqhmg","pricing_plan_id":"cebpf4jnsgd1na2vs0mg"},{"bike_id":"f777def7-ddd3-4c94-87cc-91a908e8be9a","system_id":"levelo_inurba_marseille","lat":43.25113,"lon":5.40323,"is_reserved":false,"is_disabled":true,"rental_uris":{"android":"levelo://app?vid=f777def7-ddd3-4c94-87cc-91a908e8be9a","ios":"levelo://app?vid=f777def7-ddd3-4c94-87cc-91a908e8be9a"},"vehicle_type_id":"4","last_reported":1732090397,"current_range_meters":33200,"station_id":"ce4bhlh2rcd13ifvqgig","pricing_plan_id":"cebpf4jnsgd1na2vs0mg"},{"bike_id":"2910f69a-6dac-4d69-a60d-e4f1b8cce200","system_id":"levelo_inurba_marseille","lat":43.27811,"lon":5.4071,"is_reserved":false,"is_disabled":true,"rental_uris":{"android":"levelo://app?vid=2910f69a-6dac-4d69-a60d-e4f1b8cce200","ios":"levelo://app?vid=2910f69a-6dac-4d69-a60d-e4f1b8cce200"},"vehicle_type_id":"4","last_reported":1732090397,"current_range_meters":14400,"station_id":"ce4bhnh2rcd13ifvqgtg","pricing_plan_id":"cebpf4jnsgd1na2vs0mg"},{"bike_id":"9fdbb52a-b13d-4e99-b7b7-5d7f8b46a590","system_id":"levelo_inurba_marseille","lat":43.26686,"lon":5.38278,"is_reserved":false,"is_disabled":false,"rental_uris":{"android":"levelo://app?vid=9fdbb52a-b13d-4e99-b7b7-5d7f8b46a590","ios":"levelo://app?vid=9fdbb52a-b13d-4e99-b7b7-5d7f8b46a590"},"vehicle_type_id":"4","last_reported":1732090397,"current_range_meters":33600,"station_id":"ce4bhg92rcd13ifvqf90","pricing_plan_id":"cebpf4jnsgd1na2vs0mg"},{"bike_id":"e23db1ea-4484-42c7-a39b-c5d9d4a03283","system_id":"levelo_inurba_marseille","lat":43.29702,"lon":5.36608,"is_reserved":false,"is_disabled":false,"rental_uris":{"android":"levelo://app?vid=e23db1ea-4484-42c7-a39b-c5d9d4a03283","ios":"levelo://app?vid=e23db1ea-4484-42c7-a39b-c5d9d4a03283"},"vehicle_type_id":"4","last_reported":1732090397,"current_range_meters":38800,"station_id":"ce4bgn12rcd13ifvqbt0","pricing_plan_id":"cebpf4jnsgd1na2vs0mg"},{"bike_id":"27e4d867-66b8-4960-b3b5-4e376bf9a450","system_id":"levelo_inurba_marseille","lat":43.30945,"lon":5.3904,"is_reserved":false,"is_disabled":false,"rental_uris":{"android":"levelo://app?vid=27e4d867-66b8-4960-b3b5-4e376bf9a450","ios":"levelo://app?vid=27e4d867-66b8-4960-b3b5-4e376bf9a450"},"vehicle_type_id":"4","last_reported":1732090397,"current_range_meters":30000,"station_id":"ce4bgup2rcd13ifvqco0","pricing_plan_id":"cebpf4jnsgd1na2vs0mg"},{"bike_id":"3fb9dbc2-593a-43e2-9b7f-aa88375881b9","system_id":"levelo_inurba_marseille","lat":43.30473,"lon":5.37902,"is_reserved":false,"is_disabled":false,"rental_uris":{"android":"levelo://app?vid=3fb9dbc2-593a-43e2-9b7f-aa88375881b9","ios":"levelo://app?vid=3fb9dbc2-593a-43e2-9b7f-aa88375881b9"},"vehicle_type_id":"4","last_reported":1732090397,"current_range_meters":26800,"station_id":"ce4bgup2rcd13ifvqcn0","pricing_plan_id":"cebpf4jnsgd1na2vs0mg"},{"bike_id":"da118503-6ab7-4c94-98bc-2b63accd50d2","system_id":"levelo_inurba_marseille","lat":43.31083,"lon":5.42433,"is_reserved":false,"is_disabled":false,"rental_uris":{"android":"levelo://app?vid=da118503-6ab7-4c94-98bc-2b63accd50d2","ios":"levelo://app?vid=da118503-6ab7-4c94-98bc-2b63accd50d2"},"vehicle_type_id":"4","last_reported":1732090397,"current_range_meters":38800,"station_id":"ce4bhp92rcd13ifvqhag","pricing_plan_id":"cebpf4jnsgd1na2vs0mg"},{"bike_id":"072b8360-2b5d-4912-b1ce-facf5a8eb95c","system_id":"levelo_inurba_marseille","lat":43.2408,"lon":5.37749,"is_reserved":false,"is_disabled":false,"rental_uris":{"android":"levelo://app?vid=072b8360-2b5d-4912-b1ce-facf5a8eb95c","ios":"levelo://app?vid=072b8360-2b5d-4912-b1ce-facf5a8eb95c"},"vehicle_type_id":"4","last_reported":1732090397,"current_range_meters":31200,"station_id":"ce4bhnp2rcd13ifvqgvg","pricing_plan_id":"cebpf4jnsgd1na2vs0mg"},{"bike_id":"f55181d4-2053-40e2-9cda-06227a4b9bdf","system_id":"levelo_inurba_marseille","lat":43.32484,"lon":5.36551,"is_reserved":false,"is_disabled":false,"rental_uris":{"android":"levelo://app?vid=f55181d4-2053-40e2-9cda-06227a4b9bdf","ios":"levelo://app?vid=f55181d4-2053-40e2-9cda-06227a4b9bdf"},"vehicle_type_id":"4","last_reported":1732090397,"current_range_meters":38800,"station_id":"ce4bhs12rcd13ifvqhvg","pricing_plan_id":"cebpf4jnsgd1na2vs0mg"},{"bike_id":"12b42d95-e8f6-4485-9615-5f916bb8ab6b","system_id":"levelo_inurba_marseille","lat":43.34143,"lon":5.40902,"is_reserved":false,"is_disabled":false,"rental_uris":{"android":"levelo://app?vid=12b42d95-e8f6-4485-9615-5f916bb8ab6b","ios":"levelo://app?vid=12b42d95-e8f6-4485-9615-5f916bb8ab6b"},"vehicle_type_id":"4","last_reported":1732090397,"current_range_meters":38800,"station_id":"ce4bhqh2rcd13ifvqhlg","pricing_plan_id":"cebpf4jnsgd1na2vs0mg"},{"bike_id":"7ccf2f24-0143-407d-973b-322d37cb2794","system_id":"levelo_inurba_marseille","lat":43.32106,"lon":5.36771,"is_reserved":false,"is_disabled":false,"rental_uris":{"android":"levelo://app?vid=7ccf2f24-0143-407d-973b-322d37cb2794","ios":"levelo://app?vid=7ccf2f24-0143-407d-973b-322d37cb2794"},"vehicle_type_id":"4","last_reported":1732090397,"current_range_meters":27200,"station_id":"ce4bhrh2rcd13ifvqhug","pricing_plan_id":"cebpf4jnsgd1na2vs0mg"},{"bike_id":"e964d0cb-a3e4-4759-bb1f-dbaf63c61dd1","system_id":"levelo_inurba_marseille","lat":43.28858,"lon":5.35847,"is_reserved":false,"is_disabled":true,"rental_uris":{"android":"levelo://app?vid=e964d0cb-a3e4-4759-bb1f-dbaf63c61dd1","ios":"levelo://app?vid=e964d0cb-a3e4-4759-bb1f-dbaf63c61dd1"},"vehicle_type_id":"4","last_reported":1732090397,"current_range_meters":18000,"station_id":"ce4bhb12rcd13ifvqem0","pricing_plan_id":"cebpf4jnsgd1na2vs0mg"},{"bike_id":"7e35deb2-0950-494e-a5fc-48886e723f0a","system_id":"levelo_inurba_marseille","lat":43.290368,"lon":5.37561,"is_reserved":false,"is_disabled":true,"rental_uris":{"android":"levelo://app?vid=7e35deb2-0950-494e-a5fc-48886e723f0a","ios":"levelo://app?vid=7e35deb2-0950-494e-a5fc-48886e723f0a"},"vehicle_type_id":"4","last_reported":1732090397,"current_range_meters":6000,"station_id":"ce4bh692rcd13ifvqe90","pricing_plan_id":"cebpf4jnsgd1na2vs0mg"},{"bike_id":"18375270-5c96-4148-9480-b075066f6b66","system_id":"levelo_inurba_marseille","lat":43.30534,"lon":5.36552,"is_reserved":false,"is_disabled":false,"rental_uris":{"android":"levelo://app?vid=18375270-5c96-4148-9480-b075066f6b66","ios":"levelo://app?vid=18375270-5c96-4148-9480-b075066f6b66"},"vehicle_type_id":"4","last_reported":1732090397,"current_range_meters":22800,"station_id":"ce4bgs12rcd13ifvqcag","pricing_plan_id":"cebpf4jnsgd1na2vs0mg"},{"bike_id":"95087545-ad0c-4e34-a373-cac3bfebdd25","system_id":"levelo_inurba_marseille","lat":43.24078,"lon":5.37756,"is_reserved":false,"is_disabled":false,"rental_uris":{"android":"levelo://app?vid=95087545-ad0c-4e34-a373-cac3bfebdd25","ios":"levelo://app?vid=95087545-ad0c-4e34-a373-cac3bfebdd25"},"vehicle_type_id":"4","last_reported":1732090397,"current_range_meters":15200,"station_id":"ce4bhnp2rcd13ifvqgvg","pricing_plan_id":"cebpf4jnsgd1na2vs0mg"},{"bike_id":"503e0edc-cea9-4f2f-a1d8-f46fa575f488","system_id":"levelo_inurba_marseille","lat":43.3254,"lon":5.41449,"is_reserved":false,"is_disabled":false,"rental_uris":{"android":"levelo://app?vid=503e0edc-cea9-4f2f-a1d8-f46fa575f488","ios":"levelo://app?vid=503e0edc-cea9-4f2f-a1d8-f46fa575f488"},"vehicle_type_id":"4","last_reported":1732090397,"current_range_meters":38800,"station_id":"ce4bhq12rcd13ifvqhhg","pricing_plan_id":"cebpf4jnsgd1na2vs0mg"},{"bike_id":"d1885728-06b7-41eb-a757-d100baed048a","system_id":"levelo_inurba_marseille","lat":43.24081,"lon":5.37748,"is_reserved":false,"is_disabled":false,"rental_uris":{"android":"levelo://app?vid=d1885728-06b7-41eb-a757-d100baed048a","ios":"levelo://app?vid=d1885728-06b7-41eb-a757-d100baed048a"},