{"last_updated":1706738810,"ttl":30,"version":"2.2","data":{"bikes":[{"bike_id":"aa2081ff-9cef-4ef7-b1e2-feb5d80225c4","system_id":"levelo_inurba_marseille","lat":43.313391,"lon":5.36706,"is_reserved":false,"is_disabled":false,"rental_uris":{"android":"levelo://app?vid=aa2081ff-9cef-4ef7-b1e2-feb5d80225c4","ios":"levelo://app?vid=aa2081ff-9cef-4ef7-b1e2-feb5d80225c4"},"vehicle_type_id":"4","last_reported":1706738810,"current_range_meters":16000,"station_id":"ce4bgr92rcd13ifvqc6g","pricing_plan_id":"free"},{"bike_id":"03c0f94f-c96f-43ac-a2a8-c51c39a855a1","system_id":"levelo_inurba_marseille","lat":43.312239,"lon":5.368562,"is_reserved":false,"is_disabled":false,"rental_uris":{"android":"levelo://app?vid=03c0f94f-c96f-43ac-a2a8-c51c39a855a1","ios":"levelo://app?vid=03c0f94f-c96f-43ac-a2a8-c51c39a855a1"},"vehicle_type_id":"4","last_reported":1706738810,"current_range_meters":19200,"station_id":"ce4bgl92rcd13ifvqbq0","pricing_plan_id":"free"},{"bike_id":"d77babd9-1767-4b84-b69b-eac4fa840a6b","system_id":"levelo_inurba_marseille","lat":43.312239,"lon":5.368562,"is_reserved":false,"is_disabled":false,"rental_uris":{"android":"levelo://app?vid=d77babd9-1767-4b84-b69b-eac4fa840a6b","ios":"levelo://app?vid=d77babd9-1767-4b84-b69b-eac4fa840a6b"},"vehicle_type_id":"4","last_reported":1706738810,"current_range_meters":11600,"station_id":"ce4bgl92rcd13ifvqbq0","pricing_plan_id":"free"},{"bike_id":"450fa1a0-90ea-4ea4-a12d-07545216ba0d","system_id":"levelo_inurba_marseille","lat":43.312332,"lon":5.368548,"is_reserved":false,"is_disabled":false,"rental_uris":{"android":"levelo://app?vid=450fa1a0-90ea-4ea4-a12d-07545216ba0d","ios":"levelo://app?vid=450fa1a0-90ea-4ea4-a12d-07545216ba0d"},"vehicle_type_id":"4","last_reported":1706738810,"current_range_meters":0,"station_id":"ce4bgl92rcd13ifvqbq0","pricing_plan_id":"free"},{"bike_id":"101e8f6c-e519-40b5-834a-46fcd41868cf","system_id":"levelo_inurba_marseille","lat":43.309076,"lon":5.368465,"is_reserved":false,"is_disabled":false,"rental_uris":{"android":"levelo://app?vid=101e8f6c-e519-40b5-834a-46fcd41868cf","ios":"levelo://app?vid=101e8f6c-e519-40b5-834a-46fcd41868cf"},"vehicle_type_id":"4","last_reported":1706738810,"current_range_meters":13200,"station_id":"ce4bgn92rcd13ifvqbvg","pricing_plan_id":"free"},{"bike_id":"02176434-0a82-4609-9795-f6a9a1d1b461","system_id":"levelo_inurba_marseille","lat":43.309076,"lon":5.368465,"is_reserved":false,"is_disabled":false,"rental_uris":{"android":"levelo://app?vid=02176434-0a82-4609-9795-f6a9a1d1b461","ios":"levelo://app?vid=02176434-0a82-4609-9795-f6a9a1d1b461"},"vehicle_type_id":"4","last_reported":1706738810,"current_range_meters":3600,"station_id":"ce4bgn92rcd13ifvqbvg","pricing_plan_id":"free"},{"bike_id":"892f2bc7-025f-4472-8c5b-087ed6908c8b","system_id":"levelo_inurba_marseille","lat":43.305567,"lon":5.366969,"is_reserved":false,"is_disabled":false,"rental_uris":{"android":"levelo://app?vid=892f2bc7-025f-4472-8c5b-087ed6908c8b","ios":"levelo://app?vid=892f2bc7-025f-4472-8c5b-087ed6908c8b"},"vehicle_type_id":"4","last_reported":1706738810,"current_range_meters":24000,"station_id":"ce4bgrp2rcd13ifvqc9g","pricing_plan_id":"free"},{"bike_id":"b56e5eaf-d533-471a-ba34-de04f0e79dc0","system_id":"levelo_inurba_marseille","lat":43.305989,"lon":5.37225,"is_reserved":false,"is_disabled":false,"rental_uris":{"android":"levelo://app?vid=b56e5eaf-d533-471a-ba34-de04f0e79dc0","ios":"levelo://app?vid=b56e5eaf-d533-471a-ba34-de04f0e79dc0"},"vehicle_type_id":"4","last_reported":1706738810,"current_range_meters":0,"station_id":"ce4bgqh2rcd13ifvqc4g","pricing_plan_id":"free"},{"bike_id":"29cfea34-e214-42f6-b305-d97c71040ac0","system_id":"levelo_inurba_marseille","lat":43.305989,"lon":5.37225,"is_reserved":false,"is_disabled":false,"rental_uris":{"android":"levelo://app?vid=29cfea34-e214-42f6-b305-d97c71040ac0","ios":"levelo://app?vid=29cfea34-e214-42f6-b305-d97c71040ac0"},"vehicle_type_id":"4","last_reported":1706738810,"current_range_meters":20000,"station_id":"ce4bgqh2rcd13ifvqc4g","pricing_plan_id":"free"},{"bike_id":"c90706d2-6201-4bb6-af95-5af3c851a1dc","system_id":"levelo_inurba_marseille","lat":43.30594,"lon":5.3723,"is_reserved":false,"is_disabled":false,"rental_uris":{"android":"levelo://app?vid=c90706d2-6201-4bb6-af95-5af3c851a1dc","ios":"levelo://app?vid=c90706d2-6201-4bb6-af95-5af3c851a1dc"},"vehicle_type_id":"4","last_reported":1706738810,"current_range_meters":0,"station_id":"ce4bgqh2rcd13ifvqc4g","pricing_plan_id":"free"},{"bike_id":"9d7f0c1d-8b1b-4006-8d3d-59556a7a7c28","system_id":"levelo_inurba_marseille","lat":43.305989,"lon":5.37225,"is_reserved":false,"is_disabled":false,"rental_uris":{"android":"levelo://app?vid=9d7f0c1d-8b1b-4006-8d3d-59556a7a7c28","ios":"levelo://app?vid=9d7f0c1d-8b1b-4006-8d3d-59556a7a7c28"},"vehicle_type_id":"4","last_reported":1706738810,"current_range_meters":24400,"station_id":"ce4bgqh2rcd13ifvqc4g","pricing_plan_id":"free"},{"bike_id":"9da54a9f-98e9-430b-87a7-f3e994306244","system_id":"levelo_inurba_marseille","lat":43.30592,"lon":5.37237,"is_reserved":false,"is_disabled":false,"rental_uris":{"android":"levelo://app?vid=9da54a9f-98e9-430b-87a7-f3e994306244","ios":"levelo://app?vid=9da54a9f-98e9-430b-87a7-f3e994306244"},"vehicle_type_id":"4","last_reported":1706738810,"current_range_meters":25600,"station_id":"ce4bgqh2rcd13ifvqc4g","pricing_plan_id":"free"},{"bike_id":"852d4421-c9a5-4af3-af11-a280ba8c26a7","system_id":"levelo_inurba_marseille","lat":43.311131,"lon":5.377651,"is_reserved":false,"is_disabled":false,"rental_uris":{"android":"levelo://app?vid=852d4421-c9a5-4af3-af11-a280ba8c26a7","ios":"levelo://app?vid=852d4421-c9a5-4af3-af11-a280ba8c26a7"},"vehicle_type_id":"4","last_reported":1706738810,"current_range_meters":18000,"station_id":"ce4bgt92rcd13ifvqcg0","pricing_plan_id":"free"},{"bike_id":"1be6c73d-db61-4437-bf33-bc72323c948a","system_id":"levelo_inurba_marseille","lat":43.311131,"lon":5.377651,"is_reserved":false,"is_disabled":false,"rental_uris":{"android":"levelo://app?vid=1be6c73d-db61-4437-bf33-bc72323c948a","ios":"levelo://app?vid=1be6c73d-db61-4437-bf33-bc72323c948a"},"vehicle_type_id":"4","last_reported":1706738810,"current_range_meters":13200,"station_id":"ce4bgt92rcd13ifvqcg0","pricing_plan_id":"free"},{"bike_id":"b6ef815c-9313-4c32-a8a4-d4cf054d8aa0","system_id":"levelo_inurba_marseille","lat":43.311131,"lon":5.377651,"is_reserved":false,"is_disabled":false,"rental_uris":{"android":"levelo://app?vid=b6ef815c-9313-4c32-a8a4-d4cf054d8aa0","ios":"levelo://app?vid=b6ef815c-9313-4c32-a8a4-d4cf054d8aa0"},"vehicle_type_id":"4","last_reported":1706738810,"current_range_meters":400,"station_id":"ce4bgt92rcd13ifvqcg0","pricing_plan_id":"free"},{"bike_id":"adbcea5a-1f31-42c3-ab33-329278704fc2","system_id":"levelo_inurba_marseille","lat":43.311131,"lon":5.377651,"is_reserved":false,"is_disabled":false,"rental_uris":{"android":"levelo://app?vid=adbcea5a-1f31-42c3-ab33-329278704fc2","ios":"levelo://app?vid=adbcea5a-1f31-42c3-ab33-329278704fc2"},"vehicle_type_id":"4","last_reported":1706738810,"current_range_meters":25600,"station_id":"ce4bgt92rcd13ifvqcg0","pricing_plan_id":"free"},{"bike_id":"b89163d2-f2b5-4b6d-aabd-1475735c5e98","system_id":"levelo_inurba_marseille","lat":43.311131,"lon":5.377651,"is_reserved":false,"is_disabled":false,"rental_uris":{"android":"levelo://app?vid=b89163d2-f2b5-4b6d-aabd-1475735c5e98","ios":"levelo://app?vid=b89163d2-f2b5-4b6d-aabd-1475735c5e98"},"vehicle_type_id":"4","last_reported":1706738810,"current_range_meters":12400,"station_id":"ce4bgt92rcd13ifvqcg0","pricing_plan_id":"free"},{"bike_id":"f33f70d5-46c2-4de5-ac55-7370e52b4850","system_id":"levelo_inurba_marseille","lat":43.307945,"lon":5.376487,"is_reserved":false,"is_disabled":false,"rental_uris":{"android":"levelo://app?vid=f33f70d5-46c2-4de5-ac55-7370e52b4850","ios":"levelo://app?vid=f33f70d5-46c2-4de5-ac55-7370e52b4850"},"vehicle_type_id":"4","last_reported":1706738810,"current_range_meters":21200,"station_id":"ce4bgv92rcd13ifvqcq0","pricing_plan_id":"free"},{"bike_id":"9a4db2da-70f6-4b03-8ce0-90eeb4bb8164","system_id":"levelo_inurba_marseille","lat":43.307945,"lon":5.376487,"is_reserved":false,"is_disabled":false,"rental_uris":{"android":"levelo://app?vid=9a4db2da-70f6-4b03-8ce0-90eeb4bb8164","ios":"levelo://app?vid=9a4db2da-70f6-4b03-8ce0-90eeb4bb8164"},"vehicle_type_id":"4","last_reported":1706738810,"current_range_meters":30000,"station_id":"ce4bgv92rcd13ifvqcq0","pricing_plan_id":"free"},{"bike_id":"18a7ab6b-e68c-44de-99bd-cd4b624a0994","system_id":"levelo_inurba_marseille","lat":43.317075,"lon":5.377367,"is_reserved":false,"is_disabled":false,"rental_uris":{"android":"levelo://app?vid=18a7ab6b-e68c-44de-99bd-cd4b624a0994","ios":"levelo://app?vid=18a7ab6b-e68c-44de-99bd-cd4b624a0994"},"vehicle_type_id":"4","last_reported":1706738810,"current_range_meters":4400,"station_id":"ce4bgth2rcd13ifvqch0","pricing_plan_id":"free"},{"bike_id":"682b126f-dffd-4fdd-b9cf-fab068f83902","system_id":"levelo_inurba_marseille","lat":43.317075,"lon":5.377367,"is_reserved":false,"is_disabled":false,"rental_uris":{"android":"levelo://app?vid=682b126f-dffd-4fdd-b9cf-fab068f83902","ios":"levelo://app?vid=682b126f-dffd-4fdd-b9cf-fab068f83902"},"vehicle_type_id":"4","last_reported":1706738810,"current_range_meters":17600,"station_id":"ce4bgth2rcd13ifvqch0","pricing_plan_id":"free"},{"bike_id":"9eba16db-14da-4116-88db-7418285547e6","system_id":"levelo_inurba_marseille","lat":43.30321,"lon":5.36893,"is_reserved":false,"is_disabled":false,"rental_uris":{"android":"levelo://app?vid=9eba16db-14da-4116-88db-7418285547e6","ios":"levelo://app?vid=9eba16db-14da-4116-88db-7418285547e6"},"vehicle_type_id":"4","last_reported":1706738810,"current_range_meters":0,"station_id":"ce4bgqh2rcd13ifvqc5g","pricing_plan_id":"free"},{"bike_id":"d621c7c6-f8f7-4aff-8255-da4375603046","system_id":"levelo_inurba_marseille","lat":43.301939,"lon":5.366286,"is_reserved":false,"is_disabled":false,"rental_uris":{"android":"levelo://app?vid=d621c7c6-f8f7-4aff-8255-da4375603046","ios":"levelo://app?vid=d621c7c6-f8f7-4aff-8255-da4375603046"},"vehicle_type_id":"4","last_reported":1706738810,"current_range_meters":4000,"station_id":"ce4bgrh2rcd13ifvqc8g","pricing_plan_id":"free"},{"bike_id":"cfe28811-3e5e-47b5-8534-e993cac30071","system_id":"levelo_inurba_marseille","lat":43.301939,"lon":5.366286,"is_reserved":false,"is_disabled":false,"rental_uris":{"android":"levelo://app?vid=cfe28811-3e5e-47b5-8534-e993cac30071","ios":"levelo://app?vid=cfe28811-3e5e-47b5-8534-e993cac30071"},"vehicle_type_id":"4","last_reported":1706738810,"current_range_meters":28800,"station_id":"ce4bgrh2rcd13ifvqc8g","pricing_plan_id":"free"},{"bike_id":"c5655691-e515-491f-9409-8569c3ff0c59","system_id":"levelo_inurba_marseille","lat":43.308012,"lon":5.381511,"is_reserved":false,"is_disabled":false,"rental_uris":{"android":"levelo://app?vid=c5655691-e515-491f-9409-8569c3ff0c59","ios":"levelo://app?vid=c5655691-e515-491f-9409-8569c3ff0c59"},"vehicle_type_id":"4","last_reported":1706738810,"current_range_meters":17200,"station_id":"ce4bgt12rcd13ifvqce0","pricing_plan_id":"free"},{"bike_id":"3bcc9c29-0427-4de7-b99c-39008410bcd7","system_id":"levelo_inurba_marseille","lat":43.308051,"lon":5.381465,"is_reserved":false,"is_disabled":false,"rental_uris":{"android":"levelo://app?vid=3bcc9c29-0427-4de7-b99c-39008410bcd7","ios":"levelo://app?vid=3bcc9c29-0427-4de7-b99c-39008410bcd7"},"vehicle_type_id":"4","last_reported":1706738810,"current_range_meters":28000,"station_id":"ce4bgt12rcd13ifvqce0","pricing_plan_id":"free"},{"bike_id":"45b09986-e2e9-4620-8615-d458060bcb40","system_id":"levelo_inurba_marseille","lat":43.308056,"lon":5.381494,"is_reserved":false,"is_disabled":false,"rental_uris":{"android":"levelo://app?vid=45b09986-e2e9-4620-8615-d458060bcb40","ios":"levelo://app?vid=45b09986-e2e9-4620-8615-d458060bcb40"},"vehicle_type_id":"4","last_reported":1706738810,"current_range_meters":31200,"station_id":"ce4bgt12rcd13ifvqce0","pricing_plan_id":"free"},{"bike_id":"ceadcc0f-df5e-4e5d-ac34-d6851dd0e846","system_id":"levelo_inurba_marseille","lat":43.308012,"lon":5.381511,"is_reserved":false,"is_disabled":false,"rental_uris":{"android":"levelo://app?vid=ceadcc0f-df5e-4e5d-ac34-d6851dd0e846","ios":"levelo://app?vid=ceadcc0f-df5e-4e5d-ac34-d6851dd0e846"},"vehicle_type_id":"4","last_reported":1706738810,"current_range_meters":5200,"station_id":"ce4bgt12rcd13ifvqce0","pricing_plan_id":"free"},{"bike_id":"f9b3aa5a-40af-4040-a917-268c7acc95ae","system_id":"levelo_inurba_marseille","lat":43.324794,"lon":5.365764,"is_reserved":false,"is_disabled":false,"rental_uris":{"android":"levelo://app?vid=f9b3aa5a-40af-4040-a917-268c7acc95ae","ios":"levelo://app?vid=f9b3aa5a-40af-4040-a917-268c7acc95ae"},"vehicle_type_id":"4","last_reported":1706738810,"current_range_meters":15600,"station_id":"ce4bhs12rcd13ifvqhvg","pricing_plan_id":"free"},{"bike_id":"4c1d912b-8425-4b28-bcd4-0691a1724560","system_id":"levelo_inurba_marseille","lat":43.324817,"lon":5.365744,"is_reserved":false,"is_disabled":false,"rental_uris":{"android":"levelo://app?vid=4c1d912b-8425-4b28-bcd4-0691a1724560","ios":"levelo://app?vid=4c1d912b-8425-4b28-bcd4-0691a1724560"},"vehicle_type_id":"4","last_reported":1706738810,"current_range_meters":17200,"station_id":"ce4bhs12rcd13ifvqhvg","pricing_plan_id":"free"},{"bike_id":"d09b101b-245f-48b2-b4b4-8cc2cf66b737","system_id":"levelo_inurba_marseille","lat":43.324771,"lon":5.36557,"is_reserved":false,"is_disabled":false,"rental_uris":{"android":"levelo://app?vid=d09b101b-245f-48b2-b4b4-8cc2cf66b737","ios":"levelo://app?vid=d09b101b-245f-48b2-b4b4-8cc2cf66b737"},"vehicle_type_id":"4","last_reported":1706738810,"current_range_meters":17200,"station_id":"ce4bhs12rcd13ifvqhvg","pricing_plan_id":"free"},{"bike_id":"72f64bf3-3a8b-40c9-9789-32db1a120b80","system_id":"levelo_inurba_marseille","lat":43.324843,"lon":5.365581,"is_reserved":false,"is_disabled":false,"rental_uris":{"android":"levelo://app?vid=72f64bf3-3a8b-40c9-9789-32db1a120b80","ios":"levelo://app?vid=72f64bf3-3a8b-40c9-9789-32db1a120b80"},"vehicle_type_id":"4","last_reported":1706738810,"current_range_meters":13200,"station_id":"","pricing_plan_id":"free"},{"bike_id":"b6a27ef5-c24a-41bb-8660-01c51af87bb9","system_id":"levelo_inurba_marseille","lat":43.319935,"lon":5.381699,"is_reserved":false,"is_disabled":false,"rental_uris":{"android":"levelo://app?vid=b6a27ef5-c24a-41bb-8660-01c51af87bb9","ios":"levelo://app?vid=b6a27ef5-c24a-41bb-8660-01c51af87bb9"},"vehicle_type_id":"4","last_reported":1706738810,"current_range_meters":8400,"station_id":"ce4bhr12rcd13ifvqhpg","pricing_plan_id":"free"},{"bike_id":"71d03508-4277-4dfe-bff8-76bcfdbb3775","system_id":"levelo_inurba_marseille","lat":43.319935,"lon":5.381699,"is_reserved":false,"is_disabled":false,"rental_uris":{"android":"levelo://app?vid=71d03508-4277-4dfe-bff8-76bcfdbb3775","ios":"levelo://app?vid=71d03508-4277-4dfe-bff8-76bcfdbb3775"},"vehicle_type_id":"4","last_reported":1706738810,"current_range_meters":8000,"station_id":"ce4bhr12rcd13ifvqhpg","pricing_plan_id":"free"},{"bike_id":"74a5bc9b-7b98-4c08-b89d-ae418136b231","system_id":"levelo_inurba_marseille","lat":43.310295,"lon":5.384475,"is_reserved":false,"is_disabled":false,"rental_uris":{"android":"levelo://app?vid=74a5bc9b-7b98-4c08-b89d-ae418136b231","ios":"levelo://app?vid=74a5bc9b-7b98-4c08-b89d-ae418136b231"},"vehicle_type_id":"4","last_reported":1706738810,"current_range_meters":6000,"station_id":"","pricing_plan_id":"free"},{"bike_id":"1967f1d6-327f-4890-9729-78924b394c0c","system_id":"levelo_inurba_marseille","lat":43.313571,"lon":5.384829,"is_reserved":false,"is_disabled":false,"rental_uris":{"android":"levelo://app?vid=1967f1d6-327f-4890-9729-78924b394c0c","ios":"levelo://app?vid=1967f1d6-327f-4890-9729-78924b394c0c"},"vehicle_type_id":"4","last_reported":1706738810,"current_range_meters":8800,"station_id":"ce4bgt92rcd13ifvqcf0","pricing_plan_id":"free"},{"bike_id":"0d9e7814-3c6d-4e58-82d2-25667056959f","system_id":"levelo_inurba_marseille","lat":43.31358,"lon":5.3849,"is_reserved":false,"is_disabled":false,"rental_uris":{"android":"levelo://app?vid=0d9e7814-3c6d-4e58-82d2-25667056959f","ios":"levelo://app?vid=0d9e7814-3c6d-4e58-82d2-25667056959f"},"vehicle_type_id":"4","last_reported":1706738810,"current_range_meters":21600,"station_id":"ce4bgt92rcd13ifvqcf0","pricing_plan_id":"free"},{"bike_id":"e2625614-5aae-4bf0-9121-9a38b1c0512b","system_id":"levelo_inurba_marseille","lat":43.313571,"lon":5.384829,"is_reserved":false,"is_disabled":false,"rental_uris":{"android":"levelo://app?vid=e2625614-5aae-4bf0-9121-9a38b1c0512b","ios":"levelo://app?vid=e2625614-5aae-4bf0-9121-9a38b1c0512b"},"vehicle_type_id":"4","last_reported":1706738810,"current_range_meters":11600,"station_id":"ce4bgt92rcd13ifvqcf0","pricing_plan_id":"free"},{"bike_id":"cb4b67cb-9f6e-451e-803c-1480a7c88031","system_id":"levelo_inurba_marseille","lat":43.313571,"lon":5.384829,"is_reserved":false,"is_disabled":false,"rental_uris":{"android":"levelo://app?vid=cb4b67cb-9f6e-451e-803c-1480a7c88031","ios":"levelo://app?vid=cb4b67cb-9f6e-451e-803c-1480a7c88031"},"vehicle_type_id":"4","last_reported":1706738810,"current_range_meters":7200,"station_id":"ce4bgt92rcd13ifvqcf0","pricing_plan_id":"free"},{"bike_id":"ebfae927-b09f-4893-86fb-6abbf12f1acc","system_id":"levelo_inurba_marseille","lat":43.299518,"lon":5.36538,"is_reserved":false,"is_disabled":false,"rental_uris":{"android":"levelo://app?vid=ebfae927-b09f-4893-86fb-6abbf12f1acc","ios":"levelo://app?vid=ebfae927-b09f-4893-86fb-6abbf12f1acc"},"vehicle_type_id":"4","last_reported":1706738810,"current_range_meters":14400,"station_id":"","pricing_plan_id":"free"},{"bike_id":"b279c29c-fa38-4289-9721-71e917123d83","system_id":"levelo_inurba_marseille","lat":43.299222,"lon":5.365554,"is_reserved":false,"is_disabled":false,"rental_uris":{"android":"levelo://app?vid=b279c29c-fa38-4289-9721-71e917123d83","ios":"levelo://app?vid=b279c29c-fa38-4289-9721-71e917123d83"},"vehicle_type_id":"4","last_reported":1706738810,"current_range_meters":0,"station_id":"ce4bgm92rcd13ifvqbr0","pricing_plan_id":"free"},{"bike_id":"1ebd9c65-d824-4b51-aa4e-7a85fa94ebb9","system_id":"levelo_inurba_marseille","lat":43.305364,"lon":5.384119,"is_reserved":false,"is_disabled":false,"rental_uris":{"android":"levelo://app?vid=1ebd9c65-d824-4b51-aa4e-7a85fa94ebb9","ios":"levelo://app?vid=1ebd9c65-d824-4b51-aa4e-7a85fa94ebb9"},"vehicle_type_id":"4","last_reported":1706738810,"current_range_meters":19600,"station_id":"ce4bgg92rcd13ifvqb30","pricing_plan_id":"free"},{"bike_id":"54581f70-3f06-43b4-9c13-967ecd30fa44","system_id":"levelo_inurba_marseille","lat":43.311722,"lon":5.387247,"is_reserved":false,"is_disabled":false,"rental_uris":{"android":"levelo://app?vid=54581f70-3f06-43b4-9c13-967ecd30fa44","ios":"levelo://app?vid=54581f70-3f06-43b4-9c13-967ecd30fa44"},"vehicle_type_id":"4","last_reported":1706738810,"current_range_meters":2000,"station_id":"ce4bgv12rcd13ifvqcp0","pricing_plan_id":"free"},{"bike_id":"1ea28af2-bc8f-4ee1-b35d-5954dc643e5b","system_id":"levelo_inurba_marseille","lat":43.311722,"lon":5.387247,"is_reserved":false,"is_disabled":false,"rental_uris":{"android":"levelo://app?vid=1ea28af2-bc8f-4ee1-b35d-5954dc643e5b","ios":"levelo://app?vid=1ea28af2-bc8f-4ee1-b35d-5954dc643e5b"},"vehicle_type_id":"4","last_reported":1706738810,"current_range_meters":23200,"station_id":"ce4bgv12rcd13ifvqcp0","pricing_plan_id":"free"},{"bike_id":"a2e10512-574f-47fd-baca-a1ce6651d91d","system_id":"levelo_inurba_marseille","lat":43.311748,"lon":5.387122,"is_reserved":false,"is_disabled":false,"rental_uris":{"android":"levelo://app?vid=a2e10512-574f-47fd-baca-a1ce6651d91d","ios":"levelo://app?vid=a2e10512-574f-47fd-baca-a1ce6651d91d"},"vehicle_type_id":"4","last_reported":1706738810,"current_range_meters":2800,"station_id":"ce4bgv12rcd13ifvqcp0","pricing_plan_id":"free"},{"bike_id":"34788841-031f-4bde-9a35-9b3480912d23","system_id":"levelo_inurba_marseille","lat":43.311722,"lon":5.387247,"is_reserved":false,"is_disabled":false,"rental_uris":{"android":"levelo://app?vid=34788841-031f-4bde-9a35-9b3480912d23","ios":"levelo://app?vid=34788841-031f-4bde-9a35-9b3480912d23"},"vehicle_type_id":"4","last_reported":1706738810,"current_range_meters":30000,"station_id":"ce4bgv12rcd13ifvqcp0","pricing_plan_id":"free"},{"bike_id":"1b31ada3-6ce5-4862-b69b-599c34da3cae","system_id":"levelo_inurba_marseille","lat":43.311722,"lon":5.387247,"is_reserved":false,"is_disabled":false,"rental_uris":{"android":"levelo://app?vid=1b31ada3-6ce5-4862-b69b-599c34da3cae","ios":"levelo://app?vid=1b31ada3-6ce5-4862-b69b-599c34da3cae"},"vehicle_type_id":"4","last_reported":1706738810,"current_range_meters":9600,"station_id":"ce4bgv12rcd13ifvqcp0","pricing_plan_id":"free"},{"bike_id":"2e00c260-07d9-4fa4-842b-c9abc039281b","system_id":"levelo_inurba_marseille","lat":43.311722,"lon":5.387247,"is_reserved":false,"is_disabled":false,"rental_uris":{"android":"levelo://app?vid=2e00c260-07d9-4fa4-842b-c9abc039281b","ios":"levelo://app?vid=2e00c260-07d9-4fa4-842b-c9abc039281b"},"vehicle_type_id":"4","last_reported":1706738810,"current_range_meters":6000,"station_id":"ce4bgv12rcd13ifvqcp0","pricing_plan_id":"free"},{"bike_id":"639a58a8-5679-4a20-9014-ed1eb921742b","system_id":"levelo_inurba_marseille","lat":43.322896,"lon":5.382629,"is_reserved":false,"is_disabled":false,"rental_uris":{"android":"levelo://app?vid=639a58a8-5679-4a20-9014-ed1eb921742b","ios":"levelo://app?vid=639a58a8-5679-4a20-9014-ed1eb921742b"},"vehicle_type_id":"4","last_reported":1706738810,"current_range_meters":19600,"station_id":"ce4bhr12rcd13ifvqhqg","pricing_plan_id":"free"},{"bike_id":"b804f899-963d-4bd6-b3dd-e2781b06570a","system_id":"levelo_inurba_marseille","lat":43.32295,"lon":5.38257,"is_reserved":false,"is_disabled":false,"rental_uris":{"android":"levelo://app?vid=b804f899-963d-4bd6-b3dd-e2781b06570a","ios":"levelo://app?vid=b804f899-963d-4bd6-b3dd-e2781b06570a"},"vehicle_type_id":"4","last_reported":1706738810,"current_range_meters":0,"station_id":"ce4bhr12rcd13ifvqhqg","pricing_plan_id":"free"},{"bike_id":"ea5ad0a1-27e3-47c4-89a1-e718950473b9","system_id":"levelo_inurba_marseille","lat":43.32291,"lon":5.38266,"is_reserved":false,"is_disabled":false,"rental_uris":{"android":"levelo://app?vid=ea5ad0a1-27e3-47c4-89a1-e718950473b9","ios":"levelo://app?vid=ea5ad0a1-27e3-47c4-89a1-e718950473b9"},"vehicle_type_id":"4","last_reported":1706738810,"current_range_meters":0,"station_id":"ce4bhr12rcd13ifvqhqg","pricing_plan_id":"free"},{"bike_id":"4c183976-dd39-4854-a83a-4e80ee9a0940","system_id":"levelo_inurba_marseille","lat":43.297794,"lon":5.370888,"is_reserved":false,"is_disabled":false,"rental_uris":{"android":"levelo://app?vid=4c183976-dd39-4854-a83a-4e80ee9a0940","ios":"levelo://app?vid=4c183976-dd39-4854-a83a-4e80ee9a0940"},"vehicle_type_id":"4","last_reported":1706738810,"current_range_meters":21600,"station_id":"ce4bgop2rcd13ifvqc1g","pricing_plan_id":"free"},{"bike_id":"2b65db30-3315-4a51-a4c6-1bedc9bd51c7","system_id":"levelo_inurba_marseille","lat":43.322898,"lon":5.382698,"is_reserved":false,"is_disabled":false,"rental_uris":{"android":"levelo://app?vid=2b65db30-3315-4a51-a4c6-1bedc9bd51c7","ios":"levelo://app?vid=2b65db30-3315-4a51-a4c6-1bedc9bd51c7"},"vehicle_type_id":"4","last_reported":1706738810,"current_range_meters":30000,"station_id":"ce4bhr12rcd13ifvqhqg","pricing_plan_id":"free"},{"bike_id":"19e08926-8857-44b7-a342-a968b5312c1d","system_id":"levelo_inurba_marseille","lat":43.322872,"lon":5.382756,"is_reserved":false,"is_disabled":false,"rental_uris":{"android":"levelo://app?vid=19e08926-8857-44b7-a342-a968b5312c1d","ios":"levelo://app?vid=19e08926-8857-44b7-a342-a968b5312c1d"},"vehicle_type_id":"4","last_reported":1706738810,"current_range_meters":9200,"station_id":"ce4bhr12rcd13ifvqhqg","pricing_plan_id":"free"},{"bike_id":"15a97b08-f5cc-4267-8f99-9a3c39cfc79f","system_id":"levelo_inurba_marseille","lat":43.328371,"lon":5.366909,"is_reserved":false,"is_disabled":false,"rental_uris":{"android":"levelo://app?vid=15a97b08-f5cc-4267-8f99-9a3c39cfc79f","ios":"levelo://app?vid=15a97b08-f5cc-4267-8f99-9a3c39cfc79f"},"vehicle_type_id":"4","last_reported":1706738810,"current_range_meters":2400,"station_id":"ce4bhs92rcd13ifvqi0g","pricing_plan_id":"free"},{"bike_id":"5786b04c-6f54-4a43-8315-eea385a92c85","system_id":"levelo_inurba_marseille","lat":43.2968,"lon":5.37291,"is_reserved":false,"is_disabled":false,"rental_uris":{"android":"levelo://app?vid=5786b04c-6f54-4a43-8315-eea385a92c85","ios":"levelo://app?vid=5786b04c-6f54-4a43-8315-eea385a92c85"},"vehicle_type_id":"4","last_reported":1706738810,"current_range_meters":4400,"station_id":"ce4bgk12rcd13ifvqbj0","pricing_plan_id":"free"},{"bike_id":"359edfee-a8b5-4e14-8bc4-a7fa356532b9","system_id":"levelo_inurba_marseille","lat":43.31751,"lon":5.38907,"is_reserved":false,"is_disabled":false,"rental_uris":{"android":"levelo://app?vid=359edfee-a8b5-4e14-8bc4-a7fa356532b9","ios":"levelo://app?vid=359edfee-a8b5-4e14-8bc4-a7fa356532b9"},"vehicle_type_id":"4","last_reported":1706738810,"current_range_meters":26400,"station_id":"","pricing_plan_id":"free"},{"bike_id":"baf5d45a-8d54-4046-8907-70bba5dd4911","system_id":"levelo_inurba_marseille","lat":43.2962,"lon":5.37154,"is_reserved":false,"is_disabled":false,"rental_uris":{"android":"levelo://app?vid=baf5d45a-8d54-4046-8907-70bba5dd4911","ios":"levelo://app?vid=baf5d45a-8d54-4046-8907-70bba5dd4911"},"vehicle_type_id":"4","last_reported":1706738810,"current_range_meters":8400,"station_id":"ce4bgnh2rcd13ifvqc0g","pricing_plan_id":"free"},{"bike_id":"b4affc33-89cc-411a-a952-574479635c88","system_id":"levelo_inurba_marseille","lat":43.299028,"lon":5.381509,"is_reserved":false,"is_disabled":false,"rental_uris":{"android":"levelo://app?vid=b4affc33-89cc-411a-a952-574479635c88","ios":"levelo://app?vid=b4affc33-89cc-411a-a952-574479635c88"},"vehicle_type_id":"4","last_reported":1706738810,"current_range_meters":3600,"station_id":"ce4bgj12rcd13ifvqbc0","pricing_plan_id":"free"},{"bike_id":"f4b307b4-bee4-4540-88bc-26cc68398579","system_id":"levelo_inurba_marseille","lat":43.309589,"lon":5.390258,"is_reserved":false,"is_disabled":false,"rental_uris":{"android":"levelo://app?vid=f4b307b4-bee4-4540-88bc-26cc68398579","ios":"levelo://app?vid=f4b307b4-bee4-4540-88bc-26cc68398579"},"vehicle_type_id":"4","last_reported":1706738810,"current_range_meters":25200,"station_id":"ce4bgup2rcd13ifvqco0","pricing_plan_id":"free"},{"bike_id":"2d8fcc19-7b0f-4a74-b6a9-15f5eed1fe1e","system_id":"levelo_inurba_marseille","lat":43.299028,"lon":5.381509,"is_reserved":false,"is_disabled":false,"rental_uris":{"android":"levelo://app?vid=2d8fcc19-7b0f-4a74-b6a9-15f5eed1fe1e","ios":"levelo://app?vid=2d8fcc19-7b0f-4a74-b6a9-15f5eed1fe1e"},"vehicle_type_id":"4","last_reported":1706738810,"current_range_meters":18000,"station_id":"ce4bgj12rcd13ifvqbc0","pricing_plan_id":"free"},{"bike_id":"7afe9903-ce72-4c33-9428-a620b7908559","system_id":"levelo_inurba_marseille","lat":43.309508,"lon":5.39033,"is_reserved":false,"is_disabled":false,"rental_uris":{"android":"levelo://app?vid=7afe9903-ce72-4c33-9428-a620b7908559","ios":"levelo://app?vid=7afe9903-ce72-4c33-9428-a620b7908559"},"vehicle_type_id":"4","last_reported":1706738810,"current_range_meters":0,"station_id":"ce4bgup2rcd13ifvqco0","pricing_plan_id":"free"},{"bike_id":"f23b5a40-a67c-44df-9eda-631b3e4fe3d3","system_id":"levelo_inurba_marseille","lat":43.309589,"lon":5.390258,"is_reserved":false,"is_disabled":false,"rental_uris":{"android":"levelo://app?vid=f23b5a40-a67c-44df-9eda-631b3e4fe3d3","ios":"levelo://app?vid=f23b5a40-a67c-44df-9eda-631b3e4fe3d3"},"vehicle_type_id":"4","last_reported":1706738810,"current_range_meters":4400,"station_id":"ce4bgup2rcd13ifvqco0","pricing_plan_id":"free"},{"bike_id":"8c66d845-7e11-47c5-8523-1205c0e4acd5","system_id":"levelo_inurba_marseille","lat":43.309589,"lon":5.390258,"is_reserved":false,"is_disabled":false,"rental_uris":{"android":"levelo://app?vid=8c66d845-7e11-47c5-8523-1205c0e4acd5","ios":"levelo://app?vid=8c66d845-7e11-47c5-8523-1205c0e4acd5"},"vehicle_type_id":"4","last_reported":1706738810,"current_range_meters":27600,"station_id":"ce4bgup2rcd13ifvqco0","pricing_plan_id":"free"},{"bike_id":"6242b800-4253-4cb6-a80b-1255fb07d8f5","system_id":"levelo_inurba_marseille","lat":43.309526,"lon":5.390409,"is_reserved":false,"is_disabled":false,"rental_uris":{"android":"levelo://app?vid=6242b800-4253-4cb6-a80b-1255fb07d8f5","ios":"levelo://app?vid=6242b800-4253-4cb6-a80b-1255fb07d8f5"},"vehicle_type_id":"4","last_reported":1706738810,"current_range_meters":0,"station_id":"ce4bgup2rcd13ifvqco0","pricing_plan_id":"free"},{"bike_id":"071244f1-5189-40c4-bbc7-acdf97e09958","system_id":"levelo_inurba_marseille","lat":43.317557,"lon":5.390173,"is_reserved":false,"is_disabled":false,"rental_uris":{"android":"levelo://app?vid=071244f1-5189-40c4-bbc7-acdf97e09958","ios":"levelo://app?vid=071244f1-5189-40c4-bbc7-acdf97e09958"},"vehicle_type_id":"4","last_reported":1706738810,"current_range_meters":26800,"station_id":"ce4bhqp2rcd13ifvqhng","pricing_plan_id":"free"},{"bike_id":"f6fea7bb-175a-4094-86b5-dd2cf3f3ae6c","system_id":"levelo_inurba_marseille","lat":43.317557,"lon":5.390173,"is_reserved":false,"is_disabled":false,"rental_uris":{"android":"levelo://app?vid=f6fea7bb-175a-4094-86b5-dd2cf3f3ae6c","ios":"levelo://app?vid=f6fea7bb-175a-4094-86b5-dd2cf3f3ae6c"},"vehicle_type_id":"4","last_reported":1706738810,"current_range_meters":14400,"station_id":"ce4bhqp2rcd13ifvqhng","pricing_plan_id":"free"},{"bike_id":"3f3e242f-8cc6-4d62-ae31-664c01f8ce61","system_id":"levelo_inurba_marseille","lat":43.317557,"lon":5.390173,"is_reserved":false,"is_disabled":false,"rental_uris":{"android":"levelo://app?vid=3f3e242f-8cc6-4d62-ae31-664c01f8ce61","ios":"levelo://app?vid=3f3e242f-8cc6-4d62-ae31-664c01f8ce61"},"vehicle_type_id":"4","last_reported":1706738810,"current_range_meters":15200,"station_id":"ce4bhqp2rcd13ifvqhng","pricing_plan_id":"free"},{"bike_id":"4eb5889b-7cd0-44c4-8620-b8a5e61801e0","system_id":"levelo_inurba_marseille","lat":43.304475,"lon":5.388935,"is_reserved":false,"is_disabled":false,"rental_uris":{"android":"levelo://app?vid=4eb5889b-7cd0-44c4-8620-b8a5e61801e0","ios":"levelo://app?vid=4eb5889b-7cd0-44c4-8620-b8a5e61801e0"},"vehicle_type_id":"4","last_reported":1706738810,"current_range_meters":1200,"station_id":"ce4bgk12rcd13ifvqbi0","pricing_plan_id":"free"},{"bike_id":"3bb6ba40-3b56-4741-9a0b-677cdb575144","system_id":"levelo_inurba_marseille","lat":43.30437,"lon":5.38892,"is_reserved":false,"is_disabled":false,"rental_uris":{"android":"levelo://app?vid=3bb6ba40-3b56-4741-9a0b-677cdb575144","ios":"levelo://app?vid=3bb6ba40-3b56-4741-9a0b-677cdb575144"},"vehicle_type_id":"4","last_reported":1706738810,"current_range_meters":6400,"station_id":"ce4bgk12rcd13ifvqbi0","pricing_plan_id":"free"},{"bike_id":"034674a7-f99c-4717-8175-c49c264531b7","system_id":"levelo_inurba_marseille","lat":43.304348,"lon":5.388908,"is_reserved":false,"is_disabled":false,"rental_uris":{"android":"levelo://app?vid=034674a7-f99c-4717-8175-c49c264531b7","ios":"levelo://app?vid=034674a7-f99c-4717-8175-c49c264531b7"},"vehicle_type_id":"4","last_reported":1706738810,"current_range_meters":0,"station_id":"ce4bgk12rcd13ifvqbi0","pricing_plan_id":"free"},{"bike_id":"43ba5d73-66f4-4854-b974-f793dd9e7be2","system_id":"levelo_inurba_marseille","lat":43.298037,"lon":5.381066,"is_reserved":false,"is_disabled":false,"rental_uris":{"android":"levelo://app?vid=43ba5d73-66f4-4854-b974-f793dd9e7be2","ios":"levelo://app?vid=43ba5d73-66f4-4854-b974-f793dd9e7be2"},"vehicle_type_id":"4","last_reported":1706738810,"current_range_meters":22000,"station_id":"ce4bgip2rcd13ifvqbb0","pricing_plan_id":"free"},{"bike_id":"cb96bc53-4cf9-4db8-810f-0f35124e8800","system_id":"levelo_inurba_marseille","lat":43.3043,"lon":5.38913,"is_reserved":false,"is_disabled":false,"rental_uris":{"android":"levelo://app?vid=cb96bc53-4cf9-4db8-810f-0f35124e8800","ios":"levelo://app?vid=cb96bc53-4cf9-4db8-810f-0f35124e8800"},"vehicle_type_id":"4","last_reported":1706738810,"current_range_meters":17200,"station_id":"ce4bgk12rcd13ifvqbi0","pricing_plan_id":"free"},{"bike_id":"3e8cc6e0-19fa-464d-9dde-c235fcc9b42a","system_id":"levelo_inurba_marseille","lat":43.29975,"lon":5.384851,"is_reserved":false,"is_disabled":false,"rental_uris":{"android":"levelo://app?vid=3e8cc6e0-19fa-464d-9dde-c235fcc9b42a","ios":"levelo://app?vid=3e8cc6e0-19fa-464d-9dde-c235fcc9b42a"},"vehicle_type_id":"4","last_reported":1706738810,"current_range_meters":31200,"station_id":"ce4bgj92rcd13ifvqbd0","pricing_plan_id":"free"},{"bike_id":"3154c4fb-7e75-478c-9a14-8274b9743225","system_id":"levelo_inurba_marseille","lat":43.299724,"lon":5.384848,"is_reserved":false,"is_disabled":false,"rental_uris":{"android":"levelo://app?vid=3154c4fb-7e75-478c-9a14-8274b9743225","ios":"levelo://app?vid=3154c4fb-7e75-478c-9a14-8274b9743225"},"vehicle_type_id":"4","last_reported":1706738810,"current_range_meters":28400,"station_id":"ce4bgj92rcd13ifvqbd0","pricing_plan_id":"free"},{"bike_id":"476fef7a-0f92-4217-a13f-407daaaf3ca0","system_id":"levelo_inurba_marseille","lat":43.29971,"lon":5.38493,"is_reserved":false,"is_disabled":false,"rental_uris":{"android":"levelo://app?vid=476fef7a-0f92-4217-a13f-407daaaf3ca0","ios":"levelo://app?vid=476fef7a-0f92-4217-a13f-407daaaf3ca0"},"vehicle_type_id":"4","last_reported":1706738810,"current_range_meters":30400,"station_id":"ce4bgj92rcd13ifvqbd0","pricing_plan_id":"free"},{"bike_id":"70f94e0d-0978-4e4e-b8c2-3c36e8af9cd0","system_id":"levelo_inurba_marseille","lat":43.299696,"lon":5.384964,"is_reserved":false,"is_disabled":false,"rental_uris":{"android":"levelo://app?vid=70f94e0d-0978-4e4e-b8c2-3c36e8af9cd0","ios":"levelo://app?vid=70f94e0d-0978-4e4e-b8c2-3c36e8af9cd0"},"vehicle_type_id":"4","last_reported":1706738810,"current_range_meters":31200,"station_id":"ce4bgj92rcd13ifvqbd0","pricing_plan_id":"free"},{"bike_id":"de25d637-84ec-4203-b892-3e1c2d7c4ddb","system_id":"levelo_inurba_marseille","lat":43.3317,"lon":5.36444,"is_reserved":false,"is_disabled":false,"rental_uris":{"android":"levelo://app?vid=de25d637-84ec-4203-b892-3e1c2d7c4ddb","ios":"levelo://app?vid=de25d637-84ec-4203-b892-3e1c2d7c4ddb"},"vehicle_type_id":"4","last_reported":1706738810,"current_range_meters":5600,"station_id":"","pricing_plan_id":"free"},{"bike_id":"3304c29f-fdd7-464a-8890-39b8a8474937","system_id":"levelo_inurba_marseille","lat":43.30282,"lon":5.38937,"is_reserved":false,"is_disabled":false,"rental_uris":{"android":"levelo://app?vid=3304c29f-fdd7-464a-8890-39b8a8474937","ios":"levelo://app?vid=3304c29f-fdd7-464a-8890-39b8a8474937"},"vehicle_type_id":"4","last_reported":1706738810,"current_range_meters":8400,"station_id":"","pricing_plan_id":"free"},{"bike_id":"efa6bd51-c94f-4107-9e97-437d3697b8cb","system_id":"levelo_inurba_marseille","lat":43.32367,"lon":5.388836,"is_reserved":false,"is_disabled":false,"rental_uris":{"android":"levelo://app?vid=efa6bd51-c94f-4107-9e97-437d3697b8cb","ios":"levelo://app?vid=efa6bd51-c94f-4107-9e97-437d3697b8cb"},"vehicle_type_id":"4","last_reported":1706738810,"current_range_meters":10000,"station_id":"ce4bhqp2rcd13ifvqhog","pricing_plan_id":"free"},{"bike_id":"202df9dd-3b20-4310-9dde-7a88eca4db2d","system_id":"levelo_inurba_marseille","lat":43.32362,"lon":5.38889,"is_reserved":false,"is_disabled":false,"rental_uris":{"android":"levelo://app?vid=202df9dd-3b20-4310-9dde-7a88eca4db2d","ios":"levelo://app?vid=202df9dd-3b20-4310-9dde-7a88eca4db2d"},"vehicle_type_id":"4","last_reported":1706738810,"current_range_meters":8000,"station_id":"ce4bhqp2rcd13ifvqhog","pricing_plan_id":"free"},{"bike_id":"5742c23a-9a25-486b-9b96-d67cb28234b0","system_id":"levelo_inurba_marseille","lat":43.32367,"lon":5.388836,"is_reserved":false,"is_disabled":false,"rental_uris":{"android":"levelo://app?vid=5742c23a-9a25-486b-9b96-d67cb28234b0","ios":"levelo://app?vid=5742c23a-9a25-486b-9b96-d67cb28234b0"},"vehicle_type_id":"4","last_reported":1706738810,"current_range_meters":17200,"station_id":"ce4bhqp2rcd13ifvqhog","pricing_plan_id":"free"},{"bike_id":"cfcf0669-9d10-4229-a144-a525b6ebf650","system_id":"levelo_inurba_marseille","lat":43.29601,"lon":5.381084,"is_reserved":false,"is_disabled":false,"rental_uris":{"android":"levelo://app?vid=cfcf0669-9d10-4229-a144-a525b6ebf650","ios":"levelo://app?vid=cfcf0669-9d10-4229-a144-a525b6ebf650"},"vehicle_type_id":"4","last_reported":1706738810,"current_range_meters":12000,"station_id":"ce4bgl12rcd13ifvqbo0","pricing_plan_id":"free"},{"bike_id":"9671f161-cad0-4752-9caf-6710f9196ee0","system_id":"levelo_inurba_marseille","lat":43.29602,"lon":5.381084,"is_reserved":false,"is_disabled":false,"rental_uris":{"android":"levelo://app?vid=9671f161-cad0-4752-9caf-6710f9196ee0","ios":"levelo://app?vid=9671f161-cad0-4752-9caf-6710f9196ee0"},"vehicle_type_id":"4","last_reported":1706738810,"current_range_meters":0,"station_id":"ce4bgl12rcd13ifvqbo0","pricing_plan_id":"free"},{"bike_id":"61f11f0f-dd4f-42da-aae6-b68626d7df93","system_id":"levelo_inurba_marseille","lat":43.296006,"lon":5.38098,"is_reserved":false,"is_disabled":false,"rental_uris":{"android":"levelo://app?vid=61f11f0f-dd4f-42da-aae6-b68626d7df93","ios":"levelo://app?vid=61f11f0f-dd4f-42da-aae6-b68626d7df93"},"vehicle_type_id":"4","last_reported":1706738810,"current_range_meters":0,"station_id":"ce4bgl12rcd13ifvqbo0","pricing_plan_id":"free"},{"bike_id":"5c8a8fb9-e5ea-41d6-a97e-48148e4680a3","system_id":"levelo_inurba_marseille","lat":43.29602,"lon":5.381084,"is_reserved":false,"is_disabled":false,"rental_uris":{"android":"levelo://app?vid=5c8a8fb9-e5ea-41d6-a97e-48148e4680a3","ios":"levelo://app?vid=5c8a8fb9-e5ea-41d6-a97e-48148e4680a3"},"vehicle_type_id":"4","last_reported":1706738810,"current_range_meters":0,"station_id":"ce4bgl12rcd13ifvqbo0","pricing_plan_id":"free"},{"bike_id":"aa211f8f-e5e1-4dc1-aa8a-ba258a03d6c0","system_id":"levelo_inurba_marseille","lat":43.29318,"lon":5.37215,"is_reserved":false,"is_disabled":false,"rental_uris":{"android":"levelo://app?vid=aa211f8f-e5e1-4dc1-aa8a-ba258a03d6c0","ios":"levelo://app?vid=aa211f8f-e5e1-4dc1-aa8a-ba258a03d6c0"},"vehicle_type_id":"4","last_reported":1706738810,"current_range_meters":0,"station_id":"ce4bgh92rcd13ifvqb40","pricing_plan_id":"free"},{"bike_id":"72d802d6-b5e4-4163-b6b0-a25a55bfb9e2","system_id":"levelo_inurba_marseille","lat":43.292749,"lon":5.368402,"is_reserved":false,"is_disabled":false,"rental_uris":{"android":"levelo://app?vid=72d802d6-b5e4-4163-b6b0-a25a55bfb9e2","ios":"levelo://app?vid=72d802d6-b5e4-4163-b6b0-a25a55bfb9e2"},"vehicle_type_id":"4","last_reported":1706738810,"current_range_meters":0,"station_id":"ce4bhbp2rcd13ifvqesg","pricing_plan_id":"free"},{"bike_id":"e284e574-5726-4982-a80f-8c585d7a8d30","system_id":"levelo_inurba_marseille","lat":43.29305,"lon":5.371664,"is_reserved":false,"is_disabled":false,"rental_uris":{"android":"levelo://app?vid=e284e574-5726-4982-a80f-8c585d7a8d30","ios":"levelo://app?vid=e284e574-5726-4982-a80f-8c585d7a8d30"},"vehicle_type_id":"4","last_reported":1706738810,"current_range_meters":800,"station_id":"","pricing_plan_id":"free"},{"bike_id":"8396c9d7-200b-4687-aa10-9c398374cc55","system_id":"levelo_inurba_marseille","lat":43.305994,"lon":5.393687,"is_reserved":false,"is_disabled":false,"rental_uris":{"android":"levelo://app?vid=8396c9d7-200b-4687-aa10-9c398374cc55","ios":"levelo://app?vid=8396c9d7-200b-4687-aa10-9c398374cc55"},"vehicle_type_id":"4","last_reported":1706738810,"current_range_meters":12400,"station_id":"ce4bh0p2rcd13ifvqd80","pricing_plan_id":"free"},{"bike_id":"7cc00cef-f13d-4b9b-ad52-4090def52b1d","system_id":"levelo_inurba_marseille","lat":43.306064,"lon":5.393526,"is_reserved":false,"is_disabled":false,"rental_uris":{"android":"levelo://app?vid=7cc00cef-f13d-4b9b-ad52-4090def52b1d","ios":"levelo://app?vid=7cc00cef-f13d-4b9b-ad52-4090def52b1d"},"vehicle_type_id":"4","last_reported":1706738810,"current_range_meters":0,"station_id":"ce4bh0p2rcd13ifvqd80","pricing_plan_id":"free"},{"bike_id":"72d972fc-60c1-4ce0-9552-f841e0674cdb","system_id":"levelo_inurba_marseille","lat":43.305994,"lon":5.393687,"is_reserved":false,"is_disabled":false,"rental_uris":{"android":"levelo://app?vid=72d972fc-60c1-4ce0-9552-f841e0674cdb","ios":"levelo://app?vid=72d972fc-60c1-4ce0-9552-f841e0674cdb"},"vehicle_type_id":"4","last_reported":1706738810,"current_range_meters":12400,"station_id":"ce4bh0p2rcd13ifvqd80","pricing_plan_id":"free"},{"bike_id":"7f4306d0-c9be-4cf4-a06e-bc051cc53dce","system_id":"levelo_inurba_marseille","lat":43.2929,"lon":5.37441,"is_reserved":false,"is_disabled":false,"rental_uris":{"android":"levelo://app?vid=7f4306d0-c9be-4cf4-a06e-bc051cc53dce","ios":"levelo://app?vid=7f4306d0-c9be-4cf4-a06e-bc051cc53dce"},"vehicle_type_id":"4","last_reported":1706738810,"current_range_meters":0,"station_id":"ce4bgi12rcd13ifvqb70","pricing_plan_id":"free"},{"bike_id":"9b6a7d22-1355-4a7b-99f1-d8069115c302","system_id":"levelo_inurba_marseille","lat":43.293009,"lon":5.374584,"is_reserved":false,"is_disabled":false,"rental_uris":{"android":"levelo://app?vid=9b6a7d22-1355-4a7b-99f1-d8069115c302","ios":"levelo://app?vid=9b6a7d22-1355-4a7b-99f1-d8069115c302"},"vehicle_type_id":"4","last_reported":1706738810,"current_range_meters":31200,"station_id":"ce4bgi12rcd13ifvqb70","pricing_plan_id":"free"},{"bike_id":"3cadcd5f-1d40-484a-8e07-aaed8ba431a0","system_id":"levelo_inurba_marseille","lat":43.300852,"lon":5.390859,"is_reserved":false,"is_disabled":false,"rental_uris":{"android":"levelo://app?vid=3cadcd5f-1d40-484a-8e07-aaed8ba431a0","ios":"levelo://app?vid=3cadcd5f-1d40-484a-8e07-aaed8ba431a0"},"vehicle_type_id":"4","last_reported":1706738810,"current_range_meters":14800,"station_id":"ce4bh192rcd13ifvqdb0","pricing_plan_id":"free"},{"bike_id":"2d74087f-c889-4ed8-bd5b-8017a486ec17","system_id":"levelo_inurba_marseille","lat":43.2936,"lon":5.37835,"is_reserved":false,"is_disabled":false,"rental_uris":{"android":"levelo://app?vid=2d74087f-c889-4ed8-bd5b-8017a486ec17","ios":"levelo://app?vid=2d74087f-c889-4ed8-bd5b-8017a486ec17"},"vehicle_type_id":"4","last_reported":1706738810,"current_range_meters":20400,"station_id":"ce4bgjh2rcd13ifvqbf0","pricing_plan_id":"free"},{"bike_id":"adcb8971-170c-496c-a2c0-065565f9cbbc","system_id":"levelo_inurba_marseille","lat":43.300852,"lon":5.390859,"is_reserved":false,"is_disabled":false,"rental_uris":{"android":"levelo://app?vid=adcb8971-170c-496c-a2c0-065565f9cbbc","ios":"levelo://app?vid=adcb8971-170c-496c-a2c0-065565f9cbbc"},"vehicle_type_id":"4","last_reported":1706738810,"current_range_meters":27600,"station_id":"ce4bh192rcd13ifvqdb0","pricing_plan_id":"free"},{"bike_id":"107bd944-459a-4ea1-a3f7-09f2d96cc030","system_id":"levelo_inurba_marseille","lat":43.300946,"lon":5.390742,"is_reserved":false,"is_disabled":false,"rental_uris":{"android":"levelo://app?vid=107bd944-459a-4ea1-a3f7-09f2d96cc030","ios":"levelo://app?vid=107bd944-459a-4ea1-a3f7-09f2d96cc030"},"vehicle_type_id":"4","last_reported":1706738810,"current_range_meters":0,"station_id":"ce4bh192rcd13ifvqdb0","pricing_plan_id":"free"},{"bike_id":"f393c3b4-e5f3-4758-853f-1f324deacea4","system_id":"levelo_inurba_marseille","lat":43.300852,"lon":5.390859,"is_reserved":false,"is_disabled":false,"rental_uris":{"android":"levelo://app?vid=f393c3b4-e5f3-4758-853f-1f324deacea4","ios":"levelo://app?vid=f393c3b4-e5f3-4758-853f-1f324deacea4"},"vehicle_type_id":"4","last_reported":1706738810,"current_range_meters":10400,"station_id":"ce4bh192rcd13ifvqdb0","pricing_plan_id":"free"},{"bike_id":"81681c36-90c0-49a0-8db9-49a0df457fae","system_id":"levelo_inurba_marseille","lat":43.292311,"lon":5.360731,"is_reserved":false,"is_disabled":false,"rental_uris":{"android":"levelo://app?vid=81681c36-90c0-49a0-8db9-49a0df457fae","ios":"levelo://app?vid=81681c36-90c0-49a0-8db9-49a0df457fae"},"vehicle_type_id":"4","last_reported":1706738810,"current_range_meters":0,"station_id":"ce4bhbh2rcd13ifvqeqg","pricing_plan_id":"free"},{"bike_id":"9f71cd43-89a2-4ea5-b573-ae21e701114e","system_id":"levelo_inurba_marseille","lat":43.298764,"lon":5.388973,"is_reserved":false,"is_disabled":false,"rental_uris":{"android":"levelo://app?vid=9f71cd43-89a2-4ea5-b573-ae21e701114e","ios":"levelo://app?vid=9f71cd43-89a2-4ea5-b573-ae21e701114e"},"vehicle_type_id":"4","last_reported":1706738810,"current_range_meters":18000,"station_id":"ce4bh392rcd13ifvqdl0","pricing_plan_id":"free"},{"bike_id":"f1f6e459-ef3e-4a20-9d7c-694454d2b528","system_id":"levelo_inurba_marseille","lat":43.29875,"lon":5.389,"is_reserved":false,"is_disabled":false,"rental_uris":{"android":"levelo://app?vid=f1f6e459-ef3e-4a20-9d7c-694454d2b528","ios":"levelo://app?vid=f1f6e459-ef3e-4a20-9d7c-694454d2b528"},"vehicle_type_id":"4","last_reported":1706738810,"current_range_meters":0,"station_id":"ce4bh392rcd13ifvqdl0","pricing_plan_id":"free"},{"bike_id":"6f2aea29-912f-4451-a6c8-fc33e99bad16","system_id":"levelo_inurba_marseille","lat":43.298764,"lon":5.388973,"is_reserved":false,"is_disabled":false,"rental_uris":{"android":"levelo://app?vid=6f2aea29-912f-4451-a6c8-fc33e99bad16","ios":"levelo://app?vid=6f2aea29-912f-4451-a6c8-fc33e99bad16"},"vehicle_type_id":"4","last_reported":1706738810,"current_range_meters":20000,"station_id":"ce4bh392rcd13ifvqdl0","pricing_plan_id":"free"},{"bike_id":"99010b0d-e62d-4ba5-ae03-a3eb212c3d93","system_id":"levelo_inurba_marseille","lat":43.298764,"lon":5.388973,"is_reserved":false,"is_disabled":false,"rental_uris":{"android":"levelo://app?vid=99010b0d-e62d-4ba5-ae03-a3eb212c3d93","ios":"levelo://app?vid=99010b0d-e62d-4ba5-ae03-a3eb212c3d93"},"vehicle_type_id":"4","last_reported":1706738810,"current_range_meters":12000,"station_id":"ce4bh392rcd13ifvqdl0","pricing_plan_id":"free"},{"bike_id":"4474dc7b-7e54-4bcd-940e-57303c388c17","system_id":"levelo_inurba_marseille","lat":43.29868,"lon":5.38899,"is_reserved":false,"is_disabled":false,"rental_uris":{"android":"levelo://app?vid=4474dc7b-7e54-4bcd-940e-57303c388c17","ios":"levelo://app?vid=4474dc7b-7e54-4bcd-940e-57303c388c17"},"vehicle_type_id":"4","last_reported":1706738810,"current_range_meters":31200,"station_id":"ce4bh392rcd13ifvqdl0","pricing_plan_id":"free"},{"bike_id":"7a38495a-5749-4ec8-982e-8ea39f42bef0","system_id":"levelo_inurba_marseille","lat":43.3089,"lon":5.39624,"is_reserved":false,"is_disabled":false,"rental_uris":{"android":"levelo://app?vid=7a38495a-5749-4ec8-982e-8ea39f42bef0","ios":"levelo://app?vid=7a38495a-5749-4ec8-982e-8ea39f42bef0"},"vehicle_type_id":"4","last_reported":1706738810,"current_range_meters":0,"station_id":"ce4bh012rcd13ifvqcv0","pricing_plan_id":"free"},{"bike_id":"0658b839-2464-491d-ae2d-81d59935b490","system_id":"levelo_inurba_marseille","lat":43.3089,"lon":5.39625,"is_reserved":false,"is_disabled":false,"rental_uris":{"android":"levelo://app?vid=0658b839-2464-491d-ae2d-81d59935b490","ios":"levelo://app?vid=0658b839-2464-491d-ae2d-81d59935b490"},"vehicle_type_id":"4","last_reported":1706738810,"current_range_meters":2000,"station_id":"ce4bh012rcd13ifvqcv0","pricing_plan_id":"free"},{"bike_id":"6d3ffde0-0fa8-4788-a216-221c438b8744","system_id":"levelo_inurba_marseille","lat":43.3089,"lon":5.39626,"is_reserved":false,"is_disabled":false,"rental_uris":{"android":"levelo://app?vid=6d3ffde0-0fa8-4788-a216-221c438b8744","ios":"levelo://app?vid=6d3ffde0-0fa8-4788-a216-221c438b8744"},"vehicle_type_id":"4","last_reported":1706738810,"current_range_meters":0,"station_id":"ce4bh012rcd13ifvqcv0","pricing_plan_id":"free"},{"bike_id":"5f1ddc79-fa18-48aa-a601-7af24d9c69df","system_id":"levelo_inurba_marseille","lat":43.30888,"lon":5.396265,"is_reserved":false,"is_disabled":false,"rental_uris":{"android":"levelo://app?vid=5f1ddc79-fa18-48aa-a601-7af24d9c69df","ios":"levelo://app?vid=5f1ddc79-fa18-48aa-a601-7af24d9c69df"},"vehicle_type_id":"4","last_reported":1706738810,"current_range_meters":0,"station_id":"ce4bh012rcd13ifvqcv0","pricing_plan_id":"free"},{"bike_id":"f1a464bd-0d69-455a-abe8-9f8c9121dd3a","system_id":"levelo_inurba_marseille","lat":43.313291,"lon":5.396838,"is_reserved":false,"is_disabled":false,"rental_uris":{"android":"levelo://app?vid=f1a464bd-0d69-455a-abe8-9f8c9121dd3a","ios":"levelo://app?vid=f1a464bd-0d69-455a-abe8-9f8c9121dd3a"},"vehicle_type_id":"4","last_reported":1706738810,"current_range_meters":22800,"station_id":"ce4bgvp2rcd13ifvqcu0","pricing_plan_id":"free"},{"bike_id":"cd4e9f08-8bad-491a-84ec-e2a431078c70","system_id":"levelo_inurba_marseille","lat":43.30876,"lon":5.39632,"is_reserved":false,"is_disabled":false,"rental_uris":{"android":"levelo://app?vid=cd4e9f08-8bad-491a-84ec-e2a431078c70","ios":"levelo://app?vid=cd4e9f08-8bad-491a-84ec-e2a431078c70"},"vehicle_type_id":"4","last_reported":1706738810,"current_range_meters":8400,"station_id":"ce4bh012rcd13ifvqcv0","pricing_plan_id":"free"},{"bike_id":"ea719c2b-5bc5-49c2-9cf0-33c445c6a873","system_id":"levelo_inurba_marseille","lat":43.291994,"lon":5.357886,"is_reserved":false,"is_disabled":false,"rental_uris":{"android":"levelo://app?vid=ea719c2b-5bc5-49c2-9cf0-33c445c6a873","ios":"levelo://app?vid=ea719c2b-5bc5-49c2-9cf0-33c445c6a873"},"vehicle_type_id":"4","last_reported":1706738810,"current_range_meters":8400,"station_id":"ce4bhb12rcd13ifvqel0","pricing_plan_id":"free"},{"bike_id":"1f818925-7a8c-48bd-b2f3-1e615da45bac","system_id":"levelo_inurba_marseille","lat":43.308842,"lon":5.396392,"is_reserved":false,"is_disabled":false,"rental_uris":{"android":"levelo://app?vid=1f818925-7a8c-48bd-b2f3-1e615da45bac","ios":"levelo://app?vid=1f818925-7a8c-48bd-b2f3-1e615da45bac"},"vehicle_type_id":"4","last_reported":1706738810,"current_range_meters":20400,"station_id":"ce4bh012rcd13ifvqcv0","pricing_plan_id":"free"},{"bike_id":"01bf2c3c-b239-44a2-8eb8-3a763b419abc","system_id":"levelo_inurba_marseille","lat":43.313291,"lon":5.396838,"is_reserved":false,"is_disabled":false,"rental_uris":{"android":"levelo://app?vid=01bf2c3c-b239-44a2-8eb8-3a763b419abc","ios":"levelo://app?vid=01bf2c3c-b239-44a2-8eb8-3a763b419abc"},"vehicle_type_id":"4","last_reported":1706738810,"current_range_meters":4800,"station_id":"ce4bgvp2rcd13ifvqcu0","pricing_plan_id":"free"},{"bike_id":"dcbcff10-03a8-49a9-a6a6-abd8aa9b95c1","system_id":"levelo_inurba_marseille","lat":43.308834,"lon":5.396436,"is_reserved":false,"is_disabled":false,"rental_uris":{"android":"levelo://app?vid=dcbcff10-03a8-49a9-a6a6-abd8aa9b95c1","ios":"levelo://app?vid=dcbcff10-03a8-49a9-a6a6-abd8aa9b95c1"},"vehicle_type_id":"4","last_reported":1706738810,"current_range_meters":16000,"station_id":"ce4bh012rcd13ifvqcv0","pricing_plan_id":"free"},{"bike_id":"8c38e05c-22c7-41e9-8d01-b9cc4eb2b76f","system_id":"levelo_inurba_marseille","lat":43.313291,"lon":5.396838,"is_reserved":false,"is_disabled":false,"rental_uris":{"android":"levelo://app?vid=8c38e05c-22c7-41e9-8d01-b9cc4eb2b76f","ios":"levelo://app?vid=8c38e05c-22c7-41e9-8d01-b9cc4eb2b76f"},"vehicle_type_id":"4","last_reported":1706738810,"current_range_meters":13600,"station_id":"ce4bgvp2rcd13ifvqcu0","pricing_plan_id":"free"},{"bike_id":"ca3d87c3-82bd-4978-b15a-03c5420dc1b0","system_id":"levelo_inurba_marseille","lat":43.309047,"lon":5.396551,"is_reserved":false,"is_disabled":false,"rental_uris":{"android":"levelo://app?vid=ca3d87c3-82bd-4978-b15a-03c5420dc1b0","ios":"levelo://app?vid=ca3d87c3-82bd-4978-b15a-03c5420dc1b0"},"vehicle_type_id":"4","last_reported":1706738810,"current_range_meters":26800,"station_id":"ce4bh012rcd13ifvqcv0","pricing_plan_id":"free"},{"bike_id":"203ee67e-f672-4eed-a0b9-3de19e570693","system_id":"levelo_inurba_marseille","lat":43.313291,"lon":5.396838,"is_reserved":false,"is_disabled":false,"rental_uris":{"android":"levelo://app?vid=203ee67e-f672-4eed-a0b9-3de19e570693","ios":"levelo://app?vid=203ee67e-f672-4eed-a0b9-3de19e570693"},"vehicle_type_id":"4","last_reported":1706738810,"current_range_meters":0,"station_id":"ce4bgvp2rcd13ifvqcu0","pricing_plan_id":"free"},{"bike_id":"a9a4da08-495b-4fa5-ba32-47bd0fea8815","system_id":"levelo_inurba_marseille","lat":43.308774,"lon":5.396468,"is_reserved":false,"is_disabled":false,"rental_uris":{"android":"levelo://app?vid=a9a4da08-495b-4fa5-ba32-47bd0fea8815","ios":"levelo://app?vid=a9a4da08-495b-4fa5-ba32-47bd0fea8815"},"vehicle_type_id":"4","last_reported":1706738810,"current_range_meters":18800,"station_id":"ce4bh012rcd13ifvqcv0","pricing_plan_id":"free"},{"bike_id":"975c5a9e-df9d-4e6d-ac66-eebb43cbfc32","system_id":"levelo_inurba_marseille","lat":43.308828,"lon":5.396483,"is_reserved":false,"is_disabled":false,"rental_uris":{"android":"levelo://app?vid=975c5a9e-df9d-4e6d-ac66-eebb43cbfc32","ios":"levelo://app?vid=975c5a9e-df9d-4e6d-ac66-eebb43cbfc32"},"vehicle_type_id":"4","last_reported":1706738810,"current_range_meters":7200,"station_id":"ce4bh012rcd13ifvqcv0","pricing_plan_id":"free"},{"bike_id":"53a9b648-d0a7-4c22-b4f8-cc0f0089a3d5","system_id":"levelo_inurba_marseille","lat":43.308794,"lon":5.396476,"is_reserved":false,"is_disabled":false,"rental_uris":{"android":"levelo://app?vid=53a9b648-d0a7-4c22-b4f8-cc0f0089a3d5","ios":"levelo://app?vid=53a9b648-d0a7-4c22-b4f8-cc0f0089a3d5"},"vehicle_type_id":"4","last_reported":1706738810,"current_range_meters":19200,"station_id":"ce4bh012rcd13ifvqcv0","pricing_plan_id":"free"},{"bike_id":"41759470-05d0-48b1-b7dc-9c70c6b94e11","system_id":"levelo_inurba_marseille","lat":43.3088,"lon":5.39648,"is_reserved":false,"is_disabled":false,"rental_uris":{"android":"levelo://app?vid=41759470-05d0-48b1-b7dc-9c70c6b94e11","ios":"levelo://app?vid=41759470-05d0-48b1-b7dc-9c70c6b94e11"},"vehicle_type_id":"4","last_reported":1706738810,"current_range_meters":7600,"station_id":"ce4bh012rcd13ifvqcv0","pricing_plan_id":"free"},{"bike_id":"4544aa02-15cb-442f-bf95-dda24b00f359","system_id":"levelo_inurba_marseille","lat":43.308731,"lon":5.396469,"is_reserved":false,"is_disabled":false,"rental_uris":{"android":"levelo://app?vid=4544aa02-15cb-442f-bf95-dda24b00f359","ios":"levelo://app?vid=4544aa02-15cb-442f-bf95-dda24b00f359"},"vehicle_type_id":"4","last_reported":1706738810,"current_range_meters":22800,"station_id":"ce4bh012rcd13ifvqcv0","pricing_plan_id":"free"},{"bike_id":"2983d506-c322-4e48-b149-0edfd49f85b5","system_id":"levelo_inurba_marseille","lat":43.308761,"lon":5.39649,"is_reserved":false,"is_disabled":false,"rental_uris":{"android":"levelo://app?vid=2983d506-c322-4e48-b149-0edfd49f85b5","ios":"levelo://app?vid=2983d506-c322-4e48-b149-0edfd49f85b5"},"vehicle_type_id":"4","last_reported":1706738810,"current_range_meters":11600,"station_id":"ce4bh012rcd13ifvqcv0","pricing_plan_id":"free"},{"bike_id":"3e74f3af-382f-46c0-943f-37b390847d0c","system_id":"levelo_inurba_marseille","lat":43.29529,"lon":5.385581,"is_reserved":false,"is_disabled":false,"rental_uris":{"android":"levelo://app?vid=3e74f3af-382f-46c0-943f-37b390847d0c","ios":"levelo://app?vid=3e74f3af-382f-46c0-943f-37b390847d0c"},"vehicle_type_id":"4","last_reported":1706738810,"current_range_meters":28800,"station_id":"ce4bgih2rcd13ifvqba0","pricing_plan_id":"free"},{"bike_id":"73cf8f12-eb49-4783-b133-e0108cceb1a9","system_id":"levelo_inurba_marseille","lat":43.29529,"lon":5.385581,"is_reserved":false,"is_disabled":false,"rental_uris":{"android":"levelo://app?vid=73cf8f12-eb49-4783-b133-e0108cceb1a9","ios":"levelo://app?vid=73cf8f12-eb49-4783-b133-e0108cceb1a9"},"vehicle_type_id":"4","last_reported":1706738810,"current_range_meters":15200,"station_id":"ce4bgih2rcd13ifvqba0","pricing_plan_id":"free"},{"bike_id":"ad51f6eb-1c21-4bac-a53b-c9c4b9b66de2","system_id":"levelo_inurba_marseille","lat":43.29529,"lon":5.385581,"is_reserved":false,"is_disabled":false,"rental_uris":{"android":"levelo://app?vid=ad51f6eb-1c21-4bac-a53b-c9c4b9b66de2","ios":"levelo://app?vid=ad51f6eb-1c21-4bac-a53b-c9c4b9b66de2"},"vehicle_type_id":"4","last_reported":1706738810,"current_range_meters":31200,"station_id":"ce4bgih2rcd13ifvqba0","pricing_plan_id":"free"},{"bike_id":"bcdf51c3-6ed9-44ca-bbe0-7a64d07b88f0","system_id":"levelo_inurba_marseille","lat":43.295461,"lon":5.385532,"is_reserved":false,"is_disabled":false,"rental_uris":{"android":"levelo://app?vid=bcdf51c3-6ed9-44ca-bbe0-7a64d07b88f0","ios":"levelo://app?vid=bcdf51c3-6ed9-44ca-bbe0-7a64d07b88f0"},"vehicle_type_id":"4","last_reported":1706738810,"current_range_meters":24400,"station_id":"ce4bgih2rcd13ifvqba0","pricing_plan_id":"free"},{"bike_id":"90231a53-f8d3-4a57-a06f-946d4ec3dfee","system_id":"levelo_inurba_marseille","lat":43.29529,"lon":5.385581,"is_reserved":false,"is_disabled":false,"rental_uris":{"android":"levelo://app?vid=90231a53-f8d3-4a57-a06f-946d4ec3dfee","ios":"levelo://app?vid=90231a53-f8d3-4a57-a06f-946d4ec3dfee"},"vehicle_type_id":"4","last_reported":1706738810,"current_range_meters":25600,"station_id":"ce4bgih2rcd13ifvqba0","pricing_plan_id":"free"},{"bike_id":"272aa7f4-a508-4bb8-acbc-261c7723f2c2","system_id":"levelo_inurba_marseille","lat":43.29529,"lon":5.385581,"is_reserved":false,"is_disabled":false,"rental_uris":{"android":"levelo://app?vid=272aa7f4-a508-4bb8-acbc-261c7723f2c2","ios":"levelo://app?vid=272aa7f4-a508-4bb8-acbc-261c7723f2c2"},"vehicle_type_id":"4","last_reported":1706738810,"current_range_meters":28800,"station_id":"ce4bgih2rcd13ifvqba0","pricing_plan_id":"free"},{"bike_id":"d0c5737f-1ea2-40a0-81df-078288fc825f","system_id":"levelo_inurba_marseille","lat":43.29529,"lon":5.385581,"is_reserved":false,"is_disabled":false,"rental_uris":{"android":"levelo://app?vid=d0c5737f-1ea2-40a0-81df-078288fc825f","ios":"levelo://app?vid=d0c5737f-1ea2-40a0-81df-078288fc825f"},"vehicle_type_id":"4","last_reported":1706738810,"current_range_meters":23200,"station_id":"ce4bgih2rcd13ifvqba0","pricing_plan_id":"free"},{"bike_id":"616adcec-eabb-4a02-8ecf-11e4fbc220cf","system_id":"levelo_inurba_marseille","lat":43.29529,"lon":5.385581,"is_reserved":false,"is_disabled":false,"rental_uris":{"android":"levelo://app?vid=616adcec-eabb-4a02-8ecf-11e4fbc220cf","ios":"levelo://app?vid=616adcec-eabb-4a02-8ecf-11e4fbc220cf"},"vehicle_type_id":"4","last_reported":1706738810,"current_range_meters":13600,"station_id":"ce4bgih2rcd13ifvqba0","pricing_plan_id":"free"},{"bike_id":"33d72db6-d8de-43d0-a39b-6d12a02700d9","system_id":"levelo_inurba_marseille","lat":43.290779,"lon":5.371482,"is_reserved":false,"is_disabled":false,"rental_uris":{"android":"levelo://app?vid=33d72db6-d8de-43d0-a39b-6d12a02700d9","ios":"levelo://app?vid=33d72db6-d8de-43d0-a39b-6d12a02700d9"},"vehicle_type_id":"4","last_reported":1706738810,"current_range_meters":13600,"station_id":"ce4bh5p2rcd13ifvqe4g","pricing_plan_id":"free"},{"bike_id":"affffeef-7045-487b-b08a-a7d6fe0fbc37","system_id":"levelo_inurba_marseille","lat":43.290779,"lon":5.371482,"is_reserved":false,"is_disabled":false,"rental_uris":{"android":"levelo://app?vid=affffeef-7045-487b-b08a-a7d6fe0fbc37","ios":"levelo://app?vid=affffeef-7045-487b-b08a-a7d6fe0fbc37"},"vehicle_type_id":"4","last_reported":1706738810,"current_range_meters":13600,"station_id":"ce4bh5p2rcd13ifvqe4g","pricing_plan_id":"free"},{"bike_id":"2f2f8b28-b0ec-4d44-b7f3-cd2dec7dee8d","system_id":"levelo_inurba_marseille","lat":43.3022,"lon":5.39464,"is_reserved":false,"is_disabled":false,"rental_uris":{"android":"levelo://app?vid=2f2f8b28-b0ec-4d44-b7f3-cd2dec7dee8d","ios":"levelo://app?vid=2f2f8b28-b0ec-4d44-b7f3-cd2dec7dee8d"},"vehicle_type_id":"4","last_reported":1706738810,"current_range_meters":0,"station_id":"ce4bh0p2rcd13ifvqd70","pricing_plan_id":"free"},{"bike_id":"b3f507d3-b731-4eb6-bb0f-2df076a9d5f9","system_id":"levelo_inurba_marseille","lat":43.302265,"lon":5.394698,"is_reserved":false,"is_disabled":false,"rental_uris":{"android":"levelo://app?vid=b3f507d3-b731-4eb6-bb0f-2df076a9d5f9","ios":"levelo://app?vid=b3f507d3-b731-4eb6-bb0f-2df076a9d5f9"},"vehicle_type_id":"4","last_reported":1706738810,"current_range_meters":14400,"station_id":"ce4bh0p2rcd13ifvqd70","pricing_plan_id":"free"},{"bike_id":"ec09b91f-ac34-43ff-8dc6-64aecfdcc419","system_id":"levelo_inurba_marseille","lat":43.30215,"lon":5.39463,"is_reserved":false,"is_disabled":false,"rental_uris":{"android":"levelo://app?vid=ec09b91f-ac34-43ff-8dc6-64aecfdcc419","ios":"levelo://app?vid=ec09b91f-ac34-43ff-8dc6-64aecfdcc419"},"vehicle_type_id":"4","last_reported":1706738810,"current_range_meters":1200,"station_id":"ce4bh0p2rcd13ifvqd70","pricing_plan_id":"free"},{"bike_id":"e7dcdd9b-b073-4352-8ebe-7f512d5522b9","system_id":"levelo_inurba_marseille","lat":43.30221,"lon":5.39469,"is_reserved":false,"is_disabled":false,"rental_uris":{"android":"levelo://app?vid=e7dcdd9b-b073-4352-8ebe-7f512d5522b9","ios":"levelo://app?vid=e7dcdd9b-b073-4352-8ebe-7f512d5522b9"},"vehicle_type_id":"4","last_reported":1706738810,"current_range_meters":20800,"station_id":"ce4bh0p2rcd13ifvqd70","pricing_plan_id":"free"},{"bike_id":"7137ffbd-1cc9-4c4a-a9ad-e5317a59f5e7","system_id":"levelo_inurba_marseille","lat":43.302107,"lon":5.394647,"is_reserved":false,"is_disabled":false,"rental_uris":{"android":"levelo://app?vid=7137ffbd-1cc9-4c4a-a9ad-e5317a59f5e7","ios":"levelo://app?vid=7137ffbd-1cc9-4c4a-a9ad-e5317a59f5e7"},"vehicle_type_id":"4","last_reported":1706738810,"current_range_meters":20400,"station_id":"ce4bh0p2rcd13ifvqd70","pricing_plan_id":"free"},{"bike_id":"71983818-e9b2-47ce-a350-84451725dd36","system_id":"levelo_inurba_marseille","lat":43.30219,"lon":5.39474,"is_reserved":false,"is_disabled":false,"rental_uris":{"android":"levelo://app?vid=71983818-e9b2-47ce-a350-84451725dd36","ios":"levelo://app?vid=71983818-e9b2-47ce-a350-84451725dd36"},"vehicle_type_id":"4","last_reported":1706738810,"current_range_meters":0,"station_id":"ce4bh0p2rcd13ifvqd70","pricing_plan_id":"free"},{"bike_id":"85d26d74-98c6-4005-8d22-0246ed297cd0","system_id":"levelo_inurba_marseille","lat":43.30224,"lon":5.3948,"is_reserved":false,"is_disabled":false,"rental_uris":{"android":"levelo://app?vid=85d26d74-98c6-4005-8d22-0246ed297cd0","ios":"levelo://app?vid=85d26d74-98c6-4005-8d22-0246ed297cd0"},"vehicle_type_id":"4","last_reported":1706738810,"current_range_meters":23200,"station_id":"ce4bh0p2rcd13ifvqd70","pricing_plan_id":"free"},{"bike_id":"882772a8-9849-439b-86be-3fb4253e8cac","system_id":"levelo_inurba_marseille","lat":43.2905,"lon":5.35924,"is_reserved":false,"is_disabled":false,"rental_uris":{"android":"levelo://app?vid=882772a8-9849-439b-86be-3fb4253e8cac","ios":"levelo://app?vid=882772a8-9849-439b-86be-3fb4253e8cac"},"vehicle_type_id":"4","last_reported":1706738810,"current_range_meters":13600,"station_id":"ce4bha92rcd13ifvqeg0","pricing_plan_id":"free"},{"bike_id":"7999414f-6546-439b-b701-0027b24c97fd","system_id":"levelo_inurba_marseille","lat":43.290624,"lon":5.359245,"is_reserved":false,"is_disabled":false,"rental_uris":{"android":"levelo://app?vid=7999414f-6546-439b-b701-0027b24c97fd","ios":"levelo://app?vid=7999414f-6546-439b-b701-0027b24c97fd"},"vehicle_type_id":"4","last_reported":1706738810,"current_range_meters":0,"station_id":"ce4bha92rcd13ifvqeg0","pricing_plan_id":"free"},{"bike_id":"2c1e47ad-3478-424c-8c66-23a600b1f0dc","system_id":"levelo_inurba_marseille","lat":43.290441,"lon":5.359123,"is_reserved":false,"is_disabled":false,"rental_uris":{"android":"levelo://app?vid=2c1e47ad-3478-424c-8c66-23a600b1f0dc","ios":"levelo://app?vid=2c1e47ad-3478-424c-8c66-23a600b1f0dc"},"vehicle_type_id":"4","last_reported":1706738810,"current_range_meters":12800,"station_id":"","pricing_plan_id":"free"},{"bike_id":"5dcd0c44-666d-45f3-9f0c-20bd63acbc4e","system_id":"levelo_inurba_marseille","lat":43.294153,"lon":5.386305,"is_reserved":false,"is_disabled":false,"rental_uris":{"android":"levelo://app?vid=5dcd0c44-666d-45f3-9f0c-20bd63acbc4e","ios":"levelo://app?vid=5dcd0c44-666d-45f3-9f0c-20bd63acbc4e"},"vehicle_type_id":"4","last_reported":1706738810,"current_range_meters":16000,"station_id":"ce4bh2h2rcd13ifvqdh0","pricing_plan_id":"free"},{"bike_id":"57755699-2af7-4c02-8463-535599dd410b","system_id":"levelo_inurba_marseille","lat":43.294153,"lon":5.386305,"is_reserved":false,"is_disabled":false,"rental_uris":{"android":"levelo://app?vid=57755699-2af7-4c02-8463-535599dd410b","ios":"levelo://app?vid=57755699-2af7-4c02-8463-535599dd410b"},"vehicle_type_id":"4","last_reported":1706738810,"current_range_meters":2400,"station_id":"ce4bh2h2rcd13ifvqdh0","pricing_plan_id":"free"},{"bike_id":"6f6a13fe-2c9e-4fe4-baf8-ab772e1ebd1c","system_id":"levelo_inurba_marseille","lat":43.2942,"lon":5.38626,"is_reserved":false,"is_disabled":false,"rental_uris":{"android":"levelo://app?vid=6f6a13fe-2c9e-4fe4-baf8-ab772e1ebd1c","ios":"levelo://app?vid=6f6a13fe-2c9e-4fe4-baf8-ab772e1ebd1c"},"vehicle_type_id":"4","last_reported":1706738810,"current_range_meters":30800,"station_id":"ce4bh2h2rcd13ifvqdh0","pricing_plan_id":"free"},{"bike_id":"a46b9150-1702-4366-91d7-c2ce1b48ac3c","system_id":"levelo_inurba_marseille","lat":43.29529,"lon":5.385581,"is_reserved":false,"is_disabled":false,"rental_uris":{"android":"levelo://app?vid=a46b9150-1702-4366-91d7-c2ce1b48ac3c","ios":"levelo://app?vid=a46b9150-1702-4366-91d7-c2ce1b48ac3c"},"vehicle_type_id":"4","last_reported":1706738810,"current_range_meters":9600,"station_id":"ce4bgih2rcd13ifvqba0","pricing_plan_id":"free"},{"bike_id":"835d73ed-c6e0-445f-a31e-5fae63d54885","system_id":"levelo_inurba_marseille","lat":43.290327,"lon":5.375711,"is_reserved":false,"is_disabled":false,"rental_uris":{"android":"levelo://app?vid=835d73ed-c6e0-445f-a31e-5fae63d54885","ios":"levelo://app?vid=835d73ed-c6e0-445f-a31e-5fae63d54885"},"vehicle_type_id":"4","last_reported":1706738810,"current_range_meters":0,"station_id":"ce4bh692rcd13ifvqe90","pricing_plan_id":"free"},{"bike_id":"d81fc55d-f967-424f-8aba-3598f5a39daa","system_id":"levelo_inurba_marseille","lat":43.294162,"lon":5.386292,"is_reserved":false,"is_disabled":false,"rental_uris":{"android":"levelo://app?vid=d81fc55d-f967-424f-8aba-3598f5a39daa","ios":"levelo://app?vid=d81fc55d-f967-424f-8aba-3598f5a39daa"},"vehicle_type_id":"4","last_reported":1706738810,"current_range_meters":13600,"station_id":"ce4bh2h2rcd13ifvqdh0","pricing_plan_id":"free"},{"bike_id":"f8e33a3e-2154-4645-907c-d0ff935c8b89","system_id":"levelo_inurba_marseille","lat":43.290327,"lon":5.375711,"is_reserved":false,"is_disabled":false,"rental_uris":{"android":"levelo://app?vid=f8e33a3e-2154-4645-907c-d0ff935c8b89","ios":"levelo://app?vid=f8e33a3e-2154-4645-907c-d0ff935c8b89"},"vehicle_type_id":"4","last_reported":1706738810,"current_range_meters":6800,"station_id":"ce4bh692rcd13ifvqe90","pricing_plan_id":"free"},{"bike_id":"f52c9157-5fd8-4f94-9daa-3186dbfe4b2a","system_id":"levelo_inurba_marseille","lat":43.294162,"lon":5.386292,"is_reserved":false,"is_disabled":false,"rental_uris":{"android":"levelo://app?vid=f52c9157-5fd8-4f94-9daa-3186dbfe4b2a","ios":"levelo://app?vid=f52c9157-5fd8-4f94-9daa-3186dbfe4b2a"},"vehicle_type_id":"4","last_reported":1706738810,"current_range_meters":31200,"station_id":"ce4bh2h2rcd13ifvqdh0","pricing_plan_id":"free"},{"bike_id":"77230a41-b993-4017-be2e-56056faeed13","system_id":"levelo_inurba_marseille","lat":43.294162,"lon":5.386292,"is_reserved":false,"is_disabled":false,"rental_uris":{"android":"levelo://app?vid=77230a41-b993-4017-be2e-56056faeed13","ios":"levelo://app?vid=77230a41-b993-4017-be2e-56056faeed13"},"vehicle_type_id":"4","last_reported":1706738810,"current_range_meters":31200,"station_id":"ce4bh2h2rcd13ifvqdh0","pricing_plan_id":"free"},{"bike_id":"267c4fb6-cce5-4224-9f79-ddf50aacbc65","system_id":"levelo_inurba_marseille","lat":43.289468,"lon":5.363719,"is_reserved":false,"is_disabled":false,"rental_uris":{"android":"levelo://app?vid=267c4fb6-cce5-4224-9f79-ddf50aacbc65","ios":"levelo://app?vid=267c4fb6-cce5-4224-9f79-ddf50aacbc65"},"vehicle_type_id":"4","last_reported":1706738810,"current_range_meters":29200,"station_id":"ce4bhc92rcd13ifvqetg","pricing_plan_id":"free"},{"bike_id":"6fc3d050-3a5f-4361-b561-6bf2b9b8074f","system_id":"levelo_inurba_marseille","lat":43.289468,"lon":5.363719,"is_reserved":false,"is_disabled":false,"rental_uris":{"android":"levelo://app?vid=6fc3d050-3a5f-4361-b561-6bf2b9b8074f","ios":"levelo://app?vid=6fc3d050-3a5f-4361-b561-6bf2b9b8074f"},"vehicle_type_id":"4","last_reported":1706738810,"current_range_meters":13200,"station_id":"ce4bhc92rcd13ifvqetg","pricing_plan_id":"free"},{"bike_id":"2d18ab25-689c-45a3-8604-eb3f93206bd3","system_id":"levelo_inurba_marseille","lat":43.289388,"lon":5.363974,"is_reserved":false,"is_disabled":false,"rental_uris":{"android":"levelo://app?vid=2d18ab25-689c-45a3-8604-eb3f93206bd3","ios":"levelo://app?vid=2d18ab25-689c-45a3-8604-eb3f93206bd3"},"vehicle_type_id":"4","last_reported":1706738810,"current_range_meters":2800,"station_id":"ce4bhc92rcd13ifvqetg","pricing_plan_id":"free"},{"bike_id":"b08446d7-2439-4f96-8ace-944b29af1f0b","system_id":"levelo_inurba_marseille","lat":43.289468,"lon":5.363719,"is_reserved":false,"is_disabled":false,"rental_uris":{"android":"levelo://app?vid=b08446d7-2439-4f96-8ace-944b29af1f0b","ios":"levelo://app?vid=b08446d7-2439-4f96-8ace-944b29af1f0b"},"vehicle_type_id":"4","last_reported":1706738810,"current_range_meters":2400,"station_id":"ce4bhc92rcd13ifvqetg","pricing_plan_id":"free"},{"bike_id":"758133b6-4550-46cc-bc4a-92511adcb9e0","system_id":"levelo_inurba_marseille","lat":43.29404,"lon":5.38651,"is_reserved":false,"is_disabled":false,"rental_uris":{"android":"levelo://app?vid=758133b6-4550-46cc-bc4a-92511adcb9e0","ios":"levelo://app?vid=758133b6-4550-46cc-bc4a-92511adcb9e0"},"vehicle_type_id":"4","last_reported":1706738810,"current_range_meters":26800,"station_id":"ce4bh2h2rcd13ifvqdh0","pricing_plan_id":"free"},{"bike_id":"edf1d5aa-4559-4b08-8f74-b1a08f321e4b","system_id":"levelo_inurba_marseille","lat":43.304372,"lon":5.397325,"is_reserved":false,"is_disabled":false,"rental_uris":{"android":"levelo://app?vid=edf1d5aa-4559-4b08-8f74-b1a08f321e4b","ios":"levelo://app?vid=edf1d5aa-4559-4b08-8f74-b1a08f321e4b"},"vehicle_type_id":"4","last_reported":1706738810,"current_range_meters":6400,"station_id":"ce4bh092rcd13ifvqd20","pricing_plan_id":"free"},{"bike_id":"ece7500a-bb0e-46d1-bc4f-de6e2aec614f","system_id":"levelo_inurba_marseille","lat":43.30446,"lon":5.39738,"is_reserved":false,"is_disabled":false,"rental_uris":{"android":"levelo://app?vid=ece7500a-bb0e-46d1-bc4f-de6e2aec614f","ios":"levelo://app?vid=ece7500a-bb0e-46d1-bc4f-de6e2aec614f"},"vehicle_type_id":"4","last_reported":1706738810,"current_range_meters":0,"station_id":"ce4bh092rcd13ifvqd20","pricing_plan_id":"free"},{"bike_id":"a8325a4e-799d-422c-90d1-5bb0190d4f6b","system_id":"levelo_inurba_marseille","lat":43.304274,"lon":5.397513,"is_reserved":false,"is_disabled":false,"rental_uris":{"android":"levelo://app?vid=a8325a4e-799d-422c-90d1-5bb0190d4f6b","ios":"levelo://app?vid=a8325a4e-799d-422c-90d1-5bb0190d4f6b"},"vehicle_type_id":"4","last_reported":1706738810,"current_range_meters":10800,"station_id":"ce4bh092rcd13ifvqd20","pricing_plan_id":"free"},{"bike_id":"6566743e-d117-43bb-bd07-11dd73c309de","system_id":"levelo_inurba_marseille","lat":43.304403,"lon":5.397483,"is_reserved":false,"is_disabled":false,"rental_uris":{"android":"levelo://app?vid=6566743e-d117-43bb-bd07-11dd73c309de","ios":"levelo://app?vid=6566743e-d117-43bb-bd07-11dd73c309de"},"vehicle_type_id":"4","last_reported":1706738810,"current_range_meters":4800,"station_id":"ce4bh092rcd13ifvqd20","pricing_plan_id":"free"},{"bike_id":"3df91234-3c24-4b8a-bb6a-5df5cab0d68a","system_id":"levelo_inurba_marseille","lat":43.292642,"lon":5.384254,"is_reserved":false,"is_disabled":false,"rental_uris":{"android":"levelo://app?vid=3df91234-3c24-4b8a-bb6a-5df5cab0d68a","ios":"levelo://app?vid=3df91234-3c24-4b8a-bb6a-5df5cab0d68a"},"vehicle_type_id":"4","last_reported":1706738810,"current_range_meters":15200,"station_id":"ce4bh692rcd13ifvqea0","pricing_plan_id":"free"},{"bike_id":"34897cc9-da6e-4ebf-9e37-3c876ea34b8c","system_id":"levelo_inurba_marseille","lat":43.29268,"lon":5.38441,"is_reserved":false,"is_disabled":false,"rental_uris":{"android":"levelo://app?vid=34897cc9-da6e-4ebf-9e37-3c876ea34b8c","ios":"levelo://app?vid=34897cc9-da6e-4ebf-9e37-3c876ea34b8c"},"vehicle_type_id":"4","last_reported":1706738810,"current_range_meters":27200,"station_id":"ce4bh692rcd13ifvqea0","pricing_plan_id":"free"},{"bike_id":"fe585eb4-e793-44fa-afb4-5866ec924e94","system_id":"levelo_inurba_marseille","lat":43.304385,"lon":5.397493,"is_reserved":false,"is_disabled":false,"rental_uris":{"android":"levelo://app?vid=fe585eb4-e793-44fa-afb4-5866ec924e94","ios":"levelo://app?vid=fe585eb4-e793-44fa-afb4-5866ec924e94"},"vehicle_type_id":"4","last_reported":1706738810,"current_range_meters":14400,"station_id":"ce4bh092rcd13ifvqd20","pricing_plan_id":"free"},{"bike_id":"948345e0-f74b-49cb-89dc-56d131da36c9","system_id":"levelo_inurba_marseille","lat":43.304275,"lon":5.397445,"is_reserved":false,"is_disabled":false,"rental_uris":{"android":"levelo://app?vid=948345e0-f74b-49cb-89dc-56d131da36c9","ios":"levelo://app?vid=948345e0-f74b-49cb-89dc-56d131da36c9"},"vehicle_type_id":"4","last_reported":1706738810,"current_range_meters":21200,"station_id":"ce4bh092rcd13ifvqd20","pricing_plan_id":"free"},{"bike_id":"54cec32f-befc-432a-ac2d-fd7a2eb1d1b7","system_id":"levelo_inurba_marseille","lat":43.292642,"lon":5.384254,"is_reserved":false,"is_disabled":false,"rental_uris":{"android":"levelo://app?vid=54cec32f-befc-432a-ac2d-fd7a2eb1d1b7","ios":"levelo://app?vid=54cec32f-befc-432a-ac2d-fd7a2eb1d1b7"},"vehicle_type_id":"4","last_reported":1706738810,"current_range_meters":6000,"station_id":"ce4bh692rcd13ifvqea0","pricing_plan_id":"free"},{"bike_id":"8330bb2b-f7d9-42ac-8cce-fc4a0e3200da","system_id":"levelo_inurba_marseille","lat":43.29266,"lon":5.38444,"is_reserved":false,"is_disabled":false,"rental_uris":{"android":"levelo://app?vid=8330bb2b-f7d9-42ac-8cce-fc4a0e3200da","ios":"levelo://app?vid=8330bb2b-f7d9-42ac-8cce-fc4a0e3200da"},"vehicle_type_id":"4","last_reported":1706738810,"current_range_meters":15600,"station_id":"ce4bh692rcd13ifvqea0","pricing_plan_id":"free"},{"bike_id":"1659eab0-6469-47a4-b18c-a220e91ef494","system_id":"levelo_inurba_marseille","lat":43.30431,"lon":5.39751,"is_reserved":false,"is_disabled":false,"rental_uris":{"android":"levelo://app?vid=1659eab0-6469-47a4-b18c-a220e91ef494","ios":"levelo://app?vid=1659eab0-6469-47a4-b18c-a220e91ef494"},"vehicle_type_id":"4","last_reported":1706738810,"current_range_meters":2800,"station_id":"ce4bh092rcd13ifvqd20","pricing_plan_id":"free"},{"bike_id":"dcc2b11b-ec68-4e4e-8480-3938508f53f0","system_id":"levelo_inurba_marseille","lat":43.30431,"lon":5.39752,"is_reserved":false,"is_disabled":false,"rental_uris":{"android":"levelo://app?vid=dcc2b11b-ec68-4e4e-8480-3938508f53f0","ios":"levelo://app?vid=dcc2b11b-ec68-4e4e-8480-3938508f53f0"},"vehicle_type_id":"4","last_reported":1706738810,"current_range_meters":8800,"station_id":"ce4bh092rcd13ifvqd20","pricing_plan_id":"free"},{"bike_id":"97c85f6d-f546-4a60-b948-ee087d5d7f1a","system_id":"levelo_inurba_marseille","lat":43.29789,"lon":5.39335,"is_reserved":false,"is_disabled":false,"rental_uris":{"android":"levelo://app?vid=97c85f6d-f546-4a60-b948-ee087d5d7f1a","ios":"levelo://app?vid=97c85f6d-f546-4a60-b948-ee087d5d7f1a"},"vehicle_type_id":"4","last_reported":1706738810,"current_range_meters":4800,"station_id":"chh1huq6cuj3fo74tm60","pricing_plan_id":"free"},{"bike_id":"109bd439-741a-4297-9864-fed5a5511fa0","system_id":"levelo_inurba_marseille","lat":43.29788,"lon":5.3934,"is_reserved":false,"is_disabled":false,"rental_uris":{"android":"levelo://app?vid=109bd439-741a-4297-9864-fed5a5511fa0","ios":"levelo://app?vid=109bd439-741a-4297-9864-fed5a5511fa0"},"vehicle_type_id":"4","last_reported":1706738810,"current_range_meters":10800,"station_id":"","pricing_plan_id":"free"},{"bike_id":"d9ad6114-8950-45cb-bd32-a1912cbdccd4","system_id":"levelo_inurba_marseille","lat":43.295169,"lon":5.390426,"is_reserved":false,"is_disabled":false,"rental_uris":{"android":"levelo://app?vid=d9ad6114-8950-45cb-bd32-a1912cbdccd4","ios":"levelo://app?vid=d9ad6114-8950-45cb-bd32-a1912cbdccd4"},"vehicle_type_id":"4","last_reported":1706738810,"current_range_meters":21600,"station_id":"ce4bh3p2rcd13ifvqdp0","pricing_plan_id":"free"},{"bike_id":"d43ef0c5-ce92-4b66-8dd4-a48378361ecb","system_id":"levelo_inurba_marseille","lat":43.297752,"lon":5.393304,"is_reserved":false,"is_disabled":false,"rental_uris":{"android":"levelo://app?vid=d43ef0c5-ce92-4b66-8dd4-a48378361ecb","ios":"levelo://app?vid=d43ef0c5-ce92-4b66-8dd4-a48378361ecb"},"vehicle_type_id":"4","last_reported":1706738810,"current_range_meters":10800,"station_id":"chh1huq6cuj3fo74tm60","pricing_plan_id":"free"},{"bike_id":"811e5ea6-1c05-421f-8eb3-ed9ffa05761c","system_id":"levelo_inurba_marseille","lat":43.2898,"lon":5.37822,"is_reserved":false,"is_disabled":false,"rental_uris":{"android":"levelo://app?vid=811e5ea6-1c05-421f-8eb3-ed9ffa05761c","ios":"levelo://app?vid=811e5ea6-1c05-421f-8eb3-ed9ffa05761c"},"vehicle_type_id":"4","last_reported":1706738810,"current_range_meters":24800,"station_id":"ce4bh9p2rcd13ifvqed0","pricing_plan_id":"free"},{"bike_id":"cc033770-291d-439c-89b5-efd13e0249f6","system_id":"levelo_inurba_marseille","lat":43.297815,"lon":5.393548,"is_reserved":false,"is_disabled":false,"rental_uris":{"android":"levelo://app?vid=cc033770-291d-439c-89b5-efd13e0249f6","ios":"levelo://app?vid=cc033770-291d-439c-89b5-efd13e0249f6"},"vehicle_type_id":"4","last_reported":1706738810,"current_range_meters":15600,"station_id":"chh1huq6cuj3fo74tm60","pricing_plan_id":"free"},{"bike_id":"3e747073-399d-40f2-87a9-91d565c0dcb7","system_id":"levelo_inurba_marseille","lat":43.295169,"lon":5.390426,"is_reserved":false,"is_disabled":false,"rental_uris":{"android":"levelo://app?vid=3e747073-399d-40f2-87a9-91d565c0dcb7","ios":"levelo://app?vid=3e747073-399d-40f2-87a9-91d565c0dcb7"},"vehicle_type_id":"4","last_reported":1706738810,"current_range_meters":5600,"station_id":"ce4bh3p2rcd13ifvqdp0","pricing_plan_id":"free"},{"bike_id":"8e2a75d9-d954-4dce-a114-01a90cc13b7a","system_id":"levelo_inurba_marseille","lat":43.33023,"lon":5.39039,"is_reserved":false,"is_disabled":false,"rental_uris":{"android":"levelo://app?vid=8e2a75d9-d954-4dce-a114-01a90cc13b7a","ios":"levelo://app?vid=8e2a75d9-d954-4dce-a114-01a90cc13b7a"},"vehicle_type_id":"4","last_reported":1706738810,"current_range_meters":0,"station_id":"ce4bhr92rcd13ifvqhrg","pricing_plan_id":"free"},{"bike_id":"6fe0e816-b574-45ac-a9ee-60a68ff1bf7e","system_id":"levelo_inurba_marseille","lat":43.29527,"lon":5.39042,"is_reserved":false,"is_disabled":false,"rental_uris":{"android":"levelo://app?vid=6fe0e816-b574-45ac-a9ee-60a68ff1bf7e","ios":"levelo://app?vid=6fe0e816-b574-45ac-a9ee-60a68ff1bf7e"},"vehicle_type_id":"4","last_reported":1706738810,"current_range_meters":15600,"station_id":"ce4bh3p2rcd13ifvqdp0","pricing_plan_id":"free"},{"bike_id":"1b017b84-914a-4173-a5cc-6d62ad434d93","system_id":"levelo_inurba_marseille","lat":43.289743,"lon":5.378304,"is_reserved":false,"is_disabled":false,"rental_uris":{"android":"levelo://app?vid=1b017b84-914a-4173-a5cc-6d62ad434d93","ios":"levelo://app?vid=1b017b84-914a-4173-a5cc-6d62ad434d93"},"vehicle_type_id":"4","last_reported":1706738810,"current_range_meters":25600,"station_id":"ce4bh9p2rcd13ifvqed0","pricing_plan_id":"free"},{"bike_id":"eb669a44-acaf-4503-ac88-5c933064091a","system_id":"levelo_inurba_marseille","lat":43.295169,"lon":5.390426,"is_reserved":false,"is_disabled":false,"rental_uris":{"android":"levelo://app?vid=eb669a44-acaf-4503-ac88-5c933064091a","ios":"levelo://app?vid=eb669a44-acaf-4503-ac88-5c933064091a"},"vehicle_type_id":"4","last_reported":1706738810,"current_range_meters":14000,"station_id":"ce4bh3p2rcd13ifvqdp0","pricing_plan_id":"free"},{"bike_id":"074d5ce4-46a6-4955-81cc-69aa73f25723","system_id":"levelo_inurba_marseille","lat":43.295169,"lon":5.390426,"is_reserved":false,"is_disabled":false,"rental_uris":{"android":"levelo://app?vid=074d5ce4-46a6-4955-81cc-69aa73f25723","ios":"levelo://app?vid=074d5ce4-46a6-4955-81cc-69aa73f25723"},"vehicle_type_id":"4","last_reported":1706738810,"current_range_meters":22800,"station_id":"ce4bh3p2rcd13ifvqdp0","pricing_plan_id":"free"},{"bike_id":"b02cf25a-3d54-4c6e-8676-01637b6720d0","system_id":"levelo_inurba_marseille","lat":43.295169,"lon":5.390426,"is_reserved":false,"is_disabled":false,"rental_uris":{"android":"levelo://app?vid=b02cf25a-3d54-4c6e-8676-01637b6720d0","ios":"levelo://app?vid=b02cf25a-3d54-4c6e-8676-01637b6720d0"},"vehicle_type_id":"4","last_reported":1706738810,"current_range_meters":10000,"station_id":"ce4bh3p2rcd13ifvqdp0","pricing_plan_id":"free"},{"bike_id":"e60674cb-743a-4b3a-9bf6-3067947b25d0","system_id":"levelo_inurba_marseille","lat":43.29516,"lon":5.39039,"is_reserved":false,"is_disabled":false,"rental_uris":{"android":"levelo://app?vid=e60674cb-743a-4b3a-9bf6-3067947b25d0","ios":"levelo://app?vid=e60674cb-743a-4b3a-9bf6-3067947b25d0"},"vehicle_type_id":"4","last_reported":1706738810,"current_range_meters":2000,"station_id":"ce4bh3p2rcd13ifvqdp0","pricing_plan_id":"free"},{"bike_id":"819c8c90-9942-4c53-90e9-1a145c64192c","system_id":"levelo_inurba_marseille","lat":43.290094,"lon":5.381264,"is_reserved":false,"is_disabled":false,"rental_uris":{"android":"levelo://app?vid=819c8c90-9942-4c53-90e9-1a145c64192c","ios":"levelo://app?vid=819c8c90-9942-4c53-90e9-1a145c64192c"},"vehicle_type_id":"4","last_reported":1706738810,"current_range_meters":26400,"station_id":"ce4bh4p2rcd13ifvqe1g","pricing_plan_id":"free"},{"bike_id":"6f1ec450-6888-41c3-8519-8ad126c3ca5b","system_id":"levelo_inurba_marseille","lat":43.2901,"lon":5.381269,"is_reserved":false,"is_disabled":false,"rental_uris":{"android":"levelo://app?vid=6f1ec450-6888-41c3-8519-8ad126c3ca5b","ios":"levelo://app?vid=6f1ec450-6888-41c3-8519-8ad126c3ca5b"},"vehicle_type_id":"4","last_reported":1706738810,"current_range_meters":4000,"station_id":"ce4bh4p2rcd13ifvqe1g","pricing_plan_id":"free"},{"bike_id":"8e9342e6-6c09-4ec3-8355-7623724d417a","system_id":"levelo_inurba_marseille","lat":43.28856,"lon":5.358371,"is_reserved":false,"is_disabled":false,"rental_uris":{"android":"levelo://app?vid=8e9342e6-6c09-4ec3-8355-7623724d417a","ios":"levelo://app?vid=8e9342e6-6c09-4ec3-8355-7623724d417a"},"vehicle_type_id":"4","last_reported":1706738810,"current_range_meters":18000,"station_id":"ce4bhb12rcd13ifvqem0","pricing_plan_id":"free"},{"bike_id":"d85e73cc-0091-45d8-b104-cfa06fbfa938","system_id":"levelo_inurba_marseille","lat":43.28857,"lon":5.35843,"is_reserved":false,"is_disabled":false,"rental_uris":{"android":"levelo://app?vid=d85e73cc-0091-45d8-b104-cfa06fbfa938","ios":"levelo://app?vid=d85e73cc-0091-45d8-b104-cfa06fbfa938"},"vehicle_type_id":"4","last_reported":1706738810,"current_range_meters":31200,"station_id":"ce4bhb12rcd13ifvqem0","pricing_plan_id":"free"},{"bike_id":"09ffc386-82f9-44ac-a2a8-b7ea475096cf","system_id":"levelo_inurba_marseille","lat":43.28856,"lon":5.358371,"is_reserved":false,"is_disabled":false,"rental_uris":{"android":"levelo://app?vid=09ffc386-82f9-44ac-a2a8-b7ea475096cf","ios":"levelo://app?vid=09ffc386-82f9-44ac-a2a8-b7ea475096cf"},"vehicle_type_id":"4","last_reported":1706738810,"current_range_meters":31200,"station_id":"ce4bhb12rcd13ifvqem0","pricing_plan_id":"free"},{"bike_id":"972acf2a-459b-4109-984d-7d1b99b2d973","system_id":"levelo_inurba_marseille","lat":43.28856,"lon":5.358371,"is_reserved":false,"is_disabled":false,"rental_uris":{"android":"levelo://app?vid=972acf2a-459b-4109-984d-7d1b99b2d973","ios":"levelo://app?vid=972acf2a-459b-4109-984d-7d1b99b2d973"},"vehicle_type_id":"4","last_reported":1706738810,"current_range_meters":31200,"station_id":"ce4bhb12rcd13ifvqem0","pricing_plan_id":"free"},{"bike_id":"f4598fbe-4abd-41ce-8054-422a360f8e62","system_id":"levelo_inurba_marseille","lat":43.28856,"lon":5.358371,"is_reserved":false,"is_disabled":false,"rental_uris":{"android":"levelo://app?vid=f4598fbe-4abd-41ce-8054-422a360f8e62","ios":"levelo://app?vid=f4598fbe-4abd-41ce-8054-422a360f8e62"},"vehicle_type_id":"4","last_reported":1706738810,"current_range_meters":20400,"station_id":"ce4bhb12rcd13ifvqem0","pricing_plan_id":"free"},{"bike_id":"69fc39f7-326e-4127-8377-bfb3e3304975","system_id":"levelo_inurba_marseille","lat":43.33723,"lon":5.37438,"is_reserved":false,"is_disabled":false,"rental_uris":{"android":"levelo://app?vid=69fc39f7-326e-4127-8377-bfb3e3304975","ios":"levelo://app?vid=69fc39f7-326e-4127-8377-bfb3e3304975"},"vehicle_type_id":"4","last_reported":1706738810,"current_range_meters":28000,"station_id":"","pricing_plan_id":"free"},{"bike_id":"7182f4c4-c327-4754-9992-ed23ee6d9434","system_id":"levelo_inurba_marseille","lat":43.312609,"lon":5.401662,"is_reserved":false,"is_disabled":false,"rental_uris":{"android":"levelo://app?vid=7182f4c4-c327-4754-9992-ed23ee6d9434","ios":"levelo://app?vid=7182f4c4-c327-4754-9992-ed23ee6d9434"},"vehicle_type_id":"4","last_reported":1706738810,"current_range_meters":30000,"station_id":"ce4bh092rcd13ifvqd30","pricing_plan_id":"free"},{"bike_id":"f7bcc24b-317a-4f37-a99b-5e688e57824a","system_id":"levelo_inurba_marseille","lat":43.2883,"lon":5.35821,"is_reserved":false,"is_disabled":false,"rental_uris":{"android":"levelo://app?vid=f7bcc24b-317a-4f37-a99b-5e688e57824a","ios":"levelo://app?vid=f7bcc24b-317a-4f37-a99b-5e688e57824a"},"vehicle_type_id":"4","last_reported":1706738810,"current_range_meters":28000,"station_id":"ce4bhb12rcd13ifvqem0","pricing_plan_id":"free"},{"bike_id":"4fff2917-d8a2-4509-9f34-37418b69d728","system_id":"levelo_inurba_marseille","lat":43.312609,"lon":5.401662,"is_reserved":false,"is_disabled":false,"rental_uris":{"android":"levelo://app?vid=4fff2917-d8a2-4509-9f34-37418b69d728","ios":"levelo://app?vid=4fff2917-d8a2-4509-9f34-37418b69d728"},"vehicle_type_id":"4","last_reported":1706738810,"current_range_meters":19600,"station_id":"ce4bh092rcd13ifvqd30","pricing_plan_id":"free"},{"bike_id":"38e9467e-293b-47b7-ba22-08c6f2101e76","system_id":"levelo_inurba_marseille","lat":43.31279,"lon":5.40165,"is_reserved":false,"is_disabled":false,"rental_uris":{"android":"levelo://app?vid=38e9467e-293b-47b7-ba22-08c6f2101e76","ios":"levelo://app?vid=38e9467e-293b-47b7-ba22-08c6f2101e76"},"vehicle_type_id":"4","last_reported":1706738810,"current_range_meters":12400,"station_id":"ce4bh092rcd13ifvqd30","pricing_plan_id":"free"},{"bike_id":"b4d85829-ffae-4a59-aa2a-c43afc09c240","system_id":"levelo_inurba_marseille","lat":43.33745,"lon":5.37446,"is_reserved":false,"is_disabled":false,"rental_uris":{"android":"levelo://app?vid=b4d85829-ffae-4a59-aa2a-c43afc09c240","ios":"levelo://app?vid=b4d85829-ffae-4a59-aa2a-c43afc09c240"},"vehicle_type_id":"4","last_reported":1706738810,"current_range_meters":21200,"station_id":"","pricing_plan_id":"free"},{"bike_id":"286f917e-0a5a-4a5d-a8b9-fc4f7abedf84","system_id":"levelo_inurba_marseille","lat":43.33746,"lon":5.37459,"is_reserved":false,"is_disabled":false,"rental_uris":{"android":"levelo://app?vid=286f917e-0a5a-4a5d-a8b9-fc4f7abedf84","ios":"levelo://app?vid=286f917e-0a5a-4a5d-a8b9-fc4f7abedf84"},"vehicle_type_id":"4","last_reported":1706738810,"current_range_meters":18000,"station_id":"","pricing_plan_id":"free"},{"bike_id":"63626261-f35d-4705-ab64-0be07018f0c6","system_id":"levelo_inurba_marseille","lat":43.309371,"lon":5.401449,"is_reserved":false,"is_disabled":false,"rental_uris":{"android":"levelo://app?vid=63626261-f35d-4705-ab64-0be07018f0c6","ios":"levelo://app?vid=63626261-f35d-4705-ab64-0be07018f0c6"},"vehicle_type_id":"4","last_reported":1706738810,"current_range_meters":0,"station_id":"ce4bgvp2rcd13ifvqct0","pricing_plan_id":"free"},{"bike_id":"3a0dbb8a-c75c-4ad9-b7fd-4d10459765f5","system_id":"levelo_inurba_marseille","lat":43.306412,"lon":5.401035,"is_reserved":false,"is_disabled":false,"rental_uris":{"android":"levelo://app?vid=3a0dbb8a-c75c-4ad9-b7fd-4d10459765f5","ios":"levelo://app?vid=3a0dbb8a-c75c-4ad9-b7fd-4d10459765f5"},"vehicle_type_id":"4","last_reported":1706738810,"current_range_meters":28400,"station_id":"ce4bh112rcd13ifvqda0","pricing_plan_id":"free"},{"bike_id":"b4486dfa-f3ee-47cf-b969-3c790573346a","system_id":"levelo_inurba_marseille","lat":43.3093,"lon":5.4015,"is_reserved":false,"is_disabled":false,"rental_uris":{"android":"levelo://app?vid=b4486dfa-f3ee-47cf-b969-3c790573346a","ios":"levelo://app?vid=b4486dfa-f3ee-47cf-b969-3c790573346a"},"vehicle_type_id":"4","last_reported":1706738810,"current_range_meters":0,"station_id":"ce4bgvp2rcd13ifvqct0","pricing_plan_id":"free"},{"bike_id":"dd41551f-1c02-4a6f-a409-ed5c1e9c5842","system_id":"levelo_inurba_marseille","lat":43.306412,"lon":5.401035,"is_reserved":false,"is_disabled":false,"rental_uris":{"android":"levelo://app?vid=dd41551f-1c02-4a6f-a409-ed5c1e9c5842","ios":"levelo://app?vid=dd41551f-1c02-4a6f-a409-ed5c1e9c5842"},"vehicle_type_id":"4","last_reported":1706738810,"current_range_meters":0,"station_id":"ce4bh112rcd13ifvqda0","pricing_plan_id":"free"},{"bike_id":"9816c790-e56e-49e3-95e6-d95f99c4fc72","system_id":"levelo_inurba_marseille","lat":43.30642,"lon":5.401031,"is_reserved":false,"is_disabled":false,"rental_uris":{"android":"levelo://app?vid=9816c790-e56e-49e3-95e6-d95f99c4fc72","ios":"levelo://app?vid=9816c790-e56e-49e3-95e6-d95f99c4fc72"},"vehicle_type_id":"4","last_reported":1706738810,"current_range_meters":25600,"station_id":"ce4bh112rcd13ifvqda0","pricing_plan_id":"free"},{"bike_id":"42caae05-87d2-4215-9838-c482f306c229","system_id":"levelo_inurba_marseille","lat":43.301117,"lon":5.398795,"is_reserved":false,"is_disabled":false,"rental_uris":{"android":"levelo://app?vid=42caae05-87d2-4215-9838-c482f306c229","ios":"levelo://app?vid=42caae05-87d2-4215-9838-c482f306c229"},"vehicle_type_id":"4","last_reported":1706738810,"current_range_meters":20000,"station_id":"ce4bh0h2rcd13ifvqd40","pricing_plan_id":"free"},{"bike_id":"b7d3b81d-d85a-44b5-a0c7-8f9c9f74639e","system_id":"levelo_inurba_marseille","lat":43.337587,"lon":5.374576,"is_reserved":false,"is_disabled":false,"rental_uris":{"android":"levelo://app?vid=b7d3b81d-d85a-44b5-a0c7-8f9c9f74639e","ios":"levelo://app?vid=b7d3b81d-d85a-44b5-a0c7-8f9c9f74639e"},"vehicle_type_id":"4","last_reported":1706738810,"current_range_meters":14000,"station_id":"","pricing_plan_id":"free"},{"bike_id":"e5422b8c-f609-4b12-a0ff-5ee08b9c0c16","system_id":"levelo_inurba_marseille","lat":43.30642,"lon":5.401031,"is_reserved":false,"is_disabled":false,"rental_uris":{"android":"levelo://app?vid=e5422b8c-f609-4b12-a0ff-5ee08b9c0c16","ios":"levelo://app?vid=e5422b8c-f609-4b12-a0ff-5ee08b9c0c16"},"vehicle_type_id":"4","last_reported":1706738810,"current_range_meters":0,"station_id":"ce4bh112rcd13ifvqda0","pricing_plan_id":"free"},{"bike_id":"12568932-a9a7-4d52-8b2c-668683b75358","system_id":"levelo_inurba_marseille","lat":43.33754,"lon":5.375013,"is_reserved":false,"is_disabled":false,"rental_uris":{"android":"levelo://app?vid=12568932-a9a7-4d52-8b2c-668683b75358","ios":"levelo://app?vid=12568932-a9a7-4d52-8b2c-668683b75358"},"vehicle_type_id":"4","last_reported":1706738810,"current_range_meters":16000,"station_id":"","pricing_plan_id":"free"},{"bike_id":"1facbbf3-baac-42f8-85eb-cb1e36f3e4b9","system_id":"levelo_inurba_marseille","lat":43.337623,"lon":5.374883,"is_reserved":false,"is_disabled":false,"rental_uris":{"android":"levelo://app?vid=1facbbf3-baac-42f8-85eb-cb1e36f3e4b9","ios":"levelo://app?vid=1facbbf3-baac-42f8-85eb-cb1e36f3e4b9"},"vehicle_type_id":"4","last_reported":1706738810,"current_range_meters":2400,"station_id":"","pricing_plan_id":"free"},{"bike_id":"c1af2851-fa85-4dfe-a462-8112561b9750","system_id":"levelo_inurba_marseille","lat":43.30642,"lon":5.401031,"is_reserved":false,"is_disabled":false,"rental_uris":{"android":"levelo://app?vid=c1af2851-fa85-4dfe-a462-8112561b9750","ios":"levelo://app?vid=c1af2851-fa85-4dfe-a462-8112561b9750"},"vehicle_type_id":"4","last_reported":1706738810,"current_range_meters":0,"station_id":"ce4bh112rcd13ifvqda0","pricing_plan_id":"free"},{"bike_id":"fc8f7230-c127-43bb-a083-7e16494fc81e","system_id":"levelo_inurba_marseille","lat":43.30145,"lon":5.39848,"is_reserved":false,"is_disabled":false,"rental_uris":{"android":"levelo://app?vid=fc8f7230-c127-43bb-a083-7e16494fc81e","ios":"levelo://app?vid=fc8f7230-c127-43bb-a083-7e16494fc81e"},"vehicle_type_id":"4","last_reported":1706738810,"current_range_meters":0,"station_id":"ce4bh0h2rcd13ifvqd40","pricing_plan_id":"free"},{"bike_id":"eee1bd97-bb7d-4ef6-88ca-ee265fd2962f","system_id":"levelo_inurba_marseille","lat":43.301117,"lon":5.398795,"is_reserved":false,"is_disabled":false,"rental_uris":{"android":"levelo://app?vid=eee1bd97-bb7d-4ef6-88ca-ee265fd2962f","ios":"levelo://app?vid=eee1bd97-bb7d-4ef6-88ca-ee265fd2962f"},"vehicle_type_id":"4","last_reported":1706738810,"current_range_meters":15200,"station_id":"ce4bh0h2rcd13ifvqd40","pricing_plan_id":"free"},{"bike_id":"0a9c8c4f-b8ab-4fd4-b079-61a852011143","system_id":"levelo_inurba_marseille","lat":43.330171,"lon":5.392852,"is_reserved":false,"is_disabled":false,"rental_uris":{"android":"levelo://app?vid=0a9c8c4f-b8ab-4fd4-b079-61a852011143","ios":"levelo://app?vid=0a9c8c4f-b8ab-4fd4-b079-61a852011143"},"vehicle_type_id":"4","last_reported":1706738810,"current_range_meters":23600,"station_id":"","pricing_plan_id":"free"},{"bike_id":"303023ad-204c-4a03-bb4b-a6511d42bbc0","system_id":"levelo_inurba_marseille","lat":43.28727,"lon":5.36078,"is_reserved":false,"is_disabled":false,"rental_uris":{"android":"levelo://app?vid=303023ad-204c-4a03-bb4b-a6511d42bbc0","ios":"levelo://app?vid=303023ad-204c-4a03-bb4b-a6511d42bbc0"},"vehicle_type_id":"4","last_reported":1706738810,"current_range_meters":31200,"station_id":"cki0cbj6b192h4jlfktg","pricing_plan_id":"free"},{"bike_id":"3275148a-6e8a-454b-906f-781cf5153544","system_id":"levelo_inurba_marseille","lat":43.28727,"lon":5.36078,"is_reserved":false,"is_disabled":false,"rental_uris":{"android":"levelo://app?vid=3275148a-6e8a-454b-906f-781cf5153544","ios":"levelo://app?vid=3275148a-6e8a-454b-906f-781cf5153544"},"vehicle_type_id":"4","last_reported":1706738810,"current_range_meters":10400,"station_id":"cki0cbj6b192h4jlfktg","pricing_plan_id":"free"},{"bike_id":"515032a1-eab1-426c-97b4-1bb446e48d94","system_id":"levelo_inurba_marseille","lat":43.286591,"lon":5.363346,"is_reserved":false,"is_disabled":false,"rental_uris":{"android":"levelo://app?vid=515032a1-eab1-426c-97b4-1bb446e48d94","ios":"levelo://app?vid=515032a1-eab1-426c-97b4-1bb446e48d94"},"vehicle_type_id":"4","last_reported":1706738810,"current_range_meters":2000,"station_id":"ce4bhah2rcd13ifvqej0","pricing_plan_id":"free"},{"bike_id":"545e2fb8-27fd-465f-8c1a-ab93d373afa6","system_id":"levelo_inurba_marseille","lat":43.286961,"lon":5.373785,"is_reserved":false,"is_disabled":false,"rental_uris":{"android":"levelo://app?vid=545e2fb8-27fd-465f-8c1a-ab93d373afa6","ios":"levelo://app?vid=545e2fb8-27fd-465f-8c1a-ab93d373afa6"},"vehicle_type_id":"4","last_reported":1706738810,"current_range_meters":25200,"station_id":"ce4bh3p2rcd13ifvqdq0","pricing_plan_id":"free"},{"bike_id":"7869142d-4a88-4e51-bfb7-fcda9675011a","system_id":"levelo_inurba_marseille","lat":43.298821,"lon":5.397386,"is_reserved":false,"is_disabled":false,"rental_uris":{"android":"levelo://app?vid=7869142d-4a88-4e51-bfb7-fcda9675011a","ios":"levelo://app?vid=7869142d-4a88-4e51-bfb7-fcda9675011a"},"vehicle_type_id":"4","last_reported":1706738810,"current_range_meters":8000,"station_id":"ce4bh0h2rcd13ifvqd50","pricing_plan_id":"free"},{"bike_id":"14d0ef62-1764-41e7-af4c-4664d45255ba","system_id":"levelo_inurba_marseille","lat":43.295748,"lon":5.37522,"is_reserved":false,"is_disabled":false,"rental_uris":{"android":"levelo://app?vid=14d0ef62-1764-41e7-af4c-4664d45255ba","ios":"levelo://app?vid=14d0ef62-1764-41e7-af4c-4664d45255ba"},"vehicle_type_id":"4","last_reported":1706738810,"current_range_meters":20400,"station_id":"ce4bgh92rcd13ifvqb50","pricing_plan_id":"free"},{"bike_id":"d7922c66-1f47-4b12-8dd0-6b91a269dd19","system_id":"levelo_inurba_marseille","lat":43.286593,"lon":5.363346,"is_reserved":false,"is_disabled":false,"rental_uris":{"android":"levelo://app?vid=d7922c66-1f47-4b12-8dd0-6b91a269dd19","ios":"levelo://app?vid=d7922c66-1f47-4b12-8dd0-6b91a269dd19"},"vehicle_type_id":"4","last_reported":1706738810,"current_range_meters":22800,"station_id":"ce4bhah2rcd13ifvqej0","pricing_plan_id":"free"},{"bike_id":"13ea6016-14fe-4b0c-ae3b-9d538c889ace","system_id":"levelo_inurba_marseille","lat":43.29888,"lon":5.39745,"is_reserved":false,"is_disabled":false,"rental_uris":{"android":"levelo://app?vid=13ea6016-14fe-4b0c-ae3b-9d538c889ace","ios":"levelo://app?vid=13ea6016-14fe-4b0c-ae3b-9d538c889ace"},"vehicle_type_id":"4","last_reported":1706738810,"current_range_meters":18400,"station_id":"ce4bh0h2rcd13ifvqd50","pricing_plan_id":"free"},{"bike_id":"e4926e38-19bc-4a55-a993-00a2a02ebeba","system_id":"levelo_inurba_marseille","lat":43.286591,"lon":5.363346,"is_reserved":false,"is_disabled":false,"rental_uris":{"android":"levelo://app?vid=e4926e38-19bc-4a55-a993-00a2a02ebeba","ios":"levelo://app?vid=e4926e38-19bc-4a55-a993-00a2a02ebeba"},"vehicle_type_id":"4","last_reported":1706738810,"current_range_meters":12800,"station_id":"ce4bhah2rcd13ifvqej0","pricing_plan_id":"free"},{"bike_id":"90d06b13-6b45-4f00-af12-ae7d9325353a","system_id":"levelo_inurba_marseille","lat":43.298736,"lon":5.39738,"is_reserved":false,"is_disabled":false,"rental_uris":{"android":"levelo://app?vid=90d06b13-6b45-4f00-af12-ae7d9325353a","ios":"levelo://app?vid=90d06b13-6b45-4f00-af12-ae7d9325353a"},"vehicle_type_id":"4","last_reported":1706738810,"current_range_meters":26800,"station_id":"ce4bh0h2rcd13ifvqd50","pricing_plan_id":"free"},{"bike_id":"d7019626-d807-43d2-842e-bb2ee3740196","system_id":"levelo_inurba_marseille","lat":43.296684,"lon":5.395428,"is_reserved":false,"is_disabled":false,"rental_uris":{"android":"levelo://app?vid=d7019626-d807-43d2-842e-bb2ee3740196","ios":"levelo://app?vid=d7019626-d807-43d2-842e-bb2ee3740196"},"vehicle_type_id":"4","last_reported":1706738810,"current_range_meters":29600,"station_id":"","pricing_plan_id":"free"},{"bike_id":"fc619683-ab24-4493-b771-f698aec1c7a4","system_id":"levelo_inurba_marseille","lat":43.286961,"lon":5.373785,"is_reserved":false,"is_disabled":false,"rental_uris":{"android":"levelo://app?vid=fc619683-ab24-4493-b771-f698aec1c7a4","ios":"levelo://app?vid=fc619683-ab24-4493-b771-f698aec1c7a4"},"vehicle_type_id":"4","last_reported":1706738810,"current_range_meters":8000,"station_id":"ce4bh3p2rcd13ifvqdq0","pricing_plan_id":"free"},{"bike_id":"ce9e77d2-ffa4-400e-a193-59528db8e58a","system_id":"levelo_inurba_marseille","lat":43.286609,"lon":5.363487,"is_reserved":false,"is_disabled":false,"rental_uris":{"android":"levelo://app?vid=ce9e77d2-ffa4-400e-a193-59528db8e58a","ios":"levelo://app?vid=ce9e77d2-ffa4-400e-a193-59528db8e58a"},"vehicle_type_id":"4","last_reported":1706738810,"current_range_meters":4800,"station_id":"ce4bhah2rcd13ifvqej0","pricing_plan_id":"free"},{"bike_id":"455d74e2-1eea-4946-89d3-303afc03399e","system_id":"levelo_inurba_marseille","lat":43.286961,"lon":5.373785,"is_reserved":false,"is_disabled":false,"rental_uris":{"android":"levelo://app?vid=455d74e2-1eea-4946-89d3-303afc03399e","ios":"levelo://app?vid=455d74e2-1eea-4946-89d3-303afc03399e"},"vehicle_type_id":"4","last_reported":1706738810,"current_range_meters":18800,"station_id":"ce4bh3p2rcd13ifvqdq0","pricing_plan_id":"free"},{"bike_id":"ebc611aa-b285-448e-92f7-809af1cd4a76","system_id":"levelo_inurba_marseille","lat":43.295194,"lon":5.39397,"is_reserved":false,"is_disabled":false,"rental_uris":{"android":"levelo://app?vid=ebc611aa-b285-448e-92f7-809af1cd4a76","ios":"levelo://app?vid=ebc611aa-b285-448e-92f7-809af1cd4a76"},"vehicle_type_id":"4","last_reported":1706738810,"current_range_meters":13600,"station_id":"ce4bh292rcd13ifvqdf0","pricing_plan_id":"free"},