{"last_updated":1744319351,"ttl":60,"version":"2.2","data":{"bikes":[{"bike_id":"854e9247-501e-4767-9cfb-cb4e7af9e11b","system_id":"levelo_inurba_marseille","lat":43.288785,"lon":5.400282,"is_reserved":false,"is_disabled":false,"rental_uris":{"android":"levelo://app?vid=854e9247-501e-4767-9cfb-cb4e7af9e11b","ios":"levelo://app?vid=854e9247-501e-4767-9cfb-cb4e7af9e11b"},"vehicle_type_id":"4","last_reported":1744319351,"current_range_meters":2800,"station_id":"ce4bh3p2rcd13ifvqdp0","pricing_plan_id":"cebpf4jnsgd1na2vs0mg"},{"bike_id":"24737465-000f-49ad-84a0-cc0ed1ea5895","system_id":"levelo_inurba_marseille","lat":43.25501,"lon":5.37649,"is_reserved":false,"is_disabled":false,"rental_uris":{"android":"levelo://app?vid=24737465-000f-49ad-84a0-cc0ed1ea5895","ios":"levelo://app?vid=24737465-000f-49ad-84a0-cc0ed1ea5895"},"vehicle_type_id":"4","last_reported":1744319351,"current_range_meters":2800,"station_id":"ce4bhh12rcd13ifvqff0","pricing_plan_id":"cebpf4jnsgd1na2vs0mg"},{"bike_id":"3a5d5587-b23d-4114-aad1-1efc1909a514","system_id":"levelo_inurba_marseille","lat":43.27861,"lon":5.37973,"is_reserved":false,"is_disabled":true,"rental_uris":{"android":"levelo://app?vid=3a5d5587-b23d-4114-aad1-1efc1909a514","ios":"levelo://app?vid=3a5d5587-b23d-4114-aad1-1efc1909a514"},"vehicle_type_id":"4","last_reported":1744319351,"current_range_meters":2800,"station_id":"ce4bhf92rcd13ifvqf50","pricing_plan_id":"cebpf4jnsgd1na2vs0mg"},{"bike_id":"a0560825-d8d7-43cd-a0d8-469e5ac058d2","system_id":"levelo_inurba_marseille","lat":43.29935,"lon":5.3655,"is_reserved":false,"is_disabled":false,"rental_uris":{"android":"levelo://app?vid=a0560825-d8d7-43cd-a0d8-469e5ac058d2","ios":"levelo://app?vid=a0560825-d8d7-43cd-a0d8-469e5ac058d2"},"vehicle_type_id":"4","last_reported":1744319351,"current_range_meters":2800,"station_id":"ce4bgm92rcd13ifvqbr0","pricing_plan_id":"cebpf4jnsgd1na2vs0mg"},{"bike_id":"da272a9a-8117-4f01-a128-9997917382f4","system_id":"levelo_inurba_marseille","lat":43.30915,"lon":5.40141,"is_reserved":false,"is_disabled":false,"rental_uris":{"android":"levelo://app?vid=da272a9a-8117-4f01-a128-9997917382f4","ios":"levelo://app?vid=da272a9a-8117-4f01-a128-9997917382f4"},"vehicle_type_id":"4","last_reported":1744319351,"current_range_meters":3200,"station_id":"ce4bgvp2rcd13ifvqct0","pricing_plan_id":"cebpf4jnsgd1na2vs0mg"},{"bike_id":"807456d8-87c0-4fc6-b876-d1e72ab7ed13","system_id":"levelo_inurba_marseille","lat":43.28342,"lon":5.38127,"is_reserved":false,"is_disabled":false,"rental_uris":{"android":"levelo://app?vid=807456d8-87c0-4fc6-b876-d1e72ab7ed13","ios":"levelo://app?vid=807456d8-87c0-4fc6-b876-d1e72ab7ed13"},"vehicle_type_id":"4","last_reported":1744319351,"current_range_meters":3200,"station_id":"ce4bh412rcd13ifvqdr0","pricing_plan_id":"cebpf4jnsgd1na2vs0mg"},{"bike_id":"8a2a7530-b0ff-4b03-b2ae-418757c33226","system_id":"levelo_inurba_marseille","lat":43.29905,"lon":5.37475,"is_reserved":false,"is_disabled":false,"rental_uris":{"android":"levelo://app?vid=8a2a7530-b0ff-4b03-b2ae-418757c33226","ios":"levelo://app?vid=8a2a7530-b0ff-4b03-b2ae-418757c33226"},"vehicle_type_id":"4","last_reported":1744319351,"current_range_meters":3200,"station_id":"ce4bgjh2rcd13ifvqbg0","pricing_plan_id":"cebpf4jnsgd1na2vs0mg"},{"bike_id":"0b27a068-eb9c-434f-b643-a15f24e5d3d7","system_id":"levelo_inurba_marseille","lat":43.2815,"lon":5.42648,"is_reserved":false,"is_disabled":false,"rental_uris":{"android":"levelo://app?vid=0b27a068-eb9c-434f-b643-a15f24e5d3d7","ios":"levelo://app?vid=0b27a068-eb9c-434f-b643-a15f24e5d3d7"},"vehicle_type_id":"4","last_reported":1744319351,"current_range_meters":3600,"station_id":"ce4bhnh2rcd13ifvqgug","pricing_plan_id":"cebpf4jnsgd1na2vs0mg"},{"bike_id":"7a06fc79-e49d-4778-9cec-9bdf00b92342","system_id":"levelo_inurba_marseille","lat":43.303147,"lon":5.404397,"is_reserved":false,"is_disabled":true,"rental_uris":{"android":"levelo://app?vid=7a06fc79-e49d-4778-9cec-9bdf00b92342","ios":"levelo://app?vid=7a06fc79-e49d-4778-9cec-9bdf00b92342"},"vehicle_type_id":"4","last_reported":1744319351,"current_range_meters":3600,"station_id":"ce4bh012rcd13ifvqd10","pricing_plan_id":"cebpf4jnsgd1na2vs0mg"},{"bike_id":"999b1eac-ce5f-4dad-a389-e440d4b2ed05","system_id":"levelo_inurba_marseille","lat":43.26778,"lon":5.394131,"is_reserved":false,"is_disabled":true,"rental_uris":{"android":"levelo://app?vid=999b1eac-ce5f-4dad-a389-e440d4b2ed05","ios":"levelo://app?vid=999b1eac-ce5f-4dad-a389-e440d4b2ed05"},"vehicle_type_id":"4","last_reported":1744319351,"current_range_meters":3600,"station_id":"ce4bhh12rcd13ifvqfg0","pricing_plan_id":"cebpf4jnsgd1na2vs0mg"},{"bike_id":"08f9c0c8-8b33-4578-8a03-20f44d582241","system_id":"levelo_inurba_marseille","lat":43.305286,"lon":5.369431,"is_reserved":false,"is_disabled":false,"rental_uris":{"android":"levelo://app?vid=08f9c0c8-8b33-4578-8a03-20f44d582241","ios":"levelo://app?vid=08f9c0c8-8b33-4578-8a03-20f44d582241"},"vehicle_type_id":"4","last_reported":1744319351,"current_range_meters":3600,"station_id":"","pricing_plan_id":"cebpf4jnsgd1na2vs0mg"},{"bike_id":"c93b8155-102a-45aa-905a-566f8b1c281d","system_id":"levelo_inurba_marseille","lat":43.29274,"lon":5.40126,"is_reserved":false,"is_disabled":false,"rental_uris":{"android":"levelo://app?vid=c93b8155-102a-45aa-905a-566f8b1c281d","ios":"levelo://app?vid=c93b8155-102a-45aa-905a-566f8b1c281d"},"vehicle_type_id":"4","last_reported":1744319351,"current_range_meters":3600,"station_id":"ce4bh312rcd13ifvqdk0","pricing_plan_id":"cebpf4jnsgd1na2vs0mg"},{"bike_id":"345a27ac-b42f-4e35-9473-442738ecfb0c","system_id":"levelo_inurba_marseille","lat":43.283852,"lon":5.375155,"is_reserved":false,"is_disabled":false,"rental_uris":{"android":"levelo://app?vid=345a27ac-b42f-4e35-9473-442738ecfb0c","ios":"levelo://app?vid=345a27ac-b42f-4e35-9473-442738ecfb0c"},"vehicle_type_id":"4","last_reported":1744319351,"current_range_meters":3600,"station_id":"","pricing_plan_id":"cebpf4jnsgd1na2vs0mg"},{"bike_id":"28c2ee12-2948-4d1e-8706-f445681bfdff","system_id":"levelo_inurba_marseille","lat":43.31644,"lon":5.38762,"is_reserved":false,"is_disabled":true,"rental_uris":{"android":"levelo://app?vid=28c2ee12-2948-4d1e-8706-f445681bfdff","ios":"levelo://app?vid=28c2ee12-2948-4d1e-8706-f445681bfdff"},"vehicle_type_id":"4","last_reported":1744319351,"current_range_meters":3600,"station_id":"","pricing_plan_id":"cebpf4jnsgd1na2vs0mg"},{"bike_id":"1d51e0f7-178c-4ae3-88a2-488d4f01b826","system_id":"levelo_inurba_marseille","lat":43.28149,"lon":5.42387,"is_reserved":false,"is_disabled":false,"rental_uris":{"android":"levelo://app?vid=1d51e0f7-178c-4ae3-88a2-488d4f01b826","ios":"levelo://app?vid=1d51e0f7-178c-4ae3-88a2-488d4f01b826"},"vehicle_type_id":"4","last_reported":1744319351,"current_range_meters":4000,"station_id":"","pricing_plan_id":"cebpf4jnsgd1na2vs0mg"},{"bike_id":"a1675bd0-1410-477c-86a8-cfdebb45a55a","system_id":"levelo_inurba_marseille","lat":43.28355,"lon":5.381,"is_reserved":false,"is_disabled":true,"rental_uris":{"android":"levelo://app?vid=a1675bd0-1410-477c-86a8-cfdebb45a55a","ios":"levelo://app?vid=a1675bd0-1410-477c-86a8-cfdebb45a55a"},"vehicle_type_id":"4","last_reported":1744319351,"current_range_meters":4000,"station_id":"ce4bh412rcd13ifvqdr0","pricing_plan_id":"cebpf4jnsgd1na2vs0mg"},{"bike_id":"548968af-d36e-4f9a-a6f9-7c528b641e3e","system_id":"levelo_inurba_marseille","lat":43.299755,"lon":5.371776,"is_reserved":false,"is_disabled":false,"rental_uris":{"android":"levelo://app?vid=548968af-d36e-4f9a-a6f9-7c528b641e3e","ios":"levelo://app?vid=548968af-d36e-4f9a-a6f9-7c528b641e3e"},"vehicle_type_id":"4","last_reported":1744319351,"current_range_meters":4000,"station_id":"ce4bgr92rcd13ifvqc7g","pricing_plan_id":"cebpf4jnsgd1na2vs0mg"},{"bike_id":"4e586dd9-df43-4fb1-adc0-764a36ef2b80","system_id":"levelo_inurba_marseille","lat":43.30114,"lon":5.3907,"is_reserved":false,"is_disabled":false,"rental_uris":{"android":"levelo://app?vid=4e586dd9-df43-4fb1-adc0-764a36ef2b80","ios":"levelo://app?vid=4e586dd9-df43-4fb1-adc0-764a36ef2b80"},"vehicle_type_id":"4","last_reported":1744319351,"current_range_meters":4000,"station_id":"ce4bh192rcd13ifvqdb0","pricing_plan_id":"cebpf4jnsgd1na2vs0mg"},{"bike_id":"f0e98d81-0117-4b68-ad1c-512aceae0e2e","system_id":"levelo_inurba_marseille","lat":43.29077,"lon":5.38167,"is_reserved":false,"is_disabled":false,"rental_uris":{"android":"levelo://app?vid=f0e98d81-0117-4b68-ad1c-512aceae0e2e","ios":"levelo://app?vid=f0e98d81-0117-4b68-ad1c-512aceae0e2e"},"vehicle_type_id":"4","last_reported":1744319351,"current_range_meters":4000,"station_id":"ce4bh512rcd13ifvqe2g","pricing_plan_id":"cebpf4jnsgd1na2vs0mg"},{"bike_id":"74fb6ada-5912-4908-9bc3-7b7c6b0830fc","system_id":"levelo_inurba_marseille","lat":43.24687,"lon":5.41195,"is_reserved":false,"is_disabled":false,"rental_uris":{"android":"levelo://app?vid=74fb6ada-5912-4908-9bc3-7b7c6b0830fc","ios":"levelo://app?vid=74fb6ada-5912-4908-9bc3-7b7c6b0830fc"},"vehicle_type_id":"4","last_reported":1744319351,"current_range_meters":4000,"station_id":"","pricing_plan_id":"cebpf4jnsgd1na2vs0mg"},{"bike_id":"da20bb83-0b50-4883-a18b-53bdec1d86f6","system_id":"levelo_inurba_marseille","lat":43.30794,"lon":5.38149,"is_reserved":false,"is_disabled":false,"rental_uris":{"android":"levelo://app?vid=da20bb83-0b50-4883-a18b-53bdec1d86f6","ios":"levelo://app?vid=da20bb83-0b50-4883-a18b-53bdec1d86f6"},"vehicle_type_id":"4","last_reported":1744319351,"current_range_meters":4400,"station_id":"ce4bgt12rcd13ifvqce0","pricing_plan_id":"cebpf4jnsgd1na2vs0mg"},{"bike_id":"f8f502b1-1863-451b-bc2e-a4d3e18afa6b","system_id":"levelo_inurba_marseille","lat":43.29968,"lon":5.37173,"is_reserved":false,"is_disabled":false,"rental_uris":{"android":"levelo://app?vid=f8f502b1-1863-451b-bc2e-a4d3e18afa6b","ios":"levelo://app?vid=f8f502b1-1863-451b-bc2e-a4d3e18afa6b"},"vehicle_type_id":"4","last_reported":1744319351,"current_range_meters":4400,"station_id":"ce4bgr92rcd13ifvqc7g","pricing_plan_id":"cebpf4jnsgd1na2vs0mg"},{"bike_id":"cdf7f30c-b91f-42b3-b758-22ad26becd66","system_id":"levelo_inurba_marseille","lat":43.290294,"lon":5.359203,"is_reserved":false,"is_disabled":true,"rental_uris":{"android":"levelo://app?vid=cdf7f30c-b91f-42b3-b758-22ad26becd66","ios":"levelo://app?vid=cdf7f30c-b91f-42b3-b758-22ad26becd66"},"vehicle_type_id":"4","last_reported":1744319351,"current_range_meters":4800,"station_id":"ce4bha92rcd13ifvqeg0","pricing_plan_id":"cebpf4jnsgd1na2vs0mg"},{"bike_id":"488970c7-ad85-4166-a4ad-456252c5bcc5","system_id":"levelo_inurba_marseille","lat":43.2728,"lon":5.42959,"is_reserved":false,"is_disabled":false,"rental_uris":{"android":"levelo://app?vid=488970c7-ad85-4166-a4ad-456252c5bcc5","ios":"levelo://app?vid=488970c7-ad85-4166-a4ad-456252c5bcc5"},"vehicle_type_id":"4","last_reported":1744319351,"current_range_meters":4800,"station_id":"","pricing_plan_id":"cebpf4jnsgd1na2vs0mg"},{"bike_id":"a4e712d6-a598-44c2-bfae-ca2721fbcd57","system_id":"levelo_inurba_marseille","lat":43.30321,"lon":5.40446,"is_reserved":false,"is_disabled":false,"rental_uris":{"android":"levelo://app?vid=a4e712d6-a598-44c2-bfae-ca2721fbcd57","ios":"levelo://app?vid=a4e712d6-a598-44c2-bfae-ca2721fbcd57"},"vehicle_type_id":"4","last_reported":1744319351,"current_range_meters":5600,"station_id":"ce4bh012rcd13ifvqd10","pricing_plan_id":"cebpf4jnsgd1na2vs0mg"},{"bike_id":"1267db40-6d6c-4330-868f-899c68077393","system_id":"levelo_inurba_marseille","lat":43.28837,"lon":5.39322,"is_reserved":false,"is_disabled":false,"rental_uris":{"android":"levelo://app?vid=1267db40-6d6c-4330-868f-899c68077393","ios":"levelo://app?vid=1267db40-6d6c-4330-868f-899c68077393"},"vehicle_type_id":"4","last_reported":1744319351,"current_range_meters":5600,"station_id":"ce4bh2p2rcd13ifvqdi0","pricing_plan_id":"cebpf4jnsgd1na2vs0mg"},{"bike_id":"508b362c-971e-41d0-9a97-522956b1a8d5","system_id":"levelo_inurba_marseille","lat":43.29709,"lon":5.36612,"is_reserved":false,"is_disabled":false,"rental_uris":{"android":"levelo://app?vid=508b362c-971e-41d0-9a97-522956b1a8d5","ios":"levelo://app?vid=508b362c-971e-41d0-9a97-522956b1a8d5"},"vehicle_type_id":"4","last_reported":1744319351,"current_range_meters":6000,"station_id":"ce4bgn12rcd13ifvqbt0","pricing_plan_id":"cebpf4jnsgd1na2vs0mg"},{"bike_id":"c7352aa9-58f5-4570-a406-7bfc8199cb4c","system_id":"levelo_inurba_marseille","lat":43.27496,"lon":5.4244,"is_reserved":false,"is_disabled":false,"rental_uris":{"android":"levelo://app?vid=c7352aa9-58f5-4570-a406-7bfc8199cb4c","ios":"levelo://app?vid=c7352aa9-58f5-4570-a406-7bfc8199cb4c"},"vehicle_type_id":"4","last_reported":1744319351,"current_range_meters":6000,"station_id":"ce4bhn92rcd13ifvqgrg","pricing_plan_id":"cebpf4jnsgd1na2vs0mg"},{"bike_id":"2fb17732-7ddb-472f-8dd5-b6995555a840","system_id":"levelo_inurba_marseille","lat":43.2925,"lon":5.40903,"is_reserved":false,"is_disabled":false,"rental_uris":{"android":"levelo://app?vid=2fb17732-7ddb-472f-8dd5-b6995555a840","ios":"levelo://app?vid=2fb17732-7ddb-472f-8dd5-b6995555a840"},"vehicle_type_id":"4","last_reported":1744319351,"current_range_meters":6000,"station_id":"ce4bh192rcd13ifvqdc0","pricing_plan_id":"cebpf4jnsgd1na2vs0mg"},{"bike_id":"abdd9c59-7e1b-41aa-95d4-d84a8fba690a","system_id":"levelo_inurba_marseille","lat":43.31115,"lon":5.37776,"is_reserved":false,"is_disabled":false,"rental_uris":{"android":"levelo://app?vid=abdd9c59-7e1b-41aa-95d4-d84a8fba690a","ios":"levelo://app?vid=abdd9c59-7e1b-41aa-95d4-d84a8fba690a"},"vehicle_type_id":"4","last_reported":1744319351,"current_range_meters":5600,"station_id":"ce4bgt92rcd13ifvqcg0","pricing_plan_id":"cebpf4jnsgd1na2vs0mg"},{"bike_id":"49cc619b-8e3a-4bbc-b031-da3c7b361d76","system_id":"levelo_inurba_marseille","lat":43.29621,"lon":5.38067,"is_reserved":false,"is_disabled":false,"rental_uris":{"android":"levelo://app?vid=49cc619b-8e3a-4bbc-b031-da3c7b361d76","ios":"levelo://app?vid=49cc619b-8e3a-4bbc-b031-da3c7b361d76"},"vehicle_type_id":"4","last_reported":1744319351,"current_range_meters":6000,"station_id":"ce4bgl12rcd13ifvqbo0","pricing_plan_id":"cebpf4jnsgd1na2vs0mg"},{"bike_id":"27cb0a2d-b2f3-4d2b-bbc0-f26938d380ef","system_id":"levelo_inurba_marseille","lat":43.287011,"lon":5.373893,"is_reserved":false,"is_disabled":false,"rental_uris":{"android":"levelo://app?vid=27cb0a2d-b2f3-4d2b-bbc0-f26938d380ef","ios":"levelo://app?vid=27cb0a2d-b2f3-4d2b-bbc0-f26938d380ef"},"vehicle_type_id":"4","last_reported":1744319351,"current_range_meters":6000,"station_id":"ce4bh3p2rcd13ifvqdq0","pricing_plan_id":"cebpf4jnsgd1na2vs0mg"},{"bike_id":"531ea7bc-0ea5-405f-b10e-02c906a73837","system_id":"levelo_inurba_marseille","lat":43.289387,"lon":5.37846,"is_reserved":false,"is_disabled":false,"rental_uris":{"android":"levelo://app?vid=531ea7bc-0ea5-405f-b10e-02c906a73837","ios":"levelo://app?vid=531ea7bc-0ea5-405f-b10e-02c906a73837"},"vehicle_type_id":"4","last_reported":1744319351,"current_range_meters":6400,"station_id":"ce4bh9p2rcd13ifvqed0","pricing_plan_id":"cebpf4jnsgd1na2vs0mg"},{"bike_id":"9b704737-af43-40c2-b70e-9e4ddeb764b6","system_id":"levelo_inurba_marseille","lat":43.230781,"lon":5.354945,"is_reserved":false,"is_disabled":false,"rental_uris":{"android":"levelo://app?vid=9b704737-af43-40c2-b70e-9e4ddeb764b6","ios":"levelo://app?vid=9b704737-af43-40c2-b70e-9e4ddeb764b6"},"vehicle_type_id":"4","last_reported":1744319351,"current_range_meters":6400,"station_id":"cpo3342slgdg3j2ifvpg","pricing_plan_id":"cebpf4jnsgd1na2vs0mg"},{"bike_id":"b760f0fb-be63-403f-92fd-59130ecffa59","system_id":"levelo_inurba_marseille","lat":43.29204,"lon":5.39326,"is_reserved":false,"is_disabled":false,"rental_uris":{"android":"levelo://app?vid=b760f0fb-be63-403f-92fd-59130ecffa59","ios":"levelo://app?vid=b760f0fb-be63-403f-92fd-59130ecffa59"},"vehicle_type_id":"4","last_reported":1744319351,"current_range_meters":6400,"station_id":"ce4bh192rcd13ifvqdd0","pricing_plan_id":"cebpf4jnsgd1na2vs0mg"},{"bike_id":"7615ce65-68df-4d79-919c-d391d6e3ecf1","system_id":"levelo_inurba_marseille","lat":43.29866,"lon":5.39733,"is_reserved":false,"is_disabled":false,"rental_uris":{"android":"levelo://app?vid=7615ce65-68df-4d79-919c-d391d6e3ecf1","ios":"levelo://app?vid=7615ce65-68df-4d79-919c-d391d6e3ecf1"},"vehicle_type_id":"4","last_reported":1744319351,"current_range_meters":6400,"station_id":"ce4bh0h2rcd13ifvqd50","pricing_plan_id":"cebpf4jnsgd1na2vs0mg"},{"bike_id":"16e530bd-c628-4813-aaee-bc16c68ce937","system_id":"levelo_inurba_marseille","lat":43.3021,"lon":5.39474,"is_reserved":false,"is_disabled":false,"rental_uris":{"android":"levelo://app?vid=16e530bd-c628-4813-aaee-bc16c68ce937","ios":"levelo://app?vid=16e530bd-c628-4813-aaee-bc16c68ce937"},"vehicle_type_id":"4","last_reported":1744319351,"current_range_meters":6400,"station_id":"ce4bh0p2rcd13ifvqd70","pricing_plan_id":"cebpf4jnsgd1na2vs0mg"},{"bike_id":"2f8b7045-1229-4650-8109-60310f348b8b","system_id":"levelo_inurba_marseille","lat":43.2951,"lon":5.38559,"is_reserved":false,"is_disabled":false,"rental_uris":{"android":"levelo://app?vid=2f8b7045-1229-4650-8109-60310f348b8b","ios":"levelo://app?vid=2f8b7045-1229-4650-8109-60310f348b8b"},"vehicle_type_id":"4","last_reported":1744319351,"current_range_meters":6400,"station_id":"ce4bgih2rcd13ifvqba0","pricing_plan_id":"cebpf4jnsgd1na2vs0mg"},{"bike_id":"a1451a1f-835a-4861-997a-faa2bbe05c1b","system_id":"levelo_inurba_marseille","lat":43.28109,"lon":5.37849,"is_reserved":false,"is_disabled":false,"rental_uris":{"android":"levelo://app?vid=a1451a1f-835a-4861-997a-faa2bbe05c1b","ios":"levelo://app?vid=a1451a1f-835a-4861-997a-faa2bbe05c1b"},"vehicle_type_id":"4","last_reported":1744319351,"current_range_meters":6800,"station_id":"ce4bha12rcd13ifvqee0","pricing_plan_id":"cebpf4jnsgd1na2vs0mg"},{"bike_id":"fff87a7f-6766-4f8a-8d22-1d9d21fe9e0d","system_id":"levelo_inurba_marseille","lat":43.288487,"lon":5.39326,"is_reserved":false,"is_disabled":true,"rental_uris":{"android":"levelo://app?vid=fff87a7f-6766-4f8a-8d22-1d9d21fe9e0d","ios":"levelo://app?vid=fff87a7f-6766-4f8a-8d22-1d9d21fe9e0d"},"vehicle_type_id":"4","last_reported":1744319351,"current_range_meters":6800,"station_id":"ce4bh2p2rcd13ifvqdi0","pricing_plan_id":"cebpf4jnsgd1na2vs0mg"},{"bike_id":"dcc9983c-d60f-4262-8945-210798c1264c","system_id":"levelo_inurba_marseille","lat":43.316728,"lon":5.404779,"is_reserved":false,"is_disabled":false,"rental_uris":{"android":"levelo://app?vid=dcc9983c-d60f-4262-8945-210798c1264c","ios":"levelo://app?vid=dcc9983c-d60f-4262-8945-210798c1264c"},"vehicle_type_id":"4","last_reported":1744319351,"current_range_meters":6800,"station_id":"ce4bh012rcd13ifvqd00","pricing_plan_id":"cebpf4jnsgd1na2vs0mg"},{"bike_id":"e05c1e2a-1ed0-4ae5-8a58-08e26deb95b9","system_id":"levelo_inurba_marseille","lat":43.28735,"lon":5.44777,"is_reserved":false,"is_disabled":false,"rental_uris":{"android":"levelo://app?vid=e05c1e2a-1ed0-4ae5-8a58-08e26deb95b9","ios":"levelo://app?vid=e05c1e2a-1ed0-4ae5-8a58-08e26deb95b9"},"vehicle_type_id":"4","last_reported":1744319351,"current_range_meters":6800,"station_id":"","pricing_plan_id":"cebpf4jnsgd1na2vs0mg"},{"bike_id":"384409a7-d90c-4de4-9d37-348ba3536c2a","system_id":"levelo_inurba_marseille","lat":43.2465,"lon":5.38891,"is_reserved":false,"is_disabled":false,"rental_uris":{"android":"levelo://app?vid=384409a7-d90c-4de4-9d37-348ba3536c2a","ios":"levelo://app?vid=384409a7-d90c-4de4-9d37-348ba3536c2a"},"vehicle_type_id":"4","last_reported":1744319351,"current_range_meters":6800,"station_id":"ce4bhg12rcd13ifvqf60","pricing_plan_id":"cebpf4jnsgd1na2vs0mg"},{"bike_id":"ada5543b-de3a-490b-a38f-0ca4cbdf745f","system_id":"levelo_inurba_marseille","lat":43.24662,"lon":5.38172,"is_reserved":false,"is_disabled":false,"rental_uris":{"android":"levelo://app?vid=ada5543b-de3a-490b-a38f-0ca4cbdf745f","ios":"levelo://app?vid=ada5543b-de3a-490b-a38f-0ca4cbdf745f"},"vehicle_type_id":"4","last_reported":1744319351,"current_range_meters":6800,"station_id":"ce4bhih2rcd13ifvqfr0","pricing_plan_id":"cebpf4jnsgd1na2vs0mg"},{"bike_id":"0034db4b-efd6-4119-a358-80e858a45e83","system_id":"levelo_inurba_marseille","lat":43.31751,"lon":5.38918,"is_reserved":false,"is_disabled":false,"rental_uris":{"android":"levelo://app?vid=0034db4b-efd6-4119-a358-80e858a45e83","ios":"levelo://app?vid=0034db4b-efd6-4119-a358-80e858a45e83"},"vehicle_type_id":"4","last_reported":1744319351,"current_range_meters":6800,"station_id":"","pricing_plan_id":"cebpf4jnsgd1na2vs0mg"},{"bike_id":"af2e0b3c-8b5f-4f69-a744-c11307ddb3b9","system_id":"levelo_inurba_marseille","lat":43.306677,"lon":5.400907,"is_reserved":false,"is_disabled":false,"rental_uris":{"android":"levelo://app?vid=af2e0b3c-8b5f-4f69-a744-c11307ddb3b9","ios":"levelo://app?vid=af2e0b3c-8b5f-4f69-a744-c11307ddb3b9"},"vehicle_type_id":"4","last_reported":1744319351,"current_range_meters":6800,"station_id":"ce4bh112rcd13ifvqda0","pricing_plan_id":"cebpf4jnsgd1na2vs0mg"},{"bike_id":"11759475-6145-4871-9f00-00fc7a68c553","system_id":"levelo_inurba_marseille","lat":43.29426,"lon":5.38658,"is_reserved":false,"is_disabled":false,"rental_uris":{"android":"levelo://app?vid=11759475-6145-4871-9f00-00fc7a68c553","ios":"levelo://app?vid=11759475-6145-4871-9f00-00fc7a68c553"},"vehicle_type_id":"4","last_reported":1744319351,"current_range_meters":6800,"station_id":"ce4bh2h2rcd13ifvqdh0","pricing_plan_id":"cebpf4jnsgd1na2vs0mg"},{"bike_id":"2d669599-b9b5-4fc1-85ab-8c7d72566bf5","system_id":"levelo_inurba_marseille","lat":43.304626,"lon":5.379051,"is_reserved":false,"is_disabled":false,"rental_uris":{"android":"levelo://app?vid=2d669599-b9b5-4fc1-85ab-8c7d72566bf5","ios":"levelo://app?vid=2d669599-b9b5-4fc1-85ab-8c7d72566bf5"},"vehicle_type_id":"4","last_reported":1744319351,"current_range_meters":6800,"station_id":"ce4bgup2rcd13ifvqcn0","pricing_plan_id":"cebpf4jnsgd1na2vs0mg"},{"bike_id":"8c876ded-2351-4a40-b46f-d37e31decbcd","system_id":"levelo_inurba_marseille","lat":43.23186,"lon":5.39986,"is_reserved":false,"is_disabled":false,"rental_uris":{"android":"levelo://app?vid=8c876ded-2351-4a40-b46f-d37e31decbcd","ios":"levelo://app?vid=8c876ded-2351-4a40-b46f-d37e31decbcd"},"vehicle_type_id":"4","last_reported":1744319351,"current_range_meters":6800,"station_id":"ce4bhn12rcd13ifvqgqg","pricing_plan_id":"cebpf4jnsgd1na2vs0mg"},{"bike_id":"72c3168c-baf7-40e8-868c-731da670395c","system_id":"levelo_inurba_marseille","lat":43.30928,"lon":5.40142,"is_reserved":false,"is_disabled":false,"rental_uris":{"android":"levelo://app?vid=72c3168c-baf7-40e8-868c-731da670395c","ios":"levelo://app?vid=72c3168c-baf7-40e8-868c-731da670395c"},"vehicle_type_id":"4","last_reported":1744319351,"current_range_meters":7200,"station_id":"ce4bgvp2rcd13ifvqct0","pricing_plan_id":"cebpf4jnsgd1na2vs0mg"},{"bike_id":"98bde375-1946-4247-9779-ef60c95239a6","system_id":"levelo_inurba_marseille","lat":43.30787,"lon":5.43523,"is_reserved":false,"is_disabled":false,"rental_uris":{"android":"levelo://app?vid=98bde375-1946-4247-9779-ef60c95239a6","ios":"levelo://app?vid=98bde375-1946-4247-9779-ef60c95239a6"},"vehicle_type_id":"4","last_reported":1744319351,"current_range_meters":7200,"station_id":"ce4bhph2rcd13ifvqheg","pricing_plan_id":"cebpf4jnsgd1na2vs0mg"},{"bike_id":"8cb01b2e-bd48-4d6d-a6d8-32fa94eb40ba","system_id":"levelo_inurba_marseille","lat":43.29533,"lon":5.38539,"is_reserved":false,"is_disabled":false,"rental_uris":{"android":"levelo://app?vid=8cb01b2e-bd48-4d6d-a6d8-32fa94eb40ba","ios":"levelo://app?vid=8cb01b2e-bd48-4d6d-a6d8-32fa94eb40ba"},"vehicle_type_id":"4","last_reported":1744319351,"current_range_meters":7200,"station_id":"ce4bgih2rcd13ifvqba0","pricing_plan_id":"cebpf4jnsgd1na2vs0mg"},{"bike_id":"83c132b1-a954-4d5a-a32d-9f99af4faa3c","system_id":"levelo_inurba_marseille","lat":43.30924,"lon":5.4151,"is_reserved":false,"is_disabled":false,"rental_uris":{"android":"levelo://app?vid=83c132b1-a954-4d5a-a32d-9f99af4faa3c","ios":"levelo://app?vid=83c132b1-a954-4d5a-a32d-9f99af4faa3c"},"vehicle_type_id":"4","last_reported":1744319351,"current_range_meters":7200,"station_id":"","pricing_plan_id":"cebpf4jnsgd1na2vs0mg"},{"bike_id":"2de0f1c2-453b-4a02-9bde-1cd104c577c5","system_id":"levelo_inurba_marseille","lat":43.2837,"lon":5.38631,"is_reserved":false,"is_disabled":false,"rental_uris":{"android":"levelo://app?vid=2de0f1c2-453b-4a02-9bde-1cd104c577c5","ios":"levelo://app?vid=2de0f1c2-453b-4a02-9bde-1cd104c577c5"},"vehicle_type_id":"4","last_reported":1744319351,"current_range_meters":7200,"station_id":"ce4bh492rcd13ifvqdvg","pricing_plan_id":"cebpf4jnsgd1na2vs0mg"},{"bike_id":"b1d24ef5-cb49-4f85-ab46-290662931f88","system_id":"levelo_inurba_marseille","lat":43.25503,"lon":5.37645,"is_reserved":false,"is_disabled":false,"rental_uris":{"android":"levelo://app?vid=b1d24ef5-cb49-4f85-ab46-290662931f88","ios":"levelo://app?vid=b1d24ef5-cb49-4f85-ab46-290662931f88"},"vehicle_type_id":"4","last_reported":1744319351,"current_range_meters":7200,"station_id":"ce4bhh12rcd13ifvqff0","pricing_plan_id":"cebpf4jnsgd1na2vs0mg"},{"bike_id":"da33d3e1-078a-490e-bdcf-05f338351ccc","system_id":"levelo_inurba_marseille","lat":43.27832,"lon":5.39216,"is_reserved":false,"is_disabled":false,"rental_uris":{"android":"levelo://app?vid=da33d3e1-078a-490e-bdcf-05f338351ccc","ios":"levelo://app?vid=da33d3e1-078a-490e-bdcf-05f338351ccc"},"vehicle_type_id":"4","last_reported":1744319351,"current_range_meters":7200,"station_id":"ce4bhjp2rcd13ifvqga0","pricing_plan_id":"cebpf4jnsgd1na2vs0mg"},{"bike_id":"44899bdf-291f-42d7-88bf-7818df326033","system_id":"levelo_inurba_marseille","lat":43.301768,"lon":5.366231,"is_reserved":false,"is_disabled":false,"rental_uris":{"android":"levelo://app?vid=44899bdf-291f-42d7-88bf-7818df326033","ios":"levelo://app?vid=44899bdf-291f-42d7-88bf-7818df326033"},"vehicle_type_id":"4","last_reported":1744319351,"current_range_meters":7200,"station_id":"ce4bgrh2rcd13ifvqc8g","pricing_plan_id":"cebpf4jnsgd1na2vs0mg"},{"bike_id":"cdb818a6-fd2a-4195-84c0-ff94cd0f3a81","system_id":"levelo_inurba_marseille","lat":43.28698,"lon":5.39974,"is_reserved":false,"is_disabled":false,"rental_uris":{"android":"levelo://app?vid=cdb818a6-fd2a-4195-84c0-ff94cd0f3a81","ios":"levelo://app?vid=cdb818a6-fd2a-4195-84c0-ff94cd0f3a81"},"vehicle_type_id":"4","last_reported":1744319351,"current_range_meters":8000,"station_id":"ce4bho92rcd13ifvqh3g","pricing_plan_id":"cebpf4jnsgd1na2vs0mg"},{"bike_id":"1af8a524-a5f0-4f83-980b-4903f9d7017c","system_id":"levelo_inurba_marseille","lat":43.28607,"lon":5.37059,"is_reserved":false,"is_disabled":false,"rental_uris":{"android":"levelo://app?vid=1af8a524-a5f0-4f83-980b-4903f9d7017c","ios":"levelo://app?vid=1af8a524-a5f0-4f83-980b-4903f9d7017c"},"vehicle_type_id":"4","last_reported":1744319351,"current_range_meters":8000,"station_id":"ce4bht12rcd13ifvqi60","pricing_plan_id":"cebpf4jnsgd1na2vs0mg"},{"bike_id":"01e31f15-bc9b-4d18-bebd-edf19bcedef2","system_id":"levelo_inurba_marseille","lat":43.28698,"lon":5.37966,"is_reserved":false,"is_disabled":true,"rental_uris":{"android":"levelo://app?vid=01e31f15-bc9b-4d18-bebd-edf19bcedef2","ios":"levelo://app?vid=01e31f15-bc9b-4d18-bebd-edf19bcedef2"},"vehicle_type_id":"4","last_reported":1744319351,"current_range_meters":8000,"station_id":"ce4bh9p2rcd13ifvqec0","pricing_plan_id":"cebpf4jnsgd1na2vs0mg"},{"bike_id":"5f163a41-c6ee-4ee7-bf33-5991a052746c","system_id":"levelo_inurba_marseille","lat":43.29465,"lon":5.38648,"is_reserved":false,"is_disabled":false,"rental_uris":{"android":"levelo://app?vid=5f163a41-c6ee-4ee7-bf33-5991a052746c","ios":"levelo://app?vid=5f163a41-c6ee-4ee7-bf33-5991a052746c"},"vehicle_type_id":"4","last_reported":1744319351,"current_range_meters":8000,"station_id":"","pricing_plan_id":"cebpf4jnsgd1na2vs0mg"},{"bike_id":"5f30a5a4-de9f-499e-b151-b811ebb3b43a","system_id":"levelo_inurba_marseille","lat":43.31094,"lon":5.38339,"is_reserved":false,"is_disabled":true,"rental_uris":{"android":"levelo://app?vid=5f30a5a4-de9f-499e-b151-b811ebb3b43a","ios":"levelo://app?vid=5f30a5a4-de9f-499e-b151-b811ebb3b43a"},"vehicle_type_id":"4","last_reported":1744319351,"current_range_meters":8000,"station_id":"ce4bgv92rcd13ifvqcr0","pricing_plan_id":"cebpf4jnsgd1na2vs0mg"},{"bike_id":"82522d85-616f-4b70-b6f0-591320032371","system_id":"levelo_inurba_marseille","lat":43.31727,"lon":5.42398,"is_reserved":false,"is_disabled":false,"rental_uris":{"android":"levelo://app?vid=82522d85-616f-4b70-b6f0-591320032371","ios":"levelo://app?vid=82522d85-616f-4b70-b6f0-591320032371"},"vehicle_type_id":"4","last_reported":1744319351,"current_range_meters":8000,"station_id":"ce4bhp92rcd13ifvqhbg","pricing_plan_id":"cebpf4jnsgd1na2vs0mg"},{"bike_id":"d6bbcb9a-1b3c-480b-a4cc-1791ba809291","system_id":"levelo_inurba_marseille","lat":43.287,"lon":5.39975,"is_reserved":false,"is_disabled":false,"rental_uris":{"android":"levelo://app?vid=d6bbcb9a-1b3c-480b-a4cc-1791ba809291","ios":"levelo://app?vid=d6bbcb9a-1b3c-480b-a4cc-1791ba809291"},"vehicle_type_id":"4","last_reported":1744319351,"current_range_meters":8000,"station_id":"ce4bho92rcd13ifvqh3g","pricing_plan_id":"cebpf4jnsgd1na2vs0mg"},{"bike_id":"77681eb7-0ca7-4181-8f4d-dc0d81e04ff3","system_id":"levelo_inurba_marseille","lat":43.2416,"lon":5.3639,"is_reserved":false,"is_disabled":false,"rental_uris":{"android":"levelo://app?vid=77681eb7-0ca7-4181-8f4d-dc0d81e04ff3","ios":"levelo://app?vid=77681eb7-0ca7-4181-8f4d-dc0d81e04ff3"},"vehicle_type_id":"4","last_reported":1744319351,"current_range_meters":8000,"station_id":"cpo36qri1sfpv3e86is0","pricing_plan_id":"cebpf4jnsgd1na2vs0mg"},{"bike_id":"c243072f-6bd2-4d94-ba83-04162cf2a05c","system_id":"levelo_inurba_marseille","lat":43.27178,"lon":5.40145,"is_reserved":false,"is_disabled":false,"rental_uris":{"android":"levelo://app?vid=c243072f-6bd2-4d94-ba83-04162cf2a05c","ios":"levelo://app?vid=c243072f-6bd2-4d94-ba83-04162cf2a05c"},"vehicle_type_id":"4","last_reported":1744319351,"current_range_meters":8000,"station_id":"","pricing_plan_id":"cebpf4jnsgd1na2vs0mg"},{"bike_id":"06ec61a5-f24d-4951-8ba9-374e698c1505","system_id":"levelo_inurba_marseille","lat":43.34142,"lon":5.40903,"is_reserved":false,"is_disabled":false,"rental_uris":{"android":"levelo://app?vid=06ec61a5-f24d-4951-8ba9-374e698c1505","ios":"levelo://app?vid=06ec61a5-f24d-4951-8ba9-374e698c1505"},"vehicle_type_id":"4","last_reported":1744319351,"current_range_meters":8400,"station_id":"ce4bhqh2rcd13ifvqhlg","pricing_plan_id":"cebpf4jnsgd1na2vs0mg"},{"bike_id":"4f871a7c-7437-46db-a268-602fc4b16495","system_id":"levelo_inurba_marseille","lat":43.29098,"lon":5.38162,"is_reserved":false,"is_disabled":false,"rental_uris":{"android":"levelo://app?vid=4f871a7c-7437-46db-a268-602fc4b16495","ios":"levelo://app?vid=4f871a7c-7437-46db-a268-602fc4b16495"},"vehicle_type_id":"4","last_reported":1744319351,"current_range_meters":8400,"station_id":"ce4bh512rcd13ifvqe2g","pricing_plan_id":"cebpf4jnsgd1na2vs0mg"},{"bike_id":"10f72831-a14e-4eee-8e16-4a84e6f3ae45","system_id":"levelo_inurba_marseille","lat":43.30816,"lon":5.38145,"is_reserved":false,"is_disabled":false,"rental_uris":{"android":"levelo://app?vid=10f72831-a14e-4eee-8e16-4a84e6f3ae45","ios":"levelo://app?vid=10f72831-a14e-4eee-8e16-4a84e6f3ae45"},"vehicle_type_id":"4","last_reported":1744319351,"current_range_meters":8400,"station_id":"ce4bgt12rcd13ifvqce0","pricing_plan_id":"cebpf4jnsgd1na2vs0mg"},{"bike_id":"c6327eb5-c784-40e7-a80a-be30589d93fa","system_id":"levelo_inurba_marseille","lat":43.29613,"lon":5.37658,"is_reserved":false,"is_disabled":false,"rental_uris":{"android":"levelo://app?vid=c6327eb5-c784-40e7-a80a-be30589d93fa","ios":"levelo://app?vid=c6327eb5-c784-40e7-a80a-be30589d93fa"},"vehicle_type_id":"4","last_reported":1744319351,"current_range_meters":8400,"station_id":"ce4bgi92rcd13ifvqb90","pricing_plan_id":"cebpf4jnsgd1na2vs0mg"},{"bike_id":"4c1f7691-a169-4713-b675-2a5153227ffe","system_id":"levelo_inurba_marseille","lat":43.27804,"lon":5.40721,"is_reserved":false,"is_disabled":false,"rental_uris":{"android":"levelo://app?vid=4c1f7691-a169-4713-b675-2a5153227ffe","ios":"levelo://app?vid=4c1f7691-a169-4713-b675-2a5153227ffe"},"vehicle_type_id":"4","last_reported":1744319351,"current_range_meters":8400,"station_id":"ce4bhnh2rcd13ifvqgtg","pricing_plan_id":"cebpf4jnsgd1na2vs0mg"},{"bike_id":"ba983684-f45a-413c-b4a7-994483e98f38","system_id":"levelo_inurba_marseille","lat":43.29589,"lon":5.38128,"is_reserved":false,"is_disabled":false,"rental_uris":{"android":"levelo://app?vid=ba983684-f45a-413c-b4a7-994483e98f38","ios":"levelo://app?vid=ba983684-f45a-413c-b4a7-994483e98f38"},"vehicle_type_id":"4","last_reported":1744319351,"current_range_meters":8400,"station_id":"ce4bgl12rcd13ifvqbo0","pricing_plan_id":"cebpf4jnsgd1na2vs0mg"},{"bike_id":"29541aeb-a02a-41a7-a1d5-6f270fe5ed10","system_id":"levelo_inurba_marseille","lat":43.290972,"lon":5.381254,"is_reserved":false,"is_disabled":false,"rental_uris":{"android":"levelo://app?vid=29541aeb-a02a-41a7-a1d5-6f270fe5ed10","ios":"levelo://app?vid=29541aeb-a02a-41a7-a1d5-6f270fe5ed10"},"vehicle_type_id":"4","last_reported":1744319351,"current_range_meters":8400,"station_id":"ce4bhbh2rcd13ifvqeo0","pricing_plan_id":"cebpf4jnsgd1na2vs0mg"},{"bike_id":"19925b0c-bf13-433b-a8af-947f6f1941e5","system_id":"levelo_inurba_marseille","lat":43.29429,"lon":5.38597,"is_reserved":false,"is_disabled":false,"rental_uris":{"android":"levelo://app?vid=19925b0c-bf13-433b-a8af-947f6f1941e5","ios":"levelo://app?vid=19925b0c-bf13-433b-a8af-947f6f1941e5"},"vehicle_type_id":"4","last_reported":1744319351,"current_range_meters":8400,"station_id":"ce4bh2h2rcd13ifvqdh0","pricing_plan_id":"cebpf4jnsgd1na2vs0mg"},{"bike_id":"4a3e0919-27c2-445a-a961-2bd3243a227d","system_id":"levelo_inurba_marseille","lat":43.31655,"lon":5.37306,"is_reserved":false,"is_disabled":false,"rental_uris":{"android":"levelo://app?vid=4a3e0919-27c2-445a-a961-2bd3243a227d","ios":"levelo://app?vid=4a3e0919-27c2-445a-a961-2bd3243a227d"},"vehicle_type_id":"4","last_reported":1744319351,"current_range_meters":8800,"station_id":"","pricing_plan_id":"cebpf4jnsgd1na2vs0mg"},{"bike_id":"7238613e-7fec-4ef7-9273-47b89d95dab8","system_id":"levelo_inurba_marseille","lat":43.29043,"lon":5.39972,"is_reserved":false,"is_disabled":false,"rental_uris":{"android":"levelo://app?vid=7238613e-7fec-4ef7-9273-47b89d95dab8","ios":"levelo://app?vid=7238613e-7fec-4ef7-9273-47b89d95dab8"},"vehicle_type_id":"4","last_reported":1744319351,"current_range_meters":8400,"station_id":"ce4bh392rcd13ifvqdm0","pricing_plan_id":"cebpf4jnsgd1na2vs0mg"},{"bike_id":"d37408de-b5d7-4466-8973-ab7c2a7000bc","system_id":"levelo_inurba_marseille","lat":43.29273,"lon":5.36839,"is_reserved":false,"is_disabled":true,"rental_uris":{"android":"levelo://app?vid=d37408de-b5d7-4466-8973-ab7c2a7000bc","ios":"levelo://app?vid=d37408de-b5d7-4466-8973-ab7c2a7000bc"},"vehicle_type_id":"4","last_reported":1744319351,"current_range_meters":8800,"station_id":"ce4bhbp2rcd13ifvqesg","pricing_plan_id":"cebpf4jnsgd1na2vs0mg"},{"bike_id":"8832cdfb-34c9-4191-badc-9c386a9d5a68","system_id":"levelo_inurba_marseille","lat":43.28347,"lon":5.38105,"is_reserved":false,"is_disabled":false,"rental_uris":{"android":"levelo://app?vid=8832cdfb-34c9-4191-badc-9c386a9d5a68","ios":"levelo://app?vid=8832cdfb-34c9-4191-badc-9c386a9d5a68"},"vehicle_type_id":"4","last_reported":1744319351,"current_range_meters":8800,"station_id":"ce4bh412rcd13ifvqdr0","pricing_plan_id":"cebpf4jnsgd1na2vs0mg"},{"bike_id":"4d6f0b25-6620-4007-a775-35a6d21dbbf9","system_id":"levelo_inurba_marseille","lat":43.29411,"lon":5.38615,"is_reserved":false,"is_disabled":false,"rental_uris":{"android":"levelo://app?vid=4d6f0b25-6620-4007-a775-35a6d21dbbf9","ios":"levelo://app?vid=4d6f0b25-6620-4007-a775-35a6d21dbbf9"},"vehicle_type_id":"4","last_reported":1744319351,"current_range_meters":8800,"station_id":"ce4bh2h2rcd13ifvqdh0","pricing_plan_id":"cebpf4jnsgd1na2vs0mg"},{"bike_id":"3864ca11-eba3-4ea9-aa8d-c2b29b8c6d15","system_id":"levelo_inurba_marseille","lat":43.27188,"lon":5.40989,"is_reserved":false,"is_disabled":false,"rental_uris":{"android":"levelo://app?vid=3864ca11-eba3-4ea9-aa8d-c2b29b8c6d15","ios":"levelo://app?vid=3864ca11-eba3-4ea9-aa8d-c2b29b8c6d15"},"vehicle_type_id":"4","last_reported":1744319351,"current_range_meters":8800,"station_id":"ce4bhl12rcd13ifvqgf0","pricing_plan_id":"cebpf4jnsgd1na2vs0mg"},{"bike_id":"7986f528-e014-4751-bc08-903178eb0939","system_id":"levelo_inurba_marseille","lat":43.29787,"lon":5.39356,"is_reserved":false,"is_disabled":false,"rental_uris":{"android":"levelo://app?vid=7986f528-e014-4751-bc08-903178eb0939","ios":"levelo://app?vid=7986f528-e014-4751-bc08-903178eb0939"},"vehicle_type_id":"4","last_reported":1744319351,"current_range_meters":8800,"station_id":"chh1huq6cuj3fo74tm60","pricing_plan_id":"cebpf4jnsgd1na2vs0mg"},{"bike_id":"3880d0b0-e688-4d57-aa06-61081f9a4ffb","system_id":"levelo_inurba_marseille","lat":43.25823,"lon":5.39444,"is_reserved":false,"is_disabled":false,"rental_uris":{"android":"levelo://app?vid=3880d0b0-e688-4d57-aa06-61081f9a4ffb","ios":"levelo://app?vid=3880d0b0-e688-4d57-aa06-61081f9a4ffb"},"vehicle_type_id":"4","last_reported":1744319351,"current_range_meters":8800,"station_id":"ce4bhip2rcd13ifvqft0","pricing_plan_id":"cebpf4jnsgd1na2vs0mg"},{"bike_id":"1b5e1a6a-30b1-49b2-8140-7fe8bbbd4144","system_id":"levelo_inurba_marseille","lat":43.298803,"lon":5.389117,"is_reserved":false,"is_disabled":false,"rental_uris":{"android":"levelo://app?vid=1b5e1a6a-30b1-49b2-8140-7fe8bbbd4144","ios":"levelo://app?vid=1b5e1a6a-30b1-49b2-8140-7fe8bbbd4144"},"vehicle_type_id":"4","last_reported":1744319351,"current_range_meters":8800,"station_id":"ce4bh392rcd13ifvqdl0","pricing_plan_id":"cebpf4jnsgd1na2vs0mg"},{"bike_id":"cec94938-5836-4fb1-b107-6be08662aa0a","system_id":"levelo_inurba_marseille","lat":43.27497,"lon":5.42448,"is_reserved":false,"is_disabled":false,"rental_uris":{"android":"levelo://app?vid=cec94938-5836-4fb1-b107-6be08662aa0a","ios":"levelo://app?vid=cec94938-5836-4fb1-b107-6be08662aa0a"},"vehicle_type_id":"4","last_reported":1744319351,"current_range_meters":8800,"station_id":"ce4bhn92rcd13ifvqgrg","pricing_plan_id":"cebpf4jnsgd1na2vs0mg"},{"bike_id":"cc150e3d-fd24-4fe2-b34c-44e94f73276f","system_id":"levelo_inurba_marseille","lat":43.31724,"lon":5.42401,"is_reserved":false,"is_disabled":false,"rental_uris":{"android":"levelo://app?vid=cc150e3d-fd24-4fe2-b34c-44e94f73276f","ios":"levelo://app?vid=cc150e3d-fd24-4fe2-b34c-44e94f73276f"},"vehicle_type_id":"4","last_reported":1744319351,"current_range_meters":8800,"station_id":"ce4bhp92rcd13ifvqhbg","pricing_plan_id":"cebpf4jnsgd1na2vs0mg"},{"bike_id":"9ce80678-2ca4-4baa-a7d2-19d4fc944020","system_id":"levelo_inurba_marseille","lat":43.241655,"lon":5.364004,"is_reserved":false,"is_disabled":false,"rental_uris":{"android":"levelo://app?vid=9ce80678-2ca4-4baa-a7d2-19d4fc944020","ios":"levelo://app?vid=9ce80678-2ca4-4baa-a7d2-19d4fc944020"},"vehicle_type_id":"4","last_reported":1744319351,"current_range_meters":8800,"station_id":"cpo36qri1sfpv3e86is0","pricing_plan_id":"cebpf4jnsgd1na2vs0mg"},{"bike_id":"8873c2eb-8ad8-4e25-91de-b719c66e5edb","system_id":"levelo_inurba_marseille","lat":43.29791,"lon":5.39347,"is_reserved":false,"is_disabled":false,"rental_uris":{"android":"levelo://app?vid=8873c2eb-8ad8-4e25-91de-b719c66e5edb","ios":"levelo://app?vid=8873c2eb-8ad8-4e25-91de-b719c66e5edb"},"vehicle_type_id":"4","last_reported":1744319351,"current_range_meters":8800,"station_id":"chh1huq6cuj3fo74tm60","pricing_plan_id":"cebpf4jnsgd1na2vs0mg"},{"bike_id":"ba2c16f2-a8de-459f-a35d-6bd74f3cc715","system_id":"levelo_inurba_marseille","lat":43.23048,"lon":5.35531,"is_reserved":false,"is_disabled":false,"rental_uris":{"android":"levelo://app?vid=ba2c16f2-a8de-459f-a35d-6bd74f3cc715","ios":"levelo://app?vid=ba2c16f2-a8de-459f-a35d-6bd74f3cc715"},"vehicle_type_id":"4","last_reported":1744319351,"current_range_meters":9200,"station_id":"cpo3342slgdg3j2ifvpg","pricing_plan_id":"cebpf4jnsgd1na2vs0mg"},{"bike_id":"a08fdf65-f7c3-4eb9-83c1-6d1abed3497e","system_id":"levelo_inurba_marseille","lat":43.286966,"lon":5.39983,"is_reserved":false,"is_disabled":true,"rental_uris":{"android":"levelo://app?vid=a08fdf65-f7c3-4eb9-83c1-6d1abed3497e","ios":"levelo://app?vid=a08fdf65-f7c3-4eb9-83c1-6d1abed3497e"},"vehicle_type_id":"4","last_reported":1744319351,"current_range_meters":9200,"station_id":"ce4bho92rcd13ifvqh3g","pricing_plan_id":"cebpf4jnsgd1na2vs0mg"},{"bike_id":"88168c56-d263-4aae-a0c4-0de1c2e22b65","system_id":"levelo_inurba_marseille","lat":43.28711,"lon":5.40001,"is_reserved":false,"is_disabled":false,"rental_uris":{"android":"levelo://app?vid=88168c56-d263-4aae-a0c4-0de1c2e22b65","ios":"levelo://app?vid=88168c56-d263-4aae-a0c4-0de1c2e22b65"},"vehicle_type_id":"4","last_reported":1744319351,"current_range_meters":9200,"station_id":"ce4bho92rcd13ifvqh3g","pricing_plan_id":"cebpf4jnsgd1na2vs0mg"},{"bike_id":"8e017017-1d04-4e4b-9239-2e02f5ca9b5b","system_id":"levelo_inurba_marseille","lat":43.30417,"lon":5.3974,"is_reserved":false,"is_disabled":false,"rental_uris":{"android":"levelo://app?vid=8e017017-1d04-4e4b-9239-2e02f5ca9b5b","ios":"levelo://app?vid=8e017017-1d04-4e4b-9239-2e02f5ca9b5b"},"vehicle_type_id":"4","last_reported":1744319351,"current_range_meters":9200,"station_id":"ce4bh092rcd13ifvqd20","pricing_plan_id":"cebpf4jnsgd1na2vs0mg"},{"bike_id":"3cce7e82-3b3f-4afe-8abe-b91b82f9d784","system_id":"levelo_inurba_marseille","lat":43.28613,"lon":5.37071,"is_reserved":false,"is_disabled":false,"rental_uris":{"android":"levelo://app?vid=3cce7e82-3b3f-4afe-8abe-b91b82f9d784","ios":"levelo://app?vid=3cce7e82-3b3f-4afe-8abe-b91b82f9d784"},"vehicle_type_id":"4","last_reported":1744319351,"current_range_meters":9200,"station_id":"ce4bht12rcd13ifvqi60","pricing_plan_id":"cebpf4jnsgd1na2vs0mg"},{"bike_id":"1c543187-a26e-4795-b86f-ba6cec340c93","system_id":"levelo_inurba_marseille","lat":43.28708,"lon":5.37958,"is_reserved":false,"is_disabled":false,"rental_uris":{"android":"levelo://app?vid=1c543187-a26e-4795-b86f-ba6cec340c93","ios":"levelo://app?vid=1c543187-a26e-4795-b86f-ba6cec340c93"},"vehicle_type_id":"4","last_reported":1744319351,"current_range_meters":9200,"station_id":"ce4bh9p2rcd13ifvqec0","pricing_plan_id":"cebpf4jnsgd1na2vs0mg"},{"bike_id":"63829faa-5ddc-4c99-9690-96ab5f6c89d8","system_id":"levelo_inurba_marseille","lat":43.28934,"lon":5.39618,"is_reserved":false,"is_disabled":false,"rental_uris":{"android":"levelo://app?vid=63829faa-5ddc-4c99-9690-96ab5f6c89d8","ios":"levelo://app?vid=63829faa-5ddc-4c99-9690-96ab5f6c89d8"},"vehicle_type_id":"4","last_reported":1744319351,"current_range_meters":9600,"station_id":"ce4bh3h2rcd13ifvqdn0","pricing_plan_id":"cebpf4jnsgd1na2vs0mg"},{"bike_id":"a1fdd794-2cd0-4fb6-96b3-8dafaa593e65","system_id":"levelo_inurba_marseille","lat":43.33771,"lon":5.37466,"is_reserved":false,"is_disabled":true,"rental_uris":{"android":"levelo://app?vid=a1fdd794-2cd0-4fb6-96b3-8dafaa593e65","ios":"levelo://app?vid=a1fdd794-2cd0-4fb6-96b3-8dafaa593e65"},"vehicle_type_id":"4","last_reported":1744319351,"current_range_meters":9600,"station_id":"","pricing_plan_id":"cebpf4jnsgd1na2vs0mg"},{"bike_id":"c7922c9e-df40-4d6f-92a1-640cc6bd2ff7","system_id":"levelo_inurba_marseille","lat":43.24163,"lon":5.364,"is_reserved":false,"is_disabled":false,"rental_uris":{"android":"levelo://app?vid=c7922c9e-df40-4d6f-92a1-640cc6bd2ff7","ios":"levelo://app?vid=c7922c9e-df40-4d6f-92a1-640cc6bd2ff7"},"vehicle_type_id":"4","last_reported":1744319351,"current_range_meters":9600,"station_id":"cpo36qri1sfpv3e86is0","pricing_plan_id":"cebpf4jnsgd1na2vs0mg"},{"bike_id":"bff67837-c676-4b88-9fdc-8db7fe587121","system_id":"levelo_inurba_marseille","lat":43.30214,"lon":5.40048,"is_reserved":false,"is_disabled":true,"rental_uris":{"android":"levelo://app?vid=bff67837-c676-4b88-9fdc-8db7fe587121","ios":"levelo://app?vid=bff67837-c676-4b88-9fdc-8db7fe587121"},"vehicle_type_id":"4","last_reported":1744319351,"current_range_meters":9600,"station_id":"ce4bgvh2rcd13ifvqcs0","pricing_plan_id":"cebpf4jnsgd1na2vs0mg"},{"bike_id":"a5617209-d8de-42cf-b1e6-dbe202c94c20","system_id":"levelo_inurba_marseille","lat":43.24072,"lon":5.37763,"is_reserved":false,"is_disabled":false,"rental_uris":{"android":"levelo://app?vid=a5617209-d8de-42cf-b1e6-dbe202c94c20","ios":"levelo://app?vid=a5617209-d8de-42cf-b1e6-dbe202c94c20"},"vehicle_type_id":"4","last_reported":1744319351,"current_range_meters":9600,"station_id":"ce4bhnp2rcd13ifvqgvg","pricing_plan_id":"cebpf4jnsgd1na2vs0mg"},{"bike_id":"ac3eaea9-9881-40cb-aabd-71b3c42c9f75","system_id":"levelo_inurba_marseille","lat":43.29255,"lon":5.40901,"is_reserved":false,"is_disabled":false,"rental_uris":{"android":"levelo://app?vid=ac3eaea9-9881-40cb-aabd-71b3c42c9f75","ios":"levelo://app?vid=ac3eaea9-9881-40cb-aabd-71b3c42c9f75"},"vehicle_type_id":"4","last_reported":1744319351,"current_range_meters":9600,"station_id":"ce4bh192rcd13ifvqdc0","pricing_plan_id":"cebpf4jnsgd1na2vs0mg"},{"bike_id":"2cf88202-aff0-4236-8942-1fcdd83f878b","system_id":"levelo_inurba_marseille","lat":43.29219,"lon":5.36067,"is_reserved":false,"is_disabled":false,"rental_uris":{"android":"levelo://app?vid=2cf88202-aff0-4236-8942-1fcdd83f878b","ios":"levelo://app?vid=2cf88202-aff0-4236-8942-1fcdd83f878b"},"vehicle_type_id":"4","last_reported":1744319351,"current_range_meters":9600,"station_id":"ce4bhbh2rcd13ifvqeqg","pricing_plan_id":"cebpf4jnsgd1na2vs0mg"},{"bike_id":"1b4458db-8042-4ad9-af93-30bd3741fb0e","system_id":"levelo_inurba_marseille","lat":43.29935,"lon":5.36548,"is_reserved":false,"is_disabled":false,"rental_uris":{"android":"levelo://app?vid=1b4458db-8042-4ad9-af93-30bd3741fb0e","ios":"levelo://app?vid=1b4458db-8042-4ad9-af93-30bd3741fb0e"},"vehicle_type_id":"4","last_reported":1744319351,"current_range_meters":9600,"station_id":"ce4bgm92rcd13ifvqbr0","pricing_plan_id":"cebpf4jnsgd1na2vs0mg"},{"bike_id":"33443bd1-63f0-4476-823e-4549241d83bd","system_id":"levelo_inurba_marseille","lat":43.22944,"lon":5.35388,"is_reserved":false,"is_disabled":false,"rental_uris":{"android":"levelo://app?vid=33443bd1-63f0-4476-823e-4549241d83bd","ios":"levelo://app?vid=33443bd1-63f0-4476-823e-4549241d83bd"},"vehicle_type_id":"4","last_reported":1744319351,"current_range_meters":10000,"station_id":"cpo3532slgdg3j2ikp40","pricing_plan_id":"cebpf4jnsgd1na2vs0mg"},{"bike_id":"7fa148ac-e2fe-451e-9dbe-3233f1cb60cf","system_id":"levelo_inurba_marseille","lat":43.26499,"lon":5.39533,"is_reserved":false,"is_disabled":false,"rental_uris":{"android":"levelo://app?vid=7fa148ac-e2fe-451e-9dbe-3233f1cb60cf","ios":"levelo://app?vid=7fa148ac-e2fe-451e-9dbe-3233f1cb60cf"},"vehicle_type_id":"4","last_reported":1744319351,"current_range_meters":10000,"station_id":"ce4bhi12rcd13ifvqfq0","pricing_plan_id":"cebpf4jnsgd1na2vs0mg"},{"bike_id":"e5855749-37a3-4026-8333-2bfcb98c7114","system_id":"levelo_inurba_marseille","lat":43.31228,"lon":5.36859,"is_reserved":false,"is_disabled":false,"rental_uris":{"android":"levelo://app?vid=e5855749-37a3-4026-8333-2bfcb98c7114","ios":"levelo://app?vid=e5855749-37a3-4026-8333-2bfcb98c7114"},"vehicle_type_id":"4","last_reported":1744319351,"current_range_meters":10000,"station_id":"ce4bgl92rcd13ifvqbq0","pricing_plan_id":"cebpf4jnsgd1na2vs0mg"},{"bike_id":"0dd567c6-0c23-4370-a2e1-3f9f717685dc","system_id":"levelo_inurba_marseille","lat":43.29466,"lon":5.38672,"is_reserved":false,"is_disabled":false,"rental_uris":{"android":"levelo://app?vid=0dd567c6-0c23-4370-a2e1-3f9f717685dc","ios":"levelo://app?vid=0dd567c6-0c23-4370-a2e1-3f9f717685dc"},"vehicle_type_id":"4","last_reported":1744319351,"current_range_meters":10000,"station_id":"","pricing_plan_id":"cebpf4jnsgd1na2vs0mg"},{"bike_id":"632cd09d-01af-445a-84a2-7670ec80df1e","system_id":"levelo_inurba_marseille","lat":43.29594,"lon":5.38111,"is_reserved":false,"is_disabled":false,"rental_uris":{"android":"levelo://app?vid=632cd09d-01af-445a-84a2-7670ec80df1e","ios":"levelo://app?vid=632cd09d-01af-445a-84a2-7670ec80df1e"},"vehicle_type_id":"4","last_reported":1744319351,"current_range_meters":10000,"station_id":"ce4bgl12rcd13ifvqbo0","pricing_plan_id":"cebpf4jnsgd1na2vs0mg"},{"bike_id":"30ee2873-7884-45b5-ad52-967ec2cd5388","system_id":"levelo_inurba_marseille","lat":43.27814,"lon":5.40716,"is_reserved":false,"is_disabled":false,"rental_uris":{"android":"levelo://app?vid=30ee2873-7884-45b5-ad52-967ec2cd5388","ios":"levelo://app?vid=30ee2873-7884-45b5-ad52-967ec2cd5388"},"vehicle_type_id":"4","last_reported":1744319351,"current_range_meters":10000,"station_id":"ce4bhnh2rcd13ifvqgtg","pricing_plan_id":"cebpf4jnsgd1na2vs0mg"},{"bike_id":"2000497b-6d4b-416f-b43b-2a4143aad53b","system_id":"levelo_inurba_marseille","lat":43.32312,"lon":5.38669,"is_reserved":false,"is_disabled":false,"rental_uris":{"android":"levelo://app?vid=2000497b-6d4b-416f-b43b-2a4143aad53b","ios":"levelo://app?vid=2000497b-6d4b-416f-b43b-2a4143aad53b"},"vehicle_type_id":"4","last_reported":1744319351,"current_range_meters":10000,"station_id":"","pricing_plan_id":"cebpf4jnsgd1na2vs0mg"},{"bike_id":"6eb61986-8e92-47db-8c9a-ad77976386e7","system_id":"levelo_inurba_marseille","lat":43.3052,"lon":5.38431,"is_reserved":false,"is_disabled":true,"rental_uris":{"android":"levelo://app?vid=6eb61986-8e92-47db-8c9a-ad77976386e7","ios":"levelo://app?vid=6eb61986-8e92-47db-8c9a-ad77976386e7"},"vehicle_type_id":"4","last_reported":1744319351,"current_range_meters":10000,"station_id":"ce4bgg92rcd13ifvqb30","pricing_plan_id":"cebpf4jnsgd1na2vs0mg"},{"bike_id":"133ad55c-c37d-4e7e-ac02-d67cc1e10c61","system_id":"levelo_inurba_marseille","lat":43.30651,"lon":5.40078,"is_reserved":false,"is_disabled":false,"rental_uris":{"android":"levelo://app?vid=133ad55c-c37d-4e7e-ac02-d67cc1e10c61","ios":"levelo://app?vid=133ad55c-c37d-4e7e-ac02-d67cc1e10c61"},"vehicle_type_id":"4","last_reported":1744319351,"current_range_meters":10800,"station_id":"ce4bh112rcd13ifvqda0","pricing_plan_id":"cebpf4jnsgd1na2vs0mg"},{"bike_id":"68e0119a-8645-4479-b5b1-70d812883054","system_id":"levelo_inurba_marseille","lat":43.28108,"lon":5.37834,"is_reserved":false,"is_disabled":false,"rental_uris":{"android":"levelo://app?vid=68e0119a-8645-4479-b5b1-70d812883054","ios":"levelo://app?vid=68e0119a-8645-4479-b5b1-70d812883054"},"vehicle_type_id":"4","last_reported":1744319351,"current_range_meters":10800,"station_id":"ce4bha12rcd13ifvqee0","pricing_plan_id":"cebpf4jnsgd1na2vs0mg"},{"bike_id":"dd6eafe1-6582-456f-95a0-78025bd35fa4","system_id":"levelo_inurba_marseille","lat":43.246448,"lon":5.381558,"is_reserved":false,"is_disabled":false,"rental_uris":{"android":"levelo://app?vid=dd6eafe1-6582-456f-95a0-78025bd35fa4","ios":"levelo://app?vid=dd6eafe1-6582-456f-95a0-78025bd35fa4"},"vehicle_type_id":"4","last_reported":1744319351,"current_range_meters":10800,"station_id":"ce4bhih2rcd13ifvqfr0","pricing_plan_id":"cebpf4jnsgd1na2vs0mg"},{"bike_id":"eac420dd-0edc-47df-9dd1-4e69f09fc51b","system_id":"levelo_inurba_marseille","lat":43.29591,"lon":5.39341,"is_reserved":false,"is_disabled":false,"rental_uris":{"android":"levelo://app?vid=eac420dd-0edc-47df-9dd1-4e69f09fc51b","ios":"levelo://app?vid=eac420dd-0edc-47df-9dd1-4e69f09fc51b"},"vehicle_type_id":"4","last_reported":1744319351,"current_range_meters":10800,"station_id":"","pricing_plan_id":"cebpf4jnsgd1na2vs0mg"},{"bike_id":"cd94694b-42fa-44d6-807a-2d5a6758fe67","system_id":"levelo_inurba_marseille","lat":43.28147,"lon":5.42694,"is_reserved":false,"is_disabled":true,"rental_uris":{"android":"levelo://app?vid=cd94694b-42fa-44d6-807a-2d5a6758fe67","ios":"levelo://app?vid=cd94694b-42fa-44d6-807a-2d5a6758fe67"},"vehicle_type_id":"4","last_reported":1744319351,"current_range_meters":10800,"station_id":"ce4bhnh2rcd13ifvqgug","pricing_plan_id":"cebpf4jnsgd1na2vs0mg"},{"bike_id":"65f52e07-c7c1-4b0b-a98a-2cb0cb6e9ef2","system_id":"levelo_inurba_marseille","lat":43.24082,"lon":5.37733,"is_reserved":false,"is_disabled":false,"rental_uris":{"android":"levelo://app?vid=65f52e07-c7c1-4b0b-a98a-2cb0cb6e9ef2","ios":"levelo://app?vid=65f52e07-c7c1-4b0b-a98a-2cb0cb6e9ef2"},"vehicle_type_id":"4","last_reported":1744319351,"current_range_meters":10800,"station_id":"ce4bhnp2rcd13ifvqgvg","pricing_plan_id":"cebpf4jnsgd1na2vs0mg"},{"bike_id":"772d659d-a13b-46dd-a26c-3b011bf76ef1","system_id":"levelo_inurba_marseille","lat":43.30644,"lon":5.4008,"is_reserved":false,"is_disabled":false,"rental_uris":{"android":"levelo://app?vid=772d659d-a13b-46dd-a26c-3b011bf76ef1","ios":"levelo://app?vid=772d659d-a13b-46dd-a26c-3b011bf76ef1"},"vehicle_type_id":"4","last_reported":1744319351,"current_range_meters":11200,"station_id":"ce4bh112rcd13ifvqda0","pricing_plan_id":"cebpf4jnsgd1na2vs0mg"},{"bike_id":"284dc862-1248-4292-a87c-8461c5aee732","system_id":"levelo_inurba_marseille","lat":43.32283,"lon":5.3828,"is_reserved":false,"is_disabled":false,"rental_uris":{"android":"levelo://app?vid=284dc862-1248-4292-a87c-8461c5aee732","ios":"levelo://app?vid=284dc862-1248-4292-a87c-8461c5aee732"},"vehicle_type_id":"4","last_reported":1744319351,"current_range_meters":10800,"station_id":"ce4bhr12rcd13ifvqhqg","pricing_plan_id":"cebpf4jnsgd1na2vs0mg"},{"bike_id":"766488c0-e8c9-45da-a7ef-ba95d1783edc","system_id":"levelo_inurba_marseille","lat":43.28409,"lon":5.3754,"is_reserved":false,"is_disabled":false,"rental_uris":{"android":"levelo://app?vid=766488c0-e8c9-45da-a7ef-ba95d1783edc","ios":"levelo://app?vid=766488c0-e8c9-45da-a7ef-ba95d1783edc"},"vehicle_type_id":"4","last_reported":1744319351,"current_range_meters":11200,"station_id":"ce4bh412rcd13ifvqds0","pricing_plan_id":"cebpf4jnsgd1na2vs0mg"},{"bike_id":"c351e480-c87a-4260-9fbd-983cbe89d317","system_id":"levelo_inurba_marseille","lat":43.31722,"lon":5.42397,"is_reserved":false,"is_disabled":false,"rental_uris":{"android":"levelo://app?vid=c351e480-c87a-4260-9fbd-983cbe89d317","ios":"levelo://app?vid=c351e480-c87a-4260-9fbd-983cbe89d317"},"vehicle_type_id":"4","last_reported":1744319351,"current_range_meters":10800,"station_id":"ce4bhp92rcd13ifvqhbg","pricing_plan_id":"cebpf4jnsgd1na2vs0mg"},{"bike_id":"a8ce148c-c646-49c7-bc93-8e16c53d9a41","system_id":"levelo_inurba_marseille","lat":43.23183,"lon":5.39987,"is_reserved":false,"is_disabled":false,"rental_uris":{"android":"levelo://app?vid=a8ce148c-c646-49c7-bc93-8e16c53d9a41","ios":"levelo://app?vid=a8ce148c-c646-49c7-bc93-8e16c53d9a41"},"vehicle_type_id":"4","last_reported":1744319351,"current_range_meters":11200,"station_id":"ce4bhn12rcd13ifvqgqg","pricing_plan_id":"cebpf4jnsgd1na2vs0mg"},{"bike_id":"74bb5d65-537b-4c7c-9102-bad931df68ad","system_id":"levelo_inurba_marseille","lat":43.30323,"lon":5.40443,"is_reserved":false,"is_disabled":false,"rental_uris":{"android":"levelo://app?vid=74bb5d65-537b-4c7c-9102-bad931df68ad","ios":"levelo://app?vid=74bb5d65-537b-4c7c-9102-bad931df68ad"},"vehicle_type_id":"4","last_reported":1744319351,"current_range_meters":11200,"station_id":"ce4bh012rcd13ifvqd10","pricing_plan_id":"cebpf4jnsgd1na2vs0mg"},{"bike_id":"bd26530b-0f92-4e11-b8b3-926bb281a2c1","system_id":"levelo_inurba_marseille","lat":43.30799,"lon":5.38156,"is_reserved":false,"is_disabled":false,"rental_uris":{"android":"levelo://app?vid=bd26530b-0f92-4e11-b8b3-926bb281a2c1","ios":"levelo://app?vid=bd26530b-0f92-4e11-b8b3-926bb281a2c1"},"vehicle_type_id":"4","last_reported":1744319351,"current_range_meters":11600,"station_id":"ce4bgt12rcd13ifvqce0","pricing_plan_id":"cebpf4jnsgd1na2vs0mg"},{"bike_id":"86e4e5b0-76bf-4d42-acaa-97b63b164cbd","system_id":"levelo_inurba_marseille","lat":43.29039,"lon":5.39954,"is_reserved":false,"is_disabled":false,"rental_uris":{"android":"levelo://app?vid=86e4e5b0-76bf-4d42-acaa-97b63b164cbd","ios":"levelo://app?vid=86e4e5b0-76bf-4d42-acaa-97b63b164cbd"},"vehicle_type_id":"4","last_reported":1744319351,"current_range_meters":11600,"station_id":"ce4bh392rcd13ifvqdm0","pricing_plan_id":"cebpf4jnsgd1na2vs0mg"},{"bike_id":"1741b489-a8ea-4c41-9d0d-75107d63165f","system_id":"levelo_inurba_marseille","lat":43.29419,"lon":5.38618,"is_reserved":false,"is_disabled":false,"rental_uris":{"android":"levelo://app?vid=1741b489-a8ea-4c41-9d0d-75107d63165f","ios":"levelo://app?vid=1741b489-a8ea-4c41-9d0d-75107d63165f"},"vehicle_type_id":"4","last_reported":1744319351,"current_range_meters":11600,"station_id":"ce4bh2h2rcd13ifvqdh0","pricing_plan_id":"cebpf4jnsgd1na2vs0mg"},{"bike_id":"f35bf9dc-54a4-4991-936a-0ccd70a88e10","system_id":"levelo_inurba_marseille","lat":43.29525,"lon":5.38548,"is_reserved":false,"is_disabled":false,"rental_uris":{"android":"levelo://app?vid=f35bf9dc-54a4-4991-936a-0ccd70a88e10","ios":"levelo://app?vid=f35bf9dc-54a4-4991-936a-0ccd70a88e10"},"vehicle_type_id":"4","last_reported":1744319351,"current_range_meters":11600,"station_id":"ce4bgih2rcd13ifvqba0","pricing_plan_id":"cebpf4jnsgd1na2vs0mg"},{"bike_id":"736eddc2-3840-4903-8185-09191dc96ccf","system_id":"levelo_inurba_marseille","lat":43.28706,"lon":5.39981,"is_reserved":false,"is_disabled":false,"rental_uris":{"android":"levelo://app?vid=736eddc2-3840-4903-8185-09191dc96ccf","ios":"levelo://app?vid=736eddc2-3840-4903-8185-09191dc96ccf"},"vehicle_type_id":"4","last_reported":1744319351,"current_range_meters":11600,"station_id":"ce4bho92rcd13ifvqh3g","pricing_plan_id":"cebpf4jnsgd1na2vs0mg"},{"bike_id":"fd7bf403-f44e-49bc-add2-9071b0ca820b","system_id":"levelo_inurba_marseille","lat":43.26502,"lon":5.39537,"is_reserved":false,"is_disabled":false,"rental_uris":{"android":"levelo://app?vid=fd7bf403-f44e-49bc-add2-9071b0ca820b","ios":"levelo://app?vid=fd7bf403-f44e-49bc-add2-9071b0ca820b"},"vehicle_type_id":"4","last_reported":1744319351,"current_range_meters":11600,"station_id":"ce4bhi12rcd13ifvqfq0","pricing_plan_id":"cebpf4jnsgd1na2vs0mg"},{"bike_id":"ed9bb9b7-662e-474a-9451-992c89875d1e","system_id":"levelo_inurba_marseille","lat":43.28333,"lon":5.38101,"is_reserved":false,"is_disabled":false,"rental_uris":{"android":"levelo://app?vid=ed9bb9b7-662e-474a-9451-992c89875d1e","ios":"levelo://app?vid=ed9bb9b7-662e-474a-9451-992c89875d1e"},"vehicle_type_id":"4","last_reported":1744319351,"current_range_meters":12000,"station_id":"ce4bh412rcd13ifvqdr0","pricing_plan_id":"cebpf4jnsgd1na2vs0mg"},{"bike_id":"9d73e8d6-abd5-4fb7-a3eb-96ab852019a5","system_id":"levelo_inurba_marseille","lat":43.29361,"lon":5.37861,"is_reserved":false,"is_disabled":false,"rental_uris":{"android":"levelo://app?vid=9d73e8d6-abd5-4fb7-a3eb-96ab852019a5","ios":"levelo://app?vid=9d73e8d6-abd5-4fb7-a3eb-96ab852019a5"},"vehicle_type_id":"4","last_reported":1744319351,"current_range_meters":12000,"station_id":"ce4bgjh2rcd13ifvqbf0","pricing_plan_id":"cebpf4jnsgd1na2vs0mg"},{"bike_id":"c1921cd4-e279-4627-ab74-c965164a1a03","system_id":"levelo_inurba_marseille","lat":43.28611,"lon":5.37064,"is_reserved":false,"is_disabled":false,"rental_uris":{"android":"levelo://app?vid=c1921cd4-e279-4627-ab74-c965164a1a03","ios":"levelo://app?vid=c1921cd4-e279-4627-ab74-c965164a1a03"},"vehicle_type_id":"4","last_reported":1744319351,"current_range_meters":12000,"station_id":"ce4bht12rcd13ifvqi60","pricing_plan_id":"cebpf4jnsgd1na2vs0mg"},{"bike_id":"adcc2899-bd87-4d34-9f17-a8517b33af1e","system_id":"levelo_inurba_marseille","lat":43.30537,"lon":5.3843,"is_reserved":false,"is_disabled":false,"rental_uris":{"android":"levelo://app?vid=adcc2899-bd87-4d34-9f17-a8517b33af1e","ios":"levelo://app?vid=adcc2899-bd87-4d34-9f17-a8517b33af1e"},"vehicle_type_id":"4","last_reported":1744319351,"current_range_meters":12000,"station_id":"ce4bgg92rcd13ifvqb30","pricing_plan_id":"cebpf4jnsgd1na2vs0mg"},{"bike_id":"36dd2f5e-4014-41b9-8f6e-aa54636e0b8b","system_id":"levelo_inurba_marseille","lat":43.24163,"lon":5.36397,"is_reserved":false,"is_disabled":false,"rental_uris":{"android":"levelo://app?vid=36dd2f5e-4014-41b9-8f6e-aa54636e0b8b","ios":"levelo://app?vid=36dd2f5e-4014-41b9-8f6e-aa54636e0b8b"},"vehicle_type_id":"4","last_reported":1744319351,"current_range_meters":12000,"station_id":"cpo36qri1sfpv3e86is0","pricing_plan_id":"cebpf4jnsgd1na2vs0mg"},{"bike_id":"6a44d07f-efb6-44c9-9903-b0eb2ef1be59","system_id":"levelo_inurba_marseille","lat":43.229273,"lon":5.353793,"is_reserved":false,"is_disabled":false,"rental_uris":{"android":"levelo://app?vid=6a44d07f-efb6-44c9-9903-b0eb2ef1be59","ios":"levelo://app?vid=6a44d07f-efb6-44c9-9903-b0eb2ef1be59"},"vehicle_type_id":"4","last_reported":1744319351,"current_range_meters":12400,"station_id":"cpo3532slgdg3j2ikp40","pricing_plan_id":"cebpf4jnsgd1na2vs0mg"},{"bike_id":"de07953f-a368-43dd-aba2-34a7197efe50","system_id":"levelo_inurba_marseille","lat":43.256115,"lon":5.405147,"is_reserved":false,"is_disabled":false,"rental_uris":{"android":"levelo://app?vid=de07953f-a368-43dd-aba2-34a7197efe50","ios":"levelo://app?vid=de07953f-a368-43dd-aba2-34a7197efe50"},"vehicle_type_id":"4","last_reported":1744319351,"current_range_meters":12400,"station_id":"","pricing_plan_id":"cebpf4jnsgd1na2vs0mg"},{"bike_id":"fb616cd3-23a4-48e3-9a4e-7023a427b4b8","system_id":"levelo_inurba_marseille","lat":43.29642,"lon":5.39584,"is_reserved":false,"is_disabled":false,"rental_uris":{"android":"levelo://app?vid=fb616cd3-23a4-48e3-9a4e-7023a427b4b8","ios":"levelo://app?vid=fb616cd3-23a4-48e3-9a4e-7023a427b4b8"},"vehicle_type_id":"4","last_reported":1744319351,"current_range_meters":12400,"station_id":"","pricing_plan_id":"cebpf4jnsgd1na2vs0mg"},{"bike_id":"d14544b5-b03c-480c-9d2e-206754e0bf0c","system_id":"levelo_inurba_marseille","lat":43.28582,"lon":5.39482,"is_reserved":false,"is_disabled":false,"rental_uris":{"android":"levelo://app?vid=d14544b5-b03c-480c-9d2e-206754e0bf0c","ios":"levelo://app?vid=d14544b5-b03c-480c-9d2e-206754e0bf0c"},"vehicle_type_id":"4","last_reported":1744319351,"current_range_meters":12400,"station_id":"ce4bh292rcd13ifvqdg0","pricing_plan_id":"cebpf4jnsgd1na2vs0mg"},{"bike_id":"ffeb1a27-7d40-459d-9212-da041f50aae5","system_id":"levelo_inurba_marseille","lat":43.30238,"lon":5.39463,"is_reserved":false,"is_disabled":false,"rental_uris":{"android":"levelo://app?vid=ffeb1a27-7d40-459d-9212-da041f50aae5","ios":"levelo://app?vid=ffeb1a27-7d40-459d-9212-da041f50aae5"},"vehicle_type_id":"4","last_reported":1744319351,"current_range_meters":12800,"station_id":"ce4bh0p2rcd13ifvqd70","pricing_plan_id":"cebpf4jnsgd1na2vs0mg"},{"bike_id":"6596d3ef-1fb1-4021-b608-c5c3a532ea65","system_id":"levelo_inurba_marseille","lat":43.30635,"lon":5.40067,"is_reserved":false,"is_disabled":false,"rental_uris":{"android":"levelo://app?vid=6596d3ef-1fb1-4021-b608-c5c3a532ea65","ios":"levelo://app?vid=6596d3ef-1fb1-4021-b608-c5c3a532ea65"},"vehicle_type_id":"4","last_reported":1744319351,"current_range_meters":12800,"station_id":"ce4bh112rcd13ifvqda0","pricing_plan_id":"cebpf4jnsgd1na2vs0mg"},{"bike_id":"627403f8-4468-4a41-8798-323347b58cc9","system_id":"levelo_inurba_marseille","lat":43.27192,"lon":5.40992,"is_reserved":false,"is_disabled":false,"rental_uris":{"android":"levelo://app?vid=627403f8-4468-4a41-8798-323347b58cc9","ios":"levelo://app?vid=627403f8-4468-4a41-8798-323347b58cc9"},"vehicle_type_id":"4","last_reported":1744319351,"current_range_meters":12800,"station_id":"ce4bhl12rcd13ifvqgf0","pricing_plan_id":"cebpf4jnsgd1na2vs0mg"},{"bike_id":"8f78fb23-fe4f-4dd7-b80f-99eaf12a8543","system_id":"levelo_inurba_marseille","lat":43.28432,"lon":5.39189,"is_reserved":false,"is_disabled":false,"rental_uris":{"android":"levelo://app?vid=8f78fb23-fe4f-4dd7-b80f-99eaf12a8543","ios":"levelo://app?vid=8f78fb23-fe4f-4dd7-b80f-99eaf12a8543"},"vehicle_type_id":"4","last_reported":1744319351,"current_range_meters":12800,"station_id":"ce4bhoh2rcd13ifvqh5g","pricing_plan_id":"cebpf4jnsgd1na2vs0mg"},{"bike_id":"ac9c9b50-06ec-4d5d-bd8c-2690e8ae53c2","system_id":"levelo_inurba_marseille","lat":43.283505,"lon":5.381088,"is_reserved":false,"is_disabled":false,"rental_uris":{"android":"levelo://app?vid=ac9c9b50-06ec-4d5d-bd8c-2690e8ae53c2","ios":"levelo://app?vid=ac9c9b50-06ec-4d5d-bd8c-2690e8ae53c2"},"vehicle_type_id":"4","last_reported":1744319351,"current_range_meters":12800,"station_id":"ce4bh412rcd13ifvqdr0","pricing_plan_id":"cebpf4jnsgd1na2vs0mg"},{"bike_id":"07b2c872-bd62-4205-b3a3-8a9300009479","system_id":"levelo_inurba_marseille","lat":43.28439,"lon":5.39211,"is_reserved":false,"is_disabled":false,"rental_uris":{"android":"levelo://app?vid=07b2c872-bd62-4205-b3a3-8a9300009479","ios":"levelo://app?vid=07b2c872-bd62-4205-b3a3-8a9300009479"},"vehicle_type_id":"4","last_reported":1744319351,"current_range_meters":12800,"station_id":"ce4bhoh2rcd13ifvqh5g","pricing_plan_id":"cebpf4jnsgd1na2vs0mg"},{"bike_id":"eab6cbfa-cb8e-47d7-b0d6-226ab7facec7","system_id":"levelo_inurba_marseille","lat":43.31708,"lon":5.42411,"is_reserved":false,"is_disabled":true,"rental_uris":{"android":"levelo://app?vid=eab6cbfa-cb8e-47d7-b0d6-226ab7facec7","ios":"levelo://app?vid=eab6cbfa-cb8e-47d7-b0d6-226ab7facec7"},"vehicle_type_id":"4","last_reported":1744319351,"current_range_meters":12800,"station_id":"ce4bhp92rcd13ifvqhbg","pricing_plan_id":"cebpf4jnsgd1na2vs0mg"},{"bike_id":"52d84cef-0b7e-4276-bacb-e42a6589921b","system_id":"levelo_inurba_marseille","lat":43.24164,"lon":5.3972,"is_reserved":false,"is_disabled":false,"rental_uris":{"android":"levelo://app?vid=52d84cef-0b7e-4276-bacb-e42a6589921b","ios":"levelo://app?vid=52d84cef-0b7e-4276-bacb-e42a6589921b"},"vehicle_type_id":"4","last_reported":1744319351,"current_range_meters":12800,"station_id":"ce4bhn12rcd13ifvqgpg","pricing_plan_id":"cebpf4jnsgd1na2vs0mg"},{"bike_id":"07358acf-cbc8-4960-8361-6428ad4c2a43","system_id":"levelo_inurba_marseille","lat":43.29367,"lon":5.38494,"is_reserved":false,"is_disabled":false,"rental_uris":{"android":"levelo://app?vid=07358acf-cbc8-4960-8361-6428ad4c2a43","ios":"levelo://app?vid=07358acf-cbc8-4960-8361-6428ad4c2a43"},"vehicle_type_id":"4","last_reported":1744319351,"current_range_meters":13600,"station_id":"","pricing_plan_id":"cebpf4jnsgd1na2vs0mg"},{"bike_id":"3a0adae9-eec3-4c10-abbc-131050a97578","system_id":"levelo_inurba_marseille","lat":43.29532,"lon":5.38544,"is_reserved":false,"is_disabled":false,"rental_uris":{"android":"levelo://app?vid=3a0adae9-eec3-4c10-abbc-131050a97578","ios":"levelo://app?vid=3a0adae9-eec3-4c10-abbc-131050a97578"},"vehicle_type_id":"4","last_reported":1744319351,"current_range_meters":13600,"station_id":"ce4bgih2rcd13ifvqba0","pricing_plan_id":"cebpf4jnsgd1na2vs0mg"},{"bike_id":"7c771e70-c4c7-44a9-8836-e6ddaac64a95","system_id":"levelo_inurba_marseille","lat":43.30823,"lon":5.38144,"is_reserved":false,"is_disabled":false,"rental_uris":{"android":"levelo://app?vid=7c771e70-c4c7-44a9-8836-e6ddaac64a95","ios":"levelo://app?vid=7c771e70-c4c7-44a9-8836-e6ddaac64a95"},"vehicle_type_id":"4","last_reported":1744319351,"current_range_meters":13600,"station_id":"ce4bgt12rcd13ifvqce0","pricing_plan_id":"cebpf4jnsgd1na2vs0mg"},{"bike_id":"bd2f5995-27ec-4e39-9257-a3bd08cd44e1","system_id":"levelo_inurba_marseille","lat":43.284,"lon":5.37522,"is_reserved":false,"is_disabled":false,"rental_uris":{"android":"levelo://app?vid=bd2f5995-27ec-4e39-9257-a3bd08cd44e1","ios":"levelo://app?vid=bd2f5995-27ec-4e39-9257-a3bd08cd44e1"},"vehicle_type_id":"4","last_reported":1744319351,"current_range_meters":13600,"station_id":"ce4bh412rcd13ifvqds0","pricing_plan_id":"cebpf4jnsgd1na2vs0mg"},{"bike_id":"d00f31c2-6271-4542-b6a6-c74cb0410ea0","system_id":"levelo_inurba_marseille","lat":43.28442,"lon":5.39179,"is_reserved":false,"is_disabled":false,"rental_uris":{"android":"levelo://app?vid=d00f31c2-6271-4542-b6a6-c74cb0410ea0","ios":"levelo://app?vid=d00f31c2-6271-4542-b6a6-c74cb0410ea0"},"vehicle_type_id":"4","last_reported":1744319351,"current_range_meters":13600,"station_id":"ce4bhoh2rcd13ifvqh5g","pricing_plan_id":"cebpf4jnsgd1na2vs0mg"},{"bike_id":"4e9167ce-1a0b-4147-8617-eebc5c8a3390","system_id":"levelo_inurba_marseille","lat":43.29007,"lon":5.4001,"is_reserved":false,"is_disabled":false,"rental_uris":{"android":"levelo://app?vid=4e9167ce-1a0b-4147-8617-eebc5c8a3390","ios":"levelo://app?vid=4e9167ce-1a0b-4147-8617-eebc5c8a3390"},"vehicle_type_id":"4","last_reported":1744319351,"current_range_meters":13600,"station_id":"ce4bh392rcd13ifvqdm0","pricing_plan_id":"cebpf4jnsgd1na2vs0mg"},{"bike_id":"114304b8-1aed-46a5-8358-a5be9d4a8829","system_id":"levelo_inurba_marseille","lat":43.31721,"lon":5.42406,"is_reserved":false,"is_disabled":false,"rental_uris":{"android":"levelo://app?vid=114304b8-1aed-46a5-8358-a5be9d4a8829","ios":"levelo://app?vid=114304b8-1aed-46a5-8358-a5be9d4a8829"},"vehicle_type_id":"4","last_reported":1744319351,"current_range_meters":13600,"station_id":"ce4bhp92rcd13ifvqhbg","pricing_plan_id":"cebpf4jnsgd1na2vs0mg"},{"bike_id":"a9bd201e-b741-4408-93a9-210b1962ae52","system_id":"levelo_inurba_marseille","lat":43.29041,"lon":5.39961,"is_reserved":false,"is_disabled":false,"rental_uris":{"android":"levelo://app?vid=a9bd201e-b741-4408-93a9-210b1962ae52","ios":"levelo://app?vid=a9bd201e-b741-4408-93a9-210b1962ae52"},"vehicle_type_id":"4","last_reported":1744319351,"current_range_meters":13600,"station_id":"ce4bh392rcd13ifvqdm0","pricing_plan_id":"cebpf4jnsgd1na2vs0mg"},{"bike_id":"0922821c-4e1d-4817-9469-860e55f8f0d1","system_id":"levelo_inurba_marseille","lat":43.22494,"lon":5.34777,"is_reserved":false,"is_disabled":false,"rental_uris":{"android":"levelo://app?vid=0922821c-4e1d-4817-9469-860e55f8f0d1","ios":"levelo://app?vid=0922821c-4e1d-4817-9469-860e55f8f0d1"},"vehicle_type_id":"4","last_reported":1744319351,"current_range_meters":13600,"station_id":"st_cvj5dfep6f1abm77gieg","pricing_plan_id":"cebpf4jnsgd1na2vs0mg"},{"bike_id":"8c01c616-33d3-4f21-a94b-3bf76ab48ae7","system_id":"levelo_inurba_marseille","lat":43.28935,"lon":5.36634,"is_reserved":false,"is_disabled":true,"rental_uris":{"android":"levelo://app?vid=8c01c616-33d3-4f21-a94b-3bf76ab48ae7","ios":"levelo://app?vid=8c01c616-33d3-4f21-a94b-3bf76ab48ae7"},"vehicle_type_id":"4","last_reported":1744319351,"current_range_meters":14000,"station_id":"ce4bhap2rcd13ifvqek0","pricing_plan_id":"cebpf4jnsgd1na2vs0mg"},{"bike_id":"255973b5-39a3-4d41-861a-c1f5618bc0b5","system_id":"levelo_inurba_marseille","lat":43.27053,"lon":5.40266,"is_reserved":false,"is_disabled":false,"rental_uris":{"android":"levelo://app?vid=255973b5-39a3-4d41-861a-c1f5618bc0b5","ios":"levelo://app?vid=255973b5-39a3-4d41-861a-c1f5618bc0b5"},"vehicle_type_id":"4","last_reported":1744319351,"current_range_meters":14000,"station_id":"ce4bhk92rcd13ifvqgc0","pricing_plan_id":"cebpf4jnsgd1na2vs0mg"},{"bike_id":"35760107-f7e7-476e-880c-0f7c3535e881","system_id":"levelo_inurba_marseille","lat":43.31076,"lon":5.3836,"is_reserved":false,"is_disabled":false,"rental_uris":{"android":"levelo://app?vid=35760107-f7e7-476e-880c-0f7c3535e881","ios":"levelo://app?vid=35760107-f7e7-476e-880c-0f7c3535e881"},"vehicle_type_id":"4","last_reported":1744319351,"current_range_meters":14000,"station_id":"ce4bgv92rcd13ifvqcr0","pricing_plan_id":"cebpf4jnsgd1na2vs0mg"},{"bike_id":"784f6f6f-9f28-47b2-878e-a7ec8d21c437","system_id":"levelo_inurba_marseille","lat":43.33771,"lon":5.37471,"is_reserved":false,"is_disabled":false,"rental_uris":{"android":"levelo://app?vid=784f6f6f-9f28-47b2-878e-a7ec8d21c437","ios":"levelo://app?vid=784f6f6f-9f28-47b2-878e-a7ec8d21c437"},"vehicle_type_id":"4","last_reported":1744319351,"current_range_meters":14000,"station_id":"","pricing_plan_id":"cebpf4jnsgd1na2vs0mg"},{"bike_id":"9f945758-9c31-4af1-844c-96a43b6dd16d","system_id":"levelo_inurba_marseille","lat":43.30378,"lon":5.42484,"is_reserved":false,"is_disabled":false,"rental_uris":{"android":"levelo://app?vid=9f945758-9c31-4af1-844c-96a43b6dd16d","ios":"levelo://app?vid=9f945758-9c31-4af1-844c-96a43b6dd16d"},"vehicle_type_id":"4","last_reported":1744319351,"current_range_meters":14000,"station_id":"ce4bhoh2rcd13ifvqh6g","pricing_plan_id":"cebpf4jnsgd1na2vs0mg"},{"bike_id":"b5b46c18-f313-484a-a32d-a28c21593fa8","system_id":"levelo_inurba_marseille","lat":43.28407,"lon":5.37534,"is_reserved":false,"is_disabled":false,"rental_uris":{"android":"levelo://app?vid=b5b46c18-f313-484a-a32d-a28c21593fa8","ios":"levelo://app?vid=b5b46c18-f313-484a-a32d-a28c21593fa8"},"vehicle_type_id":"4","last_reported":1744319351,"current_range_meters":14000,"station_id":"ce4bh412rcd13ifvqds0","pricing_plan_id":"cebpf4jnsgd1na2vs0mg"},{"bike_id":"d151b33c-e34d-4a01-a9ee-0427b64a59dc","system_id":"levelo_inurba_marseille","lat":43.3012,"lon":5.38789,"is_reserved":false,"is_disabled":false,"rental_uris":{"android":"levelo://app?vid=d151b33c-e34d-4a01-a9ee-0427b64a59dc","ios":"levelo://app?vid=d151b33c-e34d-4a01-a9ee-0427b64a59dc"},"vehicle_type_id":"4","last_reported":1744319351,"current_range_meters":14400,"station_id":"ce4bghh2rcd13ifvqb60","pricing_plan_id":"cebpf4jnsgd1na2vs0mg"},{"bike_id":"9c07b687-0cca-4a28-82f6-66c50d295640","system_id":"levelo_inurba_marseille","lat":43.32342,"lon":5.38328,"is_reserved":false,"is_disabled":false,"rental_uris":{"android":"levelo://app?vid=9c07b687-0cca-4a28-82f6-66c50d295640","ios":"levelo://app?vid=9c07b687-0cca-4a28-82f6-66c50d295640"},"vehicle_type_id":"4","last_reported":1744319351,"current_range_meters":14400,"station_id":"","pricing_plan_id":"cebpf4jnsgd1na2vs0mg"},{"bike_id":"f08a6698-fe62-451c-b460-c0e31cd5622f","system_id":"levelo_inurba_marseille","lat":43.28246,"lon":5.36101,"is_reserved":false,"is_disabled":false,"rental_uris":{"android":"levelo://app?vid=f08a6698-fe62-451c-b460-c0e31cd5622f","ios":"levelo://app?vid=f08a6698-fe62-451c-b460-c0e31cd5622f"},"vehicle_type_id":"4","last_reported":1744319351,"current_range_meters":14400,"station_id":"","pricing_plan_id":"cebpf4jnsgd1na2vs0mg"},{"bike_id":"037b1d37-e484-4907-b25c-9225f3c24703","system_id":"levelo_inurba_marseille","lat":43.26557,"lon":5.39026,"is_reserved":false,"is_disabled":false,"rental_uris":{"android":"levelo://app?vid=037b1d37-e484-4907-b25c-9225f3c24703","ios":"levelo://app?vid=037b1d37-e484-4907-b25c-9225f3c24703"},"vehicle_type_id":"4","last_reported":1744319351,"current_range_meters":14400,"station_id":"ce4bhe12rcd13ifvqf30","pricing_plan_id":"cebpf4jnsgd1na2vs0mg"},{"bike_id":"e9c5d548-34cc-41ad-b254-2183fd12f6d2","system_id":"levelo_inurba_marseille","lat":43.26939,"lon":5.40249,"is_reserved":false,"is_disabled":false,"rental_uris":{"android":"levelo://app?vid=e9c5d548-34cc-41ad-b254-2183fd12f6d2","ios":"levelo://app?vid=e9c5d548-34cc-41ad-b254-2183fd12f6d2"},"vehicle_type_id":"4","last_reported":1744319351,"current_range_meters":14400,"station_id":"cjm6bp8fraef2m0cb0m0","pricing_plan_id":"cebpf4jnsgd1na2vs0mg"},{"bike_id":"2f604b1b-d5c1-4825-8a1c-02d30e0bb26a","system_id":"levelo_inurba_marseille","lat":43.31069,"lon":5.38348,"is_reserved":false,"is_disabled":false,"rental_uris":{"android":"levelo://app?vid=2f604b1b-d5c1-4825-8a1c-02d30e0bb26a","ios":"levelo://app?vid=2f604b1b-d5c1-4825-8a1c-02d30e0bb26a"},"vehicle_type_id":"4","last_reported":1744319351,"current_range_meters":14800,"station_id":"ce4bgv92rcd13ifvqcr0","pricing_plan_id":"cebpf4jnsgd1na2vs0mg"},{"bike_id":"97a21398-98b0-422e-9e04-3dac82a3cb35","system_id":"levelo_inurba_marseille","lat":43.24808,"lon":5.37457,"is_reserved":false,"is_disabled":false,"rental_uris":{"android":"levelo://app?vid=97a21398-98b0-422e-9e04-3dac82a3cb35","ios":"levelo://app?vid=97a21398-98b0-422e-9e04-3dac82a3cb35"},"vehicle_type_id":"4","last_reported":1744319351,"current_range_meters":14800,"station_id":"ce4bhgh2rcd13ifvqfb0","pricing_plan_id":"cebpf4jnsgd1na2vs0mg"},{"bike_id":"c266cdc4-c7b8-499b-9979-d13187952b82","system_id":"levelo_inurba_marseille","lat":43.26928,"lon":5.38912,"is_reserved":false,"is_disabled":false,"rental_uris":{"android":"levelo://app?vid=c266cdc4-c7b8-499b-9979-d13187952b82","ios":"levelo://app?vid=c266cdc4-c7b8-499b-9979-d13187952b82"},"vehicle_type_id":"4","last_reported":1744319351,"current_range_meters":14800,"station_id":"ce4bhhh2rcd13ifvqfl0","pricing_plan_id":"cebpf4jnsgd1na2vs0mg"},{"bike_id":"31bbe456-fd61-423f-b146-f989270d0af6","system_id":"levelo_inurba_marseille","lat":43.255074,"lon":5.376496,"is_reserved":false,"is_disabled":false,"rental_uris":{"android":"levelo://app?vid=31bbe456-fd61-423f-b146-f989270d0af6","ios":"levelo://app?vid=31bbe456-fd61-423f-b146-f989270d0af6"},"vehicle_type_id":"4","last_reported":1744319351,"current_range_meters":14800,"station_id":"ce4bhh12rcd13ifvqff0","pricing_plan_id":"cebpf4jnsgd1na2vs0mg"},{"bike_id":"2f9199ae-628a-4973-82d8-f6f83617e77f","system_id":"levelo_inurba_marseille","lat":43.31237,"lon":5.36855,"is_reserved":false,"is_disabled":false,"rental_uris":{"android":"levelo://app?vid=2f9199ae-628a-4973-82d8-f6f83617e77f","ios":"levelo://app?vid=2f9199ae-628a-4973-82d8-f6f83617e77f"},"vehicle_type_id":"4","last_reported":1744319351,"current_range_meters":14800,"station_id":"ce4bgl92rcd13ifvqbq0","pricing_plan_id":"cebpf4jnsgd1na2vs0mg"},{"bike_id":"5be6a842-98f7-4807-b52d-c318fce2de8a","system_id":"levelo_inurba_marseille","lat":43.29042,"lon":5.39958,"is_reserved":false,"is_disabled":false,"rental_uris":{"android":"levelo://app?vid=5be6a842-98f7-4807-b52d-c318fce2de8a","ios":"levelo://app?vid=5be6a842-98f7-4807-b52d-c318fce2de8a"},"vehicle_type_id":"4","last_reported":1744319351,"current_range_meters":14800,"station_id":"ce4bh392rcd13ifvqdm0","pricing_plan_id":"cebpf4jnsgd1na2vs0mg"},{"bike_id":"4320eead-890e-4be7-b94e-6cf50f5b3365","system_id":"levelo_inurba_marseille","lat":43.28913,"lon":5.39642,"is_reserved":false,"is_disabled":false,"rental_uris":{"android":"levelo://app?vid=4320eead-890e-4be7-b94e-6cf50f5b3365","ios":"levelo://app?vid=4320eead-890e-4be7-b94e-6cf50f5b3365"},"vehicle_type_id":"4","last_reported":1744319351,"current_range_meters":14800,"station_id":"ce4bh3h2rcd13ifvqdn0","pricing_plan_id":"cebpf4jnsgd1na2vs0mg"},{"bike_id":"2968a65b-087c-4f45-b644-22aa680eaabe","system_id":"levelo_inurba_marseille","lat":43.25084,"lon":5.39525,"is_reserved":false,"is_disabled":false,"rental_uris":{"android":"levelo://app?vid=2968a65b-087c-4f45-b644-22aa680eaabe","ios":"levelo://app?vid=2968a65b-087c-4f45-b644-22aa680eaabe"},"vehicle_type_id":"4","last_reported":1744319351,"current_range_meters":14800,"station_id":"ce4bhm12rcd13ifvqgkg","pricing_plan_id":"cebpf4jnsgd1na2vs0mg"},{"bike_id":"c364db8f-39ad-43a0-adab-288c59ccfc7e","system_id":"levelo_inurba_marseille","lat":43.27373,"lon":5.36263,"is_reserved":false,"is_disabled":false,"rental_uris":{"android":"levelo://app?vid=c364db8f-39ad-43a0-adab-288c59ccfc7e","ios":"levelo://app?vid=c364db8f-39ad-43a0-adab-288c59ccfc7e"},"vehicle_type_id":"4","last_reported":1744319351,"current_range_meters":15200,"station_id":"ce4bhbh2rcd13ifvqeo0","pricing_plan_id":"cebpf4jnsgd1na2vs0mg"},{"bike_id":"b586f794-fd4e-4be9-8b37-438080aea52b","system_id":"levelo_inurba_marseille","lat":43.28352,"lon":5.38106,"is_reserved":false,"is_disabled":false,"rental_uris":{"android":"levelo://app?vid=b586f794-fd4e-4be9-8b37-438080aea52b","ios":"levelo://app?vid=b586f794-fd4e-4be9-8b37-438080aea52b"},"vehicle_type_id":"4","last_reported":1744319351,"current_range_meters":15200,"station_id":"ce4bh412rcd13ifvqdr0","pricing_plan_id":"cebpf4jnsgd1na2vs0mg"},{"bike_id":"23718e9a-5ce7-4d28-99a5-8f754f56e13c","system_id":"levelo_inurba_marseille","lat":43.22517,"lon":5.34783,"is_reserved":false,"is_disabled":false,"rental_uris":{"android":"levelo://app?vid=23718e9a-5ce7-4d28-99a5-8f754f56e13c","ios":"levelo://app?vid=23718e9a-5ce7-4d28-99a5-8f754f56e13c"},"vehicle_type_id":"4","last_reported":1744319351,"current_range_meters":15200,"station_id":"","pricing_plan_id":"cebpf4jnsgd1na2vs0mg"},{"bike_id":"989cfda3-e11f-45b5-a08c-71c9a276e15d","system_id":"levelo_inurba_marseille","lat":43.29784,"lon":5.39348,"is_reserved":false,"is_disabled":false,"rental_uris":{"android":"levelo://app?vid=989cfda3-e11f-45b5-a08c-71c9a276e15d","ios":"levelo://app?vid=989cfda3-e11f-45b5-a08c-71c9a276e15d"},"vehicle_type_id":"4","last_reported":1744319351,"current_range_meters":15200,"station_id":"chh1huq6cuj3fo74tm60","pricing_plan_id":"cebpf4jnsgd1na2vs0mg"},{"bike_id":"078a6dc5-3c98-4f01-aecd-ecf8c0f132d9","system_id":"levelo_inurba_marseille","lat":43.29965,"lon":5.38531,"is_reserved":false,"is_disabled":true,"rental_uris":{"android":"levelo://app?vid=078a6dc5-3c98-4f01-aecd-ecf8c0f132d9","ios":"levelo://app?vid=078a6dc5-3c98-4f01-aecd-ecf8c0f132d9"},"vehicle_type_id":"4","last_reported":1744319351,"current_range_meters":15200,"station_id":"ce4bgj92rcd13ifvqbd0","pricing_plan_id":"cebpf4jnsgd1na2vs0mg"},{"bike_id":"0335b5fa-bf18-4fab-80d1-83fd2d97f143","system_id":"levelo_inurba_marseille","lat":43.2958,"lon":5.36737,"is_reserved":false,"is_disabled":false,"rental_uris":{"android":"levelo://app?vid=0335b5fa-bf18-4fab-80d1-83fd2d97f143","ios":"levelo://app?vid=0335b5fa-bf18-4fab-80d1-83fd2d97f143"},"vehicle_type_id":"4","last_reported":1744319351,"current_range_meters":15200,"station_id":"ce4bgph2rcd13ifvqc2g","pricing_plan_id":"cebpf4jnsgd1na2vs0mg"},{"bike_id":"78345915-338f-4af8-99b3-2e2e83ae8e23","system_id":"levelo_inurba_marseille","lat":43.284768,"lon":5.392275,"is_reserved":false,"is_disabled":false,"rental_uris":{"android":"levelo://app?vid=78345915-338f-4af8-99b3-2e2e83ae8e23","ios":"levelo://app?vid=78345915-338f-4af8-99b3-2e2e83ae8e23"},"vehicle_type_id":"4","last_reported":1744319351,"current_range_meters":15200,"station_id":"ce4bhoh2rcd13ifvqh5g","pricing_plan_id":"cebpf4jnsgd1na2vs0mg"},{"bike_id":"62a4203b-2072-43f9-9cd5-38d0bbef8f0b","system_id":"levelo_inurba_marseille","lat":43.29556,"lon":5.42292,"is_reserved":false,"is_disabled":false,"rental_uris":{"android":"levelo://app?vid=62a4203b-2072-43f9-9cd5-38d0bbef8f0b","ios":"levelo://app?vid=62a4203b-2072-43f9-9cd5-38d0bbef8f0b"},"vehicle_type_id":"4","last_reported":1744319351,"current_range_meters":16000,"station_id":"ce4bhph2rcd13ifvqhdg","pricing_plan_id":"cebpf4jnsgd1na2vs0mg"},{"bike_id":"a737f5db-dfb3-4dd8-aeff-67617975e190","system_id":"levelo_inurba_marseille","lat":43.29596,"lon":5.37685,"is_reserved":false,"is_disabled":true,"rental_uris":{"android":"levelo://app?vid=a737f5db-dfb3-4dd8-aeff-67617975e190","ios":"levelo://app?vid=a737f5db-dfb3-4dd8-aeff-67617975e190"},"vehicle_type_id":"4","last_reported":1744319351,"current_range_meters":16000,"station_id":"ce4bgi92rcd13ifvqb90","pricing_plan_id":"cebpf4jnsgd1na2vs0mg"},{"bike_id":"88b76a37-b923-434f-94b0-a0e6250c97d1","system_id":"levelo_inurba_marseille","lat":43.3033,"lon":5.40437,"is_reserved":false,"is_disabled":false,"rental_uris":{"android":"levelo://app?vid=88b76a37-b923-434f-94b0-a0e6250c97d1","ios":"levelo://app?vid=88b76a37-b923-434f-94b0-a0e6250c97d1"},"vehicle_type_id":"4","last_reported":1744319351,"current_range_meters":16000,"station_id":"ce4bh012rcd13ifvqd10","pricing_plan_id":"cebpf4jnsgd1na2vs0mg"},{"bike_id":"94455896-0f19-4fae-bd72-9879f01fcd6e","system_id":"levelo_inurba_marseille","lat":43.29554,"lon":5.4228,"is_reserved":false,"is_disabled":true,"rental_uris":{"android":"levelo://app?vid=94455896-0f19-4fae-bd72-9879f01fcd6e","ios":"levelo://app?vid=94455896-0f19-4fae-bd72-9879f01fcd6e"},"vehicle_type_id":"4","last_reported":1744319351,"current_range_meters":16000,"station_id":"ce4bhph2rcd13ifvqhdg","pricing_plan_id":"cebpf4jnsgd1na2vs0mg"},{"bike_id":"d1de17d8-8473-459c-ab85-65418194e22a","system_id":"levelo_inurba_marseille","lat":43.26575,"lon":5.39009,"is_reserved":false,"is_disabled":false,"rental_uris":{"android":"levelo://app?vid=d1de17d8-8473-459c-ab85-65418194e22a","ios":"levelo://app?vid=d1de17d8-8473-459c-ab85-65418194e22a"},"vehicle_type_id":"4","last_reported":1744319351,"current_range_meters":16000,"station_id":"ce4bhe12rcd13ifvqf30","pricing_plan_id":"cebpf4jnsgd1na2vs0mg"},{"bike_id":"1066df41-75c6-40c9-be1b-a76eee937607","system_id":"levelo_inurba_marseille","lat":43.29879,"lon":5.389066,"is_reserved":false,"is_disabled":false,"rental_uris":{"android":"levelo://app?vid=1066df41-75c6-40c9-be1b-a76eee937607","ios":"levelo://app?vid=1066df41-75c6-40c9-be1b-a76eee937607"},"vehicle_type_id":"4","last_reported":1744319351,"current_range_meters":16000,"station_id":"ce4bh392rcd13ifvqdl0","pricing_plan_id":"cebpf4jnsgd1na2vs0mg"},{"bike_id":"1a8675f7-96a5-4fc2-8fd4-53f39f26b59b","system_id":"levelo_inurba_marseille","lat":43.32397,"lon":5.38997,"is_reserved":false,"is_disabled":false,"rental_uris":{"android":"levelo://app?vid=1a8675f7-96a5-4fc2-8fd4-53f39f26b59b","ios":"levelo://app?vid=1a8675f7-96a5-4fc2-8fd4-53f39f26b59b"},"vehicle_type_id":"4","last_reported":1744319351,"current_range_meters":16000,"station_id":"ce4bhr12rcd13ifvqhqg","pricing_plan_id":"cebpf4jnsgd1na2vs0mg"},{"bike_id":"4b109572-5912-4c88-b21e-93f6f3ddd48d","system_id":"levelo_inurba_marseille","lat":43.28705,"lon":5.39987,"is_reserved":false,"is_disabled":false,"rental_uris":{"android":"levelo://app?vid=4b109572-5912-4c88-b21e-93f6f3ddd48d","ios":"levelo://app?vid=4b109572-5912-4c88-b21e-93f6f3ddd48d"},"vehicle_type_id":"4","last_reported":1744319351,"current_range_meters":16000,"station_id":"ce4bho92rcd13ifvqh3g","pricing_plan_id":"cebpf4jnsgd1na2vs0mg"},{"bike_id":"1d6caebe-c13b-446e-be93-53e9766f3d9b","system_id":"levelo_inurba_marseille","lat":43.23151,"lon":5.4373,"is_reserved":false,"is_disabled":false,"rental_uris":{"android":"levelo://app?vid=1d6caebe-c13b-446e-be93-53e9766f3d9b","ios":"levelo://app?vid=1d6caebe-c13b-446e-be93-53e9766f3d9b"},"vehicle_type_id":"4","last_reported":1744319351,"current_range_meters":16000,"station_id":"ce4bhmp2rcd13ifvqgog","pricing_plan_id":"cebpf4jnsgd1na2vs0mg"},{"bike_id":"692cc98c-3560-4504-a902-f3e2ecaa791b","system_id":"levelo_inurba_marseille","lat":43.3077,"lon":5.38167,"is_reserved":false,"is_disabled":false,"rental_uris":{"android":"levelo://app?vid=692cc98c-3560-4504-a902-f3e2ecaa791b","ios":"levelo://app?vid=692cc98c-3560-4504-a902-f3e2ecaa791b"},"vehicle_type_id":"4","last_reported":1744319351,"current_range_meters":16000,"station_id":"ce4bgt12rcd13ifvqce0","pricing_plan_id":"cebpf4jnsgd1na2vs0mg"},{"bike_id":"2ba5da8c-bb6d-4ccb-bb41-d0fc55637f5a","system_id":"levelo_inurba_marseille","lat":43.25493,"lon":5.37647,"is_reserved":false,"is_disabled":false,"rental_uris":{"android":"levelo://app?vid=2ba5da8c-bb6d-4ccb-bb41-d0fc55637f5a","ios":"levelo://app?vid=2ba5da8c-bb6d-4ccb-bb41-d0fc55637f5a"},"vehicle_type_id":"4","last_reported":1744319351,"current_range_meters":16400,"station_id":"ce4bhh12rcd13ifvqff0","pricing_plan_id":"cebpf4jnsgd1na2vs0mg"},{"bike_id":"e6f2667a-967d-45e2-b958-44177a82c2c2","system_id":"levelo_inurba_marseille","lat":43.27945,"lon":5.41049,"is_reserved":false,"is_disabled":false,"rental_uris":{"android":"levelo://app?vid=e6f2667a-967d-45e2-b958-44177a82c2c2","ios":"levelo://app?vid=e6f2667a-967d-45e2-b958-44177a82c2c2"},"vehicle_type_id":"4","last_reported":1744319351,"current_range_meters":16400,"station_id":"ce4bhnp2rcd13ifvqh0g","pricing_plan_id":"cebpf4jnsgd1na2vs0mg"},{"bike_id":"e24916fb-7755-4e53-b60d-62182a1de7b1","system_id":"levelo_inurba_marseille","lat":43.30103,"lon":5.39082,"is_reserved":false,"is_disabled":false,"rental_uris":{"android":"levelo://app?vid=e24916fb-7755-4e53-b60d-62182a1de7b1","ios":"levelo://app?vid=e24916fb-7755-4e53-b60d-62182a1de7b1"},"vehicle_type_id":"4","last_reported":1744319351,"current_range_meters":16400,"station_id":"ce4bh192rcd13ifvqdb0","pricing_plan_id":"cebpf4jnsgd1na2vs0mg"},{"bike_id":"965f43a6-4a0d-40a9-b4ab-5ea8390b4769","system_id":"levelo_inurba_marseille","lat":43.23189,"lon":5.39978,"is_reserved":false,"is_disabled":false,"rental_uris":{"android":"levelo://app?vid=965f43a6-4a0d-40a9-b4ab-5ea8390b4769","ios":"levelo://app?vid=965f43a6-4a0d-40a9-b4ab-5ea8390b4769"},"vehicle_type_id":"4","last_reported":1744319351,"current_range_meters":16400,"station_id":"ce4bhn12rcd13ifvqgqg","pricing_plan_id":"cebpf4jnsgd1na2vs0mg"},{"bike_id":"50e370fb-4638-428f-8dae-ad491b3fa95b","system_id":"levelo_inurba_marseille","lat":43.29532,"lon":5.38546,"is_reserved":false,"is_disabled":false,"rental_uris":{"android":"levelo://app?vid=50e370fb-4638-428f-8dae-ad491b3fa95b","ios":"levelo://app?vid=50e370fb-4638-428f-8dae-ad491b3fa95b"},"vehicle_type_id":"4","last_reported":1744319351,"current_range_meters":16400,"station_id":"ce4bgih2rcd13ifvqba0","pricing_plan_id":"cebpf4jnsgd1na2vs0mg"},{"bike_id":"467924d9-889a-4591-a26d-c954ba0abb33","system_id":"levelo_inurba_marseille","lat":43.32381,"lon":5.38992,"is_reserved":false,"is_disabled":false,"rental_uris":{"android":"levelo://app?vid=467924d9-889a-4591-a26d-c954ba0abb33","ios":"levelo://app?vid=467924d9-889a-4591-a26d-c954ba0abb33"},"vehicle_type_id":"4","last_reported":1744319351,"current_range_meters":16400,"station_id":"","pricing_plan_id":"cebpf4jnsgd1na2vs0mg"},{"bike_id":"463b41fd-37bb-48c0-a6e4-12f737a3d7cf","system_id":"levelo_inurba_marseille","lat":43.26956,"lon":5.40268,"is_reserved":false,"is_disabled":true,"rental_uris":{"android":"levelo://app?vid=463b41fd-37bb-48c0-a6e4-12f737a3d7cf","ios":"levelo://app?vid=463b41fd-37bb-48c0-a6e4-12f737a3d7cf"},"vehicle_type_id":"4","last_reported":1744319351,"current_range_meters":16400,"station_id":"cjm6bp8fraef2m0cb0m0","pricing_plan_id":"cebpf4jnsgd1na2vs0mg"},{"bike_id":"fbd51d4f-3071-4609-b042-52b0dcccbe4b","system_id":"levelo_inurba_marseille","lat":43.2439,"lon":5.37041,"is_reserved":false,"is_disabled":false,"rental_uris":{"android":"levelo://app?vid=fbd51d4f-3071-4609-b042-52b0dcccbe4b","ios":"levelo://app?vid=fbd51d4f-3071-4609-b042-52b0dcccbe4b"},"vehicle_type_id":"4","last_reported":1744319351,"current_range_meters":16400,"station_id":"ce4bhhh2rcd13ifvqfk0","pricing_plan_id":"cebpf4jnsgd1na2vs0mg"},{"bike_id":"923cd337-07e7-4598-88d9-f7475f9f2325","system_id":"levelo_inurba_marseille","lat":43.28087,"lon":5.37868,"is_reserved":false,"is_disabled":false,"rental_uris":{"android":"levelo://app?vid=923cd337-07e7-4598-88d9-f7475f9f2325","ios":"levelo://app?vid=923cd337-07e7-4598-88d9-f7475f9f2325"},"vehicle_type_id":"4","last_reported":1744319351,"current_range_meters":16400,"station_id":"ce4bha12rcd13ifvqee0","pricing_plan_id":"cebpf4jnsgd1na2vs0mg"},{"bike_id":"182650a6-9433-4951-80ba-44b6e3878dab","system_id":"levelo_inurba_marseille","lat":43.30538,"lon":5.38431,"is_reserved":false,"is_disabled":true,"rental_uris":{"android":"levelo://app?vid=182650a6-9433-4951-80ba-44b6e3878dab","ios":"levelo://app?vid=182650a6-9433-4951-80ba-44b6e3878dab"},"vehicle_type_id":"4","last_reported":1744319351,"current_range_meters":16400,"station_id":"ce4bgg92rcd13ifvqb30","pricing_plan_id":"cebpf4jnsgd1na2vs0mg"},{"bike_id":"7dae892c-e628-48ac-a4f7-362869bb9d1b","system_id":"levelo_inurba_marseille","lat":43.30922,"lon":5.40141,"is_reserved":false,"is_disabled":false,"rental_uris":{"android":"levelo://app?vid=7dae892c-e628-48ac-a4f7-362869bb9d1b","ios":"levelo://app?vid=7dae892c-e628-48ac-a4f7-362869bb9d1b"},"vehicle_type_id":"4","last_reported":1744319351,"current_range_meters":16400,"station_id":"ce4bgvp2rcd13ifvqct0","pricing_plan_id":"cebpf4jnsgd1na2vs0mg"},{"bike_id":"54b2950c-4a8d-4509-b103-0603c2f79940","system_id":"levelo_inurba_marseille","lat":43.30427,"lon":5.38885,"is_reserved":false,"is_disabled":false,"rental_uris":{"android":"levelo://app?vid=54b2950c-4a8d-4509-b103-0603c2f79940","ios":"levelo://app?vid=54b2950c-4a8d-4509-b103-0603c2f79940"},"vehicle_type_id":"4","last_reported":1744319351,"current_range_meters":16400,"station_id":"ce4bgk12rcd13ifvqbi0","pricing_plan_id":"cebpf4jnsgd1na2vs0mg"},{"bike_id":"e06c659a-cec1-4640-bdca-971598e3ffcc","system_id":"levelo_inurba_marseille","lat":43.3015,"lon":5.38083,"is_reserved":false,"is_disabled":false,"rental_uris":{"android":"levelo://app?vid=e06c659a-cec1-4640-bdca-971598e3ffcc","ios":"levelo://app?vid=e06c659a-cec1-4640-bdca-971598e3ffcc"},"vehicle_type_id":"4","last_reported":1744319351,"current_range_meters":16800,"station_id":"ce4bgjp2rcd13ifvqbh0","pricing_plan_id":"cebpf4jnsgd1na2vs0mg"},{"bike_id":"6c1f58c0-3816-4927-ae39-1d1960ea3520","system_id":"levelo_inurba_marseille","lat":43.27919,"lon":5.39581,"is_reserved":false,"is_disabled":false,"rental_uris":{"android":"levelo://app?vid=6c1f58c0-3816-4927-ae39-1d1960ea3520","ios":"levelo://app?vid=6c1f58c0-3816-4927-ae39-1d1960ea3520"},"vehicle_type_id":"4","last_reported":1744319351,"current_range_meters":16800,"station_id":"ce4bhf92rcd13ifvqf40","pricing_plan_id":"cebpf4jnsgd1na2vs0mg"},{"bike_id":"8805ec8a-501d-414a-afa7-02f93ec255f0","system_id":"levelo_inurba_marseille","lat":43.30803,"lon":5.38152,"is_reserved":false,"is_disabled":false,"rental_uris":{"android":"levelo://app?vid=8805ec8a-501d-414a-afa7-02f93ec255f0","ios":"levelo://app?vid=8805ec8a-501d-414a-afa7-02f93ec255f0"},"vehicle_type_id":"4","last_reported":1744319351,"current_range_meters":16800,"station_id":"ce4bgt12rcd13ifvqce0","pricing_plan_id":"cebpf4jnsgd1na2vs0mg"},{"bike_id":"6d1f80b1-80e0-4012-99d1-3f8172cadb63","system_id":"levelo_inurba_marseille","lat":43.24174,"lon":5.36408,"is_reserved":false,"is_disabled":false,"rental_uris":{"android":"levelo://app?vid=6d1f80b1-80e0-4012-99d1-3f8172cadb63","ios":"levelo://app?vid=6d1f80b1-80e0-4012-99d1-3f8172cadb63"},"vehicle_type_id":"4","last_reported":1744319351,"current_range_meters":16800,"station_id":"cpo36qri1sfpv3e86is0","pricing_plan_id":"cebpf4jnsgd1na2vs0mg"},{"bike_id":"d3d9cd65-8151-402d-bb2b-ab24c1581d73","system_id":"levelo_inurba_marseille","lat":43.3205,"lon":5.41519,"is_reserved":false,"is_disabled":false,"rental_uris":{"android":"levelo://app?vid=d3d9cd65-8151-402d-bb2b-ab24c1581d73","ios":"levelo://app?vid=d3d9cd65-8151-402d-bb2b-ab24c1581d73"},"vehicle_type_id":"4","last_reported":1744319351,"current_range_meters":16800,"station_id":"ce4bhq92rcd13ifvqhkg","pricing_plan_id":"cebpf4jnsgd1na2vs0mg"},{"bike_id":"f67d7abe-c297-4957-b269-6e3ec729c773","system_id":"levelo_inurba_marseille","lat":43.27826,"lon":5.39205,"is_reserved":false,"is_disabled":false,"rental_uris":{"android":"levelo://app?vid=f67d7abe-c297-4957-b269-6e3ec729c773","ios":"levelo://app?vid=f67d7abe-c297-4957-b269-6e3ec729c773"},"vehicle_type_id":"4","last_reported":1744319351,"current_range_meters":16800,"station_id":"ce4bhjp2rcd13ifvqga0","pricing_plan_id":"cebpf4jnsgd1na2vs0mg"},{"bike_id":"80d249c8-0662-4d03-929e-8febcdcd4a57","system_id":"levelo_inurba_marseille","lat":43.24083,"lon":5.37757,"is_reserved":false,"is_disabled":false,"rental_uris":{"android":"levelo://app?vid=80d249c8-0662-4d03-929e-8febcdcd4a57","ios":"levelo://app?vid=80d249c8-0662-4d03-929e-8febcdcd4a57"},"vehicle_type_id":"4","last_reported":1744319351,"current_range_meters":16800,"station_id":"ce4bhnp2rcd13ifvqgvg","pricing_plan_id":"cebpf4jnsgd1na2vs0mg"},{"bike_id":"d4a1fc33-4313-4254-8a3d-5b22f97cf603","system_id":"levelo_inurba_marseille","lat":43.29264,"lon":5.40157,"is_reserved":false,"is_disabled":false,"rental_uris":{"android":"levelo://app?vid=d4a1fc33-4313-4254-8a3d-5b22f97cf603","ios":"levelo://app?vid=d4a1fc33-4313-4254-8a3d-5b22f97cf603"},"vehicle_type_id":"4","last_reported":1744319351,"current_range_meters":16800,"station_id":"ce4bh312rcd13ifvqdk0","pricing_plan_id":"cebpf4jnsgd1na2vs0mg"},{"bike_id":"5e8898ff-11ab-4c13-ab28-09e25bd9ed33","system_id":"levelo_inurba_marseille","lat":43.22926,"lon":5.35375,"is_reserved":false,"is_disabled":false,"rental_uris":{"android":"levelo://app?vid=5e8898ff-11ab-4c13-ab28-09e25bd9ed33","ios":"levelo://app?vid=5e8898ff-11ab-4c13-ab28-09e25bd9ed33"},"vehicle_type_id":"4","last_reported":1744319351,"current_range_meters":17200,"station_id":"cpo3532slgdg3j2ikp40","pricing_plan_id":"cebpf4jnsgd1na2vs0mg"},{"bike_id":"586d4bfc-c6e9-40ef-a5b4-76722cbc0f98","system_id":"levelo_inurba_marseille","lat":43.26803,"lon":5.40272,"is_reserved":false,"is_disabled":false,"rental_uris":{"android":"levelo://app?vid=586d4bfc-c6e9-40ef-a5b4-76722cbc0f98","ios":"levelo://app?vid=586d4bfc-c6e9-40ef-a5b4-76722cbc0f98"},"vehicle_type_id":"4","last_reported":1744319351,"current_range_meters":17200,"station_id":"ce501612rcd8frsf0b60","pricing_plan_id":"cebpf4jnsgd1na2vs0mg"},{"bike_id":"97e1cf13-6cae-4046-8135-09aeffc329ab","system_id":"levelo_inurba_marseille","lat":43.28728,"lon":5.37431,"is_reserved":false,"is_disabled":true,"rental_uris":{"android":"levelo://app?vid=97e1cf13-6cae-4046-8135-09aeffc329ab","ios":"levelo://app?vid=97e1cf13-6cae-4046-8135-09aeffc329ab"},"vehicle_type_id":"4","last_reported":1744319351,"current_range_meters":17200,"station_id":"ce4bh3p2rcd13ifvqdq0","pricing_plan_id":"cebpf4jnsgd1na2vs0mg"},{"bike_id":"639ba9a6-0fa6-4624-b112-f308dc0b877a","system_id":"levelo_inurba_marseille","lat":43.30531,"lon":5.38435,"is_reserved":false,"is_disabled":false,"rental_uris":{"android":"levelo://app?vid=639ba9a6-0fa6-4624-b112-f308dc0b877a","ios":"levelo://app?vid=639ba9a6-0fa6-4624-b112-f308dc0b877a"},"vehicle_type_id":"4","last_reported":1744319351,"current_range_meters":17200,"station_id":"ce4bgg92rcd13ifvqb30","pricing_plan_id":"cebpf4jnsgd1na2vs0mg"},{"bike_id":"9589476e-f9ed-406f-9128-3849603c1def","system_id":"levelo_inurba_marseille","lat":43.298723,"lon":5.389227,"is_reserved":false,"is_disabled":false,"rental_uris":{"android":"levelo://app?vid=9589476e-f9ed-406f-9128-3849603c1def","ios":"levelo://app?vid=9589476e-f9ed-406f-9128-3849603c1def"},"vehicle_type_id":"4","last_reported":1744319351,"current_range_meters":17200,"station_id":"ce4bh392rcd13ifvqdl0","pricing_plan_id":"cebpf4jnsgd1na2vs0mg"},{"bike_id":"549918be-d79a-4899-a870-6473907900ee","system_id":"levelo_inurba_marseille","lat":43.29844,"lon":5.36289,"is_reserved":false,"is_disabled":true,"rental_uris":{"android":"levelo://app?vid=549918be-d79a-4899-a870-6473907900ee","ios":"levelo://app?vid=549918be-d79a-4899-a870-6473907900ee"},"vehicle_type_id":"4","last_reported":1744319351,"current_range_meters":17200,"station_id":"ce4bgpp2rcd13ifvqc3g","pricing_plan_id":"cebpf4jnsgd1na2vs0mg"},{"bike_id":"09b23838-ef8a-400d-9175-f211d64a4290","system_id":"levelo_inurba_marseille","lat":43.25711,"lon":5.41109,"is_reserved":false,"is_disabled":false,"rental_uris":{"android":"levelo://app?vid=09b23838-ef8a-400d-9175-f211d64a4290","ios":"levelo://app?vid=09b23838-ef8a-400d-9175-f211d64a4290"},"vehicle_type_id":"4","last_reported":1744319351,"current_range_meters":17200,"station_id":"ce4bhkp2rcd13ifvqgd0","pricing_plan_id":"cebpf4jnsgd1na2vs0mg"},{"bike_id":"9231697b-6013-4739-8145-946afd92531f","system_id":"levelo_inurba_marseille","lat":43.3003,"lon":5.40008,"is_reserved":false,"is_disabled":false,"rental_uris":{"android":"levelo://app?vid=9231697b-6013-4739-8145-946afd92531f","ios":"levelo://app?vid=9231697b-6013-4739-8145-946afd92531f"},"vehicle_type_id":"4","last_reported":1744319351,"current_range_meters":17200,"station_id":"","pricing_plan_id":"cebpf4jnsgd1na2vs0mg"},{"bike_id":"1b28a96e-ff57-4bf5-85d0-8da089b3d3cd","system_id":"levelo_inurba_marseille","lat":43.26666,"lon":5.38286,"is_reserved":false,"is_disabled":true,"rental_uris":{"android":"levelo://app?vid=1b28a96e-ff57-4bf5-85d0-8da089b3d3cd","ios":"levelo://app?vid=1b28a96e-ff57-4bf5-85d0-8da089b3d3cd"},"vehicle_type_id":"4","last_reported":1744319351,"current_range_meters":17200,"station_id":"ce4bhg92rcd13ifvqf90","pricing_plan_id":"cebpf4jnsgd1na2vs0mg"},{"bike_id":"0a12228f-61f9-48c1-9f2f-bd8159dce7a6","system_id":"levelo_inurba_marseille","lat":43.26205,"lon":5.37418,"is_reserved":false,"is_disabled":true,"rental_uris":{"android":"levelo://app?vid=0a12228f-61f9-48c1-9f2f-bd8159dce7a6","ios":"levelo://app?vid=0a12228f-61f9-48c1-9f2f-bd8159dce7a6"},"vehicle_type_id":"4","last_reported":1744319351,"current_range_meters":17600,"station_id":"ce4bhgp2rcd13ifvqfc0","pricing_plan_id":"cebpf4jnsgd1na2vs0mg"},{"bike_id":"872c2c56-2ca2-429f-bf74-abf0a69eeaca","system_id":"levelo_inurba_marseille","lat":43.30419,"lon":5.38905,"is_reserved":false,"is_disabled":false,"rental_uris":{"android":"levelo://app?vid=872c2c56-2ca2-429f-bf74-abf0a69eeaca","ios":"levelo://app?vid=872c2c56-2ca2-429f-bf74-abf0a69eeaca"},"vehicle_type_id":"4","last_reported":1744319351,"current_range_meters":17200,"station_id":"ce4bgk12rcd13ifvqbi0","pricing_plan_id":"cebpf4jnsgd1na2vs0mg"},