{"last_updated":1758452794,"ttl":60,"version":"2.2","data":{"bikes":[{"bike_id":"c9f4b21b-ec2b-4175-aa80-1c0e52fd7e28","system_id":"levelo_inurba_marseille","lat":43.28437,"lon":5.49035,"is_reserved":false,"is_disabled":false,"rental_uris":{"android":"levelo://app?vid=c9f4b21b-ec2b-4175-aa80-1c0e52fd7e28","ios":"levelo://app?vid=c9f4b21b-ec2b-4175-aa80-1c0e52fd7e28"},"vehicle_type_id":"4","last_reported":1758452795,"current_range_meters":2800,"station_id":"","pricing_plan_id":"cebpf4jnsgd1na2vs0mg"},{"bike_id":"6ed09330-4b70-475b-bf01-67a67da63cb7","system_id":"levelo_inurba_marseille","lat":43.24999,"lon":5.38928,"is_reserved":false,"is_disabled":false,"rental_uris":{"android":"levelo://app?vid=6ed09330-4b70-475b-bf01-67a67da63cb7","ios":"levelo://app?vid=6ed09330-4b70-475b-bf01-67a67da63cb7"},"vehicle_type_id":"4","last_reported":1758452795,"current_range_meters":2800,"station_id":"ce4bhgp2rcd13ifvqfd0","pricing_plan_id":"cebpf4jnsgd1na2vs0mg"},{"bike_id":"78a18b56-84dc-49f2-a9b1-5bbfde6eda3e","system_id":"levelo_inurba_marseille","lat":43.29972,"lon":5.38502,"is_reserved":false,"is_disabled":true,"rental_uris":{"android":"levelo://app?vid=78a18b56-84dc-49f2-a9b1-5bbfde6eda3e","ios":"levelo://app?vid=78a18b56-84dc-49f2-a9b1-5bbfde6eda3e"},"vehicle_type_id":"4","last_reported":1758452795,"current_range_meters":2800,"station_id":"ce4bgj92rcd13ifvqbd0","pricing_plan_id":"cebpf4jnsgd1na2vs0mg"},{"bike_id":"bf905483-a5f9-46d7-9103-7e859a492df1","system_id":"levelo_inurba_marseille","lat":43.31343,"lon":5.36724,"is_reserved":false,"is_disabled":false,"rental_uris":{"android":"levelo://app?vid=bf905483-a5f9-46d7-9103-7e859a492df1","ios":"levelo://app?vid=bf905483-a5f9-46d7-9103-7e859a492df1"},"vehicle_type_id":"4","last_reported":1758452795,"current_range_meters":3200,"station_id":"ce4bgr92rcd13ifvqc6g","pricing_plan_id":"cebpf4jnsgd1na2vs0mg"},{"bike_id":"74965e53-179f-4624-ad4d-dd0379f27bd7","system_id":"levelo_inurba_marseille","lat":43.29571,"lon":5.37494,"is_reserved":false,"is_disabled":false,"rental_uris":{"android":"levelo://app?vid=74965e53-179f-4624-ad4d-dd0379f27bd7","ios":"levelo://app?vid=74965e53-179f-4624-ad4d-dd0379f27bd7"},"vehicle_type_id":"4","last_reported":1758452795,"current_range_meters":3600,"station_id":"ce4bgh92rcd13ifvqb50","pricing_plan_id":"cebpf4jnsgd1na2vs0mg"},{"bike_id":"90e8324f-ab5a-4b51-81a5-e116e7955ae7","system_id":"levelo_inurba_marseille","lat":43.26553,"lon":5.37276,"is_reserved":false,"is_disabled":true,"rental_uris":{"android":"levelo://app?vid=90e8324f-ab5a-4b51-81a5-e116e7955ae7","ios":"levelo://app?vid=90e8324f-ab5a-4b51-81a5-e116e7955ae7"},"vehicle_type_id":"4","last_reported":1758452795,"current_range_meters":3600,"station_id":"ce4bhg12rcd13ifvqf70","pricing_plan_id":"cebpf4jnsgd1na2vs0mg"},{"bike_id":"adbbec83-b051-4e7f-a394-5fdc9b2b0234","system_id":"levelo_inurba_marseille","lat":43.32076,"lon":5.38458,"is_reserved":false,"is_disabled":false,"rental_uris":{"android":"levelo://app?vid=adbbec83-b051-4e7f-a394-5fdc9b2b0234","ios":"levelo://app?vid=adbbec83-b051-4e7f-a394-5fdc9b2b0234"},"vehicle_type_id":"4","last_reported":1758452795,"current_range_meters":3600,"station_id":"","pricing_plan_id":"cebpf4jnsgd1na2vs0mg"},{"bike_id":"105f8ef0-cb77-48f2-b394-cf4411f55808","system_id":"levelo_inurba_marseille","lat":43.26565,"lon":5.39036,"is_reserved":false,"is_disabled":false,"rental_uris":{"android":"levelo://app?vid=105f8ef0-cb77-48f2-b394-cf4411f55808","ios":"levelo://app?vid=105f8ef0-cb77-48f2-b394-cf4411f55808"},"vehicle_type_id":"4","last_reported":1758452795,"current_range_meters":3600,"station_id":"ce4bhe12rcd13ifvqf30","pricing_plan_id":"cebpf4jnsgd1na2vs0mg"},{"bike_id":"3c9735e9-fd7e-4079-8199-725760347837","system_id":"levelo_inurba_marseille","lat":43.21193,"lon":5.35072,"is_reserved":false,"is_disabled":false,"rental_uris":{"android":"levelo://app?vid=3c9735e9-fd7e-4079-8199-725760347837","ios":"levelo://app?vid=3c9735e9-fd7e-4079-8199-725760347837"},"vehicle_type_id":"4","last_reported":1758452795,"current_range_meters":4000,"station_id":"st_cvj6sg6p6f1abm77japg","pricing_plan_id":"cebpf4jnsgd1na2vs0mg"},{"bike_id":"e1065c32-ac19-477b-812a-39f964d50769","system_id":"levelo_inurba_marseille","lat":43.23201,"lon":5.3555,"is_reserved":false,"is_disabled":true,"rental_uris":{"android":"levelo://app?vid=e1065c32-ac19-477b-812a-39f964d50769","ios":"levelo://app?vid=e1065c32-ac19-477b-812a-39f964d50769"},"vehicle_type_id":"4","last_reported":1758452795,"current_range_meters":4000,"station_id":"ce4bhu92rcd13ifvqi70","pricing_plan_id":"cebpf4jnsgd1na2vs0mg"},{"bike_id":"8e05ad20-13dc-4dc2-9b5d-cf4ca08aca69","system_id":"levelo_inurba_marseille","lat":43.30504,"lon":5.36504,"is_reserved":false,"is_disabled":false,"rental_uris":{"android":"levelo://app?vid=8e05ad20-13dc-4dc2-9b5d-cf4ca08aca69","ios":"levelo://app?vid=8e05ad20-13dc-4dc2-9b5d-cf4ca08aca69"},"vehicle_type_id":"4","last_reported":1758452795,"current_range_meters":4000,"station_id":"","pricing_plan_id":"cebpf4jnsgd1na2vs0mg"},{"bike_id":"9140a086-911e-4736-9d9a-add933080dbf","system_id":"levelo_inurba_marseille","lat":43.30121,"lon":5.38779,"is_reserved":false,"is_disabled":false,"rental_uris":{"android":"levelo://app?vid=9140a086-911e-4736-9d9a-add933080dbf","ios":"levelo://app?vid=9140a086-911e-4736-9d9a-add933080dbf"},"vehicle_type_id":"4","last_reported":1758452795,"current_range_meters":4400,"station_id":"ce4bghh2rcd13ifvqb60","pricing_plan_id":"cebpf4jnsgd1na2vs0mg"},{"bike_id":"6dc49f8f-31b8-485c-b489-e3fd253e6676","system_id":"levelo_inurba_marseille","lat":43.32668,"lon":5.40994,"is_reserved":false,"is_disabled":true,"rental_uris":{"android":"levelo://app?vid=6dc49f8f-31b8-485c-b489-e3fd253e6676","ios":"levelo://app?vid=6dc49f8f-31b8-485c-b489-e3fd253e6676"},"vehicle_type_id":"4","last_reported":1758452795,"current_range_meters":4400,"station_id":"ce4bhpp2rcd13ifvqhgg","pricing_plan_id":"cebpf4jnsgd1na2vs0mg"},{"bike_id":"ec858c69-87cf-4356-ac96-bbccb3fc646a","system_id":"levelo_inurba_marseille","lat":43.30884,"lon":5.39643,"is_reserved":false,"is_disabled":false,"rental_uris":{"android":"levelo://app?vid=ec858c69-87cf-4356-ac96-bbccb3fc646a","ios":"levelo://app?vid=ec858c69-87cf-4356-ac96-bbccb3fc646a"},"vehicle_type_id":"4","last_reported":1758452795,"current_range_meters":4400,"station_id":"ce4bh012rcd13ifvqcv0","pricing_plan_id":"cebpf4jnsgd1na2vs0mg"},{"bike_id":"7cc44e80-455a-40c3-8486-d2fc2f42074a","system_id":"levelo_inurba_marseille","lat":43.23201,"lon":5.39973,"is_reserved":false,"is_disabled":false,"rental_uris":{"android":"levelo://app?vid=7cc44e80-455a-40c3-8486-d2fc2f42074a","ios":"levelo://app?vid=7cc44e80-455a-40c3-8486-d2fc2f42074a"},"vehicle_type_id":"4","last_reported":1758452795,"current_range_meters":4400,"station_id":"ce4bhn12rcd13ifvqgqg","pricing_plan_id":"cebpf4jnsgd1na2vs0mg"},{"bike_id":"0960e3dd-c358-4474-bd10-8223758e1f6b","system_id":"levelo_inurba_marseille","lat":43.296996,"lon":5.376855,"is_reserved":false,"is_disabled":false,"rental_uris":{"android":"levelo://app?vid=0960e3dd-c358-4474-bd10-8223758e1f6b","ios":"levelo://app?vid=0960e3dd-c358-4474-bd10-8223758e1f6b"},"vehicle_type_id":"4","last_reported":1758452795,"current_range_meters":4400,"station_id":"","pricing_plan_id":"cebpf4jnsgd1na2vs0mg"},{"bike_id":"1ea0aaf6-032a-4e1b-9953-cc0f602f057b","system_id":"levelo_inurba_marseille","lat":43.21756,"lon":5.34586,"is_reserved":false,"is_disabled":false,"rental_uris":{"android":"levelo://app?vid=1ea0aaf6-032a-4e1b-9953-cc0f602f057b","ios":"levelo://app?vid=1ea0aaf6-032a-4e1b-9953-cc0f602f057b"},"vehicle_type_id":"4","last_reported":1758452795,"current_range_meters":4800,"station_id":"","pricing_plan_id":"cebpf4jnsgd1na2vs0mg"},{"bike_id":"d7902a40-2b06-42ab-bb30-cc9c7c7c3e6b","system_id":"levelo_inurba_marseille","lat":43.29308,"lon":5.37166,"is_reserved":false,"is_disabled":false,"rental_uris":{"android":"levelo://app?vid=d7902a40-2b06-42ab-bb30-cc9c7c7c3e6b","ios":"levelo://app?vid=d7902a40-2b06-42ab-bb30-cc9c7c7c3e6b"},"vehicle_type_id":"4","last_reported":1758452795,"current_range_meters":4800,"station_id":"ce4bgh92rcd13ifvqb40","pricing_plan_id":"cebpf4jnsgd1na2vs0mg"},{"bike_id":"c627b34a-8e81-4438-af3b-4fd0aab1c160","system_id":"levelo_inurba_marseille","lat":43.296709,"lon":5.360251,"is_reserved":false,"is_disabled":false,"rental_uris":{"android":"levelo://app?vid=c627b34a-8e81-4438-af3b-4fd0aab1c160","ios":"levelo://app?vid=c627b34a-8e81-4438-af3b-4fd0aab1c160"},"vehicle_type_id":"4","last_reported":1758452795,"current_range_meters":4800,"station_id":"","pricing_plan_id":"cebpf4jnsgd1na2vs0mg"},{"bike_id":"ab5b9659-77bc-417b-8f8b-7002662fbf28","system_id":"levelo_inurba_marseille","lat":43.29322,"lon":5.411535,"is_reserved":false,"is_disabled":false,"rental_uris":{"android":"levelo://app?vid=ab5b9659-77bc-417b-8f8b-7002662fbf28","ios":"levelo://app?vid=ab5b9659-77bc-417b-8f8b-7002662fbf28"},"vehicle_type_id":"4","last_reported":1758452795,"current_range_meters":4800,"station_id":"","pricing_plan_id":"cebpf4jnsgd1na2vs0mg"},{"bike_id":"1dbc6ff6-de1e-44f5-9332-c8820f81075d","system_id":"levelo_inurba_marseille","lat":43.21221,"lon":5.35155,"is_reserved":false,"is_disabled":true,"rental_uris":{"android":"levelo://app?vid=1dbc6ff6-de1e-44f5-9332-c8820f81075d","ios":"levelo://app?vid=1dbc6ff6-de1e-44f5-9332-c8820f81075d"},"vehicle_type_id":"4","last_reported":1758452795,"current_range_meters":5600,"station_id":"","pricing_plan_id":"cebpf4jnsgd1na2vs0mg"},{"bike_id":"8686a64e-0e9f-4e4c-a1a4-0ba8e1e5ba26","system_id":"levelo_inurba_marseille","lat":43.24646,"lon":5.38892,"is_reserved":false,"is_disabled":false,"rental_uris":{"android":"levelo://app?vid=8686a64e-0e9f-4e4c-a1a4-0ba8e1e5ba26","ios":"levelo://app?vid=8686a64e-0e9f-4e4c-a1a4-0ba8e1e5ba26"},"vehicle_type_id":"4","last_reported":1758452795,"current_range_meters":5600,"station_id":"ce4bhg12rcd13ifvqf60","pricing_plan_id":"cebpf4jnsgd1na2vs0mg"},{"bike_id":"307e5c6f-ec4f-465a-b286-22d8a38803a0","system_id":"levelo_inurba_marseille","lat":43.27059,"lon":5.40243,"is_reserved":false,"is_disabled":false,"rental_uris":{"android":"levelo://app?vid=307e5c6f-ec4f-465a-b286-22d8a38803a0","ios":"levelo://app?vid=307e5c6f-ec4f-465a-b286-22d8a38803a0"},"vehicle_type_id":"4","last_reported":1758452795,"current_range_meters":5600,"station_id":"ce4bhk92rcd13ifvqgc0","pricing_plan_id":"cebpf4jnsgd1na2vs0mg"},{"bike_id":"cb733ef9-6b0c-41ea-8e73-019490cba6df","system_id":"levelo_inurba_marseille","lat":43.278785,"lon":5.425532,"is_reserved":false,"is_disabled":false,"rental_uris":{"android":"levelo://app?vid=cb733ef9-6b0c-41ea-8e73-019490cba6df","ios":"levelo://app?vid=cb733ef9-6b0c-41ea-8e73-019490cba6df"},"vehicle_type_id":"4","last_reported":1758452795,"current_range_meters":5600,"station_id":"","pricing_plan_id":"cebpf4jnsgd1na2vs0mg"},{"bike_id":"805fcb00-d60e-47ec-b0ad-3cb70b09a505","system_id":"levelo_inurba_marseille","lat":43.25109,"lon":5.40319,"is_reserved":false,"is_disabled":false,"rental_uris":{"android":"levelo://app?vid=805fcb00-d60e-47ec-b0ad-3cb70b09a505","ios":"levelo://app?vid=805fcb00-d60e-47ec-b0ad-3cb70b09a505"},"vehicle_type_id":"4","last_reported":1758452795,"current_range_meters":4800,"station_id":"ce4bhlh2rcd13ifvqgig","pricing_plan_id":"cebpf4jnsgd1na2vs0mg"},{"bike_id":"7dd65b1b-fb7b-4087-9803-34d477de11ae","system_id":"levelo_inurba_marseille","lat":43.2116,"lon":5.35098,"is_reserved":false,"is_disabled":false,"rental_uris":{"android":"levelo://app?vid=7dd65b1b-fb7b-4087-9803-34d477de11ae","ios":"levelo://app?vid=7dd65b1b-fb7b-4087-9803-34d477de11ae"},"vehicle_type_id":"4","last_reported":1758452795,"current_range_meters":6000,"station_id":"st_cvj6sg6p6f1abm77japg","pricing_plan_id":"cebpf4jnsgd1na2vs0mg"},{"bike_id":"3082f593-a5a6-48f9-afa8-383813f7af0b","system_id":"levelo_inurba_marseille","lat":43.2174,"lon":5.34606,"is_reserved":false,"is_disabled":true,"rental_uris":{"android":"levelo://app?vid=3082f593-a5a6-48f9-afa8-383813f7af0b","ios":"levelo://app?vid=3082f593-a5a6-48f9-afa8-383813f7af0b"},"vehicle_type_id":"4","last_reported":1758452795,"current_range_meters":6000,"station_id":"st_cvj6r9ubvosntc0bgbag","pricing_plan_id":"cebpf4jnsgd1na2vs0mg"},{"bike_id":"04ac4072-76af-404d-8a72-a8ffe8ae8fcc","system_id":"levelo_inurba_marseille","lat":43.310549,"lon":5.38574,"is_reserved":false,"is_disabled":true,"rental_uris":{"android":"levelo://app?vid=04ac4072-76af-404d-8a72-a8ffe8ae8fcc","ios":"levelo://app?vid=04ac4072-76af-404d-8a72-a8ffe8ae8fcc"},"vehicle_type_id":"4","last_reported":1758452795,"current_range_meters":6000,"station_id":"","pricing_plan_id":"cebpf4jnsgd1na2vs0mg"},{"bike_id":"53264fdb-d3ce-412c-9b54-11908fde133c","system_id":"levelo_inurba_marseille","lat":43.25868,"lon":5.39901,"is_reserved":false,"is_disabled":true,"rental_uris":{"android":"levelo://app?vid=53264fdb-d3ce-412c-9b54-11908fde133c","ios":"levelo://app?vid=53264fdb-d3ce-412c-9b54-11908fde133c"},"vehicle_type_id":"4","last_reported":1758452795,"current_range_meters":6000,"station_id":"ce4bhl92rcd13ifvqghg","pricing_plan_id":"cebpf4jnsgd1na2vs0mg"},{"bike_id":"37e1f6b1-cf86-4107-9a0b-9e12910128e5","system_id":"levelo_inurba_marseille","lat":43.30196,"lon":5.36616,"is_reserved":false,"is_disabled":true,"rental_uris":{"android":"levelo://app?vid=37e1f6b1-cf86-4107-9a0b-9e12910128e5","ios":"levelo://app?vid=37e1f6b1-cf86-4107-9a0b-9e12910128e5"},"vehicle_type_id":"4","last_reported":1758452795,"current_range_meters":6000,"station_id":"ce4bgrh2rcd13ifvqc8g","pricing_plan_id":"cebpf4jnsgd1na2vs0mg"},{"bike_id":"de837928-bb1f-41a1-962e-3e89effce715","system_id":"levelo_inurba_marseille","lat":43.2496,"lon":5.38943,"is_reserved":false,"is_disabled":false,"rental_uris":{"android":"levelo://app?vid=de837928-bb1f-41a1-962e-3e89effce715","ios":"levelo://app?vid=de837928-bb1f-41a1-962e-3e89effce715"},"vehicle_type_id":"4","last_reported":1758452795,"current_range_meters":6000,"station_id":"ce4bhgp2rcd13ifvqfd0","pricing_plan_id":"cebpf4jnsgd1na2vs0mg"},{"bike_id":"12ed6c49-784d-4e90-9587-47eae4f126ab","system_id":"levelo_inurba_marseille","lat":43.2174,"lon":5.34598,"is_reserved":false,"is_disabled":true,"rental_uris":{"android":"levelo://app?vid=12ed6c49-784d-4e90-9587-47eae4f126ab","ios":"levelo://app?vid=12ed6c49-784d-4e90-9587-47eae4f126ab"},"vehicle_type_id":"4","last_reported":1758452795,"current_range_meters":6000,"station_id":"st_cvj6r9ubvosntc0bgbag","pricing_plan_id":"cebpf4jnsgd1na2vs0mg"},{"bike_id":"c51ad096-4aa3-4897-8a22-0348b7c08dfc","system_id":"levelo_inurba_marseille","lat":43.28086,"lon":5.39653,"is_reserved":false,"is_disabled":true,"rental_uris":{"android":"levelo://app?vid=c51ad096-4aa3-4897-8a22-0348b7c08dfc","ios":"levelo://app?vid=c51ad096-4aa3-4897-8a22-0348b7c08dfc"},"vehicle_type_id":"4","last_reported":1758452795,"current_range_meters":6400,"station_id":"ce4bho12rcd13ifvqh2g","pricing_plan_id":"cebpf4jnsgd1na2vs0mg"},{"bike_id":"e258e1db-107e-4081-af39-f00bd13cdfb0","system_id":"levelo_inurba_marseille","lat":43.28662,"lon":5.36352,"is_reserved":false,"is_disabled":false,"rental_uris":{"android":"levelo://app?vid=e258e1db-107e-4081-af39-f00bd13cdfb0","ios":"levelo://app?vid=e258e1db-107e-4081-af39-f00bd13cdfb0"},"vehicle_type_id":"4","last_reported":1758452795,"current_range_meters":6400,"station_id":"ce4bhah2rcd13ifvqej0","pricing_plan_id":"cebpf4jnsgd1na2vs0mg"},{"bike_id":"a8e9cf21-3939-4c75-b5b9-514b32f0bdcd","system_id":"levelo_inurba_marseille","lat":43.2781,"lon":5.40717,"is_reserved":false,"is_disabled":false,"rental_uris":{"android":"levelo://app?vid=a8e9cf21-3939-4c75-b5b9-514b32f0bdcd","ios":"levelo://app?vid=a8e9cf21-3939-4c75-b5b9-514b32f0bdcd"},"vehicle_type_id":"4","last_reported":1758452795,"current_range_meters":6000,"station_id":"ce4bhnh2rcd13ifvqgtg","pricing_plan_id":"cebpf4jnsgd1na2vs0mg"},{"bike_id":"22a8df2a-d9f3-4687-af4d-49cd9b29ccac","system_id":"levelo_inurba_marseille","lat":43.29306,"lon":5.37451,"is_reserved":false,"is_disabled":false,"rental_uris":{"android":"levelo://app?vid=22a8df2a-d9f3-4687-af4d-49cd9b29ccac","ios":"levelo://app?vid=22a8df2a-d9f3-4687-af4d-49cd9b29ccac"},"vehicle_type_id":"4","last_reported":1758452795,"current_range_meters":6400,"station_id":"ce4bgi12rcd13ifvqb70","pricing_plan_id":"cebpf4jnsgd1na2vs0mg"},{"bike_id":"fcb3f6af-c7d4-4ccc-be82-7f951e8865a2","system_id":"levelo_inurba_marseille","lat":43.212,"lon":5.35067,"is_reserved":false,"is_disabled":false,"rental_uris":{"android":"levelo://app?vid=fcb3f6af-c7d4-4ccc-be82-7f951e8865a2","ios":"levelo://app?vid=fcb3f6af-c7d4-4ccc-be82-7f951e8865a2"},"vehicle_type_id":"4","last_reported":1758452795,"current_range_meters":6800,"station_id":"st_cvj6sg6p6f1abm77japg","pricing_plan_id":"cebpf4jnsgd1na2vs0mg"},{"bike_id":"e6f59a7f-e88f-4d65-bed3-135ed8be6983","system_id":"levelo_inurba_marseille","lat":43.32551,"lon":5.39103,"is_reserved":false,"is_disabled":true,"rental_uris":{"android":"levelo://app?vid=e6f59a7f-e88f-4d65-bed3-135ed8be6983","ios":"levelo://app?vid=e6f59a7f-e88f-4d65-bed3-135ed8be6983"},"vehicle_type_id":"4","last_reported":1758452795,"current_range_meters":6800,"station_id":"","pricing_plan_id":"cebpf4jnsgd1na2vs0mg"},{"bike_id":"575f379b-682e-45a6-a90b-e2da032a9ae0","system_id":"levelo_inurba_marseille","lat":43.21207,"lon":5.35062,"is_reserved":false,"is_disabled":false,"rental_uris":{"android":"levelo://app?vid=575f379b-682e-45a6-a90b-e2da032a9ae0","ios":"levelo://app?vid=575f379b-682e-45a6-a90b-e2da032a9ae0"},"vehicle_type_id":"4","last_reported":1758452795,"current_range_meters":6800,"station_id":"st_cvj6sg6p6f1abm77japg","pricing_plan_id":"cebpf4jnsgd1na2vs0mg"},{"bike_id":"180af91d-5f29-4c67-9c9b-0eb95010e1d8","system_id":"levelo_inurba_marseille","lat":43.23179,"lon":5.39988,"is_reserved":false,"is_disabled":false,"rental_uris":{"android":"levelo://app?vid=180af91d-5f29-4c67-9c9b-0eb95010e1d8","ios":"levelo://app?vid=180af91d-5f29-4c67-9c9b-0eb95010e1d8"},"vehicle_type_id":"4","last_reported":1758452795,"current_range_meters":6800,"station_id":"ce4bhn12rcd13ifvqgqg","pricing_plan_id":"cebpf4jnsgd1na2vs0mg"},{"bike_id":"9493dace-5221-4094-ae9e-e859ef5774df","system_id":"levelo_inurba_marseille","lat":43.27422,"lon":5.39407,"is_reserved":false,"is_disabled":false,"rental_uris":{"android":"levelo://app?vid=9493dace-5221-4094-ae9e-e859ef5774df","ios":"levelo://app?vid=9493dace-5221-4094-ae9e-e859ef5774df"},"vehicle_type_id":"4","last_reported":1758452795,"current_range_meters":7200,"station_id":"ce4bhdp2rcd13ifvqf20","pricing_plan_id":"cebpf4jnsgd1na2vs0mg"},{"bike_id":"55d4a14e-5e45-43a9-81b2-d81695389277","system_id":"levelo_inurba_marseille","lat":43.29941,"lon":5.3654,"is_reserved":false,"is_disabled":false,"rental_uris":{"android":"levelo://app?vid=55d4a14e-5e45-43a9-81b2-d81695389277","ios":"levelo://app?vid=55d4a14e-5e45-43a9-81b2-d81695389277"},"vehicle_type_id":"4","last_reported":1758452795,"current_range_meters":7200,"station_id":"ce4bgm92rcd13ifvqbr0","pricing_plan_id":"cebpf4jnsgd1na2vs0mg"},{"bike_id":"26368f4e-e581-4873-87a9-3e0c15f336e5","system_id":"levelo_inurba_marseille","lat":43.25332,"lon":5.42178,"is_reserved":false,"is_disabled":false,"rental_uris":{"android":"levelo://app?vid=26368f4e-e581-4873-87a9-3e0c15f336e5","ios":"levelo://app?vid=26368f4e-e581-4873-87a9-3e0c15f336e5"},"vehicle_type_id":"4","last_reported":1758452795,"current_range_meters":7200,"station_id":"st_d2m65c5bi1j21697t3ng","pricing_plan_id":"cebpf4jnsgd1na2vs0mg"},{"bike_id":"537279b6-26cb-4576-8bff-a5c26722c8cb","system_id":"levelo_inurba_marseille","lat":43.29067,"lon":5.3716,"is_reserved":false,"is_disabled":false,"rental_uris":{"android":"levelo://app?vid=537279b6-26cb-4576-8bff-a5c26722c8cb","ios":"levelo://app?vid=537279b6-26cb-4576-8bff-a5c26722c8cb"},"vehicle_type_id":"4","last_reported":1758452795,"current_range_meters":8000,"station_id":"ce4bh5p2rcd13ifvqe4g","pricing_plan_id":"cebpf4jnsgd1na2vs0mg"},{"bike_id":"c4706891-6ce1-4440-91ff-a3ecf2ff007e","system_id":"levelo_inurba_marseille","lat":43.26374,"lon":5.40075,"is_reserved":false,"is_disabled":false,"rental_uris":{"android":"levelo://app?vid=c4706891-6ce1-4440-91ff-a3ecf2ff007e","ios":"levelo://app?vid=c4706891-6ce1-4440-91ff-a3ecf2ff007e"},"vehicle_type_id":"4","last_reported":1758452795,"current_range_meters":8000,"station_id":"","pricing_plan_id":"cebpf4jnsgd1na2vs0mg"},{"bike_id":"fb995bc5-3894-4487-abcd-e5b9a8d3d3a0","system_id":"levelo_inurba_marseille","lat":43.24272,"lon":5.40262,"is_reserved":false,"is_disabled":false,"rental_uris":{"android":"levelo://app?vid=fb995bc5-3894-4487-abcd-e5b9a8d3d3a0","ios":"levelo://app?vid=fb995bc5-3894-4487-abcd-e5b9a8d3d3a0"},"vehicle_type_id":"4","last_reported":1758452795,"current_range_meters":8000,"station_id":"","pricing_plan_id":"cebpf4jnsgd1na2vs0mg"},{"bike_id":"5b84af94-a4d6-4b46-a63f-085ff5681f73","system_id":"levelo_inurba_marseille","lat":43.21193,"lon":5.35075,"is_reserved":false,"is_disabled":false,"rental_uris":{"android":"levelo://app?vid=5b84af94-a4d6-4b46-a63f-085ff5681f73","ios":"levelo://app?vid=5b84af94-a4d6-4b46-a63f-085ff5681f73"},"vehicle_type_id":"4","last_reported":1758452795,"current_range_meters":8000,"station_id":"st_cvj6sg6p6f1abm77japg","pricing_plan_id":"cebpf4jnsgd1na2vs0mg"},{"bike_id":"ae5ccd80-2896-4733-9148-6522e9bbfe0c","system_id":"levelo_inurba_marseille","lat":43.2258,"lon":5.41595,"is_reserved":false,"is_disabled":true,"rental_uris":{"android":"levelo://app?vid=ae5ccd80-2896-4733-9148-6522e9bbfe0c","ios":"levelo://app?vid=ae5ccd80-2896-4733-9148-6522e9bbfe0c"},"vehicle_type_id":"4","last_reported":1758452795,"current_range_meters":8000,"station_id":"st_d2o4gvlbi1j2169b742g","pricing_plan_id":"cebpf4jnsgd1na2vs0mg"},{"bike_id":"0eefc847-9ae5-4853-8e43-9d5aac75199b","system_id":"levelo_inurba_marseille","lat":43.29528,"lon":5.38545,"is_reserved":false,"is_disabled":false,"rental_uris":{"android":"levelo://app?vid=0eefc847-9ae5-4853-8e43-9d5aac75199b","ios":"levelo://app?vid=0eefc847-9ae5-4853-8e43-9d5aac75199b"},"vehicle_type_id":"4","last_reported":1758452795,"current_range_meters":8000,"station_id":"ce4bgih2rcd13ifvqba0","pricing_plan_id":"cebpf4jnsgd1na2vs0mg"},{"bike_id":"6d0ef348-fd86-4c26-9096-d229d04ea986","system_id":"levelo_inurba_marseille","lat":43.279,"lon":5.40572,"is_reserved":false,"is_disabled":true,"rental_uris":{"android":"levelo://app?vid=6d0ef348-fd86-4c26-9096-d229d04ea986","ios":"levelo://app?vid=6d0ef348-fd86-4c26-9096-d229d04ea986"},"vehicle_type_id":"4","last_reported":1758452795,"current_range_meters":8000,"station_id":"","pricing_plan_id":"cebpf4jnsgd1na2vs0mg"},{"bike_id":"617dca4b-4508-4d52-9e62-d583d919ac44","system_id":"levelo_inurba_marseille","lat":43.29741,"lon":5.37142,"is_reserved":false,"is_disabled":false,"rental_uris":{"android":"levelo://app?vid=617dca4b-4508-4d52-9e62-d583d919ac44","ios":"levelo://app?vid=617dca4b-4508-4d52-9e62-d583d919ac44"},"vehicle_type_id":"4","last_reported":1758452795,"current_range_meters":8000,"station_id":"","pricing_plan_id":"cebpf4jnsgd1na2vs0mg"},{"bike_id":"0fa5cf15-d864-4cb8-8817-3d9b034461ef","system_id":"levelo_inurba_marseille","lat":43.29875,"lon":5.39732,"is_reserved":false,"is_disabled":false,"rental_uris":{"android":"levelo://app?vid=0fa5cf15-d864-4cb8-8817-3d9b034461ef","ios":"levelo://app?vid=0fa5cf15-d864-4cb8-8817-3d9b034461ef"},"vehicle_type_id":"4","last_reported":1758452795,"current_range_meters":8400,"station_id":"ce4bh0h2rcd13ifvqd50","pricing_plan_id":"cebpf4jnsgd1na2vs0mg"},{"bike_id":"3116075e-fa9b-423b-beef-aeee538d6e30","system_id":"levelo_inurba_marseille","lat":43.2174,"lon":5.34601,"is_reserved":false,"is_disabled":true,"rental_uris":{"android":"levelo://app?vid=3116075e-fa9b-423b-beef-aeee538d6e30","ios":"levelo://app?vid=3116075e-fa9b-423b-beef-aeee538d6e30"},"vehicle_type_id":"4","last_reported":1758452795,"current_range_meters":8400,"station_id":"st_cvj6r9ubvosntc0bgbag","pricing_plan_id":"cebpf4jnsgd1na2vs0mg"},{"bike_id":"98e8af00-4b83-49fb-a286-0d2396c92bd0","system_id":"levelo_inurba_marseille","lat":43.30906,"lon":5.36848,"is_reserved":false,"is_disabled":true,"rental_uris":{"android":"levelo://app?vid=98e8af00-4b83-49fb-a286-0d2396c92bd0","ios":"levelo://app?vid=98e8af00-4b83-49fb-a286-0d2396c92bd0"},"vehicle_type_id":"4","last_reported":1758452795,"current_range_meters":8400,"station_id":"ce4bgn92rcd13ifvqbvg","pricing_plan_id":"cebpf4jnsgd1na2vs0mg"},{"bike_id":"83774ab6-916a-4512-bbb6-fffff61e684e","system_id":"levelo_inurba_marseille","lat":43.290393,"lon":5.399713,"is_reserved":false,"is_disabled":false,"rental_uris":{"android":"levelo://app?vid=83774ab6-916a-4512-bbb6-fffff61e684e","ios":"levelo://app?vid=83774ab6-916a-4512-bbb6-fffff61e684e"},"vehicle_type_id":"4","last_reported":1758452795,"current_range_meters":8400,"station_id":"ce4bh392rcd13ifvqdm0","pricing_plan_id":"cebpf4jnsgd1na2vs0mg"},{"bike_id":"41d41162-c451-4e5f-8bcf-1c9a70c5510c","system_id":"levelo_inurba_marseille","lat":43.296181,"lon":5.377059,"is_reserved":false,"is_disabled":true,"rental_uris":{"android":"levelo://app?vid=41d41162-c451-4e5f-8bcf-1c9a70c5510c","ios":"levelo://app?vid=41d41162-c451-4e5f-8bcf-1c9a70c5510c"},"vehicle_type_id":"4","last_reported":1758452795,"current_range_meters":8400,"station_id":"ce4bgi92rcd13ifvqb90","pricing_plan_id":"cebpf4jnsgd1na2vs0mg"},{"bike_id":"67115f0a-62b4-490a-bc57-71f8584aaebf","system_id":"levelo_inurba_marseille","lat":43.24972,"lon":5.42386,"is_reserved":false,"is_disabled":true,"rental_uris":{"android":"levelo://app?vid=67115f0a-62b4-490a-bc57-71f8584aaebf","ios":"levelo://app?vid=67115f0a-62b4-490a-bc57-71f8584aaebf"},"vehicle_type_id":"4","last_reported":1758452795,"current_range_meters":8400,"station_id":"","pricing_plan_id":"cebpf4jnsgd1na2vs0mg"},{"bike_id":"284e5dc7-9aa4-4996-a049-3639bfbc7f92","system_id":"levelo_inurba_marseille","lat":43.30813,"lon":5.37672,"is_reserved":false,"is_disabled":false,"rental_uris":{"android":"levelo://app?vid=284e5dc7-9aa4-4996-a049-3639bfbc7f92","ios":"levelo://app?vid=284e5dc7-9aa4-4996-a049-3639bfbc7f92"},"vehicle_type_id":"4","last_reported":1758452795,"current_range_meters":8400,"station_id":"ce4bgv92rcd13ifvqcq0","pricing_plan_id":"cebpf4jnsgd1na2vs0mg"},{"bike_id":"0319c100-5c9c-49b7-9f2a-421506d58186","system_id":"levelo_inurba_marseille","lat":43.34142,"lon":5.35988,"is_reserved":false,"is_disabled":true,"rental_uris":{"android":"levelo://app?vid=0319c100-5c9c-49b7-9f2a-421506d58186","ios":"levelo://app?vid=0319c100-5c9c-49b7-9f2a-421506d58186"},"vehicle_type_id":"4","last_reported":1758452795,"current_range_meters":8400,"station_id":"","pricing_plan_id":"cebpf4jnsgd1na2vs0mg"},{"bike_id":"9637c146-59d7-436a-a4f3-e8022fe36949","system_id":"levelo_inurba_marseille","lat":43.212,"lon":5.35065,"is_reserved":false,"is_disabled":false,"rental_uris":{"android":"levelo://app?vid=9637c146-59d7-436a-a4f3-e8022fe36949","ios":"levelo://app?vid=9637c146-59d7-436a-a4f3-e8022fe36949"},"vehicle_type_id":"4","last_reported":1758452795,"current_range_meters":8800,"station_id":"st_cvj6sg6p6f1abm77japg","pricing_plan_id":"cebpf4jnsgd1na2vs0mg"},{"bike_id":"88df9b2f-7c95-45bf-b798-6ba10bd60a37","system_id":"levelo_inurba_marseille","lat":43.25111,"lon":5.40331,"is_reserved":false,"is_disabled":false,"rental_uris":{"android":"levelo://app?vid=88df9b2f-7c95-45bf-b798-6ba10bd60a37","ios":"levelo://app?vid=88df9b2f-7c95-45bf-b798-6ba10bd60a37"},"vehicle_type_id":"4","last_reported":1758452795,"current_range_meters":8800,"station_id":"ce4bhlh2rcd13ifvqgig","pricing_plan_id":"cebpf4jnsgd1na2vs0mg"},{"bike_id":"7e39f761-0fe4-4eb9-8592-5744db05ea96","system_id":"levelo_inurba_marseille","lat":43.30897,"lon":5.37181,"is_reserved":false,"is_disabled":false,"rental_uris":{"android":"levelo://app?vid=7e39f761-0fe4-4eb9-8592-5744db05ea96","ios":"levelo://app?vid=7e39f761-0fe4-4eb9-8592-5744db05ea96"},"vehicle_type_id":"4","last_reported":1758452795,"current_range_meters":8800,"station_id":"ce4bguh2rcd13ifvqckg","pricing_plan_id":"cebpf4jnsgd1na2vs0mg"},{"bike_id":"c3ae3444-5362-4608-8c67-18887a81307b","system_id":"levelo_inurba_marseille","lat":43.2767,"lon":5.3888,"is_reserved":false,"is_disabled":false,"rental_uris":{"android":"levelo://app?vid=c3ae3444-5362-4608-8c67-18887a81307b","ios":"levelo://app?vid=c3ae3444-5362-4608-8c67-18887a81307b"},"vehicle_type_id":"4","last_reported":1758452795,"current_range_meters":8800,"station_id":"ce4bhi12rcd13ifvqfo0","pricing_plan_id":"cebpf4jnsgd1na2vs0mg"},{"bike_id":"27fd30b7-efec-4f29-971b-f51c051a9265","system_id":"levelo_inurba_marseille","lat":43.29262,"lon":5.37181,"is_reserved":false,"is_disabled":false,"rental_uris":{"android":"levelo://app?vid=27fd30b7-efec-4f29-971b-f51c051a9265","ios":"levelo://app?vid=27fd30b7-efec-4f29-971b-f51c051a9265"},"vehicle_type_id":"4","last_reported":1758452795,"current_range_meters":8800,"station_id":"ce4bgh92rcd13ifvqb40","pricing_plan_id":"cebpf4jnsgd1na2vs0mg"},{"bike_id":"0f7caa9f-1d1a-40d7-9b4a-2f8720e63681","system_id":"levelo_inurba_marseille","lat":43.30862,"lon":5.37549,"is_reserved":false,"is_disabled":false,"rental_uris":{"android":"levelo://app?vid=0f7caa9f-1d1a-40d7-9b4a-2f8720e63681","ios":"levelo://app?vid=0f7caa9f-1d1a-40d7-9b4a-2f8720e63681"},"vehicle_type_id":"4","last_reported":1758452795,"current_range_meters":9200,"station_id":"","pricing_plan_id":"cebpf4jnsgd1na2vs0mg"},{"bike_id":"773f63aa-2d85-4a31-acfe-fdc890eb83ca","system_id":"levelo_inurba_marseille","lat":43.301481,"lon":5.38102,"is_reserved":false,"is_disabled":false,"rental_uris":{"android":"levelo://app?vid=773f63aa-2d85-4a31-acfe-fdc890eb83ca","ios":"levelo://app?vid=773f63aa-2d85-4a31-acfe-fdc890eb83ca"},"vehicle_type_id":"4","last_reported":1758452795,"current_range_meters":9200,"station_id":"ce4bgjp2rcd13ifvqbh0","pricing_plan_id":"cebpf4jnsgd1na2vs0mg"},{"bike_id":"9129132d-3fea-42ae-9b5d-8675beea18c6","system_id":"levelo_inurba_marseille","lat":43.29787,"lon":5.37143,"is_reserved":false,"is_disabled":false,"rental_uris":{"android":"levelo://app?vid=9129132d-3fea-42ae-9b5d-8675beea18c6","ios":"levelo://app?vid=9129132d-3fea-42ae-9b5d-8675beea18c6"},"vehicle_type_id":"4","last_reported":1758452795,"current_range_meters":9200,"station_id":"ce4bgop2rcd13ifvqc1g","pricing_plan_id":"cebpf4jnsgd1na2vs0mg"},{"bike_id":"5e44b258-31e5-4013-9af1-16e6f7bfdae8","system_id":"levelo_inurba_marseille","lat":43.28705,"lon":5.37387,"is_reserved":false,"is_disabled":false,"rental_uris":{"android":"levelo://app?vid=5e44b258-31e5-4013-9af1-16e6f7bfdae8","ios":"levelo://app?vid=5e44b258-31e5-4013-9af1-16e6f7bfdae8"},"vehicle_type_id":"4","last_reported":1758452795,"current_range_meters":8800,"station_id":"ce4bh3p2rcd13ifvqdq0","pricing_plan_id":"cebpf4jnsgd1na2vs0mg"},{"bike_id":"f0b5af56-2c2a-4356-bcdf-29929e3060d7","system_id":"levelo_inurba_marseille","lat":43.29535,"lon":5.39394,"is_reserved":false,"is_disabled":false,"rental_uris":{"android":"levelo://app?vid=f0b5af56-2c2a-4356-bcdf-29929e3060d7","ios":"levelo://app?vid=f0b5af56-2c2a-4356-bcdf-29929e3060d7"},"vehicle_type_id":"4","last_reported":1758452795,"current_range_meters":9200,"station_id":"ce4bh292rcd13ifvqdf0","pricing_plan_id":"cebpf4jnsgd1na2vs0mg"},{"bike_id":"fe15436a-5ef4-4f8c-9839-06f07523c6fc","system_id":"levelo_inurba_marseille","lat":43.26227,"lon":5.40449,"is_reserved":false,"is_disabled":false,"rental_uris":{"android":"levelo://app?vid=fe15436a-5ef4-4f8c-9839-06f07523c6fc","ios":"levelo://app?vid=fe15436a-5ef4-4f8c-9839-06f07523c6fc"},"vehicle_type_id":"4","last_reported":1758452795,"current_range_meters":9200,"station_id":"ce4bhmh2rcd13ifvqgmg","pricing_plan_id":"cebpf4jnsgd1na2vs0mg"},{"bike_id":"27c0c058-0b73-410e-b675-424a541acc3a","system_id":"levelo_inurba_marseille","lat":43.30532,"lon":5.36521,"is_reserved":false,"is_disabled":false,"rental_uris":{"android":"levelo://app?vid=27c0c058-0b73-410e-b675-424a541acc3a","ios":"levelo://app?vid=27c0c058-0b73-410e-b675-424a541acc3a"},"vehicle_type_id":"4","last_reported":1758452795,"current_range_meters":9200,"station_id":"ce4bgs12rcd13ifvqcag","pricing_plan_id":"cebpf4jnsgd1na2vs0mg"},{"bike_id":"9b657f0c-df08-49c7-aa14-fb12d30354b1","system_id":"levelo_inurba_marseille","lat":43.28915,"lon":5.38383,"is_reserved":false,"is_disabled":false,"rental_uris":{"android":"levelo://app?vid=9b657f0c-df08-49c7-aa14-fb12d30354b1","ios":"levelo://app?vid=9b657f0c-df08-49c7-aa14-fb12d30354b1"},"vehicle_type_id":"4","last_reported":1758452795,"current_range_meters":9600,"station_id":"ce4bh612rcd13ifvqe6g","pricing_plan_id":"cebpf4jnsgd1na2vs0mg"},{"bike_id":"26e82673-7aaa-456f-bb97-d979143777c1","system_id":"levelo_inurba_marseille","lat":43.26569,"lon":5.39015,"is_reserved":false,"is_disabled":false,"rental_uris":{"android":"levelo://app?vid=26e82673-7aaa-456f-bb97-d979143777c1","ios":"levelo://app?vid=26e82673-7aaa-456f-bb97-d979143777c1"},"vehicle_type_id":"4","last_reported":1758452795,"current_range_meters":9600,"station_id":"ce4bhe12rcd13ifvqf30","pricing_plan_id":"cebpf4jnsgd1na2vs0mg"},{"bike_id":"be675888-34cd-4535-ada6-99109917770e","system_id":"levelo_inurba_marseille","lat":43.30866,"lon":5.36841,"is_reserved":false,"is_disabled":false,"rental_uris":{"android":"levelo://app?vid=be675888-34cd-4535-ada6-99109917770e","ios":"levelo://app?vid=be675888-34cd-4535-ada6-99109917770e"},"vehicle_type_id":"4","last_reported":1758452795,"current_range_meters":9200,"station_id":"ce4bgn92rcd13ifvqbvg","pricing_plan_id":"cebpf4jnsgd1na2vs0mg"},{"bike_id":"57639cc3-93b6-4dad-bfcd-3d8bf3dcef21","system_id":"levelo_inurba_marseille","lat":43.27907,"lon":5.37998,"is_reserved":false,"is_disabled":false,"rental_uris":{"android":"levelo://app?vid=57639cc3-93b6-4dad-bfcd-3d8bf3dcef21","ios":"levelo://app?vid=57639cc3-93b6-4dad-bfcd-3d8bf3dcef21"},"vehicle_type_id":"4","last_reported":1758452795,"current_range_meters":9600,"station_id":"ce4bhf92rcd13ifvqf50","pricing_plan_id":"cebpf4jnsgd1na2vs0mg"},{"bike_id":"a33a7d2b-3a19-4e17-8886-71256af367d3","system_id":"levelo_inurba_marseille","lat":43.2815,"lon":5.42643,"is_reserved":false,"is_disabled":true,"rental_uris":{"android":"levelo://app?vid=a33a7d2b-3a19-4e17-8886-71256af367d3","ios":"levelo://app?vid=a33a7d2b-3a19-4e17-8886-71256af367d3"},"vehicle_type_id":"4","last_reported":1758452795,"current_range_meters":9600,"station_id":"ce4bhnh2rcd13ifvqgug","pricing_plan_id":"cebpf4jnsgd1na2vs0mg"},{"bike_id":"c1843d42-9f15-4235-8c7f-0c60147cb155","system_id":"levelo_inurba_marseille","lat":43.21202,"lon":5.35073,"is_reserved":false,"is_disabled":false,"rental_uris":{"android":"levelo://app?vid=c1843d42-9f15-4235-8c7f-0c60147cb155","ios":"levelo://app?vid=c1843d42-9f15-4235-8c7f-0c60147cb155"},"vehicle_type_id":"4","last_reported":1758452795,"current_range_meters":9600,"station_id":"st_cvj6sg6p6f1abm77japg","pricing_plan_id":"cebpf4jnsgd1na2vs0mg"},{"bike_id":"facab4cd-9207-4e9f-ab62-f64f567a1437","system_id":"levelo_inurba_marseille","lat":43.30127,"lon":5.38783,"is_reserved":false,"is_disabled":true,"rental_uris":{"android":"levelo://app?vid=facab4cd-9207-4e9f-ab62-f64f567a1437","ios":"levelo://app?vid=facab4cd-9207-4e9f-ab62-f64f567a1437"},"vehicle_type_id":"4","last_reported":1758452795,"current_range_meters":9600,"station_id":"ce4bghh2rcd13ifvqb60","pricing_plan_id":"cebpf4jnsgd1na2vs0mg"},{"bike_id":"91065bba-4e0e-440a-a5f5-c9c7401450f8","system_id":"levelo_inurba_marseille","lat":43.27907,"lon":5.38003,"is_reserved":false,"is_disabled":false,"rental_uris":{"android":"levelo://app?vid=91065bba-4e0e-440a-a5f5-c9c7401450f8","ios":"levelo://app?vid=91065bba-4e0e-440a-a5f5-c9c7401450f8"},"vehicle_type_id":"4","last_reported":1758452795,"current_range_meters":9600,"station_id":"ce4bhf92rcd13ifvqf50","pricing_plan_id":"cebpf4jnsgd1na2vs0mg"},{"bike_id":"534ff5b4-9e83-493b-9063-104ef0af4212","system_id":"levelo_inurba_marseille","lat":43.27996,"lon":5.41663,"is_reserved":false,"is_disabled":true,"rental_uris":{"android":"levelo://app?vid=534ff5b4-9e83-493b-9063-104ef0af4212","ios":"levelo://app?vid=534ff5b4-9e83-493b-9063-104ef0af4212"},"vehicle_type_id":"4","last_reported":1758452795,"current_range_meters":9600,"station_id":"ce4bho12rcd13ifvqh1g","pricing_plan_id":"cebpf4jnsgd1na2vs0mg"},{"bike_id":"213f818a-2fc2-423a-8734-2921a1895f7c","system_id":"levelo_inurba_marseille","lat":43.21191,"lon":5.35058,"is_reserved":false,"is_disabled":false,"rental_uris":{"android":"levelo://app?vid=213f818a-2fc2-423a-8734-2921a1895f7c","ios":"levelo://app?vid=213f818a-2fc2-423a-8734-2921a1895f7c"},"vehicle_type_id":"4","last_reported":1758452795,"current_range_meters":10000,"station_id":"st_cvj6sg6p6f1abm77japg","pricing_plan_id":"cebpf4jnsgd1na2vs0mg"},{"bike_id":"77414249-1f78-4b2e-aa29-789893ea1742","system_id":"levelo_inurba_marseille","lat":43.28172,"lon":5.42604,"is_reserved":false,"is_disabled":true,"rental_uris":{"android":"levelo://app?vid=77414249-1f78-4b2e-aa29-789893ea1742","ios":"levelo://app?vid=77414249-1f78-4b2e-aa29-789893ea1742"},"vehicle_type_id":"4","last_reported":1758452795,"current_range_meters":10000,"station_id":"ce4bhnh2rcd13ifvqgug","pricing_plan_id":"cebpf4jnsgd1na2vs0mg"},{"bike_id":"e8ae3336-f45f-4f48-9416-8f49d8434ab0","system_id":"levelo_inurba_marseille","lat":43.29032,"lon":5.38646,"is_reserved":false,"is_disabled":false,"rental_uris":{"android":"levelo://app?vid=e8ae3336-f45f-4f48-9416-8f49d8434ab0","ios":"levelo://app?vid=e8ae3336-f45f-4f48-9416-8f49d8434ab0"},"vehicle_type_id":"4","last_reported":1758452795,"current_range_meters":10000,"station_id":"ce4bh4p2rcd13ifvqe0g","pricing_plan_id":"cebpf4jnsgd1na2vs0mg"},{"bike_id":"2f4ba3c4-d560-4d54-af01-9eafbd4f5950","system_id":"levelo_inurba_marseille","lat":43.243947,"lon":5.370625,"is_reserved":false,"is_disabled":true,"rental_uris":{"android":"levelo://app?vid=2f4ba3c4-d560-4d54-af01-9eafbd4f5950","ios":"levelo://app?vid=2f4ba3c4-d560-4d54-af01-9eafbd4f5950"},"vehicle_type_id":"4","last_reported":1758452795,"current_range_meters":10000,"station_id":"ce4bhhh2rcd13ifvqfk0","pricing_plan_id":"cebpf4jnsgd1na2vs0mg"},{"bike_id":"b766d582-d4f0-4f9a-9867-0ae0b8177870","system_id":"levelo_inurba_marseille","lat":43.211854,"lon":5.350716,"is_reserved":false,"is_disabled":false,"rental_uris":{"android":"levelo://app?vid=b766d582-d4f0-4f9a-9867-0ae0b8177870","ios":"levelo://app?vid=b766d582-d4f0-4f9a-9867-0ae0b8177870"},"vehicle_type_id":"4","last_reported":1758452795,"current_range_meters":10000,"station_id":"st_cvj6sg6p6f1abm77japg","pricing_plan_id":"cebpf4jnsgd1na2vs0mg"},{"bike_id":"78993bff-ff2c-4ac9-a279-8512dd308c5a","system_id":"levelo_inurba_marseille","lat":43.29636,"lon":5.40601,"is_reserved":false,"is_disabled":true,"rental_uris":{"android":"levelo://app?vid=78993bff-ff2c-4ac9-a279-8512dd308c5a","ios":"levelo://app?vid=78993bff-ff2c-4ac9-a279-8512dd308c5a"},"vehicle_type_id":"4","last_reported":1758452795,"current_range_meters":10000,"station_id":"ce4bh0h2rcd13ifvqd60","pricing_plan_id":"cebpf4jnsgd1na2vs0mg"},{"bike_id":"97893650-9a0c-47e4-baee-ec60bbc1b06d","system_id":"levelo_inurba_marseille","lat":43.257399,"lon":5.410999,"is_reserved":false,"is_disabled":true,"rental_uris":{"android":"levelo://app?vid=97893650-9a0c-47e4-baee-ec60bbc1b06d","ios":"levelo://app?vid=97893650-9a0c-47e4-baee-ec60bbc1b06d"},"vehicle_type_id":"4","last_reported":1758452795,"current_range_meters":10000,"station_id":"ce4bhkp2rcd13ifvqgd0","pricing_plan_id":"cebpf4jnsgd1na2vs0mg"},{"bike_id":"8e6747cf-b8c6-4cd7-bba9-81728939e96e","system_id":"levelo_inurba_marseille","lat":43.27813,"lon":5.40709,"is_reserved":false,"is_disabled":true,"rental_uris":{"android":"levelo://app?vid=8e6747cf-b8c6-4cd7-bba9-81728939e96e","ios":"levelo://app?vid=8e6747cf-b8c6-4cd7-bba9-81728939e96e"},"vehicle_type_id":"4","last_reported":1758452795,"current_range_meters":10000,"station_id":"ce4bhnh2rcd13ifvqgtg","pricing_plan_id":"cebpf4jnsgd1na2vs0mg"},{"bike_id":"55d1bc08-fd54-4a82-afc7-2adcaa7b1c4e","system_id":"levelo_inurba_marseille","lat":43.30047,"lon":5.37671,"is_reserved":false,"is_disabled":false,"rental_uris":{"android":"levelo://app?vid=55d1bc08-fd54-4a82-afc7-2adcaa7b1c4e","ios":"levelo://app?vid=55d1bc08-fd54-4a82-afc7-2adcaa7b1c4e"},"vehicle_type_id":"4","last_reported":1758452795,"current_range_meters":10000,"station_id":"","pricing_plan_id":"cebpf4jnsgd1na2vs0mg"},{"bike_id":"6260795e-3723-4115-81b2-4574a300f48a","system_id":"levelo_inurba_marseille","lat":43.32286,"lon":5.38264,"is_reserved":false,"is_disabled":false,"rental_uris":{"android":"levelo://app?vid=6260795e-3723-4115-81b2-4574a300f48a","ios":"levelo://app?vid=6260795e-3723-4115-81b2-4574a300f48a"},"vehicle_type_id":"4","last_reported":1758452795,"current_range_meters":10000,"station_id":"ce4bhr12rcd13ifvqhqg","pricing_plan_id":"cebpf4jnsgd1na2vs0mg"},{"bike_id":"2d82061a-a240-43d1-93a6-ab71cf777b3c","system_id":"levelo_inurba_marseille","lat":43.21186,"lon":5.35067,"is_reserved":false,"is_disabled":false,"rental_uris":{"android":"levelo://app?vid=2d82061a-a240-43d1-93a6-ab71cf777b3c","ios":"levelo://app?vid=2d82061a-a240-43d1-93a6-ab71cf777b3c"},"vehicle_type_id":"4","last_reported":1758452795,"current_range_meters":10000,"station_id":"st_cvj6sg6p6f1abm77japg","pricing_plan_id":"cebpf4jnsgd1na2vs0mg"},{"bike_id":"4a544afc-d519-4c90-a327-06a020de4bdb","system_id":"levelo_inurba_marseille","lat":43.2931,"lon":5.37176,"is_reserved":false,"is_disabled":false,"rental_uris":{"android":"levelo://app?vid=4a544afc-d519-4c90-a327-06a020de4bdb","ios":"levelo://app?vid=4a544afc-d519-4c90-a327-06a020de4bdb"},"vehicle_type_id":"4","last_reported":1758452795,"current_range_meters":9600,"station_id":"ce4bgh92rcd13ifvqb40","pricing_plan_id":"cebpf4jnsgd1na2vs0mg"},{"bike_id":"2015c1f2-c286-408a-b930-50d865ce0bb9","system_id":"levelo_inurba_marseille","lat":43.211795,"lon":5.350828,"is_reserved":false,"is_disabled":false,"rental_uris":{"android":"levelo://app?vid=2015c1f2-c286-408a-b930-50d865ce0bb9","ios":"levelo://app?vid=2015c1f2-c286-408a-b930-50d865ce0bb9"},"vehicle_type_id":"4","last_reported":1758452795,"current_range_meters":10000,"station_id":"st_cvj6sg6p6f1abm77japg","pricing_plan_id":"cebpf4jnsgd1na2vs0mg"},{"bike_id":"fa5ef9d2-c7d1-45ed-9309-52cafdbf632f","system_id":"levelo_inurba_marseille","lat":43.23175,"lon":5.39983,"is_reserved":false,"is_disabled":false,"rental_uris":{"android":"levelo://app?vid=fa5ef9d2-c7d1-45ed-9309-52cafdbf632f","ios":"levelo://app?vid=fa5ef9d2-c7d1-45ed-9309-52cafdbf632f"},"vehicle_type_id":"4","last_reported":1758452795,"current_range_meters":10000,"station_id":"ce4bhn12rcd13ifvqgqg","pricing_plan_id":"cebpf4jnsgd1na2vs0mg"},{"bike_id":"68adab37-f5ad-4072-b58a-fe6c68285ca6","system_id":"levelo_inurba_marseille","lat":43.30605,"lon":5.37677,"is_reserved":false,"is_disabled":false,"rental_uris":{"android":"levelo://app?vid=68adab37-f5ad-4072-b58a-fe6c68285ca6","ios":"levelo://app?vid=68adab37-f5ad-4072-b58a-fe6c68285ca6"},"vehicle_type_id":"4","last_reported":1758452795,"current_range_meters":10800,"station_id":"","pricing_plan_id":"cebpf4jnsgd1na2vs0mg"},{"bike_id":"a2102b8c-b983-4410-9ad4-d6231edcc8e2","system_id":"levelo_inurba_marseille","lat":43.29646,"lon":5.40585,"is_reserved":false,"is_disabled":false,"rental_uris":{"android":"levelo://app?vid=a2102b8c-b983-4410-9ad4-d6231edcc8e2","ios":"levelo://app?vid=a2102b8c-b983-4410-9ad4-d6231edcc8e2"},"vehicle_type_id":"4","last_reported":1758452795,"current_range_meters":10800,"station_id":"ce4bh0h2rcd13ifvqd60","pricing_plan_id":"cebpf4jnsgd1na2vs0mg"},{"bike_id":"374350a4-7b04-4e07-ad0a-1c9cd1e3d84c","system_id":"levelo_inurba_marseille","lat":43.31166,"lon":5.38725,"is_reserved":false,"is_disabled":false,"rental_uris":{"android":"levelo://app?vid=374350a4-7b04-4e07-ad0a-1c9cd1e3d84c","ios":"levelo://app?vid=374350a4-7b04-4e07-ad0a-1c9cd1e3d84c"},"vehicle_type_id":"4","last_reported":1758452795,"current_range_meters":10800,"station_id":"ce4bgv12rcd13ifvqcp0","pricing_plan_id":"cebpf4jnsgd1na2vs0mg"},{"bike_id":"b28536fb-1a1f-4c02-92d1-a68528fce61d","system_id":"levelo_inurba_marseille","lat":43.29318,"lon":5.37178,"is_reserved":false,"is_disabled":true,"rental_uris":{"android":"levelo://app?vid=b28536fb-1a1f-4c02-92d1-a68528fce61d","ios":"levelo://app?vid=b28536fb-1a1f-4c02-92d1-a68528fce61d"},"vehicle_type_id":"4","last_reported":1758452795,"current_range_meters":10800,"station_id":"ce4bgh92rcd13ifvqb40","pricing_plan_id":"cebpf4jnsgd1na2vs0mg"},{"bike_id":"8f90c6e9-c2a0-414b-a280-ed01b517d1e8","system_id":"levelo_inurba_marseille","lat":43.21187,"lon":5.3507,"is_reserved":false,"is_disabled":false,"rental_uris":{"android":"levelo://app?vid=8f90c6e9-c2a0-414b-a280-ed01b517d1e8","ios":"levelo://app?vid=8f90c6e9-c2a0-414b-a280-ed01b517d1e8"},"vehicle_type_id":"4","last_reported":1758452795,"current_range_meters":10800,"station_id":"st_cvj6sg6p6f1abm77japg","pricing_plan_id":"cebpf4jnsgd1na2vs0mg"},{"bike_id":"1ff39d7b-2539-46bc-b9f5-8104a0a2c0aa","system_id":"levelo_inurba_marseille","lat":43.30566,"lon":5.3725,"is_reserved":false,"is_disabled":false,"rental_uris":{"android":"levelo://app?vid=1ff39d7b-2539-46bc-b9f5-8104a0a2c0aa","ios":"levelo://app?vid=1ff39d7b-2539-46bc-b9f5-8104a0a2c0aa"},"vehicle_type_id":"4","last_reported":1758452795,"current_range_meters":10800,"station_id":"ce4bgqh2rcd13ifvqc4g","pricing_plan_id":"cebpf4jnsgd1na2vs0mg"},{"bike_id":"ea9c3128-c564-4f4c-8f5d-5027bd504982","system_id":"levelo_inurba_marseille","lat":43.27981,"lon":5.39606,"is_reserved":false,"is_disabled":true,"rental_uris":{"android":"levelo://app?vid=ea9c3128-c564-4f4c-8f5d-5027bd504982","ios":"levelo://app?vid=ea9c3128-c564-4f4c-8f5d-5027bd504982"},"vehicle_type_id":"4","last_reported":1758452795,"current_range_meters":10800,"station_id":"","pricing_plan_id":"cebpf4jnsgd1na2vs0mg"},{"bike_id":"a07a513e-e5a9-4481-8592-d991379bc662","system_id":"levelo_inurba_marseille","lat":43.337536,"lon":5.374536,"is_reserved":false,"is_disabled":false,"rental_uris":{"android":"levelo://app?vid=a07a513e-e5a9-4481-8592-d991379bc662","ios":"levelo://app?vid=a07a513e-e5a9-4481-8592-d991379bc662"},"vehicle_type_id":"4","last_reported":1758452795,"current_range_meters":10800,"station_id":"","pricing_plan_id":"cebpf4jnsgd1na2vs0mg"},{"bike_id":"5319fae8-be79-4d87-b5d0-b333eba32d6a","system_id":"levelo_inurba_marseille","lat":43.2119,"lon":5.35067,"is_reserved":false,"is_disabled":false,"rental_uris":{"android":"levelo://app?vid=5319fae8-be79-4d87-b5d0-b333eba32d6a","ios":"levelo://app?vid=5319fae8-be79-4d87-b5d0-b333eba32d6a"},"vehicle_type_id":"4","last_reported":1758452795,"current_range_meters":11200,"station_id":"st_cvj6sg6p6f1abm77japg","pricing_plan_id":"cebpf4jnsgd1na2vs0mg"},{"bike_id":"28e12325-1bac-4433-9100-6c834d569a46","system_id":"levelo_inurba_marseille","lat":43.31479,"lon":5.37296,"is_reserved":false,"is_disabled":false,"rental_uris":{"android":"levelo://app?vid=28e12325-1bac-4433-9100-6c834d569a46","ios":"levelo://app?vid=28e12325-1bac-4433-9100-6c834d569a46"},"vehicle_type_id":"4","last_reported":1758452795,"current_range_meters":11200,"station_id":"ce4bgt12rcd13ifvqcd0","pricing_plan_id":"cebpf4jnsgd1na2vs0mg"},{"bike_id":"e86cce24-0f21-4e0d-a094-2ca607577906","system_id":"levelo_inurba_marseille","lat":43.301431,"lon":5.38783,"is_reserved":false,"is_disabled":true,"rental_uris":{"android":"levelo://app?vid=e86cce24-0f21-4e0d-a094-2ca607577906","ios":"levelo://app?vid=e86cce24-0f21-4e0d-a094-2ca607577906"},"vehicle_type_id":"4","last_reported":1758452795,"current_range_meters":11200,"station_id":"ce4bghh2rcd13ifvqb60","pricing_plan_id":"cebpf4jnsgd1na2vs0mg"},{"bike_id":"ae4d5d53-f8cc-434e-ba80-9dcf4c867ed8","system_id":"levelo_inurba_marseille","lat":43.29189,"lon":5.39316,"is_reserved":false,"is_disabled":true,"rental_uris":{"android":"levelo://app?vid=ae4d5d53-f8cc-434e-ba80-9dcf4c867ed8","ios":"levelo://app?vid=ae4d5d53-f8cc-434e-ba80-9dcf4c867ed8"},"vehicle_type_id":"4","last_reported":1758452795,"current_range_meters":11600,"station_id":"ce4bh192rcd13ifvqdd0","pricing_plan_id":"cebpf4jnsgd1na2vs0mg"},{"bike_id":"f0cf5c72-ae6c-4d4e-a470-a6446537aac8","system_id":"levelo_inurba_marseille","lat":43.26063,"lon":5.39393,"is_reserved":false,"is_disabled":false,"rental_uris":{"android":"levelo://app?vid=f0cf5c72-ae6c-4d4e-a470-a6446537aac8","ios":"levelo://app?vid=f0cf5c72-ae6c-4d4e-a470-a6446537aac8"},"vehicle_type_id":"4","last_reported":1758452795,"current_range_meters":11600,"station_id":"ce4bhh92rcd13ifvqfj0","pricing_plan_id":"cebpf4jnsgd1na2vs0mg"},{"bike_id":"b856e2ea-940f-4639-88ca-ecc7fccd37ec","system_id":"levelo_inurba_marseille","lat":43.21193,"lon":5.35072,"is_reserved":false,"is_disabled":false,"rental_uris":{"android":"levelo://app?vid=b856e2ea-940f-4639-88ca-ecc7fccd37ec","ios":"levelo://app?vid=b856e2ea-940f-4639-88ca-ecc7fccd37ec"},"vehicle_type_id":"4","last_reported":1758452795,"current_range_meters":11600,"station_id":"","pricing_plan_id":"cebpf4jnsgd1na2vs0mg"},{"bike_id":"521ae165-97c3-45a3-bce5-6aba644cfcde","system_id":"levelo_inurba_marseille","lat":43.30887,"lon":5.39652,"is_reserved":false,"is_disabled":false,"rental_uris":{"android":"levelo://app?vid=521ae165-97c3-45a3-bce5-6aba644cfcde","ios":"levelo://app?vid=521ae165-97c3-45a3-bce5-6aba644cfcde"},"vehicle_type_id":"4","last_reported":1758452795,"current_range_meters":12000,"station_id":"ce4bh012rcd13ifvqcv0","pricing_plan_id":"cebpf4jnsgd1na2vs0mg"},{"bike_id":"5d633773-c86d-4663-ae55-dfb6f9eda023","system_id":"levelo_inurba_marseille","lat":43.2593,"lon":5.40879,"is_reserved":false,"is_disabled":false,"rental_uris":{"android":"levelo://app?vid=5d633773-c86d-4663-ae55-dfb6f9eda023","ios":"levelo://app?vid=5d633773-c86d-4663-ae55-dfb6f9eda023"},"vehicle_type_id":"4","last_reported":1758452795,"current_range_meters":12000,"station_id":"","pricing_plan_id":"cebpf4jnsgd1na2vs0mg"},{"bike_id":"2ae64819-c18b-4d6b-9935-d0ae4d787e01","system_id":"levelo_inurba_marseille","lat":43.31328,"lon":5.39691,"is_reserved":false,"is_disabled":false,"rental_uris":{"android":"levelo://app?vid=2ae64819-c18b-4d6b-9935-d0ae4d787e01","ios":"levelo://app?vid=2ae64819-c18b-4d6b-9935-d0ae4d787e01"},"vehicle_type_id":"4","last_reported":1758452795,"current_range_meters":12000,"station_id":"ce4bgvp2rcd13ifvqcu0","pricing_plan_id":"cebpf4jnsgd1na2vs0mg"},{"bike_id":"158236de-064b-4448-aa12-7a3a145c873e","system_id":"levelo_inurba_marseille","lat":43.29212,"lon":5.36033,"is_reserved":false,"is_disabled":false,"rental_uris":{"android":"levelo://app?vid=158236de-064b-4448-aa12-7a3a145c873e","ios":"levelo://app?vid=158236de-064b-4448-aa12-7a3a145c873e"},"vehicle_type_id":"4","last_reported":1758452795,"current_range_meters":12000,"station_id":"ce4bhbh2rcd13ifvqeqg","pricing_plan_id":"cebpf4jnsgd1na2vs0mg"},{"bike_id":"d801b961-8b0f-429d-9d3e-817010448aec","system_id":"levelo_inurba_marseille","lat":43.337632,"lon":5.374376,"is_reserved":false,"is_disabled":false,"rental_uris":{"android":"levelo://app?vid=d801b961-8b0f-429d-9d3e-817010448aec","ios":"levelo://app?vid=d801b961-8b0f-429d-9d3e-817010448aec"},"vehicle_type_id":"4","last_reported":1758452795,"current_range_meters":12400,"station_id":"","pricing_plan_id":"cebpf4jnsgd1na2vs0mg"},{"bike_id":"ad3b9a79-2fea-4743-a6da-194a3004707a","system_id":"levelo_inurba_marseille","lat":43.293753,"lon":5.378605,"is_reserved":false,"is_disabled":true,"rental_uris":{"android":"levelo://app?vid=ad3b9a79-2fea-4743-a6da-194a3004707a","ios":"levelo://app?vid=ad3b9a79-2fea-4743-a6da-194a3004707a"},"vehicle_type_id":"4","last_reported":1758452795,"current_range_meters":12400,"station_id":"ce4bgjh2rcd13ifvqbf0","pricing_plan_id":"cebpf4jnsgd1na2vs0mg"},{"bike_id":"394bbc81-dc66-4519-a76d-fc81a65cacf7","system_id":"levelo_inurba_marseille","lat":43.212,"lon":5.35075,"is_reserved":false,"is_disabled":false,"rental_uris":{"android":"levelo://app?vid=394bbc81-dc66-4519-a76d-fc81a65cacf7","ios":"levelo://app?vid=394bbc81-dc66-4519-a76d-fc81a65cacf7"},"vehicle_type_id":"4","last_reported":1758452795,"current_range_meters":12400,"station_id":"st_cvj6sg6p6f1abm77japg","pricing_plan_id":"cebpf4jnsgd1na2vs0mg"},{"bike_id":"289ef510-0e52-4e6f-a87e-eb39ca6a51ae","system_id":"levelo_inurba_marseille","lat":43.29304,"lon":5.37168,"is_reserved":false,"is_disabled":false,"rental_uris":{"android":"levelo://app?vid=289ef510-0e52-4e6f-a87e-eb39ca6a51ae","ios":"levelo://app?vid=289ef510-0e52-4e6f-a87e-eb39ca6a51ae"},"vehicle_type_id":"4","last_reported":1758452795,"current_range_meters":12400,"station_id":"ce4bgh92rcd13ifvqb40","pricing_plan_id":"cebpf4jnsgd1na2vs0mg"},{"bike_id":"118b6d7e-3328-44e2-ae13-d04071b8c00f","system_id":"levelo_inurba_marseille","lat":43.21194,"lon":5.3507,"is_reserved":false,"is_disabled":false,"rental_uris":{"android":"levelo://app?vid=118b6d7e-3328-44e2-ae13-d04071b8c00f","ios":"levelo://app?vid=118b6d7e-3328-44e2-ae13-d04071b8c00f"},"vehicle_type_id":"4","last_reported":1758452795,"current_range_meters":12800,"station_id":"st_cvj6sg6p6f1abm77japg","pricing_plan_id":"cebpf4jnsgd1na2vs0mg"},{"bike_id":"fd4cf910-15eb-41c1-aa59-f96fcd54c98c","system_id":"levelo_inurba_marseille","lat":43.29891,"lon":5.36397,"is_reserved":false,"is_disabled":false,"rental_uris":{"android":"levelo://app?vid=fd4cf910-15eb-41c1-aa59-f96fcd54c98c","ios":"levelo://app?vid=fd4cf910-15eb-41c1-aa59-f96fcd54c98c"},"vehicle_type_id":"4","last_reported":1758452795,"current_range_meters":12800,"station_id":"","pricing_plan_id":"cebpf4jnsgd1na2vs0mg"},{"bike_id":"a49406fb-5c9e-4a23-90de-f56b31afc61b","system_id":"levelo_inurba_marseille","lat":43.29796,"lon":5.3812,"is_reserved":false,"is_disabled":false,"rental_uris":{"android":"levelo://app?vid=a49406fb-5c9e-4a23-90de-f56b31afc61b","ios":"levelo://app?vid=a49406fb-5c9e-4a23-90de-f56b31afc61b"},"vehicle_type_id":"4","last_reported":1758452795,"current_range_meters":12800,"station_id":"ce4bgip2rcd13ifvqbb0","pricing_plan_id":"cebpf4jnsgd1na2vs0mg"},{"bike_id":"a5949679-2496-4863-bc98-dd5b513e9c82","system_id":"levelo_inurba_marseille","lat":43.25112,"lon":5.4032,"is_reserved":false,"is_disabled":false,"rental_uris":{"android":"levelo://app?vid=a5949679-2496-4863-bc98-dd5b513e9c82","ios":"levelo://app?vid=a5949679-2496-4863-bc98-dd5b513e9c82"},"vehicle_type_id":"4","last_reported":1758452795,"current_range_meters":12800,"station_id":"ce4bhlh2rcd13ifvqgig","pricing_plan_id":"cebpf4jnsgd1na2vs0mg"},{"bike_id":"b99d1c4e-677c-452b-b107-ce40a86ca83e","system_id":"levelo_inurba_marseille","lat":43.28464,"lon":5.35893,"is_reserved":false,"is_disabled":false,"rental_uris":{"android":"levelo://app?vid=b99d1c4e-677c-452b-b107-ce40a86ca83e","ios":"levelo://app?vid=b99d1c4e-677c-452b-b107-ce40a86ca83e"},"vehicle_type_id":"4","last_reported":1758452795,"current_range_meters":12800,"station_id":"ce4bhah2rcd13ifvqei0","pricing_plan_id":"cebpf4jnsgd1na2vs0mg"},{"bike_id":"53479698-3a9b-4c86-adf9-0a97ea546c04","system_id":"levelo_inurba_marseille","lat":43.28665,"lon":5.3635,"is_reserved":false,"is_disabled":false,"rental_uris":{"android":"levelo://app?vid=53479698-3a9b-4c86-adf9-0a97ea546c04","ios":"levelo://app?vid=53479698-3a9b-4c86-adf9-0a97ea546c04"},"vehicle_type_id":"4","last_reported":1758452795,"current_range_meters":12400,"station_id":"ce4bhah2rcd13ifvqej0","pricing_plan_id":"cebpf4jnsgd1na2vs0mg"},{"bike_id":"d2667e4e-8f97-413d-81b1-13a394c6285f","system_id":"levelo_inurba_marseille","lat":43.21737,"lon":5.34608,"is_reserved":false,"is_disabled":true,"rental_uris":{"android":"levelo://app?vid=d2667e4e-8f97-413d-81b1-13a394c6285f","ios":"levelo://app?vid=d2667e4e-8f97-413d-81b1-13a394c6285f"},"vehicle_type_id":"4","last_reported":1758452795,"current_range_meters":12800,"station_id":"st_cvj6r9ubvosntc0bgbag","pricing_plan_id":"cebpf4jnsgd1na2vs0mg"},{"bike_id":"fe529efe-6bd2-40ac-9169-ddff73bb7bfb","system_id":"levelo_inurba_marseille","lat":43.310835,"lon":5.383656,"is_reserved":false,"is_disabled":false,"rental_uris":{"android":"levelo://app?vid=fe529efe-6bd2-40ac-9169-ddff73bb7bfb","ios":"levelo://app?vid=fe529efe-6bd2-40ac-9169-ddff73bb7bfb"},"vehicle_type_id":"4","last_reported":1758452795,"current_range_meters":12800,"station_id":"ce4bgv92rcd13ifvqcr0","pricing_plan_id":"cebpf4jnsgd1na2vs0mg"},{"bike_id":"84cebaa6-ae44-4848-bbd4-47b1e8385507","system_id":"levelo_inurba_marseille","lat":43.21753,"lon":5.34598,"is_reserved":false,"is_disabled":false,"rental_uris":{"android":"levelo://app?vid=84cebaa6-ae44-4848-bbd4-47b1e8385507","ios":"levelo://app?vid=84cebaa6-ae44-4848-bbd4-47b1e8385507"},"vehicle_type_id":"4","last_reported":1758452795,"current_range_meters":13600,"station_id":"","pricing_plan_id":"cebpf4jnsgd1na2vs0mg"},{"bike_id":"0d6f8368-6f27-4c3f-96dd-7bfb8039f878","system_id":"levelo_inurba_marseille","lat":43.27371,"lon":5.36256,"is_reserved":false,"is_disabled":false,"rental_uris":{"android":"levelo://app?vid=0d6f8368-6f27-4c3f-96dd-7bfb8039f878","ios":"levelo://app?vid=0d6f8368-6f27-4c3f-96dd-7bfb8039f878"},"vehicle_type_id":"4","last_reported":1758452795,"current_range_meters":13600,"station_id":"ce4bhbh2rcd13ifvqeo0","pricing_plan_id":"cebpf4jnsgd1na2vs0mg"},{"bike_id":"e86857f8-f405-4657-b145-ec58ed187087","system_id":"levelo_inurba_marseille","lat":43.31484,"lon":5.3881,"is_reserved":false,"is_disabled":false,"rental_uris":{"android":"levelo://app?vid=e86857f8-f405-4657-b145-ec58ed187087","ios":"levelo://app?vid=e86857f8-f405-4657-b145-ec58ed187087"},"vehicle_type_id":"4","last_reported":1758452795,"current_range_meters":13600,"station_id":"ce4bgt92rcd13ifvqcf0","pricing_plan_id":"cebpf4jnsgd1na2vs0mg"},{"bike_id":"c0c2df04-5b67-4315-b143-ec6fce7bf4ec","system_id":"levelo_inurba_marseille","lat":43.32659,"lon":5.40989,"is_reserved":false,"is_disabled":false,"rental_uris":{"android":"levelo://app?vid=c0c2df04-5b67-4315-b143-ec6fce7bf4ec","ios":"levelo://app?vid=c0c2df04-5b67-4315-b143-ec6fce7bf4ec"},"vehicle_type_id":"4","last_reported":1758452795,"current_range_meters":13600,"station_id":"ce4bhpp2rcd13ifvqhgg","pricing_plan_id":"cebpf4jnsgd1na2vs0mg"},{"bike_id":"a5364c4b-9fbc-4200-9686-1db420406c33","system_id":"levelo_inurba_marseille","lat":43.30411,"lon":5.39731,"is_reserved":false,"is_disabled":true,"rental_uris":{"android":"levelo://app?vid=a5364c4b-9fbc-4200-9686-1db420406c33","ios":"levelo://app?vid=a5364c4b-9fbc-4200-9686-1db420406c33"},"vehicle_type_id":"4","last_reported":1758452795,"current_range_meters":13600,"station_id":"ce4bh092rcd13ifvqd20","pricing_plan_id":"cebpf4jnsgd1na2vs0mg"},{"bike_id":"76bbf107-7ec5-4826-b296-ab629ecd14ab","system_id":"levelo_inurba_marseille","lat":43.29815,"lon":5.42103,"is_reserved":false,"is_disabled":false,"rental_uris":{"android":"levelo://app?vid=76bbf107-7ec5-4826-b296-ab629ecd14ab","ios":"levelo://app?vid=76bbf107-7ec5-4826-b296-ab629ecd14ab"},"vehicle_type_id":"4","last_reported":1758452795,"current_range_meters":13600,"station_id":"","pricing_plan_id":"cebpf4jnsgd1na2vs0mg"},{"bike_id":"a024b826-db01-40bf-b086-44a62a6abed9","system_id":"levelo_inurba_marseille","lat":43.23968,"lon":5.36627,"is_reserved":false,"is_disabled":false,"rental_uris":{"android":"levelo://app?vid=a024b826-db01-40bf-b086-44a62a6abed9","ios":"levelo://app?vid=a024b826-db01-40bf-b086-44a62a6abed9"},"vehicle_type_id":"4","last_reported":1758452795,"current_range_meters":14000,"station_id":"ce4bhi12rcd13ifvqfp0","pricing_plan_id":"cebpf4jnsgd1na2vs0mg"},{"bike_id":"dcd5ec24-eca5-4ee8-8bfb-db3d1bb05e3c","system_id":"levelo_inurba_marseille","lat":43.30603,"lon":5.37218,"is_reserved":false,"is_disabled":false,"rental_uris":{"android":"levelo://app?vid=dcd5ec24-eca5-4ee8-8bfb-db3d1bb05e3c","ios":"levelo://app?vid=dcd5ec24-eca5-4ee8-8bfb-db3d1bb05e3c"},"vehicle_type_id":"4","last_reported":1758452795,"current_range_meters":14000,"station_id":"ce4bgqh2rcd13ifvqc4g","pricing_plan_id":"cebpf4jnsgd1na2vs0mg"},{"bike_id":"a329363e-972b-428b-836e-51e3b2893c70","system_id":"levelo_inurba_marseille","lat":43.21201,"lon":5.35067,"is_reserved":false,"is_disabled":false,"rental_uris":{"android":"levelo://app?vid=a329363e-972b-428b-836e-51e3b2893c70","ios":"levelo://app?vid=a329363e-972b-428b-836e-51e3b2893c70"},"vehicle_type_id":"4","last_reported":1758452795,"current_range_meters":14000,"station_id":"st_cvj6sg6p6f1abm77japg","pricing_plan_id":"cebpf4jnsgd1na2vs0mg"},{"bike_id":"363d99e5-837c-43c8-abcc-c80ef2e2786a","system_id":"levelo_inurba_marseille","lat":43.21193,"lon":5.35075,"is_reserved":false,"is_disabled":false,"rental_uris":{"android":"levelo://app?vid=363d99e5-837c-43c8-abcc-c80ef2e2786a","ios":"levelo://app?vid=363d99e5-837c-43c8-abcc-c80ef2e2786a"},"vehicle_type_id":"4","last_reported":1758452795,"current_range_meters":14000,"station_id":"st_cvj6sg6p6f1abm77japg","pricing_plan_id":"cebpf4jnsgd1na2vs0mg"},{"bike_id":"74bbd6d0-8750-49ed-b4da-9cd8bf052d6a","system_id":"levelo_inurba_marseille","lat":43.31325,"lon":5.3971,"is_reserved":false,"is_disabled":true,"rental_uris":{"android":"levelo://app?vid=74bbd6d0-8750-49ed-b4da-9cd8bf052d6a","ios":"levelo://app?vid=74bbd6d0-8750-49ed-b4da-9cd8bf052d6a"},"vehicle_type_id":"4","last_reported":1758452795,"current_range_meters":14400,"station_id":"ce4bgvp2rcd13ifvqcu0","pricing_plan_id":"cebpf4jnsgd1na2vs0mg"},{"bike_id":"75cdae86-aa3c-46f9-92bf-f3662c1063cf","system_id":"levelo_inurba_marseille","lat":43.33729,"lon":5.39171,"is_reserved":false,"is_disabled":false,"rental_uris":{"android":"levelo://app?vid=75cdae86-aa3c-46f9-92bf-f3662c1063cf","ios":"levelo://app?vid=75cdae86-aa3c-46f9-92bf-f3662c1063cf"},"vehicle_type_id":"4","last_reported":1758452795,"current_range_meters":14400,"station_id":"ce4bhr92rcd13ifvqhsg","pricing_plan_id":"cebpf4jnsgd1na2vs0mg"},{"bike_id":"8256c3c5-29e1-4d6d-816d-98492f1b2555","system_id":"levelo_inurba_marseille","lat":43.27494,"lon":5.42476,"is_reserved":false,"is_disabled":false,"rental_uris":{"android":"levelo://app?vid=8256c3c5-29e1-4d6d-816d-98492f1b2555","ios":"levelo://app?vid=8256c3c5-29e1-4d6d-816d-98492f1b2555"},"vehicle_type_id":"4","last_reported":1758452795,"current_range_meters":14800,"station_id":"ce4bhn92rcd13ifvqgrg","pricing_plan_id":"cebpf4jnsgd1na2vs0mg"},{"bike_id":"f581ccb4-ae4a-44ef-9aee-8da2f62ff531","system_id":"levelo_inurba_marseille","lat":43.31244,"lon":5.36824,"is_reserved":false,"is_disabled":false,"rental_uris":{"android":"levelo://app?vid=f581ccb4-ae4a-44ef-9aee-8da2f62ff531","ios":"levelo://app?vid=f581ccb4-ae4a-44ef-9aee-8da2f62ff531"},"vehicle_type_id":"4","last_reported":1758452795,"current_range_meters":14800,"station_id":"ce4bgl92rcd13ifvqbq0","pricing_plan_id":"cebpf4jnsgd1na2vs0mg"},{"bike_id":"2f8c1102-4998-41c7-80c6-10fb6fd78bcd","system_id":"levelo_inurba_marseille","lat":43.28028,"lon":5.36946,"is_reserved":false,"is_disabled":false,"rental_uris":{"android":"levelo://app?vid=2f8c1102-4998-41c7-80c6-10fb6fd78bcd","ios":"levelo://app?vid=2f8c1102-4998-41c7-80c6-10fb6fd78bcd"},"vehicle_type_id":"4","last_reported":1758452795,"current_range_meters":14400,"station_id":"ce4bha12rcd13ifvqef0","pricing_plan_id":"cebpf4jnsgd1na2vs0mg"},{"bike_id":"dba35332-8bd8-47a0-88ef-a96fb96d1df1","system_id":"levelo_inurba_marseille","lat":43.29965,"lon":5.41313,"is_reserved":false,"is_disabled":false,"rental_uris":{"android":"levelo://app?vid=dba35332-8bd8-47a0-88ef-a96fb96d1df1","ios":"levelo://app?vid=dba35332-8bd8-47a0-88ef-a96fb96d1df1"},"vehicle_type_id":"4","last_reported":1758452795,"current_range_meters":14800,"station_id":"ce4bhp12rcd13ifvqh9g","pricing_plan_id":"cebpf4jnsgd1na2vs0mg"},{"bike_id":"645d62c7-81b8-471d-aa08-98da55f8abeb","system_id":"levelo_inurba_marseille","lat":43.29785,"lon":5.39345,"is_reserved":false,"is_disabled":false,"rental_uris":{"android":"levelo://app?vid=645d62c7-81b8-471d-aa08-98da55f8abeb","ios":"levelo://app?vid=645d62c7-81b8-471d-aa08-98da55f8abeb"},"vehicle_type_id":"4","last_reported":1758452795,"current_range_meters":14800,"station_id":"","pricing_plan_id":"cebpf4jnsgd1na2vs0mg"},{"bike_id":"9176512c-2cc1-4df2-a8e0-6be514fbcdbf","system_id":"levelo_inurba_marseille","lat":43.33748,"lon":5.37465,"is_reserved":false,"is_disabled":false,"rental_uris":{"android":"levelo://app?vid=9176512c-2cc1-4df2-a8e0-6be514fbcdbf","ios":"levelo://app?vid=9176512c-2cc1-4df2-a8e0-6be514fbcdbf"},"vehicle_type_id":"4","last_reported":1758452795,"current_range_meters":14800,"station_id":"","pricing_plan_id":"cebpf4jnsgd1na2vs0mg"},{"bike_id":"3a29a1f1-5c4a-4b76-946d-53b072672149","system_id":"levelo_inurba_marseille","lat":43.24661,"lon":5.38161,"is_reserved":false,"is_disabled":false,"rental_uris":{"android":"levelo://app?vid=3a29a1f1-5c4a-4b76-946d-53b072672149","ios":"levelo://app?vid=3a29a1f1-5c4a-4b76-946d-53b072672149"},"vehicle_type_id":"4","last_reported":1758452795,"current_range_meters":14800,"station_id":"ce4bhih2rcd13ifvqfr0","pricing_plan_id":"cebpf4jnsgd1na2vs0mg"},{"bike_id":"438ead59-de14-4fa0-a61d-03a70a4122ae","system_id":"levelo_inurba_marseille","lat":43.97285,"lon":4.89134,"is_reserved":false,"is_disabled":true,"rental_uris":{"android":"levelo://app?vid=438ead59-de14-4fa0-a61d-03a70a4122ae","ios":"levelo://app?vid=438ead59-de14-4fa0-a61d-03a70a4122ae"},"vehicle_type_id":"4","last_reported":1758452795,"current_range_meters":14800,"station_id":"","pricing_plan_id":"cebpf4jnsgd1na2vs0mg"},{"bike_id":"06999a4b-1549-4636-a305-ae6536b0c018","system_id":"levelo_inurba_marseille","lat":43.23135,"lon":5.43721,"is_reserved":false,"is_disabled":false,"rental_uris":{"android":"levelo://app?vid=06999a4b-1549-4636-a305-ae6536b0c018","ios":"levelo://app?vid=06999a4b-1549-4636-a305-ae6536b0c018"},"vehicle_type_id":"4","last_reported":1758452795,"current_range_meters":14800,"station_id":"ce4bhmp2rcd13ifvqgog","pricing_plan_id":"cebpf4jnsgd1na2vs0mg"},{"bike_id":"8f91e9d0-3373-4597-af23-dde1f557a217","system_id":"levelo_inurba_marseille","lat":43.25822,"lon":5.39438,"is_reserved":false,"is_disabled":false,"rental_uris":{"android":"levelo://app?vid=8f91e9d0-3373-4597-af23-dde1f557a217","ios":"levelo://app?vid=8f91e9d0-3373-4597-af23-dde1f557a217"},"vehicle_type_id":"4","last_reported":1758452795,"current_range_meters":14800,"station_id":"ce4bhip2rcd13ifvqft0","pricing_plan_id":"cebpf4jnsgd1na2vs0mg"},{"bike_id":"5012c91b-a53c-4c5f-901c-26f9fc9d8566","system_id":"levelo_inurba_marseille","lat":43.31118,"lon":5.37769,"is_reserved":false,"is_disabled":false,"rental_uris":{"android":"levelo://app?vid=5012c91b-a53c-4c5f-901c-26f9fc9d8566","ios":"levelo://app?vid=5012c91b-a53c-4c5f-901c-26f9fc9d8566"},"vehicle_type_id":"4","last_reported":1758452795,"current_range_meters":15200,"station_id":"ce4bgt92rcd13ifvqcg0","pricing_plan_id":"cebpf4jnsgd1na2vs0mg"},{"bike_id":"162483fb-058a-43f7-a272-15e63e78b5bc","system_id":"levelo_inurba_marseille","lat":43.21746,"lon":5.34603,"is_reserved":false,"is_disabled":true,"rental_uris":{"android":"levelo://app?vid=162483fb-058a-43f7-a272-15e63e78b5bc","ios":"levelo://app?vid=162483fb-058a-43f7-a272-15e63e78b5bc"},"vehicle_type_id":"4","last_reported":1758452795,"current_range_meters":15200,"station_id":"st_cvj6r9ubvosntc0bgbag","pricing_plan_id":"cebpf4jnsgd1na2vs0mg"},{"bike_id":"57fc4eac-a780-4558-b019-0ea94330fa0c","system_id":"levelo_inurba_marseille","lat":43.297119,"lon":5.365933,"is_reserved":false,"is_disabled":false,"rental_uris":{"android":"levelo://app?vid=57fc4eac-a780-4558-b019-0ea94330fa0c","ios":"levelo://app?vid=57fc4eac-a780-4558-b019-0ea94330fa0c"},"vehicle_type_id":"4","last_reported":1758452795,"current_range_meters":15200,"station_id":"ce4bgn12rcd13ifvqbt0","pricing_plan_id":"cebpf4jnsgd1na2vs0mg"},{"bike_id":"c4c46887-158f-4e7a-bbf5-038161bedb04","system_id":"levelo_inurba_marseille","lat":43.30535,"lon":5.36521,"is_reserved":false,"is_disabled":false,"rental_uris":{"android":"levelo://app?vid=c4c46887-158f-4e7a-bbf5-038161bedb04","ios":"levelo://app?vid=c4c46887-158f-4e7a-bbf5-038161bedb04"},"vehicle_type_id":"4","last_reported":1758452795,"current_range_meters":15200,"station_id":"ce4bgs12rcd13ifvqcag","pricing_plan_id":"cebpf4jnsgd1na2vs0mg"},{"bike_id":"e0206d1b-8829-460d-bb12-dfe02712fcf2","system_id":"levelo_inurba_marseille","lat":43.30579,"lon":5.37219,"is_reserved":false,"is_disabled":false,"rental_uris":{"android":"levelo://app?vid=e0206d1b-8829-460d-bb12-dfe02712fcf2","ios":"levelo://app?vid=e0206d1b-8829-460d-bb12-dfe02712fcf2"},"vehicle_type_id":"4","last_reported":1758452795,"current_range_meters":15200,"station_id":"ce4bgqh2rcd13ifvqc4g","pricing_plan_id":"cebpf4jnsgd1na2vs0mg"},{"bike_id":"a3a4206e-9698-40c4-99a7-c2a694b15382","system_id":"levelo_inurba_marseille","lat":43.2593,"lon":5.40891,"is_reserved":false,"is_disabled":false,"rental_uris":{"android":"levelo://app?vid=a3a4206e-9698-40c4-99a7-c2a694b15382","ios":"levelo://app?vid=a3a4206e-9698-40c4-99a7-c2a694b15382"},"vehicle_type_id":"4","last_reported":1758452795,"current_range_meters":15200,"station_id":"ce4bhm92rcd13ifvqglg","pricing_plan_id":"cebpf4jnsgd1na2vs0mg"},{"bike_id":"7dfa5743-3739-4ea1-809b-4b7ff3c51c53","system_id":"levelo_inurba_marseille","lat":43.27621,"lon":5.36108,"is_reserved":false,"is_disabled":false,"rental_uris":{"android":"levelo://app?vid=7dfa5743-3739-4ea1-809b-4b7ff3c51c53","ios":"levelo://app?vid=7dfa5743-3739-4ea1-809b-4b7ff3c51c53"},"vehicle_type_id":"4","last_reported":1758452795,"current_range_meters":15200,"station_id":"ce4bgj92rcd13ifvqbe0","pricing_plan_id":"cebpf4jnsgd1na2vs0mg"},{"bike_id":"58986365-ed1f-42b3-b6fa-c019245e03e9","system_id":"levelo_inurba_marseille","lat":43.31728,"lon":5.42391,"is_reserved":false,"is_disabled":false,"rental_uris":{"android":"levelo://app?vid=58986365-ed1f-42b3-b6fa-c019245e03e9","ios":"levelo://app?vid=58986365-ed1f-42b3-b6fa-c019245e03e9"},"vehicle_type_id":"4","last_reported":1758452795,"current_range_meters":15200,"station_id":"ce4bhp92rcd13ifvqhbg","pricing_plan_id":"cebpf4jnsgd1na2vs0mg"},{"bike_id":"e7f6ec9d-0d28-4bd8-a3da-83f0cd142dce","system_id":"levelo_inurba_marseille","lat":43.290291,"lon":5.386496,"is_reserved":false,"is_disabled":false,"rental_uris":{"android":"levelo://app?vid=e7f6ec9d-0d28-4bd8-a3da-83f0cd142dce","ios":"levelo://app?vid=e7f6ec9d-0d28-4bd8-a3da-83f0cd142dce"},"vehicle_type_id":"4","last_reported":1758452795,"current_range_meters":16000,"station_id":"","pricing_plan_id":"cebpf4jnsgd1na2vs0mg"},{"bike_id":"f6d3db65-6e51-4ae2-b08b-28b25101c71d","system_id":"levelo_inurba_marseille","lat":43.27348,"lon":5.36235,"is_reserved":false,"is_disabled":false,"rental_uris":{"android":"levelo://app?vid=f6d3db65-6e51-4ae2-b08b-28b25101c71d","ios":"levelo://app?vid=f6d3db65-6e51-4ae2-b08b-28b25101c71d"},"vehicle_type_id":"4","last_reported":1758452795,"current_range_meters":16000,"station_id":"ce4bhbh2rcd13ifvqeo0","pricing_plan_id":"cebpf4jnsgd1na2vs0mg"},{"bike_id":"0c8a92f3-f5d4-48dc-bbf5-8177c0a48b95","system_id":"levelo_inurba_marseille","lat":43.29626,"lon":5.38147,"is_reserved":false,"is_disabled":false,"rental_uris":{"android":"levelo://app?vid=0c8a92f3-f5d4-48dc-bbf5-8177c0a48b95","ios":"levelo://app?vid=0c8a92f3-f5d4-48dc-bbf5-8177c0a48b95"},"vehicle_type_id":"4","last_reported":1758452795,"current_range_meters":16000,"station_id":"ce4bgl12rcd13ifvqbo0","pricing_plan_id":"cebpf4jnsgd1na2vs0mg"},{"bike_id":"176a31c4-a17c-44ec-bbf6-50f8985ee1fc","system_id":"levelo_inurba_marseille","lat":43.25336,"lon":5.42165,"is_reserved":false,"is_disabled":false,"rental_uris":{"android":"levelo://app?vid=176a31c4-a17c-44ec-bbf6-50f8985ee1fc","ios":"levelo://app?vid=176a31c4-a17c-44ec-bbf6-50f8985ee1fc"},"vehicle_type_id":"4","last_reported":1758452795,"current_range_meters":16000,"station_id":"st_d2m65c5bi1j21697t3ng","pricing_plan_id":"cebpf4jnsgd1na2vs0mg"},{"bike_id":"a4473019-692e-4bd9-9b08-db083daad564","system_id":"levelo_inurba_marseille","lat":43.31988,"lon":5.38154,"is_reserved":false,"is_disabled":false,"rental_uris":{"android":"levelo://app?vid=a4473019-692e-4bd9-9b08-db083daad564","ios":"levelo://app?vid=a4473019-692e-4bd9-9b08-db083daad564"},"vehicle_type_id":"4","last_reported":1758452795,"current_range_meters":16000,"station_id":"ce4bhr12rcd13ifvqhpg","pricing_plan_id":"cebpf4jnsgd1na2vs0mg"},{"bike_id":"b22bfa05-faa9-4074-a1be-f504ad012798","system_id":"levelo_inurba_marseille","lat":43.31749,"lon":5.39042,"is_reserved":false,"is_disabled":false,"rental_uris":{"android":"levelo://app?vid=b22bfa05-faa9-4074-a1be-f504ad012798","ios":"levelo://app?vid=b22bfa05-faa9-4074-a1be-f504ad012798"},"vehicle_type_id":"4","last_reported":1758452795,"current_range_meters":16000,"station_id":"ce4bhqp2rcd13ifvqhng","pricing_plan_id":"cebpf4jnsgd1na2vs0mg"},{"bike_id":"d639fc5d-edb5-4e2c-8ef6-ca308fb6a725","system_id":"levelo_inurba_marseille","lat":43.23204,"lon":5.39972,"is_reserved":false,"is_disabled":false,"rental_uris":{"android":"levelo://app?vid=d639fc5d-edb5-4e2c-8ef6-ca308fb6a725","ios":"levelo://app?vid=d639fc5d-edb5-4e2c-8ef6-ca308fb6a725"},"vehicle_type_id":"4","last_reported":1758452795,"current_range_meters":16000,"station_id":"ce4bhn12rcd13ifvqgqg","pricing_plan_id":"cebpf4jnsgd1na2vs0mg"},{"bike_id":"6be3bd8b-eada-4f83-bfbf-82d34cec3c94","system_id":"levelo_inurba_marseille","lat":43.337724,"lon":5.374496,"is_reserved":false,"is_disabled":false,"rental_uris":{"android":"levelo://app?vid=6be3bd8b-eada-4f83-bfbf-82d34cec3c94","ios":"levelo://app?vid=6be3bd8b-eada-4f83-bfbf-82d34cec3c94"},"vehicle_type_id":"4","last_reported":1758452795,"current_range_meters":16000,"station_id":"","pricing_plan_id":"cebpf4jnsgd1na2vs0mg"},{"bike_id":"f3805ac9-2ab6-41f8-b374-0887d951860e","system_id":"levelo_inurba_marseille","lat":43.217463,"lon":5.346119,"is_reserved":false,"is_disabled":true,"rental_uris":{"android":"levelo://app?vid=f3805ac9-2ab6-41f8-b374-0887d951860e","ios":"levelo://app?vid=f3805ac9-2ab6-41f8-b374-0887d951860e"},"vehicle_type_id":"4","last_reported":1758452795,"current_range_meters":16000,"station_id":"st_cvj6r9ubvosntc0bgbag","pricing_plan_id":"cebpf4jnsgd1na2vs0mg"},{"bike_id":"ee714a1c-9701-4b43-9485-3ea54969b52b","system_id":"levelo_inurba_marseille","lat":43.26226,"lon":5.40449,"is_reserved":false,"is_disabled":false,"rental_uris":{"android":"levelo://app?vid=ee714a1c-9701-4b43-9485-3ea54969b52b","ios":"levelo://app?vid=ee714a1c-9701-4b43-9485-3ea54969b52b"},"vehicle_type_id":"4","last_reported":1758452795,"current_range_meters":16000,"station_id":"ce4bhmh2rcd13ifvqgmg","pricing_plan_id":"cebpf4jnsgd1na2vs0mg"},{"bike_id":"525da317-dea4-4e1a-b1d8-f03c3d746e82","system_id":"levelo_inurba_marseille","lat":43.30245,"lon":5.40063,"is_reserved":false,"is_disabled":false,"rental_uris":{"android":"levelo://app?vid=525da317-dea4-4e1a-b1d8-f03c3d746e82","ios":"levelo://app?vid=525da317-dea4-4e1a-b1d8-f03c3d746e82"},"vehicle_type_id":"4","last_reported":1758452795,"current_range_meters":15200,"station_id":"ce4bgvh2rcd13ifvqcs0","pricing_plan_id":"cebpf4jnsgd1na2vs0mg"},{"bike_id":"e2bd72e1-df2b-4e25-99a1-6d8f803d2da1","system_id":"levelo_inurba_marseille","lat":43.298772,"lon":5.397246,"is_reserved":false,"is_disabled":false,"rental_uris":{"android":"levelo://app?vid=e2bd72e1-df2b-4e25-99a1-6d8f803d2da1","ios":"levelo://app?vid=e2bd72e1-df2b-4e25-99a1-6d8f803d2da1"},"vehicle_type_id":"4","last_reported":1758452795,"current_range_meters":16000,"station_id":"ce4bh0h2rcd13ifvqd50","pricing_plan_id":"cebpf4jnsgd1na2vs0mg"},{"bike_id":"1f5f1aea-0efa-4310-b0af-b5d79f6200fa","system_id":"levelo_inurba_marseille","lat":43.295556,"lon":5.422866,"is_reserved":false,"is_disabled":false,"rental_uris":{"android":"levelo://app?vid=1f5f1aea-0efa-4310-b0af-b5d79f6200fa","ios":"levelo://app?vid=1f5f1aea-0efa-4310-b0af-b5d79f6200fa"},"vehicle_type_id":"4","last_reported":1758452795,"current_range_meters":16000,"station_id":"ce4bhph2rcd13ifvqhdg","pricing_plan_id":"cebpf4jnsgd1na2vs0mg"},{"bike_id":"df41994c-8583-4443-927b-b4b9bc9adddb","system_id":"levelo_inurba_marseille","lat":43.32995,"lon":5.39045,"is_reserved":false,"is_disabled":false,"rental_uris":{"android":"levelo://app?vid=df41994c-8583-4443-927b-b4b9bc9adddb","ios":"levelo://app?vid=df41994c-8583-4443-927b-b4b9bc9adddb"},"vehicle_type_id":"4","last_reported":1758452795,"current_range_meters":16400,"station_id":"ce4bhr92rcd13ifvqhrg","pricing_plan_id":"cebpf4jnsgd1na2vs0mg"},{"bike_id":"31e1ba1a-f4b0-4377-81aa-27cf4b468137","system_id":"levelo_inurba_marseille","lat":43.30535,"lon":5.36564,"is_reserved":false,"is_disabled":false,"rental_uris":{"android":"levelo://app?vid=31e1ba1a-f4b0-4377-81aa-27cf4b468137","ios":"levelo://app?vid=31e1ba1a-f4b0-4377-81aa-27cf4b468137"},"vehicle_type_id":"4","last_reported":1758452795,"current_range_meters":16400,"station_id":"ce4bgs12rcd13ifvqcag","pricing_plan_id":"cebpf4jnsgd1na2vs0mg"},{"bike_id":"17f96fd8-e22e-4729-8e7a-729326c835da","system_id":"levelo_inurba_marseille","lat":43.29908,"lon":5.37482,"is_reserved":false,"is_disabled":false,"rental_uris":{"android":"levelo://app?vid=17f96fd8-e22e-4729-8e7a-729326c835da","ios":"levelo://app?vid=17f96fd8-e22e-4729-8e7a-729326c835da"},"vehicle_type_id":"4","last_reported":1758452795,"current_range_meters":17600,"station_id":"ce4bgjh2rcd13ifvqbg0","pricing_plan_id":"cebpf4jnsgd1na2vs0mg"},{"bike_id":"14e0ecfc-848e-4179-ac98-8bf6c41189b5","system_id":"levelo_inurba_marseille","lat":43.30284,"lon":5.396613,"is_reserved":false,"is_disabled":false,"rental_uris":{"android":"levelo://app?vid=14e0ecfc-848e-4179-ac98-8bf6c41189b5","ios":"levelo://app?vid=14e0ecfc-848e-4179-ac98-8bf6c41189b5"},"vehicle_type_id":"4","last_reported":1758452795,"current_range_meters":16400,"station_id":"","pricing_plan_id":"cebpf4jnsgd1na2vs0mg"},{"bike_id":"6fe025d9-a6f5-413f-a2cb-db271fd37025","system_id":"levelo_inurba_marseille","lat":43.301502,"lon":5.380812,"is_reserved":false,"is_disabled":false,"rental_uris":{"android":"levelo://app?vid=6fe025d9-a6f5-413f-a2cb-db271fd37025","ios":"levelo://app?vid=6fe025d9-a6f5-413f-a2cb-db271fd37025"},"vehicle_type_id":"4","last_reported":1758452795,"current_range_meters":16400,"station_id":"ce4bgjp2rcd13ifvqbh0","pricing_plan_id":"cebpf4jnsgd1na2vs0mg"},{"bike_id":"ab3ffc48-3b72-4766-9326-6b75f94718d3","system_id":"levelo_inurba_marseille","lat":43.2893,"lon":5.38394,"is_reserved":false,"is_disabled":true,"rental_uris":{"android":"levelo://app?vid=ab3ffc48-3b72-4766-9326-6b75f94718d3","ios":"levelo://app?vid=ab3ffc48-3b72-4766-9326-6b75f94718d3"},"vehicle_type_id":"4","last_reported":1758452795,"current_range_meters":16400,"station_id":"ce4bh612rcd13ifvqe6g","pricing_plan_id":"cebpf4jnsgd1na2vs0mg"},{"bike_id":"15609c4e-f589-422c-9a62-c8d2d4eb92fd","system_id":"levelo_inurba_marseille","lat":43.31932,"lon":5.41179,"is_reserved":false,"is_disabled":false,"rental_uris":{"android":"levelo://app?vid=15609c4e-f589-422c-9a62-c8d2d4eb92fd","ios":"levelo://app?vid=15609c4e-f589-422c-9a62-c8d2d4eb92fd"},"vehicle_type_id":"4","last_reported":1758452795,"current_range_meters":16400,"station_id":"","pricing_plan_id":"cebpf4jnsgd1na2vs0mg"},{"bike_id":"d112a482-2a92-4b40-a5ca-a1152605e1eb","system_id":"levelo_inurba_marseille","lat":43.24664,"lon":5.38162,"is_reserved":false,"is_disabled":false,"rental_uris":{"android":"levelo://app?vid=d112a482-2a92-4b40-a5ca-a1152605e1eb","ios":"levelo://app?vid=d112a482-2a92-4b40-a5ca-a1152605e1eb"},"vehicle_type_id":"4","last_reported":1758452795,"current_range_meters":16400,"station_id":"ce4bhih2rcd13ifvqfr0","pricing_plan_id":"cebpf4jnsgd1na2vs0mg"},{"bike_id":"0c380ec5-fd52-45a8-9c3b-549d458f8bfd","system_id":"levelo_inurba_marseille","lat":43.2305,"lon":5.35409,"is_reserved":false,"is_disabled":false,"rental_uris":{"android":"levelo://app?vid=0c380ec5-fd52-45a8-9c3b-549d458f8bfd","ios":"levelo://app?vid=0c380ec5-fd52-45a8-9c3b-549d458f8bfd"},"vehicle_type_id":"4","last_reported":1758452795,"current_range_meters":16400,"station_id":"","pricing_plan_id":"cebpf4jnsgd1na2vs0mg"},{"bike_id":"38d21d4e-06bb-4435-927f-f5024c4b55de","system_id":"levelo_inurba_marseille","lat":43.31988,"lon":5.38161,"is_reserved":false,"is_disabled":false,"rental_uris":{"android":"levelo://app?vid=38d21d4e-06bb-4435-927f-f5024c4b55de","ios":"levelo://app?vid=38d21d4e-06bb-4435-927f-f5024c4b55de"},"vehicle_type_id":"4","last_reported":1758452795,"current_range_meters":16400,"station_id":"ce4bhr12rcd13ifvqhpg","pricing_plan_id":"cebpf4jnsgd1na2vs0mg"},{"bike_id":"bb6c8a16-80bf-4d3d-964a-814195cc53c7","system_id":"levelo_inurba_marseille","lat":43.284606,"lon":5.358927,"is_reserved":false,"is_disabled":false,"rental_uris":{"android":"levelo://app?vid=bb6c8a16-80bf-4d3d-964a-814195cc53c7","ios":"levelo://app?vid=bb6c8a16-80bf-4d3d-964a-814195cc53c7"},"vehicle_type_id":"4","last_reported":1758452795,"current_range_meters":16400,"station_id":"ce4bhah2rcd13ifvqei0","pricing_plan_id":"cebpf4jnsgd1na2vs0mg"},{"bike_id":"07bf7daf-7f0f-4cf7-90db-b9f0e0dfa16a","system_id":"levelo_inurba_marseille","lat":43.212,"lon":5.35073,"is_reserved":false,"is_disabled":false,"rental_uris":{"android":"levelo://app?vid=07bf7daf-7f0f-4cf7-90db-b9f0e0dfa16a","ios":"levelo://app?vid=07bf7daf-7f0f-4cf7-90db-b9f0e0dfa16a"},"vehicle_type_id":"4","last_reported":1758452795,"current_range_meters":16400,"station_id":"st_cvj6sg6p6f1abm77japg","pricing_plan_id":"cebpf4jnsgd1na2vs0mg"},{"bike_id":"f68ef2ec-86ee-455b-a503-a1766a7ff2c8","system_id":"levelo_inurba_marseille","lat":43.29941,"lon":5.36543,"is_reserved":false,"is_disabled":false,"rental_uris":{"android":"levelo://app?vid=f68ef2ec-86ee-455b-a503-a1766a7ff2c8","ios":"levelo://app?vid=f68ef2ec-86ee-455b-a503-a1766a7ff2c8"},"vehicle_type_id":"4","last_reported":1758452795,"current_range_meters":16800,"station_id":"ce4bgm92rcd13ifvqbr0","pricing_plan_id":"cebpf4jnsgd1na2vs0mg"},{"bike_id":"1e0fd49c-ac4b-47b7-af02-10561a312938","system_id":"levelo_inurba_marseille","lat":43.21745,"lon":5.34606,"is_reserved":false,"is_disabled":true,"rental_uris":{"android":"levelo://app?vid=1e0fd49c-ac4b-47b7-af02-10561a312938","ios":"levelo://app?vid=1e0fd49c-ac4b-47b7-af02-10561a312938"},"vehicle_type_id":"4","last_reported":1758452795,"current_range_meters":16800,"station_id":"st_cvj6r9ubvosntc0bgbag","pricing_plan_id":"cebpf4jnsgd1na2vs0mg"},{"bike_id":"00cfd4e0-c74d-4fd1-9130-e45639e81dda","system_id":"levelo_inurba_marseille","lat":43.2408,"lon":5.37757,"is_reserved":false,"is_disabled":false,"rental_uris":{"android":"levelo://app?vid=00cfd4e0-c74d-4fd1-9130-e45639e81dda","ios":"levelo://app?vid=00cfd4e0-c74d-4fd1-9130-e45639e81dda"},"vehicle_type_id":"4","last_reported":1758452795,"current_range_meters":16800,"station_id":"ce4bhnp2rcd13ifvqgvg","pricing_plan_id":"cebpf4jnsgd1na2vs0mg"},{"bike_id":"b8ef90bb-057a-402b-9655-3a68d78bcddb","system_id":"levelo_inurba_marseille","lat":43.2623,"lon":5.40451,"is_reserved":false,"is_disabled":false,"rental_uris":{"android":"levelo://app?vid=b8ef90bb-057a-402b-9655-3a68d78bcddb","ios":"levelo://app?vid=b8ef90bb-057a-402b-9655-3a68d78bcddb"},"vehicle_type_id":"4","last_reported":1758452795,"current_range_meters":16800,"station_id":"ce4bhmh2rcd13ifvqgmg","pricing_plan_id":"cebpf4jnsgd1na2vs0mg"},{"bike_id":"61f8ff09-b41d-4363-9d56-8544060bdc21","system_id":"levelo_inurba_marseille","lat":43.26208,"lon":5.37441,"is_reserved":false,"is_disabled":false,"rental_uris":{"android":"levelo://app?vid=61f8ff09-b41d-4363-9d56-8544060bdc21","ios":"levelo://app?vid=61f8ff09-b41d-4363-9d56-8544060bdc21"},"vehicle_type_id":"4","last_reported":1758452795,"current_range_meters":16800,"station_id":"ce4bhgp2rcd13ifvqfc0","pricing_plan_id":"cebpf4jnsgd1na2vs0mg"},{"bike_id":"89d932a4-f4b4-4493-8569-31d5f36c94e4","system_id":"levelo_inurba_marseille","lat":43.30296,"lon":5.39202,"is_reserved":false,"is_disabled":true,"rental_uris":{"android":"levelo://app?vid=89d932a4-f4b4-4493-8569-31d5f36c94e4","ios":"levelo://app?vid=89d932a4-f4b4-4493-8569-31d5f36c94e4"},"vehicle_type_id":"4","last_reported":1758452795,"current_range_meters":17200,"station_id":"ce4bgkh2rcd13ifvqbk0","pricing_plan_id":"cebpf4jnsgd1na2vs0mg"},{"bike_id":"76aabfa6-feff-4f9e-98e3-80f3ed3d34bb","system_id":"levelo_inurba_marseille","lat":43.30241,"lon":5.40076,"is_reserved":false,"is_disabled":true,"rental_uris":{"android":"levelo://app?vid=76aabfa6-feff-4f9e-98e3-80f3ed3d34bb","ios":"levelo://app?vid=76aabfa6-feff-4f9e-98e3-80f3ed3d34bb"},"vehicle_type_id":"4","last_reported":1758452795,"current_range_meters":17200,"station_id":"ce4bgvh2rcd13ifvqcs0","pricing_plan_id":"cebpf4jnsgd1na2vs0mg"},{"bike_id":"0fd48107-ecb7-4a1a-ba73-ba800c890883","system_id":"levelo_inurba_marseille","lat":43.26681,"lon":5.38279,"is_reserved":false,"is_disabled":false,"rental_uris":{"android":"levelo://app?vid=0fd48107-ecb7-4a1a-ba73-ba800c890883","ios":"levelo://app?vid=0fd48107-ecb7-4a1a-ba73-ba800c890883"},"vehicle_type_id":"4","last_reported":1758452795,"current_range_meters":17200,"station_id":"ce4bhg92rcd13ifvqf90","pricing_plan_id":"cebpf4jnsgd1na2vs0mg"},{"bike_id":"4806da5a-67b2-4245-853a-7c8de74bc531","system_id":"levelo_inurba_marseille","lat":43.27069,"lon":5.422882,"is_reserved":false,"is_disabled":false,"rental_uris":{"android":"levelo://app?vid=4806da5a-67b2-4245-853a-7c8de74bc531","ios":"levelo://app?vid=4806da5a-67b2-4245-853a-7c8de74bc531"},"vehicle_type_id":"4","last_reported":1758452795,"current_range_meters":17200,"station_id":"ce4bhk92rcd13ifvqgb0","pricing_plan_id":"cebpf4jnsgd1na2vs0mg"},{"bike_id":"abbc1fa8-ce56-4b0b-8f19-f8bd430d0c62","system_id":"levelo_inurba_marseille","lat":43.23176,"lon":5.39988,"is_reserved":false,"is_disabled":false,"rental_uris":{"android":"levelo://app?vid=abbc1fa8-ce56-4b0b-8f19-f8bd430d0c62","ios":"levelo://app?vid=abbc1fa8-ce56-4b0b-8f19-f8bd430d0c62"},"vehicle_type_id":"4","last_reported":1758452795,"current_range_meters":17200,"station_id":"ce4bhn12rcd13ifvqgqg","pricing_plan_id":"cebpf4jnsgd1na2vs0mg"},{"bike_id":"0c3dc425-935f-44e8-86ef-3ce01c6a078f","system_id":"levelo_inurba_marseille","lat":43.30088,"lon":5.39073,"is_reserved":false,"is_disabled":false,"rental_uris":{"android":"levelo://app?vid=0c3dc425-935f-44e8-86ef-3ce01c6a078f","ios":"levelo://app?vid=0c3dc425-935f-44e8-86ef-3ce01c6a078f"},"vehicle_type_id":"4","last_reported":1758452795,"current_range_meters":17200,"station_id":"ce4bh192rcd13ifvqdb0","pricing_plan_id":"cebpf4jnsgd1na2vs0mg"},{"bike_id":"c46575d3-d222-4081-9970-3a38bb708282","system_id":"levelo_inurba_marseille","lat":43.21741,"lon":5.346044,"is_reserved":false,"is_disabled":false,"rental_uris":{"android":"levelo://app?vid=c46575d3-d222-4081-9970-3a38bb708282","ios":"levelo://app?vid=c46575d3-d222-4081-9970-3a38bb708282"},"vehicle_type_id":"4","last_reported":1758452795,"current_range_meters":17600,"station_id":"st_cvj6r9ubvosntc0bgbag","pricing_plan_id":"cebpf4jnsgd1na2vs0mg"},{"bike_id":"43d57fd4-047e-4ac8-97e5-ec9b96239472","system_id":"levelo_inurba_marseille","lat":43.33123,"lon":5.39726,"is_reserved":false,"is_disabled":false,"rental_uris":{"android":"levelo://app?vid=43d57fd4-047e-4ac8-97e5-ec9b96239472","ios":"levelo://app?vid=43d57fd4-047e-4ac8-97e5-ec9b96239472"},"vehicle_type_id":"4","last_reported":1758452795,"current_range_meters":17200,"station_id":"","pricing_plan_id":"cebpf4jnsgd1na2vs0mg"},{"bike_id":"4d03cc56-4dd1-497c-939f-31be6050482c","system_id":"levelo_inurba_marseille","lat":43.24609,"lon":5.39569,"is_reserved":false,"is_disabled":false,"rental_uris":{"android":"levelo://app?vid=4d03cc56-4dd1-497c-939f-31be6050482c","ios":"levelo://app?vid=4d03cc56-4dd1-497c-939f-31be6050482c"},"vehicle_type_id":"4","last_reported":1758452795,"current_range_meters":17200,"station_id":"","pricing_plan_id":"cebpf4jnsgd1na2vs0mg"},{"bike_id":"332ea6d3-29ee-431a-826e-1c64b07b61db","system_id":"levelo_inurba_marseille","lat":43.2872,"lon":5.37937,"is_reserved":false,"is_disabled":false,"rental_uris":{"android":"levelo://app?vid=332ea6d3-29ee-431a-826e-1c64b07b61db","ios":"levelo://app?vid=332ea6d3-29ee-431a-826e-1c64b07b61db"},"vehicle_type_id":"4","last_reported":1758452795,"current_range_meters":17200,"station_id":"ce4bh9p2rcd13ifvqec0","pricing_plan_id":"cebpf4jnsgd1na2vs0mg"},{"bike_id":"99f2a0d1-a9bb-4a75-ad28-578d9b01c1fc","system_id":"levelo_inurba_marseille","lat":43.30161,"lon":5.38777,"is_reserved":false,"is_disabled":true,"rental_uris":{"android":"levelo://app?vid=99f2a0d1-a9bb-4a75-ad28-578d9b01c1fc","ios":"levelo://app?vid=99f2a0d1-a9bb-4a75-ad28-578d9b01c1fc"},"vehicle_type_id":"4","last_reported":1758452795,"current_range_meters":17600,"station_id":"ce4bghh2rcd13ifvqb60","pricing_plan_id":"cebpf4jnsgd1na2vs0mg"},{"bike_id":"ae0a6a91-9a5f-403e-ae55-1c3a634f9602","system_id":"levelo_inurba_marseille","lat":43.26679,"lon":5.38269,"is_reserved":false,"is_disabled":false,"rental_uris":{"android":"levelo://app?vid=ae0a6a91-9a5f-403e-ae55-1c3a634f9602","ios":"levelo://app?vid=ae0a6a91-9a5f-403e-ae55-1c3a634f9602"},"vehicle_type_id":"4","last_reported":1758452795,"current_range_meters":17600,"station_id":"ce4bhg92rcd13ifvqf90","pricing_plan_id":"cebpf4jnsgd1na2vs0mg"},{"bike_id":"3b111e8a-4f20-4fb3-99c0-f4645d568650","system_id":"levelo_inurba_marseille","lat":43.28361,"lon":5.38637,"is_reserved":false,"is_disabled":false,"rental_uris":{"android":"levelo://app?vid=3b111e8a-4f20-4fb3-99c0-f4645d568650","ios":"levelo://app?vid=3b111e8a-4f20-4fb3-99c0-f4645d568650"},"vehicle_type_id":"4","last_reported":1758452795,"current_range_meters":17600,"station_id":"ce4bh492rcd13ifvqdvg","pricing_plan_id":"cebpf4jnsgd1na2vs0mg"},{"bike_id":"423aeb91-69f4-4522-916b-76a472005736","system_id":"levelo_inurba_marseille","lat":43.31475,"lon":5.38036,"is_reserved":false,"is_disabled":false,"rental_uris":{"android":"levelo://app?vid=423aeb91-69f4-4522-916b-76a472005736","ios":"levelo://app?vid=423aeb91-69f4-4522-916b-76a472005736"},"vehicle_type_id":"4","last_reported":1758452795,"current_range_meters":17600,"station_id":"","pricing_plan_id":"cebpf4jnsgd1na2vs0mg"},{"bike_id":"6e462536-3a01-4092-9490-0b0d7831c7b9","system_id":"levelo_inurba_marseille","lat":43.29515,"lon":5.39028,"is_reserved":false,"is_disabled":true,"rental_uris":{"android":"levelo://app?vid=6e462536-3a01-4092-9490-0b0d7831c7b9","ios":"levelo://app?vid=6e462536-3a01-4092-9490-0b0d7831c7b9"},"vehicle_type_id":"4","last_reported":1758452795,"current_range_meters":17600,"station_id":"ce4bh3p2rcd13ifvqdp0","pricing_plan_id":"cebpf4jnsgd1na2vs0mg"},{"bike_id":"1c834dea-d224-4d22-9ae4-604e90331ee2","system_id":"levelo_inurba_marseille","lat":43.29261,"lon":5.38458,"is_reserved":false,"is_disabled":false,"rental_uris":{"android":"levelo://app?vid=1c834dea-d224-4d22-9ae4-604e90331ee2","ios":"levelo://app?vid=1c834dea-d224-4d22-9ae4-604e90331ee2"},"vehicle_type_id":"4","last_reported":1758452795,"current_range_meters":17600,"station_id":"ce4bh692rcd13ifvqea0","pricing_plan_id":"cebpf4jnsgd1na2vs0mg"},{"bike_id":"db84adec-ce3d-4996-a290-572d085c8e3d","system_id":"levelo_inurba_marseille","lat":43.28731,"lon":5.36079,"is_reserved":false,"is_disabled":false,"rental_uris":{"android":"levelo://app?vid=db84adec-ce3d-4996-a290-572d085c8e3d","ios":"levelo://app?vid=db84adec-ce3d-4996-a290-572d085c8e3d"},"vehicle_type_id":"4","last_reported":1758452795,"current_range_meters":17600,"station_id":"cki0cbj6b192h4jlfktg","pricing_plan_id":"cebpf4jnsgd1na2vs0mg"},{"bike_id":"d1114a25-396a-458c-bb3a-06443865c163","system_id":"levelo_inurba_marseille","lat":43.298,"lon":5.38122,"is_reserved":false,"is_disabled":true,"rental_uris":{"android":"levelo://app?vid=d1114a25-396a-458c-bb3a-06443865c163","ios":"levelo://app?vid=d1114a25-396a-458c-bb3a-06443865c163"},"vehicle_type_id":"4","last_reported":1758452795,"current_range_meters":18000,"station_id":"ce4bgip2rcd13ifvqbb0","pricing_plan_id":"cebpf4jnsgd1na2vs0mg"},{"bike_id":"6ee0c93d-a636-47a2-b306-796979825eb9","system_id":"levelo_inurba_marseille","lat":43.28077,"lon":5.39654,"is_reserved":false,"is_disabled":false,"rental_uris":{"android":"levelo://app?vid=6ee0c93d-a636-47a2-b306-796979825eb9","ios":"levelo://app?vid=6ee0c93d-a636-47a2-b306-796979825eb9"},"vehicle_type_id":"4","last_reported":1758452795,"current_range_meters":18000,"station_id":"ce4bho12rcd13ifvqh2g","pricing_plan_id":"cebpf4jnsgd1na2vs0mg"},{"bike_id":"b9e6e074-a56d-49da-9bdb-b2f9d067d50b","system_id":"levelo_inurba_marseille","lat":43.32283,"lon":5.38269,"is_reserved":false,"is_disabled":false,"rental_uris":{"android":"levelo://app?vid=b9e6e074-a56d-49da-9bdb-b2f9d067d50b","ios":"levelo://app?vid=b9e6e074-a56d-49da-9bdb-b2f9d067d50b"},"vehicle_type_id":"4","last_reported":1758452795,"current_range_meters":18000,"station_id":"ce4bhr12rcd13ifvqhqg","pricing_plan_id":"cebpf4jnsgd1na2vs0mg"},{"bike_id":"6b063940-c9c2-4ed4-8502-d9c86fb6d03c","system_id":"levelo_inurba_marseille","lat":43.21747,"lon":5.34604,"is_reserved":false,"is_disabled":false,"rental_uris":{"android":"levelo://app?vid=6b063940-c9c2-4ed4-8502-d9c86fb6d03c","ios":"levelo://app?vid=6b063940-c9c2-4ed4-8502-d9c86fb6d03c"},"vehicle_type_id":"4","last_reported":1758452795,"current_range_meters":18000,"station_id":"st_cvj6r9ubvosntc0bgbag","pricing_plan_id":"cebpf4jnsgd1na2vs0mg"},{"bike_id":"34f32fc0-aa07-4a77-a798-5dff527258f0","system_id":"levelo_inurba_marseille","lat":43.28677,"lon":5.38663,"is_reserved":false,"is_disabled":true,"rental_uris":{"android":"levelo://app?vid=34f32fc0-aa07-4a77-a798-5dff527258f0","ios":"levelo://app?vid=34f32fc0-aa07-4a77-a798-5dff527258f0"},"vehicle_type_id":"4","last_reported":1758452795,"current_range_meters":18000,"station_id":"ce4bh492rcd13ifvqdug","pricing_plan_id":"cebpf4jnsgd1na2vs0mg"},{"bike_id":"a453abe0-2b17-4514-9c0e-078c54a42135","system_id":"levelo_inurba_marseille","lat":43.28414,"lon":5.37513,"is_reserved":false,"is_disabled":false,"rental_uris":{"android":"levelo://app?vid=a453abe0-2b17-4514-9c0e-078c54a42135","ios":"levelo://app?vid=a453abe0-2b17-4514-9c0e-078c54a42135"},"vehicle_type_id":"4","last_reported":1758452795,"current_range_meters":18000,"station_id":"ce4bh412rcd13ifvqds0","pricing_plan_id":"cebpf4jnsgd1na2vs0mg"},{"bike_id":"426d7af5-32cc-42b9-a695-8d2a9f23608a","system_id":"levelo_inurba_marseille","lat":43.29929,"lon":5.36555,"is_reserved":false,"is_disabled":false,"rental_uris":{"android":"levelo://app?vid=426d7af5-32cc-42b9-a695-8d2a9f23608a","ios":"levelo://app?vid=426d7af5-32cc-42b9-a695-8d2a9f23608a"},"vehicle_type_id":"4","last_reported":1758452795,"current_range_meters":18000,"station_id":"ce4bgm92rcd13ifvqbr0","pricing_plan_id":"cebpf4jnsgd1na2vs0mg"},{"bike_id":"aa615de6-88cf-4553-9e37-2b398204d202","system_id":"levelo_inurba_marseille","lat":43.212052,"lon":5.35081,"is_reserved":false,"is_disabled":false,"rental_uris":{"android":"levelo://app?vid=aa615de6-88cf-4553-9e37-2b398204d202","ios":"levelo://app?vid=aa615de6-88cf-4553-9e37-2b398204d202"},"vehicle_type_id":"4","last_reported":1758452795,"current_range_meters":18800,"station_id":"st_cvj6sg6p6f1abm77japg","pricing_plan_id":"cebpf4jnsgd1na2vs0mg"},{"bike_id":"c4149e93-dd4e-43c8-ac8d-1278ecd5b4b3","system_id":"levelo_inurba_marseille","lat":43.24081,"lon":5.37753,"is_reserved":false,"is_disabled":false,"rental_uris":{"android":"levelo://app?vid=c4149e93-dd4e-43c8-ac8d-1278ecd5b4b3","ios":"levelo://app?vid=c4149e93-dd4e-43c8-ac8d-1278ecd5b4b3"},"vehicle_type_id":"4","last_reported":1758452795,"current_range_meters":18000,"station_id":"ce4bhnp2rcd13ifvqgvg","pricing_plan_id":"cebpf4jnsgd1na2vs0mg"},{"bike_id":"fdc779f7-1df1-49eb-947b-7e5f8d2e169b","system_id":"levelo_inurba_marseille","lat":43.27372,"lon":5.36257,"is_reserved":false,"is_disabled":false,"rental_uris":{"android":"levelo://app?vid=fdc779f7-1df1-49eb-947b-7e5f8d2e169b","ios":"levelo://app?vid=fdc779f7-1df1-49eb-947b-7e5f8d2e169b"},"vehicle_type_id":"4","last_reported":1758452795,"current_range_meters":18800,"station_id":"ce4bhbh2rcd13ifvqeo0","pricing_plan_id":"cebpf4jnsgd1na2vs0mg"},{"bike_id":"67a17388-21d3-4f12-996b-fe600f490ab5","system_id":"levelo_inurba_marseille","lat":43.295319,"lon":5.375022,"is_reserved":false,"is_disabled":false,"rental_uris":{"android":"levelo://app?vid=67a17388-21d3-4f12-996b-fe600f490ab5","ios":"levelo://app?vid=67a17388-21d3-4f12-996b-fe600f490ab5"},"vehicle_type_id":"4","last_reported":1758452795,"current_range_meters":18800,"station_id":"","pricing_plan_id":"cebpf4jnsgd1na2vs0mg"},{"bike_id":"d64a3c34-4f58-4a33-9858-96d7eeac0575","system_id":"levelo_inurba_marseille","lat":43.21749,"lon":5.34611,"is_reserved":false,"is_disabled":true,"rental_uris":{"android":"levelo://app?vid=d64a3c34-4f58-4a33-9858-96d7eeac0575","ios":"levelo://app?vid=d64a3c34-4f58-4a33-9858-96d7eeac0575"},"vehicle_type_id":"4","last_reported":1758452795,"current_range_meters":18800,"station_id":"st_cvj6r9ubvosntc0bgbag","pricing_plan_id":"cebpf4jnsgd1na2vs0mg"},{"bike_id":"94d430e6-52b3-4d21-80c9-c6dd4519a8fb","system_id":"levelo_inurba_marseille","lat":43.31785,"lon":5.38296,"is_reserved":false,"is_disabled":false,"rental_uris":{"android":"levelo://app?vid=94d430e6-52b3-4d21-80c9-c6dd4519a8fb","ios":"levelo://app?vid=94d430e6-52b3-4d21-80c9-c6dd4519a8fb"},"vehicle_type_id":"4","last_reported":1758452795,"current_range_meters":18800,"station_id":"","pricing_plan_id":"cebpf4jnsgd1na2vs0mg"},{"bike_id":"7cf301e6-5e6a-4d60-9268-4a78c3894fea","system_id":"levelo_inurba_marseille","lat":43.29628,"lon":5.40598,"is_reserved":false,"is_disabled":false,"rental_uris":{"android":"levelo://app?vid=7cf301e6-5e6a-4d60-9268-4a78c3894fea","ios":"levelo://app?vid=7cf301e6-5e6a-4d60-9268-4a78c3894fea"},"vehicle_type_id":"4","last_reported":1758452795,"current_range_meters":18800,"station_id":"ce4bh0h2rcd13ifvqd60","pricing_plan_id":"cebpf4jnsgd1na2vs0mg"},{"bike_id":"6ca5f62d-7b53-40b8-9b98-43d6565efff6","system_id":"levelo_inurba_marseille","lat":43.24167,"lon":5.36391,"is_reserved":false,"is_disabled":false,"rental_uris":{"android":"levelo://app?vid=6ca5f62d-7b53-40b8-9b98-43d6565efff6","ios":"levelo://app?vid=6ca5f62d-7b53-40b8-9b98-43d6565efff6"},"vehicle_type_id":"4","last_reported":1758452795,"current_range_meters":18800,"station_id":"cpo36qri1sfpv3e86is0","pricing_plan_id":"cebpf4jnsgd1na2vs0mg"},{"bike_id":"b8b086fa-144f-4e7c-a845-e879caf46260","system_id":"levelo_inurba_marseille","lat":43.28851,"lon":5.42538,"is_reserved":false,"is_disabled":false,"rental_uris":{"android":"levelo://app?vid=b8b086fa-144f-4e7c-a845-e879caf46260","ios":"levelo://app?vid=b8b086fa-144f-4e7c-a845-e879caf46260"},"vehicle_type_id":"4","last_reported":1758452795,"current_range_meters":18800,"station_id":"","pricing_plan_id":"cebpf4jnsgd1na2vs0mg"},{"bike_id":"2d714494-d466-4960-9baf-645ff351b960","system_id":"levelo_inurba_marseille","lat":43.27311,"lon":5.39079,"is_reserved":false,"is_disabled":false,"rental_uris":{"android":"levelo://app?vid=2d714494-d466-4960-9baf-645ff351b960","ios":"levelo://app?vid=2d714494-d466-4960-9baf-645ff351b960"},"vehicle_type_id":"4","last_reported":1758452795,"current_range_meters":18800,"station_id":"ce4bhgp2rcd13ifvqfe0","pricing_plan_id":"cebpf4jnsgd1na2vs0mg"},{"bike_id":"40af9c97-e433-4d5f-aa67-78d647ee5b4c","system_id":"levelo_inurba_marseille","lat":43.2748,"lon":5.42466,"is_reserved":false,"is_disabled":true,"rental_uris":{"android":"levelo://app?vid=40af9c97-e433-4d5f-aa67-78d647ee5b4c","ios":"levelo://app?vid=40af9c97-e433-4d5f-aa67-78d647ee5b4c"},"vehicle_type_id":"4","last_reported":1758452795,"current_range_meters":19200,"station_id":"ce4bhn92rcd13ifvqgrg","pricing_plan_id":"cebpf4jnsgd1na2vs0mg"},{"bike_id":"b339ab2c-7f4e-4f78-b77b-6800a39b2b65","system_id":"levelo_inurba_marseille","lat":43.29047,"lon":5.3755,"is_reserved":false,"is_disabled":true,"rental_uris":{"android":"levelo://app?vid=b339ab2c-7f4e-4f78-b77b-6800a39b2b65","ios":"levelo://app?vid=b339ab2c-7f4e-4f78-b77b-6800a39b2b65"},"vehicle_type_id":"4","last_reported":1758452795,"current_range_meters":19200,"station_id":"ce4bh692rcd13ifvqe90","pricing_plan_id":"cebpf4jnsgd1na2vs0mg"},