{"last_updated":1751631668,"ttl":60,"version":"2.2","data":{"bikes":[{"bike_id":"3da29fb8-fc97-44c6-b9ac-31dd456b2fd4","system_id":"levelo_inurba_marseille","lat":43.33771,"lon":5.37424,"is_reserved":false,"is_disabled":true,"rental_uris":{"android":"levelo://app?vid=3da29fb8-fc97-44c6-b9ac-31dd456b2fd4","ios":"levelo://app?vid=3da29fb8-fc97-44c6-b9ac-31dd456b2fd4"},"vehicle_type_id":"4","last_reported":1751631668,"current_range_meters":0,"station_id":"","pricing_plan_id":"cebpf4jnsgd1na2vs0mg"},{"bike_id":"01861ad8-a8d7-4be6-816e-651927c87584","system_id":"levelo_inurba_marseille","lat":43.33751,"lon":5.37456,"is_reserved":false,"is_disabled":true,"rental_uris":{"android":"levelo://app?vid=01861ad8-a8d7-4be6-816e-651927c87584","ios":"levelo://app?vid=01861ad8-a8d7-4be6-816e-651927c87584"},"vehicle_type_id":"4","last_reported":1751631668,"current_range_meters":0,"station_id":"","pricing_plan_id":"cebpf4jnsgd1na2vs0mg"},{"bike_id":"2700b069-ae8c-4c07-bfa4-414cf16e9691","system_id":"levelo_inurba_marseille","lat":43.285404,"lon":5.385198,"is_reserved":false,"is_disabled":true,"rental_uris":{"android":"levelo://app?vid=2700b069-ae8c-4c07-bfa4-414cf16e9691","ios":"levelo://app?vid=2700b069-ae8c-4c07-bfa4-414cf16e9691"},"vehicle_type_id":"4","last_reported":1751631668,"current_range_meters":0,"station_id":"","pricing_plan_id":"cebpf4jnsgd1na2vs0mg"},{"bike_id":"0e023f9d-cc39-4dcf-934f-ba4bbd3d4593","system_id":"levelo_inurba_marseille","lat":43.30429,"lon":5.38885,"is_reserved":false,"is_disabled":true,"rental_uris":{"android":"levelo://app?vid=0e023f9d-cc39-4dcf-934f-ba4bbd3d4593","ios":"levelo://app?vid=0e023f9d-cc39-4dcf-934f-ba4bbd3d4593"},"vehicle_type_id":"4","last_reported":1751631668,"current_range_meters":0,"station_id":"ce4bgk12rcd13ifvqbi0","pricing_plan_id":"cebpf4jnsgd1na2vs0mg"},{"bike_id":"27ec22bf-e5a4-450a-ade7-3754fce5babf","system_id":"levelo_inurba_marseille","lat":43.30326,"lon":5.40443,"is_reserved":false,"is_disabled":true,"rental_uris":{"android":"levelo://app?vid=27ec22bf-e5a4-450a-ade7-3754fce5babf","ios":"levelo://app?vid=27ec22bf-e5a4-450a-ade7-3754fce5babf"},"vehicle_type_id":"4","last_reported":1751631668,"current_range_meters":0,"station_id":"ce4bh012rcd13ifvqd10","pricing_plan_id":"cebpf4jnsgd1na2vs0mg"},{"bike_id":"9bdeb6b2-4cad-4535-abcb-f120a0b3fd28","system_id":"levelo_inurba_marseille","lat":43.28662,"lon":5.36342,"is_reserved":false,"is_disabled":true,"rental_uris":{"android":"levelo://app?vid=9bdeb6b2-4cad-4535-abcb-f120a0b3fd28","ios":"levelo://app?vid=9bdeb6b2-4cad-4535-abcb-f120a0b3fd28"},"vehicle_type_id":"4","last_reported":1751631668,"current_range_meters":0,"station_id":"ce4bhah2rcd13ifvqej0","pricing_plan_id":"cebpf4jnsgd1na2vs0mg"},{"bike_id":"57e1f7e0-b73a-4b75-b08d-9962d4aac6de","system_id":"levelo_inurba_marseille","lat":43.29006,"lon":5.35609,"is_reserved":false,"is_disabled":true,"rental_uris":{"android":"levelo://app?vid=57e1f7e0-b73a-4b75-b08d-9962d4aac6de","ios":"levelo://app?vid=57e1f7e0-b73a-4b75-b08d-9962d4aac6de"},"vehicle_type_id":"4","last_reported":1751631668,"current_range_meters":0,"station_id":"ce4bhb92rcd13ifvqen0","pricing_plan_id":"cebpf4jnsgd1na2vs0mg"},{"bike_id":"c13983b5-9150-4091-a6f9-d1788934375a","system_id":"levelo_inurba_marseille","lat":43.24391,"lon":5.37058,"is_reserved":false,"is_disabled":true,"rental_uris":{"android":"levelo://app?vid=c13983b5-9150-4091-a6f9-d1788934375a","ios":"levelo://app?vid=c13983b5-9150-4091-a6f9-d1788934375a"},"vehicle_type_id":"4","last_reported":1751631668,"current_range_meters":0,"station_id":"ce4bhhh2rcd13ifvqfk0","pricing_plan_id":"cebpf4jnsgd1na2vs0mg"},{"bike_id":"02ea2631-03af-473e-91c0-dd429f046dbc","system_id":"levelo_inurba_marseille","lat":43.24392,"lon":5.37062,"is_reserved":false,"is_disabled":true,"rental_uris":{"android":"levelo://app?vid=02ea2631-03af-473e-91c0-dd429f046dbc","ios":"levelo://app?vid=02ea2631-03af-473e-91c0-dd429f046dbc"},"vehicle_type_id":"4","last_reported":1751631668,"current_range_meters":0,"station_id":"ce4bhhh2rcd13ifvqfk0","pricing_plan_id":"cebpf4jnsgd1na2vs0mg"},{"bike_id":"7e261b74-31d0-49be-a132-5fbaea648991","system_id":"levelo_inurba_marseille","lat":43.27495,"lon":5.424488,"is_reserved":false,"is_disabled":true,"rental_uris":{"android":"levelo://app?vid=7e261b74-31d0-49be-a132-5fbaea648991","ios":"levelo://app?vid=7e261b74-31d0-49be-a132-5fbaea648991"},"vehicle_type_id":"4","last_reported":1751631668,"current_range_meters":0,"station_id":"ce4bhn92rcd13ifvqgrg","pricing_plan_id":"cebpf4jnsgd1na2vs0mg"},{"bike_id":"9673b877-4fa4-4161-b299-bd604c4ea593","system_id":"levelo_inurba_marseille","lat":43.28726,"lon":5.36097,"is_reserved":false,"is_disabled":true,"rental_uris":{"android":"levelo://app?vid=9673b877-4fa4-4161-b299-bd604c4ea593","ios":"levelo://app?vid=9673b877-4fa4-4161-b299-bd604c4ea593"},"vehicle_type_id":"4","last_reported":1751631668,"current_range_meters":0,"station_id":"cki0cbj6b192h4jlfktg","pricing_plan_id":"cebpf4jnsgd1na2vs0mg"},{"bike_id":"c000af40-3745-474c-a982-7afc8cf1a526","system_id":"levelo_inurba_marseille","lat":43.21751,"lon":5.34604,"is_reserved":false,"is_disabled":true,"rental_uris":{"android":"levelo://app?vid=c000af40-3745-474c-a982-7afc8cf1a526","ios":"levelo://app?vid=c000af40-3745-474c-a982-7afc8cf1a526"},"vehicle_type_id":"4","last_reported":1751631668,"current_range_meters":0,"station_id":"st_cvj6r9ubvosntc0bgbag","pricing_plan_id":"cebpf4jnsgd1na2vs0mg"},{"bike_id":"2db7de25-6c57-447b-bff5-ea01c3753780","system_id":"levelo_inurba_marseille","lat":43.21752,"lon":5.34604,"is_reserved":false,"is_disabled":true,"rental_uris":{"android":"levelo://app?vid=2db7de25-6c57-447b-bff5-ea01c3753780","ios":"levelo://app?vid=2db7de25-6c57-447b-bff5-ea01c3753780"},"vehicle_type_id":"4","last_reported":1751631668,"current_range_meters":0,"station_id":"st_cvj6r9ubvosntc0bgbag","pricing_plan_id":"cebpf4jnsgd1na2vs0mg"},{"bike_id":"5e8830ec-34e5-4f0f-b607-434b2954d153","system_id":"levelo_inurba_marseille","lat":43.21212,"lon":5.35095,"is_reserved":false,"is_disabled":true,"rental_uris":{"android":"levelo://app?vid=5e8830ec-34e5-4f0f-b607-434b2954d153","ios":"levelo://app?vid=5e8830ec-34e5-4f0f-b607-434b2954d153"},"vehicle_type_id":"4","last_reported":1751631668,"current_range_meters":0,"station_id":"st_cvj6sg6p6f1abm77japg","pricing_plan_id":"cebpf4jnsgd1na2vs0mg"},{"bike_id":"cd2a3af2-854b-4519-92e5-1eaf70ba8a37","system_id":"levelo_inurba_marseille","lat":43.21204,"lon":5.350816,"is_reserved":false,"is_disabled":true,"rental_uris":{"android":"levelo://app?vid=cd2a3af2-854b-4519-92e5-1eaf70ba8a37","ios":"levelo://app?vid=cd2a3af2-854b-4519-92e5-1eaf70ba8a37"},"vehicle_type_id":"4","last_reported":1751631668,"current_range_meters":0,"station_id":"st_cvj6sg6p6f1abm77japg","pricing_plan_id":"cebpf4jnsgd1na2vs0mg"},{"bike_id":"891065b2-d2c4-420b-94bb-e620b7de28d3","system_id":"levelo_inurba_marseille","lat":43.23188,"lon":5.35528,"is_reserved":false,"is_disabled":true,"rental_uris":{"android":"levelo://app?vid=891065b2-d2c4-420b-94bb-e620b7de28d3","ios":"levelo://app?vid=891065b2-d2c4-420b-94bb-e620b7de28d3"},"vehicle_type_id":"4","last_reported":1751631668,"current_range_meters":400,"station_id":"ce4bhu92rcd13ifvqi70","pricing_plan_id":"cebpf4jnsgd1na2vs0mg"},{"bike_id":"0ece5170-8402-4ba3-a03f-be2ef65fcaca","system_id":"levelo_inurba_marseille","lat":43.22907,"lon":5.35389,"is_reserved":false,"is_disabled":true,"rental_uris":{"android":"levelo://app?vid=0ece5170-8402-4ba3-a03f-be2ef65fcaca","ios":"levelo://app?vid=0ece5170-8402-4ba3-a03f-be2ef65fcaca"},"vehicle_type_id":"4","last_reported":1751631668,"current_range_meters":800,"station_id":"cpo3532slgdg3j2ikp40","pricing_plan_id":"cebpf4jnsgd1na2vs0mg"},{"bike_id":"d49715c1-6712-428a-88cb-512790c02012","system_id":"levelo_inurba_marseille","lat":43.29298,"lon":5.37453,"is_reserved":false,"is_disabled":true,"rental_uris":{"android":"levelo://app?vid=d49715c1-6712-428a-88cb-512790c02012","ios":"levelo://app?vid=d49715c1-6712-428a-88cb-512790c02012"},"vehicle_type_id":"4","last_reported":1751631668,"current_range_meters":1200,"station_id":"ce4bgi12rcd13ifvqb70","pricing_plan_id":"cebpf4jnsgd1na2vs0mg"},{"bike_id":"14136ae0-20f8-44a7-bdef-c89f6ec664e6","system_id":"levelo_inurba_marseille","lat":43.28431,"lon":5.34986,"is_reserved":false,"is_disabled":true,"rental_uris":{"android":"levelo://app?vid=14136ae0-20f8-44a7-bdef-c89f6ec664e6","ios":"levelo://app?vid=14136ae0-20f8-44a7-bdef-c89f6ec664e6"},"vehicle_type_id":"4","last_reported":1751631668,"current_range_meters":1200,"station_id":"ce4bhbh2rcd13ifvqepg","pricing_plan_id":"cebpf4jnsgd1na2vs0mg"},{"bike_id":"1cd6fe1c-2398-4ba7-93da-b735cb4aa152","system_id":"levelo_inurba_marseille","lat":43.24151,"lon":5.3972,"is_reserved":false,"is_disabled":true,"rental_uris":{"android":"levelo://app?vid=1cd6fe1c-2398-4ba7-93da-b735cb4aa152","ios":"levelo://app?vid=1cd6fe1c-2398-4ba7-93da-b735cb4aa152"},"vehicle_type_id":"4","last_reported":1751631668,"current_range_meters":1200,"station_id":"ce4bhn12rcd13ifvqgpg","pricing_plan_id":"cebpf4jnsgd1na2vs0mg"},{"bike_id":"a54b8cbb-970a-4c53-ba1d-49b8ab25a9a3","system_id":"levelo_inurba_marseille","lat":43.28269,"lon":5.35064,"is_reserved":false,"is_disabled":true,"rental_uris":{"android":"levelo://app?vid=a54b8cbb-970a-4c53-ba1d-49b8ab25a9a3","ios":"levelo://app?vid=a54b8cbb-970a-4c53-ba1d-49b8ab25a9a3"},"vehicle_type_id":"4","last_reported":1751631668,"current_range_meters":1600,"station_id":"ce4bhbp2rcd13ifvqerg","pricing_plan_id":"cebpf4jnsgd1na2vs0mg"},{"bike_id":"24d98ee0-40df-4f4b-8914-8283c1192525","system_id":"levelo_inurba_marseille","lat":43.24076,"lon":5.37754,"is_reserved":false,"is_disabled":true,"rental_uris":{"android":"levelo://app?vid=24d98ee0-40df-4f4b-8914-8283c1192525","ios":"levelo://app?vid=24d98ee0-40df-4f4b-8914-8283c1192525"},"vehicle_type_id":"4","last_reported":1751631668,"current_range_meters":1600,"station_id":"ce4bhnp2rcd13ifvqgvg","pricing_plan_id":"cebpf4jnsgd1na2vs0mg"},{"bike_id":"65cf3023-4109-450c-8252-5d5db1cf83b4","system_id":"levelo_inurba_marseille","lat":43.25097,"lon":5.39521,"is_reserved":false,"is_disabled":true,"rental_uris":{"android":"levelo://app?vid=65cf3023-4109-450c-8252-5d5db1cf83b4","ios":"levelo://app?vid=65cf3023-4109-450c-8252-5d5db1cf83b4"},"vehicle_type_id":"4","last_reported":1751631668,"current_range_meters":2000,"station_id":"ce4bhm12rcd13ifvqgkg","pricing_plan_id":"cebpf4jnsgd1na2vs0mg"},{"bike_id":"fb284be8-4f21-4fd4-bbc6-5b31249ebbdd","system_id":"levelo_inurba_marseille","lat":43.24168,"lon":5.36399,"is_reserved":false,"is_disabled":true,"rental_uris":{"android":"levelo://app?vid=fb284be8-4f21-4fd4-bbc6-5b31249ebbdd","ios":"levelo://app?vid=fb284be8-4f21-4fd4-bbc6-5b31249ebbdd"},"vehicle_type_id":"4","last_reported":1751631668,"current_range_meters":2000,"station_id":"cpo36qri1sfpv3e86is0","pricing_plan_id":"cebpf4jnsgd1na2vs0mg"},{"bike_id":"34c6e3d0-b005-424f-a0a7-52f9f8bd654f","system_id":"levelo_inurba_marseille","lat":43.23622,"lon":5.36207,"is_reserved":false,"is_disabled":false,"rental_uris":{"android":"levelo://app?vid=34c6e3d0-b005-424f-a0a7-52f9f8bd654f","ios":"levelo://app?vid=34c6e3d0-b005-424f-a0a7-52f9f8bd654f"},"vehicle_type_id":"4","last_reported":1751631668,"current_range_meters":2800,"station_id":"","pricing_plan_id":"cebpf4jnsgd1na2vs0mg"},{"bike_id":"cee0b5b6-9b90-457a-85f4-540287a23b84","system_id":"levelo_inurba_marseille","lat":43.21185,"lon":5.35064,"is_reserved":false,"is_disabled":false,"rental_uris":{"android":"levelo://app?vid=cee0b5b6-9b90-457a-85f4-540287a23b84","ios":"levelo://app?vid=cee0b5b6-9b90-457a-85f4-540287a23b84"},"vehicle_type_id":"4","last_reported":1751631668,"current_range_meters":2800,"station_id":"st_cvj6sg6p6f1abm77japg","pricing_plan_id":"cebpf4jnsgd1na2vs0mg"},{"bike_id":"cb190e7f-329c-41f7-a49c-b7925ea6a522","system_id":"levelo_inurba_marseille","lat":43.2722,"lon":5.39217,"is_reserved":false,"is_disabled":false,"rental_uris":{"android":"levelo://app?vid=cb190e7f-329c-41f7-a49c-b7925ea6a522","ios":"levelo://app?vid=cb190e7f-329c-41f7-a49c-b7925ea6a522"},"vehicle_type_id":"4","last_reported":1751631668,"current_range_meters":3200,"station_id":"ce4bhhp2rcd13ifvqfm0","pricing_plan_id":"cebpf4jnsgd1na2vs0mg"},{"bike_id":"0c304774-bbe1-4da4-b282-8c8ceb3975b0","system_id":"levelo_inurba_marseille","lat":43.27374,"lon":5.36259,"is_reserved":false,"is_disabled":false,"rental_uris":{"android":"levelo://app?vid=0c304774-bbe1-4da4-b282-8c8ceb3975b0","ios":"levelo://app?vid=0c304774-bbe1-4da4-b282-8c8ceb3975b0"},"vehicle_type_id":"4","last_reported":1751631668,"current_range_meters":3600,"station_id":"ce4bhbh2rcd13ifvqeo0","pricing_plan_id":"cebpf4jnsgd1na2vs0mg"},{"bike_id":"7b05237f-17f7-4d60-ac5a-0a2e5402911e","system_id":"levelo_inurba_marseille","lat":43.22931,"lon":5.35383,"is_reserved":false,"is_disabled":false,"rental_uris":{"android":"levelo://app?vid=7b05237f-17f7-4d60-ac5a-0a2e5402911e","ios":"levelo://app?vid=7b05237f-17f7-4d60-ac5a-0a2e5402911e"},"vehicle_type_id":"4","last_reported":1751631668,"current_range_meters":3600,"station_id":"cpo3532slgdg3j2ikp40","pricing_plan_id":"cebpf4jnsgd1na2vs0mg"},{"bike_id":"e5223c5d-931e-4548-afbf-489aac908eee","system_id":"levelo_inurba_marseille","lat":43.31175,"lon":5.38715,"is_reserved":false,"is_disabled":false,"rental_uris":{"android":"levelo://app?vid=e5223c5d-931e-4548-afbf-489aac908eee","ios":"levelo://app?vid=e5223c5d-931e-4548-afbf-489aac908eee"},"vehicle_type_id":"4","last_reported":1751631668,"current_range_meters":4000,"station_id":"ce4bgv12rcd13ifvqcp0","pricing_plan_id":"cebpf4jnsgd1na2vs0mg"},{"bike_id":"b0d8c39f-a938-4ddc-861c-d6420c6e992f","system_id":"levelo_inurba_marseille","lat":43.24656,"lon":5.38162,"is_reserved":false,"is_disabled":false,"rental_uris":{"android":"levelo://app?vid=b0d8c39f-a938-4ddc-861c-d6420c6e992f","ios":"levelo://app?vid=b0d8c39f-a938-4ddc-861c-d6420c6e992f"},"vehicle_type_id":"4","last_reported":1751631668,"current_range_meters":4000,"station_id":"ce4bhih2rcd13ifvqfr0","pricing_plan_id":"cebpf4jnsgd1na2vs0mg"},{"bike_id":"dcf2549f-f8c2-4614-a3be-102b345ddd11","system_id":"levelo_inurba_marseille","lat":43.28468,"lon":5.38415,"is_reserved":false,"is_disabled":false,"rental_uris":{"android":"levelo://app?vid=dcf2549f-f8c2-4614-a3be-102b345ddd11","ios":"levelo://app?vid=dcf2549f-f8c2-4614-a3be-102b345ddd11"},"vehicle_type_id":"4","last_reported":1751631668,"current_range_meters":4400,"station_id":"ce4bh512rcd13ifvqe3g","pricing_plan_id":"cebpf4jnsgd1na2vs0mg"},{"bike_id":"59afa75b-2960-4638-bc85-e43af1b47ba3","system_id":"levelo_inurba_marseille","lat":43.27899,"lon":5.38017,"is_reserved":false,"is_disabled":false,"rental_uris":{"android":"levelo://app?vid=59afa75b-2960-4638-bc85-e43af1b47ba3","ios":"levelo://app?vid=59afa75b-2960-4638-bc85-e43af1b47ba3"},"vehicle_type_id":"4","last_reported":1751631668,"current_range_meters":4400,"station_id":"ce4bhf92rcd13ifvqf50","pricing_plan_id":"cebpf4jnsgd1na2vs0mg"},{"bike_id":"bf9b744e-6aff-47b3-937a-9ca52650714b","system_id":"levelo_inurba_marseille","lat":43.3031,"lon":5.36899,"is_reserved":false,"is_disabled":false,"rental_uris":{"android":"levelo://app?vid=bf9b744e-6aff-47b3-937a-9ca52650714b","ios":"levelo://app?vid=bf9b744e-6aff-47b3-937a-9ca52650714b"},"vehicle_type_id":"4","last_reported":1751631668,"current_range_meters":4800,"station_id":"ce4bgqh2rcd13ifvqc5g","pricing_plan_id":"cebpf4jnsgd1na2vs0mg"},{"bike_id":"5e4351e8-8c95-412b-b34f-b404361ac703","system_id":"levelo_inurba_marseille","lat":43.2842,"lon":5.34994,"is_reserved":false,"is_disabled":false,"rental_uris":{"android":"levelo://app?vid=5e4351e8-8c95-412b-b34f-b404361ac703","ios":"levelo://app?vid=5e4351e8-8c95-412b-b34f-b404361ac703"},"vehicle_type_id":"4","last_reported":1751631668,"current_range_meters":4800,"station_id":"ce4bhbh2rcd13ifvqepg","pricing_plan_id":"cebpf4jnsgd1na2vs0mg"},{"bike_id":"9a7d342a-ff8e-46c4-af1e-6e0519bd67dc","system_id":"levelo_inurba_marseille","lat":43.291433,"lon":5.355899,"is_reserved":false,"is_disabled":false,"rental_uris":{"android":"levelo://app?vid=9a7d342a-ff8e-46c4-af1e-6e0519bd67dc","ios":"levelo://app?vid=9a7d342a-ff8e-46c4-af1e-6e0519bd67dc"},"vehicle_type_id":"4","last_reported":1751631668,"current_range_meters":5600,"station_id":"","pricing_plan_id":"cebpf4jnsgd1na2vs0mg"},{"bike_id":"191d2dde-653a-48be-ba53-73ef2e9fa186","system_id":"levelo_inurba_marseille","lat":43.2862,"lon":5.35105,"is_reserved":false,"is_disabled":false,"rental_uris":{"android":"levelo://app?vid=191d2dde-653a-48be-ba53-73ef2e9fa186","ios":"levelo://app?vid=191d2dde-653a-48be-ba53-73ef2e9fa186"},"vehicle_type_id":"4","last_reported":1751631668,"current_range_meters":6000,"station_id":"ce4bhch2rcd13ifvqeug","pricing_plan_id":"cebpf4jnsgd1na2vs0mg"},{"bike_id":"e26ba497-efc7-4420-b8c5-9fa5e27f2ce4","system_id":"levelo_inurba_marseille","lat":43.313609,"lon":5.370774,"is_reserved":false,"is_disabled":false,"rental_uris":{"android":"levelo://app?vid=e26ba497-efc7-4420-b8c5-9fa5e27f2ce4","ios":"levelo://app?vid=e26ba497-efc7-4420-b8c5-9fa5e27f2ce4"},"vehicle_type_id":"4","last_reported":1751631668,"current_range_meters":6400,"station_id":"","pricing_plan_id":"cebpf4jnsgd1na2vs0mg"},{"bike_id":"3a4cf5c0-a4b7-44c3-8a88-bf0a85727a5a","system_id":"levelo_inurba_marseille","lat":43.22931,"lon":5.35376,"is_reserved":false,"is_disabled":false,"rental_uris":{"android":"levelo://app?vid=3a4cf5c0-a4b7-44c3-8a88-bf0a85727a5a","ios":"levelo://app?vid=3a4cf5c0-a4b7-44c3-8a88-bf0a85727a5a"},"vehicle_type_id":"4","last_reported":1751631668,"current_range_meters":6400,"station_id":"cpo3532slgdg3j2ikp40","pricing_plan_id":"cebpf4jnsgd1na2vs0mg"},{"bike_id":"8afa7640-ebe8-4025-983a-c83f3912a2dd","system_id":"levelo_inurba_marseille","lat":43.21189,"lon":5.35071,"is_reserved":false,"is_disabled":false,"rental_uris":{"android":"levelo://app?vid=8afa7640-ebe8-4025-983a-c83f3912a2dd","ios":"levelo://app?vid=8afa7640-ebe8-4025-983a-c83f3912a2dd"},"vehicle_type_id":"4","last_reported":1751631668,"current_range_meters":6400,"station_id":"st_cvj6sg6p6f1abm77japg","pricing_plan_id":"cebpf4jnsgd1na2vs0mg"},{"bike_id":"2886290b-b227-42bb-8c50-884c7c7e04f0","system_id":"levelo_inurba_marseille","lat":43.30203,"lon":5.3946,"is_reserved":false,"is_disabled":false,"rental_uris":{"android":"levelo://app?vid=2886290b-b227-42bb-8c50-884c7c7e04f0","ios":"levelo://app?vid=2886290b-b227-42bb-8c50-884c7c7e04f0"},"vehicle_type_id":"4","last_reported":1751631668,"current_range_meters":6800,"station_id":"ce4bh0p2rcd13ifvqd70","pricing_plan_id":"cebpf4jnsgd1na2vs0mg"},{"bike_id":"aad2184a-bfc0-43f6-9887-b4d62815b208","system_id":"levelo_inurba_marseille","lat":43.229313,"lon":5.353814,"is_reserved":false,"is_disabled":false,"rental_uris":{"android":"levelo://app?vid=aad2184a-bfc0-43f6-9887-b4d62815b208","ios":"levelo://app?vid=aad2184a-bfc0-43f6-9887-b4d62815b208"},"vehicle_type_id":"4","last_reported":1751631668,"current_range_meters":6800,"station_id":"cpo3532slgdg3j2ikp40","pricing_plan_id":"cebpf4jnsgd1na2vs0mg"},{"bike_id":"5f4ecd93-00ec-41b0-8950-b02cb0e7275c","system_id":"levelo_inurba_marseille","lat":43.28445,"lon":5.3921,"is_reserved":false,"is_disabled":false,"rental_uris":{"android":"levelo://app?vid=5f4ecd93-00ec-41b0-8950-b02cb0e7275c","ios":"levelo://app?vid=5f4ecd93-00ec-41b0-8950-b02cb0e7275c"},"vehicle_type_id":"4","last_reported":1751631668,"current_range_meters":7200,"station_id":"ce4bhoh2rcd13ifvqh5g","pricing_plan_id":"cebpf4jnsgd1na2vs0mg"},{"bike_id":"e9f93152-c103-42e7-8290-70a0dd64d0c1","system_id":"levelo_inurba_marseille","lat":43.24811,"lon":5.37457,"is_reserved":false,"is_disabled":false,"rental_uris":{"android":"levelo://app?vid=e9f93152-c103-42e7-8290-70a0dd64d0c1","ios":"levelo://app?vid=e9f93152-c103-42e7-8290-70a0dd64d0c1"},"vehicle_type_id":"4","last_reported":1751631668,"current_range_meters":8000,"station_id":"","pricing_plan_id":"cebpf4jnsgd1na2vs0mg"},{"bike_id":"e2d50105-785e-4591-b680-80f8de4581c3","system_id":"levelo_inurba_marseille","lat":43.28419,"lon":5.34985,"is_reserved":false,"is_disabled":false,"rental_uris":{"android":"levelo://app?vid=e2d50105-785e-4591-b680-80f8de4581c3","ios":"levelo://app?vid=e2d50105-785e-4591-b680-80f8de4581c3"},"vehicle_type_id":"4","last_reported":1751631668,"current_range_meters":8000,"station_id":"ce4bhbh2rcd13ifvqepg","pricing_plan_id":"cebpf4jnsgd1na2vs0mg"},{"bike_id":"01d8ca45-7200-4f3d-8be8-d58f7bc008cb","system_id":"levelo_inurba_marseille","lat":43.29271,"lon":5.36837,"is_reserved":false,"is_disabled":false,"rental_uris":{"android":"levelo://app?vid=01d8ca45-7200-4f3d-8be8-d58f7bc008cb","ios":"levelo://app?vid=01d8ca45-7200-4f3d-8be8-d58f7bc008cb"},"vehicle_type_id":"4","last_reported":1751631668,"current_range_meters":8000,"station_id":"ce4bhbp2rcd13ifvqesg","pricing_plan_id":"cebpf4jnsgd1na2vs0mg"},{"bike_id":"d567a98a-7952-4227-875f-9176613e0a81","system_id":"levelo_inurba_marseille","lat":43.30346,"lon":5.42482,"is_reserved":false,"is_disabled":false,"rental_uris":{"android":"levelo://app?vid=d567a98a-7952-4227-875f-9176613e0a81","ios":"levelo://app?vid=d567a98a-7952-4227-875f-9176613e0a81"},"vehicle_type_id":"4","last_reported":1751631668,"current_range_meters":8000,"station_id":"ce4bhoh2rcd13ifvqh6g","pricing_plan_id":"cebpf4jnsgd1na2vs0mg"},{"bike_id":"09454f46-e55e-4559-820c-cbc05b531847","system_id":"levelo_inurba_marseille","lat":43.32293,"lon":5.38986,"is_reserved":false,"is_disabled":false,"rental_uris":{"android":"levelo://app?vid=09454f46-e55e-4559-820c-cbc05b531847","ios":"levelo://app?vid=09454f46-e55e-4559-820c-cbc05b531847"},"vehicle_type_id":"4","last_reported":1751631668,"current_range_meters":8400,"station_id":"","pricing_plan_id":"cebpf4jnsgd1na2vs0mg"},{"bike_id":"36e45411-1f2e-49bd-8c2e-1c1c1f7c041f","system_id":"levelo_inurba_marseille","lat":43.30553,"lon":5.3675,"is_reserved":false,"is_disabled":false,"rental_uris":{"android":"levelo://app?vid=36e45411-1f2e-49bd-8c2e-1c1c1f7c041f","ios":"levelo://app?vid=36e45411-1f2e-49bd-8c2e-1c1c1f7c041f"},"vehicle_type_id":"4","last_reported":1751631668,"current_range_meters":8400,"station_id":"ce4bgrp2rcd13ifvqc9g","pricing_plan_id":"cebpf4jnsgd1na2vs0mg"},{"bike_id":"e63211eb-62cf-41bd-8514-9dbc90f79009","system_id":"levelo_inurba_marseille","lat":43.26212,"lon":5.37443,"is_reserved":false,"is_disabled":false,"rental_uris":{"android":"levelo://app?vid=e63211eb-62cf-41bd-8514-9dbc90f79009","ios":"levelo://app?vid=e63211eb-62cf-41bd-8514-9dbc90f79009"},"vehicle_type_id":"4","last_reported":1751631668,"current_range_meters":8400,"station_id":"ce4bhgp2rcd13ifvqfc0","pricing_plan_id":"cebpf4jnsgd1na2vs0mg"},{"bike_id":"ed804172-abdb-45a5-a473-efa0f72f245a","system_id":"levelo_inurba_marseille","lat":43.24388,"lon":5.37057,"is_reserved":false,"is_disabled":false,"rental_uris":{"android":"levelo://app?vid=ed804172-abdb-45a5-a473-efa0f72f245a","ios":"levelo://app?vid=ed804172-abdb-45a5-a473-efa0f72f245a"},"vehicle_type_id":"4","last_reported":1751631668,"current_range_meters":8400,"station_id":"ce4bhhh2rcd13ifvqfk0","pricing_plan_id":"cebpf4jnsgd1na2vs0mg"},{"bike_id":"58cf06f3-03c9-4bb8-81ae-62e18bd2e62d","system_id":"levelo_inurba_marseille","lat":43.24074,"lon":5.3776,"is_reserved":false,"is_disabled":false,"rental_uris":{"android":"levelo://app?vid=58cf06f3-03c9-4bb8-81ae-62e18bd2e62d","ios":"levelo://app?vid=58cf06f3-03c9-4bb8-81ae-62e18bd2e62d"},"vehicle_type_id":"4","last_reported":1751631668,"current_range_meters":8800,"station_id":"ce4bhnp2rcd13ifvqgvg","pricing_plan_id":"cebpf4jnsgd1na2vs0mg"},{"bike_id":"9bfc7d3d-4e60-4f8a-9c32-ef3d0e77ec5b","system_id":"levelo_inurba_marseille","lat":43.21188,"lon":5.35076,"is_reserved":false,"is_disabled":false,"rental_uris":{"android":"levelo://app?vid=9bfc7d3d-4e60-4f8a-9c32-ef3d0e77ec5b","ios":"levelo://app?vid=9bfc7d3d-4e60-4f8a-9c32-ef3d0e77ec5b"},"vehicle_type_id":"4","last_reported":1751631668,"current_range_meters":8800,"station_id":"st_cvj6sg6p6f1abm77japg","pricing_plan_id":"cebpf4jnsgd1na2vs0mg"},{"bike_id":"be4e2ba2-f83c-4be6-923a-932d435bb5ce","system_id":"levelo_inurba_marseille","lat":43.28205,"lon":5.40492,"is_reserved":false,"is_disabled":false,"rental_uris":{"android":"levelo://app?vid=be4e2ba2-f83c-4be6-923a-932d435bb5ce","ios":"levelo://app?vid=be4e2ba2-f83c-4be6-923a-932d435bb5ce"},"vehicle_type_id":"4","last_reported":1751631668,"current_range_meters":9200,"station_id":"","pricing_plan_id":"cebpf4jnsgd1na2vs0mg"},{"bike_id":"2a71c4a2-45a1-4d1e-a8d6-23107ca576dd","system_id":"levelo_inurba_marseille","lat":43.29366,"lon":5.37826,"is_reserved":false,"is_disabled":false,"rental_uris":{"android":"levelo://app?vid=2a71c4a2-45a1-4d1e-a8d6-23107ca576dd","ios":"levelo://app?vid=2a71c4a2-45a1-4d1e-a8d6-23107ca576dd"},"vehicle_type_id":"4","last_reported":1751631668,"current_range_meters":9200,"station_id":"ce4bgjh2rcd13ifvqbf0","pricing_plan_id":"cebpf4jnsgd1na2vs0mg"},{"bike_id":"ad244332-c65d-40f1-8be9-0569278bf9dc","system_id":"levelo_inurba_marseille","lat":43.2994,"lon":5.37488,"is_reserved":false,"is_disabled":false,"rental_uris":{"android":"levelo://app?vid=ad244332-c65d-40f1-8be9-0569278bf9dc","ios":"levelo://app?vid=ad244332-c65d-40f1-8be9-0569278bf9dc"},"vehicle_type_id":"4","last_reported":1751631668,"current_range_meters":9200,"station_id":"ce4bgjh2rcd13ifvqbg0","pricing_plan_id":"cebpf4jnsgd1na2vs0mg"},{"bike_id":"4e1f97af-9cea-4514-8144-bad61ee974ff","system_id":"levelo_inurba_marseille","lat":43.30911,"lon":5.36849,"is_reserved":false,"is_disabled":false,"rental_uris":{"android":"levelo://app?vid=4e1f97af-9cea-4514-8144-bad61ee974ff","ios":"levelo://app?vid=4e1f97af-9cea-4514-8144-bad61ee974ff"},"vehicle_type_id":"4","last_reported":1751631668,"current_range_meters":9200,"station_id":"ce4bgn92rcd13ifvqbvg","pricing_plan_id":"cebpf4jnsgd1na2vs0mg"},{"bike_id":"f92110df-a3f6-4ae7-b0a1-57e633db4d3d","system_id":"levelo_inurba_marseille","lat":43.30933,"lon":5.40144,"is_reserved":false,"is_disabled":false,"rental_uris":{"android":"levelo://app?vid=f92110df-a3f6-4ae7-b0a1-57e633db4d3d","ios":"levelo://app?vid=f92110df-a3f6-4ae7-b0a1-57e633db4d3d"},"vehicle_type_id":"4","last_reported":1751631668,"current_range_meters":9200,"station_id":"ce4bgvp2rcd13ifvqct0","pricing_plan_id":"cebpf4jnsgd1na2vs0mg"},{"bike_id":"33b47ece-d9c1-4e18-88c2-4250af098457","system_id":"levelo_inurba_marseille","lat":43.26787,"lon":5.39415,"is_reserved":false,"is_disabled":false,"rental_uris":{"android":"levelo://app?vid=33b47ece-d9c1-4e18-88c2-4250af098457","ios":"levelo://app?vid=33b47ece-d9c1-4e18-88c2-4250af098457"},"vehicle_type_id":"4","last_reported":1751631668,"current_range_meters":9200,"station_id":"ce4bhh12rcd13ifvqfg0","pricing_plan_id":"cebpf4jnsgd1na2vs0mg"},{"bike_id":"bcfd0eda-b9ab-4bec-9ca3-3f2b86617415","system_id":"levelo_inurba_marseille","lat":43.21183,"lon":5.35094,"is_reserved":false,"is_disabled":false,"rental_uris":{"android":"levelo://app?vid=bcfd0eda-b9ab-4bec-9ca3-3f2b86617415","ios":"levelo://app?vid=bcfd0eda-b9ab-4bec-9ca3-3f2b86617415"},"vehicle_type_id":"4","last_reported":1751631668,"current_range_meters":9200,"station_id":"st_cvj6sg6p6f1abm77japg","pricing_plan_id":"cebpf4jnsgd1na2vs0mg"},{"bike_id":"d799b321-3a7d-4201-b46e-ffe2ad124f19","system_id":"levelo_inurba_marseille","lat":43.32912,"lon":5.38393,"is_reserved":false,"is_disabled":false,"rental_uris":{"android":"levelo://app?vid=d799b321-3a7d-4201-b46e-ffe2ad124f19","ios":"levelo://app?vid=d799b321-3a7d-4201-b46e-ffe2ad124f19"},"vehicle_type_id":"4","last_reported":1751631668,"current_range_meters":9600,"station_id":"","pricing_plan_id":"cebpf4jnsgd1na2vs0mg"},{"bike_id":"eafe47ea-49b0-40b8-ac39-e120107dc911","system_id":"levelo_inurba_marseille","lat":43.28666,"lon":5.38669,"is_reserved":false,"is_disabled":false,"rental_uris":{"android":"levelo://app?vid=eafe47ea-49b0-40b8-ac39-e120107dc911","ios":"levelo://app?vid=eafe47ea-49b0-40b8-ac39-e120107dc911"},"vehicle_type_id":"4","last_reported":1751631668,"current_range_meters":9600,"station_id":"ce4bh492rcd13ifvqdug","pricing_plan_id":"cebpf4jnsgd1na2vs0mg"},{"bike_id":"aaa40a2f-5137-4631-ac61-aba8086bdeb7","system_id":"levelo_inurba_marseille","lat":43.26511,"lon":5.37424,"is_reserved":false,"is_disabled":false,"rental_uris":{"android":"levelo://app?vid=aaa40a2f-5137-4631-ac61-aba8086bdeb7","ios":"levelo://app?vid=aaa40a2f-5137-4631-ac61-aba8086bdeb7"},"vehicle_type_id":"4","last_reported":1751631668,"current_range_meters":9600,"station_id":"ce4bhg12rcd13ifvqf70","pricing_plan_id":"cebpf4jnsgd1na2vs0mg"},{"bike_id":"76cf2511-f4b7-4ac2-8990-73d983be0539","system_id":"levelo_inurba_marseille","lat":43.217491,"lon":5.346023,"is_reserved":false,"is_disabled":false,"rental_uris":{"android":"levelo://app?vid=76cf2511-f4b7-4ac2-8990-73d983be0539","ios":"levelo://app?vid=76cf2511-f4b7-4ac2-8990-73d983be0539"},"vehicle_type_id":"4","last_reported":1751631668,"current_range_meters":9600,"station_id":"st_cvj6r9ubvosntc0bgbag","pricing_plan_id":"cebpf4jnsgd1na2vs0mg"},{"bike_id":"5c054a6f-9960-486a-8fc6-44b7b1bd7b07","system_id":"levelo_inurba_marseille","lat":43.2894,"lon":5.36639,"is_reserved":false,"is_disabled":false,"rental_uris":{"android":"levelo://app?vid=5c054a6f-9960-486a-8fc6-44b7b1bd7b07","ios":"levelo://app?vid=5c054a6f-9960-486a-8fc6-44b7b1bd7b07"},"vehicle_type_id":"4","last_reported":1751631668,"current_range_meters":10000,"station_id":"ce4bhap2rcd13ifvqek0","pricing_plan_id":"cebpf4jnsgd1na2vs0mg"},{"bike_id":"b13871bf-a346-4334-9b13-792fd7dcbc4c","system_id":"levelo_inurba_marseille","lat":43.2467,"lon":5.38157,"is_reserved":false,"is_disabled":false,"rental_uris":{"android":"levelo://app?vid=b13871bf-a346-4334-9b13-792fd7dcbc4c","ios":"levelo://app?vid=b13871bf-a346-4334-9b13-792fd7dcbc4c"},"vehicle_type_id":"4","last_reported":1751631668,"current_range_meters":10000,"station_id":"ce4bhih2rcd13ifvqfr0","pricing_plan_id":"cebpf4jnsgd1na2vs0mg"},{"bike_id":"70305805-463c-4edb-b8c5-698ea7618651","system_id":"levelo_inurba_marseille","lat":43.28153,"lon":5.42639,"is_reserved":false,"is_disabled":false,"rental_uris":{"android":"levelo://app?vid=70305805-463c-4edb-b8c5-698ea7618651","ios":"levelo://app?vid=70305805-463c-4edb-b8c5-698ea7618651"},"vehicle_type_id":"4","last_reported":1751631668,"current_range_meters":10000,"station_id":"ce4bhnh2rcd13ifvqgug","pricing_plan_id":"cebpf4jnsgd1na2vs0mg"},{"bike_id":"2346f85f-9246-45b8-beb6-066a494293f3","system_id":"levelo_inurba_marseille","lat":43.321387,"lon":5.367858,"is_reserved":false,"is_disabled":false,"rental_uris":{"android":"levelo://app?vid=2346f85f-9246-45b8-beb6-066a494293f3","ios":"levelo://app?vid=2346f85f-9246-45b8-beb6-066a494293f3"},"vehicle_type_id":"4","last_reported":1751631668,"current_range_meters":10000,"station_id":"ce4bhrh2rcd13ifvqhug","pricing_plan_id":"cebpf4jnsgd1na2vs0mg"},{"bike_id":"c13b67a8-16db-4942-9c73-ca5dfdbf22ab","system_id":"levelo_inurba_marseille","lat":43.24168,"lon":5.36391,"is_reserved":false,"is_disabled":false,"rental_uris":{"android":"levelo://app?vid=c13b67a8-16db-4942-9c73-ca5dfdbf22ab","ios":"levelo://app?vid=c13b67a8-16db-4942-9c73-ca5dfdbf22ab"},"vehicle_type_id":"4","last_reported":1751631668,"current_range_meters":10000,"station_id":"cpo36qri1sfpv3e86is0","pricing_plan_id":"cebpf4jnsgd1na2vs0mg"},{"bike_id":"c76381fd-b6b9-4d02-a8a4-fd4e6891e706","system_id":"levelo_inurba_marseille","lat":43.30208,"lon":5.39031,"is_reserved":false,"is_disabled":false,"rental_uris":{"android":"levelo://app?vid=c76381fd-b6b9-4d02-a8a4-fd4e6891e706","ios":"levelo://app?vid=c76381fd-b6b9-4d02-a8a4-fd4e6891e706"},"vehicle_type_id":"4","last_reported":1751631668,"current_range_meters":10800,"station_id":"","pricing_plan_id":"cebpf4jnsgd1na2vs0mg"},{"bike_id":"ba154a12-11bd-42a5-958a-5992f5d043d1","system_id":"levelo_inurba_marseille","lat":43.30502,"lon":5.3706,"is_reserved":false,"is_disabled":false,"rental_uris":{"android":"levelo://app?vid=ba154a12-11bd-42a5-958a-5992f5d043d1","ios":"levelo://app?vid=ba154a12-11bd-42a5-958a-5992f5d043d1"},"vehicle_type_id":"4","last_reported":1751631668,"current_range_meters":10800,"station_id":"","pricing_plan_id":"cebpf4jnsgd1na2vs0mg"},{"bike_id":"16aa0d4b-e974-4616-8ad3-8a64e2cbdbf5","system_id":"levelo_inurba_marseille","lat":43.29797,"lon":5.38098,"is_reserved":false,"is_disabled":false,"rental_uris":{"android":"levelo://app?vid=16aa0d4b-e974-4616-8ad3-8a64e2cbdbf5","ios":"levelo://app?vid=16aa0d4b-e974-4616-8ad3-8a64e2cbdbf5"},"vehicle_type_id":"4","last_reported":1751631668,"current_range_meters":10800,"station_id":"ce4bgip2rcd13ifvqbb0","pricing_plan_id":"cebpf4jnsgd1na2vs0mg"},{"bike_id":"3b2e1de2-e08a-4478-85a0-653e89c941c9","system_id":"levelo_inurba_marseille","lat":43.31381,"lon":5.39726,"is_reserved":false,"is_disabled":false,"rental_uris":{"android":"levelo://app?vid=3b2e1de2-e08a-4478-85a0-653e89c941c9","ios":"levelo://app?vid=3b2e1de2-e08a-4478-85a0-653e89c941c9"},"vehicle_type_id":"4","last_reported":1751631668,"current_range_meters":10800,"station_id":"ce4bgvp2rcd13ifvqcu0","pricing_plan_id":"cebpf4jnsgd1na2vs0mg"},{"bike_id":"4d0f2f54-7eb7-4474-9797-89fea99f83a4","system_id":"levelo_inurba_marseille","lat":43.231812,"lon":5.39988,"is_reserved":false,"is_disabled":false,"rental_uris":{"android":"levelo://app?vid=4d0f2f54-7eb7-4474-9797-89fea99f83a4","ios":"levelo://app?vid=4d0f2f54-7eb7-4474-9797-89fea99f83a4"},"vehicle_type_id":"4","last_reported":1751631668,"current_range_meters":10800,"station_id":"ce4bhn12rcd13ifvqgqg","pricing_plan_id":"cebpf4jnsgd1na2vs0mg"},{"bike_id":"9f1f6042-7e07-4b00-9dc1-8f0343d9174e","system_id":"levelo_inurba_marseille","lat":43.21189,"lon":5.35078,"is_reserved":false,"is_disabled":false,"rental_uris":{"android":"levelo://app?vid=9f1f6042-7e07-4b00-9dc1-8f0343d9174e","ios":"levelo://app?vid=9f1f6042-7e07-4b00-9dc1-8f0343d9174e"},"vehicle_type_id":"4","last_reported":1751631668,"current_range_meters":10800,"station_id":"st_cvj6sg6p6f1abm77japg","pricing_plan_id":"cebpf4jnsgd1na2vs0mg"},{"bike_id":"a52d99d4-90d8-4840-bc4c-cf9f2c41afbb","system_id":"levelo_inurba_marseille","lat":43.29847,"lon":5.36268,"is_reserved":false,"is_disabled":false,"rental_uris":{"android":"levelo://app?vid=a52d99d4-90d8-4840-bc4c-cf9f2c41afbb","ios":"levelo://app?vid=a52d99d4-90d8-4840-bc4c-cf9f2c41afbb"},"vehicle_type_id":"4","last_reported":1751631668,"current_range_meters":11200,"station_id":"ce4bgpp2rcd13ifvqc3g","pricing_plan_id":"cebpf4jnsgd1na2vs0mg"},{"bike_id":"1a1e1b0d-a5ff-44d5-a5f7-0d62cea1e2f1","system_id":"levelo_inurba_marseille","lat":43.31359,"lon":5.38488,"is_reserved":false,"is_disabled":false,"rental_uris":{"android":"levelo://app?vid=1a1e1b0d-a5ff-44d5-a5f7-0d62cea1e2f1","ios":"levelo://app?vid=1a1e1b0d-a5ff-44d5-a5f7-0d62cea1e2f1"},"vehicle_type_id":"4","last_reported":1751631668,"current_range_meters":11200,"station_id":"ce4bgt92rcd13ifvqcf0","pricing_plan_id":"cebpf4jnsgd1na2vs0mg"},{"bike_id":"309f220a-94b9-4845-a85c-5cc27a725edf","system_id":"levelo_inurba_marseille","lat":43.2808,"lon":5.39662,"is_reserved":false,"is_disabled":false,"rental_uris":{"android":"levelo://app?vid=309f220a-94b9-4845-a85c-5cc27a725edf","ios":"levelo://app?vid=309f220a-94b9-4845-a85c-5cc27a725edf"},"vehicle_type_id":"4","last_reported":1751631668,"current_range_meters":11200,"station_id":"ce4bho12rcd13ifvqh2g","pricing_plan_id":"cebpf4jnsgd1na2vs0mg"},{"bike_id":"64a84bb4-d1e1-4be5-84be-0cc2221f297c","system_id":"levelo_inurba_marseille","lat":43.29793,"lon":5.38091,"is_reserved":false,"is_disabled":false,"rental_uris":{"android":"levelo://app?vid=64a84bb4-d1e1-4be5-84be-0cc2221f297c","ios":"levelo://app?vid=64a84bb4-d1e1-4be5-84be-0cc2221f297c"},"vehicle_type_id":"4","last_reported":1751631668,"current_range_meters":11600,"station_id":"ce4bgip2rcd13ifvqbb0","pricing_plan_id":"cebpf4jnsgd1na2vs0mg"},{"bike_id":"69272601-9d52-4ef2-b97f-0f3285fad4be","system_id":"levelo_inurba_marseille","lat":43.3093,"lon":5.40138,"is_reserved":false,"is_disabled":false,"rental_uris":{"android":"levelo://app?vid=69272601-9d52-4ef2-b97f-0f3285fad4be","ios":"levelo://app?vid=69272601-9d52-4ef2-b97f-0f3285fad4be"},"vehicle_type_id":"4","last_reported":1751631668,"current_range_meters":11600,"station_id":"ce4bgvp2rcd13ifvqct0","pricing_plan_id":"cebpf4jnsgd1na2vs0mg"},{"bike_id":"38db1671-2d4e-4acd-ac64-63e86500571e","system_id":"levelo_inurba_marseille","lat":43.28855,"lon":5.35845,"is_reserved":false,"is_disabled":false,"rental_uris":{"android":"levelo://app?vid=38db1671-2d4e-4acd-ac64-63e86500571e","ios":"levelo://app?vid=38db1671-2d4e-4acd-ac64-63e86500571e"},"vehicle_type_id":"4","last_reported":1751631668,"current_range_meters":11600,"station_id":"ce4bhb12rcd13ifvqem0","pricing_plan_id":"cebpf4jnsgd1na2vs0mg"},{"bike_id":"e32fb1a7-35e4-4636-af1d-3a18e4185650","system_id":"levelo_inurba_marseille","lat":43.26194,"lon":5.37447,"is_reserved":false,"is_disabled":false,"rental_uris":{"android":"levelo://app?vid=e32fb1a7-35e4-4636-af1d-3a18e4185650","ios":"levelo://app?vid=e32fb1a7-35e4-4636-af1d-3a18e4185650"},"vehicle_type_id":"4","last_reported":1751631668,"current_range_meters":11600,"station_id":"ce4bhgp2rcd13ifvqfc0","pricing_plan_id":"cebpf4jnsgd1na2vs0mg"},{"bike_id":"ce91fdec-53d6-49af-b164-e4ddfa1bbb6d","system_id":"levelo_inurba_marseille","lat":43.25702,"lon":5.41058,"is_reserved":false,"is_disabled":false,"rental_uris":{"android":"levelo://app?vid=ce91fdec-53d6-49af-b164-e4ddfa1bbb6d","ios":"levelo://app?vid=ce91fdec-53d6-49af-b164-e4ddfa1bbb6d"},"vehicle_type_id":"4","last_reported":1751631668,"current_range_meters":11600,"station_id":"ce4bhkp2rcd13ifvqgd0","pricing_plan_id":"cebpf4jnsgd1na2vs0mg"},{"bike_id":"175513bb-dce2-48e2-83c8-1e9f1cb23cd0","system_id":"levelo_inurba_marseille","lat":43.286255,"lon":5.412651,"is_reserved":false,"is_disabled":false,"rental_uris":{"android":"levelo://app?vid=175513bb-dce2-48e2-83c8-1e9f1cb23cd0","ios":"levelo://app?vid=175513bb-dce2-48e2-83c8-1e9f1cb23cd0"},"vehicle_type_id":"4","last_reported":1751631668,"current_range_meters":12000,"station_id":"","pricing_plan_id":"cebpf4jnsgd1na2vs0mg"},{"bike_id":"3ba61860-9ae1-459c-9269-ea53277c8593","system_id":"levelo_inurba_marseille","lat":43.284255,"lon":5.349885,"is_reserved":false,"is_disabled":false,"rental_uris":{"android":"levelo://app?vid=3ba61860-9ae1-459c-9269-ea53277c8593","ios":"levelo://app?vid=3ba61860-9ae1-459c-9269-ea53277c8593"},"vehicle_type_id":"4","last_reported":1751631668,"current_range_meters":12000,"station_id":"ce4bhbh2rcd13ifvqepg","pricing_plan_id":"cebpf4jnsgd1na2vs0mg"},{"bike_id":"a2c9b6ee-779f-47cf-b3eb-5fed2b65726b","system_id":"levelo_inurba_marseille","lat":43.217474,"lon":5.346008,"is_reserved":false,"is_disabled":false,"rental_uris":{"android":"levelo://app?vid=a2c9b6ee-779f-47cf-b3eb-5fed2b65726b","ios":"levelo://app?vid=a2c9b6ee-779f-47cf-b3eb-5fed2b65726b"},"vehicle_type_id":"4","last_reported":1751631668,"current_range_meters":12000,"station_id":"st_cvj6r9ubvosntc0bgbag","pricing_plan_id":"cebpf4jnsgd1na2vs0mg"},{"bike_id":"0c4b7fdb-b39e-49b3-a2b0-ae3d0f43e89d","system_id":"levelo_inurba_marseille","lat":43.3291,"lon":5.40578,"is_reserved":false,"is_disabled":false,"rental_uris":{"android":"levelo://app?vid=0c4b7fdb-b39e-49b3-a2b0-ae3d0f43e89d","ios":"levelo://app?vid=0c4b7fdb-b39e-49b3-a2b0-ae3d0f43e89d"},"vehicle_type_id":"4","last_reported":1751631668,"current_range_meters":12400,"station_id":"","pricing_plan_id":"cebpf4jnsgd1na2vs0mg"},{"bike_id":"6d6489e9-c4dc-4dca-acd1-870cc23810f4","system_id":"levelo_inurba_marseille","lat":43.31234,"lon":5.36867,"is_reserved":false,"is_disabled":false,"rental_uris":{"android":"levelo://app?vid=6d6489e9-c4dc-4dca-acd1-870cc23810f4","ios":"levelo://app?vid=6d6489e9-c4dc-4dca-acd1-870cc23810f4"},"vehicle_type_id":"4","last_reported":1751631668,"current_range_meters":12400,"station_id":"ce4bgl92rcd13ifvqbq0","pricing_plan_id":"cebpf4jnsgd1na2vs0mg"},{"bike_id":"9d8ec144-e015-4792-8a88-e67325a34e7d","system_id":"levelo_inurba_marseille","lat":43.3133,"lon":5.39677,"is_reserved":false,"is_disabled":false,"rental_uris":{"android":"levelo://app?vid=9d8ec144-e015-4792-8a88-e67325a34e7d","ios":"levelo://app?vid=9d8ec144-e015-4792-8a88-e67325a34e7d"},"vehicle_type_id":"4","last_reported":1751631668,"current_range_meters":12400,"station_id":"ce4bgvp2rcd13ifvqcu0","pricing_plan_id":"cebpf4jnsgd1na2vs0mg"},{"bike_id":"72750a35-fd90-47b5-a091-6123c4bfecc1","system_id":"levelo_inurba_marseille","lat":43.273726,"lon":5.362594,"is_reserved":false,"is_disabled":false,"rental_uris":{"android":"levelo://app?vid=72750a35-fd90-47b5-a091-6123c4bfecc1","ios":"levelo://app?vid=72750a35-fd90-47b5-a091-6123c4bfecc1"},"vehicle_type_id":"4","last_reported":1751631668,"current_range_meters":12400,"station_id":"ce4bhbh2rcd13ifvqeo0","pricing_plan_id":"cebpf4jnsgd1na2vs0mg"},{"bike_id":"8666bd5e-a96e-4716-8541-5a3f3562d8dd","system_id":"levelo_inurba_marseille","lat":43.337444,"lon":5.374475,"is_reserved":false,"is_disabled":false,"rental_uris":{"android":"levelo://app?vid=8666bd5e-a96e-4716-8541-5a3f3562d8dd","ios":"levelo://app?vid=8666bd5e-a96e-4716-8541-5a3f3562d8dd"},"vehicle_type_id":"4","last_reported":1751631668,"current_range_meters":12800,"station_id":"","pricing_plan_id":"cebpf4jnsgd1na2vs0mg"},{"bike_id":"43b8b648-960e-46ea-bfad-839bb09cb576","system_id":"levelo_inurba_marseille","lat":43.26215,"lon":5.37049,"is_reserved":false,"is_disabled":false,"rental_uris":{"android":"levelo://app?vid=43b8b648-960e-46ea-bfad-839bb09cb576","ios":"levelo://app?vid=43b8b648-960e-46ea-bfad-839bb09cb576"},"vehicle_type_id":"4","last_reported":1751631668,"current_range_meters":12800,"station_id":"","pricing_plan_id":"cebpf4jnsgd1na2vs0mg"},{"bike_id":"b5974b9b-d052-486b-bcc2-d5893ec0c8f6","system_id":"levelo_inurba_marseille","lat":43.28433,"lon":5.35896,"is_reserved":false,"is_disabled":false,"rental_uris":{"android":"levelo://app?vid=b5974b9b-d052-486b-bcc2-d5893ec0c8f6","ios":"levelo://app?vid=b5974b9b-d052-486b-bcc2-d5893ec0c8f6"},"vehicle_type_id":"4","last_reported":1751631668,"current_range_meters":12800,"station_id":"ce4bhah2rcd13ifvqei0","pricing_plan_id":"cebpf4jnsgd1na2vs0mg"},{"bike_id":"d09d1816-5b41-475a-ba88-56fc655a662d","system_id":"levelo_inurba_marseille","lat":43.284567,"lon":5.358863,"is_reserved":false,"is_disabled":false,"rental_uris":{"android":"levelo://app?vid=d09d1816-5b41-475a-ba88-56fc655a662d","ios":"levelo://app?vid=d09d1816-5b41-475a-ba88-56fc655a662d"},"vehicle_type_id":"4","last_reported":1751631668,"current_range_meters":12800,"station_id":"ce4bhah2rcd13ifvqei0","pricing_plan_id":"cebpf4jnsgd1na2vs0mg"},{"bike_id":"456d0439-1ecb-4f94-9de9-eb4857c08ca1","system_id":"levelo_inurba_marseille","lat":43.28655,"lon":5.36338,"is_reserved":false,"is_disabled":false,"rental_uris":{"android":"levelo://app?vid=456d0439-1ecb-4f94-9de9-eb4857c08ca1","ios":"levelo://app?vid=456d0439-1ecb-4f94-9de9-eb4857c08ca1"},"vehicle_type_id":"4","last_reported":1751631668,"current_range_meters":12800,"station_id":"ce4bhah2rcd13ifvqej0","pricing_plan_id":"cebpf4jnsgd1na2vs0mg"},{"bike_id":"8634c0b9-f6dd-4bc7-82d4-a6a87e50db68","system_id":"levelo_inurba_marseille","lat":43.2737,"lon":5.36266,"is_reserved":false,"is_disabled":false,"rental_uris":{"android":"levelo://app?vid=8634c0b9-f6dd-4bc7-82d4-a6a87e50db68","ios":"levelo://app?vid=8634c0b9-f6dd-4bc7-82d4-a6a87e50db68"},"vehicle_type_id":"4","last_reported":1751631668,"current_range_meters":12800,"station_id":"ce4bhbh2rcd13ifvqeo0","pricing_plan_id":"cebpf4jnsgd1na2vs0mg"},{"bike_id":"54c1120e-bf7c-4f70-97df-be4c2f4e0282","system_id":"levelo_inurba_marseille","lat":43.26558,"lon":5.37292,"is_reserved":false,"is_disabled":false,"rental_uris":{"android":"levelo://app?vid=54c1120e-bf7c-4f70-97df-be4c2f4e0282","ios":"levelo://app?vid=54c1120e-bf7c-4f70-97df-be4c2f4e0282"},"vehicle_type_id":"4","last_reported":1751631668,"current_range_meters":12800,"station_id":"ce4bhg12rcd13ifvqf70","pricing_plan_id":"cebpf4jnsgd1na2vs0mg"},{"bike_id":"16d316ba-2098-4bf3-a203-f888c2903b36","system_id":"levelo_inurba_marseille","lat":43.318863,"lon":5.407394,"is_reserved":false,"is_disabled":false,"rental_uris":{"android":"levelo://app?vid=16d316ba-2098-4bf3-a203-f888c2903b36","ios":"levelo://app?vid=16d316ba-2098-4bf3-a203-f888c2903b36"},"vehicle_type_id":"4","last_reported":1751631668,"current_range_meters":12800,"station_id":"ce4bhq12rcd13ifvqhig","pricing_plan_id":"cebpf4jnsgd1na2vs0mg"},{"bike_id":"5e197122-e8ec-4f01-b370-6bbfc10c6950","system_id":"levelo_inurba_marseille","lat":43.21207,"lon":5.35089,"is_reserved":false,"is_disabled":false,"rental_uris":{"android":"levelo://app?vid=5e197122-e8ec-4f01-b370-6bbfc10c6950","ios":"levelo://app?vid=5e197122-e8ec-4f01-b370-6bbfc10c6950"},"vehicle_type_id":"4","last_reported":1751631668,"current_range_meters":12800,"station_id":"st_cvj6sg6p6f1abm77japg","pricing_plan_id":"cebpf4jnsgd1na2vs0mg"},{"bike_id":"3d1a112a-f192-41bb-8781-acd8c56b0243","system_id":"levelo_inurba_marseille","lat":43.30906,"lon":5.40134,"is_reserved":false,"is_disabled":false,"rental_uris":{"android":"levelo://app?vid=3d1a112a-f192-41bb-8781-acd8c56b0243","ios":"levelo://app?vid=3d1a112a-f192-41bb-8781-acd8c56b0243"},"vehicle_type_id":"4","last_reported":1751631668,"current_range_meters":13600,"station_id":"ce4bgvp2rcd13ifvqct0","pricing_plan_id":"cebpf4jnsgd1na2vs0mg"},{"bike_id":"c8a39d66-2d44-46a5-86c3-f11548bf3107","system_id":"levelo_inurba_marseille","lat":43.282623,"lon":5.350563,"is_reserved":false,"is_disabled":false,"rental_uris":{"android":"levelo://app?vid=c8a39d66-2d44-46a5-86c3-f11548bf3107","ios":"levelo://app?vid=c8a39d66-2d44-46a5-86c3-f11548bf3107"},"vehicle_type_id":"4","last_reported":1751631668,"current_range_meters":13600,"station_id":"ce4bhbp2rcd13ifvqerg","pricing_plan_id":"cebpf4jnsgd1na2vs0mg"},{"bike_id":"6e703efe-d004-492b-a4e1-8f9a45caf618","system_id":"levelo_inurba_marseille","lat":43.30365,"lon":5.42491,"is_reserved":false,"is_disabled":false,"rental_uris":{"android":"levelo://app?vid=6e703efe-d004-492b-a4e1-8f9a45caf618","ios":"levelo://app?vid=6e703efe-d004-492b-a4e1-8f9a45caf618"},"vehicle_type_id":"4","last_reported":1751631668,"current_range_meters":13600,"station_id":"ce4bhoh2rcd13ifvqh6g","pricing_plan_id":"cebpf4jnsgd1na2vs0mg"},{"bike_id":"7f419ca0-e485-4d56-a4f1-b24d1bc5b8a7","system_id":"levelo_inurba_marseille","lat":43.29966,"lon":5.38495,"is_reserved":false,"is_disabled":false,"rental_uris":{"android":"levelo://app?vid=7f419ca0-e485-4d56-a4f1-b24d1bc5b8a7","ios":"levelo://app?vid=7f419ca0-e485-4d56-a4f1-b24d1bc5b8a7"},"vehicle_type_id":"4","last_reported":1751631668,"current_range_meters":14000,"station_id":"ce4bgj92rcd13ifvqbd0","pricing_plan_id":"cebpf4jnsgd1na2vs0mg"},{"bike_id":"28214e0e-dbfc-4303-a413-e2d31bb26395","system_id":"levelo_inurba_marseille","lat":43.30553,"lon":5.36717,"is_reserved":false,"is_disabled":false,"rental_uris":{"android":"levelo://app?vid=28214e0e-dbfc-4303-a413-e2d31bb26395","ios":"levelo://app?vid=28214e0e-dbfc-4303-a413-e2d31bb26395"},"vehicle_type_id":"4","last_reported":1751631668,"current_range_meters":14000,"station_id":"ce4bgrp2rcd13ifvqc9g","pricing_plan_id":"cebpf4jnsgd1na2vs0mg"},{"bike_id":"df8334f1-5854-4f04-83d4-f882a7cf6b67","system_id":"levelo_inurba_marseille","lat":43.30542,"lon":5.36536,"is_reserved":false,"is_disabled":false,"rental_uris":{"android":"levelo://app?vid=df8334f1-5854-4f04-83d4-f882a7cf6b67","ios":"levelo://app?vid=df8334f1-5854-4f04-83d4-f882a7cf6b67"},"vehicle_type_id":"4","last_reported":1751631668,"current_range_meters":14000,"station_id":"ce4bgs12rcd13ifvqcag","pricing_plan_id":"cebpf4jnsgd1na2vs0mg"},{"bike_id":"56d7798b-33b4-4fba-b851-5d61691ea42f","system_id":"levelo_inurba_marseille","lat":43.24808,"lon":5.37456,"is_reserved":false,"is_disabled":false,"rental_uris":{"android":"levelo://app?vid=56d7798b-33b4-4fba-b851-5d61691ea42f","ios":"levelo://app?vid=56d7798b-33b4-4fba-b851-5d61691ea42f"},"vehicle_type_id":"4","last_reported":1751631668,"current_range_meters":14000,"station_id":"ce4bhgh2rcd13ifvqfb0","pricing_plan_id":"cebpf4jnsgd1na2vs0mg"},{"bike_id":"e1aa5983-6325-42e2-8323-42350f78e1b6","system_id":"levelo_inurba_marseille","lat":43.2549,"lon":5.37649,"is_reserved":false,"is_disabled":false,"rental_uris":{"android":"levelo://app?vid=e1aa5983-6325-42e2-8323-42350f78e1b6","ios":"levelo://app?vid=e1aa5983-6325-42e2-8323-42350f78e1b6"},"vehicle_type_id":"4","last_reported":1751631668,"current_range_meters":14000,"station_id":"ce4bhh12rcd13ifvqff0","pricing_plan_id":"cebpf4jnsgd1na2vs0mg"},{"bike_id":"d5a7b043-e210-4dd7-a0f0-35fb21054c8c","system_id":"levelo_inurba_marseille","lat":43.23162,"lon":5.4373,"is_reserved":false,"is_disabled":false,"rental_uris":{"android":"levelo://app?vid=d5a7b043-e210-4dd7-a0f0-35fb21054c8c","ios":"levelo://app?vid=d5a7b043-e210-4dd7-a0f0-35fb21054c8c"},"vehicle_type_id":"4","last_reported":1751631668,"current_range_meters":14000,"station_id":"ce4bhmp2rcd13ifvqgog","pricing_plan_id":"cebpf4jnsgd1na2vs0mg"},{"bike_id":"0f7e77e2-8bad-46d1-8d81-11b86051aefa","system_id":"levelo_inurba_marseille","lat":43.23157,"lon":5.43704,"is_reserved":false,"is_disabled":false,"rental_uris":{"android":"levelo://app?vid=0f7e77e2-8bad-46d1-8d81-11b86051aefa","ios":"levelo://app?vid=0f7e77e2-8bad-46d1-8d81-11b86051aefa"},"vehicle_type_id":"4","last_reported":1751631668,"current_range_meters":14000,"station_id":"ce4bhmp2rcd13ifvqgog","pricing_plan_id":"cebpf4jnsgd1na2vs0mg"},{"bike_id":"2269140f-4ec7-4a6a-8b17-343f459ef511","system_id":"levelo_inurba_marseille","lat":43.336028,"lon":5.410284,"is_reserved":false,"is_disabled":false,"rental_uris":{"android":"levelo://app?vid=2269140f-4ec7-4a6a-8b17-343f459ef511","ios":"levelo://app?vid=2269140f-4ec7-4a6a-8b17-343f459ef511"},"vehicle_type_id":"4","last_reported":1751631668,"current_range_meters":14000,"station_id":"ce4bhqh2rcd13ifvqhmg","pricing_plan_id":"cebpf4jnsgd1na2vs0mg"},{"bike_id":"6eebadd3-99fa-48af-8556-1f64731f83a2","system_id":"levelo_inurba_marseille","lat":43.230673,"lon":5.354951,"is_reserved":false,"is_disabled":false,"rental_uris":{"android":"levelo://app?vid=6eebadd3-99fa-48af-8556-1f64731f83a2","ios":"levelo://app?vid=6eebadd3-99fa-48af-8556-1f64731f83a2"},"vehicle_type_id":"4","last_reported":1751631668,"current_range_meters":14000,"station_id":"cpo3342slgdg3j2ifvpg","pricing_plan_id":"cebpf4jnsgd1na2vs0mg"},{"bike_id":"d7d5b776-bcc7-423d-8a89-6abd09a6c07c","system_id":"levelo_inurba_marseille","lat":43.24167,"lon":5.36396,"is_reserved":false,"is_disabled":false,"rental_uris":{"android":"levelo://app?vid=d7d5b776-bcc7-423d-8a89-6abd09a6c07c","ios":"levelo://app?vid=d7d5b776-bcc7-423d-8a89-6abd09a6c07c"},"vehicle_type_id":"4","last_reported":1751631668,"current_range_meters":14000,"station_id":"cpo36qri1sfpv3e86is0","pricing_plan_id":"cebpf4jnsgd1na2vs0mg"},{"bike_id":"1c8ab180-05fd-405f-9922-b2b2c2d5142f","system_id":"levelo_inurba_marseille","lat":43.33797,"lon":5.38141,"is_reserved":false,"is_disabled":false,"rental_uris":{"android":"levelo://app?vid=1c8ab180-05fd-405f-9922-b2b2c2d5142f","ios":"levelo://app?vid=1c8ab180-05fd-405f-9922-b2b2c2d5142f"},"vehicle_type_id":"4","last_reported":1751631668,"current_range_meters":14400,"station_id":"","pricing_plan_id":"cebpf4jnsgd1na2vs0mg"},{"bike_id":"eab3e33a-5b54-4910-870d-76cdcaea7e3b","system_id":"levelo_inurba_marseille","lat":43.29673,"lon":5.3786,"is_reserved":false,"is_disabled":false,"rental_uris":{"android":"levelo://app?vid=eab3e33a-5b54-4910-870d-76cdcaea7e3b","ios":"levelo://app?vid=eab3e33a-5b54-4910-870d-76cdcaea7e3b"},"vehicle_type_id":"4","last_reported":1751631668,"current_range_meters":14400,"station_id":"ce4bh0h2rcd13ifvqd50","pricing_plan_id":"cebpf4jnsgd1na2vs0mg"},{"bike_id":"c932fb13-d4f2-4b98-b458-dbf9a58eb8b6","system_id":"levelo_inurba_marseille","lat":43.30643,"lon":5.40101,"is_reserved":false,"is_disabled":false,"rental_uris":{"android":"levelo://app?vid=c932fb13-d4f2-4b98-b458-dbf9a58eb8b6","ios":"levelo://app?vid=c932fb13-d4f2-4b98-b458-dbf9a58eb8b6"},"vehicle_type_id":"4","last_reported":1751631668,"current_range_meters":14400,"station_id":"ce4bh112rcd13ifvqda0","pricing_plan_id":"cebpf4jnsgd1na2vs0mg"},{"bike_id":"1dc0dab5-60fa-4dc3-9326-2eeb5c52fd4b","system_id":"levelo_inurba_marseille","lat":43.27362,"lon":5.36256,"is_reserved":false,"is_disabled":false,"rental_uris":{"android":"levelo://app?vid=1dc0dab5-60fa-4dc3-9326-2eeb5c52fd4b","ios":"levelo://app?vid=1dc0dab5-60fa-4dc3-9326-2eeb5c52fd4b"},"vehicle_type_id":"4","last_reported":1751631668,"current_range_meters":14400,"station_id":"ce4bhbh2rcd13ifvqeo0","pricing_plan_id":"cebpf4jnsgd1na2vs0mg"},{"bike_id":"167dbfa7-2182-4d81-ba30-6152c1b1ecf7","system_id":"levelo_inurba_marseille","lat":43.24809,"lon":5.37458,"is_reserved":false,"is_disabled":false,"rental_uris":{"android":"levelo://app?vid=167dbfa7-2182-4d81-ba30-6152c1b1ecf7","ios":"levelo://app?vid=167dbfa7-2182-4d81-ba30-6152c1b1ecf7"},"vehicle_type_id":"4","last_reported":1751631668,"current_range_meters":14400,"station_id":"ce4bhgh2rcd13ifvqfb0","pricing_plan_id":"cebpf4jnsgd1na2vs0mg"},{"bike_id":"c19ebfd6-50a6-46b1-b44d-22f931a6e1f1","system_id":"levelo_inurba_marseille","lat":43.274512,"lon":5.390021,"is_reserved":false,"is_disabled":false,"rental_uris":{"android":"levelo://app?vid=c19ebfd6-50a6-46b1-b44d-22f931a6e1f1","ios":"levelo://app?vid=c19ebfd6-50a6-46b1-b44d-22f931a6e1f1"},"vehicle_type_id":"4","last_reported":1751631668,"current_range_meters":14400,"station_id":"ce4bhi12rcd13ifvqfq0","pricing_plan_id":"cebpf4jnsgd1na2vs0mg"},{"bike_id":"9e131bf0-f106-413d-9a4e-bc217c39f4a7","system_id":"levelo_inurba_marseille","lat":43.23144,"lon":5.43687,"is_reserved":false,"is_disabled":false,"rental_uris":{"android":"levelo://app?vid=9e131bf0-f106-413d-9a4e-bc217c39f4a7","ios":"levelo://app?vid=9e131bf0-f106-413d-9a4e-bc217c39f4a7"},"vehicle_type_id":"4","last_reported":1751631668,"current_range_meters":14400,"station_id":"ce4bhmp2rcd13ifvqgog","pricing_plan_id":"cebpf4jnsgd1na2vs0mg"},{"bike_id":"c98bcc32-67a5-4d41-ba8f-65ca727974ef","system_id":"levelo_inurba_marseille","lat":43.33021,"lon":5.39037,"is_reserved":false,"is_disabled":false,"rental_uris":{"android":"levelo://app?vid=c98bcc32-67a5-4d41-ba8f-65ca727974ef","ios":"levelo://app?vid=c98bcc32-67a5-4d41-ba8f-65ca727974ef"},"vehicle_type_id":"4","last_reported":1751631668,"current_range_meters":14400,"station_id":"ce4bhr92rcd13ifvqhrg","pricing_plan_id":"cebpf4jnsgd1na2vs0mg"},{"bike_id":"f6c2a577-051c-43ed-b10c-6654493f980d","system_id":"levelo_inurba_marseille","lat":43.21754,"lon":5.34608,"is_reserved":false,"is_disabled":false,"rental_uris":{"android":"levelo://app?vid=f6c2a577-051c-43ed-b10c-6654493f980d","ios":"levelo://app?vid=f6c2a577-051c-43ed-b10c-6654493f980d"},"vehicle_type_id":"4","last_reported":1751631668,"current_range_meters":14400,"station_id":"st_cvj6r9ubvosntc0bgbag","pricing_plan_id":"cebpf4jnsgd1na2vs0mg"},{"bike_id":"179068b8-c1da-487c-9bf1-1931e144282a","system_id":"levelo_inurba_marseille","lat":43.28619,"lon":5.35103,"is_reserved":false,"is_disabled":false,"rental_uris":{"android":"levelo://app?vid=179068b8-c1da-487c-9bf1-1931e144282a","ios":"levelo://app?vid=179068b8-c1da-487c-9bf1-1931e144282a"},"vehicle_type_id":"4","last_reported":1751631668,"current_range_meters":14800,"station_id":"ce4bhch2rcd13ifvqeug","pricing_plan_id":"cebpf4jnsgd1na2vs0mg"},{"bike_id":"62e288d8-e99a-4ebc-a826-066ab28ebb35","system_id":"levelo_inurba_marseille","lat":43.30816,"lon":5.43521,"is_reserved":false,"is_disabled":false,"rental_uris":{"android":"levelo://app?vid=62e288d8-e99a-4ebc-a826-066ab28ebb35","ios":"levelo://app?vid=62e288d8-e99a-4ebc-a826-066ab28ebb35"},"vehicle_type_id":"4","last_reported":1751631668,"current_range_meters":14800,"station_id":"ce4bhph2rcd13ifvqheg","pricing_plan_id":"cebpf4jnsgd1na2vs0mg"},{"bike_id":"0fd9d38b-6b06-42b6-89ef-9832c4d32a8d","system_id":"levelo_inurba_marseille","lat":43.230591,"lon":5.354909,"is_reserved":false,"is_disabled":false,"rental_uris":{"android":"levelo://app?vid=0fd9d38b-6b06-42b6-89ef-9832c4d32a8d","ios":"levelo://app?vid=0fd9d38b-6b06-42b6-89ef-9832c4d32a8d"},"vehicle_type_id":"4","last_reported":1751631668,"current_range_meters":14800,"station_id":"cpo3342slgdg3j2ifvpg","pricing_plan_id":"cebpf4jnsgd1na2vs0mg"},{"bike_id":"88e88e4b-c698-4c95-bfad-cef3cd4f2195","system_id":"levelo_inurba_marseille","lat":43.29907,"lon":5.38152,"is_reserved":false,"is_disabled":false,"rental_uris":{"android":"levelo://app?vid=88e88e4b-c698-4c95-bfad-cef3cd4f2195","ios":"levelo://app?vid=88e88e4b-c698-4c95-bfad-cef3cd4f2195"},"vehicle_type_id":"4","last_reported":1751631668,"current_range_meters":15200,"station_id":"ce4bgj12rcd13ifvqbc0","pricing_plan_id":"cebpf4jnsgd1na2vs0mg"},{"bike_id":"a60785e0-e863-4a83-abfb-47f32de369ce","system_id":"levelo_inurba_marseille","lat":43.28937,"lon":5.36642,"is_reserved":false,"is_disabled":false,"rental_uris":{"android":"levelo://app?vid=a60785e0-e863-4a83-abfb-47f32de369ce","ios":"levelo://app?vid=a60785e0-e863-4a83-abfb-47f32de369ce"},"vehicle_type_id":"4","last_reported":1751631668,"current_range_meters":15200,"station_id":"ce4bhap2rcd13ifvqek0","pricing_plan_id":"cebpf4jnsgd1na2vs0mg"},{"bike_id":"0c880b38-9fac-401f-b3d2-d19695799cca","system_id":"levelo_inurba_marseille","lat":43.27962,"lon":5.38739,"is_reserved":false,"is_disabled":false,"rental_uris":{"android":"levelo://app?vid=0c880b38-9fac-401f-b3d2-d19695799cca","ios":"levelo://app?vid=0c880b38-9fac-401f-b3d2-d19695799cca"},"vehicle_type_id":"4","last_reported":1751631668,"current_range_meters":15200,"station_id":"ce4bhg12rcd13ifvqf80","pricing_plan_id":"cebpf4jnsgd1na2vs0mg"},{"bike_id":"da51dc01-0f00-46ef-995b-d21ead704b6d","system_id":"levelo_inurba_marseille","lat":43.2439,"lon":5.37058,"is_reserved":false,"is_disabled":false,"rental_uris":{"android":"levelo://app?vid=da51dc01-0f00-46ef-995b-d21ead704b6d","ios":"levelo://app?vid=da51dc01-0f00-46ef-995b-d21ead704b6d"},"vehicle_type_id":"4","last_reported":1751631668,"current_range_meters":15200,"station_id":"ce4bhhh2rcd13ifvqfk0","pricing_plan_id":"cebpf4jnsgd1na2vs0mg"},{"bike_id":"5dcb7f49-56f0-44ba-b8c0-4f8fefe7088a","system_id":"levelo_inurba_marseille","lat":43.27204,"lon":5.39184,"is_reserved":false,"is_disabled":false,"rental_uris":{"android":"levelo://app?vid=5dcb7f49-56f0-44ba-b8c0-4f8fefe7088a","ios":"levelo://app?vid=5dcb7f49-56f0-44ba-b8c0-4f8fefe7088a"},"vehicle_type_id":"4","last_reported":1751631668,"current_range_meters":15200,"station_id":"ce4bhhp2rcd13ifvqfm0","pricing_plan_id":"cebpf4jnsgd1na2vs0mg"},{"bike_id":"061a48f6-d356-4736-bb46-e92bffc4a1c6","system_id":"levelo_inurba_marseille","lat":43.3091,"lon":5.40145,"is_reserved":false,"is_disabled":false,"rental_uris":{"android":"levelo://app?vid=061a48f6-d356-4736-bb46-e92bffc4a1c6","ios":"levelo://app?vid=061a48f6-d356-4736-bb46-e92bffc4a1c6"},"vehicle_type_id":"4","last_reported":1751631668,"current_range_meters":16000,"station_id":"ce4bgvp2rcd13ifvqct0","pricing_plan_id":"cebpf4jnsgd1na2vs0mg"},{"bike_id":"b4492e78-1fb2-4c84-a7b8-6f8af145e7bb","system_id":"levelo_inurba_marseille","lat":43.26568,"lon":5.3904,"is_reserved":false,"is_disabled":false,"rental_uris":{"android":"levelo://app?vid=b4492e78-1fb2-4c84-a7b8-6f8af145e7bb","ios":"levelo://app?vid=b4492e78-1fb2-4c84-a7b8-6f8af145e7bb"},"vehicle_type_id":"4","last_reported":1751631668,"current_range_meters":16000,"station_id":"ce4bhe12rcd13ifvqf30","pricing_plan_id":"cebpf4jnsgd1na2vs0mg"},{"bike_id":"11069914-c649-4cdd-b0cf-b4577e6037a4","system_id":"levelo_inurba_marseille","lat":43.26692,"lon":5.38268,"is_reserved":false,"is_disabled":false,"rental_uris":{"android":"levelo://app?vid=11069914-c649-4cdd-b0cf-b4577e6037a4","ios":"levelo://app?vid=11069914-c649-4cdd-b0cf-b4577e6037a4"},"vehicle_type_id":"4","last_reported":1751631668,"current_range_meters":16000,"station_id":"ce4bhg92rcd13ifvqf90","pricing_plan_id":"cebpf4jnsgd1na2vs0mg"},{"bike_id":"e6645133-5b2c-4159-9eb9-e536db5cc1c7","system_id":"levelo_inurba_marseille","lat":43.231541,"lon":5.437181,"is_reserved":false,"is_disabled":false,"rental_uris":{"android":"levelo://app?vid=e6645133-5b2c-4159-9eb9-e536db5cc1c7","ios":"levelo://app?vid=e6645133-5b2c-4159-9eb9-e536db5cc1c7"},"vehicle_type_id":"4","last_reported":1751631668,"current_range_meters":16000,"station_id":"ce4bhmp2rcd13ifvqgog","pricing_plan_id":"cebpf4jnsgd1na2vs0mg"},{"bike_id":"f1d73bc9-174f-4a56-8fc4-c7126868d459","system_id":"levelo_inurba_marseille","lat":43.22933,"lon":5.35374,"is_reserved":false,"is_disabled":false,"rental_uris":{"android":"levelo://app?vid=f1d73bc9-174f-4a56-8fc4-c7126868d459","ios":"levelo://app?vid=f1d73bc9-174f-4a56-8fc4-c7126868d459"},"vehicle_type_id":"4","last_reported":1751631668,"current_range_meters":16000,"station_id":"cpo3532slgdg3j2ikp40","pricing_plan_id":"cebpf4jnsgd1na2vs0mg"},{"bike_id":"094015c2-44e4-40f7-a843-9cd2d9cb1f82","system_id":"levelo_inurba_marseille","lat":43.2176,"lon":5.34608,"is_reserved":false,"is_disabled":false,"rental_uris":{"android":"levelo://app?vid=094015c2-44e4-40f7-a843-9cd2d9cb1f82","ios":"levelo://app?vid=094015c2-44e4-40f7-a843-9cd2d9cb1f82"},"vehicle_type_id":"4","last_reported":1751631668,"current_range_meters":16000,"station_id":"st_cvj6r9ubvosntc0bgbag","pricing_plan_id":"cebpf4jnsgd1na2vs0mg"},{"bike_id":"4b8da722-ee9e-48a4-a5e5-3a8a10364708","system_id":"levelo_inurba_marseille","lat":43.31248,"lon":5.37835,"is_reserved":false,"is_disabled":false,"rental_uris":{"android":"levelo://app?vid=4b8da722-ee9e-48a4-a5e5-3a8a10364708","ios":"levelo://app?vid=4b8da722-ee9e-48a4-a5e5-3a8a10364708"},"vehicle_type_id":"4","last_reported":1751631668,"current_range_meters":16400,"station_id":"","pricing_plan_id":"cebpf4jnsgd1na2vs0mg"},{"bike_id":"2c8d6737-b89d-408d-8770-af93b507a41f","system_id":"levelo_inurba_marseille","lat":43.30148,"lon":5.4005,"is_reserved":false,"is_disabled":false,"rental_uris":{"android":"levelo://app?vid=2c8d6737-b89d-408d-8770-af93b507a41f","ios":"levelo://app?vid=2c8d6737-b89d-408d-8770-af93b507a41f"},"vehicle_type_id":"4","last_reported":1751631668,"current_range_meters":16400,"station_id":"","pricing_plan_id":"cebpf4jnsgd1na2vs0mg"},{"bike_id":"8cf1b1ee-a40f-4da3-9372-f1f8fb90cc1c","system_id":"levelo_inurba_marseille","lat":43.2971,"lon":5.36612,"is_reserved":false,"is_disabled":false,"rental_uris":{"android":"levelo://app?vid=8cf1b1ee-a40f-4da3-9372-f1f8fb90cc1c","ios":"levelo://app?vid=8cf1b1ee-a40f-4da3-9372-f1f8fb90cc1c"},"vehicle_type_id":"4","last_reported":1751631668,"current_range_meters":16400,"station_id":"ce4bgn12rcd13ifvqbt0","pricing_plan_id":"cebpf4jnsgd1na2vs0mg"},{"bike_id":"a237d355-f387-45fc-8689-64e7a7a14f14","system_id":"levelo_inurba_marseille","lat":43.23964,"lon":5.36638,"is_reserved":false,"is_disabled":false,"rental_uris":{"android":"levelo://app?vid=a237d355-f387-45fc-8689-64e7a7a14f14","ios":"levelo://app?vid=a237d355-f387-45fc-8689-64e7a7a14f14"},"vehicle_type_id":"4","last_reported":1751631668,"current_range_meters":16400,"station_id":"ce4bhi12rcd13ifvqfp0","pricing_plan_id":"cebpf4jnsgd1na2vs0mg"},{"bike_id":"1be0925d-e194-4024-bb64-1e4c97aac486","system_id":"levelo_inurba_marseille","lat":43.24166,"lon":5.36387,"is_reserved":false,"is_disabled":false,"rental_uris":{"android":"levelo://app?vid=1be0925d-e194-4024-bb64-1e4c97aac486","ios":"levelo://app?vid=1be0925d-e194-4024-bb64-1e4c97aac486"},"vehicle_type_id":"4","last_reported":1751631668,"current_range_meters":16400,"station_id":"cpo36qri1sfpv3e86is0","pricing_plan_id":"cebpf4jnsgd1na2vs0mg"},{"bike_id":"9fd23e4f-0256-4154-a556-7f39a460d046","system_id":"levelo_inurba_marseille","lat":43.30348,"lon":5.37884,"is_reserved":false,"is_disabled":false,"rental_uris":{"android":"levelo://app?vid=9fd23e4f-0256-4154-a556-7f39a460d046","ios":"levelo://app?vid=9fd23e4f-0256-4154-a556-7f39a460d046"},"vehicle_type_id":"4","last_reported":1751631668,"current_range_meters":16800,"station_id":"","pricing_plan_id":"cebpf4jnsgd1na2vs0mg"},{"bike_id":"83411497-55e9-4fe5-9d7d-6339503788cf","system_id":"levelo_inurba_marseille","lat":43.29375,"lon":5.37858,"is_reserved":false,"is_disabled":false,"rental_uris":{"android":"levelo://app?vid=83411497-55e9-4fe5-9d7d-6339503788cf","ios":"levelo://app?vid=83411497-55e9-4fe5-9d7d-6339503788cf"},"vehicle_type_id":"4","last_reported":1751631668,"current_range_meters":16800,"station_id":"ce4bgjh2rcd13ifvqbf0","pricing_plan_id":"cebpf4jnsgd1na2vs0mg"},{"bike_id":"38bf0bcf-be17-4e8d-8174-bb4870f878ae","system_id":"levelo_inurba_marseille","lat":43.297638,"lon":5.38754,"is_reserved":false,"is_disabled":false,"rental_uris":{"android":"levelo://app?vid=38bf0bcf-be17-4e8d-8174-bb4870f878ae","ios":"levelo://app?vid=38bf0bcf-be17-4e8d-8174-bb4870f878ae"},"vehicle_type_id":"4","last_reported":1751631668,"current_range_meters":16800,"station_id":"ce4bh392rcd13ifvqdl0","pricing_plan_id":"cebpf4jnsgd1na2vs0mg"},{"bike_id":"f68009cb-ace8-4b73-ad11-f266472ecc34","system_id":"levelo_inurba_marseille","lat":43.28043,"lon":5.36949,"is_reserved":false,"is_disabled":false,"rental_uris":{"android":"levelo://app?vid=f68009cb-ace8-4b73-ad11-f266472ecc34","ios":"levelo://app?vid=f68009cb-ace8-4b73-ad11-f266472ecc34"},"vehicle_type_id":"4","last_reported":1751631668,"current_range_meters":16800,"station_id":"ce4bha12rcd13ifvqef0","pricing_plan_id":"cebpf4jnsgd1na2vs0mg"},{"bike_id":"2e8a1ebb-5b4f-4e29-94f9-e081924c16b9","system_id":"levelo_inurba_marseille","lat":43.29277,"lon":5.3684,"is_reserved":false,"is_disabled":false,"rental_uris":{"android":"levelo://app?vid=2e8a1ebb-5b4f-4e29-94f9-e081924c16b9","ios":"levelo://app?vid=2e8a1ebb-5b4f-4e29-94f9-e081924c16b9"},"vehicle_type_id":"4","last_reported":1751631668,"current_range_meters":16800,"station_id":"ce4bhbp2rcd13ifvqesg","pricing_plan_id":"cebpf4jnsgd1na2vs0mg"},{"bike_id":"eb1f55ce-b74e-4c36-a294-860b01d726c9","system_id":"levelo_inurba_marseille","lat":43.28626,"lon":5.35095,"is_reserved":false,"is_disabled":false,"rental_uris":{"android":"levelo://app?vid=eb1f55ce-b74e-4c36-a294-860b01d726c9","ios":"levelo://app?vid=eb1f55ce-b74e-4c36-a294-860b01d726c9"},"vehicle_type_id":"4","last_reported":1751631668,"current_range_meters":16800,"station_id":"ce4bhch2rcd13ifvqeug","pricing_plan_id":"cebpf4jnsgd1na2vs0mg"},{"bike_id":"89a69b49-b1b7-47a2-a4e7-1a1220d92ed9","system_id":"levelo_inurba_marseille","lat":43.27204,"lon":5.39177,"is_reserved":false,"is_disabled":false,"rental_uris":{"android":"levelo://app?vid=89a69b49-b1b7-47a2-a4e7-1a1220d92ed9","ios":"levelo://app?vid=89a69b49-b1b7-47a2-a4e7-1a1220d92ed9"},"vehicle_type_id":"4","last_reported":1751631668,"current_range_meters":16800,"station_id":"ce4bhhp2rcd13ifvqfm0","pricing_plan_id":"cebpf4jnsgd1na2vs0mg"},{"bike_id":"9edecc3c-f17f-4cfb-85a1-93aa005858a2","system_id":"levelo_inurba_marseille","lat":43.293668,"lon":5.378511,"is_reserved":false,"is_disabled":false,"rental_uris":{"android":"levelo://app?vid=9edecc3c-f17f-4cfb-85a1-93aa005858a2","ios":"levelo://app?vid=9edecc3c-f17f-4cfb-85a1-93aa005858a2"},"vehicle_type_id":"4","last_reported":1751631668,"current_range_meters":17200,"station_id":"ce4bh8p2rcd13ifvqeb0","pricing_plan_id":"cebpf4jnsgd1na2vs0mg"},{"bike_id":"1dc4ccd8-d9a7-49ec-881f-0f23fdce719c","system_id":"levelo_inurba_marseille","lat":43.28463,"lon":5.35886,"is_reserved":false,"is_disabled":false,"rental_uris":{"android":"levelo://app?vid=1dc4ccd8-d9a7-49ec-881f-0f23fdce719c","ios":"levelo://app?vid=1dc4ccd8-d9a7-49ec-881f-0f23fdce719c"},"vehicle_type_id":"4","last_reported":1751631668,"current_range_meters":17200,"station_id":"ce4bhah2rcd13ifvqei0","pricing_plan_id":"cebpf4jnsgd1na2vs0mg"},{"bike_id":"1bbe87fa-7751-4499-9c9f-02df3ce5b80c","system_id":"levelo_inurba_marseille","lat":43.2501,"lon":5.38934,"is_reserved":false,"is_disabled":false,"rental_uris":{"android":"levelo://app?vid=1bbe87fa-7751-4499-9c9f-02df3ce5b80c","ios":"levelo://app?vid=1bbe87fa-7751-4499-9c9f-02df3ce5b80c"},"vehicle_type_id":"4","last_reported":1751631668,"current_range_meters":17200,"station_id":"ce4bhgp2rcd13ifvqfd0","pricing_plan_id":"cebpf4jnsgd1na2vs0mg"},{"bike_id":"c13c93ac-6b62-443c-9e36-caf61b27325a","system_id":"levelo_inurba_marseille","lat":43.21195,"lon":5.35066,"is_reserved":false,"is_disabled":false,"rental_uris":{"android":"levelo://app?vid=c13c93ac-6b62-443c-9e36-caf61b27325a","ios":"levelo://app?vid=c13c93ac-6b62-443c-9e36-caf61b27325a"},"vehicle_type_id":"4","last_reported":1751631668,"current_range_meters":17200,"station_id":"st_cvj6sg6p6f1abm77japg","pricing_plan_id":"cebpf4jnsgd1na2vs0mg"},{"bike_id":"73e6098f-2d34-4084-b9f1-29e81f3a77af","system_id":"levelo_inurba_marseille","lat":43.30536,"lon":5.36712,"is_reserved":false,"is_disabled":false,"rental_uris":{"android":"levelo://app?vid=73e6098f-2d34-4084-b9f1-29e81f3a77af","ios":"levelo://app?vid=73e6098f-2d34-4084-b9f1-29e81f3a77af"},"vehicle_type_id":"4","last_reported":1751631668,"current_range_meters":17600,"station_id":"ce4bgrp2rcd13ifvqc9g","pricing_plan_id":"cebpf4jnsgd1na2vs0mg"},{"bike_id":"fcde7ec1-c822-490b-b66f-c815c08d7815","system_id":"levelo_inurba_marseille","lat":43.31304,"lon":5.39662,"is_reserved":false,"is_disabled":false,"rental_uris":{"android":"levelo://app?vid=fcde7ec1-c822-490b-b66f-c815c08d7815","ios":"levelo://app?vid=fcde7ec1-c822-490b-b66f-c815c08d7815"},"vehicle_type_id":"4","last_reported":1751631668,"current_range_meters":18000,"station_id":"ce4bgvp2rcd13ifvqcu0","pricing_plan_id":"cebpf4jnsgd1na2vs0mg"},{"bike_id":"58348ada-aa99-4a86-b167-28759e3c9ab0","system_id":"levelo_inurba_marseille","lat":43.26552,"lon":5.37284,"is_reserved":false,"is_disabled":false,"rental_uris":{"android":"levelo://app?vid=58348ada-aa99-4a86-b167-28759e3c9ab0","ios":"levelo://app?vid=58348ada-aa99-4a86-b167-28759e3c9ab0"},"vehicle_type_id":"4","last_reported":1751631668,"current_range_meters":18000,"station_id":"ce4bhg12rcd13ifvqf70","pricing_plan_id":"cebpf4jnsgd1na2vs0mg"},{"bike_id":"5f470112-8139-4343-b082-08a74e0b7074","system_id":"levelo_inurba_marseille","lat":43.21191,"lon":5.35084,"is_reserved":false,"is_disabled":false,"rental_uris":{"android":"levelo://app?vid=5f470112-8139-4343-b082-08a74e0b7074","ios":"levelo://app?vid=5f470112-8139-4343-b082-08a74e0b7074"},"vehicle_type_id":"4","last_reported":1751631668,"current_range_meters":18000,"station_id":"st_cvj6sg6p6f1abm77japg","pricing_plan_id":"cebpf4jnsgd1na2vs0mg"},{"bike_id":"29049025-09ac-4757-9f06-75d542b3ee3b","system_id":"levelo_inurba_marseille","lat":43.29393,"lon":5.38591,"is_reserved":false,"is_disabled":false,"rental_uris":{"android":"levelo://app?vid=29049025-09ac-4757-9f06-75d542b3ee3b","ios":"levelo://app?vid=29049025-09ac-4757-9f06-75d542b3ee3b"},"vehicle_type_id":"4","last_reported":1751631668,"current_range_meters":18800,"station_id":"ce4bh2h2rcd13ifvqdh0","pricing_plan_id":"cebpf4jnsgd1na2vs0mg"},{"bike_id":"a6f551de-d499-466e-abfa-d2d5d28ff2f0","system_id":"levelo_inurba_marseille","lat":43.28425,"lon":5.37506,"is_reserved":false,"is_disabled":false,"rental_uris":{"android":"levelo://app?vid=a6f551de-d499-466e-abfa-d2d5d28ff2f0","ios":"levelo://app?vid=a6f551de-d499-466e-abfa-d2d5d28ff2f0"},"vehicle_type_id":"4","last_reported":1751631668,"current_range_meters":18800,"station_id":"ce4bh412rcd13ifvqds0","pricing_plan_id":"cebpf4jnsgd1na2vs0mg"},{"bike_id":"5715b556-e66f-4b39-8f33-920a402dceaf","system_id":"levelo_inurba_marseille","lat":43.25005,"lon":5.38926,"is_reserved":false,"is_disabled":false,"rental_uris":{"android":"levelo://app?vid=5715b556-e66f-4b39-8f33-920a402dceaf","ios":"levelo://app?vid=5715b556-e66f-4b39-8f33-920a402dceaf"},"vehicle_type_id":"4","last_reported":1751631668,"current_range_meters":18800,"station_id":"ce4bhgp2rcd13ifvqfd0","pricing_plan_id":"cebpf4jnsgd1na2vs0mg"},{"bike_id":"ea35adaf-12f5-4e45-a373-adf7860854fa","system_id":"levelo_inurba_marseille","lat":43.27992,"lon":5.40014,"is_reserved":false,"is_disabled":false,"rental_uris":{"android":"levelo://app?vid=ea35adaf-12f5-4e45-a373-adf7860854fa","ios":"levelo://app?vid=ea35adaf-12f5-4e45-a373-adf7860854fa"},"vehicle_type_id":"4","last_reported":1751631668,"current_range_meters":18800,"station_id":"ce4bho92rcd13ifvqh4g","pricing_plan_id":"cebpf4jnsgd1na2vs0mg"},{"bike_id":"d5467415-be19-4598-b2a8-d393a9144be1","system_id":"levelo_inurba_marseille","lat":43.21222,"lon":5.3509,"is_reserved":false,"is_disabled":false,"rental_uris":{"android":"levelo://app?vid=d5467415-be19-4598-b2a8-d393a9144be1","ios":"levelo://app?vid=d5467415-be19-4598-b2a8-d393a9144be1"},"vehicle_type_id":"4","last_reported":1751631668,"current_range_meters":18800,"station_id":"st_cvj6sg6p6f1abm77japg","pricing_plan_id":"cebpf4jnsgd1na2vs0mg"},{"bike_id":"03e9eecd-8900-4d4c-95ea-3d4c54b48c17","system_id":"levelo_inurba_marseille","lat":43.316304,"lon":5.404048,"is_reserved":false,"is_disabled":false,"rental_uris":{"android":"levelo://app?vid=03e9eecd-8900-4d4c-95ea-3d4c54b48c17","ios":"levelo://app?vid=03e9eecd-8900-4d4c-95ea-3d4c54b48c17"},"vehicle_type_id":"4","last_reported":1751631668,"current_range_meters":19200,"station_id":"","pricing_plan_id":"cebpf4jnsgd1na2vs0mg"},{"bike_id":"1036f3b5-5954-48a3-93e5-d291f1ca0c73","system_id":"levelo_inurba_marseille","lat":43.29519,"lon":5.37547,"is_reserved":false,"is_disabled":false,"rental_uris":{"android":"levelo://app?vid=1036f3b5-5954-48a3-93e5-d291f1ca0c73","ios":"levelo://app?vid=1036f3b5-5954-48a3-93e5-d291f1ca0c73"},"vehicle_type_id":"4","last_reported":1751631668,"current_range_meters":19200,"station_id":"ce4bgkp2rcd13ifvqbmg","pricing_plan_id":"cebpf4jnsgd1na2vs0mg"},{"bike_id":"3f5797c3-61c2-4aa7-9b09-e09f55f4efbf","system_id":"levelo_inurba_marseille","lat":43.29527,"lon":5.3751,"is_reserved":false,"is_disabled":false,"rental_uris":{"android":"levelo://app?vid=3f5797c3-61c2-4aa7-9b09-e09f55f4efbf","ios":"levelo://app?vid=3f5797c3-61c2-4aa7-9b09-e09f55f4efbf"},"vehicle_type_id":"4","last_reported":1751631668,"current_range_meters":19200,"station_id":"ce4bgkp2rcd13ifvqbmg","pricing_plan_id":"cebpf4jnsgd1na2vs0mg"},{"bike_id":"0bef3f67-6e56-4890-b662-e25ff184f5e0","system_id":"levelo_inurba_marseille","lat":43.317017,"lon":5.404874,"is_reserved":false,"is_disabled":false,"rental_uris":{"android":"levelo://app?vid=0bef3f67-6e56-4890-b662-e25ff184f5e0","ios":"levelo://app?vid=0bef3f67-6e56-4890-b662-e25ff184f5e0"},"vehicle_type_id":"4","last_reported":1751631668,"current_range_meters":19200,"station_id":"ce4bh012rcd13ifvqd00","pricing_plan_id":"cebpf4jnsgd1na2vs0mg"},{"bike_id":"ea49aa08-98d6-42f3-a28b-35bc52c58ad6","system_id":"levelo_inurba_marseille","lat":43.25001,"lon":5.38928,"is_reserved":false,"is_disabled":false,"rental_uris":{"android":"levelo://app?vid=ea49aa08-98d6-42f3-a28b-35bc52c58ad6","ios":"levelo://app?vid=ea49aa08-98d6-42f3-a28b-35bc52c58ad6"},"vehicle_type_id":"4","last_reported":1751631668,"current_range_meters":19200,"station_id":"ce4bhgp2rcd13ifvqfd0","pricing_plan_id":"cebpf4jnsgd1na2vs0mg"},{"bike_id":"adb06d5d-e27d-4fd7-bf82-4e1d1cba2ff7","system_id":"levelo_inurba_marseille","lat":43.25922,"lon":5.40879,"is_reserved":false,"is_disabled":false,"rental_uris":{"android":"levelo://app?vid=adb06d5d-e27d-4fd7-bf82-4e1d1cba2ff7","ios":"levelo://app?vid=adb06d5d-e27d-4fd7-bf82-4e1d1cba2ff7"},"vehicle_type_id":"4","last_reported":1751631668,"current_range_meters":19200,"station_id":"ce4bhm92rcd13ifvqglg","pricing_plan_id":"cebpf4jnsgd1na2vs0mg"},{"bike_id":"9cc59698-e4ff-4878-986e-7b20dec0302d","system_id":"levelo_inurba_marseille","lat":43.29548,"lon":5.42298,"is_reserved":false,"is_disabled":false,"rental_uris":{"android":"levelo://app?vid=9cc59698-e4ff-4878-986e-7b20dec0302d","ios":"levelo://app?vid=9cc59698-e4ff-4878-986e-7b20dec0302d"},"vehicle_type_id":"4","last_reported":1751631668,"current_range_meters":19200,"station_id":"ce4bhph2rcd13ifvqhdg","pricing_plan_id":"cebpf4jnsgd1na2vs0mg"},{"bike_id":"16b55afb-f149-4cf5-98f7-2a72491d95e3","system_id":"levelo_inurba_marseille","lat":43.32538,"lon":5.41461,"is_reserved":false,"is_disabled":false,"rental_uris":{"android":"levelo://app?vid=16b55afb-f149-4cf5-98f7-2a72491d95e3","ios":"levelo://app?vid=16b55afb-f149-4cf5-98f7-2a72491d95e3"},"vehicle_type_id":"4","last_reported":1751631668,"current_range_meters":19200,"station_id":"ce4bhq12rcd13ifvqhhg","pricing_plan_id":"cebpf4jnsgd1na2vs0mg"},{"bike_id":"8501c7f1-4540-433a-9226-9677bd87b71a","system_id":"levelo_inurba_marseille","lat":43.21191,"lon":5.35077,"is_reserved":false,"is_disabled":false,"rental_uris":{"android":"levelo://app?vid=8501c7f1-4540-433a-9226-9677bd87b71a","ios":"levelo://app?vid=8501c7f1-4540-433a-9226-9677bd87b71a"},"vehicle_type_id":"4","last_reported":1751631668,"current_range_meters":19200,"station_id":"st_cvj6sg6p6f1abm77japg","pricing_plan_id":"cebpf4jnsgd1na2vs0mg"},{"bike_id":"25d65b54-2483-49ad-9e8c-b4102ded682f","system_id":"levelo_inurba_marseille","lat":43.211967,"lon":5.351126,"is_reserved":false,"is_disabled":false,"rental_uris":{"android":"levelo://app?vid=25d65b54-2483-49ad-9e8c-b4102ded682f","ios":"levelo://app?vid=25d65b54-2483-49ad-9e8c-b4102ded682f"},"vehicle_type_id":"4","last_reported":1751631668,"current_range_meters":19200,"station_id":"st_cvj6sg6p6f1abm77japg","pricing_plan_id":"cebpf4jnsgd1na2vs0mg"},{"bike_id":"0e95c039-e344-4ef2-8ae3-2271111801b3","system_id":"levelo_inurba_marseille","lat":43.229271,"lon":5.353776,"is_reserved":false,"is_disabled":false,"rental_uris":{"android":"levelo://app?vid=0e95c039-e344-4ef2-8ae3-2271111801b3","ios":"levelo://app?vid=0e95c039-e344-4ef2-8ae3-2271111801b3"},"vehicle_type_id":"4","last_reported":1751631668,"current_range_meters":19600,"station_id":"","pricing_plan_id":"cebpf4jnsgd1na2vs0mg"},{"bike_id":"833d4012-1850-408d-892e-fbe658c67e46","system_id":"levelo_inurba_marseille","lat":43.31275,"lon":5.3684,"is_reserved":false,"is_disabled":false,"rental_uris":{"android":"levelo://app?vid=833d4012-1850-408d-892e-fbe658c67e46","ios":"levelo://app?vid=833d4012-1850-408d-892e-fbe658c67e46"},"vehicle_type_id":"4","last_reported":1751631668,"current_range_meters":19600,"station_id":"ce4bgl92rcd13ifvqbq0","pricing_plan_id":"cebpf4jnsgd1na2vs0mg"},{"bike_id":"2d41a2f8-6105-4ce6-a8e3-78b4ae02269f","system_id":"levelo_inurba_marseille","lat":43.29622,"lon":5.37156,"is_reserved":false,"is_disabled":false,"rental_uris":{"android":"levelo://app?vid=2d41a2f8-6105-4ce6-a8e3-78b4ae02269f","ios":"levelo://app?vid=2d41a2f8-6105-4ce6-a8e3-78b4ae02269f"},"vehicle_type_id":"4","last_reported":1751631668,"current_range_meters":19600,"station_id":"ce4bgnh2rcd13ifvqc0g","pricing_plan_id":"cebpf4jnsgd1na2vs0mg"},{"bike_id":"39a359e9-c2ba-43dc-8897-db923128eb22","system_id":"levelo_inurba_marseille","lat":43.3152,"lon":5.39087,"is_reserved":false,"is_disabled":false,"rental_uris":{"android":"levelo://app?vid=39a359e9-c2ba-43dc-8897-db923128eb22","ios":"levelo://app?vid=39a359e9-c2ba-43dc-8897-db923128eb22"},"vehicle_type_id":"4","last_reported":1751631668,"current_range_meters":19600,"station_id":"ce4bgvp2rcd13ifvqcu0","pricing_plan_id":"cebpf4jnsgd1na2vs0mg"},{"bike_id":"e6f5b10a-f2b7-44bc-88d3-8d846dc2bc1e","system_id":"levelo_inurba_marseille","lat":43.25036,"lon":5.38943,"is_reserved":false,"is_disabled":false,"rental_uris":{"android":"levelo://app?vid=e6f5b10a-f2b7-44bc-88d3-8d846dc2bc1e","ios":"levelo://app?vid=e6f5b10a-f2b7-44bc-88d3-8d846dc2bc1e"},"vehicle_type_id":"4","last_reported":1751631668,"current_range_meters":19600,"station_id":"ce4bhgp2rcd13ifvqfd0","pricing_plan_id":"cebpf4jnsgd1na2vs0mg"},{"bike_id":"11a819d7-da00-4ff0-bd44-50ffbe8d7e9c","system_id":"levelo_inurba_marseille","lat":43.23962,"lon":5.36626,"is_reserved":false,"is_disabled":false,"rental_uris":{"android":"levelo://app?vid=11a819d7-da00-4ff0-bd44-50ffbe8d7e9c","ios":"levelo://app?vid=11a819d7-da00-4ff0-bd44-50ffbe8d7e9c"},"vehicle_type_id":"4","last_reported":1751631668,"current_range_meters":19600,"station_id":"ce4bhi12rcd13ifvqfp0","pricing_plan_id":"cebpf4jnsgd1na2vs0mg"},{"bike_id":"10c9a7c7-0ad3-453f-8453-0006ffba2fec","system_id":"levelo_inurba_marseille","lat":43.21193,"lon":5.35072,"is_reserved":false,"is_disabled":false,"rental_uris":{"android":"levelo://app?vid=10c9a7c7-0ad3-453f-8453-0006ffba2fec","ios":"levelo://app?vid=10c9a7c7-0ad3-453f-8453-0006ffba2fec"},"vehicle_type_id":"4","last_reported":1751631668,"current_range_meters":19600,"station_id":"st_cvj6sg6p6f1abm77japg","pricing_plan_id":"cebpf4jnsgd1na2vs0mg"},{"bike_id":"134a6fd1-cb8b-4ade-a0c2-0b22bf7dca76","system_id":"levelo_inurba_marseille","lat":43.21191,"lon":5.35072,"is_reserved":false,"is_disabled":false,"rental_uris":{"android":"levelo://app?vid=134a6fd1-cb8b-4ade-a0c2-0b22bf7dca76","ios":"levelo://app?vid=134a6fd1-cb8b-4ade-a0c2-0b22bf7dca76"},"vehicle_type_id":"4","last_reported":1751631668,"current_range_meters":19600,"station_id":"st_cvj6sg6p6f1abm77japg","pricing_plan_id":"cebpf4jnsgd1na2vs0mg"},{"bike_id":"6bee080c-ffb3-49e2-add5-59f679327ed6","system_id":"levelo_inurba_marseille","lat":43.29811,"lon":5.38107,"is_reserved":false,"is_disabled":false,"rental_uris":{"android":"levelo://app?vid=6bee080c-ffb3-49e2-add5-59f679327ed6","ios":"levelo://app?vid=6bee080c-ffb3-49e2-add5-59f679327ed6"},"vehicle_type_id":"4","last_reported":1751631668,"current_range_meters":20000,"station_id":"ce4bgip2rcd13ifvqbb0","pricing_plan_id":"cebpf4jnsgd1na2vs0mg"},{"bike_id":"2d010dde-28b6-4b22-8515-deab65fcc05c","system_id":"levelo_inurba_marseille","lat":43.31319,"lon":5.36765,"is_reserved":false,"is_disabled":false,"rental_uris":{"android":"levelo://app?vid=2d010dde-28b6-4b22-8515-deab65fcc05c","ios":"levelo://app?vid=2d010dde-28b6-4b22-8515-deab65fcc05c"},"vehicle_type_id":"4","last_reported":1751631668,"current_range_meters":20000,"station_id":"ce4bgr92rcd13ifvqc6g","pricing_plan_id":"cebpf4jnsgd1na2vs0mg"},{"bike_id":"3ee2e7d3-c08e-45f9-8d9c-59cbe848e0ca","system_id":"levelo_inurba_marseille","lat":43.23157,"lon":5.43701,"is_reserved":false,"is_disabled":false,"rental_uris":{"android":"levelo://app?vid=3ee2e7d3-c08e-45f9-8d9c-59cbe848e0ca","ios":"levelo://app?vid=3ee2e7d3-c08e-45f9-8d9c-59cbe848e0ca"},"vehicle_type_id":"4","last_reported":1751631668,"current_range_meters":20000,"station_id":"ce4bhmp2rcd13ifvqgog","pricing_plan_id":"cebpf4jnsgd1na2vs0mg"},{"bike_id":"3b554c6b-37af-457a-95f7-dc33e005c849","system_id":"levelo_inurba_marseille","lat":43.23165,"lon":5.39976,"is_reserved":false,"is_disabled":false,"rental_uris":{"android":"levelo://app?vid=3b554c6b-37af-457a-95f7-dc33e005c849","ios":"levelo://app?vid=3b554c6b-37af-457a-95f7-dc33e005c849"},"vehicle_type_id":"4","last_reported":1751631668,"current_range_meters":20000,"station_id":"ce4bhn12rcd13ifvqgqg","pricing_plan_id":"cebpf4jnsgd1na2vs0mg"},{"bike_id":"6e26f4e1-af6b-4e02-81c4-dc9cceafebd5","system_id":"levelo_inurba_marseille","lat":43.30365,"lon":5.42493,"is_reserved":false,"is_disabled":false,"rental_uris":{"android":"levelo://app?vid=6e26f4e1-af6b-4e02-81c4-dc9cceafebd5","ios":"levelo://app?vid=6e26f4e1-af6b-4e02-81c4-dc9cceafebd5"},"vehicle_type_id":"4","last_reported":1751631668,"current_range_meters":20000,"station_id":"ce4bhoh2rcd13ifvqh6g","pricing_plan_id":"cebpf4jnsgd1na2vs0mg"},{"bike_id":"2145d376-4aba-46a1-b195-e1f6ef6f20fa","system_id":"levelo_inurba_marseille","lat":43.23065,"lon":5.35489,"is_reserved":false,"is_disabled":false,"rental_uris":{"android":"levelo://app?vid=2145d376-4aba-46a1-b195-e1f6ef6f20fa","ios":"levelo://app?vid=2145d376-4aba-46a1-b195-e1f6ef6f20fa"},"vehicle_type_id":"4","last_reported":1751631668,"current_range_meters":20000,"station_id":"cpo3342slgdg3j2ifvpg","pricing_plan_id":"cebpf4jnsgd1na2vs0mg"},{"bike_id":"4532d549-52ec-4bce-abf6-43b968a0c607","system_id":"levelo_inurba_marseille","lat":43.22934,"lon":5.35371,"is_reserved":false,"is_disabled":false,"rental_uris":{"android":"levelo://app?vid=4532d549-52ec-4bce-abf6-43b968a0c607","ios":"levelo://app?vid=4532d549-52ec-4bce-abf6-43b968a0c607"},"vehicle_type_id":"4","last_reported":1751631668,"current_range_meters":20000,"station_id":"cpo3532slgdg3j2ikp40","pricing_plan_id":"cebpf4jnsgd1na2vs0mg"},{"bike_id":"fe8ee84c-fdfc-40aa-a1c2-6e36409c0740","system_id":"levelo_inurba_marseille","lat":43.26806,"lon":5.3908,"is_reserved":false,"is_disabled":false,"rental_uris":{"android":"levelo://app?vid=fe8ee84c-fdfc-40aa-a1c2-6e36409c0740","ios":"levelo://app?vid=fe8ee84c-fdfc-40aa-a1c2-6e36409c0740"},"vehicle_type_id":"4","last_reported":1751631668,"current_range_meters":20400,"station_id":"","pricing_plan_id":"cebpf4jnsgd1na2vs0mg"},{"bike_id":"24eaca9e-c7ea-4b53-b9a2-8da3350a56a0","system_id":"levelo_inurba_marseille","lat":43.303,"lon":5.39204,"is_reserved":false,"is_disabled":false,"rental_uris":{"android":"levelo://app?vid=24eaca9e-c7ea-4b53-b9a2-8da3350a56a0","ios":"levelo://app?vid=24eaca9e-c7ea-4b53-b9a2-8da3350a56a0"},"vehicle_type_id":"4","last_reported":1751631668,"current_range_meters":20400,"station_id":"ce4bgkh2rcd13ifvqbk0","pricing_plan_id":"cebpf4jnsgd1na2vs0mg"},{"bike_id":"94a043cb-47ff-4ca6-93d7-c0fbfc1b02b6","system_id":"levelo_inurba_marseille","lat":43.32681,"lon":5.40987,"is_reserved":false,"is_disabled":false,"rental_uris":{"android":"levelo://app?vid=94a043cb-47ff-4ca6-93d7-c0fbfc1b02b6","ios":"levelo://app?vid=94a043cb-47ff-4ca6-93d7-c0fbfc1b02b6"},"vehicle_type_id":"4","last_reported":1751631668,"current_range_meters":20400,"station_id":"ce4bhpp2rcd13ifvqhgg","pricing_plan_id":"cebpf4jnsgd1na2vs0mg"},{"bike_id":"d5ef770d-9759-47e3-b3a5-7d2785ef76db","system_id":"levelo_inurba_marseille","lat":43.33024,"lon":5.39037,"is_reserved":false,"is_disabled":false,"rental_uris":{"android":"levelo://app?vid=d5ef770d-9759-47e3-b3a5-7d2785ef76db","ios":"levelo://app?vid=d5ef770d-9759-47e3-b3a5-7d2785ef76db"},"vehicle_type_id":"4","last_reported":1751631668,"current_range_meters":20400,"station_id":"ce4bhr92rcd13ifvqhrg","pricing_plan_id":"cebpf4jnsgd1na2vs0mg"},{"bike_id":"5b5ca915-19f5-4c5c-ba88-71fe4a9869eb","system_id":"levelo_inurba_marseille","lat":43.31703,"lon":5.37754,"is_reserved":false,"is_disabled":false,"rental_uris":{"android":"levelo://app?vid=5b5ca915-19f5-4c5c-ba88-71fe4a9869eb","ios":"levelo://app?vid=5b5ca915-19f5-4c5c-ba88-71fe4a9869eb"},"vehicle_type_id":"4","last_reported":1751631668,"current_range_meters":20800,"station_id":"ce4bgth2rcd13ifvqch0","pricing_plan_id":"cebpf4jnsgd1na2vs0mg"},{"bike_id":"37dd7855-df33-4a7c-a94d-359e45e18c8e","system_id":"levelo_inurba_marseille","lat":43.302199,"lon":5.394648,"is_reserved":false,"is_disabled":false,"rental_uris":{"android":"levelo://app?vid=37dd7855-df33-4a7c-a94d-359e45e18c8e","ios":"levelo://app?vid=37dd7855-df33-4a7c-a94d-359e45e18c8e"},"vehicle_type_id":"4","last_reported":1751631668,"current_range_meters":20800,"station_id":"ce4bh0p2rcd13ifvqd70","pricing_plan_id":"cebpf4jnsgd1na2vs0mg"},{"bike_id":"cad1cd7e-34ac-4400-83bd-503aa2619497","system_id":"levelo_inurba_marseille","lat":43.28479,"lon":5.35886,"is_reserved":false,"is_disabled":false,"rental_uris":{"android":"levelo://app?vid=cad1cd7e-34ac-4400-83bd-503aa2619497","ios":"levelo://app?vid=cad1cd7e-34ac-4400-83bd-503aa2619497"},"vehicle_type_id":"4","last_reported":1751631668,"current_range_meters":20800,"station_id":"ce4bhah2rcd13ifvqei0","pricing_plan_id":"cebpf4jnsgd1na2vs0mg"},{"bike_id":"40800731-0735-460d-a772-914b0e01bf74","system_id":"levelo_inurba_marseille","lat":43.28616,"lon":5.35108,"is_reserved":false,"is_disabled":false,"rental_uris":{"android":"levelo://app?vid=40800731-0735-460d-a772-914b0e01bf74","ios":"levelo://app?vid=40800731-0735-460d-a772-914b0e01bf74"},"vehicle_type_id":"4","last_reported":1751631668,"current_range_meters":20800,"station_id":"ce4bhch2rcd13ifvqeug","pricing_plan_id":"cebpf4jnsgd1na2vs0mg"},{"bike_id":"bf24b26e-7f51-4120-9a48-54c87edaa2f7","system_id":"levelo_inurba_marseille","lat":43.21191,"lon":5.3507,"is_reserved":false,"is_disabled":false,"rental_uris":{"android":"levelo://app?vid=bf24b26e-7f51-4120-9a48-54c87edaa2f7","ios":"levelo://app?vid=bf24b26e-7f51-4120-9a48-54c87edaa2f7"},"vehicle_type_id":"4","last_reported":1751631668,"current_range_meters":20800,"station_id":"st_cvj6sg6p6f1abm77japg","pricing_plan_id":"cebpf4jnsgd1na2vs0mg"},{"bike_id":"123d8b10-408d-4646-b2c1-1645daf984e5","system_id":"levelo_inurba_marseille","lat":43.29924,"lon":5.37472,"is_reserved":false,"is_disabled":false,"rental_uris":{"android":"levelo://app?vid=123d8b10-408d-4646-b2c1-1645daf984e5","ios":"levelo://app?vid=123d8b10-408d-4646-b2c1-1645daf984e5"},"vehicle_type_id":"4","last_reported":1751631668,"current_range_meters":21600,"station_id":"ce4bgjh2rcd13ifvqbg0","pricing_plan_id":"cebpf4jnsgd1na2vs0mg"},{"bike_id":"00bb43e1-47ca-408b-83f9-dcf384b705f0","system_id":"levelo_inurba_marseille","lat":43.29837,"lon":5.36289,"is_reserved":false,"is_disabled":false,"rental_uris":{"android":"levelo://app?vid=00bb43e1-47ca-408b-83f9-dcf384b705f0","ios":"levelo://app?vid=00bb43e1-47ca-408b-83f9-dcf384b705f0"},"vehicle_type_id":"4","last_reported":1751631668,"current_range_meters":21600,"station_id":"ce4bgpp2rcd13ifvqc3g","pricing_plan_id":"cebpf4jnsgd1na2vs0mg"},{"bike_id":"5de814c8-f2c3-4f5f-84fd-6ec1a99ac78a","system_id":"levelo_inurba_marseille","lat":43.31319,"lon":5.39719,"is_reserved":false,"is_disabled":false,"rental_uris":{"android":"levelo://app?vid=5de814c8-f2c3-4f5f-84fd-6ec1a99ac78a","ios":"levelo://app?vid=5de814c8-f2c3-4f5f-84fd-6ec1a99ac78a"},"vehicle_type_id":"4","last_reported":1751631668,"current_range_meters":21600,"station_id":"ce4bgvp2rcd13ifvqcu0","pricing_plan_id":"cebpf4jnsgd1na2vs0mg"},{"bike_id":"1fb98010-9169-4dc7-b4ae-2a05d9515df3","system_id":"levelo_inurba_marseille","lat":43.3133,"lon":5.39693,"is_reserved":false,"is_disabled":false,"rental_uris":{"android":"levelo://app?vid=1fb98010-9169-4dc7-b4ae-2a05d9515df3","ios":"levelo://app?vid=1fb98010-9169-4dc7-b4ae-2a05d9515df3"},"vehicle_type_id":"4","last_reported":1751631668,"current_range_meters":21600,"station_id":"ce4bgvp2rcd13ifvqcu0","pricing_plan_id":"cebpf4jnsgd1na2vs0mg"},{"bike_id":"f08e7ff3-32fc-413b-af56-da1387f68245","system_id":"levelo_inurba_marseille","lat":43.27323,"lon":5.39089,"is_reserved":false,"is_disabled":false,"rental_uris":{"android":"levelo://app?vid=f08e7ff3-32fc-413b-af56-da1387f68245","ios":"levelo://app?vid=f08e7ff3-32fc-413b-af56-da1387f68245"},"vehicle_type_id":"4","last_reported":1751631668,"current_range_meters":21600,"station_id":"ce4bhgp2rcd13ifvqfe0","pricing_plan_id":"cebpf4jnsgd1na2vs0mg"},{"bike_id":"7ba3ec82-6b79-4512-b86e-8577bbfed6af","system_id":"levelo_inurba_marseille","lat":43.27069,"lon":5.42269,"is_reserved":false,"is_disabled":false,"rental_uris":{"android":"levelo://app?vid=7ba3ec82-6b79-4512-b86e-8577bbfed6af","ios":"levelo://app?vid=7ba3ec82-6b79-4512-b86e-8577bbfed6af"},"vehicle_type_id":"4","last_reported":1751631668,"current_range_meters":21600,"station_id":"ce4bhk92rcd13ifvqgb0","pricing_plan_id":"cebpf4jnsgd1na2vs0mg"},{"bike_id":"4d2c5f6a-380d-43fc-b259-d1f683bd5b74","system_id":"levelo_inurba_marseille","lat":43.25704,"lon":5.41034,"is_reserved":false,"is_disabled":false,"rental_uris":{"android":"levelo://app?vid=4d2c5f6a-380d-43fc-b259-d1f683bd5b74","ios":"levelo://app?vid=4d2c5f6a-380d-43fc-b259-d1f683bd5b74"},"vehicle_type_id":"4","last_reported":1751631668,"current_range_meters":21600,"station_id":"ce4bhkp2rcd13ifvqgd0","pricing_plan_id":"cebpf4jnsgd1na2vs0mg"},{"bike_id":"2797542c-ed39-4cf4-bc29-03351c5e2e23","system_id":"levelo_inurba_marseille","lat":43.30431,"lon":5.4129,"is_reserved":false,"is_disabled":false,"rental_uris":{"android":"levelo://app?vid=2797542c-ed39-4cf4-bc29-03351c5e2e23","ios":"levelo://app?vid=2797542c-ed39-4cf4-bc29-03351c5e2e23"},"vehicle_type_id":"4","last_reported":1751631668,"current_range_meters":21600,"station_id":"ce4bhop2rcd13ifvqh8g","pricing_plan_id":"cebpf4jnsgd1na2vs0mg"},{"bike_id":"f74c341b-91f7-481c-bdbc-6009277bc569","system_id":"levelo_inurba_marseille","lat":43.30902,"lon":5.36843,"is_reserved":false,"is_disabled":false,"rental_uris":{"android":"levelo://app?vid=f74c341b-91f7-481c-bdbc-6009277bc569","ios":"levelo://app?vid=f74c341b-91f7-481c-bdbc-6009277bc569"},"vehicle_type_id":"4","last_reported":1751631668,"current_range_meters":22000,"station_id":"ce4bgn92rcd13ifvqbvg","pricing_plan_id":"cebpf4jnsgd1na2vs0mg"},{"bike_id":"2ef0bdb2-0cde-4157-b232-26682ea70e4d","system_id":"levelo_inurba_marseille","lat":43.29805,"lon":5.40405,"is_reserved":false,"is_disabled":false,"rental_uris":{"android":"levelo://app?vid=2ef0bdb2-0cde-4157-b232-26682ea70e4d","ios":"levelo://app?vid=2ef0bdb2-0cde-4157-b232-26682ea70e4d"},"vehicle_type_id":"4","last_reported":1751631668,"current_range_meters":22000,"station_id":"ce4bh112rcd13ifvqd90","pricing_plan_id":"cebpf4jnsgd1na2vs0mg"},{"bike_id":"f37760c6-ab8b-450e-9ddc-f3de596404e2","system_id":"levelo_inurba_marseille","lat":43.290224,"lon":5.375486,"is_reserved":false,"is_disabled":false,"rental_uris":{"android":"levelo://app?vid=f37760c6-ab8b-450e-9ddc-f3de596404e2","ios":"levelo://app?vid=f37760c6-ab8b-450e-9ddc-f3de596404e2"},"vehicle_type_id":"4","last_reported":1751631668,"current_range_meters":22400,"station_id":"","pricing_plan_id":"cebpf4jnsgd1na2vs0mg"},{"bike_id":"65a0f8b1-c36b-4622-840a-d67a5f544e53","system_id":"levelo_inurba_marseille","lat":43.29295,"lon":5.37459,"is_reserved":false,"is_disabled":false,"rental_uris":{"android":"levelo://app?vid=65a0f8b1-c36b-4622-840a-d67a5f544e53","ios":"levelo://app?vid=65a0f8b1-c36b-4622-840a-d67a5f544e53"},"vehicle_type_id":"4","last_reported":1751631668,"current_range_meters":22400,"station_id":"ce4bgi12rcd13ifvqb70","pricing_plan_id":"cebpf4jnsgd1na2vs0mg"},{"bike_id":"8454cca7-efdb-4550-b4b4-9dd500e51277","system_id":"levelo_inurba_marseille","lat":43.27377,"lon":5.36257,"is_reserved":false,"is_disabled":false,"rental_uris":{"android":"levelo://app?vid=8454cca7-efdb-4550-b4b4-9dd500e51277","ios":"levelo://app?vid=8454cca7-efdb-4550-b4b4-9dd500e51277"},"vehicle_type_id":"4","last_reported":1751631668,"current_range_meters":22400,"station_id":"ce4bhbh2rcd13ifvqeo0","pricing_plan_id":"cebpf4jnsgd1na2vs0mg"},{"bike_id":"b817c306-83ec-4778-94ff-f1ff2c42e213","system_id":"levelo_inurba_marseille","lat":43.27967,"lon":5.38732,"is_reserved":false,"is_disabled":false,"rental_uris":{"android":"levelo://app?vid=b817c306-83ec-4778-94ff-f1ff2c42e213","ios":"levelo://app?vid=b817c306-83ec-4778-94ff-f1ff2c42e213"},"vehicle_type_id":"4","last_reported":1751631668,"current_range_meters":22400,"station_id":"ce4bhg12rcd13ifvqf80","pricing_plan_id":"cebpf4jnsgd1na2vs0mg"},{"bike_id":"1367b236-83b4-426b-8c66-952219f81802","system_id":"levelo_inurba_marseille","lat":43.250059,"lon":5.389281,"is_reserved":false,"is_disabled":false,"rental_uris":{"android":"levelo://app?vid=1367b236-83b4-426b-8c66-952219f81802","ios":"levelo://app?vid=1367b236-83b4-426b-8c66-952219f81802"},"vehicle_type_id":"4","last_reported":1751631668,"current_range_meters":22400,"station_id":"ce4bhgp2rcd13ifvqfd0","pricing_plan_id":"cebpf4jnsgd1na2vs0mg"},{"bike_id":"ec58c190-3e71-4eeb-a8f1-7777390a9cff","system_id":"levelo_inurba_marseille","lat":43.26486,"lon":5.39554,"is_reserved":false,"is_disabled":false,"rental_uris":{"android":"levelo://app?vid=ec58c190-3e71-4eeb-a8f1-7777390a9cff","ios":"levelo://app?vid=ec58c190-3e71-4eeb-a8f1-7777390a9cff"},"vehicle_type_id":"4","last_reported":1751631668,"current_range_meters":22400,"station_id":"ce4bhi12rcd13ifvqfq0","pricing_plan_id":"cebpf4jnsgd1na2vs0mg"},{"bike_id":"93cc788d-a043-4a7b-80af-f5984b92a432","system_id":"levelo_inurba_marseille","lat":43.25727,"lon":5.41106,"is_reserved":false,"is_disabled":false,"rental_uris":{"android":"levelo://app?vid=93cc788d-a043-4a7b-80af-f5984b92a432","ios":"levelo://app?vid=93cc788d-a043-4a7b-80af-f5984b92a432"},"vehicle_type_id":"4","last_reported":1751631668,"current_range_meters":22400,"station_id":"ce4bhkp2rcd13ifvqgd0","pricing_plan_id":"cebpf4jnsgd1na2vs0mg"},{"bike_id":"b67e3de7-3a98-48a8-ada1-6072073e6e54","system_id":"levelo_inurba_marseille","lat":43.23064,"lon":5.35521,"is_reserved":false,"is_disabled":false,"rental_uris":{"android":"levelo://app?vid=b67e3de7-3a98-48a8-ada1-6072073e6e54","ios":"levelo://app?vid=b67e3de7-3a98-48a8-ada1-6072073e6e54"},"vehicle_type_id":"4","last_reported":1751631668,"current_range_meters":22400,"station_id":"cpo3342slgdg3j2ifvpg","pricing_plan_id":"cebpf4jnsgd1na2vs0mg"},{"bike_id":"208f3ca8-5ae1-4afa-bf93-2fb945fa389b","system_id":"levelo_inurba_marseille","lat":43.23056,"lon":5.35509,"is_reserved":false,"is_disabled":false,"rental_uris":{"android":"levelo://app?vid=208f3ca8-5ae1-4afa-bf93-2fb945fa389b","ios":"levelo://app?vid=208f3ca8-5ae1-4afa-bf93-2fb945fa389b"},"vehicle_type_id":"4","last_reported":1751631668,"current_range_meters":22400,"station_id":"cpo3342slgdg3j2ifvpg","pricing_plan_id":"cebpf4jnsgd1na2vs0mg"},{"bike_id":"88bddb80-d2b1-403a-8e6b-138dca9d82e4","system_id":"levelo_inurba_marseille","lat":43.24171,"lon":5.36399,"is_reserved":false,"is_disabled":false,"rental_uris":{"android":"levelo://app?vid=88bddb80-d2b1-403a-8e6b-138dca9d82e4","ios":"levelo://app?vid=88bddb80-d2b1-403a-8e6b-138dca9d82e4"},"vehicle_type_id":"4","last_reported":1751631668,"current_range_meters":22400,"station_id":"cpo36qri1sfpv3e86is0","pricing_plan_id":"cebpf4jnsgd1na2vs0mg"},{"bike_id":"e449aa29-cae1-4432-9aec-dedc13360b20","system_id":"levelo_inurba_marseille","lat":43.211932,"lon":5.350668,"is_reserved":false,"is_disabled":false,"rental_uris":{"android":"levelo://app?vid=e449aa29-cae1-4432-9aec-dedc13360b20","ios":"levelo://app?vid=e449aa29-cae1-4432-9aec-dedc13360b20"},"vehicle_type_id":"4","last_reported":1751631668,"current_range_meters":22400,"station_id":"st_cvj6sg6p6f1abm77japg","pricing_plan_id":"cebpf4jnsgd1na2vs0mg"},{"bike_id":"53afc114-f6a0-4b55-8756-09c4a2696a31","system_id":"levelo_inurba_marseille","lat":43.29623,"lon":5.37751,"is_reserved":false,"is_disabled":false,"rental_uris":{"android":"levelo://app?vid=53afc114-f6a0-4b55-8756-09c4a2696a31","ios":"levelo://app?vid=53afc114-f6a0-4b55-8756-09c4a2696a31"},"vehicle_type_id":"4","last_reported":1751631668,"current_range_meters":22800,"station_id":"ce4bgi92rcd13ifvqb90","pricing_plan_id":"cebpf4jnsgd1na2vs0mg"},{"bike_id":"c10afbda-9fbc-4c6e-9e5e-f6ec22469682","system_id":"levelo_inurba_marseille","lat":43.29842,"lon":5.36292,"is_reserved":false,"is_disabled":false,"rental_uris":{"android":"levelo://app?vid=c10afbda-9fbc-4c6e-9e5e-f6ec22469682","ios":"levelo://app?vid=c10afbda-9fbc-4c6e-9e5e-f6ec22469682"},"vehicle_type_id":"4","last_reported":1751631668,"current_range_meters":22800,"station_id":"ce4bgpp2rcd13ifvqc3g","pricing_plan_id":"cebpf4jnsgd1na2vs0mg"},{"bike_id":"3d0f29e5-1fd2-44c3-adf8-8c0f9f627c3b","system_id":"levelo_inurba_marseille","lat":43.30521,"lon":5.36713,"is_reserved":false,"is_disabled":false,"rental_uris":{"android":"levelo://app?vid=3d0f29e5-1fd2-44c3-adf8-8c0f9f627c3b","ios":"levelo://app?vid=3d0f29e5-1fd2-44c3-adf8-8c0f9f627c3b"},"vehicle_type_id":"4","last_reported":1751631668,"current_range_meters":22800,"station_id":"ce4bgrp2rcd13ifvqc9g","pricing_plan_id":"cebpf4jnsgd1na2vs0mg"},{"bike_id":"0addb263-c1d7-48ad-b9c5-1e07f20b9d25","system_id":"levelo_inurba_marseille","lat":43.307804,"lon":5.376562,"is_reserved":false,"is_disabled":false,"rental_uris":{"android":"levelo://app?vid=0addb263-c1d7-48ad-b9c5-1e07f20b9d25","ios":"levelo://app?vid=0addb263-c1d7-48ad-b9c5-1e07f20b9d25"},"vehicle_type_id":"4","last_reported":1751631668,"current_range_meters":22800,"station_id":"ce4bgv92rcd13ifvqcq0","pricing_plan_id":"cebpf4jnsgd1na2vs0mg"},{"bike_id":"7a982901-0bf0-4159-938c-67fc93a24e1f","system_id":"levelo_inurba_marseille","lat":43.26212,"lon":5.37423,"is_reserved":false,"is_disabled":false,"rental_uris":{"android":"levelo://app?vid=7a982901-0bf0-4159-938c-67fc93a24e1f","ios":"levelo://app?vid=7a982901-0bf0-4159-938c-67fc93a24e1f"},