{"last_updated":1687619215,"ttl":30,"version":"2.2","data":{"bikes":[{"bike_id":"33f4bd82-e015-4c75-838b-b8ca97b28ad6","system_id":"levelo_inurba_marseille","lat":43.31341,"lon":5.367098,"is_reserved":false,"is_disabled":false,"rental_uris":{"android":"levelo://app?vid=33f4bd82-e015-4c75-838b-b8ca97b28ad6","ios":"levelo://app?vid=33f4bd82-e015-4c75-838b-b8ca97b28ad6"},"vehicle_type_id":"4","last_reported":1687619216,"current_range_meters":27600,"station_id":"ce4bgr92rcd13ifvqc6g","pricing_plan_id":"free"},{"bike_id":"e0533316-dd1b-4187-944d-40456902eb3e","system_id":"levelo_inurba_marseille","lat":43.31341,"lon":5.367098,"is_reserved":false,"is_disabled":false,"rental_uris":{"android":"levelo://app?vid=e0533316-dd1b-4187-944d-40456902eb3e","ios":"levelo://app?vid=e0533316-dd1b-4187-944d-40456902eb3e"},"vehicle_type_id":"4","last_reported":1687619216,"current_range_meters":32000,"station_id":"ce4bgr92rcd13ifvqc6g","pricing_plan_id":"free"},{"bike_id":"789a5324-f028-46a3-8f18-3e8617fc08a3","system_id":"levelo_inurba_marseille","lat":43.31341,"lon":5.367098,"is_reserved":false,"is_disabled":false,"rental_uris":{"android":"levelo://app?vid=789a5324-f028-46a3-8f18-3e8617fc08a3","ios":"levelo://app?vid=789a5324-f028-46a3-8f18-3e8617fc08a3"},"vehicle_type_id":"4","last_reported":1687619216,"current_range_meters":26400,"station_id":"ce4bgr92rcd13ifvqc6g","pricing_plan_id":"free"},{"bike_id":"613b79af-2bf5-4727-98f7-6085624b44ee","system_id":"levelo_inurba_marseille","lat":43.312239,"lon":5.368562,"is_reserved":false,"is_disabled":false,"rental_uris":{"android":"levelo://app?vid=613b79af-2bf5-4727-98f7-6085624b44ee","ios":"levelo://app?vid=613b79af-2bf5-4727-98f7-6085624b44ee"},"vehicle_type_id":"4","last_reported":1687619216,"current_range_meters":28000,"station_id":"ce4bgl92rcd13ifvqbq0","pricing_plan_id":"free"},{"bike_id":"fd4cdb32-6017-4d91-81c4-c3cb8f9246e2","system_id":"levelo_inurba_marseille","lat":43.312239,"lon":5.368562,"is_reserved":false,"is_disabled":false,"rental_uris":{"android":"levelo://app?vid=fd4cdb32-6017-4d91-81c4-c3cb8f9246e2","ios":"levelo://app?vid=fd4cdb32-6017-4d91-81c4-c3cb8f9246e2"},"vehicle_type_id":"4","last_reported":1687619216,"current_range_meters":30400,"station_id":"ce4bgl92rcd13ifvqbq0","pricing_plan_id":"free"},{"bike_id":"5237be08-e2c0-4f6a-9dbd-c88f04f8c505","system_id":"levelo_inurba_marseille","lat":43.31222,"lon":5.36862,"is_reserved":false,"is_disabled":false,"rental_uris":{"android":"levelo://app?vid=5237be08-e2c0-4f6a-9dbd-c88f04f8c505","ios":"levelo://app?vid=5237be08-e2c0-4f6a-9dbd-c88f04f8c505"},"vehicle_type_id":"4","last_reported":1687619216,"current_range_meters":31200,"station_id":"ce4bgl92rcd13ifvqbq0","pricing_plan_id":"free"},{"bike_id":"574b0a1c-fec8-48b0-8d9f-4fee07673be3","system_id":"levelo_inurba_marseille","lat":43.31237,"lon":5.36922,"is_reserved":false,"is_disabled":false,"rental_uris":{"android":"levelo://app?vid=574b0a1c-fec8-48b0-8d9f-4fee07673be3","ios":"levelo://app?vid=574b0a1c-fec8-48b0-8d9f-4fee07673be3"},"vehicle_type_id":"4","last_reported":1687619216,"current_range_meters":23600,"station_id":"","pricing_plan_id":"free"},{"bike_id":"95faaf57-1900-4437-8914-481a0890ba79","system_id":"levelo_inurba_marseille","lat":43.30911,"lon":5.36853,"is_reserved":false,"is_disabled":false,"rental_uris":{"android":"levelo://app?vid=95faaf57-1900-4437-8914-481a0890ba79","ios":"levelo://app?vid=95faaf57-1900-4437-8914-481a0890ba79"},"vehicle_type_id":"4","last_reported":1687619216,"current_range_meters":18000,"station_id":"ce4bgn92rcd13ifvqbvg","pricing_plan_id":"free"},{"bike_id":"7ca1729d-0d97-4dc2-9d96-9f162439fc46","system_id":"levelo_inurba_marseille","lat":43.309076,"lon":5.368465,"is_reserved":false,"is_disabled":false,"rental_uris":{"android":"levelo://app?vid=7ca1729d-0d97-4dc2-9d96-9f162439fc46","ios":"levelo://app?vid=7ca1729d-0d97-4dc2-9d96-9f162439fc46"},"vehicle_type_id":"4","last_reported":1687619216,"current_range_meters":31600,"station_id":"ce4bgn92rcd13ifvqbvg","pricing_plan_id":"free"},{"bike_id":"684bd6d9-196f-4b76-9de9-033668a0727b","system_id":"levelo_inurba_marseille","lat":43.314811,"lon":5.373103,"is_reserved":false,"is_disabled":false,"rental_uris":{"android":"levelo://app?vid=684bd6d9-196f-4b76-9de9-033668a0727b","ios":"levelo://app?vid=684bd6d9-196f-4b76-9de9-033668a0727b"},"vehicle_type_id":"4","last_reported":1687619216,"current_range_meters":31600,"station_id":"ce4bgt12rcd13ifvqcd0","pricing_plan_id":"free"},{"bike_id":"cb8150d0-c207-4f5d-932b-b83930ad6d25","system_id":"levelo_inurba_marseille","lat":43.314811,"lon":5.373104,"is_reserved":false,"is_disabled":false,"rental_uris":{"android":"levelo://app?vid=cb8150d0-c207-4f5d-932b-b83930ad6d25","ios":"levelo://app?vid=cb8150d0-c207-4f5d-932b-b83930ad6d25"},"vehicle_type_id":"4","last_reported":1687619216,"current_range_meters":9200,"station_id":"ce4bgt12rcd13ifvqcd0","pricing_plan_id":"free"},{"bike_id":"afdc0de7-66e9-4127-acf8-6556e0569fa9","system_id":"levelo_inurba_marseille","lat":43.305368,"lon":5.367343,"is_reserved":false,"is_disabled":false,"rental_uris":{"android":"levelo://app?vid=afdc0de7-66e9-4127-acf8-6556e0569fa9","ios":"levelo://app?vid=afdc0de7-66e9-4127-acf8-6556e0569fa9"},"vehicle_type_id":"4","last_reported":1687619216,"current_range_meters":16400,"station_id":"ce4bgrp2rcd13ifvqc9g","pricing_plan_id":"free"},{"bike_id":"5f88c110-92ad-4e73-9ad7-6ab3f593d937","system_id":"levelo_inurba_marseille","lat":43.305714,"lon":5.365633,"is_reserved":false,"is_disabled":false,"rental_uris":{"android":"levelo://app?vid=5f88c110-92ad-4e73-9ad7-6ab3f593d937","ios":"levelo://app?vid=5f88c110-92ad-4e73-9ad7-6ab3f593d937"},"vehicle_type_id":"4","last_reported":1687619216,"current_range_meters":0,"station_id":"ce4bgs12rcd13ifvqcag","pricing_plan_id":"free"},{"bike_id":"b8500519-5121-400a-87b4-af5c40ed0bb4","system_id":"levelo_inurba_marseille","lat":43.30506,"lon":5.36704,"is_reserved":false,"is_disabled":false,"rental_uris":{"android":"levelo://app?vid=b8500519-5121-400a-87b4-af5c40ed0bb4","ios":"levelo://app?vid=b8500519-5121-400a-87b4-af5c40ed0bb4"},"vehicle_type_id":"4","last_reported":1687619216,"current_range_meters":16400,"station_id":"","pricing_plan_id":"free"},{"bike_id":"1eb1adf3-2bc0-42e1-b06b-69dd09a147c7","system_id":"levelo_inurba_marseille","lat":43.30611,"lon":5.3723,"is_reserved":false,"is_disabled":false,"rental_uris":{"android":"levelo://app?vid=1eb1adf3-2bc0-42e1-b06b-69dd09a147c7","ios":"levelo://app?vid=1eb1adf3-2bc0-42e1-b06b-69dd09a147c7"},"vehicle_type_id":"4","last_reported":1687619216,"current_range_meters":2400,"station_id":"ce4bgqh2rcd13ifvqc4g","pricing_plan_id":"free"},{"bike_id":"8383c295-711d-4c1f-8ce4-4ec4823441d3","system_id":"levelo_inurba_marseille","lat":43.305989,"lon":5.37225,"is_reserved":false,"is_disabled":false,"rental_uris":{"android":"levelo://app?vid=8383c295-711d-4c1f-8ce4-4ec4823441d3","ios":"levelo://app?vid=8383c295-711d-4c1f-8ce4-4ec4823441d3"},"vehicle_type_id":"4","last_reported":1687619216,"current_range_meters":4000,"station_id":"ce4bgqh2rcd13ifvqc4g","pricing_plan_id":"free"},{"bike_id":"8b39a541-41ff-481a-a9f6-93a45502f68e","system_id":"levelo_inurba_marseille","lat":43.317075,"lon":5.377367,"is_reserved":false,"is_disabled":false,"rental_uris":{"android":"levelo://app?vid=8b39a541-41ff-481a-a9f6-93a45502f68e","ios":"levelo://app?vid=8b39a541-41ff-481a-a9f6-93a45502f68e"},"vehicle_type_id":"4","last_reported":1687619216,"current_range_meters":10400,"station_id":"ce4bgth2rcd13ifvqch0","pricing_plan_id":"free"},{"bike_id":"91ad23c8-4029-4687-8d9e-957782f14337","system_id":"levelo_inurba_marseille","lat":43.31536,"lon":5.38043,"is_reserved":false,"is_disabled":false,"rental_uris":{"android":"levelo://app?vid=91ad23c8-4029-4687-8d9e-957782f14337","ios":"levelo://app?vid=91ad23c8-4029-4687-8d9e-957782f14337"},"vehicle_type_id":"4","last_reported":1687619216,"current_range_meters":30000,"station_id":"ce4bhsp2rcd13ifvqi50","pricing_plan_id":"free"},{"bike_id":"1c3f69b1-6421-40f9-b29f-a622cad1f4f4","system_id":"levelo_inurba_marseille","lat":43.315261,"lon":5.380529,"is_reserved":false,"is_disabled":false,"rental_uris":{"android":"levelo://app?vid=1c3f69b1-6421-40f9-b29f-a622cad1f4f4","ios":"levelo://app?vid=1c3f69b1-6421-40f9-b29f-a622cad1f4f4"},"vehicle_type_id":"4","last_reported":1687619216,"current_range_meters":28400,"station_id":"","pricing_plan_id":"free"},{"bike_id":"f024ea82-3354-43d3-be2c-9286bbb1369b","system_id":"levelo_inurba_marseille","lat":43.32,"lon":5.38152,"is_reserved":false,"is_disabled":false,"rental_uris":{"android":"levelo://app?vid=f024ea82-3354-43d3-be2c-9286bbb1369b","ios":"levelo://app?vid=f024ea82-3354-43d3-be2c-9286bbb1369b"},"vehicle_type_id":"4","last_reported":1687619216,"current_range_meters":20800,"station_id":"ce4bhr12rcd13ifvqhpg","pricing_plan_id":"free"},{"bike_id":"4fe29d76-4f01-4fe3-b76d-2425def84abb","system_id":"levelo_inurba_marseille","lat":43.31996,"lon":5.38162,"is_reserved":false,"is_disabled":false,"rental_uris":{"android":"levelo://app?vid=4fe29d76-4f01-4fe3-b76d-2425def84abb","ios":"levelo://app?vid=4fe29d76-4f01-4fe3-b76d-2425def84abb"},"vehicle_type_id":"4","last_reported":1687619216,"current_range_meters":11200,"station_id":"ce4bhr12rcd13ifvqhpg","pricing_plan_id":"free"},{"bike_id":"540a8da6-c70f-4f12-8f60-9b949762b08d","system_id":"levelo_inurba_marseille","lat":43.299222,"lon":5.365554,"is_reserved":false,"is_disabled":false,"rental_uris":{"android":"levelo://app?vid=540a8da6-c70f-4f12-8f60-9b949762b08d","ios":"levelo://app?vid=540a8da6-c70f-4f12-8f60-9b949762b08d"},"vehicle_type_id":"4","last_reported":1687619216,"current_range_meters":22800,"station_id":"ce4bgm92rcd13ifvqbr0","pricing_plan_id":"free"},{"bike_id":"d904d253-ddc4-4ffc-88f4-ce7bb8d901ee","system_id":"levelo_inurba_marseille","lat":43.299222,"lon":5.365554,"is_reserved":false,"is_disabled":false,"rental_uris":{"android":"levelo://app?vid=d904d253-ddc4-4ffc-88f4-ce7bb8d901ee","ios":"levelo://app?vid=d904d253-ddc4-4ffc-88f4-ce7bb8d901ee"},"vehicle_type_id":"4","last_reported":1687619216,"current_range_meters":22000,"station_id":"ce4bgm92rcd13ifvqbr0","pricing_plan_id":"free"},{"bike_id":"2ccac1be-3436-4dd5-9afe-0eac3b20452d","system_id":"levelo_inurba_marseille","lat":43.299222,"lon":5.365554,"is_reserved":false,"is_disabled":false,"rental_uris":{"android":"levelo://app?vid=2ccac1be-3436-4dd5-9afe-0eac3b20452d","ios":"levelo://app?vid=2ccac1be-3436-4dd5-9afe-0eac3b20452d"},"vehicle_type_id":"4","last_reported":1687619216,"current_range_meters":4400,"station_id":"ce4bgm92rcd13ifvqbr0","pricing_plan_id":"free"},{"bike_id":"feb81b57-11af-4c37-8e8c-09a39eef0dc8","system_id":"levelo_inurba_marseille","lat":43.311722,"lon":5.387247,"is_reserved":false,"is_disabled":false,"rental_uris":{"android":"levelo://app?vid=feb81b57-11af-4c37-8e8c-09a39eef0dc8","ios":"levelo://app?vid=feb81b57-11af-4c37-8e8c-09a39eef0dc8"},"vehicle_type_id":"4","last_reported":1687619216,"current_range_meters":5200,"station_id":"ce4bgv12rcd13ifvqcp0","pricing_plan_id":"free"},{"bike_id":"1580a472-182f-4d91-8a6c-4c3a23a9c034","system_id":"levelo_inurba_marseille","lat":43.302,"lon":5.3821,"is_reserved":false,"is_disabled":false,"rental_uris":{"android":"levelo://app?vid=1580a472-182f-4d91-8a6c-4c3a23a9c034","ios":"levelo://app?vid=1580a472-182f-4d91-8a6c-4c3a23a9c034"},"vehicle_type_id":"4","last_reported":1687619216,"current_range_meters":17200,"station_id":"","pricing_plan_id":"free"},{"bike_id":"dd41ba81-9716-41ad-bf2f-fd5f1f31dcaa","system_id":"levelo_inurba_marseille","lat":43.328371,"lon":5.366909,"is_reserved":false,"is_disabled":false,"rental_uris":{"android":"levelo://app?vid=dd41ba81-9716-41ad-bf2f-fd5f1f31dcaa","ios":"levelo://app?vid=dd41ba81-9716-41ad-bf2f-fd5f1f31dcaa"},"vehicle_type_id":"4","last_reported":1687619216,"current_range_meters":27200,"station_id":"ce4bhs92rcd13ifvqi0g","pricing_plan_id":"free"},{"bike_id":"cbdd73a9-8831-4dab-9e8d-2ce4e630f6d2","system_id":"levelo_inurba_marseille","lat":43.328371,"lon":5.366909,"is_reserved":false,"is_disabled":false,"rental_uris":{"android":"levelo://app?vid=cbdd73a9-8831-4dab-9e8d-2ce4e630f6d2","ios":"levelo://app?vid=cbdd73a9-8831-4dab-9e8d-2ce4e630f6d2"},"vehicle_type_id":"4","last_reported":1687619216,"current_range_meters":30400,"station_id":"ce4bhs92rcd13ifvqi0g","pricing_plan_id":"free"},{"bike_id":"f0c49d04-749f-4a18-8823-5f643fcb68d5","system_id":"levelo_inurba_marseille","lat":43.328371,"lon":5.366909,"is_reserved":false,"is_disabled":false,"rental_uris":{"android":"levelo://app?vid=f0c49d04-749f-4a18-8823-5f643fcb68d5","ios":"levelo://app?vid=f0c49d04-749f-4a18-8823-5f643fcb68d5"},"vehicle_type_id":"4","last_reported":1687619216,"current_range_meters":30400,"station_id":"ce4bhs92rcd13ifvqi0g","pricing_plan_id":"free"},{"bike_id":"fa80e9cd-f31a-45d0-9ce7-3d96d492f473","system_id":"levelo_inurba_marseille","lat":43.328371,"lon":5.366909,"is_reserved":false,"is_disabled":false,"rental_uris":{"android":"levelo://app?vid=fa80e9cd-f31a-45d0-9ce7-3d96d492f473","ios":"levelo://app?vid=fa80e9cd-f31a-45d0-9ce7-3d96d492f473"},"vehicle_type_id":"4","last_reported":1687619216,"current_range_meters":17200,"station_id":"ce4bhs92rcd13ifvqi0g","pricing_plan_id":"free"},{"bike_id":"71b82654-0273-4fed-8984-b6afc9798558","system_id":"levelo_inurba_marseille","lat":43.297163,"lon":5.365866,"is_reserved":false,"is_disabled":false,"rental_uris":{"android":"levelo://app?vid=71b82654-0273-4fed-8984-b6afc9798558","ios":"levelo://app?vid=71b82654-0273-4fed-8984-b6afc9798558"},"vehicle_type_id":"4","last_reported":1687619216,"current_range_meters":400,"station_id":"ce4bgn12rcd13ifvqbt0","pricing_plan_id":"free"},{"bike_id":"d6aa4b8f-0fbd-492f-a726-f1b64033634e","system_id":"levelo_inurba_marseille","lat":43.29698,"lon":5.36413,"is_reserved":false,"is_disabled":false,"rental_uris":{"android":"levelo://app?vid=d6aa4b8f-0fbd-492f-a726-f1b64033634e","ios":"levelo://app?vid=d6aa4b8f-0fbd-492f-a726-f1b64033634e"},"vehicle_type_id":"4","last_reported":1687619216,"current_range_meters":6000,"station_id":"","pricing_plan_id":"free"},{"bike_id":"4bcf0ccc-557c-41ef-8559-1fb61e5593fe","system_id":"levelo_inurba_marseille","lat":43.29626,"lon":5.37212,"is_reserved":false,"is_disabled":false,"rental_uris":{"android":"levelo://app?vid=4bcf0ccc-557c-41ef-8559-1fb61e5593fe","ios":"levelo://app?vid=4bcf0ccc-557c-41ef-8559-1fb61e5593fe"},"vehicle_type_id":"4","last_reported":1687619216,"current_range_meters":31200,"station_id":"","pricing_plan_id":"free"},{"bike_id":"0136f943-34a4-4250-ac3a-79108174999f","system_id":"levelo_inurba_marseille","lat":43.296921,"lon":5.376579,"is_reserved":false,"is_disabled":false,"rental_uris":{"android":"levelo://app?vid=0136f943-34a4-4250-ac3a-79108174999f","ios":"levelo://app?vid=0136f943-34a4-4250-ac3a-79108174999f"},"vehicle_type_id":"4","last_reported":1687619216,"current_range_meters":0,"station_id":"ce4bgkh2rcd13ifvqbl0","pricing_plan_id":"free"},{"bike_id":"041bc147-ef2f-419b-bb81-deca3bdf89e2","system_id":"levelo_inurba_marseille","lat":43.29611,"lon":5.36046,"is_reserved":false,"is_disabled":false,"rental_uris":{"android":"levelo://app?vid=041bc147-ef2f-419b-bb81-deca3bdf89e2","ios":"levelo://app?vid=041bc147-ef2f-419b-bb81-deca3bdf89e2"},"vehicle_type_id":"4","last_reported":1687619216,"current_range_meters":6400,"station_id":"","pricing_plan_id":"free"},{"bike_id":"ea8242dd-7d18-4b76-9025-fb685283847a","system_id":"levelo_inurba_marseille","lat":43.309589,"lon":5.390258,"is_reserved":false,"is_disabled":false,"rental_uris":{"android":"levelo://app?vid=ea8242dd-7d18-4b76-9025-fb685283847a","ios":"levelo://app?vid=ea8242dd-7d18-4b76-9025-fb685283847a"},"vehicle_type_id":"4","last_reported":1687619216,"current_range_meters":12400,"station_id":"ce4bgup2rcd13ifvqco0","pricing_plan_id":"free"},{"bike_id":"ac339c84-0220-40d2-a141-5cd8f9cedb6c","system_id":"levelo_inurba_marseille","lat":43.317557,"lon":5.390173,"is_reserved":false,"is_disabled":false,"rental_uris":{"android":"levelo://app?vid=ac339c84-0220-40d2-a141-5cd8f9cedb6c","ios":"levelo://app?vid=ac339c84-0220-40d2-a141-5cd8f9cedb6c"},"vehicle_type_id":"4","last_reported":1687619216,"current_range_meters":31600,"station_id":"ce4bhqp2rcd13ifvqhng","pricing_plan_id":"free"},{"bike_id":"520c7a71-37ba-45ea-93d9-a928ec928647","system_id":"levelo_inurba_marseille","lat":43.317557,"lon":5.390173,"is_reserved":false,"is_disabled":false,"rental_uris":{"android":"levelo://app?vid=520c7a71-37ba-45ea-93d9-a928ec928647","ios":"levelo://app?vid=520c7a71-37ba-45ea-93d9-a928ec928647"},"vehicle_type_id":"4","last_reported":1687619216,"current_range_meters":30400,"station_id":"ce4bhqp2rcd13ifvqhng","pricing_plan_id":"free"},{"bike_id":"2be5eeaa-d0d4-4dd9-b47b-204aa60e23b7","system_id":"levelo_inurba_marseille","lat":43.317557,"lon":5.390173,"is_reserved":false,"is_disabled":false,"rental_uris":{"android":"levelo://app?vid=2be5eeaa-d0d4-4dd9-b47b-204aa60e23b7","ios":"levelo://app?vid=2be5eeaa-d0d4-4dd9-b47b-204aa60e23b7"},"vehicle_type_id":"4","last_reported":1687619216,"current_range_meters":31600,"station_id":"ce4bhqp2rcd13ifvqhng","pricing_plan_id":"free"},{"bike_id":"9b3671c4-4790-4ad2-996a-8582db3ffb1d","system_id":"levelo_inurba_marseille","lat":43.317557,"lon":5.390173,"is_reserved":false,"is_disabled":false,"rental_uris":{"android":"levelo://app?vid=9b3671c4-4790-4ad2-996a-8582db3ffb1d","ios":"levelo://app?vid=9b3671c4-4790-4ad2-996a-8582db3ffb1d"},"vehicle_type_id":"4","last_reported":1687619216,"current_range_meters":31600,"station_id":"ce4bhqp2rcd13ifvqhng","pricing_plan_id":"free"},{"bike_id":"86ca8afa-83a5-4ef9-b46a-a028a574c662","system_id":"levelo_inurba_marseille","lat":43.317557,"lon":5.390173,"is_reserved":false,"is_disabled":false,"rental_uris":{"android":"levelo://app?vid=86ca8afa-83a5-4ef9-b46a-a028a574c662","ios":"levelo://app?vid=86ca8afa-83a5-4ef9-b46a-a028a574c662"},"vehicle_type_id":"4","last_reported":1687619216,"current_range_meters":30800,"station_id":"ce4bhqp2rcd13ifvqhng","pricing_plan_id":"free"},{"bike_id":"5734b40c-c962-4a18-b179-d7360b092aad","system_id":"levelo_inurba_marseille","lat":43.309589,"lon":5.390258,"is_reserved":false,"is_disabled":false,"rental_uris":{"android":"levelo://app?vid=5734b40c-c962-4a18-b179-d7360b092aad","ios":"levelo://app?vid=5734b40c-c962-4a18-b179-d7360b092aad"},"vehicle_type_id":"4","last_reported":1687619216,"current_range_meters":27600,"station_id":"ce4bgup2rcd13ifvqco0","pricing_plan_id":"free"},{"bike_id":"67fd41dc-01e0-476d-8724-c5309c7d85f7","system_id":"levelo_inurba_marseille","lat":43.304274,"lon":5.388873,"is_reserved":false,"is_disabled":false,"rental_uris":{"android":"levelo://app?vid=67fd41dc-01e0-476d-8724-c5309c7d85f7","ios":"levelo://app?vid=67fd41dc-01e0-476d-8724-c5309c7d85f7"},"vehicle_type_id":"4","last_reported":1687619216,"current_range_meters":8000,"station_id":"ce4bgk12rcd13ifvqbi0","pricing_plan_id":"free"},{"bike_id":"7db014cf-23c6-495d-b325-2c7f04a2ce1a","system_id":"levelo_inurba_marseille","lat":43.298037,"lon":5.381066,"is_reserved":false,"is_disabled":false,"rental_uris":{"android":"levelo://app?vid=7db014cf-23c6-495d-b325-2c7f04a2ce1a","ios":"levelo://app?vid=7db014cf-23c6-495d-b325-2c7f04a2ce1a"},"vehicle_type_id":"4","last_reported":1687619216,"current_range_meters":24400,"station_id":"ce4bgip2rcd13ifvqbb0","pricing_plan_id":"free"},{"bike_id":"6b05f8f0-f4fb-40e7-82c0-a54912f6c06c","system_id":"levelo_inurba_marseille","lat":43.32367,"lon":5.38882,"is_reserved":false,"is_disabled":false,"rental_uris":{"android":"levelo://app?vid=6b05f8f0-f4fb-40e7-82c0-a54912f6c06c","ios":"levelo://app?vid=6b05f8f0-f4fb-40e7-82c0-a54912f6c06c"},"vehicle_type_id":"4","last_reported":1687619216,"current_range_meters":27600,"station_id":"ce4bhqp2rcd13ifvqhog","pricing_plan_id":"free"},{"bike_id":"2e0fa622-dc89-44fe-984b-a2bb7220f9be","system_id":"levelo_inurba_marseille","lat":43.32373,"lon":5.38879,"is_reserved":false,"is_disabled":false,"rental_uris":{"android":"levelo://app?vid=2e0fa622-dc89-44fe-984b-a2bb7220f9be","ios":"levelo://app?vid=2e0fa622-dc89-44fe-984b-a2bb7220f9be"},"vehicle_type_id":"4","last_reported":1687619216,"current_range_meters":31200,"station_id":"ce4bhqp2rcd13ifvqhog","pricing_plan_id":"free"},{"bike_id":"beb825d8-da6f-4d0f-a4f9-15b4d0872995","system_id":"levelo_inurba_marseille","lat":43.32367,"lon":5.388836,"is_reserved":false,"is_disabled":false,"rental_uris":{"android":"levelo://app?vid=beb825d8-da6f-4d0f-a4f9-15b4d0872995","ios":"levelo://app?vid=beb825d8-da6f-4d0f-a4f9-15b4d0872995"},"vehicle_type_id":"4","last_reported":1687619216,"current_range_meters":22800,"station_id":"ce4bhqp2rcd13ifvqhog","pricing_plan_id":"free"},{"bike_id":"c7697936-1fa2-40ce-9245-41338d455f23","system_id":"levelo_inurba_marseille","lat":43.29602,"lon":5.381084,"is_reserved":false,"is_disabled":false,"rental_uris":{"android":"levelo://app?vid=c7697936-1fa2-40ce-9245-41338d455f23","ios":"levelo://app?vid=c7697936-1fa2-40ce-9245-41338d455f23"},"vehicle_type_id":"4","last_reported":1687619216,"current_range_meters":30000,"station_id":"ce4bgl12rcd13ifvqbo0","pricing_plan_id":"free"},{"bike_id":"3fd11f42-74fd-4e78-8ac2-a56fa6040494","system_id":"levelo_inurba_marseille","lat":43.29308,"lon":5.36978,"is_reserved":false,"is_disabled":false,"rental_uris":{"android":"levelo://app?vid=3fd11f42-74fd-4e78-8ac2-a56fa6040494","ios":"levelo://app?vid=3fd11f42-74fd-4e78-8ac2-a56fa6040494"},"vehicle_type_id":"4","last_reported":1687619216,"current_range_meters":400,"station_id":"","pricing_plan_id":"free"},{"bike_id":"045e65a8-c186-47ac-bba9-5d1c0fbff535","system_id":"levelo_inurba_marseille","lat":43.292749,"lon":5.368398,"is_reserved":false,"is_disabled":false,"rental_uris":{"android":"levelo://app?vid=045e65a8-c186-47ac-bba9-5d1c0fbff535","ios":"levelo://app?vid=045e65a8-c186-47ac-bba9-5d1c0fbff535"},"vehicle_type_id":"4","last_reported":1687619216,"current_range_meters":22000,"station_id":"ce4bhbp2rcd13ifvqesg","pricing_plan_id":"free"},{"bike_id":"bd2f37c1-f5f1-4d07-a6ca-92db1a2f1e41","system_id":"levelo_inurba_marseille","lat":43.293009,"lon":5.374584,"is_reserved":false,"is_disabled":false,"rental_uris":{"android":"levelo://app?vid=bd2f37c1-f5f1-4d07-a6ca-92db1a2f1e41","ios":"levelo://app?vid=bd2f37c1-f5f1-4d07-a6ca-92db1a2f1e41"},"vehicle_type_id":"4","last_reported":1687619216,"current_range_meters":4000,"station_id":"ce4bgi12rcd13ifvqb70","pricing_plan_id":"free"},{"bike_id":"52da0e37-276f-4876-a220-78853526749a","system_id":"levelo_inurba_marseille","lat":43.29369,"lon":5.37837,"is_reserved":false,"is_disabled":false,"rental_uris":{"android":"levelo://app?vid=52da0e37-276f-4876-a220-78853526749a","ios":"levelo://app?vid=52da0e37-276f-4876-a220-78853526749a"},"vehicle_type_id":"4","last_reported":1687619216,"current_range_meters":23600,"station_id":"ce4bgjh2rcd13ifvqbf0","pricing_plan_id":"free"},{"bike_id":"b4d49575-3346-4351-8fac-36c26cbab2b3","system_id":"levelo_inurba_marseille","lat":43.29366,"lon":5.37834,"is_reserved":false,"is_disabled":false,"rental_uris":{"android":"levelo://app?vid=b4d49575-3346-4351-8fac-36c26cbab2b3","ios":"levelo://app?vid=b4d49575-3346-4351-8fac-36c26cbab2b3"},"vehicle_type_id":"4","last_reported":1687619216,"current_range_meters":24400,"station_id":"ce4bgjh2rcd13ifvqbf0","pricing_plan_id":"free"},{"bike_id":"9228d71f-64d9-4c6a-a1f3-e7f83736910e","system_id":"levelo_inurba_marseille","lat":43.29364,"lon":5.37835,"is_reserved":false,"is_disabled":false,"rental_uris":{"android":"levelo://app?vid=9228d71f-64d9-4c6a-a1f3-e7f83736910e","ios":"levelo://app?vid=9228d71f-64d9-4c6a-a1f3-e7f83736910e"},"vehicle_type_id":"4","last_reported":1687619216,"current_range_meters":13600,"station_id":"ce4bgjh2rcd13ifvqbf0","pricing_plan_id":"free"},{"bike_id":"a26df10b-74d9-4279-b955-8739aaf961a9","system_id":"levelo_inurba_marseille","lat":43.29172,"lon":5.37158,"is_reserved":false,"is_disabled":false,"rental_uris":{"android":"levelo://app?vid=a26df10b-74d9-4279-b955-8739aaf961a9","ios":"levelo://app?vid=a26df10b-74d9-4279-b955-8739aaf961a9"},"vehicle_type_id":"4","last_reported":1687619216,"current_range_meters":31200,"station_id":"ce4bha92rcd13ifvqeh0","pricing_plan_id":"free"},{"bike_id":"20b2702a-2cf1-439f-b7da-41f192fa1a0a","system_id":"levelo_inurba_marseille","lat":43.29411,"lon":5.38614,"is_reserved":false,"is_disabled":false,"rental_uris":{"android":"levelo://app?vid=20b2702a-2cf1-439f-b7da-41f192fa1a0a","ios":"levelo://app?vid=20b2702a-2cf1-439f-b7da-41f192fa1a0a"},"vehicle_type_id":"4","last_reported":1687619216,"current_range_meters":18800,"station_id":"","pricing_plan_id":"free"},{"bike_id":"192ff386-59fa-4d1b-aea8-d597dc8fc9d8","system_id":"levelo_inurba_marseille","lat":43.289184,"lon":5.366408,"is_reserved":false,"is_disabled":false,"rental_uris":{"android":"levelo://app?vid=192ff386-59fa-4d1b-aea8-d597dc8fc9d8","ios":"levelo://app?vid=192ff386-59fa-4d1b-aea8-d597dc8fc9d8"},"vehicle_type_id":"4","last_reported":1687619216,"current_range_meters":26000,"station_id":"ce4bhap2rcd13ifvqek0","pricing_plan_id":"free"},{"bike_id":"42d2ef08-ea7a-4afe-a079-80b1dab8c583","system_id":"levelo_inurba_marseille","lat":43.304274,"lon":5.397513,"is_reserved":false,"is_disabled":false,"rental_uris":{"android":"levelo://app?vid=42d2ef08-ea7a-4afe-a079-80b1dab8c583","ios":"levelo://app?vid=42d2ef08-ea7a-4afe-a079-80b1dab8c583"},"vehicle_type_id":"4","last_reported":1687619216,"current_range_meters":9600,"station_id":"ce4bh092rcd13ifvqd20","pricing_plan_id":"free"},{"bike_id":"e36874dc-7135-4ebc-b4cd-8f7cd3793fb7","system_id":"levelo_inurba_marseille","lat":43.30337,"lon":5.39694,"is_reserved":false,"is_disabled":false,"rental_uris":{"android":"levelo://app?vid=e36874dc-7135-4ebc-b4cd-8f7cd3793fb7","ios":"levelo://app?vid=e36874dc-7135-4ebc-b4cd-8f7cd3793fb7"},"vehicle_type_id":"4","last_reported":1687619216,"current_range_meters":21600,"station_id":"","pricing_plan_id":"free"},{"bike_id":"554ad65b-9e32-499a-b0a7-93f5d065d31c","system_id":"levelo_inurba_marseille","lat":43.30487,"lon":5.39804,"is_reserved":false,"is_disabled":false,"rental_uris":{"android":"levelo://app?vid=554ad65b-9e32-499a-b0a7-93f5d065d31c","ios":"levelo://app?vid=554ad65b-9e32-499a-b0a7-93f5d065d31c"},"vehicle_type_id":"4","last_reported":1687619216,"current_range_meters":24000,"station_id":"","pricing_plan_id":"free"},{"bike_id":"8988c9fc-0d99-4ec7-8bb9-920303fa82b2","system_id":"levelo_inurba_marseille","lat":43.304274,"lon":5.397513,"is_reserved":false,"is_disabled":false,"rental_uris":{"android":"levelo://app?vid=8988c9fc-0d99-4ec7-8bb9-920303fa82b2","ios":"levelo://app?vid=8988c9fc-0d99-4ec7-8bb9-920303fa82b2"},"vehicle_type_id":"4","last_reported":1687619216,"current_range_meters":1200,"station_id":"ce4bh092rcd13ifvqd20","pricing_plan_id":"free"},{"bike_id":"383564b9-2cae-4808-aee8-d3aefd710421","system_id":"levelo_inurba_marseille","lat":43.33043,"lon":5.38916,"is_reserved":false,"is_disabled":false,"rental_uris":{"android":"levelo://app?vid=383564b9-2cae-4808-aee8-d3aefd710421","ios":"levelo://app?vid=383564b9-2cae-4808-aee8-d3aefd710421"},"vehicle_type_id":"4","last_reported":1687619216,"current_range_meters":31200,"station_id":"ce4bhr92rcd13ifvqhrg","pricing_plan_id":"free"},{"bike_id":"b49d73e2-9f19-4a2c-9b7e-4e20a517a2b2","system_id":"levelo_inurba_marseille","lat":43.3304,"lon":5.38921,"is_reserved":false,"is_disabled":false,"rental_uris":{"android":"levelo://app?vid=b49d73e2-9f19-4a2c-9b7e-4e20a517a2b2","ios":"levelo://app?vid=b49d73e2-9f19-4a2c-9b7e-4e20a517a2b2"},"vehicle_type_id":"4","last_reported":1687619216,"current_range_meters":30400,"station_id":"ce4bhr92rcd13ifvqhrg","pricing_plan_id":"free"},{"bike_id":"57a6657a-e6ab-4fa1-ab43-0438f9d33a85","system_id":"levelo_inurba_marseille","lat":43.33043,"lon":5.38918,"is_reserved":false,"is_disabled":false,"rental_uris":{"android":"levelo://app?vid=57a6657a-e6ab-4fa1-ab43-0438f9d33a85","ios":"levelo://app?vid=57a6657a-e6ab-4fa1-ab43-0438f9d33a85"},"vehicle_type_id":"4","last_reported":1687619216,"current_range_meters":13200,"station_id":"ce4bhr92rcd13ifvqhrg","pricing_plan_id":"free"},{"bike_id":"3d08c72f-0aa7-4dd5-a2ec-4fe1c0c0bf34","system_id":"levelo_inurba_marseille","lat":43.330442,"lon":5.389148,"is_reserved":false,"is_disabled":false,"rental_uris":{"android":"levelo://app?vid=3d08c72f-0aa7-4dd5-a2ec-4fe1c0c0bf34","ios":"levelo://app?vid=3d08c72f-0aa7-4dd5-a2ec-4fe1c0c0bf34"},"vehicle_type_id":"4","last_reported":1687619216,"current_range_meters":15200,"station_id":"ce4bhr92rcd13ifvqhrg","pricing_plan_id":"free"},{"bike_id":"1a01895d-f344-4f7a-a2e9-47e079e18485","system_id":"levelo_inurba_marseille","lat":43.33057,"lon":5.38914,"is_reserved":false,"is_disabled":false,"rental_uris":{"android":"levelo://app?vid=1a01895d-f344-4f7a-a2e9-47e079e18485","ios":"levelo://app?vid=1a01895d-f344-4f7a-a2e9-47e079e18485"},"vehicle_type_id":"4","last_reported":1687619216,"current_range_meters":24800,"station_id":"ce4bhr92rcd13ifvqhrg","pricing_plan_id":"free"},{"bike_id":"80bea017-3a34-4743-9441-106287befaa2","system_id":"levelo_inurba_marseille","lat":43.295169,"lon":5.390426,"is_reserved":false,"is_disabled":false,"rental_uris":{"android":"levelo://app?vid=80bea017-3a34-4743-9441-106287befaa2","ios":"levelo://app?vid=80bea017-3a34-4743-9441-106287befaa2"},"vehicle_type_id":"4","last_reported":1687619216,"current_range_meters":2400,"station_id":"ce4bh3p2rcd13ifvqdp0","pricing_plan_id":"free"},{"bike_id":"a967ebf5-3184-427d-a9df-af0cd4574538","system_id":"levelo_inurba_marseille","lat":43.2901,"lon":5.381269,"is_reserved":false,"is_disabled":false,"rental_uris":{"android":"levelo://app?vid=a967ebf5-3184-427d-a9df-af0cd4574538","ios":"levelo://app?vid=a967ebf5-3184-427d-a9df-af0cd4574538"},"vehicle_type_id":"4","last_reported":1687619216,"current_range_meters":0,"station_id":"ce4bh4p2rcd13ifvqe1g","pricing_plan_id":"free"},{"bike_id":"f43a1ea4-3599-4788-9f7c-fa59972c9fbf","system_id":"levelo_inurba_marseille","lat":43.28856,"lon":5.358371,"is_reserved":false,"is_disabled":false,"rental_uris":{"android":"levelo://app?vid=f43a1ea4-3599-4788-9f7c-fa59972c9fbf","ios":"levelo://app?vid=f43a1ea4-3599-4788-9f7c-fa59972c9fbf"},"vehicle_type_id":"4","last_reported":1687619216,"current_range_meters":4800,"station_id":"ce4bhb12rcd13ifvqem0","pricing_plan_id":"free"},{"bike_id":"3f8a925a-6a54-4259-a38f-9cf091aab246","system_id":"levelo_inurba_marseille","lat":43.29256,"lon":5.38757,"is_reserved":false,"is_disabled":false,"rental_uris":{"android":"levelo://app?vid=3f8a925a-6a54-4259-a38f-9cf091aab246","ios":"levelo://app?vid=3f8a925a-6a54-4259-a38f-9cf091aab246"},"vehicle_type_id":"4","last_reported":1687619216,"current_range_meters":20800,"station_id":"","pricing_plan_id":"free"},{"bike_id":"c180ae38-f769-441f-8a55-5a6e4930e6ad","system_id":"levelo_inurba_marseille","lat":43.3375,"lon":5.37439,"is_reserved":false,"is_disabled":false,"rental_uris":{"android":"levelo://app?vid=c180ae38-f769-441f-8a55-5a6e4930e6ad","ios":"levelo://app?vid=c180ae38-f769-441f-8a55-5a6e4930e6ad"},"vehicle_type_id":"4","last_reported":1687619216,"current_range_meters":24400,"station_id":"","pricing_plan_id":"free"},{"bike_id":"c17dc700-22da-4d2b-b91f-1912c879ccd9","system_id":"levelo_inurba_marseille","lat":43.28669,"lon":5.36349,"is_reserved":false,"is_disabled":false,"rental_uris":{"android":"levelo://app?vid=c17dc700-22da-4d2b-b91f-1912c879ccd9","ios":"levelo://app?vid=c17dc700-22da-4d2b-b91f-1912c879ccd9"},"vehicle_type_id":"4","last_reported":1687619216,"current_range_meters":0,"station_id":"ce4bhah2rcd13ifvqej0","pricing_plan_id":"free"},{"bike_id":"24021389-3d7e-4467-913d-5267f3fa1519","system_id":"levelo_inurba_marseille","lat":43.298681,"lon":5.397225,"is_reserved":false,"is_disabled":false,"rental_uris":{"android":"levelo://app?vid=24021389-3d7e-4467-913d-5267f3fa1519","ios":"levelo://app?vid=24021389-3d7e-4467-913d-5267f3fa1519"},"vehicle_type_id":"4","last_reported":1687619216,"current_range_meters":400,"station_id":"ce4bh0h2rcd13ifvqd50","pricing_plan_id":"free"},{"bike_id":"6a6b878c-072b-41d9-b3d4-915a91134fb1","system_id":"levelo_inurba_marseille","lat":43.286039,"lon":5.370679,"is_reserved":false,"is_disabled":false,"rental_uris":{"android":"levelo://app?vid=6a6b878c-072b-41d9-b3d4-915a91134fb1","ios":"levelo://app?vid=6a6b878c-072b-41d9-b3d4-915a91134fb1"},"vehicle_type_id":"4","last_reported":1687619216,"current_range_meters":26000,"station_id":"ce4bht12rcd13ifvqi60","pricing_plan_id":"free"},{"bike_id":"7ff7a684-0ed6-4cb6-9ceb-65ac69cd540c","system_id":"levelo_inurba_marseille","lat":43.286039,"lon":5.370679,"is_reserved":false,"is_disabled":false,"rental_uris":{"android":"levelo://app?vid=7ff7a684-0ed6-4cb6-9ceb-65ac69cd540c","ios":"levelo://app?vid=7ff7a684-0ed6-4cb6-9ceb-65ac69cd540c"},"vehicle_type_id":"4","last_reported":1687619216,"current_range_meters":21600,"station_id":"ce4bht12rcd13ifvqi60","pricing_plan_id":"free"},{"bike_id":"9035828f-6779-4884-af20-a39b5e83408d","system_id":"levelo_inurba_marseille","lat":43.286039,"lon":5.370679,"is_reserved":false,"is_disabled":false,"rental_uris":{"android":"levelo://app?vid=9035828f-6779-4884-af20-a39b5e83408d","ios":"levelo://app?vid=9035828f-6779-4884-af20-a39b5e83408d"},"vehicle_type_id":"4","last_reported":1687619216,"current_range_meters":17600,"station_id":"ce4bht12rcd13ifvqi60","pricing_plan_id":"free"},{"bike_id":"3ce7afe7-7297-4c0b-84d4-f198ddcc0964","system_id":"levelo_inurba_marseille","lat":43.286039,"lon":5.370679,"is_reserved":false,"is_disabled":false,"rental_uris":{"android":"levelo://app?vid=3ce7afe7-7297-4c0b-84d4-f198ddcc0964","ios":"levelo://app?vid=3ce7afe7-7297-4c0b-84d4-f198ddcc0964"},"vehicle_type_id":"4","last_reported":1687619216,"current_range_meters":21200,"station_id":"ce4bht12rcd13ifvqi60","pricing_plan_id":"free"},{"bike_id":"343a6668-cfbb-449a-ac48-a2823ecd8f76","system_id":"levelo_inurba_marseille","lat":43.31647,"lon":5.40432,"is_reserved":false,"is_disabled":false,"rental_uris":{"android":"levelo://app?vid=343a6668-cfbb-449a-ac48-a2823ecd8f76","ios":"levelo://app?vid=343a6668-cfbb-449a-ac48-a2823ecd8f76"},"vehicle_type_id":"4","last_reported":1687619216,"current_range_meters":7200,"station_id":"ce4bh012rcd13ifvqd00","pricing_plan_id":"free"},{"bike_id":"d69fed3a-efe9-46fb-b1dc-1240b8978d3e","system_id":"levelo_inurba_marseille","lat":43.316517,"lon":5.404375,"is_reserved":false,"is_disabled":false,"rental_uris":{"android":"levelo://app?vid=d69fed3a-efe9-46fb-b1dc-1240b8978d3e","ios":"levelo://app?vid=d69fed3a-efe9-46fb-b1dc-1240b8978d3e"},"vehicle_type_id":"4","last_reported":1687619216,"current_range_meters":18800,"station_id":"ce4bh012rcd13ifvqd00","pricing_plan_id":"free"},{"bike_id":"4dbe3fb2-6769-4daf-8ff5-8b4d75f66e51","system_id":"levelo_inurba_marseille","lat":43.316523,"lon":5.404367,"is_reserved":false,"is_disabled":false,"rental_uris":{"android":"levelo://app?vid=4dbe3fb2-6769-4daf-8ff5-8b4d75f66e51","ios":"levelo://app?vid=4dbe3fb2-6769-4daf-8ff5-8b4d75f66e51"},"vehicle_type_id":"4","last_reported":1687619216,"current_range_meters":3200,"station_id":"ce4bh012rcd13ifvqd00","pricing_plan_id":"free"},{"bike_id":"61e338e9-081e-404e-b055-3d88e035a6ac","system_id":"levelo_inurba_marseille","lat":43.291994,"lon":5.392907,"is_reserved":false,"is_disabled":false,"rental_uris":{"android":"levelo://app?vid=61e338e9-081e-404e-b055-3d88e035a6ac","ios":"levelo://app?vid=61e338e9-081e-404e-b055-3d88e035a6ac"},"vehicle_type_id":"4","last_reported":1687619216,"current_range_meters":18800,"station_id":"ce4bh192rcd13ifvqdd0","pricing_plan_id":"free"},{"bike_id":"f82a5795-3a6f-4033-9a4f-b123cfac082b","system_id":"levelo_inurba_marseille","lat":43.291994,"lon":5.392907,"is_reserved":false,"is_disabled":false,"rental_uris":{"android":"levelo://app?vid=f82a5795-3a6f-4033-9a4f-b123cfac082b","ios":"levelo://app?vid=f82a5795-3a6f-4033-9a4f-b123cfac082b"},"vehicle_type_id":"4","last_reported":1687619216,"current_range_meters":20000,"station_id":"ce4bh192rcd13ifvqdd0","pricing_plan_id":"free"},{"bike_id":"2468774b-a465-468e-b6dd-49ddc6869353","system_id":"levelo_inurba_marseille","lat":43.28462,"lon":5.359,"is_reserved":false,"is_disabled":false,"rental_uris":{"android":"levelo://app?vid=2468774b-a465-468e-b6dd-49ddc6869353","ios":"levelo://app?vid=2468774b-a465-468e-b6dd-49ddc6869353"},"vehicle_type_id":"4","last_reported":1687619216,"current_range_meters":31200,"station_id":"ce4bhah2rcd13ifvqei0","pricing_plan_id":"free"},{"bike_id":"f24af894-bf5c-4e9a-8f35-48d3773119a5","system_id":"levelo_inurba_marseille","lat":43.28461,"lon":5.35904,"is_reserved":false,"is_disabled":false,"rental_uris":{"android":"levelo://app?vid=f24af894-bf5c-4e9a-8f35-48d3773119a5","ios":"levelo://app?vid=f24af894-bf5c-4e9a-8f35-48d3773119a5"},"vehicle_type_id":"4","last_reported":1687619216,"current_range_meters":28800,"station_id":"","pricing_plan_id":"free"},{"bike_id":"b799ca36-4148-43e9-a7b8-e1dc385c9b2b","system_id":"levelo_inurba_marseille","lat":43.285856,"lon":5.350771,"is_reserved":false,"is_disabled":false,"rental_uris":{"android":"levelo://app?vid=b799ca36-4148-43e9-a7b8-e1dc385c9b2b","ios":"levelo://app?vid=b799ca36-4148-43e9-a7b8-e1dc385c9b2b"},"vehicle_type_id":"4","last_reported":1687619216,"current_range_meters":0,"station_id":"ce4bhch2rcd13ifvqeug","pricing_plan_id":"free"},{"bike_id":"08c3fa4e-0f76-4b54-9b6b-5f413c6bd390","system_id":"levelo_inurba_marseille","lat":43.28621,"lon":5.35101,"is_reserved":false,"is_disabled":false,"rental_uris":{"android":"levelo://app?vid=08c3fa4e-0f76-4b54-9b6b-5f413c6bd390","ios":"levelo://app?vid=08c3fa4e-0f76-4b54-9b6b-5f413c6bd390"},"vehicle_type_id":"4","last_reported":1687619216,"current_range_meters":18800,"station_id":"ce4bhch2rcd13ifvqeug","pricing_plan_id":"free"},{"bike_id":"a365c532-febb-4640-b79d-ab9e31f33468","system_id":"levelo_inurba_marseille","lat":43.2862,"lon":5.35103,"is_reserved":false,"is_disabled":false,"rental_uris":{"android":"levelo://app?vid=a365c532-febb-4640-b79d-ab9e31f33468","ios":"levelo://app?vid=a365c532-febb-4640-b79d-ab9e31f33468"},"vehicle_type_id":"4","last_reported":1687619216,"current_range_meters":18400,"station_id":"ce4bhch2rcd13ifvqeug","pricing_plan_id":"free"},{"bike_id":"495b5eb8-6416-4acd-bc72-d351549deef3","system_id":"levelo_inurba_marseille","lat":43.28621,"lon":5.35097,"is_reserved":false,"is_disabled":false,"rental_uris":{"android":"levelo://app?vid=495b5eb8-6416-4acd-bc72-d351549deef3","ios":"levelo://app?vid=495b5eb8-6416-4acd-bc72-d351549deef3"},"vehicle_type_id":"4","last_reported":1687619216,"current_range_meters":15600,"station_id":"ce4bhch2rcd13ifvqeug","pricing_plan_id":"free"},{"bike_id":"01963cfe-c05b-4e1b-8551-8c7c2e3e7509","system_id":"levelo_inurba_marseille","lat":43.28616,"lon":5.35105,"is_reserved":false,"is_disabled":false,"rental_uris":{"android":"levelo://app?vid=01963cfe-c05b-4e1b-8551-8c7c2e3e7509","ios":"levelo://app?vid=01963cfe-c05b-4e1b-8551-8c7c2e3e7509"},"vehicle_type_id":"4","last_reported":1687619216,"current_range_meters":0,"station_id":"ce4bhch2rcd13ifvqeug","pricing_plan_id":"free"},{"bike_id":"0a7a153b-22c4-45ac-b8b3-1b2f659ba3e9","system_id":"levelo_inurba_marseille","lat":43.286149,"lon":5.351059,"is_reserved":false,"is_disabled":false,"rental_uris":{"android":"levelo://app?vid=0a7a153b-22c4-45ac-b8b3-1b2f659ba3e9","ios":"levelo://app?vid=0a7a153b-22c4-45ac-b8b3-1b2f659ba3e9"},"vehicle_type_id":"4","last_reported":1687619216,"current_range_meters":21200,"station_id":"ce4bhch2rcd13ifvqeug","pricing_plan_id":"free"},{"bike_id":"22cc7a76-05f9-4ced-9b89-6ce87ab4251f","system_id":"levelo_inurba_marseille","lat":43.285856,"lon":5.350771,"is_reserved":false,"is_disabled":false,"rental_uris":{"android":"levelo://app?vid=22cc7a76-05f9-4ced-9b89-6ce87ab4251f","ios":"levelo://app?vid=22cc7a76-05f9-4ced-9b89-6ce87ab4251f"},"vehicle_type_id":"4","last_reported":1687619216,"current_range_meters":22800,"station_id":"ce4bhch2rcd13ifvqeug","pricing_plan_id":"free"},{"bike_id":"0f040591-6870-4bc0-8491-2d23bdba2c9d","system_id":"levelo_inurba_marseille","lat":43.28615,"lon":5.35104,"is_reserved":false,"is_disabled":false,"rental_uris":{"android":"levelo://app?vid=0f040591-6870-4bc0-8491-2d23bdba2c9d","ios":"levelo://app?vid=0f040591-6870-4bc0-8491-2d23bdba2c9d"},"vehicle_type_id":"4","last_reported":1687619216,"current_range_meters":19200,"station_id":"ce4bhch2rcd13ifvqeug","pricing_plan_id":"free"},{"bike_id":"beb9c156-faae-49c2-b97e-d9fe9496cda8","system_id":"levelo_inurba_marseille","lat":43.28615,"lon":5.35103,"is_reserved":false,"is_disabled":false,"rental_uris":{"android":"levelo://app?vid=beb9c156-faae-49c2-b97e-d9fe9496cda8","ios":"levelo://app?vid=beb9c156-faae-49c2-b97e-d9fe9496cda8"},"vehicle_type_id":"4","last_reported":1687619216,"current_range_meters":31200,"station_id":"ce4bhch2rcd13ifvqeug","pricing_plan_id":"free"},{"bike_id":"72662650-821e-4700-8ed0-aa05799fcf0c","system_id":"levelo_inurba_marseille","lat":43.285856,"lon":5.350771,"is_reserved":false,"is_disabled":false,"rental_uris":{"android":"levelo://app?vid=72662650-821e-4700-8ed0-aa05799fcf0c","ios":"levelo://app?vid=72662650-821e-4700-8ed0-aa05799fcf0c"},"vehicle_type_id":"4","last_reported":1687619216,"current_range_meters":11200,"station_id":"ce4bhch2rcd13ifvqeug","pricing_plan_id":"free"},{"bike_id":"9b2d91e2-de34-46bf-9206-5c8b6412458f","system_id":"levelo_inurba_marseille","lat":43.28615,"lon":5.35097,"is_reserved":false,"is_disabled":false,"rental_uris":{"android":"levelo://app?vid=9b2d91e2-de34-46bf-9206-5c8b6412458f","ios":"levelo://app?vid=9b2d91e2-de34-46bf-9206-5c8b6412458f"},"vehicle_type_id":"4","last_reported":1687619216,"current_range_meters":0,"station_id":"ce4bhch2rcd13ifvqeug","pricing_plan_id":"free"},{"bike_id":"a646a6b4-3b53-4939-8900-011e3c1c4d0f","system_id":"levelo_inurba_marseille","lat":43.28611,"lon":5.35109,"is_reserved":false,"is_disabled":false,"rental_uris":{"android":"levelo://app?vid=a646a6b4-3b53-4939-8900-011e3c1c4d0f","ios":"levelo://app?vid=a646a6b4-3b53-4939-8900-011e3c1c4d0f"},"vehicle_type_id":"4","last_reported":1687619216,"current_range_meters":18400,"station_id":"ce4bhch2rcd13ifvqeug","pricing_plan_id":"free"},{"bike_id":"784401cc-d4e2-48dd-8970-89b79c3671a2","system_id":"levelo_inurba_marseille","lat":43.2861,"lon":5.35108,"is_reserved":false,"is_disabled":false,"rental_uris":{"android":"levelo://app?vid=784401cc-d4e2-48dd-8970-89b79c3671a2","ios":"levelo://app?vid=784401cc-d4e2-48dd-8970-89b79c3671a2"},"vehicle_type_id":"4","last_reported":1687619216,"current_range_meters":30800,"station_id":"ce4bhch2rcd13ifvqeug","pricing_plan_id":"free"},{"bike_id":"fe1c37e2-aab9-4e9b-b894-fb02c12f4c47","system_id":"levelo_inurba_marseille","lat":43.286595,"lon":5.386795,"is_reserved":false,"is_disabled":false,"rental_uris":{"android":"levelo://app?vid=fe1c37e2-aab9-4e9b-b894-fb02c12f4c47","ios":"levelo://app?vid=fe1c37e2-aab9-4e9b-b894-fb02c12f4c47"},"vehicle_type_id":"4","last_reported":1687619216,"current_range_meters":21200,"station_id":"ce4bh492rcd13ifvqdug","pricing_plan_id":"free"},{"bike_id":"9acb94f6-ce68-411c-b9cc-c221fbfc8872","system_id":"levelo_inurba_marseille","lat":43.286595,"lon":5.386795,"is_reserved":false,"is_disabled":false,"rental_uris":{"android":"levelo://app?vid=9acb94f6-ce68-411c-b9cc-c221fbfc8872","ios":"levelo://app?vid=9acb94f6-ce68-411c-b9cc-c221fbfc8872"},"vehicle_type_id":"4","last_reported":1687619216,"current_range_meters":11600,"station_id":"ce4bh492rcd13ifvqdug","pricing_plan_id":"free"},{"bike_id":"8d1f88b2-a260-40c1-9cbd-c5c8b2bfd015","system_id":"levelo_inurba_marseille","lat":43.32346,"lon":5.40621,"is_reserved":false,"is_disabled":false,"rental_uris":{"android":"levelo://app?vid=8d1f88b2-a260-40c1-9cbd-c5c8b2bfd015","ios":"levelo://app?vid=8d1f88b2-a260-40c1-9cbd-c5c8b2bfd015"},"vehicle_type_id":"4","last_reported":1687619216,"current_range_meters":10800,"station_id":"ce4bhq92rcd13ifvqhjg","pricing_plan_id":"free"},{"bike_id":"165784fd-8cb0-48fe-8681-d7abe54a6cf4","system_id":"levelo_inurba_marseille","lat":43.32341,"lon":5.40626,"is_reserved":false,"is_disabled":false,"rental_uris":{"android":"levelo://app?vid=165784fd-8cb0-48fe-8681-d7abe54a6cf4","ios":"levelo://app?vid=165784fd-8cb0-48fe-8681-d7abe54a6cf4"},"vehicle_type_id":"4","last_reported":1687619216,"current_range_meters":30400,"station_id":"ce4bhq92rcd13ifvqhjg","pricing_plan_id":"free"},{"bike_id":"6606e82c-c0ce-4a7f-bf46-357d4faa235e","system_id":"levelo_inurba_marseille","lat":43.32346,"lon":5.40637,"is_reserved":false,"is_disabled":false,"rental_uris":{"android":"levelo://app?vid=6606e82c-c0ce-4a7f-bf46-357d4faa235e","ios":"levelo://app?vid=6606e82c-c0ce-4a7f-bf46-357d4faa235e"},"vehicle_type_id":"4","last_reported":1687619216,"current_range_meters":0,"station_id":"ce4bhq92rcd13ifvqhjg","pricing_plan_id":"free"},{"bike_id":"b4c950db-352f-4a1a-8e3c-c05101a6dad0","system_id":"levelo_inurba_marseille","lat":43.288501,"lon":5.393087,"is_reserved":false,"is_disabled":false,"rental_uris":{"android":"levelo://app?vid=b4c950db-352f-4a1a-8e3c-c05101a6dad0","ios":"levelo://app?vid=b4c950db-352f-4a1a-8e3c-c05101a6dad0"},"vehicle_type_id":"4","last_reported":1687619216,"current_range_meters":31600,"station_id":"ce4bh2p2rcd13ifvqdi0","pricing_plan_id":"free"},{"bike_id":"070cca9b-62bf-4e06-856d-e15d6f747517","system_id":"levelo_inurba_marseille","lat":43.28435,"lon":5.35005,"is_reserved":false,"is_disabled":false,"rental_uris":{"android":"levelo://app?vid=070cca9b-62bf-4e06-856d-e15d6f747517","ios":"levelo://app?vid=070cca9b-62bf-4e06-856d-e15d6f747517"},"vehicle_type_id":"4","last_reported":1687619216,"current_range_meters":800,"station_id":"ce4bhbh2rcd13ifvqepg","pricing_plan_id":"free"},{"bike_id":"4cf8a622-776f-4199-b50a-aeee2e3f5c07","system_id":"levelo_inurba_marseille","lat":43.28438,"lon":5.34995,"is_reserved":false,"is_disabled":false,"rental_uris":{"android":"levelo://app?vid=4cf8a622-776f-4199-b50a-aeee2e3f5c07","ios":"levelo://app?vid=4cf8a622-776f-4199-b50a-aeee2e3f5c07"},"vehicle_type_id":"4","last_reported":1687619216,"current_range_meters":31200,"station_id":"","pricing_plan_id":"free"},{"bike_id":"18b07cb4-7e42-4e0d-ab43-3d6ac52f3b2b","system_id":"levelo_inurba_marseille","lat":43.284219,"lon":5.3497,"is_reserved":false,"is_disabled":false,"rental_uris":{"android":"levelo://app?vid=18b07cb4-7e42-4e0d-ab43-3d6ac52f3b2b","ios":"levelo://app?vid=18b07cb4-7e42-4e0d-ab43-3d6ac52f3b2b"},"vehicle_type_id":"4","last_reported":1687619216,"current_range_meters":31600,"station_id":"ce4bhbh2rcd13ifvqepg","pricing_plan_id":"free"},{"bike_id":"77c5016f-b961-42a1-899b-0da2b4bc813e","system_id":"levelo_inurba_marseille","lat":43.28437,"lon":5.34995,"is_reserved":false,"is_disabled":false,"rental_uris":{"android":"levelo://app?vid=77c5016f-b961-42a1-899b-0da2b4bc813e","ios":"levelo://app?vid=77c5016f-b961-42a1-899b-0da2b4bc813e"},"vehicle_type_id":"4","last_reported":1687619216,"current_range_meters":15600,"station_id":"","pricing_plan_id":"free"},{"bike_id":"0055eff6-c9b4-4290-bec2-537a07918075","system_id":"levelo_inurba_marseille","lat":43.284219,"lon":5.3497,"is_reserved":false,"is_disabled":false,"rental_uris":{"android":"levelo://app?vid=0055eff6-c9b4-4290-bec2-537a07918075","ios":"levelo://app?vid=0055eff6-c9b4-4290-bec2-537a07918075"},"vehicle_type_id":"4","last_reported":1687619216,"current_range_meters":31200,"station_id":"ce4bhbh2rcd13ifvqepg","pricing_plan_id":"free"},{"bike_id":"2ff8ded9-dfa5-47aa-b736-47077523ec1f","system_id":"levelo_inurba_marseille","lat":43.28432,"lon":5.35001,"is_reserved":false,"is_disabled":false,"rental_uris":{"android":"levelo://app?vid=2ff8ded9-dfa5-47aa-b736-47077523ec1f","ios":"levelo://app?vid=2ff8ded9-dfa5-47aa-b736-47077523ec1f"},"vehicle_type_id":"4","last_reported":1687619216,"current_range_meters":24400,"station_id":"","pricing_plan_id":"free"},{"bike_id":"8216e25d-9f58-40ea-9e01-dff73bcac161","system_id":"levelo_inurba_marseille","lat":43.284217,"lon":5.349697,"is_reserved":false,"is_disabled":false,"rental_uris":{"android":"levelo://app?vid=8216e25d-9f58-40ea-9e01-dff73bcac161","ios":"levelo://app?vid=8216e25d-9f58-40ea-9e01-dff73bcac161"},"vehicle_type_id":"4","last_reported":1687619216,"current_range_meters":24000,"station_id":"ce4bhbh2rcd13ifvqepg","pricing_plan_id":"free"},{"bike_id":"54428557-3e62-4db1-b524-3d861582962c","system_id":"levelo_inurba_marseille","lat":43.28843,"lon":5.39338,"is_reserved":false,"is_disabled":false,"rental_uris":{"android":"levelo://app?vid=54428557-3e62-4db1-b524-3d861582962c","ios":"levelo://app?vid=54428557-3e62-4db1-b524-3d861582962c"},"vehicle_type_id":"4","last_reported":1687619216,"current_range_meters":25200,"station_id":"ce4bh2p2rcd13ifvqdi0","pricing_plan_id":"free"},{"bike_id":"3d8744b5-74d3-4465-a40a-faac9e2e7f8f","system_id":"levelo_inurba_marseille","lat":43.2843,"lon":5.34994,"is_reserved":false,"is_disabled":false,"rental_uris":{"android":"levelo://app?vid=3d8744b5-74d3-4465-a40a-faac9e2e7f8f","ios":"levelo://app?vid=3d8744b5-74d3-4465-a40a-faac9e2e7f8f"},"vehicle_type_id":"4","last_reported":1687619216,"current_range_meters":14800,"station_id":"","pricing_plan_id":"free"},{"bike_id":"e4e9cb2d-e1ed-48ef-9478-8b91cad9d674","system_id":"levelo_inurba_marseille","lat":43.28429,"lon":5.34995,"is_reserved":false,"is_disabled":false,"rental_uris":{"android":"levelo://app?vid=e4e9cb2d-e1ed-48ef-9478-8b91cad9d674","ios":"levelo://app?vid=e4e9cb2d-e1ed-48ef-9478-8b91cad9d674"},"vehicle_type_id":"4","last_reported":1687619216,"current_range_meters":24000,"station_id":"ce4bhbh2rcd13ifvqepg","pricing_plan_id":"free"},{"bike_id":"320e87c7-5f32-4f84-a1c8-bddf1595e316","system_id":"levelo_inurba_marseille","lat":43.284217,"lon":5.349697,"is_reserved":false,"is_disabled":false,"rental_uris":{"android":"levelo://app?vid=320e87c7-5f32-4f84-a1c8-bddf1595e316","ios":"levelo://app?vid=320e87c7-5f32-4f84-a1c8-bddf1595e316"},"vehicle_type_id":"4","last_reported":1687619216,"current_range_meters":24400,"station_id":"ce4bhbh2rcd13ifvqepg","pricing_plan_id":"free"},{"bike_id":"02c4906c-8403-4025-af52-6609de01361f","system_id":"levelo_inurba_marseille","lat":43.284217,"lon":5.349697,"is_reserved":false,"is_disabled":false,"rental_uris":{"android":"levelo://app?vid=02c4906c-8403-4025-af52-6609de01361f","ios":"levelo://app?vid=02c4906c-8403-4025-af52-6609de01361f"},"vehicle_type_id":"4","last_reported":1687619216,"current_range_meters":31600,"station_id":"ce4bhbh2rcd13ifvqepg","pricing_plan_id":"free"},{"bike_id":"4c5ed9a7-1400-482f-9328-9e033ff55ff2","system_id":"levelo_inurba_marseille","lat":43.28426,"lon":5.34989,"is_reserved":false,"is_disabled":false,"rental_uris":{"android":"levelo://app?vid=4c5ed9a7-1400-482f-9328-9e033ff55ff2","ios":"levelo://app?vid=4c5ed9a7-1400-482f-9328-9e033ff55ff2"},"vehicle_type_id":"4","last_reported":1687619216,"current_range_meters":23600,"station_id":"","pricing_plan_id":"free"},{"bike_id":"ab0aa422-6a4f-493a-8593-123e3ad068d2","system_id":"levelo_inurba_marseille","lat":43.284217,"lon":5.349697,"is_reserved":false,"is_disabled":false,"rental_uris":{"android":"levelo://app?vid=ab0aa422-6a4f-493a-8593-123e3ad068d2","ios":"levelo://app?vid=ab0aa422-6a4f-493a-8593-123e3ad068d2"},"vehicle_type_id":"4","last_reported":1687619216,"current_range_meters":15200,"station_id":"ce4bhbh2rcd13ifvqepg","pricing_plan_id":"free"},{"bike_id":"f42409f8-055c-4c4d-9db7-2c41ec8410d2","system_id":"levelo_inurba_marseille","lat":43.284217,"lon":5.349697,"is_reserved":false,"is_disabled":false,"rental_uris":{"android":"levelo://app?vid=f42409f8-055c-4c4d-9db7-2c41ec8410d2","ios":"levelo://app?vid=f42409f8-055c-4c4d-9db7-2c41ec8410d2"},"vehicle_type_id":"4","last_reported":1687619216,"current_range_meters":31600,"station_id":"ce4bhbh2rcd13ifvqepg","pricing_plan_id":"free"},{"bike_id":"d0eec264-9f5d-41f7-8361-a2a5c46f64e2","system_id":"levelo_inurba_marseille","lat":43.284217,"lon":5.349697,"is_reserved":false,"is_disabled":false,"rental_uris":{"android":"levelo://app?vid=d0eec264-9f5d-41f7-8361-a2a5c46f64e2","ios":"levelo://app?vid=d0eec264-9f5d-41f7-8361-a2a5c46f64e2"},"vehicle_type_id":"4","last_reported":1687619216,"current_range_meters":28800,"station_id":"ce4bhbh2rcd13ifvqepg","pricing_plan_id":"free"},{"bike_id":"4fa7f9f2-823f-401e-a653-9a5cc9bb4235","system_id":"levelo_inurba_marseille","lat":43.28421,"lon":5.34999,"is_reserved":false,"is_disabled":false,"rental_uris":{"android":"levelo://app?vid=4fa7f9f2-823f-401e-a653-9a5cc9bb4235","ios":"levelo://app?vid=4fa7f9f2-823f-401e-a653-9a5cc9bb4235"},"vehicle_type_id":"4","last_reported":1687619216,"current_range_meters":13200,"station_id":"","pricing_plan_id":"free"},{"bike_id":"507db3a9-e6ba-4395-bac1-f6bb2b833100","system_id":"levelo_inurba_marseille","lat":43.28425,"lon":5.34984,"is_reserved":false,"is_disabled":false,"rental_uris":{"android":"levelo://app?vid=507db3a9-e6ba-4395-bac1-f6bb2b833100","ios":"levelo://app?vid=507db3a9-e6ba-4395-bac1-f6bb2b833100"},"vehicle_type_id":"4","last_reported":1687619216,"current_range_meters":4800,"station_id":"ce4bhbh2rcd13ifvqepg","pricing_plan_id":"free"},{"bike_id":"bbe9d181-0f79-4680-8fc6-f9e581e36c4a","system_id":"levelo_inurba_marseille","lat":43.284217,"lon":5.349697,"is_reserved":false,"is_disabled":false,"rental_uris":{"android":"levelo://app?vid=bbe9d181-0f79-4680-8fc6-f9e581e36c4a","ios":"levelo://app?vid=bbe9d181-0f79-4680-8fc6-f9e581e36c4a"},"vehicle_type_id":"4","last_reported":1687619216,"current_range_meters":25200,"station_id":"ce4bhbh2rcd13ifvqepg","pricing_plan_id":"free"},{"bike_id":"7400b20e-6d37-4c01-b9ed-6ec0402f1a23","system_id":"levelo_inurba_marseille","lat":43.28424,"lon":5.34985,"is_reserved":false,"is_disabled":false,"rental_uris":{"android":"levelo://app?vid=7400b20e-6d37-4c01-b9ed-6ec0402f1a23","ios":"levelo://app?vid=7400b20e-6d37-4c01-b9ed-6ec0402f1a23"},"vehicle_type_id":"4","last_reported":1687619216,"current_range_meters":18400,"station_id":"","pricing_plan_id":"free"},{"bike_id":"bad3944f-d0be-4324-9155-08e95508a217","system_id":"levelo_inurba_marseille","lat":43.28424,"lon":5.34983,"is_reserved":false,"is_disabled":false,"rental_uris":{"android":"levelo://app?vid=bad3944f-d0be-4324-9155-08e95508a217","ios":"levelo://app?vid=bad3944f-d0be-4324-9155-08e95508a217"},"vehicle_type_id":"4","last_reported":1687619216,"current_range_meters":17600,"station_id":"ce4bhbh2rcd13ifvqepg","pricing_plan_id":"free"},{"bike_id":"c7649577-1d22-4d00-88d4-5fa7a358d49a","system_id":"levelo_inurba_marseille","lat":43.28422,"lon":5.34988,"is_reserved":false,"is_disabled":false,"rental_uris":{"android":"levelo://app?vid=c7649577-1d22-4d00-88d4-5fa7a358d49a","ios":"levelo://app?vid=c7649577-1d22-4d00-88d4-5fa7a358d49a"},"vehicle_type_id":"4","last_reported":1687619216,"current_range_meters":20800,"station_id":"ce4bhbh2rcd13ifvqepg","pricing_plan_id":"free"},{"bike_id":"ca065df1-7d1e-40a0-9ed1-f20e42205bc7","system_id":"levelo_inurba_marseille","lat":43.28417,"lon":5.34973,"is_reserved":false,"is_disabled":false,"rental_uris":{"android":"levelo://app?vid=ca065df1-7d1e-40a0-9ed1-f20e42205bc7","ios":"levelo://app?vid=ca065df1-7d1e-40a0-9ed1-f20e42205bc7"},"vehicle_type_id":"4","last_reported":1687619216,"current_range_meters":31200,"station_id":"ce4bhbh2rcd13ifvqepg","pricing_plan_id":"free"},{"bike_id":"3a72d835-8daa-4aae-9fbe-64b6a8cda4c4","system_id":"levelo_inurba_marseille","lat":43.282744,"lon":5.350533,"is_reserved":false,"is_disabled":false,"rental_uris":{"android":"levelo://app?vid=3a72d835-8daa-4aae-9fbe-64b6a8cda4c4","ios":"levelo://app?vid=3a72d835-8daa-4aae-9fbe-64b6a8cda4c4"},"vehicle_type_id":"4","last_reported":1687619216,"current_range_meters":13600,"station_id":"ce4bhbp2rcd13ifvqerg","pricing_plan_id":"free"},{"bike_id":"9099dc91-0810-4145-bdfd-90b2d8461b0a","system_id":"levelo_inurba_marseille","lat":43.282744,"lon":5.350533,"is_reserved":false,"is_disabled":false,"rental_uris":{"android":"levelo://app?vid=9099dc91-0810-4145-bdfd-90b2d8461b0a","ios":"levelo://app?vid=9099dc91-0810-4145-bdfd-90b2d8461b0a"},"vehicle_type_id":"4","last_reported":1687619216,"current_range_meters":6800,"station_id":"ce4bhbp2rcd13ifvqerg","pricing_plan_id":"free"},{"bike_id":"daf7f882-bc72-4ad8-a357-aba1861aeed7","system_id":"levelo_inurba_marseille","lat":43.2828,"lon":5.3508,"is_reserved":false,"is_disabled":false,"rental_uris":{"android":"levelo://app?vid=daf7f882-bc72-4ad8-a357-aba1861aeed7","ios":"levelo://app?vid=daf7f882-bc72-4ad8-a357-aba1861aeed7"},"vehicle_type_id":"4","last_reported":1687619216,"current_range_meters":11600,"station_id":"ce4bhbp2rcd13ifvqerg","pricing_plan_id":"free"},{"bike_id":"582f6a94-56ea-4670-b76b-73ad56a6435b","system_id":"levelo_inurba_marseille","lat":43.28274,"lon":5.35085,"is_reserved":false,"is_disabled":false,"rental_uris":{"android":"levelo://app?vid=582f6a94-56ea-4670-b76b-73ad56a6435b","ios":"levelo://app?vid=582f6a94-56ea-4670-b76b-73ad56a6435b"},"vehicle_type_id":"4","last_reported":1687619216,"current_range_meters":31200,"station_id":"ce4bhbp2rcd13ifvqerg","pricing_plan_id":"free"},{"bike_id":"edb9fb3e-2372-44d2-9aed-e175e7a20102","system_id":"levelo_inurba_marseille","lat":43.28278,"lon":5.35064,"is_reserved":false,"is_disabled":false,"rental_uris":{"android":"levelo://app?vid=edb9fb3e-2372-44d2-9aed-e175e7a20102","ios":"levelo://app?vid=edb9fb3e-2372-44d2-9aed-e175e7a20102"},"vehicle_type_id":"4","last_reported":1687619216,"current_range_meters":13600,"station_id":"ce4bhbp2rcd13ifvqerg","pricing_plan_id":"free"},{"bike_id":"a59bc1bb-cfc9-4d41-902b-609555763e50","system_id":"levelo_inurba_marseille","lat":43.282744,"lon":5.350533,"is_reserved":false,"is_disabled":false,"rental_uris":{"android":"levelo://app?vid=a59bc1bb-cfc9-4d41-902b-609555763e50","ios":"levelo://app?vid=a59bc1bb-cfc9-4d41-902b-609555763e50"},"vehicle_type_id":"4","last_reported":1687619216,"current_range_meters":0,"station_id":"ce4bhbp2rcd13ifvqerg","pricing_plan_id":"free"},{"bike_id":"b78a0e0c-21f6-45ae-a5a0-a729bdd9a0bf","system_id":"levelo_inurba_marseille","lat":43.292724,"lon":5.401131,"is_reserved":false,"is_disabled":false,"rental_uris":{"android":"levelo://app?vid=b78a0e0c-21f6-45ae-a5a0-a729bdd9a0bf","ios":"levelo://app?vid=b78a0e0c-21f6-45ae-a5a0-a729bdd9a0bf"},"vehicle_type_id":"4","last_reported":1687619216,"current_range_meters":28000,"station_id":"ce4bh312rcd13ifvqdk0","pricing_plan_id":"free"},{"bike_id":"bed31abe-46fb-4578-826d-136bfe87401b","system_id":"levelo_inurba_marseille","lat":43.282744,"lon":5.350533,"is_reserved":false,"is_disabled":false,"rental_uris":{"android":"levelo://app?vid=bed31abe-46fb-4578-826d-136bfe87401b","ios":"levelo://app?vid=bed31abe-46fb-4578-826d-136bfe87401b"},"vehicle_type_id":"4","last_reported":1687619216,"current_range_meters":6400,"station_id":"ce4bhbp2rcd13ifvqerg","pricing_plan_id":"free"},{"bike_id":"d45c2ea8-38a9-4711-b6d4-7c76f8725480","system_id":"levelo_inurba_marseille","lat":43.282744,"lon":5.350533,"is_reserved":false,"is_disabled":false,"rental_uris":{"android":"levelo://app?vid=d45c2ea8-38a9-4711-b6d4-7c76f8725480","ios":"levelo://app?vid=d45c2ea8-38a9-4711-b6d4-7c76f8725480"},"vehicle_type_id":"4","last_reported":1687619216,"current_range_meters":22400,"station_id":"ce4bhbp2rcd13ifvqerg","pricing_plan_id":"free"},{"bike_id":"7bb8c457-c979-488e-9e8e-7c7fde6d0456","system_id":"levelo_inurba_marseille","lat":43.282744,"lon":5.350533,"is_reserved":false,"is_disabled":false,"rental_uris":{"android":"levelo://app?vid=7bb8c457-c979-488e-9e8e-7c7fde6d0456","ios":"levelo://app?vid=7bb8c457-c979-488e-9e8e-7c7fde6d0456"},"vehicle_type_id":"4","last_reported":1687619216,"current_range_meters":28000,"station_id":"ce4bhbp2rcd13ifvqerg","pricing_plan_id":"free"},{"bike_id":"467319a3-067e-4078-b53e-337108ac4bd7","system_id":"levelo_inurba_marseille","lat":43.28273,"lon":5.35062,"is_reserved":false,"is_disabled":false,"rental_uris":{"android":"levelo://app?vid=467319a3-067e-4078-b53e-337108ac4bd7","ios":"levelo://app?vid=467319a3-067e-4078-b53e-337108ac4bd7"},"vehicle_type_id":"4","last_reported":1687619216,"current_range_meters":1200,"station_id":"ce4bhbp2rcd13ifvqerg","pricing_plan_id":"free"},{"bike_id":"3e6fcdc8-5d6b-4946-b7ca-49d2d850a29e","system_id":"levelo_inurba_marseille","lat":43.28267,"lon":5.35068,"is_reserved":false,"is_disabled":false,"rental_uris":{"android":"levelo://app?vid=3e6fcdc8-5d6b-4946-b7ca-49d2d850a29e","ios":"levelo://app?vid=3e6fcdc8-5d6b-4946-b7ca-49d2d850a29e"},"vehicle_type_id":"4","last_reported":1687619216,"current_range_meters":11600,"station_id":"ce4bhbp2rcd13ifvqerg","pricing_plan_id":"free"},{"bike_id":"caa6808c-e245-432f-9522-a426b108ce31","system_id":"levelo_inurba_marseille","lat":43.282744,"lon":5.350533,"is_reserved":false,"is_disabled":false,"rental_uris":{"android":"levelo://app?vid=caa6808c-e245-432f-9522-a426b108ce31","ios":"levelo://app?vid=caa6808c-e245-432f-9522-a426b108ce31"},"vehicle_type_id":"4","last_reported":1687619216,"current_range_meters":30400,"station_id":"ce4bhbp2rcd13ifvqerg","pricing_plan_id":"free"},{"bike_id":"e2e64a39-3ea2-4138-8cd5-f86e212e3f1b","system_id":"levelo_inurba_marseille","lat":43.282754,"lon":5.350519,"is_reserved":false,"is_disabled":false,"rental_uris":{"android":"levelo://app?vid=e2e64a39-3ea2-4138-8cd5-f86e212e3f1b","ios":"levelo://app?vid=e2e64a39-3ea2-4138-8cd5-f86e212e3f1b"},"vehicle_type_id":"4","last_reported":1687619216,"current_range_meters":10800,"station_id":"ce4bhbp2rcd13ifvqerg","pricing_plan_id":"free"},{"bike_id":"e560117e-fc74-41c9-93d2-62825a2e6b57","system_id":"levelo_inurba_marseille","lat":43.28039,"lon":5.369297,"is_reserved":false,"is_disabled":false,"rental_uris":{"android":"levelo://app?vid=e560117e-fc74-41c9-93d2-62825a2e6b57","ios":"levelo://app?vid=e560117e-fc74-41c9-93d2-62825a2e6b57"},"vehicle_type_id":"4","last_reported":1687619216,"current_range_meters":7200,"station_id":"ce4bha12rcd13ifvqef0","pricing_plan_id":"free"},{"bike_id":"a23f2ca8-4fe4-4f15-b842-3dd833f5e5d1","system_id":"levelo_inurba_marseille","lat":43.280382,"lon":5.369291,"is_reserved":false,"is_disabled":false,"rental_uris":{"android":"levelo://app?vid=a23f2ca8-4fe4-4f15-b842-3dd833f5e5d1","ios":"levelo://app?vid=a23f2ca8-4fe4-4f15-b842-3dd833f5e5d1"},"vehicle_type_id":"4","last_reported":1687619216,"current_range_meters":5200,"station_id":"ce4bha12rcd13ifvqef0","pricing_plan_id":"free"},{"bike_id":"ff60adae-f71a-4e2f-9c03-c28e9ecc3c45","system_id":"levelo_inurba_marseille","lat":43.32727,"lon":5.40782,"is_reserved":false,"is_disabled":false,"rental_uris":{"android":"levelo://app?vid=ff60adae-f71a-4e2f-9c03-c28e9ecc3c45","ios":"levelo://app?vid=ff60adae-f71a-4e2f-9c03-c28e9ecc3c45"},"vehicle_type_id":"4","last_reported":1687619216,"current_range_meters":4800,"station_id":"","pricing_plan_id":"free"},{"bike_id":"5de98341-c4f0-4072-bcea-73b5bf2f2859","system_id":"levelo_inurba_marseille","lat":43.326605,"lon":5.409903,"is_reserved":false,"is_disabled":false,"rental_uris":{"android":"levelo://app?vid=5de98341-c4f0-4072-bcea-73b5bf2f2859","ios":"levelo://app?vid=5de98341-c4f0-4072-bcea-73b5bf2f2859"},"vehicle_type_id":"4","last_reported":1687619216,"current_range_meters":30400,"station_id":"ce4bhpp2rcd13ifvqhgg","pricing_plan_id":"free"},{"bike_id":"944cc645-9c61-42d4-8b7e-807c114cae2f","system_id":"levelo_inurba_marseille","lat":43.3266,"lon":5.40986,"is_reserved":false,"is_disabled":false,"rental_uris":{"android":"levelo://app?vid=944cc645-9c61-42d4-8b7e-807c114cae2f","ios":"levelo://app?vid=944cc645-9c61-42d4-8b7e-807c114cae2f"},"vehicle_type_id":"4","last_reported":1687619216,"current_range_meters":30000,"station_id":"ce4bhpp2rcd13ifvqhgg","pricing_plan_id":"free"},{"bike_id":"514e4d9d-f74c-4bd1-8d07-610055ad8743","system_id":"levelo_inurba_marseille","lat":43.32667,"lon":5.4099,"is_reserved":false,"is_disabled":false,"rental_uris":{"android":"levelo://app?vid=514e4d9d-f74c-4bd1-8d07-610055ad8743","ios":"levelo://app?vid=514e4d9d-f74c-4bd1-8d07-610055ad8743"},"vehicle_type_id":"4","last_reported":1687619216,"current_range_meters":10000,"station_id":"ce4bhpp2rcd13ifvqhgg","pricing_plan_id":"free"},{"bike_id":"fc2a51fe-3bf8-46f3-9fe8-f24612d4a02a","system_id":"levelo_inurba_marseille","lat":43.326565,"lon":5.409975,"is_reserved":false,"is_disabled":false,"rental_uris":{"android":"levelo://app?vid=fc2a51fe-3bf8-46f3-9fe8-f24612d4a02a","ios":"levelo://app?vid=fc2a51fe-3bf8-46f3-9fe8-f24612d4a02a"},"vehicle_type_id":"4","last_reported":1687619216,"current_range_meters":3200,"station_id":"ce4bhpp2rcd13ifvqhgg","pricing_plan_id":"free"},{"bike_id":"92d20a4c-87c2-42f8-b369-e2a3f1eb9aa5","system_id":"levelo_inurba_marseille","lat":43.28065,"lon":5.34768,"is_reserved":false,"is_disabled":false,"rental_uris":{"android":"levelo://app?vid=92d20a4c-87c2-42f8-b369-e2a3f1eb9aa5","ios":"levelo://app?vid=92d20a4c-87c2-42f8-b369-e2a3f1eb9aa5"},"vehicle_type_id":"4","last_reported":1687619216,"current_range_meters":4400,"station_id":"","pricing_plan_id":"free"},{"bike_id":"50fd953c-9754-45f4-aec7-ae52bb9eb6fe","system_id":"levelo_inurba_marseille","lat":43.28718,"lon":5.39997,"is_reserved":false,"is_disabled":false,"rental_uris":{"android":"levelo://app?vid=50fd953c-9754-45f4-aec7-ae52bb9eb6fe","ios":"levelo://app?vid=50fd953c-9754-45f4-aec7-ae52bb9eb6fe"},"vehicle_type_id":"4","last_reported":1687619216,"current_range_meters":31200,"station_id":"ce4bho92rcd13ifvqh3g","pricing_plan_id":"free"},{"bike_id":"57cbbd59-6b24-4658-a775-34bd29d7c985","system_id":"levelo_inurba_marseille","lat":43.27978,"lon":5.387017,"is_reserved":false,"is_disabled":false,"rental_uris":{"android":"levelo://app?vid=57cbbd59-6b24-4658-a775-34bd29d7c985","ios":"levelo://app?vid=57cbbd59-6b24-4658-a775-34bd29d7c985"},"vehicle_type_id":"4","last_reported":1687619216,"current_range_meters":29600,"station_id":"ce4bhg12rcd13ifvqf80","pricing_plan_id":"free"},{"bike_id":"ed1c94f0-8a0b-4a63-a93e-6771127b17ab","system_id":"levelo_inurba_marseille","lat":43.29967,"lon":5.41318,"is_reserved":false,"is_disabled":false,"rental_uris":{"android":"levelo://app?vid=ed1c94f0-8a0b-4a63-a93e-6771127b17ab","ios":"levelo://app?vid=ed1c94f0-8a0b-4a63-a93e-6771127b17ab"},"vehicle_type_id":"4","last_reported":1687619216,"current_range_meters":15600,"station_id":"ce4bhp12rcd13ifvqh9g","pricing_plan_id":"free"},{"bike_id":"14c9cff9-ef50-4c6d-8fa4-9a1095daa1fd","system_id":"levelo_inurba_marseille","lat":43.299579,"lon":5.413255,"is_reserved":false,"is_disabled":false,"rental_uris":{"android":"levelo://app?vid=14c9cff9-ef50-4c6d-8fa4-9a1095daa1fd","ios":"levelo://app?vid=14c9cff9-ef50-4c6d-8fa4-9a1095daa1fd"},"vehicle_type_id":"4","last_reported":1687619216,"current_range_meters":31200,"station_id":"ce4bhp12rcd13ifvqh9g","pricing_plan_id":"free"},{"bike_id":"a5db1ab2-8349-49de-b400-2b29dc124992","system_id":"levelo_inurba_marseille","lat":43.29961,"lon":5.41317,"is_reserved":false,"is_disabled":false,"rental_uris":{"android":"levelo://app?vid=a5db1ab2-8349-49de-b400-2b29dc124992","ios":"levelo://app?vid=a5db1ab2-8349-49de-b400-2b29dc124992"},"vehicle_type_id":"4","last_reported":1687619216,"current_range_meters":10400,"station_id":"ce4bhp12rcd13ifvqh9g","pricing_plan_id":"free"},{"bike_id":"d6972410-9827-4bda-93fc-e33c4d4df84f","system_id":"levelo_inurba_marseille","lat":43.299579,"lon":5.413255,"is_reserved":false,"is_disabled":false,"rental_uris":{"android":"levelo://app?vid=d6972410-9827-4bda-93fc-e33c4d4df84f","ios":"levelo://app?vid=d6972410-9827-4bda-93fc-e33c4d4df84f"},"vehicle_type_id":"4","last_reported":1687619216,"current_range_meters":20000,"station_id":"ce4bhp12rcd13ifvqh9g","pricing_plan_id":"free"},{"bike_id":"9197d768-935a-4a09-bd6c-c6864e33e9c7","system_id":"levelo_inurba_marseille","lat":43.320045,"lon":5.415048,"is_reserved":false,"is_disabled":false,"rental_uris":{"android":"levelo://app?vid=9197d768-935a-4a09-bd6c-c6864e33e9c7","ios":"levelo://app?vid=9197d768-935a-4a09-bd6c-c6864e33e9c7"},"vehicle_type_id":"4","last_reported":1687619216,"current_range_meters":31200,"station_id":"ce4bhq92rcd13ifvqhkg","pricing_plan_id":"free"},{"bike_id":"cc3079b5-848e-4588-aff1-afe1ae5dd557","system_id":"levelo_inurba_marseille","lat":43.320045,"lon":5.415048,"is_reserved":false,"is_disabled":false,"rental_uris":{"android":"levelo://app?vid=cc3079b5-848e-4588-aff1-afe1ae5dd557","ios":"levelo://app?vid=cc3079b5-848e-4588-aff1-afe1ae5dd557"},"vehicle_type_id":"4","last_reported":1687619216,"current_range_meters":31600,"station_id":"ce4bhq92rcd13ifvqhkg","pricing_plan_id":"free"},{"bike_id":"40aaff35-3bb4-4c28-b6c2-282d39182583","system_id":"levelo_inurba_marseille","lat":43.279742,"lon":5.38744,"is_reserved":false,"is_disabled":false,"rental_uris":{"android":"levelo://app?vid=40aaff35-3bb4-4c28-b6c2-282d39182583","ios":"levelo://app?vid=40aaff35-3bb4-4c28-b6c2-282d39182583"},"vehicle_type_id":"4","last_reported":1687619216,"current_range_meters":16000,"station_id":"ce4bhg12rcd13ifvqf80","pricing_plan_id":"free"},{"bike_id":"8a41a8b8-9a35-4187-a50c-2e5cb059ceb3","system_id":"levelo_inurba_marseille","lat":43.320045,"lon":5.415048,"is_reserved":false,"is_disabled":false,"rental_uris":{"android":"levelo://app?vid=8a41a8b8-9a35-4187-a50c-2e5cb059ceb3","ios":"levelo://app?vid=8a41a8b8-9a35-4187-a50c-2e5cb059ceb3"},"vehicle_type_id":"4","last_reported":1687619216,"current_range_meters":31200,"station_id":"ce4bhq92rcd13ifvqhkg","pricing_plan_id":"free"},{"bike_id":"25fbec75-4b67-47e9-a9b8-cf1a69311c4e","system_id":"levelo_inurba_marseille","lat":43.320045,"lon":5.415046,"is_reserved":false,"is_disabled":false,"rental_uris":{"android":"levelo://app?vid=25fbec75-4b67-47e9-a9b8-cf1a69311c4e","ios":"levelo://app?vid=25fbec75-4b67-47e9-a9b8-cf1a69311c4e"},"vehicle_type_id":"4","last_reported":1687619216,"current_range_meters":31600,"station_id":"ce4bhq92rcd13ifvqhkg","pricing_plan_id":"free"},{"bike_id":"d1ee3eeb-b6d2-4502-8c4e-66513d598e4d","system_id":"levelo_inurba_marseille","lat":43.320045,"lon":5.415048,"is_reserved":false,"is_disabled":false,"rental_uris":{"android":"levelo://app?vid=d1ee3eeb-b6d2-4502-8c4e-66513d598e4d","ios":"levelo://app?vid=d1ee3eeb-b6d2-4502-8c4e-66513d598e4d"},"vehicle_type_id":"4","last_reported":1687619216,"current_range_meters":30800,"station_id":"ce4bhq92rcd13ifvqhkg","pricing_plan_id":"free"},{"bike_id":"811e78e7-6360-4fe6-a319-bffb122313c0","system_id":"levelo_inurba_marseille","lat":43.279742,"lon":5.38744,"is_reserved":false,"is_disabled":false,"rental_uris":{"android":"levelo://app?vid=811e78e7-6360-4fe6-a319-bffb122313c0","ios":"levelo://app?vid=811e78e7-6360-4fe6-a319-bffb122313c0"},"vehicle_type_id":"4","last_reported":1687619216,"current_range_meters":31600,"station_id":"ce4bhg12rcd13ifvqf80","pricing_plan_id":"free"},{"bike_id":"3648e08d-69ce-4934-be06-e42c2abbd526","system_id":"levelo_inurba_marseille","lat":43.320045,"lon":5.415046,"is_reserved":false,"is_disabled":false,"rental_uris":{"android":"levelo://app?vid=3648e08d-69ce-4934-be06-e42c2abbd526","ios":"levelo://app?vid=3648e08d-69ce-4934-be06-e42c2abbd526"},"vehicle_type_id":"4","last_reported":1687619216,"current_range_meters":31200,"station_id":"ce4bhq92rcd13ifvqhkg","pricing_plan_id":"free"},{"bike_id":"a328d948-3887-4529-9236-102b8cb5a4fc","system_id":"levelo_inurba_marseille","lat":43.320045,"lon":5.415046,"is_reserved":false,"is_disabled":false,"rental_uris":{"android":"levelo://app?vid=a328d948-3887-4529-9236-102b8cb5a4fc","ios":"levelo://app?vid=a328d948-3887-4529-9236-102b8cb5a4fc"},"vehicle_type_id":"4","last_reported":1687619216,"current_range_meters":29200,"station_id":"ce4bhq92rcd13ifvqhkg","pricing_plan_id":"free"},{"bike_id":"60245eca-b85b-4e49-959e-ef046aea2914","system_id":"levelo_inurba_marseille","lat":43.325233,"lon":5.414318,"is_reserved":false,"is_disabled":false,"rental_uris":{"android":"levelo://app?vid=60245eca-b85b-4e49-959e-ef046aea2914","ios":"levelo://app?vid=60245eca-b85b-4e49-959e-ef046aea2914"},"vehicle_type_id":"4","last_reported":1687619216,"current_range_meters":28400,"station_id":"ce4bhq12rcd13ifvqhhg","pricing_plan_id":"free"},{"bike_id":"65042e5e-5b1f-4e6b-92b2-9565f5660c8a","system_id":"levelo_inurba_marseille","lat":43.325398,"lon":5.414222,"is_reserved":false,"is_disabled":false,"rental_uris":{"android":"levelo://app?vid=65042e5e-5b1f-4e6b-92b2-9565f5660c8a","ios":"levelo://app?vid=65042e5e-5b1f-4e6b-92b2-9565f5660c8a"},"vehicle_type_id":"4","last_reported":1687619216,"current_range_meters":28000,"station_id":"ce4bhq12rcd13ifvqhhg","pricing_plan_id":"free"},{"bike_id":"26a13f28-f50f-4348-8f81-d0cd80a36953","system_id":"levelo_inurba_marseille","lat":43.325233,"lon":5.414318,"is_reserved":false,"is_disabled":false,"rental_uris":{"android":"levelo://app?vid=26a13f28-f50f-4348-8f81-d0cd80a36953","ios":"levelo://app?vid=26a13f28-f50f-4348-8f81-d0cd80a36953"},"vehicle_type_id":"4","last_reported":1687619216,"current_range_meters":31200,"station_id":"ce4bhq12rcd13ifvqhhg","pricing_plan_id":"free"},{"bike_id":"f2c03435-619d-4819-81bc-c3793ef21ee4","system_id":"levelo_inurba_marseille","lat":43.276179,"lon":5.361009,"is_reserved":false,"is_disabled":false,"rental_uris":{"android":"levelo://app?vid=f2c03435-619d-4819-81bc-c3793ef21ee4","ios":"levelo://app?vid=f2c03435-619d-4819-81bc-c3793ef21ee4"},"vehicle_type_id":"4","last_reported":1687619216,"current_range_meters":19600,"station_id":"ce4bgj92rcd13ifvqbe0","pricing_plan_id":"free"},{"bike_id":"265e9839-5686-442c-9b91-94874b6a24b0","system_id":"levelo_inurba_marseille","lat":43.28088,"lon":5.39651,"is_reserved":false,"is_disabled":false,"rental_uris":{"android":"levelo://app?vid=265e9839-5686-442c-9b91-94874b6a24b0","ios":"levelo://app?vid=265e9839-5686-442c-9b91-94874b6a24b0"},"vehicle_type_id":"4","last_reported":1687619216,"current_range_meters":0,"station_id":"ce4bho12rcd13ifvqh2g","pricing_plan_id":"free"},{"bike_id":"61e14686-863e-4879-8632-a4b93d98a695","system_id":"levelo_inurba_marseille","lat":43.30358,"lon":5.41876,"is_reserved":false,"is_disabled":false,"rental_uris":{"android":"levelo://app?vid=61e14686-863e-4879-8632-a4b93d98a695","ios":"levelo://app?vid=61e14686-863e-4879-8632-a4b93d98a695"},"vehicle_type_id":"4","last_reported":1687619216,"current_range_meters":21600,"station_id":"","pricing_plan_id":"free"},{"bike_id":"9dcf2228-36a7-4c5b-b1d0-ae308dae8cfd","system_id":"levelo_inurba_marseille","lat":43.30355,"lon":5.41875,"is_reserved":false,"is_disabled":false,"rental_uris":{"android":"levelo://app?vid=9dcf2228-36a7-4c5b-b1d0-ae308dae8cfd","ios":"levelo://app?vid=9dcf2228-36a7-4c5b-b1d0-ae308dae8cfd"},"vehicle_type_id":"4","last_reported":1687619216,"current_range_meters":27600,"station_id":"","pricing_plan_id":"free"},{"bike_id":"f4e95360-905e-4c42-9d6f-b81674eb11da","system_id":"levelo_inurba_marseille","lat":43.30355,"lon":5.41879,"is_reserved":false,"is_disabled":false,"rental_uris":{"android":"levelo://app?vid=f4e95360-905e-4c42-9d6f-b81674eb11da","ios":"levelo://app?vid=f4e95360-905e-4c42-9d6f-b81674eb11da"},"vehicle_type_id":"4","last_reported":1687619216,"current_range_meters":25200,"station_id":"","pricing_plan_id":"free"},{"bike_id":"c7045834-de23-403c-88f4-3d0873e3a21e","system_id":"levelo_inurba_marseille","lat":43.278399,"lon":5.392139,"is_reserved":false,"is_disabled":false,"rental_uris":{"android":"levelo://app?vid=c7045834-de23-403c-88f4-3d0873e3a21e","ios":"levelo://app?vid=c7045834-de23-403c-88f4-3d0873e3a21e"},"vehicle_type_id":"4","last_reported":1687619216,"current_range_meters":9200,"station_id":"ce4bhjp2rcd13ifvqga0","pricing_plan_id":"free"},{"bike_id":"8ca4cf92-f729-460a-97e5-9d7952db557c","system_id":"levelo_inurba_marseille","lat":43.278399,"lon":5.392139,"is_reserved":false,"is_disabled":false,"rental_uris":{"android":"levelo://app?vid=8ca4cf92-f729-460a-97e5-9d7952db557c","ios":"levelo://app?vid=8ca4cf92-f729-460a-97e5-9d7952db557c"},"vehicle_type_id":"4","last_reported":1687619216,"current_range_meters":9200,"station_id":"ce4bhjp2rcd13ifvqga0","pricing_plan_id":"free"},{"bike_id":"c2dbf86a-1164-4dfb-a9e9-44bb4b0c154f","system_id":"levelo_inurba_marseille","lat":43.278399,"lon":5.392139,"is_reserved":false,"is_disabled":false,"rental_uris":{"android":"levelo://app?vid=c2dbf86a-1164-4dfb-a9e9-44bb4b0c154f","ios":"levelo://app?vid=c2dbf86a-1164-4dfb-a9e9-44bb4b0c154f"},"vehicle_type_id":"4","last_reported":1687619216,"current_range_meters":31600,"station_id":"ce4bhjp2rcd13ifvqga0","pricing_plan_id":"free"},{"bike_id":"19845075-b20e-49e7-9b53-380e52e4eb6b","system_id":"levelo_inurba_marseille","lat":43.278399,"lon":5.392139,"is_reserved":false,"is_disabled":false,"rental_uris":{"android":"levelo://app?vid=19845075-b20e-49e7-9b53-380e52e4eb6b","ios":"levelo://app?vid=19845075-b20e-49e7-9b53-380e52e4eb6b"},"vehicle_type_id":"4","last_reported":1687619216,"current_range_meters":31600,"station_id":"ce4bhjp2rcd13ifvqga0","pricing_plan_id":"free"},{"bike_id":"de0cbfc5-c094-4538-9445-3800ca25e68a","system_id":"levelo_inurba_marseille","lat":43.27833,"lon":5.39202,"is_reserved":false,"is_disabled":false,"rental_uris":{"android":"levelo://app?vid=de0cbfc5-c094-4538-9445-3800ca25e68a","ios":"levelo://app?vid=de0cbfc5-c094-4538-9445-3800ca25e68a"},"vehicle_type_id":"4","last_reported":1687619216,"current_range_meters":31200,"station_id":"ce4bhjp2rcd13ifvqga0","pricing_plan_id":"free"},{"bike_id":"083f3400-7964-4d86-87b5-740fbe29ed20","system_id":"levelo_inurba_marseille","lat":43.27385,"lon":5.36261,"is_reserved":false,"is_disabled":false,"rental_uris":{"android":"levelo://app?vid=083f3400-7964-4d86-87b5-740fbe29ed20","ios":"levelo://app?vid=083f3400-7964-4d86-87b5-740fbe29ed20"},"vehicle_type_id":"4","last_reported":1687619216,"current_range_meters":15600,"station_id":"","pricing_plan_id":"free"},{"bike_id":"1e080dad-9563-450f-9182-6068e837aad4","system_id":"levelo_inurba_marseille","lat":43.273613,"lon":5.362705,"is_reserved":false,"is_disabled":false,"rental_uris":{"android":"levelo://app?vid=1e080dad-9563-450f-9182-6068e837aad4","ios":"levelo://app?vid=1e080dad-9563-450f-9182-6068e837aad4"},"vehicle_type_id":"4","last_reported":1687619216,"current_range_meters":11200,"station_id":"ce4bhbh2rcd13ifvqeo0","pricing_plan_id":"free"},{"bike_id":"137eef42-c031-46bf-ab28-9bf867b0dbca","system_id":"levelo_inurba_marseille","lat":43.27384,"lon":5.36257,"is_reserved":false,"is_disabled":false,"rental_uris":{"android":"levelo://app?vid=137eef42-c031-46bf-ab28-9bf867b0dbca","ios":"levelo://app?vid=137eef42-c031-46bf-ab28-9bf867b0dbca"},"vehicle_type_id":"4","last_reported":1687619216,"current_range_meters":14800,"station_id":"","pricing_plan_id":"free"},{"bike_id":"119cd108-1957-45d1-a8e3-6109ee052ad1","system_id":"levelo_inurba_marseille","lat":43.27383,"lon":5.36258,"is_reserved":false,"is_disabled":false,"rental_uris":{"android":"levelo://app?vid=119cd108-1957-45d1-a8e3-6109ee052ad1","ios":"levelo://app?vid=119cd108-1957-45d1-a8e3-6109ee052ad1"},"vehicle_type_id":"4","last_reported":1687619216,"current_range_meters":18400,"station_id":"","pricing_plan_id":"free"},{"bike_id":"37076e43-3f08-4d29-89d7-62bc0cd52067","system_id":"levelo_inurba_marseille","lat":43.27382,"lon":5.36269,"is_reserved":false,"is_disabled":false,"rental_uris":{"android":"levelo://app?vid=37076e43-3f08-4d29-89d7-62bc0cd52067","ios":"levelo://app?vid=37076e43-3f08-4d29-89d7-62bc0cd52067"},"vehicle_type_id":"4","last_reported":1687619216,"current_range_meters":16800,"station_id":"ce4bhbh2rcd13ifvqeo0","pricing_plan_id":"free"},{"bike_id":"7a5f2a05-33ab-491d-be5d-108bcaa7cd60","system_id":"levelo_inurba_marseille","lat":43.273613,"lon":5.362705,"is_reserved":false,"is_disabled":false,"rental_uris":{"android":"levelo://app?vid=7a5f2a05-33ab-491d-be5d-108bcaa7cd60","ios":"levelo://app?vid=7a5f2a05-33ab-491d-be5d-108bcaa7cd60"},"vehicle_type_id":"4","last_reported":1687619216,"current_range_meters":31600,"station_id":"ce4bhbh2rcd13ifvqeo0","pricing_plan_id":"free"},{"bike_id":"94f1293d-56d3-4adc-98e9-2c48a3b93f02","system_id":"levelo_inurba_marseille","lat":43.273613,"lon":5.362705,"is_reserved":false,"is_disabled":false,"rental_uris":{"android":"levelo://app?vid=94f1293d-56d3-4adc-98e9-2c48a3b93f02","ios":"levelo://app?vid=94f1293d-56d3-4adc-98e9-2c48a3b93f02"},"vehicle_type_id":"4","last_reported":1687619216,"current_range_meters":19600,"station_id":"ce4bhbh2rcd13ifvqeo0","pricing_plan_id":"free"},{"bike_id":"a6dbd9b4-5d0e-46f7-b914-b9b8e204749f","system_id":"levelo_inurba_marseille","lat":43.273613,"lon":5.362705,"is_reserved":false,"is_disabled":false,"rental_uris":{"android":"levelo://app?vid=a6dbd9b4-5d0e-46f7-b914-b9b8e204749f","ios":"levelo://app?vid=a6dbd9b4-5d0e-46f7-b914-b9b8e204749f"},"vehicle_type_id":"4","last_reported":1687619216,"current_range_meters":22000,"station_id":"ce4bhbh2rcd13ifvqeo0","pricing_plan_id":"free"},{"bike_id":"17ae740a-0cf7-4672-8e6a-2681eb5e87d4","system_id":"levelo_inurba_marseille","lat":43.273812,"lon":5.362614,"is_reserved":false,"is_disabled":false,"rental_uris":{"android":"levelo://app?vid=17ae740a-0cf7-4672-8e6a-2681eb5e87d4","ios":"levelo://app?vid=17ae740a-0cf7-4672-8e6a-2681eb5e87d4"},"vehicle_type_id":"4","last_reported":1687619216,"current_range_meters":24800,"station_id":"ce4bhbh2rcd13ifvqeo0","pricing_plan_id":"free"},{"bike_id":"6aea5601-b3bf-4a30-9f0b-9c536ef310b4","system_id":"levelo_inurba_marseille","lat":43.27381,"lon":5.36258,"is_reserved":false,"is_disabled":false,"rental_uris":{"android":"levelo://app?vid=6aea5601-b3bf-4a30-9f0b-9c536ef310b4","ios":"levelo://app?vid=6aea5601-b3bf-4a30-9f0b-9c536ef310b4"},"vehicle_type_id":"4","last_reported":1687619216,"current_range_meters":4800,"station_id":"ce4bhbh2rcd13ifvqeo0","pricing_plan_id":"free"},{"bike_id":"bf6367b2-484b-4a74-afce-302e8e859df3","system_id":"levelo_inurba_marseille","lat":43.273613,"lon":5.362705,"is_reserved":false,"is_disabled":false,"rental_uris":{"android":"levelo://app?vid=bf6367b2-484b-4a74-afce-302e8e859df3","ios":"levelo://app?vid=bf6367b2-484b-4a74-afce-302e8e859df3"},"vehicle_type_id":"4","last_reported":1687619216,"current_range_meters":31600,"station_id":"ce4bhbh2rcd13ifvqeo0","pricing_plan_id":"free"},{"bike_id":"3e3552c2-883a-413c-8d2d-15e35f0e6861","system_id":"levelo_inurba_marseille","lat":43.273609,"lon":5.362708,"is_reserved":false,"is_disabled":false,"rental_uris":{"android":"levelo://app?vid=3e3552c2-883a-413c-8d2d-15e35f0e6861","ios":"levelo://app?vid=3e3552c2-883a-413c-8d2d-15e35f0e6861"},"vehicle_type_id":"4","last_reported":1687619216,"current_range_meters":6800,"station_id":"ce4bhbh2rcd13ifvqeo0","pricing_plan_id":"free"},{"bike_id":"aee2bc11-f975-4296-8bbe-70e68d0c566a","system_id":"levelo_inurba_marseille","lat":43.273613,"lon":5.362705,"is_reserved":false,"is_disabled":false,"rental_uris":{"android":"levelo://app?vid=aee2bc11-f975-4296-8bbe-70e68d0c566a","ios":"levelo://app?vid=aee2bc11-f975-4296-8bbe-70e68d0c566a"},"vehicle_type_id":"4","last_reported":1687619216,"current_range_meters":21200,"station_id":"ce4bhbh2rcd13ifvqeo0","pricing_plan_id":"free"},{"bike_id":"5a224d26-8ced-42c1-9e9d-998616494d4e","system_id":"levelo_inurba_marseille","lat":43.27378,"lon":5.36268,"is_reserved":false,"is_disabled":false,"rental_uris":{"android":"levelo://app?vid=5a224d26-8ced-42c1-9e9d-998616494d4e","ios":"levelo://app?vid=5a224d26-8ced-42c1-9e9d-998616494d4e"},"vehicle_type_id":"4","last_reported":1687619216,"current_range_meters":28000,"station_id":"ce4bhbh2rcd13ifvqeo0","pricing_plan_id":"free"},{"bike_id":"384654c9-6701-477c-a350-95c958742287","system_id":"levelo_inurba_marseille","lat":43.27378,"lon":5.36262,"is_reserved":false,"is_disabled":false,"rental_uris":{"android":"levelo://app?vid=384654c9-6701-477c-a350-95c958742287","ios":"levelo://app?vid=384654c9-6701-477c-a350-95c958742287"},"vehicle_type_id":"4","last_reported":1687619216,"current_range_meters":8400,"station_id":"ce4bhbh2rcd13ifvqeo0","pricing_plan_id":"free"},{"bike_id":"f78fbdcb-08ef-4dbc-b210-895645c96633","system_id":"levelo_inurba_marseille","lat":43.273613,"lon":5.362705,"is_reserved":false,"is_disabled":false,"rental_uris":{"android":"levelo://app?vid=f78fbdcb-08ef-4dbc-b210-895645c96633","ios":"levelo://app?vid=f78fbdcb-08ef-4dbc-b210-895645c96633"},"vehicle_type_id":"4","last_reported":1687619216,"current_range_meters":32000,"station_id":"ce4bhbh2rcd13ifvqeo0","pricing_plan_id":"free"},{"bike_id":"11646277-3de0-41e6-93b5-099e8d9f1696","system_id":"levelo_inurba_marseille","lat":43.273609,"lon":5.362708,"is_reserved":false,"is_disabled":false,"rental_uris":{"android":"levelo://app?vid=11646277-3de0-41e6-93b5-099e8d9f1696","ios":"levelo://app?vid=11646277-3de0-41e6-93b5-099e8d9f1696"},"vehicle_type_id":"4","last_reported":1687619216,"current_range_meters":32000,"station_id":"ce4bhbh2rcd13ifvqeo0","pricing_plan_id":"free"},{"bike_id":"9548c173-a87a-4eb7-859e-7ece0e619d1d","system_id":"levelo_inurba_marseille","lat":43.273609,"lon":5.362708,"is_reserved":false,"is_disabled":false,"rental_uris":{"android":"levelo://app?vid=9548c173-a87a-4eb7-859e-7ece0e619d1d","ios":"levelo://app?vid=9548c173-a87a-4eb7-859e-7ece0e619d1d"},"vehicle_type_id":"4","last_reported":1687619216,"current_range_meters":15600,"station_id":"ce4bhbh2rcd13ifvqeo0","pricing_plan_id":"free"},{"bike_id":"0913d858-3663-4497-b2de-35378c985892","system_id":"levelo_inurba_marseille","lat":43.273613,"lon":5.362705,"is_reserved":false,"is_disabled":false,"rental_uris":{"android":"levelo://app?vid=0913d858-3663-4497-b2de-35378c985892","ios":"levelo://app?vid=0913d858-3663-4497-b2de-35378c985892"},"vehicle_type_id":"4","last_reported":1687619216,"current_range_meters":24400,"station_id":"ce4bhbh2rcd13ifvqeo0","pricing_plan_id":"free"},{"bike_id":"bd9bcbdd-8d23-4f19-8514-4f63044abb45","system_id":"levelo_inurba_marseille","lat":43.273609,"lon":5.362708,"is_reserved":false,"is_disabled":false,"rental_uris":{"android":"levelo://app?vid=bd9bcbdd-8d23-4f19-8514-4f63044abb45","ios":"levelo://app?vid=bd9bcbdd-8d23-4f19-8514-4f63044abb45"},"vehicle_type_id":"4","last_reported":1687619216,"current_range_meters":28800,"station_id":"ce4bhbh2rcd13ifvqeo0","pricing_plan_id":"free"},{"bike_id":"df7c94ed-dfc6-4389-9fea-e70fabfbe6ed","system_id":"levelo_inurba_marseille","lat":43.273609,"lon":5.362708,"is_reserved":false,"is_disabled":false,"rental_uris":{"android":"levelo://app?vid=df7c94ed-dfc6-4389-9fea-e70fabfbe6ed","ios":"levelo://app?vid=df7c94ed-dfc6-4389-9fea-e70fabfbe6ed"},"vehicle_type_id":"4","last_reported":1687619216,"current_range_meters":19600,"station_id":"ce4bhbh2rcd13ifvqeo0","pricing_plan_id":"free"},{"bike_id":"18f3f0db-9283-405d-965c-bcbb0793f933","system_id":"levelo_inurba_marseille","lat":43.273609,"lon":5.362708,"is_reserved":false,"is_disabled":false,"rental_uris":{"android":"levelo://app?vid=18f3f0db-9283-405d-965c-bcbb0793f933","ios":"levelo://app?vid=18f3f0db-9283-405d-965c-bcbb0793f933"},"vehicle_type_id":"4","last_reported":1687619216,"current_range_meters":31600,"station_id":"ce4bhbh2rcd13ifvqeo0","pricing_plan_id":"free"},{"bike_id":"13445ec0-d9e3-4f5d-b9b1-4d19c78ecae9","system_id":"levelo_inurba_marseille","lat":43.273613,"lon":5.362705,"is_reserved":false,"is_disabled":false,"rental_uris":{"android":"levelo://app?vid=13445ec0-d9e3-4f5d-b9b1-4d19c78ecae9","ios":"levelo://app?vid=13445ec0-d9e3-4f5d-b9b1-4d19c78ecae9"},"vehicle_type_id":"4","last_reported":1687619216,"current_range_meters":31600,"station_id":"ce4bhbh2rcd13ifvqeo0","pricing_plan_id":"free"},{"bike_id":"dca0268c-a47c-4509-aa4a-2ca4bdd69519","system_id":"levelo_inurba_marseille","lat":43.27374,"lon":5.36254,"is_reserved":false,"is_disabled":false,"rental_uris":{"android":"levelo://app?vid=dca0268c-a47c-4509-aa4a-2ca4bdd69519","ios":"levelo://app?vid=dca0268c-a47c-4509-aa4a-2ca4bdd69519"},"vehicle_type_id":"4","last_reported":1687619216,"current_range_meters":8000,"station_id":"ce4bhbh2rcd13ifvqeo0","pricing_plan_id":"free"},{"bike_id":"71d94b29-418c-41e4-9540-8a47e0b675c9","system_id":"levelo_inurba_marseille","lat":43.273613,"lon":5.362705,"is_reserved":false,"is_disabled":false,"rental_uris":{"android":"levelo://app?vid=71d94b29-418c-41e4-9540-8a47e0b675c9","ios":"levelo://app?vid=71d94b29-418c-41e4-9540-8a47e0b675c9"},"vehicle_type_id":"4","last_reported":1687619216,"current_range_meters":24000,"station_id":"ce4bhbh2rcd13ifvqeo0","pricing_plan_id":"free"},{"bike_id":"3cedfe1a-e25f-4913-8657-6bf913d142e6","system_id":"levelo_inurba_marseille","lat":43.33612,"lon":5.410321,"is_reserved":false,"is_disabled":false,"rental_uris":{"android":"levelo://app?vid=3cedfe1a-e25f-4913-8657-6bf913d142e6","ios":"levelo://app?vid=3cedfe1a-e25f-4913-8657-6bf913d142e6"},"vehicle_type_id":"4","last_reported":1687619216,"current_range_meters":30400,"station_id":"ce4bhqh2rcd13ifvqhmg","pricing_plan_id":"free"},{"bike_id":"99b7a8e4-e738-4afa-8721-6e575592fb41","system_id":"levelo_inurba_marseille","lat":43.273613,"lon":5.362705,"is_reserved":false,"is_disabled":false,"rental_uris":{"android":"levelo://app?vid=99b7a8e4-e738-4afa-8721-6e575592fb41","ios":"levelo://app?vid=99b7a8e4-e738-4afa-8721-6e575592fb41"},"vehicle_type_id":"4","last_reported":1687619216,"current_range_meters":31600,"station_id":"ce4bhbh2rcd13ifvqeo0","pricing_plan_id":"free"},{"bike_id":"624eac60-cf0b-48eb-a7e9-8f6235cc6d83","system_id":"levelo_inurba_marseille","lat":43.273609,"lon":5.362708,"is_reserved":false,"is_disabled":false,"rental_uris":{"android":"levelo://app?vid=624eac60-cf0b-48eb-a7e9-8f6235cc6d83","ios":"levelo://app?vid=624eac60-cf0b-48eb-a7e9-8f6235cc6d83"},"vehicle_type_id":"4","last_reported":1687619216,"current_range_meters":32000,"station_id":"ce4bhbh2rcd13ifvqeo0","pricing_plan_id":"free"},{"bike_id":"38118899-2064-4d4b-94e9-26d9e04d01da","system_id":"levelo_inurba_marseille","lat":43.273609,"lon":5.362708,"is_reserved":false,"is_disabled":false,"rental_uris":{"android":"levelo://app?vid=38118899-2064-4d4b-94e9-26d9e04d01da","ios":"levelo://app?vid=38118899-2064-4d4b-94e9-26d9e04d01da"},"vehicle_type_id":"4","last_reported":1687619216,"current_range_meters":23200,"station_id":"ce4bhbh2rcd13ifvqeo0","pricing_plan_id":"free"},{"bike_id":"89791347-f50c-4890-ac88-b4c1117ce404","system_id":"levelo_inurba_marseille","lat":43.33612,"lon":5.410321,"is_reserved":false,"is_disabled":false,"rental_uris":{"android":"levelo://app?vid=89791347-f50c-4890-ac88-b4c1117ce404","ios":"levelo://app?vid=89791347-f50c-4890-ac88-b4c1117ce404"},"vehicle_type_id":"4","last_reported":1687619216,"current_range_meters":28800,"station_id":"ce4bhqh2rcd13ifvqhmg","pricing_plan_id":"free"},{"bike_id":"abeea9fa-728c-4549-950f-7e92e5701e70","system_id":"levelo_inurba_marseille","lat":43.273609,"lon":5.362708,"is_reserved":false,"is_disabled":false,"rental_uris":{"android":"levelo://app?vid=abeea9fa-728c-4549-950f-7e92e5701e70","ios":"levelo://app?vid=abeea9fa-728c-4549-950f-7e92e5701e70"},"vehicle_type_id":"4","last_reported":1687619216,"current_range_meters":31600,"station_id":"ce4bhbh2rcd13ifvqeo0","pricing_plan_id":"free"},{"bike_id":"44b8931a-8c9e-4195-9a92-184bcc994dd3","system_id":"levelo_inurba_marseille","lat":43.336134,"lon":5.410341,"is_reserved":false,"is_disabled":false,"rental_uris":{"android":"levelo://app?vid=44b8931a-8c9e-4195-9a92-184bcc994dd3","ios":"levelo://app?vid=44b8931a-8c9e-4195-9a92-184bcc994dd3"},"vehicle_type_id":"4","last_reported":1687619216,"current_range_meters":31200,"station_id":"ce4bhqh2rcd13ifvqhmg","pricing_plan_id":"free"},{"bike_id":"b623113e-d134-4da2-8d6b-3cfcf6c5e52e","system_id":"levelo_inurba_marseille","lat":43.336134,"lon":5.410341,"is_reserved":false,"is_disabled":false,"rental_uris":{"android":"levelo://app?vid=b623113e-d134-4da2-8d6b-3cfcf6c5e52e","ios":"levelo://app?vid=b623113e-d134-4da2-8d6b-3cfcf6c5e52e"},"vehicle_type_id":"4","last_reported":1687619216,"current_range_meters":18800,"station_id":"ce4bhqh2rcd13ifvqhmg","pricing_plan_id":"free"},{"bike_id":"c6b3935a-6e04-4d83-a55b-fcc228882994","system_id":"levelo_inurba_marseille","lat":43.30592,"lon":5.42242,"is_reserved":false,"is_disabled":false,"rental_uris":{"android":"levelo://app?vid=c6b3935a-6e04-4d83-a55b-fcc228882994","ios":"levelo://app?vid=c6b3935a-6e04-4d83-a55b-fcc228882994"},"vehicle_type_id":"4","last_reported":1687619216,"current_range_meters":0,"station_id":"","pricing_plan_id":"free"},{"bike_id":"ef60ee1b-9259-4ac5-a17b-d8159f81c5d0","system_id":"levelo_inurba_marseille","lat":43.317121,"lon":5.423936,"is_reserved":false,"is_disabled":false,"rental_uris":{"android":"levelo://app?vid=ef60ee1b-9259-4ac5-a17b-d8159f81c5d0","ios":"levelo://app?vid=ef60ee1b-9259-4ac5-a17b-d8159f81c5d0"},"vehicle_type_id":"4","last_reported":1687619216,"current_range_meters":31600,"station_id":"ce4bhp92rcd13ifvqhbg","pricing_plan_id":"free"},{"bike_id":"a5af5e7f-d669-412d-8386-b234202ce058","system_id":"levelo_inurba_marseille","lat":43.317121,"lon":5.423936,"is_reserved":false,"is_disabled":false,"rental_uris":{"android":"levelo://app?vid=a5af5e7f-d669-412d-8386-b234202ce058","ios":"levelo://app?vid=a5af5e7f-d669-412d-8386-b234202ce058"},"vehicle_type_id":"4","last_reported":1687619216,"current_range_meters":31600,"station_id":"ce4bhp92rcd13ifvqhbg","pricing_plan_id":"free"},{"bike_id":"d0061ac5-9742-4a0c-aaf3-7f03ef588c42","system_id":"levelo_inurba_marseille","lat":43.27591,"lon":5.39487,"is_reserved":false,"is_disabled":false,"rental_uris":{"android":"levelo://app?vid=d0061ac5-9742-4a0c-aaf3-7f03ef588c42","ios":"levelo://app?vid=d0061ac5-9742-4a0c-aaf3-7f03ef588c42"},"vehicle_type_id":"4","last_reported":1687619216,"current_range_meters":15600,"station_id":"","pricing_plan_id":"free"},{"bike_id":"01208fbe-9431-4ed6-ac1f-e90329c35bdb","system_id":"levelo_inurba_marseille","lat":43.26955,"lon":5.36633,"is_reserved":false,"is_disabled":false,"rental_uris":{"android":"levelo://app?vid=01208fbe-9431-4ed6-ac1f-e90329c35bdb","ios":"levelo://app?vid=01208fbe-9431-4ed6-ac1f-e90329c35bdb"},"vehicle_type_id":"4","last_reported":1687619216,"current_range_meters":3600,"station_id":"","pricing_plan_id":"free"},{"bike_id":"e416fd72-8289-4f16-9193-92b10d228523","system_id":"levelo_inurba_marseille","lat":43.27427,"lon":5.39412,"is_reserved":false,"is_disabled":false,"rental_uris":{"android":"levelo://app?vid=e416fd72-8289-4f16-9193-92b10d228523","ios":"levelo://app?vid=e416fd72-8289-4f16-9193-92b10d228523"},"vehicle_type_id":"4","last_reported":1687619216,"current_range_meters":0,"station_id":"","pricing_plan_id":"free"},{"bike_id":"490e5ff6-b124-4ffa-9dae-36dc3fd9323e","system_id":"levelo_inurba_marseille","lat":43.304096,"lon":5.425385,"is_reserved":false,"is_disabled":false,"rental_uris":{"android":"levelo://app?vid=490e5ff6-b124-4ffa-9dae-36dc3fd9323e","ios":"levelo://app?vid=490e5ff6-b124-4ffa-9dae-36dc3fd9323e"},"vehicle_type_id":"4","last_reported":1687619216,"current_range_meters":13600,"station_id":"ce4bhoh2rcd13ifvqh6g","pricing_plan_id":"free"},{"bike_id":"3da22b33-3700-4ebe-b0a2-31d55fd6f719","system_id":"levelo_inurba_marseille","lat":43.304088,"lon":5.425388,"is_reserved":false,"is_disabled":false,"rental_uris":{"android":"levelo://app?vid=3da22b33-3700-4ebe-b0a2-31d55fd6f719","ios":"levelo://app?vid=3da22b33-3700-4ebe-b0a2-31d55fd6f719"},"vehicle_type_id":"4","last_reported":1687619216,"current_range_meters":28000,"station_id":"ce4bhoh2rcd13ifvqh6g","pricing_plan_id":"free"},{"bike_id":"97c4df7e-5952-4539-9bdf-1e44716366d1","system_id":"levelo_inurba_marseille","lat":43.295511,"lon":5.422926,"is_reserved":false,"is_disabled":false,"rental_uris":{"android":"levelo://app?vid=97c4df7e-5952-4539-9bdf-1e44716366d1","ios":"levelo://app?vid=97c4df7e-5952-4539-9bdf-1e44716366d1"},"vehicle_type_id":"4","last_reported":1687619216,"current_range_meters":28000,"station_id":"ce4bhph2rcd13ifvqhdg","pricing_plan_id":"free"},{"bike_id":"f2172cdf-46b2-407f-b934-da33580c2309","system_id":"levelo_inurba_marseille","lat":43.295511,"lon":5.422926,"is_reserved":false,"is_disabled":false,"rental_uris":{"android":"levelo://app?vid=f2172cdf-46b2-407f-b934-da33580c2309","ios":"levelo://app?vid=f2172cdf-46b2-407f-b934-da33580c2309"},"vehicle_type_id":"4","last_reported":1687619216,"current_range_meters":15600,"station_id":"ce4bhph2rcd13ifvqhdg","pricing_plan_id":"free"},{"bike_id":"4fa21102-9c5c-4785-8da0-3d7f957b0c31","system_id":"levelo_inurba_marseille","lat":43.272116,"lon":5.391763,"is_reserved":false,"is_disabled":false,"rental_uris":{"android":"levelo://app?vid=4fa21102-9c5c-4785-8da0-3d7f957b0c31","ios":"levelo://app?vid=4fa21102-9c5c-4785-8da0-3d7f957b0c31"},"vehicle_type_id":"4","last_reported":1687619216,"current_range_meters":31600,"station_id":"ce4bhhp2rcd13ifvqfm0","pricing_plan_id":"free"},{"bike_id":"e811f714-0d11-4711-af50-9c20880275ec","system_id":"levelo_inurba_marseille","lat":43.27203,"lon":5.39191,"is_reserved":false,"is_disabled":false,"rental_uris":{"android":"levelo://app?vid=e811f714-0d11-4711-af50-9c20880275ec","ios":"levelo://app?vid=e811f714-0d11-4711-af50-9c20880275ec"},"vehicle_type_id":"4","last_reported":1687619216,"current_range_meters":19600,"station_id":"ce4bhhp2rcd13ifvqfm0","pricing_plan_id":"free"},{"bike_id":"08ed6370-af0d-4480-a374-7eaab94f3385","system_id":"levelo_inurba_marseille","lat":43.278128,"lon":5.407195,"is_reserved":false,"is_disabled":false,"rental_uris":{"android":"levelo://app?vid=08ed6370-af0d-4480-a374-7eaab94f3385","ios":"levelo://app?vid=08ed6370-af0d-4480-a374-7eaab94f3385"},"vehicle_type_id":"4","last_reported":1687619216,"current_range_meters":8800,"station_id":"ce4bhnh2rcd13ifvqgtg","pricing_plan_id":"free"},{"bike_id":"60eee2aa-4e7e-47f8-965d-7661de1b17ec","system_id":"levelo_inurba_marseille","lat":43.278128,"lon":5.407195,"is_reserved":false,"is_disabled":false,"rental_uris":{"android":"levelo://app?vid=60eee2aa-4e7e-47f8-965d-7661de1b17ec","ios":"levelo://app?vid=60eee2aa-4e7e-47f8-965d-7661de1b17ec"},"vehicle_type_id":"4","last_reported":1687619216,"current_range_meters":15600,"station_id":"ce4bhnh2rcd13ifvqgtg","pricing_plan_id":"free"},{"bike_id":"5fafc4b6-0c8d-44ea-b7a2-4a84de9c43f8","system_id":"levelo_inurba_marseille","lat":43.278128,"lon":5.407195,"is_reserved":false,"is_disabled":false,"rental_uris":{"android":"levelo://app?vid=5fafc4b6-0c8d-44ea-b7a2-4a84de9c43f8","ios":"levelo://app?vid=5fafc4b6-0c8d-44ea-b7a2-4a84de9c43f8"},"vehicle_type_id":"4","last_reported":1687619216,"current_range_meters":9600,"station_id":"ce4bhnh2rcd13ifvqgtg","pricing_plan_id":"free"},{"bike_id":"3ce56edc-617f-4922-a484-ee8716c4401f","system_id":"levelo_inurba_marseille","lat":43.27997,"lon":5.41666,"is_reserved":false,"is_disabled":false,"rental_uris":{"android":"levelo://app?vid=3ce56edc-617f-4922-a484-ee8716c4401f","ios":"levelo://app?vid=3ce56edc-617f-4922-a484-ee8716c4401f"},"vehicle_type_id":"4","last_reported":1687619216,"current_range_meters":31200,"station_id":"ce4bho12rcd13ifvqh1g","pricing_plan_id":"free"},{"bike_id":"5b655a4e-21e3-40fe-a116-771f2ceeb50a","system_id":"levelo_inurba_marseille","lat":43.308051,"lon":5.43527,"is_reserved":false,"is_disabled":false,"rental_uris":{"android":"levelo://app?vid=5b655a4e-21e3-40fe-a116-771f2ceeb50a","ios":"levelo://app?vid=5b655a4e-21e3-40fe-a116-771f2ceeb50a"},"vehicle_type_id":"4","last_reported":1687619216,"current_range_meters":27600,"station_id":"ce4bhph2rcd13ifvqheg","pricing_plan_id":"free"},{"bike_id":"5df1d586-4c0e-4d46-923d-e5d0fee8b312","system_id":"levelo_inurba_marseille","lat":43.30805,"lon":5.4353,"is_reserved":false,"is_disabled":false,"rental_uris":{"android":"levelo://app?vid=5df1d586-4c0e-4d46-923d-e5d0fee8b312","ios":"levelo://app?vid=5df1d586-4c0e-4d46-923d-e5d0fee8b312"},"vehicle_type_id":"4","last_reported":1687619216,"current_range_meters":22400,"station_id":"ce4bhph2rcd13ifvqheg","pricing_plan_id":"free"},{"bike_id":"985bf9ea-1705-44b6-8038-2e0fd8839f65","system_id":"levelo_inurba_marseille","lat":43.31715,"lon":5.43706,"is_reserved":false,"is_disabled":false,"rental_uris":{"android":"levelo://app?vid=985bf9ea-1705-44b6-8038-2e0fd8839f65","ios":"levelo://app?vid=985bf9ea-1705-44b6-8038-2e0fd8839f65"},