{"last_updated":1734012581,"ttl":60,"version":"2.2","data":{"bikes":[{"bike_id":"f273d2db-9d28-4c2f-99d9-9f030249d630","system_id":"levelo_inurba_marseille","lat":43.24079,"lon":5.37729,"is_reserved":false,"is_disabled":false,"rental_uris":{"android":"levelo://app?vid=f273d2db-9d28-4c2f-99d9-9f030249d630","ios":"levelo://app?vid=f273d2db-9d28-4c2f-99d9-9f030249d630"},"vehicle_type_id":"4","last_reported":1734012581,"current_range_meters":28000,"station_id":"ce4bhnp2rcd13ifvqgvg","pricing_plan_id":"cebpf4jnsgd1na2vs0mg"},{"bike_id":"1f447326-1135-42f9-8e10-d34b7c59e3cb","system_id":"levelo_inurba_marseille","lat":43.293,"lon":5.40068,"is_reserved":false,"is_disabled":false,"rental_uris":{"android":"levelo://app?vid=1f447326-1135-42f9-8e10-d34b7c59e3cb","ios":"levelo://app?vid=1f447326-1135-42f9-8e10-d34b7c59e3cb"},"vehicle_type_id":"4","last_reported":1734012581,"current_range_meters":30800,"station_id":"ce4bh312rcd13ifvqdk0","pricing_plan_id":"cebpf4jnsgd1na2vs0mg"},{"bike_id":"f485c635-c85f-4fed-bd26-14d80e68a8ee","system_id":"levelo_inurba_marseille","lat":43.28617,"lon":5.35109,"is_reserved":false,"is_disabled":false,"rental_uris":{"android":"levelo://app?vid=f485c635-c85f-4fed-bd26-14d80e68a8ee","ios":"levelo://app?vid=f485c635-c85f-4fed-bd26-14d80e68a8ee"},"vehicle_type_id":"4","last_reported":1734012581,"current_range_meters":7200,"station_id":"ce4bhch2rcd13ifvqeug","pricing_plan_id":"cebpf4jnsgd1na2vs0mg"},{"bike_id":"60e9ed68-c2d5-4fcc-b1fe-df98992a2ea5","system_id":"levelo_inurba_marseille","lat":43.30764,"lon":5.36837,"is_reserved":false,"is_disabled":true,"rental_uris":{"android":"levelo://app?vid=60e9ed68-c2d5-4fcc-b1fe-df98992a2ea5","ios":"levelo://app?vid=60e9ed68-c2d5-4fcc-b1fe-df98992a2ea5"},"vehicle_type_id":"4","last_reported":1734012581,"current_range_meters":0,"station_id":"","pricing_plan_id":"cebpf4jnsgd1na2vs0mg"},{"bike_id":"70264841-f3db-4034-846f-0a3a10327c9a","system_id":"levelo_inurba_marseille","lat":43.25569,"lon":5.38239,"is_reserved":false,"is_disabled":false,"rental_uris":{"android":"levelo://app?vid=70264841-f3db-4034-846f-0a3a10327c9a","ios":"levelo://app?vid=70264841-f3db-4034-846f-0a3a10327c9a"},"vehicle_type_id":"4","last_reported":1734012581,"current_range_meters":17200,"station_id":"ce4bhih2rcd13ifvqfs0","pricing_plan_id":"cebpf4jnsgd1na2vs0mg"},{"bike_id":"b266efff-3a14-4d1a-a25a-c68ad062a1f4","system_id":"levelo_inurba_marseille","lat":43.24158,"lon":5.36404,"is_reserved":false,"is_disabled":false,"rental_uris":{"android":"levelo://app?vid=b266efff-3a14-4d1a-a25a-c68ad062a1f4","ios":"levelo://app?vid=b266efff-3a14-4d1a-a25a-c68ad062a1f4"},"vehicle_type_id":"4","last_reported":1734012581,"current_range_meters":38800,"station_id":"cpo36qri1sfpv3e86is0","pricing_plan_id":"cebpf4jnsgd1na2vs0mg"},{"bike_id":"f2676ae1-aa79-4ab9-8ade-6a25f90c5540","system_id":"levelo_inurba_marseille","lat":43.25938,"lon":5.40911,"is_reserved":false,"is_disabled":false,"rental_uris":{"android":"levelo://app?vid=f2676ae1-aa79-4ab9-8ade-6a25f90c5540","ios":"levelo://app?vid=f2676ae1-aa79-4ab9-8ade-6a25f90c5540"},"vehicle_type_id":"4","last_reported":1734012581,"current_range_meters":29600,"station_id":"ce4bhm92rcd13ifvqglg","pricing_plan_id":"cebpf4jnsgd1na2vs0mg"},{"bike_id":"5713c77b-743b-422a-ab8b-d60a69f66c07","system_id":"levelo_inurba_marseille","lat":43.34147,"lon":5.409,"is_reserved":false,"is_disabled":false,"rental_uris":{"android":"levelo://app?vid=5713c77b-743b-422a-ab8b-d60a69f66c07","ios":"levelo://app?vid=5713c77b-743b-422a-ab8b-d60a69f66c07"},"vehicle_type_id":"4","last_reported":1734012581,"current_range_meters":27600,"station_id":"ce4bhqh2rcd13ifvqhlg","pricing_plan_id":"cebpf4jnsgd1na2vs0mg"},{"bike_id":"b10cb830-a23f-4995-89fc-bf25ecf89b39","system_id":"levelo_inurba_marseille","lat":43.2466,"lon":5.38164,"is_reserved":false,"is_disabled":false,"rental_uris":{"android":"levelo://app?vid=b10cb830-a23f-4995-89fc-bf25ecf89b39","ios":"levelo://app?vid=b10cb830-a23f-4995-89fc-bf25ecf89b39"},"vehicle_type_id":"4","last_reported":1734012581,"current_range_meters":7200,"station_id":"ce4bhih2rcd13ifvqfr0","pricing_plan_id":"cebpf4jnsgd1na2vs0mg"},{"bike_id":"17f34c20-e69f-48fc-b14f-195e9256d1dd","system_id":"levelo_inurba_marseille","lat":43.32541,"lon":5.41448,"is_reserved":false,"is_disabled":false,"rental_uris":{"android":"levelo://app?vid=17f34c20-e69f-48fc-b14f-195e9256d1dd","ios":"levelo://app?vid=17f34c20-e69f-48fc-b14f-195e9256d1dd"},"vehicle_type_id":"4","last_reported":1734012581,"current_range_meters":14000,"station_id":"ce4bhq12rcd13ifvqhhg","pricing_plan_id":"cebpf4jnsgd1na2vs0mg"},{"bike_id":"fb886c68-9c54-4ccd-b964-6489edb35b3a","system_id":"levelo_inurba_marseille","lat":43.26965,"lon":5.38926,"is_reserved":false,"is_disabled":false,"rental_uris":{"android":"levelo://app?vid=fb886c68-9c54-4ccd-b964-6489edb35b3a","ios":"levelo://app?vid=fb886c68-9c54-4ccd-b964-6489edb35b3a"},"vehicle_type_id":"4","last_reported":1734012581,"current_range_meters":38800,"station_id":"ce4bhhh2rcd13ifvqfl0","pricing_plan_id":"cebpf4jnsgd1na2vs0mg"},{"bike_id":"499ad53a-89f6-4eca-8c40-b3c3c7ae4551","system_id":"levelo_inurba_marseille","lat":43.26923,"lon":5.38931,"is_reserved":false,"is_disabled":false,"rental_uris":{"android":"levelo://app?vid=499ad53a-89f6-4eca-8c40-b3c3c7ae4551","ios":"levelo://app?vid=499ad53a-89f6-4eca-8c40-b3c3c7ae4551"},"vehicle_type_id":"4","last_reported":1734012581,"current_range_meters":38800,"station_id":"ce4bhhh2rcd13ifvqfl0","pricing_plan_id":"cebpf4jnsgd1na2vs0mg"},{"bike_id":"980f96eb-32c9-4906-98f6-c44dbf4c84a1","system_id":"levelo_inurba_marseille","lat":43.27455,"lon":5.40073,"is_reserved":false,"is_disabled":true,"rental_uris":{"android":"levelo://app?vid=980f96eb-32c9-4906-98f6-c44dbf4c84a1","ios":"levelo://app?vid=980f96eb-32c9-4906-98f6-c44dbf4c84a1"},"vehicle_type_id":"4","last_reported":1734012581,"current_range_meters":0,"station_id":"","pricing_plan_id":"cebpf4jnsgd1na2vs0mg"},{"bike_id":"156429bc-ff3b-42db-b3a5-48c1e99069ba","system_id":"levelo_inurba_marseille","lat":43.27167,"lon":5.41001,"is_reserved":false,"is_disabled":false,"rental_uris":{"android":"levelo://app?vid=156429bc-ff3b-42db-b3a5-48c1e99069ba","ios":"levelo://app?vid=156429bc-ff3b-42db-b3a5-48c1e99069ba"},"vehicle_type_id":"4","last_reported":1734012581,"current_range_meters":19200,"station_id":"ce4bhl12rcd13ifvqgf0","pricing_plan_id":"cebpf4jnsgd1na2vs0mg"},{"bike_id":"1bc30a65-3bf9-4656-8c5f-be1ffd1139ac","system_id":"levelo_inurba_marseille","lat":43.29441,"lon":5.39739,"is_reserved":false,"is_disabled":false,"rental_uris":{"android":"levelo://app?vid=1bc30a65-3bf9-4656-8c5f-be1ffd1139ac","ios":"levelo://app?vid=1bc30a65-3bf9-4656-8c5f-be1ffd1139ac"},"vehicle_type_id":"4","last_reported":1734012581,"current_range_meters":6400,"station_id":"ce4bh3h2rcd13ifvqdo0","pricing_plan_id":"cebpf4jnsgd1na2vs0mg"},{"bike_id":"11946c66-40f5-43e5-b208-34cb0c6707f1","system_id":"levelo_inurba_marseille","lat":43.31367,"lon":5.36698,"is_reserved":false,"is_disabled":false,"rental_uris":{"android":"levelo://app?vid=11946c66-40f5-43e5-b208-34cb0c6707f1","ios":"levelo://app?vid=11946c66-40f5-43e5-b208-34cb0c6707f1"},"vehicle_type_id":"4","last_reported":1734012581,"current_range_meters":36400,"station_id":"ce4bgr92rcd13ifvqc6g","pricing_plan_id":"cebpf4jnsgd1na2vs0mg"},{"bike_id":"ef19f8b5-b60b-46bc-bfd1-c11da63b03b1","system_id":"levelo_inurba_marseille","lat":43.31353,"lon":5.36717,"is_reserved":false,"is_disabled":false,"rental_uris":{"android":"levelo://app?vid=ef19f8b5-b60b-46bc-bfd1-c11da63b03b1","ios":"levelo://app?vid=ef19f8b5-b60b-46bc-bfd1-c11da63b03b1"},"vehicle_type_id":"4","last_reported":1734012581,"current_range_meters":33200,"station_id":"ce4bgr92rcd13ifvqc6g","pricing_plan_id":"cebpf4jnsgd1na2vs0mg"},{"bike_id":"3894f342-34f8-44c7-9bea-45962870fb6a","system_id":"levelo_inurba_marseille","lat":43.28615,"lon":5.3511,"is_reserved":false,"is_disabled":true,"rental_uris":{"android":"levelo://app?vid=3894f342-34f8-44c7-9bea-45962870fb6a","ios":"levelo://app?vid=3894f342-34f8-44c7-9bea-45962870fb6a"},"vehicle_type_id":"4","last_reported":1734012581,"current_range_meters":0,"station_id":"ce4bhch2rcd13ifvqeug","pricing_plan_id":"cebpf4jnsgd1na2vs0mg"},{"bike_id":"de55c0b8-904b-4ae3-9188-31ee3748c6ac","system_id":"levelo_inurba_marseille","lat":43.27993,"lon":5.41659,"is_reserved":false,"is_disabled":false,"rental_uris":{"android":"levelo://app?vid=de55c0b8-904b-4ae3-9188-31ee3748c6ac","ios":"levelo://app?vid=de55c0b8-904b-4ae3-9188-31ee3748c6ac"},"vehicle_type_id":"4","last_reported":1734012581,"current_range_meters":39200,"station_id":"ce4bho12rcd13ifvqh1g","pricing_plan_id":"cebpf4jnsgd1na2vs0mg"},{"bike_id":"a118724e-099d-4517-9529-bc6e47cefa3a","system_id":"levelo_inurba_marseille","lat":43.30545,"lon":5.36537,"is_reserved":false,"is_disabled":false,"rental_uris":{"android":"levelo://app?vid=a118724e-099d-4517-9529-bc6e47cefa3a","ios":"levelo://app?vid=a118724e-099d-4517-9529-bc6e47cefa3a"},"vehicle_type_id":"4","last_reported":1734012581,"current_range_meters":30000,"station_id":"ce4bgs12rcd13ifvqcag","pricing_plan_id":"cebpf4jnsgd1na2vs0mg"},{"bike_id":"956866e0-6ca6-44d7-883c-ea6f43ee4bf6","system_id":"levelo_inurba_marseille","lat":43.27062,"lon":5.40258,"is_reserved":false,"is_disabled":false,"rental_uris":{"android":"levelo://app?vid=956866e0-6ca6-44d7-883c-ea6f43ee4bf6","ios":"levelo://app?vid=956866e0-6ca6-44d7-883c-ea6f43ee4bf6"},"vehicle_type_id":"4","last_reported":1734012581,"current_range_meters":16000,"station_id":"ce4bhk92rcd13ifvqgc0","pricing_plan_id":"cebpf4jnsgd1na2vs0mg"},{"bike_id":"1301c2fd-c7ff-4e18-9e0a-494e4e9bcdd5","system_id":"levelo_inurba_marseille","lat":43.305293,"lon":5.365395,"is_reserved":false,"is_disabled":false,"rental_uris":{"android":"levelo://app?vid=1301c2fd-c7ff-4e18-9e0a-494e4e9bcdd5","ios":"levelo://app?vid=1301c2fd-c7ff-4e18-9e0a-494e4e9bcdd5"},"vehicle_type_id":"4","last_reported":1734012581,"current_range_meters":39200,"station_id":"ce4bgs12rcd13ifvqcag","pricing_plan_id":"cebpf4jnsgd1na2vs0mg"},{"bike_id":"2c6dcf6c-7928-45a4-8b50-97a04c23e05d","system_id":"levelo_inurba_marseille","lat":43.287122,"lon":5.379436,"is_reserved":false,"is_disabled":false,"rental_uris":{"android":"levelo://app?vid=2c6dcf6c-7928-45a4-8b50-97a04c23e05d","ios":"levelo://app?vid=2c6dcf6c-7928-45a4-8b50-97a04c23e05d"},"vehicle_type_id":"4","last_reported":1734012581,"current_range_meters":36000,"station_id":"ce4bh9p2rcd13ifvqec0","pricing_plan_id":"cebpf4jnsgd1na2vs0mg"},{"bike_id":"df40565c-9e50-4f6c-957f-fc63338491b7","system_id":"levelo_inurba_marseille","lat":43.29571,"lon":5.37501,"is_reserved":false,"is_disabled":false,"rental_uris":{"android":"levelo://app?vid=df40565c-9e50-4f6c-957f-fc63338491b7","ios":"levelo://app?vid=df40565c-9e50-4f6c-957f-fc63338491b7"},"vehicle_type_id":"4","last_reported":1734012581,"current_range_meters":38800,"station_id":"ce4bgh92rcd13ifvqb50","pricing_plan_id":"cebpf4jnsgd1na2vs0mg"},{"bike_id":"6fe4b9c3-d4e0-4976-bdb0-319889beb966","system_id":"levelo_inurba_marseille","lat":43.26568,"lon":5.39007,"is_reserved":false,"is_disabled":false,"rental_uris":{"android":"levelo://app?vid=6fe4b9c3-d4e0-4976-bdb0-319889beb966","ios":"levelo://app?vid=6fe4b9c3-d4e0-4976-bdb0-319889beb966"},"vehicle_type_id":"4","last_reported":1734012581,"current_range_meters":26800,"station_id":"ce4bhe12rcd13ifvqf30","pricing_plan_id":"cebpf4jnsgd1na2vs0mg"},{"bike_id":"889820bf-4afd-4c2d-aa86-7a33e41a8aa7","system_id":"levelo_inurba_marseille","lat":43.2743,"lon":5.39415,"is_reserved":false,"is_disabled":false,"rental_uris":{"android":"levelo://app?vid=889820bf-4afd-4c2d-aa86-7a33e41a8aa7","ios":"levelo://app?vid=889820bf-4afd-4c2d-aa86-7a33e41a8aa7"},"vehicle_type_id":"4","last_reported":1734012581,"current_range_meters":38800,"station_id":"ce4bhdp2rcd13ifvqf20","pricing_plan_id":"cebpf4jnsgd1na2vs0mg"},{"bike_id":"80f66b82-54aa-4843-b64e-91d3afce4948","system_id":"levelo_inurba_marseille","lat":43.31224,"lon":5.36855,"is_reserved":false,"is_disabled":true,"rental_uris":{"android":"levelo://app?vid=80f66b82-54aa-4843-b64e-91d3afce4948","ios":"levelo://app?vid=80f66b82-54aa-4843-b64e-91d3afce4948"},"vehicle_type_id":"4","last_reported":1734012581,"current_range_meters":32400,"station_id":"ce4bgl92rcd13ifvqbq0","pricing_plan_id":"cebpf4jnsgd1na2vs0mg"},{"bike_id":"01947e0e-69af-4482-be9d-b176c3310e24","system_id":"levelo_inurba_marseille","lat":43.283658,"lon":5.386284,"is_reserved":false,"is_disabled":false,"rental_uris":{"android":"levelo://app?vid=01947e0e-69af-4482-be9d-b176c3310e24","ios":"levelo://app?vid=01947e0e-69af-4482-be9d-b176c3310e24"},"vehicle_type_id":"4","last_reported":1734012581,"current_range_meters":24400,"station_id":"ce4bh492rcd13ifvqdvg","pricing_plan_id":"cebpf4jnsgd1na2vs0mg"},{"bike_id":"6f091068-502f-4e4c-9fe5-d6e01b9619bb","system_id":"levelo_inurba_marseille","lat":43.2942,"lon":5.38629,"is_reserved":false,"is_disabled":false,"rental_uris":{"android":"levelo://app?vid=6f091068-502f-4e4c-9fe5-d6e01b9619bb","ios":"levelo://app?vid=6f091068-502f-4e4c-9fe5-d6e01b9619bb"},"vehicle_type_id":"4","last_reported":1734012581,"current_range_meters":25600,"station_id":"","pricing_plan_id":"cebpf4jnsgd1na2vs0mg"},{"bike_id":"3a56946e-b571-4f0a-89c3-228266a44430","system_id":"levelo_inurba_marseille","lat":43.26597,"lon":5.38971,"is_reserved":false,"is_disabled":true,"rental_uris":{"android":"levelo://app?vid=3a56946e-b571-4f0a-89c3-228266a44430","ios":"levelo://app?vid=3a56946e-b571-4f0a-89c3-228266a44430"},"vehicle_type_id":"4","last_reported":1734012581,"current_range_meters":3200,"station_id":"","pricing_plan_id":"cebpf4jnsgd1na2vs0mg"},{"bike_id":"a7f580ed-51b4-4313-a41e-537f7413d4cc","system_id":"levelo_inurba_marseille","lat":43.27063,"lon":5.40256,"is_reserved":false,"is_disabled":false,"rental_uris":{"android":"levelo://app?vid=a7f580ed-51b4-4313-a41e-537f7413d4cc","ios":"levelo://app?vid=a7f580ed-51b4-4313-a41e-537f7413d4cc"},"vehicle_type_id":"4","last_reported":1734012581,"current_range_meters":35600,"station_id":"ce4bhk92rcd13ifvqgc0","pricing_plan_id":"cebpf4jnsgd1na2vs0mg"},{"bike_id":"6b29723c-028d-4b12-9bd0-87f837b2148e","system_id":"levelo_inurba_marseille","lat":43.26031,"lon":5.3755,"is_reserved":false,"is_disabled":false,"rental_uris":{"android":"levelo://app?vid=6b29723c-028d-4b12-9bd0-87f837b2148e","ios":"levelo://app?vid=6b29723c-028d-4b12-9bd0-87f837b2148e"},"vehicle_type_id":"4","last_reported":1734012581,"current_range_meters":38800,"station_id":"ce4bhgh2rcd13ifvqfa0","pricing_plan_id":"cebpf4jnsgd1na2vs0mg"},{"bike_id":"77054d8b-c932-47dd-8dc5-fc7e5e07fc06","system_id":"levelo_inurba_marseille","lat":43.29795,"lon":5.38104,"is_reserved":false,"is_disabled":false,"rental_uris":{"android":"levelo://app?vid=77054d8b-c932-47dd-8dc5-fc7e5e07fc06","ios":"levelo://app?vid=77054d8b-c932-47dd-8dc5-fc7e5e07fc06"},"vehicle_type_id":"4","last_reported":1734012581,"current_range_meters":35600,"station_id":"ce4bgip2rcd13ifvqbb0","pricing_plan_id":"cebpf4jnsgd1na2vs0mg"},{"bike_id":"a3259a15-893e-4f79-86d9-0444bf9d4a9a","system_id":"levelo_inurba_marseille","lat":43.30813,"lon":5.38139,"is_reserved":false,"is_disabled":false,"rental_uris":{"android":"levelo://app?vid=a3259a15-893e-4f79-86d9-0444bf9d4a9a","ios":"levelo://app?vid=a3259a15-893e-4f79-86d9-0444bf9d4a9a"},"vehicle_type_id":"4","last_reported":1734012581,"current_range_meters":27600,"station_id":"ce4bgt12rcd13ifvqce0","pricing_plan_id":"cebpf4jnsgd1na2vs0mg"},{"bike_id":"90bcd5e3-5c2c-4aba-b6e7-6ea4927f76ff","system_id":"levelo_inurba_marseille","lat":43.29699,"lon":5.37303,"is_reserved":false,"is_disabled":false,"rental_uris":{"android":"levelo://app?vid=90bcd5e3-5c2c-4aba-b6e7-6ea4927f76ff","ios":"levelo://app?vid=90bcd5e3-5c2c-4aba-b6e7-6ea4927f76ff"},"vehicle_type_id":"4","last_reported":1734012581,"current_range_meters":38800,"station_id":"ce4bgk12rcd13ifvqbj0","pricing_plan_id":"cebpf4jnsgd1na2vs0mg"},{"bike_id":"2631f4d1-9f04-4d9a-b451-c4494314862c","system_id":"levelo_inurba_marseille","lat":43.2656,"lon":5.39014,"is_reserved":false,"is_disabled":false,"rental_uris":{"android":"levelo://app?vid=2631f4d1-9f04-4d9a-b451-c4494314862c","ios":"levelo://app?vid=2631f4d1-9f04-4d9a-b451-c4494314862c"},"vehicle_type_id":"4","last_reported":1734012581,"current_range_meters":37600,"station_id":"ce4bhe12rcd13ifvqf30","pricing_plan_id":"cebpf4jnsgd1na2vs0mg"},{"bike_id":"4552534d-00b9-4142-9baa-7b817acd308f","system_id":"levelo_inurba_marseille","lat":43.32479,"lon":5.3658,"is_reserved":false,"is_disabled":false,"rental_uris":{"android":"levelo://app?vid=4552534d-00b9-4142-9baa-7b817acd308f","ios":"levelo://app?vid=4552534d-00b9-4142-9baa-7b817acd308f"},"vehicle_type_id":"4","last_reported":1734012581,"current_range_meters":28400,"station_id":"ce4bhs12rcd13ifvqhvg","pricing_plan_id":"cebpf4jnsgd1na2vs0mg"},{"bike_id":"11933e04-d81a-4d25-aa83-cc295172b3a1","system_id":"levelo_inurba_marseille","lat":43.25409,"lon":5.38279,"is_reserved":false,"is_disabled":true,"rental_uris":{"android":"levelo://app?vid=11933e04-d81a-4d25-aa83-cc295172b3a1","ios":"levelo://app?vid=11933e04-d81a-4d25-aa83-cc295172b3a1"},"vehicle_type_id":"4","last_reported":1734012581,"current_range_meters":30000,"station_id":"","pricing_plan_id":"cebpf4jnsgd1na2vs0mg"},{"bike_id":"97c5cdf1-5409-48ef-b0e2-df7f208e5c46","system_id":"levelo_inurba_marseille","lat":43.27057,"lon":5.40267,"is_reserved":false,"is_disabled":false,"rental_uris":{"android":"levelo://app?vid=97c5cdf1-5409-48ef-b0e2-df7f208e5c46","ios":"levelo://app?vid=97c5cdf1-5409-48ef-b0e2-df7f208e5c46"},"vehicle_type_id":"4","last_reported":1734012581,"current_range_meters":28000,"station_id":"ce4bhk92rcd13ifvqgc0","pricing_plan_id":"cebpf4jnsgd1na2vs0mg"},{"bike_id":"c4412eb7-fc32-4912-a812-6e15b96bb2e2","system_id":"levelo_inurba_marseille","lat":43.278988,"lon":5.380167,"is_reserved":false,"is_disabled":false,"rental_uris":{"android":"levelo://app?vid=c4412eb7-fc32-4912-a812-6e15b96bb2e2","ios":"levelo://app?vid=c4412eb7-fc32-4912-a812-6e15b96bb2e2"},"vehicle_type_id":"4","last_reported":1734012581,"current_range_meters":39200,"station_id":"ce4bhf92rcd13ifvqf50","pricing_plan_id":"cebpf4jnsgd1na2vs0mg"},{"bike_id":"21559104-aa95-4db5-8345-263c9f7c3638","system_id":"levelo_inurba_marseille","lat":43.27207,"lon":5.39178,"is_reserved":false,"is_disabled":false,"rental_uris":{"android":"levelo://app?vid=21559104-aa95-4db5-8345-263c9f7c3638","ios":"levelo://app?vid=21559104-aa95-4db5-8345-263c9f7c3638"},"vehicle_type_id":"4","last_reported":1734012581,"current_range_meters":28000,"station_id":"ce4bhhp2rcd13ifvqfm0","pricing_plan_id":"cebpf4jnsgd1na2vs0mg"},{"bike_id":"30b7f7b0-cffb-44e8-9e23-86428fe1183d","system_id":"levelo_inurba_marseille","lat":43.23065,"lon":5.35507,"is_reserved":false,"is_disabled":false,"rental_uris":{"android":"levelo://app?vid=30b7f7b0-cffb-44e8-9e23-86428fe1183d","ios":"levelo://app?vid=30b7f7b0-cffb-44e8-9e23-86428fe1183d"},"vehicle_type_id":"4","last_reported":1734012581,"current_range_meters":8000,"station_id":"cpo3342slgdg3j2ifvpg","pricing_plan_id":"cebpf4jnsgd1na2vs0mg"},{"bike_id":"6af13618-4365-4d73-921a-aee3b3e1b285","system_id":"levelo_inurba_marseille","lat":43.266785,"lon":5.382818,"is_reserved":false,"is_disabled":false,"rental_uris":{"android":"levelo://app?vid=6af13618-4365-4d73-921a-aee3b3e1b285","ios":"levelo://app?vid=6af13618-4365-4d73-921a-aee3b3e1b285"},"vehicle_type_id":"4","last_reported":1734012581,"current_range_meters":38800,"station_id":"ce4bhg92rcd13ifvqf90","pricing_plan_id":"cebpf4jnsgd1na2vs0mg"},{"bike_id":"75904371-351c-474e-9365-1a99298a585b","system_id":"levelo_inurba_marseille","lat":43.30901,"lon":5.37182,"is_reserved":false,"is_disabled":false,"rental_uris":{"android":"levelo://app?vid=75904371-351c-474e-9365-1a99298a585b","ios":"levelo://app?vid=75904371-351c-474e-9365-1a99298a585b"},"vehicle_type_id":"4","last_reported":1734012581,"current_range_meters":24400,"station_id":"ce4bguh2rcd13ifvqckg","pricing_plan_id":"cebpf4jnsgd1na2vs0mg"},{"bike_id":"5957572d-f37f-4a70-b69d-81a29d13da5d","system_id":"levelo_inurba_marseille","lat":43.32365,"lon":5.38884,"is_reserved":false,"is_disabled":false,"rental_uris":{"android":"levelo://app?vid=5957572d-f37f-4a70-b69d-81a29d13da5d","ios":"levelo://app?vid=5957572d-f37f-4a70-b69d-81a29d13da5d"},"vehicle_type_id":"4","last_reported":1734012581,"current_range_meters":34000,"station_id":"ce4bhqp2rcd13ifvqhog","pricing_plan_id":"cebpf4jnsgd1na2vs0mg"},{"bike_id":"eab0f109-9af6-4fd0-bd50-23add5077b60","system_id":"levelo_inurba_marseille","lat":43.29967,"lon":5.37188,"is_reserved":false,"is_disabled":false,"rental_uris":{"android":"levelo://app?vid=eab0f109-9af6-4fd0-bd50-23add5077b60","ios":"levelo://app?vid=eab0f109-9af6-4fd0-bd50-23add5077b60"},"vehicle_type_id":"4","last_reported":1734012581,"current_range_meters":12400,"station_id":"ce4bgr92rcd13ifvqc7g","pricing_plan_id":"cebpf4jnsgd1na2vs0mg"},{"bike_id":"302f543c-4369-40d9-baa7-901915e518d9","system_id":"levelo_inurba_marseille","lat":43.25869,"lon":5.39896,"is_reserved":false,"is_disabled":false,"rental_uris":{"android":"levelo://app?vid=302f543c-4369-40d9-baa7-901915e518d9","ios":"levelo://app?vid=302f543c-4369-40d9-baa7-901915e518d9"},"vehicle_type_id":"4","last_reported":1734012581,"current_range_meters":38800,"station_id":"ce4bhl92rcd13ifvqghg","pricing_plan_id":"cebpf4jnsgd1na2vs0mg"},{"bike_id":"59d86f39-22ba-4a78-ae0c-9fb5e97eaf39","system_id":"levelo_inurba_marseille","lat":43.29026,"lon":5.38623,"is_reserved":false,"is_disabled":false,"rental_uris":{"android":"levelo://app?vid=59d86f39-22ba-4a78-ae0c-9fb5e97eaf39","ios":"levelo://app?vid=59d86f39-22ba-4a78-ae0c-9fb5e97eaf39"},"vehicle_type_id":"4","last_reported":1734012581,"current_range_meters":22000,"station_id":"ce4bh4p2rcd13ifvqe0g","pricing_plan_id":"cebpf4jnsgd1na2vs0mg"},{"bike_id":"dd28bc87-aedf-45fd-b982-6aee62487677","system_id":"levelo_inurba_marseille","lat":43.26554,"lon":5.37286,"is_reserved":false,"is_disabled":false,"rental_uris":{"android":"levelo://app?vid=dd28bc87-aedf-45fd-b982-6aee62487677","ios":"levelo://app?vid=dd28bc87-aedf-45fd-b982-6aee62487677"},"vehicle_type_id":"4","last_reported":1734012581,"current_range_meters":11600,"station_id":"ce4bhg12rcd13ifvqf70","pricing_plan_id":"cebpf4jnsgd1na2vs0mg"},{"bike_id":"7c39a303-a108-454f-a967-c198f949ad5c","system_id":"levelo_inurba_marseille","lat":43.29916,"lon":5.37476,"is_reserved":false,"is_disabled":false,"rental_uris":{"android":"levelo://app?vid=7c39a303-a108-454f-a967-c198f949ad5c","ios":"levelo://app?vid=7c39a303-a108-454f-a967-c198f949ad5c"},"vehicle_type_id":"4","last_reported":1734012581,"current_range_meters":14800,"station_id":"ce4bgjh2rcd13ifvqbg0","pricing_plan_id":"cebpf4jnsgd1na2vs0mg"},{"bike_id":"38be23f3-2117-4b68-8daa-edbad697b6c1","system_id":"levelo_inurba_marseille","lat":43.24074,"lon":5.37755,"is_reserved":false,"is_disabled":false,"rental_uris":{"android":"levelo://app?vid=38be23f3-2117-4b68-8daa-edbad697b6c1","ios":"levelo://app?vid=38be23f3-2117-4b68-8daa-edbad697b6c1"},"vehicle_type_id":"4","last_reported":1734012581,"current_range_meters":38800,"station_id":"ce4bhnp2rcd13ifvqgvg","pricing_plan_id":"cebpf4jnsgd1na2vs0mg"},{"bike_id":"3cc49aec-0146-4bd6-8ced-13dc2b354f47","system_id":"levelo_inurba_marseille","lat":43.2318,"lon":5.39989,"is_reserved":false,"is_disabled":true,"rental_uris":{"android":"levelo://app?vid=3cc49aec-0146-4bd6-8ced-13dc2b354f47","ios":"levelo://app?vid=3cc49aec-0146-4bd6-8ced-13dc2b354f47"},"vehicle_type_id":"4","last_reported":1734012581,"current_range_meters":2000,"station_id":"ce4bhn12rcd13ifvqgqg","pricing_plan_id":"cebpf4jnsgd1na2vs0mg"},{"bike_id":"b327d689-fa6e-4e20-9318-a04c545278a0","system_id":"levelo_inurba_marseille","lat":43.30325,"lon":5.40434,"is_reserved":false,"is_disabled":false,"rental_uris":{"android":"levelo://app?vid=b327d689-fa6e-4e20-9318-a04c545278a0","ios":"levelo://app?vid=b327d689-fa6e-4e20-9318-a04c545278a0"},"vehicle_type_id":"4","last_reported":1734012581,"current_range_meters":38800,"station_id":"ce4bh012rcd13ifvqd10","pricing_plan_id":"cebpf4jnsgd1na2vs0mg"},{"bike_id":"dd9a6575-2f8b-45fc-bebf-c2e321fbf935","system_id":"levelo_inurba_marseille","lat":43.28707,"lon":5.37948,"is_reserved":false,"is_disabled":false,"rental_uris":{"android":"levelo://app?vid=dd9a6575-2f8b-45fc-bebf-c2e321fbf935","ios":"levelo://app?vid=dd9a6575-2f8b-45fc-bebf-c2e321fbf935"},"vehicle_type_id":"4","last_reported":1734012581,"current_range_meters":36400,"station_id":"ce4bh9p2rcd13ifvqec0","pricing_plan_id":"cebpf4jnsgd1na2vs0mg"},{"bike_id":"aa4a32db-4df7-4d25-96ce-7f0e481204fc","system_id":"levelo_inurba_marseille","lat":43.2807,"lon":5.39656,"is_reserved":false,"is_disabled":false,"rental_uris":{"android":"levelo://app?vid=aa4a32db-4df7-4d25-96ce-7f0e481204fc","ios":"levelo://app?vid=aa4a32db-4df7-4d25-96ce-7f0e481204fc"},"vehicle_type_id":"4","last_reported":1734012581,"current_range_meters":38000,"station_id":"ce4bho12rcd13ifvqh2g","pricing_plan_id":"cebpf4jnsgd1na2vs0mg"},{"bike_id":"4e17aa1e-a2e4-4084-a5f8-5dfad000b845","system_id":"levelo_inurba_marseille","lat":43.30541,"lon":5.36543,"is_reserved":false,"is_disabled":false,"rental_uris":{"android":"levelo://app?vid=4e17aa1e-a2e4-4084-a5f8-5dfad000b845","ios":"levelo://app?vid=4e17aa1e-a2e4-4084-a5f8-5dfad000b845"},"vehicle_type_id":"4","last_reported":1734012581,"current_range_meters":27600,"station_id":"ce4bgs12rcd13ifvqcag","pricing_plan_id":"cebpf4jnsgd1na2vs0mg"},{"bike_id":"4c9a48f7-763e-4e96-a176-c382227dbe96","system_id":"levelo_inurba_marseille","lat":43.29084,"lon":5.38139,"is_reserved":false,"is_disabled":true,"rental_uris":{"android":"levelo://app?vid=4c9a48f7-763e-4e96-a176-c382227dbe96","ios":"levelo://app?vid=4c9a48f7-763e-4e96-a176-c382227dbe96"},"vehicle_type_id":"4","last_reported":1734012581,"current_range_meters":0,"station_id":"ce4bh512rcd13ifvqe2g","pricing_plan_id":"cebpf4jnsgd1na2vs0mg"},{"bike_id":"6b7da9da-7ed8-4376-8377-8274a75ba481","system_id":"levelo_inurba_marseille","lat":43.27323,"lon":5.39937,"is_reserved":false,"is_disabled":true,"rental_uris":{"android":"levelo://app?vid=6b7da9da-7ed8-4376-8377-8274a75ba481","ios":"levelo://app?vid=6b7da9da-7ed8-4376-8377-8274a75ba481"},"vehicle_type_id":"4","last_reported":1734012581,"current_range_meters":36800,"station_id":"","pricing_plan_id":"cebpf4jnsgd1na2vs0mg"},{"bike_id":"bf2448ec-8a15-4eb1-8d34-9d0daf08386c","system_id":"levelo_inurba_marseille","lat":43.27374,"lon":5.36254,"is_reserved":false,"is_disabled":false,"rental_uris":{"android":"levelo://app?vid=bf2448ec-8a15-4eb1-8d34-9d0daf08386c","ios":"levelo://app?vid=bf2448ec-8a15-4eb1-8d34-9d0daf08386c"},"vehicle_type_id":"4","last_reported":1734012581,"current_range_meters":34800,"station_id":"ce4bhbh2rcd13ifvqeo0","pricing_plan_id":"cebpf4jnsgd1na2vs0mg"},{"bike_id":"af67ac53-ba21-4ff0-8334-95679e9ff2cc","system_id":"levelo_inurba_marseille","lat":43.278805,"lon":5.388003,"is_reserved":false,"is_disabled":true,"rental_uris":{"android":"levelo://app?vid=af67ac53-ba21-4ff0-8334-95679e9ff2cc","ios":"levelo://app?vid=af67ac53-ba21-4ff0-8334-95679e9ff2cc"},"vehicle_type_id":"4","last_reported":1734012581,"current_range_meters":0,"station_id":"","pricing_plan_id":"cebpf4jnsgd1na2vs0mg"},{"bike_id":"cad498c4-d891-4694-8525-834bb3978ab4","system_id":"levelo_inurba_marseille","lat":43.28569,"lon":5.39503,"is_reserved":false,"is_disabled":false,"rental_uris":{"android":"levelo://app?vid=cad498c4-d891-4694-8525-834bb3978ab4","ios":"levelo://app?vid=cad498c4-d891-4694-8525-834bb3978ab4"},"vehicle_type_id":"4","last_reported":1734012581,"current_range_meters":26800,"station_id":"ce4bh292rcd13ifvqdg0","pricing_plan_id":"cebpf4jnsgd1na2vs0mg"},{"bike_id":"d75d047d-3f18-4f42-926d-5793de16cb5d","system_id":"levelo_inurba_marseille","lat":43.2465,"lon":5.38883,"is_reserved":false,"is_disabled":false,"rental_uris":{"android":"levelo://app?vid=d75d047d-3f18-4f42-926d-5793de16cb5d","ios":"levelo://app?vid=d75d047d-3f18-4f42-926d-5793de16cb5d"},"vehicle_type_id":"4","last_reported":1734012581,"current_range_meters":28800,"station_id":"ce4bhg12rcd13ifvqf60","pricing_plan_id":"cebpf4jnsgd1na2vs0mg"},{"bike_id":"82f216ae-f68b-44da-bb8e-e5eaafd8ce84","system_id":"levelo_inurba_marseille","lat":43.24078,"lon":5.37769,"is_reserved":false,"is_disabled":false,"rental_uris":{"android":"levelo://app?vid=82f216ae-f68b-44da-bb8e-e5eaafd8ce84","ios":"levelo://app?vid=82f216ae-f68b-44da-bb8e-e5eaafd8ce84"},"vehicle_type_id":"4","last_reported":1734012581,"current_range_meters":24000,"station_id":"ce4bhnp2rcd13ifvqgvg","pricing_plan_id":"cebpf4jnsgd1na2vs0mg"},{"bike_id":"a8952a43-ed45-4b45-98c8-1bb60ae3ae5a","system_id":"levelo_inurba_marseille","lat":43.3079,"lon":5.37638,"is_reserved":false,"is_disabled":true,"rental_uris":{"android":"levelo://app?vid=a8952a43-ed45-4b45-98c8-1bb60ae3ae5a","ios":"levelo://app?vid=a8952a43-ed45-4b45-98c8-1bb60ae3ae5a"},"vehicle_type_id":"4","last_reported":1734012581,"current_range_meters":0,"station_id":"ce4bgv92rcd13ifvqcq0","pricing_plan_id":"cebpf4jnsgd1na2vs0mg"},{"bike_id":"03cf3634-d226-45c8-a3ef-6bde93aa8a7f","system_id":"levelo_inurba_marseille","lat":43.2721,"lon":5.392,"is_reserved":false,"is_disabled":false,"rental_uris":{"android":"levelo://app?vid=03cf3634-d226-45c8-a3ef-6bde93aa8a7f","ios":"levelo://app?vid=03cf3634-d226-45c8-a3ef-6bde93aa8a7f"},"vehicle_type_id":"4","last_reported":1734012581,"current_range_meters":22800,"station_id":"ce4bhhp2rcd13ifvqfm0","pricing_plan_id":"cebpf4jnsgd1na2vs0mg"},{"bike_id":"746cf22e-fb32-4549-9200-3558ee866b54","system_id":"levelo_inurba_marseille","lat":43.30538,"lon":5.36536,"is_reserved":false,"is_disabled":false,"rental_uris":{"android":"levelo://app?vid=746cf22e-fb32-4549-9200-3558ee866b54","ios":"levelo://app?vid=746cf22e-fb32-4549-9200-3558ee866b54"},"vehicle_type_id":"4","last_reported":1734012581,"current_range_meters":33200,"station_id":"ce4bgs12rcd13ifvqcag","pricing_plan_id":"cebpf4jnsgd1na2vs0mg"},{"bike_id":"6396f91a-f727-4ab5-8d30-cc2b1c4d670c","system_id":"levelo_inurba_marseille","lat":43.30652,"lon":5.40098,"is_reserved":false,"is_disabled":false,"rental_uris":{"android":"levelo://app?vid=6396f91a-f727-4ab5-8d30-cc2b1c4d670c","ios":"levelo://app?vid=6396f91a-f727-4ab5-8d30-cc2b1c4d670c"},"vehicle_type_id":"4","last_reported":1734012581,"current_range_meters":38800,"station_id":"ce4bh112rcd13ifvqda0","pricing_plan_id":"cebpf4jnsgd1na2vs0mg"},{"bike_id":"01656b7c-6c0d-489d-8b61-0515e0ffea05","system_id":"levelo_inurba_marseille","lat":43.28933,"lon":5.36655,"is_reserved":false,"is_disabled":false,"rental_uris":{"android":"levelo://app?vid=01656b7c-6c0d-489d-8b61-0515e0ffea05","ios":"levelo://app?vid=01656b7c-6c0d-489d-8b61-0515e0ffea05"},"vehicle_type_id":"4","last_reported":1734012581,"current_range_meters":38800,"station_id":"ce4bhap2rcd13ifvqek0","pricing_plan_id":"cebpf4jnsgd1na2vs0mg"},{"bike_id":"f8a2bd8e-0796-445d-a525-a55268d4e958","system_id":"levelo_inurba_marseille","lat":43.2706,"lon":5.40262,"is_reserved":false,"is_disabled":false,"rental_uris":{"android":"levelo://app?vid=f8a2bd8e-0796-445d-a525-a55268d4e958","ios":"levelo://app?vid=f8a2bd8e-0796-445d-a525-a55268d4e958"},"vehicle_type_id":"4","last_reported":1734012581,"current_range_meters":18800,"station_id":"ce4bhk92rcd13ifvqgc0","pricing_plan_id":"cebpf4jnsgd1na2vs0mg"},{"bike_id":"ccdf300d-ce60-4c2d-ac06-413514944f19","system_id":"levelo_inurba_marseille","lat":43.30547,"lon":5.36562,"is_reserved":false,"is_disabled":false,"rental_uris":{"android":"levelo://app?vid=ccdf300d-ce60-4c2d-ac06-413514944f19","ios":"levelo://app?vid=ccdf300d-ce60-4c2d-ac06-413514944f19"},"vehicle_type_id":"4","last_reported":1734012581,"current_range_meters":37600,"station_id":"ce4bgs12rcd13ifvqcag","pricing_plan_id":"cebpf4jnsgd1na2vs0mg"},{"bike_id":"8b42b0a4-f92e-40a7-8355-f7ebd82b5686","system_id":"levelo_inurba_marseille","lat":43.2926,"lon":5.40897,"is_reserved":false,"is_disabled":false,"rental_uris":{"android":"levelo://app?vid=8b42b0a4-f92e-40a7-8355-f7ebd82b5686","ios":"levelo://app?vid=8b42b0a4-f92e-40a7-8355-f7ebd82b5686"},"vehicle_type_id":"4","last_reported":1734012581,"current_range_meters":19600,"station_id":"ce4bh192rcd13ifvqdc0","pricing_plan_id":"cebpf4jnsgd1na2vs0mg"},{"bike_id":"fbbeb7ef-82d2-44bd-80eb-288c72e45e6a","system_id":"levelo_inurba_marseille","lat":43.28476,"lon":5.38409,"is_reserved":false,"is_disabled":false,"rental_uris":{"android":"levelo://app?vid=fbbeb7ef-82d2-44bd-80eb-288c72e45e6a","ios":"levelo://app?vid=fbbeb7ef-82d2-44bd-80eb-288c72e45e6a"},"vehicle_type_id":"4","last_reported":1734012581,"current_range_meters":37600,"station_id":"ce4bh512rcd13ifvqe3g","pricing_plan_id":"cebpf4jnsgd1na2vs0mg"},{"bike_id":"870e6636-b21e-471c-863d-86dd369d4305","system_id":"levelo_inurba_marseille","lat":43.26947,"lon":5.40259,"is_reserved":false,"is_disabled":false,"rental_uris":{"android":"levelo://app?vid=870e6636-b21e-471c-863d-86dd369d4305","ios":"levelo://app?vid=870e6636-b21e-471c-863d-86dd369d4305"},"vehicle_type_id":"4","last_reported":1734012581,"current_range_meters":38800,"station_id":"cjm6bp8fraef2m0cb0m0","pricing_plan_id":"cebpf4jnsgd1na2vs0mg"},{"bike_id":"7c8e542f-8952-4d04-9623-103b0cbffab7","system_id":"levelo_inurba_marseille","lat":43.27922,"lon":5.39573,"is_reserved":false,"is_disabled":false,"rental_uris":{"android":"levelo://app?vid=7c8e542f-8952-4d04-9623-103b0cbffab7","ios":"levelo://app?vid=7c8e542f-8952-4d04-9623-103b0cbffab7"},"vehicle_type_id":"4","last_reported":1734012581,"current_range_meters":30000,"station_id":"ce4bhf92rcd13ifvqf40","pricing_plan_id":"cebpf4jnsgd1na2vs0mg"},{"bike_id":"e6187720-14fa-4c24-bbf0-a74c7fd46990","system_id":"levelo_inurba_marseille","lat":43.27585,"lon":5.38423,"is_reserved":false,"is_disabled":false,"rental_uris":{"android":"levelo://app?vid=e6187720-14fa-4c24-bbf0-a74c7fd46990","ios":"levelo://app?vid=e6187720-14fa-4c24-bbf0-a74c7fd46990"},"vehicle_type_id":"4","last_reported":1734012581,"current_range_meters":25200,"station_id":"ce4bhh92rcd13ifvqfi0","pricing_plan_id":"cebpf4jnsgd1na2vs0mg"},{"bike_id":"949dd5a3-6db2-4c2c-b567-bf78e7ecbca7","system_id":"levelo_inurba_marseille","lat":43.29263,"lon":5.3844,"is_reserved":false,"is_disabled":true,"rental_uris":{"android":"levelo://app?vid=949dd5a3-6db2-4c2c-b567-bf78e7ecbca7","ios":"levelo://app?vid=949dd5a3-6db2-4c2c-b567-bf78e7ecbca7"},"vehicle_type_id":"4","last_reported":1734012581,"current_range_meters":0,"station_id":"ce4bh692rcd13ifvqea0","pricing_plan_id":"cebpf4jnsgd1na2vs0mg"},{"bike_id":"261636d2-2206-4359-9a3d-a5745b023dd9","system_id":"levelo_inurba_marseille","lat":43.29801,"lon":5.40405,"is_reserved":false,"is_disabled":false,"rental_uris":{"android":"levelo://app?vid=261636d2-2206-4359-9a3d-a5745b023dd9","ios":"levelo://app?vid=261636d2-2206-4359-9a3d-a5745b023dd9"},"vehicle_type_id":"4","last_reported":1734012581,"current_range_meters":34000,"station_id":"ce4bh112rcd13ifvqd90","pricing_plan_id":"cebpf4jnsgd1na2vs0mg"},{"bike_id":"9142d7e0-e410-4a5f-9f66-672659982e5c","system_id":"levelo_inurba_marseille","lat":43.29537,"lon":5.38547,"is_reserved":false,"is_disabled":false,"rental_uris":{"android":"levelo://app?vid=9142d7e0-e410-4a5f-9f66-672659982e5c","ios":"levelo://app?vid=9142d7e0-e410-4a5f-9f66-672659982e5c"},"vehicle_type_id":"4","last_reported":1734012581,"current_range_meters":4800,"station_id":"ce4bgih2rcd13ifvqba0","pricing_plan_id":"cebpf4jnsgd1na2vs0mg"},{"bike_id":"88fd6081-e8a1-4b8c-a88f-ce6e40a6b4bf","system_id":"levelo_inurba_marseille","lat":43.26809,"lon":5.40275,"is_reserved":false,"is_disabled":true,"rental_uris":{"android":"levelo://app?vid=88fd6081-e8a1-4b8c-a88f-ce6e40a6b4bf","ios":"levelo://app?vid=88fd6081-e8a1-4b8c-a88f-ce6e40a6b4bf"},"vehicle_type_id":"4","last_reported":1734012581,"current_range_meters":0,"station_id":"ce501612rcd8frsf0b60","pricing_plan_id":"cebpf4jnsgd1na2vs0mg"},{"bike_id":"f1f46d21-304f-45cb-947d-8b6456de5f10","system_id":"levelo_inurba_marseille","lat":43.2622,"lon":5.37452,"is_reserved":false,"is_disabled":false,"rental_uris":{"android":"levelo://app?vid=f1f46d21-304f-45cb-947d-8b6456de5f10","ios":"levelo://app?vid=f1f46d21-304f-45cb-947d-8b6456de5f10"},"vehicle_type_id":"4","last_reported":1734012581,"current_range_meters":18000,"station_id":"ce4bhgp2rcd13ifvqfc0","pricing_plan_id":"cebpf4jnsgd1na2vs0mg"},{"bike_id":"cb290ba2-164f-46ba-ab9f-4dc9f90ba225","system_id":"levelo_inurba_marseille","lat":43.26568,"lon":5.39027,"is_reserved":false,"is_disabled":false,"rental_uris":{"android":"levelo://app?vid=cb290ba2-164f-46ba-ab9f-4dc9f90ba225","ios":"levelo://app?vid=cb290ba2-164f-46ba-ab9f-4dc9f90ba225"},"vehicle_type_id":"4","last_reported":1734012581,"current_range_meters":9200,"station_id":"ce4bhe12rcd13ifvqf30","pricing_plan_id":"cebpf4jnsgd1na2vs0mg"},{"bike_id":"a2aea9f6-7fcb-4afa-b233-690fcb88cb45","system_id":"levelo_inurba_marseille","lat":43.27202,"lon":5.39183,"is_reserved":false,"is_disabled":false,"rental_uris":{"android":"levelo://app?vid=a2aea9f6-7fcb-4afa-b233-690fcb88cb45","ios":"levelo://app?vid=a2aea9f6-7fcb-4afa-b233-690fcb88cb45"},"vehicle_type_id":"4","last_reported":1734012581,"current_range_meters":12800,"station_id":"ce4bhhp2rcd13ifvqfm0","pricing_plan_id":"cebpf4jnsgd1na2vs0mg"},{"bike_id":"18449eca-7cd4-4637-aad8-d740a9109818","system_id":"levelo_inurba_marseille","lat":43.26797,"lon":5.40282,"is_reserved":false,"is_disabled":false,"rental_uris":{"android":"levelo://app?vid=18449eca-7cd4-4637-aad8-d740a9109818","ios":"levelo://app?vid=18449eca-7cd4-4637-aad8-d740a9109818"},"vehicle_type_id":"4","last_reported":1734012581,"current_range_meters":38800,"station_id":"ce501612rcd8frsf0b60","pricing_plan_id":"cebpf4jnsgd1na2vs0mg"},{"bike_id":"36a0f318-ffb4-458a-894f-e9900d7ffdd6","system_id":"levelo_inurba_marseille","lat":43.26556,"lon":5.37285,"is_reserved":false,"is_disabled":false,"rental_uris":{"android":"levelo://app?vid=36a0f318-ffb4-458a-894f-e9900d7ffdd6","ios":"levelo://app?vid=36a0f318-ffb4-458a-894f-e9900d7ffdd6"},"vehicle_type_id":"4","last_reported":1734012581,"current_range_meters":38800,"station_id":"ce4bhg12rcd13ifvqf70","pricing_plan_id":"cebpf4jnsgd1na2vs0mg"},{"bike_id":"3d91e3c5-7cef-4a6b-b72c-1f72f9823e2d","system_id":"levelo_inurba_marseille","lat":43.29743,"lon":5.3616,"is_reserved":false,"is_disabled":true,"rental_uris":{"android":"levelo://app?vid=3d91e3c5-7cef-4a6b-b72c-1f72f9823e2d","ios":"levelo://app?vid=3d91e3c5-7cef-4a6b-b72c-1f72f9823e2d"},"vehicle_type_id":"4","last_reported":1734012581,"current_range_meters":0,"station_id":"","pricing_plan_id":"cebpf4jnsgd1na2vs0mg"},{"bike_id":"1344a52c-f7c6-4cc2-abe0-2e816ae45891","system_id":"levelo_inurba_marseille","lat":43.30129,"lon":5.37421,"is_reserved":false,"is_disabled":false,"rental_uris":{"android":"levelo://app?vid=1344a52c-f7c6-4cc2-abe0-2e816ae45891","ios":"levelo://app?vid=1344a52c-f7c6-4cc2-abe0-2e816ae45891"},"vehicle_type_id":"4","last_reported":1734012581,"current_range_meters":15200,"station_id":"ce4bgs92rcd13ifvqcc0","pricing_plan_id":"cebpf4jnsgd1na2vs0mg"},{"bike_id":"f507f0ee-c835-4333-8681-f090fa01c551","system_id":"levelo_inurba_marseille","lat":43.28354,"lon":5.38117,"is_reserved":false,"is_disabled":false,"rental_uris":{"android":"levelo://app?vid=f507f0ee-c835-4333-8681-f090fa01c551","ios":"levelo://app?vid=f507f0ee-c835-4333-8681-f090fa01c551"},"vehicle_type_id":"4","last_reported":1734012581,"current_range_meters":10800,"station_id":"ce4bh412rcd13ifvqdr0","pricing_plan_id":"cebpf4jnsgd1na2vs0mg"},{"bike_id":"53e14b4a-061d-47e0-9d41-ff9b1a6d0a08","system_id":"levelo_inurba_marseille","lat":43.29821,"lon":5.3629,"is_reserved":false,"is_disabled":false,"rental_uris":{"android":"levelo://app?vid=53e14b4a-061d-47e0-9d41-ff9b1a6d0a08","ios":"levelo://app?vid=53e14b4a-061d-47e0-9d41-ff9b1a6d0a08"},"vehicle_type_id":"4","last_reported":1734012581,"current_range_meters":26800,"station_id":"ce4bgpp2rcd13ifvqc3g","pricing_plan_id":"cebpf4jnsgd1na2vs0mg"},{"bike_id":"3c34b185-bebc-4eb0-b376-5a9b2b4ef3ba","system_id":"levelo_inurba_marseille","lat":43.309173,"lon":5.368455,"is_reserved":false,"is_disabled":true,"rental_uris":{"android":"levelo://app?vid=3c34b185-bebc-4eb0-b376-5a9b2b4ef3ba","ios":"levelo://app?vid=3c34b185-bebc-4eb0-b376-5a9b2b4ef3ba"},"vehicle_type_id":"4","last_reported":1734012581,"current_range_meters":2000,"station_id":"ce4bgn92rcd13ifvqbvg","pricing_plan_id":"cebpf4jnsgd1na2vs0mg"},{"bike_id":"51a23920-7cdf-4d51-b7c2-1cd80ed13bac","system_id":"levelo_inurba_marseille","lat":43.28717,"lon":5.37932,"is_reserved":false,"is_disabled":false,"rental_uris":{"android":"levelo://app?vid=51a23920-7cdf-4d51-b7c2-1cd80ed13bac","ios":"levelo://app?vid=51a23920-7cdf-4d51-b7c2-1cd80ed13bac"},"vehicle_type_id":"4","last_reported":1734012581,"current_range_meters":36800,"station_id":"ce4bh9p2rcd13ifvqec0","pricing_plan_id":"cebpf4jnsgd1na2vs0mg"},{"bike_id":"55b90ab8-ad6e-4330-b578-7b6440304b5c","system_id":"levelo_inurba_marseille","lat":43.26214,"lon":5.37455,"is_reserved":false,"is_disabled":false,"rental_uris":{"android":"levelo://app?vid=55b90ab8-ad6e-4330-b578-7b6440304b5c","ios":"levelo://app?vid=55b90ab8-ad6e-4330-b578-7b6440304b5c"},"vehicle_type_id":"4","last_reported":1734012581,"current_range_meters":38800,"station_id":"ce4bhgp2rcd13ifvqfc0","pricing_plan_id":"cebpf4jnsgd1na2vs0mg"},{"bike_id":"5a3f78a5-cf96-469b-87bd-85261cc7b028","system_id":"levelo_inurba_marseille","lat":43.29637,"lon":5.37187,"is_reserved":false,"is_disabled":false,"rental_uris":{"android":"levelo://app?vid=5a3f78a5-cf96-469b-87bd-85261cc7b028","ios":"levelo://app?vid=5a3f78a5-cf96-469b-87bd-85261cc7b028"},"vehicle_type_id":"4","last_reported":1734012581,"current_range_meters":10800,"station_id":"ce4bgnh2rcd13ifvqc0g","pricing_plan_id":"cebpf4jnsgd1na2vs0mg"},{"bike_id":"fcea60ef-5fcb-4c66-ba5c-346d7dafd09d","system_id":"levelo_inurba_marseille","lat":43.25579,"lon":5.38232,"is_reserved":false,"is_disabled":false,"rental_uris":{"android":"levelo://app?vid=fcea60ef-5fcb-4c66-ba5c-346d7dafd09d","ios":"levelo://app?vid=fcea60ef-5fcb-4c66-ba5c-346d7dafd09d"},"vehicle_type_id":"4","last_reported":1734012581,"current_range_meters":17200,"station_id":"ce4bhih2rcd13ifvqfs0","pricing_plan_id":"cebpf4jnsgd1na2vs0mg"},{"bike_id":"85fc7ebc-e1ee-4e0e-81f6-502ecea0cb12","system_id":"levelo_inurba_marseille","lat":43.3302,"lon":5.39033,"is_reserved":false,"is_disabled":false,"rental_uris":{"android":"levelo://app?vid=85fc7ebc-e1ee-4e0e-81f6-502ecea0cb12","ios":"levelo://app?vid=85fc7ebc-e1ee-4e0e-81f6-502ecea0cb12"},"vehicle_type_id":"4","last_reported":1734012581,"current_range_meters":38800,"station_id":"ce4bhr92rcd13ifvqhrg","pricing_plan_id":"cebpf4jnsgd1na2vs0mg"},{"bike_id":"e966d2c7-c9e1-4cb1-9a39-6325607b0be4","system_id":"levelo_inurba_marseille","lat":43.337444,"lon":5.374475,"is_reserved":false,"is_disabled":true,"rental_uris":{"android":"levelo://app?vid=e966d2c7-c9e1-4cb1-9a39-6325607b0be4","ios":"levelo://app?vid=e966d2c7-c9e1-4cb1-9a39-6325607b0be4"},"vehicle_type_id":"4","last_reported":1734012581,"current_range_meters":0,"station_id":"","pricing_plan_id":"cebpf4jnsgd1na2vs0mg"},{"bike_id":"28c060d5-4641-42c8-93ce-0f524a2f307a","system_id":"levelo_inurba_marseille","lat":43.29934,"lon":5.36541,"is_reserved":false,"is_disabled":false,"rental_uris":{"android":"levelo://app?vid=28c060d5-4641-42c8-93ce-0f524a2f307a","ios":"levelo://app?vid=28c060d5-4641-42c8-93ce-0f524a2f307a"},"vehicle_type_id":"4","last_reported":1734012581,"current_range_meters":22400,"station_id":"ce4bgm92rcd13ifvqbr0","pricing_plan_id":"cebpf4jnsgd1na2vs0mg"},{"bike_id":"08f6dfd2-5a55-4565-9eb0-3f7235020a27","system_id":"levelo_inurba_marseille","lat":43.24531,"lon":5.39541,"is_reserved":false,"is_disabled":false,"rental_uris":{"android":"levelo://app?vid=08f6dfd2-5a55-4565-9eb0-3f7235020a27","ios":"levelo://app?vid=08f6dfd2-5a55-4565-9eb0-3f7235020a27"},"vehicle_type_id":"4","last_reported":1734012581,"current_range_meters":27600,"station_id":"ce4bhlp2rcd13ifvqgjg","pricing_plan_id":"cebpf4jnsgd1na2vs0mg"},{"bike_id":"6bc7401a-ad66-4e4d-bfd6-a954bc5b40c0","system_id":"levelo_inurba_marseille","lat":43.337527,"lon":5.37441,"is_reserved":false,"is_disabled":false,"rental_uris":{"android":"levelo://app?vid=6bc7401a-ad66-4e4d-bfd6-a954bc5b40c0","ios":"levelo://app?vid=6bc7401a-ad66-4e4d-bfd6-a954bc5b40c0"},"vehicle_type_id":"4","last_reported":1734012581,"current_range_meters":34800,"station_id":"","pricing_plan_id":"cebpf4jnsgd1na2vs0mg"},{"bike_id":"7a0c7b41-8e30-4863-aec8-72b38eb82b71","system_id":"levelo_inurba_marseille","lat":43.2884,"lon":5.35852,"is_reserved":false,"is_disabled":false,"rental_uris":{"android":"levelo://app?vid=7a0c7b41-8e30-4863-aec8-72b38eb82b71","ios":"levelo://app?vid=7a0c7b41-8e30-4863-aec8-72b38eb82b71"},"vehicle_type_id":"4","last_reported":1734012581,"current_range_meters":36000,"station_id":"ce4bhb12rcd13ifvqem0","pricing_plan_id":"cebpf4jnsgd1na2vs0mg"},{"bike_id":"f0a4f587-2333-4a7a-8819-09121e495e1b","system_id":"levelo_inurba_marseille","lat":43.22914,"lon":5.35375,"is_reserved":false,"is_disabled":false,"rental_uris":{"android":"levelo://app?vid=f0a4f587-2333-4a7a-8819-09121e495e1b","ios":"levelo://app?vid=f0a4f587-2333-4a7a-8819-09121e495e1b"},"vehicle_type_id":"4","last_reported":1734012581,"current_range_meters":8400,"station_id":"cpo3532slgdg3j2ikp40","pricing_plan_id":"cebpf4jnsgd1na2vs0mg"},{"bike_id":"ba6fe419-774c-4091-895e-a76421491481","system_id":"levelo_inurba_marseille","lat":43.23146,"lon":5.43725,"is_reserved":false,"is_disabled":false,"rental_uris":{"android":"levelo://app?vid=ba6fe419-774c-4091-895e-a76421491481","ios":"levelo://app?vid=ba6fe419-774c-4091-895e-a76421491481"},"vehicle_type_id":"4","last_reported":1734012581,"current_range_meters":18800,"station_id":"ce4bhmp2rcd13ifvqgog","pricing_plan_id":"cebpf4jnsgd1na2vs0mg"},{"bike_id":"45354006-86f9-4c5e-b2eb-5597a60e305f","system_id":"levelo_inurba_marseille","lat":43.29031,"lon":5.3864,"is_reserved":false,"is_disabled":false,"rental_uris":{"android":"levelo://app?vid=45354006-86f9-4c5e-b2eb-5597a60e305f","ios":"levelo://app?vid=45354006-86f9-4c5e-b2eb-5597a60e305f"},"vehicle_type_id":"4","last_reported":1734012581,"current_range_meters":30400,"station_id":"ce4bh4p2rcd13ifvqe0g","pricing_plan_id":"cebpf4jnsgd1na2vs0mg"},{"bike_id":"c0ac8c32-1e35-489c-9ada-c98ba4d09509","system_id":"levelo_inurba_marseille","lat":43.27326,"lon":5.39081,"is_reserved":false,"is_disabled":false,"rental_uris":{"android":"levelo://app?vid=c0ac8c32-1e35-489c-9ada-c98ba4d09509","ios":"levelo://app?vid=c0ac8c32-1e35-489c-9ada-c98ba4d09509"},"vehicle_type_id":"4","last_reported":1734012581,"current_range_meters":38800,"station_id":"ce4bhgp2rcd13ifvqfe0","pricing_plan_id":"cebpf4jnsgd1na2vs0mg"},{"bike_id":"e2b090ff-7c7f-4d4a-8f5b-c317e750043e","system_id":"levelo_inurba_marseille","lat":43.27073,"lon":5.42281,"is_reserved":false,"is_disabled":true,"rental_uris":{"android":"levelo://app?vid=e2b090ff-7c7f-4d4a-8f5b-c317e750043e","ios":"levelo://app?vid=e2b090ff-7c7f-4d4a-8f5b-c317e750043e"},"vehicle_type_id":"4","last_reported":1734012581,"current_range_meters":0,"station_id":"ce4bhk92rcd13ifvqgb0","pricing_plan_id":"cebpf4jnsgd1na2vs0mg"},{"bike_id":"1802c294-deb8-4890-b7ca-3e995fd26543","system_id":"levelo_inurba_marseille","lat":43.27055,"lon":5.42289,"is_reserved":false,"is_disabled":false,"rental_uris":{"android":"levelo://app?vid=1802c294-deb8-4890-b7ca-3e995fd26543","ios":"levelo://app?vid=1802c294-deb8-4890-b7ca-3e995fd26543"},"vehicle_type_id":"4","last_reported":1734012581,"current_range_meters":31200,"station_id":"ce4bhk92rcd13ifvqgb0","pricing_plan_id":"cebpf4jnsgd1na2vs0mg"},{"bike_id":"fc27be0d-d334-496f-b0a9-39770c866018","system_id":"levelo_inurba_marseille","lat":43.26776,"lon":5.39424,"is_reserved":false,"is_disabled":false,"rental_uris":{"android":"levelo://app?vid=fc27be0d-d334-496f-b0a9-39770c866018","ios":"levelo://app?vid=fc27be0d-d334-496f-b0a9-39770c866018"},"vehicle_type_id":"4","last_reported":1734012581,"current_range_meters":12000,"station_id":"ce4bhh12rcd13ifvqfg0","pricing_plan_id":"cebpf4jnsgd1na2vs0mg"},{"bike_id":"5cdc8034-ad9a-43f6-b154-86db0b593b37","system_id":"levelo_inurba_marseille","lat":43.30477,"lon":5.37914,"is_reserved":false,"is_disabled":true,"rental_uris":{"android":"levelo://app?vid=5cdc8034-ad9a-43f6-b154-86db0b593b37","ios":"levelo://app?vid=5cdc8034-ad9a-43f6-b154-86db0b593b37"},"vehicle_type_id":"4","last_reported":1734012581,"current_range_meters":800,"station_id":"ce4bgup2rcd13ifvqcn0","pricing_plan_id":"cebpf4jnsgd1na2vs0mg"},{"bike_id":"265a5eae-c994-4f9c-985f-4bced240711a","system_id":"levelo_inurba_marseille","lat":43.30214,"lon":5.39473,"is_reserved":false,"is_disabled":false,"rental_uris":{"android":"levelo://app?vid=265a5eae-c994-4f9c-985f-4bced240711a","ios":"levelo://app?vid=265a5eae-c994-4f9c-985f-4bced240711a"},"vehicle_type_id":"4","last_reported":1734012581,"current_range_meters":38800,"station_id":"ce4bh0p2rcd13ifvqd70","pricing_plan_id":"cebpf4jnsgd1na2vs0mg"},{"bike_id":"468c58c5-5827-4bfd-bc9e-6c81460e547c","system_id":"levelo_inurba_marseille","lat":43.28932,"lon":5.36412,"is_reserved":false,"is_disabled":false,"rental_uris":{"android":"levelo://app?vid=468c58c5-5827-4bfd-bc9e-6c81460e547c","ios":"levelo://app?vid=468c58c5-5827-4bfd-bc9e-6c81460e547c"},"vehicle_type_id":"4","last_reported":1734012581,"current_range_meters":27200,"station_id":"ce4bhc92rcd13ifvqetg","pricing_plan_id":"cebpf4jnsgd1na2vs0mg"},{"bike_id":"8bce4d14-97e1-4732-8b97-92aecbbe2473","system_id":"levelo_inurba_marseille","lat":43.24073,"lon":5.37741,"is_reserved":false,"is_disabled":false,"rental_uris":{"android":"levelo://app?vid=8bce4d14-97e1-4732-8b97-92aecbbe2473","ios":"levelo://app?vid=8bce4d14-97e1-4732-8b97-92aecbbe2473"},"vehicle_type_id":"4","last_reported":1734012581,"current_range_meters":6000,"station_id":"ce4bhnp2rcd13ifvqgvg","pricing_plan_id":"cebpf4jnsgd1na2vs0mg"},{"bike_id":"886c6ddd-f2db-4f1d-a04c-6128017a69e9","system_id":"levelo_inurba_marseille","lat":43.27826,"lon":5.39226,"is_reserved":false,"is_disabled":false,"rental_uris":{"android":"levelo://app?vid=886c6ddd-f2db-4f1d-a04c-6128017a69e9","ios":"levelo://app?vid=886c6ddd-f2db-4f1d-a04c-6128017a69e9"},"vehicle_type_id":"4","last_reported":1734012581,"current_range_meters":35200,"station_id":"ce4bhjp2rcd13ifvqga0","pricing_plan_id":"cebpf4jnsgd1na2vs0mg"},{"bike_id":"097a41bf-6635-41a6-b7a7-1173cae29ada","system_id":"levelo_inurba_marseille","lat":43.22929,"lon":5.35386,"is_reserved":false,"is_disabled":false,"rental_uris":{"android":"levelo://app?vid=097a41bf-6635-41a6-b7a7-1173cae29ada","ios":"levelo://app?vid=097a41bf-6635-41a6-b7a7-1173cae29ada"},"vehicle_type_id":"4","last_reported":1734012581,"current_range_meters":39200,"station_id":"cpo3532slgdg3j2ikp40","pricing_plan_id":"cebpf4jnsgd1na2vs0mg"},{"bike_id":"4d5881bc-1b66-4424-9cca-37b7d62f3c7f","system_id":"levelo_inurba_marseille","lat":43.29933,"lon":5.38487,"is_reserved":false,"is_disabled":false,"rental_uris":{"android":"levelo://app?vid=4d5881bc-1b66-4424-9cca-37b7d62f3c7f","ios":"levelo://app?vid=4d5881bc-1b66-4424-9cca-37b7d62f3c7f"},"vehicle_type_id":"4","last_reported":1734012581,"current_range_meters":38000,"station_id":"ce4bgj92rcd13ifvqbd0","pricing_plan_id":"cebpf4jnsgd1na2vs0mg"},{"bike_id":"81eec379-75bf-44af-8d2f-71c820881d81","system_id":"levelo_inurba_marseille","lat":43.30961,"lon":5.39048,"is_reserved":false,"is_disabled":true,"rental_uris":{"android":"levelo://app?vid=81eec379-75bf-44af-8d2f-71c820881d81","ios":"levelo://app?vid=81eec379-75bf-44af-8d2f-71c820881d81"},"vehicle_type_id":"4","last_reported":1734012581,"current_range_meters":2000,"station_id":"ce4bgup2rcd13ifvqco0","pricing_plan_id":"cebpf4jnsgd1na2vs0mg"},{"bike_id":"974b97e2-bcc2-4cc6-9a27-fa36d632b303","system_id":"levelo_inurba_marseille","lat":43.29974,"lon":5.37183,"is_reserved":false,"is_disabled":false,"rental_uris":{"android":"levelo://app?vid=974b97e2-bcc2-4cc6-9a27-fa36d632b303","ios":"levelo://app?vid=974b97e2-bcc2-4cc6-9a27-fa36d632b303"},"vehicle_type_id":"4","last_reported":1734012581,"current_range_meters":35200,"station_id":"ce4bgr92rcd13ifvqc7g","pricing_plan_id":"cebpf4jnsgd1na2vs0mg"},{"bike_id":"784a293f-2e5e-42aa-869d-5c6f2d45c286","system_id":"levelo_inurba_marseille","lat":43.28838,"lon":5.3932,"is_reserved":false,"is_disabled":false,"rental_uris":{"android":"levelo://app?vid=784a293f-2e5e-42aa-869d-5c6f2d45c286","ios":"levelo://app?vid=784a293f-2e5e-42aa-869d-5c6f2d45c286"},"vehicle_type_id":"4","last_reported":1734012581,"current_range_meters":28800,"station_id":"ce4bh2p2rcd13ifvqdi0","pricing_plan_id":"cebpf4jnsgd1na2vs0mg"},{"bike_id":"dbf212a4-5c61-42a2-9fb0-64e326737fba","system_id":"levelo_inurba_marseille","lat":43.25596,"lon":5.38203,"is_reserved":false,"is_disabled":false,"rental_uris":{"android":"levelo://app?vid=dbf212a4-5c61-42a2-9fb0-64e326737fba","ios":"levelo://app?vid=dbf212a4-5c61-42a2-9fb0-64e326737fba"},"vehicle_type_id":"4","last_reported":1734012581,"current_range_meters":34000,"station_id":"ce4bhih2rcd13ifvqfs0","pricing_plan_id":"cebpf4jnsgd1na2vs0mg"},{"bike_id":"540afd9e-51e3-4bb1-9c7e-b7878f72cd76","system_id":"levelo_inurba_marseille","lat":43.28279,"lon":5.3506,"is_reserved":false,"is_disabled":false,"rental_uris":{"android":"levelo://app?vid=540afd9e-51e3-4bb1-9c7e-b7878f72cd76","ios":"levelo://app?vid=540afd9e-51e3-4bb1-9c7e-b7878f72cd76"},"vehicle_type_id":"4","last_reported":1734012581,"current_range_meters":30800,"station_id":"ce4bhbp2rcd13ifvqerg","pricing_plan_id":"cebpf4jnsgd1na2vs0mg"},{"bike_id":"eb311033-0fe1-424a-b08d-f12bc27fd5dc","system_id":"levelo_inurba_marseille","lat":43.2923,"lon":5.36075,"is_reserved":false,"is_disabled":true,"rental_uris":{"android":"levelo://app?vid=eb311033-0fe1-424a-b08d-f12bc27fd5dc","ios":"levelo://app?vid=eb311033-0fe1-424a-b08d-f12bc27fd5dc"},"vehicle_type_id":"4","last_reported":1734012581,"current_range_meters":0,"station_id":"ce4bhbh2rcd13ifvqeqg","pricing_plan_id":"cebpf4jnsgd1na2vs0mg"},{"bike_id":"477804f5-d8f7-435e-9d3a-9ce31793b638","system_id":"levelo_inurba_marseille","lat":43.25579,"lon":5.382168,"is_reserved":false,"is_disabled":false,"rental_uris":{"android":"levelo://app?vid=477804f5-d8f7-435e-9d3a-9ce31793b638","ios":"levelo://app?vid=477804f5-d8f7-435e-9d3a-9ce31793b638"},"vehicle_type_id":"4","last_reported":1734012581,"current_range_meters":16400,"station_id":"ce4bhih2rcd13ifvqfs0","pricing_plan_id":"cebpf4jnsgd1na2vs0mg"},{"bike_id":"77bf6216-ce86-437f-9485-369650d4a2a9","system_id":"levelo_inurba_marseille","lat":43.30101,"lon":5.39087,"is_reserved":false,"is_disabled":false,"rental_uris":{"android":"levelo://app?vid=77bf6216-ce86-437f-9485-369650d4a2a9","ios":"levelo://app?vid=77bf6216-ce86-437f-9485-369650d4a2a9"},"vehicle_type_id":"4","last_reported":1734012581,"current_range_meters":38400,"station_id":"ce4bh192rcd13ifvqdb0","pricing_plan_id":"cebpf4jnsgd1na2vs0mg"},{"bike_id":"af77a2c4-4f01-4eac-8bd5-698508bacd7c","system_id":"levelo_inurba_marseille","lat":43.27181,"lon":5.41001,"is_reserved":false,"is_disabled":false,"rental_uris":{"android":"levelo://app?vid=af77a2c4-4f01-4eac-8bd5-698508bacd7c","ios":"levelo://app?vid=af77a2c4-4f01-4eac-8bd5-698508bacd7c"},"vehicle_type_id":"4","last_reported":1734012581,"current_range_meters":18000,"station_id":"ce4bhl12rcd13ifvqgf0","pricing_plan_id":"cebpf4jnsgd1na2vs0mg"},{"bike_id":"ea92caf0-aa15-4169-8099-843c915ff015","system_id":"levelo_inurba_marseille","lat":43.2695,"lon":5.38638,"is_reserved":false,"is_disabled":false,"rental_uris":{"android":"levelo://app?vid=ea92caf0-aa15-4169-8099-843c915ff015","ios":"levelo://app?vid=ea92caf0-aa15-4169-8099-843c915ff015"},"vehicle_type_id":"4","last_reported":1734012581,"current_range_meters":36800,"station_id":"ce4bhh92rcd13ifvqfh0","pricing_plan_id":"cebpf4jnsgd1na2vs0mg"},{"bike_id":"3fd35c7e-34c4-447b-956a-bf44e52a3f4a","system_id":"levelo_inurba_marseille","lat":43.29791,"lon":5.38114,"is_reserved":false,"is_disabled":true,"rental_uris":{"android":"levelo://app?vid=3fd35c7e-34c4-447b-956a-bf44e52a3f4a","ios":"levelo://app?vid=3fd35c7e-34c4-447b-956a-bf44e52a3f4a"},"vehicle_type_id":"4","last_reported":1734012581,"current_range_meters":0,"station_id":"ce4bgip2rcd13ifvqbb0","pricing_plan_id":"cebpf4jnsgd1na2vs0mg"},{"bike_id":"e6451f2e-8e4c-4063-9b2c-380735098a98","system_id":"levelo_inurba_marseille","lat":43.25938,"lon":5.40905,"is_reserved":false,"is_disabled":false,"rental_uris":{"android":"levelo://app?vid=e6451f2e-8e4c-4063-9b2c-380735098a98","ios":"levelo://app?vid=e6451f2e-8e4c-4063-9b2c-380735098a98"},"vehicle_type_id":"4","last_reported":1734012581,"current_range_meters":7200,"station_id":"ce4bhm92rcd13ifvqglg","pricing_plan_id":"cebpf4jnsgd1na2vs0mg"},{"bike_id":"127c0d0c-feff-4dd8-b28b-0023208de9c2","system_id":"levelo_inurba_marseille","lat":43.26219,"lon":5.37449,"is_reserved":false,"is_disabled":false,"rental_uris":{"android":"levelo://app?vid=127c0d0c-feff-4dd8-b28b-0023208de9c2","ios":"levelo://app?vid=127c0d0c-feff-4dd8-b28b-0023208de9c2"},"vehicle_type_id":"4","last_reported":1734012581,"current_range_meters":38800,"station_id":"ce4bhgp2rcd13ifvqfc0","pricing_plan_id":"cebpf4jnsgd1na2vs0mg"},{"bike_id":"80fc4f35-2cbc-48bd-81dd-29f6639909e4","system_id":"levelo_inurba_marseille","lat":43.32364,"lon":5.38887,"is_reserved":false,"is_disabled":false,"rental_uris":{"android":"levelo://app?vid=80fc4f35-2cbc-48bd-81dd-29f6639909e4","ios":"levelo://app?vid=80fc4f35-2cbc-48bd-81dd-29f6639909e4"},"vehicle_type_id":"4","last_reported":1734012581,"current_range_meters":28400,"station_id":"ce4bhqp2rcd13ifvqhog","pricing_plan_id":"cebpf4jnsgd1na2vs0mg"},{"bike_id":"3dad1ce6-57e2-41f9-b114-876fdbb15ace","system_id":"levelo_inurba_marseille","lat":43.298,"lon":5.38098,"is_reserved":false,"is_disabled":true,"rental_uris":{"android":"levelo://app?vid=3dad1ce6-57e2-41f9-b114-876fdbb15ace","ios":"levelo://app?vid=3dad1ce6-57e2-41f9-b114-876fdbb15ace"},"vehicle_type_id":"4","last_reported":1734012581,"current_range_meters":1600,"station_id":"ce4bgip2rcd13ifvqbb0","pricing_plan_id":"cebpf4jnsgd1na2vs0mg"},{"bike_id":"a66c4b95-337e-4b9a-950c-e8c8d8e7a3a1","system_id":"levelo_inurba_marseille","lat":43.324799,"lon":5.365716,"is_reserved":false,"is_disabled":true,"rental_uris":{"android":"levelo://app?vid=a66c4b95-337e-4b9a-950c-e8c8d8e7a3a1","ios":"levelo://app?vid=a66c4b95-337e-4b9a-950c-e8c8d8e7a3a1"},"vehicle_type_id":"4","last_reported":1734012581,"current_range_meters":0,"station_id":"","pricing_plan_id":"cebpf4jnsgd1na2vs0mg"},{"bike_id":"6842f8a7-cf79-4732-b7fa-972aa05d9ad0","system_id":"levelo_inurba_marseille","lat":43.30312,"lon":5.36906,"is_reserved":false,"is_disabled":false,"rental_uris":{"android":"levelo://app?vid=6842f8a7-cf79-4732-b7fa-972aa05d9ad0","ios":"levelo://app?vid=6842f8a7-cf79-4732-b7fa-972aa05d9ad0"},"vehicle_type_id":"4","last_reported":1734012581,"current_range_meters":39200,"station_id":"ce4bgqh2rcd13ifvqc5g","pricing_plan_id":"cebpf4jnsgd1na2vs0mg"},{"bike_id":"3aa675bf-e140-4eb0-a03c-90dc1dbcecc3","system_id":"levelo_inurba_marseille","lat":43.31324,"lon":5.39691,"is_reserved":false,"is_disabled":false,"rental_uris":{"android":"levelo://app?vid=3aa675bf-e140-4eb0-a03c-90dc1dbcecc3","ios":"levelo://app?vid=3aa675bf-e140-4eb0-a03c-90dc1dbcecc3"},"vehicle_type_id":"4","last_reported":1734012581,"current_range_meters":39200,"station_id":"ce4bgvp2rcd13ifvqcu0","pricing_plan_id":"cebpf4jnsgd1na2vs0mg"},{"bike_id":"321fd520-305a-4bff-ae40-2c4ccb7ccf74","system_id":"levelo_inurba_marseille","lat":43.29056,"lon":5.38065,"is_reserved":false,"is_disabled":true,"rental_uris":{"android":"levelo://app?vid=321fd520-305a-4bff-ae40-2c4ccb7ccf74","ios":"levelo://app?vid=321fd520-305a-4bff-ae40-2c4ccb7ccf74"},"vehicle_type_id":"4","last_reported":1734012581,"current_range_meters":38000,"station_id":"ce4bh4p2rcd13ifvqe1g","pricing_plan_id":"cebpf4jnsgd1na2vs0mg"},{"bike_id":"52470908-7cb6-49c4-bc65-b252bf6ed0b0","system_id":"levelo_inurba_marseille","lat":43.29021,"lon":5.37567,"is_reserved":false,"is_disabled":false,"rental_uris":{"android":"levelo://app?vid=52470908-7cb6-49c4-bc65-b252bf6ed0b0","ios":"levelo://app?vid=52470908-7cb6-49c4-bc65-b252bf6ed0b0"},"vehicle_type_id":"4","last_reported":1734012581,"current_range_meters":24800,"station_id":"ce4bh692rcd13ifvqe90","pricing_plan_id":"cebpf4jnsgd1na2vs0mg"},{"bike_id":"4b4f7371-d930-4169-a3c9-fe334977930f","system_id":"levelo_inurba_marseille","lat":43.24086,"lon":5.37732,"is_reserved":false,"is_disabled":false,"rental_uris":{"android":"levelo://app?vid=4b4f7371-d930-4169-a3c9-fe334977930f","ios":"levelo://app?vid=4b4f7371-d930-4169-a3c9-fe334977930f"},"vehicle_type_id":"4","last_reported":1734012581,"current_range_meters":38400,"station_id":"ce4bhnp2rcd13ifvqgvg","pricing_plan_id":"cebpf4jnsgd1na2vs0mg"},{"bike_id":"bc4971c4-ad51-4dd9-8b20-661bacd6a10c","system_id":"levelo_inurba_marseille","lat":43.31176,"lon":5.38727,"is_reserved":false,"is_disabled":true,"rental_uris":{"android":"levelo://app?vid=bc4971c4-ad51-4dd9-8b20-661bacd6a10c","ios":"levelo://app?vid=bc4971c4-ad51-4dd9-8b20-661bacd6a10c"},"vehicle_type_id":"4","last_reported":1734012581,"current_range_meters":38800,"station_id":"ce4bgv12rcd13ifvqcp0","pricing_plan_id":"cebpf4jnsgd1na2vs0mg"},{"bike_id":"ca27f90d-04a5-455e-bfff-ce4a3e392a8b","system_id":"levelo_inurba_marseille","lat":43.30466,"lon":5.36963,"is_reserved":false,"is_disabled":false,"rental_uris":{"android":"levelo://app?vid=ca27f90d-04a5-455e-bfff-ce4a3e392a8b","ios":"levelo://app?vid=ca27f90d-04a5-455e-bfff-ce4a3e392a8b"},"vehicle_type_id":"4","last_reported":1734012581,"current_range_meters":36800,"station_id":"","pricing_plan_id":"cebpf4jnsgd1na2vs0mg"},{"bike_id":"6d8b9bbc-06f7-4c2c-885a-2acd706423a8","system_id":"levelo_inurba_marseille","lat":43.30053,"lon":5.39111,"is_reserved":false,"is_disabled":false,"rental_uris":{"android":"levelo://app?vid=6d8b9bbc-06f7-4c2c-885a-2acd706423a8","ios":"levelo://app?vid=6d8b9bbc-06f7-4c2c-885a-2acd706423a8"},"vehicle_type_id":"4","last_reported":1734012581,"current_range_meters":38800,"station_id":"ce4bh192rcd13ifvqdb0","pricing_plan_id":"cebpf4jnsgd1na2vs0mg"},{"bike_id":"98d41972-836b-428e-89f3-6e81fb57618e","system_id":"levelo_inurba_marseille","lat":43.2751,"lon":5.42425,"is_reserved":false,"is_disabled":false,"rental_uris":{"android":"levelo://app?vid=98d41972-836b-428e-89f3-6e81fb57618e","ios":"levelo://app?vid=98d41972-836b-428e-89f3-6e81fb57618e"},"vehicle_type_id":"4","last_reported":1734012581,"current_range_meters":22400,"station_id":"ce4bhn92rcd13ifvqgrg","pricing_plan_id":"cebpf4jnsgd1na2vs0mg"},{"bike_id":"b28364cf-3764-46be-9e34-df111405ff85","system_id":"levelo_inurba_marseille","lat":43.32653,"lon":5.40987,"is_reserved":false,"is_disabled":false,"rental_uris":{"android":"levelo://app?vid=b28364cf-3764-46be-9e34-df111405ff85","ios":"levelo://app?vid=b28364cf-3764-46be-9e34-df111405ff85"},"vehicle_type_id":"4","last_reported":1734012581,"current_range_meters":36400,"station_id":"ce4bhpp2rcd13ifvqhgg","pricing_plan_id":"cebpf4jnsgd1na2vs0mg"},{"bike_id":"cc66f151-2460-4bd1-9c55-81df03cdad0d","system_id":"levelo_inurba_marseille","lat":43.30614,"lon":5.37244,"is_reserved":false,"is_disabled":false,"rental_uris":{"android":"levelo://app?vid=cc66f151-2460-4bd1-9c55-81df03cdad0d","ios":"levelo://app?vid=cc66f151-2460-4bd1-9c55-81df03cdad0d"},"vehicle_type_id":"4","last_reported":1734012581,"current_range_meters":2800,"station_id":"ce4bgqh2rcd13ifvqc4g","pricing_plan_id":"cebpf4jnsgd1na2vs0mg"},{"bike_id":"d3148480-0118-4460-90b5-07f095843da8","system_id":"levelo_inurba_marseille","lat":43.24665,"lon":5.38164,"is_reserved":false,"is_disabled":false,"rental_uris":{"android":"levelo://app?vid=d3148480-0118-4460-90b5-07f095843da8","ios":"levelo://app?vid=d3148480-0118-4460-90b5-07f095843da8"},"vehicle_type_id":"4","last_reported":1734012581,"current_range_meters":39200,"station_id":"ce4bhih2rcd13ifvqfr0","pricing_plan_id":"cebpf4jnsgd1na2vs0mg"},{"bike_id":"03026357-c95a-4c74-acd7-3b3487b8715e","system_id":"levelo_inurba_marseille","lat":43.29098,"lon":5.3816,"is_reserved":false,"is_disabled":false,"rental_uris":{"android":"levelo://app?vid=03026357-c95a-4c74-acd7-3b3487b8715e","ios":"levelo://app?vid=03026357-c95a-4c74-acd7-3b3487b8715e"},"vehicle_type_id":"4","last_reported":1734012581,"current_range_meters":36800,"station_id":"ce4bh512rcd13ifvqe2g","pricing_plan_id":"cebpf4jnsgd1na2vs0mg"},{"bike_id":"9a419732-7fbf-4e47-920c-025073396f19","system_id":"levelo_inurba_marseille","lat":43.27421,"lon":5.3942,"is_reserved":false,"is_disabled":false,"rental_uris":{"android":"levelo://app?vid=9a419732-7fbf-4e47-920c-025073396f19","ios":"levelo://app?vid=9a419732-7fbf-4e47-920c-025073396f19"},"vehicle_type_id":"4","last_reported":1734012581,"current_range_meters":36000,"station_id":"ce4bhdp2rcd13ifvqf20","pricing_plan_id":"cebpf4jnsgd1na2vs0mg"},{"bike_id":"37a52849-c0e1-48b4-8940-e569590ca71d","system_id":"levelo_inurba_marseille","lat":43.24051,"lon":5.37774,"is_reserved":false,"is_disabled":false,"rental_uris":{"android":"levelo://app?vid=37a52849-c0e1-48b4-8940-e569590ca71d","ios":"levelo://app?vid=37a52849-c0e1-48b4-8940-e569590ca71d"},"vehicle_type_id":"4","last_reported":1734012581,"current_range_meters":14400,"station_id":"ce4bhnp2rcd13ifvqgvg","pricing_plan_id":"cebpf4jnsgd1na2vs0mg"},{"bike_id":"3b5a2490-91a8-4930-bdb7-53407ec2f1ac","system_id":"levelo_inurba_marseille","lat":43.337444,"lon":5.374475,"is_reserved":false,"is_disabled":false,"rental_uris":{"android":"levelo://app?vid=3b5a2490-91a8-4930-bdb7-53407ec2f1ac","ios":"levelo://app?vid=3b5a2490-91a8-4930-bdb7-53407ec2f1ac"},"vehicle_type_id":"4","last_reported":1734012581,"current_range_meters":36000,"station_id":"","pricing_plan_id":"cebpf4jnsgd1na2vs0mg"},{"bike_id":"c7d60411-682a-4c3d-8aea-0c0b8fc638f1","system_id":"levelo_inurba_marseille","lat":43.32483,"lon":5.36592,"is_reserved":false,"is_disabled":false,"rental_uris":{"android":"levelo://app?vid=c7d60411-682a-4c3d-8aea-0c0b8fc638f1","ios":"levelo://app?vid=c7d60411-682a-4c3d-8aea-0c0b8fc638f1"},"vehicle_type_id":"4","last_reported":1734012581,"current_range_meters":8800,"station_id":"ce4bhs12rcd13ifvqhvg","pricing_plan_id":"cebpf4jnsgd1na2vs0mg"},{"bike_id":"43da0f8d-3522-43da-b060-47d185bf0ce9","system_id":"levelo_inurba_marseille","lat":43.23961,"lon":5.36632,"is_reserved":false,"is_disabled":false,"rental_uris":{"android":"levelo://app?vid=43da0f8d-3522-43da-b060-47d185bf0ce9","ios":"levelo://app?vid=43da0f8d-3522-43da-b060-47d185bf0ce9"},"vehicle_type_id":"4","last_reported":1734012581,"current_range_meters":6000,"station_id":"ce4bhi12rcd13ifvqfp0","pricing_plan_id":"cebpf4jnsgd1na2vs0mg"},{"bike_id":"797ab029-48a7-413b-96da-25691c662e7b","system_id":"levelo_inurba_marseille","lat":43.30599,"lon":5.39358,"is_reserved":false,"is_disabled":true,"rental_uris":{"android":"levelo://app?vid=797ab029-48a7-413b-96da-25691c662e7b","ios":"levelo://app?vid=797ab029-48a7-413b-96da-25691c662e7b"},"vehicle_type_id":"4","last_reported":1734012581,"current_range_meters":17200,"station_id":"ce4bh0p2rcd13ifvqd80","pricing_plan_id":"cebpf4jnsgd1na2vs0mg"},{"bike_id":"0009a680-a77e-43bd-8a6f-f843fb953616","system_id":"levelo_inurba_marseille","lat":43.297073,"lon":5.376864,"is_reserved":false,"is_disabled":false,"rental_uris":{"android":"levelo://app?vid=0009a680-a77e-43bd-8a6f-f843fb953616","ios":"levelo://app?vid=0009a680-a77e-43bd-8a6f-f843fb953616"},"vehicle_type_id":"4","last_reported":1734012581,"current_range_meters":29600,"station_id":"ce4bgkh2rcd13ifvqbl0","pricing_plan_id":"cebpf4jnsgd1na2vs0mg"},{"bike_id":"bbd8fa05-a068-4ba3-9ee1-d409945460ae","system_id":"levelo_inurba_marseille","lat":43.3177,"lon":5.39012,"is_reserved":false,"is_disabled":false,"rental_uris":{"android":"levelo://app?vid=bbd8fa05-a068-4ba3-9ee1-d409945460ae","ios":"levelo://app?vid=bbd8fa05-a068-4ba3-9ee1-d409945460ae"},"vehicle_type_id":"4","last_reported":1734012581,"current_range_meters":38000,"station_id":"ce4bhqp2rcd13ifvqhng","pricing_plan_id":"cebpf4jnsgd1na2vs0mg"},{"bike_id":"a8942e43-f3d6-46fd-8576-2cc6b2787f3e","system_id":"levelo_inurba_marseille","lat":43.33023,"lon":5.39051,"is_reserved":false,"is_disabled":false,"rental_uris":{"android":"levelo://app?vid=a8942e43-f3d6-46fd-8576-2cc6b2787f3e","ios":"levelo://app?vid=a8942e43-f3d6-46fd-8576-2cc6b2787f3e"},"vehicle_type_id":"4","last_reported":1734012581,"current_range_meters":24800,"station_id":"ce4bhr92rcd13ifvqhrg","pricing_plan_id":"cebpf4jnsgd1na2vs0mg"},{"bike_id":"f19b904e-b22c-4635-8dec-34001a0494f2","system_id":"levelo_inurba_marseille","lat":43.29794,"lon":5.37071,"is_reserved":false,"is_disabled":false,"rental_uris":{"android":"levelo://app?vid=f19b904e-b22c-4635-8dec-34001a0494f2","ios":"levelo://app?vid=f19b904e-b22c-4635-8dec-34001a0494f2"},"vehicle_type_id":"4","last_reported":1734012581,"current_range_meters":35200,"station_id":"ce4bgop2rcd13ifvqc1g","pricing_plan_id":"cebpf4jnsgd1na2vs0mg"},{"bike_id":"0b1fca49-fc15-4630-a889-cb302544174c","system_id":"levelo_inurba_marseille","lat":43.28714,"lon":5.37946,"is_reserved":false,"is_disabled":true,"rental_uris":{"android":"levelo://app?vid=0b1fca49-fc15-4630-a889-cb302544174c","ios":"levelo://app?vid=0b1fca49-fc15-4630-a889-cb302544174c"},"vehicle_type_id":"4","last_reported":1734012581,"current_range_meters":38800,"station_id":"ce4bh9p2rcd13ifvqec0","pricing_plan_id":"cebpf4jnsgd1na2vs0mg"},{"bike_id":"fcbe1a45-62ef-4798-a96a-86068998a082","system_id":"levelo_inurba_marseille","lat":43.24542,"lon":5.39526,"is_reserved":false,"is_disabled":false,"rental_uris":{"android":"levelo://app?vid=fcbe1a45-62ef-4798-a96a-86068998a082","ios":"levelo://app?vid=fcbe1a45-62ef-4798-a96a-86068998a082"},"vehicle_type_id":"4","last_reported":1734012581,"current_range_meters":30400,"station_id":"ce4bhlp2rcd13ifvqgjg","pricing_plan_id":"cebpf4jnsgd1na2vs0mg"},{"bike_id":"034e2d53-a8ec-4ee3-aeab-28c2f62547b1","system_id":"levelo_inurba_marseille","lat":43.24092,"lon":5.37747,"is_reserved":false,"is_disabled":false,"rental_uris":{"android":"levelo://app?vid=034e2d53-a8ec-4ee3-aeab-28c2f62547b1","ios":"levelo://app?vid=034e2d53-a8ec-4ee3-aeab-28c2f62547b1"},"vehicle_type_id":"4","last_reported":1734012581,"current_range_meters":32800,"station_id":"ce4bhnp2rcd13ifvqgvg","pricing_plan_id":"cebpf4jnsgd1na2vs0mg"},{"bike_id":"49b397f9-8779-492a-a537-7f138ad11654","system_id":"levelo_inurba_marseille","lat":43.29579,"lon":5.39969,"is_reserved":false,"is_disabled":false,"rental_uris":{"android":"levelo://app?vid=49b397f9-8779-492a-a537-7f138ad11654","ios":"levelo://app?vid=49b397f9-8779-492a-a537-7f138ad11654"},"vehicle_type_id":"4","last_reported":1734012581,"current_range_meters":6400,"station_id":"ce4bh312rcd13ifvqdj0","pricing_plan_id":"cebpf4jnsgd1na2vs0mg"},{"bike_id":"547ee225-3bb9-4420-a73c-bc355b21e705","system_id":"levelo_inurba_marseille","lat":43.31341,"lon":5.39707,"is_reserved":false,"is_disabled":false,"rental_uris":{"android":"levelo://app?vid=547ee225-3bb9-4420-a73c-bc355b21e705","ios":"levelo://app?vid=547ee225-3bb9-4420-a73c-bc355b21e705"},"vehicle_type_id":"4","last_reported":1734012581,"current_range_meters":39200,"station_id":"ce4bgvp2rcd13ifvqcu0","pricing_plan_id":"cebpf4jnsgd1na2vs0mg"},{"bike_id":"126f893c-9fe0-41dd-ab04-60699d06b677","system_id":"levelo_inurba_marseille","lat":43.26949,"lon":5.38631,"is_reserved":false,"is_disabled":false,"rental_uris":{"android":"levelo://app?vid=126f893c-9fe0-41dd-ab04-60699d06b677","ios":"levelo://app?vid=126f893c-9fe0-41dd-ab04-60699d06b677"},"vehicle_type_id":"4","last_reported":1734012581,"current_range_meters":24800,"station_id":"ce4bhh92rcd13ifvqfh0","pricing_plan_id":"cebpf4jnsgd1na2vs0mg"},{"bike_id":"354c236b-7cf9-4151-8f12-acabe55641f2","system_id":"levelo_inurba_marseille","lat":43.28442,"lon":5.39184,"is_reserved":false,"is_disabled":false,"rental_uris":{"android":"levelo://app?vid=354c236b-7cf9-4151-8f12-acabe55641f2","ios":"levelo://app?vid=354c236b-7cf9-4151-8f12-acabe55641f2"},"vehicle_type_id":"4","last_reported":1734012581,"current_range_meters":32800,"station_id":"ce4bhoh2rcd13ifvqh5g","pricing_plan_id":"cebpf4jnsgd1na2vs0mg"},{"bike_id":"9b938653-5e4a-4ae8-afb6-57cb16d019f6","system_id":"levelo_inurba_marseille","lat":43.29718,"lon":5.37694,"is_reserved":false,"is_disabled":false,"rental_uris":{"android":"levelo://app?vid=9b938653-5e4a-4ae8-afb6-57cb16d019f6","ios":"levelo://app?vid=9b938653-5e4a-4ae8-afb6-57cb16d019f6"},"vehicle_type_id":"4","last_reported":1734012581,"current_range_meters":36800,"station_id":"ce4bgkh2rcd13ifvqbl0","pricing_plan_id":"cebpf4jnsgd1na2vs0mg"},{"bike_id":"06f66dfc-67e3-46bb-8e23-90ef22aa2f49","system_id":"levelo_inurba_marseille","lat":43.33023,"lon":5.39038,"is_reserved":false,"is_disabled":false,"rental_uris":{"android":"levelo://app?vid=06f66dfc-67e3-46bb-8e23-90ef22aa2f49","ios":"levelo://app?vid=06f66dfc-67e3-46bb-8e23-90ef22aa2f49"},"vehicle_type_id":"4","last_reported":1734012581,"current_range_meters":28000,"station_id":"ce4bhr92rcd13ifvqhrg","pricing_plan_id":"cebpf4jnsgd1na2vs0mg"},{"bike_id":"4d3a41f5-959c-4dbb-9d11-8fbbf2d6345c","system_id":"levelo_inurba_marseille","lat":43.26923,"lon":5.38926,"is_reserved":false,"is_disabled":false,"rental_uris":{"android":"levelo://app?vid=4d3a41f5-959c-4dbb-9d11-8fbbf2d6345c","ios":"levelo://app?vid=4d3a41f5-959c-4dbb-9d11-8fbbf2d6345c"},"vehicle_type_id":"4","last_reported":1734012581,"current_range_meters":27200,"station_id":"ce4bhhh2rcd13ifvqfl0","pricing_plan_id":"cebpf4jnsgd1na2vs0mg"},{"bike_id":"53b60d1c-ae9a-4af8-b667-68be884e6780","system_id":"levelo_inurba_marseille","lat":43.3009,"lon":5.39085,"is_reserved":false,"is_disabled":false,"rental_uris":{"android":"levelo://app?vid=53b60d1c-ae9a-4af8-b667-68be884e6780","ios":"levelo://app?vid=53b60d1c-ae9a-4af8-b667-68be884e6780"},"vehicle_type_id":"4","last_reported":1734012581,"current_range_meters":38400,"station_id":"ce4bh192rcd13ifvqdb0","pricing_plan_id":"cebpf4jnsgd1na2vs0mg"},{"bike_id":"0b95e5ee-1011-4a71-be2b-de57b5edad02","system_id":"levelo_inurba_marseille","lat":43.29929,"lon":5.37461,"is_reserved":false,"is_disabled":false,"rental_uris":{"android":"levelo://app?vid=0b95e5ee-1011-4a71-be2b-de57b5edad02","ios":"levelo://app?vid=0b95e5ee-1011-4a71-be2b-de57b5edad02"},"vehicle_type_id":"4","last_reported":1734012581,"current_range_meters":18000,"station_id":"ce4bgjh2rcd13ifvqbg0","pricing_plan_id":"cebpf4jnsgd1na2vs0mg"},{"bike_id":"1ce1ac46-6f23-446e-bfa4-a0b70c088748","system_id":"levelo_inurba_marseille","lat":43.30213,"lon":5.39466,"is_reserved":false,"is_disabled":false,"rental_uris":{"android":"levelo://app?vid=1ce1ac46-6f23-446e-bfa4-a0b70c088748","ios":"levelo://app?vid=1ce1ac46-6f23-446e-bfa4-a0b70c088748"},"vehicle_type_id":"4","last_reported":1734012581,"current_range_meters":5600,"station_id":"ce4bh0p2rcd13ifvqd70","pricing_plan_id":"cebpf4jnsgd1na2vs0mg"},{"bike_id":"a648cb11-d201-472f-985c-1caebce50f76","system_id":"levelo_inurba_marseille","lat":43.29347,"lon":5.37843,"is_reserved":false,"is_disabled":true,"rental_uris":{"android":"levelo://app?vid=a648cb11-d201-472f-985c-1caebce50f76","ios":"levelo://app?vid=a648cb11-d201-472f-985c-1caebce50f76"},"vehicle_type_id":"4","last_reported":1734012581,"current_range_meters":0,"station_id":"ce4bgjh2rcd13ifvqbf0","pricing_plan_id":"cebpf4jnsgd1na2vs0mg"},{"bike_id":"dd643bc6-5b37-42ec-9cd1-25f6f7772e52","system_id":"levelo_inurba_marseille","lat":43.31752,"lon":5.39025,"is_reserved":false,"is_disabled":true,"rental_uris":{"android":"levelo://app?vid=dd643bc6-5b37-42ec-9cd1-25f6f7772e52","ios":"levelo://app?vid=dd643bc6-5b37-42ec-9cd1-25f6f7772e52"},"vehicle_type_id":"4","last_reported":1734012581,"current_range_meters":38000,"station_id":"ce4bhqp2rcd13ifvqhng","pricing_plan_id":"cebpf4jnsgd1na2vs0mg"},{"bike_id":"f5a328d6-5258-4762-bac6-bf1eb3656810","system_id":"levelo_inurba_marseille","lat":43.26034,"lon":5.37558,"is_reserved":false,"is_disabled":false,"rental_uris":{"android":"levelo://app?vid=f5a328d6-5258-4762-bac6-bf1eb3656810","ios":"levelo://app?vid=f5a328d6-5258-4762-bac6-bf1eb3656810"},"vehicle_type_id":"4","last_reported":1734012581,"current_range_meters":38800,"station_id":"ce4bhgh2rcd13ifvqfa0","pricing_plan_id":"cebpf4jnsgd1na2vs0mg"},{"bike_id":"44963b41-5792-4a70-ade5-c9370bed61e8","system_id":"levelo_inurba_marseille","lat":43.28343,"lon":5.38115,"is_reserved":false,"is_disabled":false,"rental_uris":{"android":"levelo://app?vid=44963b41-5792-4a70-ade5-c9370bed61e8","ios":"levelo://app?vid=44963b41-5792-4a70-ade5-c9370bed61e8"},"vehicle_type_id":"4","last_reported":1734012581,"current_range_meters":36000,"station_id":"ce4bh412rcd13ifvqdr0","pricing_plan_id":"cebpf4jnsgd1na2vs0mg"},{"bike_id":"e738fcc8-c725-46f1-b7fe-8f522bd56ad4","system_id":"levelo_inurba_marseille","lat":43.22933,"lon":5.35376,"is_reserved":false,"is_disabled":false,"rental_uris":{"android":"levelo://app?vid=e738fcc8-c725-46f1-b7fe-8f522bd56ad4","ios":"levelo://app?vid=e738fcc8-c725-46f1-b7fe-8f522bd56ad4"},"vehicle_type_id":"4","last_reported":1734012581,"current_range_meters":9600,"station_id":"cpo3532slgdg3j2ikp40","pricing_plan_id":"cebpf4jnsgd1na2vs0mg"},{"bike_id":"eb9a9242-b969-4a0e-8e0d-2d122719e3fe","system_id":"levelo_inurba_marseille","lat":43.25723,"lon":5.41112,"is_reserved":false,"is_disabled":false,"rental_uris":{"android":"levelo://app?vid=eb9a9242-b969-4a0e-8e0d-2d122719e3fe","ios":"levelo://app?vid=eb9a9242-b969-4a0e-8e0d-2d122719e3fe"},"vehicle_type_id":"4","last_reported":1734012581,"current_range_meters":37600,"station_id":"ce4bhkp2rcd13ifvqgd0","pricing_plan_id":"cebpf4jnsgd1na2vs0mg"},{"bike_id":"5b23d32e-83d8-481d-be86-61949176e32b","system_id":"levelo_inurba_marseille","lat":43.26577,"lon":5.39044,"is_reserved":false,"is_disabled":false,"rental_uris":{"android":"levelo://app?vid=5b23d32e-83d8-481d-be86-61949176e32b","ios":"levelo://app?vid=5b23d32e-83d8-481d-be86-61949176e32b"},"vehicle_type_id":"4","last_reported":1734012581,"current_range_meters":38800,"station_id":"ce4bhe12rcd13ifvqf30","pricing_plan_id":"cebpf4jnsgd1na2vs0mg"},{"bike_id":"7965bd8b-65b9-4460-9e65-36f253ebc53b","system_id":"levelo_inurba_marseille","lat":43.32045,"lon":5.41513,"is_reserved":false,"is_disabled":false,"rental_uris":{"android":"levelo://app?vid=7965bd8b-65b9-4460-9e65-36f253ebc53b","ios":"levelo://app?vid=7965bd8b-65b9-4460-9e65-36f253ebc53b"},"vehicle_type_id":"4","last_reported":1734012581,"current_range_meters":27600,"station_id":"ce4bhq92rcd13ifvqhkg","pricing_plan_id":"cebpf4jnsgd1na2vs0mg"},{"bike_id":"8a939789-b594-464c-87bc-cdbd1182be3b","system_id":"levelo_inurba_marseille","lat":43.24532,"lon":5.39521,"is_reserved":false,"is_disabled":false,"rental_uris":{"android":"levelo://app?vid=8a939789-b594-464c-87bc-cdbd1182be3b","ios":"levelo://app?vid=8a939789-b594-464c-87bc-cdbd1182be3b"},"vehicle_type_id":"4","last_reported":1734012581,"current_range_meters":14800,"station_id":"ce4bhlp2rcd13ifvqgjg","pricing_plan_id":"cebpf4jnsgd1na2vs0mg"},{"bike_id":"657e7e3a-d8d2-49cc-b5bf-069876c42a21","system_id":"levelo_inurba_marseille","lat":43.32541,"lon":5.41438,"is_reserved":false,"is_disabled":false,"rental_uris":{"android":"levelo://app?vid=657e7e3a-d8d2-49cc-b5bf-069876c42a21","ios":"levelo://app?vid=657e7e3a-d8d2-49cc-b5bf-069876c42a21"},"vehicle_type_id":"4","last_reported":1734012581,"current_range_meters":36400,"station_id":"ce4bhq12rcd13ifvqhhg","pricing_plan_id":"cebpf4jnsgd1na2vs0mg"},{"bike_id":"467a8ed9-8f9d-4f9c-a7a2-b2a4bc21bd4a","system_id":"levelo_inurba_marseille","lat":43.24649,"lon":5.38904,"is_reserved":false,"is_disabled":false,"rental_uris":{"android":"levelo://app?vid=467a8ed9-8f9d-4f9c-a7a2-b2a4bc21bd4a","ios":"levelo://app?vid=467a8ed9-8f9d-4f9c-a7a2-b2a4bc21bd4a"},"vehicle_type_id":"4","last_reported":1734012581,"current_range_meters":36000,"station_id":"ce4bhg12rcd13ifvqf60","pricing_plan_id":"cebpf4jnsgd1na2vs0mg"},{"bike_id":"3f376398-b9b7-4419-aed9-9595c8c18ff6","system_id":"levelo_inurba_marseille","lat":43.29553,"lon":5.42282,"is_reserved":false,"is_disabled":false,"rental_uris":{"android":"levelo://app?vid=3f376398-b9b7-4419-aed9-9595c8c18ff6","ios":"levelo://app?vid=3f376398-b9b7-4419-aed9-9595c8c18ff6"},"vehicle_type_id":"4","last_reported":1734012581,"current_range_meters":34800,"station_id":"ce4bhph2rcd13ifvqhdg","pricing_plan_id":"cebpf4jnsgd1na2vs0mg"},{"bike_id":"b3efb9e6-7c78-49e9-8953-2b580fb6d57e","system_id":"levelo_inurba_marseille","lat":43.276184,"lon":5.361067,"is_reserved":false,"is_disabled":true,"rental_uris":{"android":"levelo://app?vid=b3efb9e6-7c78-49e9-8953-2b580fb6d57e","ios":"levelo://app?vid=b3efb9e6-7c78-49e9-8953-2b580fb6d57e"},"vehicle_type_id":"4","last_reported":1734012581,"current_range_meters":0,"station_id":"ce4bgj92rcd13ifvqbe0","pricing_plan_id":"cebpf4jnsgd1na2vs0mg"},{"bike_id":"d0a95b49-14d6-4ca0-9616-f1b5a6a92e49","system_id":"levelo_inurba_marseille","lat":43.30653,"lon":5.40106,"is_reserved":false,"is_disabled":false,"rental_uris":{"android":"levelo://app?vid=d0a95b49-14d6-4ca0-9616-f1b5a6a92e49","ios":"levelo://app?vid=d0a95b49-14d6-4ca0-9616-f1b5a6a92e49"},"vehicle_type_id":"4","last_reported":1734012581,"current_range_meters":39200,"station_id":"ce4bh112rcd13ifvqda0","pricing_plan_id":"cebpf4jnsgd1na2vs0mg"},{"bike_id":"a5589391-a7e4-412b-9a87-f917b2322580","system_id":"levelo_inurba_marseille","lat":43.23054,"lon":5.35508,"is_reserved":false,"is_disabled":false,"rental_uris":{"android":"levelo://app?vid=a5589391-a7e4-412b-9a87-f917b2322580","ios":"levelo://app?vid=a5589391-a7e4-412b-9a87-f917b2322580"},"vehicle_type_id":"4","last_reported":1734012581,"current_range_meters":13600,"station_id":"cpo3342slgdg3j2ifvpg","pricing_plan_id":"cebpf4jnsgd1na2vs0mg"},{"bike_id":"0b2289f6-27ab-4664-83e8-651492172fbc","system_id":"levelo_inurba_marseille","lat":43.27975,"lon":5.38734,"is_reserved":false,"is_disabled":false,"rental_uris":{"android":"levelo://app?vid=0b2289f6-27ab-4664-83e8-651492172fbc","ios":"levelo://app?vid=0b2289f6-27ab-4664-83e8-651492172fbc"},"vehicle_type_id":"4","last_reported":1734012581,"current_range_meters":34800,"station_id":"ce4bhg12rcd13ifvqf80","pricing_plan_id":"cebpf4jnsgd1na2vs0mg"},{"bike_id":"aa60642f-40b0-4281-8adc-f4984940a0e2","system_id":"levelo_inurba_marseille","lat":43.29046,"lon":5.39976,"is_reserved":false,"is_disabled":true,"rental_uris":{"android":"levelo://app?vid=aa60642f-40b0-4281-8adc-f4984940a0e2","ios":"levelo://app?vid=aa60642f-40b0-4281-8adc-f4984940a0e2"},"vehicle_type_id":"4","last_reported":1734012581,"current_range_meters":0,"station_id":"ce4bh392rcd13ifvqdm0","pricing_plan_id":"cebpf4jnsgd1na2vs0mg"},{"bike_id":"4adbefe7-e022-4183-953c-b8d94d86066c","system_id":"levelo_inurba_marseille","lat":43.29839,"lon":5.36283,"is_reserved":false,"is_disabled":false,"rental_uris":{"android":"levelo://app?vid=4adbefe7-e022-4183-953c-b8d94d86066c","ios":"levelo://app?vid=4adbefe7-e022-4183-953c-b8d94d86066c"},"vehicle_type_id":"4","last_reported":1734012581,"current_range_meters":34000,"station_id":"ce4bgpp2rcd13ifvqc3g","pricing_plan_id":"cebpf4jnsgd1na2vs0mg"},{"bike_id":"5cea85c6-9164-425e-8ce3-8590d6dbac43","system_id":"levelo_inurba_marseille","lat":43.29574,"lon":5.37719,"is_reserved":false,"is_disabled":false,"rental_uris":{"android":"levelo://app?vid=5cea85c6-9164-425e-8ce3-8590d6dbac43","ios":"levelo://app?vid=5cea85c6-9164-425e-8ce3-8590d6dbac43"},"vehicle_type_id":"4","last_reported":1734012581,"current_range_meters":38800,"station_id":"ce4bhbh2rcd13ifvqepg","pricing_plan_id":"cebpf4jnsgd1na2vs0mg"},{"bike_id":"146c18c0-2d54-4c53-8578-b97326fbb246","system_id":"levelo_inurba_marseille","lat":43.32482,"lon":5.36572,"is_reserved":false,"is_disabled":false,"rental_uris":{"android":"levelo://app?vid=146c18c0-2d54-4c53-8578-b97326fbb246","ios":"levelo://app?vid=146c18c0-2d54-4c53-8578-b97326fbb246"},"vehicle_type_id":"4","last_reported":1734012581,"current_range_meters":38800,"station_id":"ce4bhs12rcd13ifvqhvg","pricing_plan_id":"cebpf4jnsgd1na2vs0mg"},{"bike_id":"66efb656-e444-4859-a3f6-09b5953f73de","system_id":"levelo_inurba_marseille","lat":43.33733,"lon":5.37444,"is_reserved":false,"is_disabled":false,"rental_uris":{"android":"levelo://app?vid=66efb656-e444-4859-a3f6-09b5953f73de","ios":"levelo://app?vid=66efb656-e444-4859-a3f6-09b5953f73de"},"vehicle_type_id":"4","last_reported":1734012581,"current_range_meters":38400,"station_id":"","pricing_plan_id":"cebpf4jnsgd1na2vs0mg"},{"bike_id":"5cd0227d-828f-4635-a4e6-90752f4b4e94","system_id":"levelo_inurba_marseille","lat":43.29189,"lon":5.35804,"is_reserved":false,"is_disabled":true,"rental_uris":{"android":"levelo://app?vid=5cd0227d-828f-4635-a4e6-90752f4b4e94","ios":"levelo://app?vid=5cd0227d-828f-4635-a4e6-90752f4b4e94"},"vehicle_type_id":"4","last_reported":1734012581,"current_range_meters":38800,"station_id":"ce4bhb12rcd13ifvqel0","pricing_plan_id":"cebpf4jnsgd1na2vs0mg"},{"bike_id":"837ea001-3dca-43b1-bf44-3c63cdc8ec4f","system_id":"levelo_inurba_marseille","lat":43.24075,"lon":5.37751,"is_reserved":false,"is_disabled":false,"rental_uris":{"android":"levelo://app?vid=837ea001-3dca-43b1-bf44-3c63cdc8ec4f","ios":"levelo://app?vid=837ea001-3dca-43b1-bf44-3c63cdc8ec4f"},"vehicle_type_id":"4","last_reported":1734012581,"current_range_meters":39200,"station_id":"ce4bhnp2rcd13ifvqgvg","pricing_plan_id":"cebpf4jnsgd1na2vs0mg"},{"bike_id":"1edcb435-be97-41f8-aa8c-4a20808cef7c","system_id":"levelo_inurba_marseille","lat":43.26806,"lon":5.40281,"is_reserved":false,"is_disabled":false,"rental_uris":{"android":"levelo://app?vid=1edcb435-be97-41f8-aa8c-4a20808cef7c","ios":"levelo://app?vid=1edcb435-be97-41f8-aa8c-4a20808cef7c"},"vehicle_type_id":"4","last_reported":1734012581,"current_range_meters":8800,"station_id":"ce501612rcd8frsf0b60","pricing_plan_id":"cebpf4jnsgd1na2vs0mg"},{"bike_id":"10d9a998-b998-4d10-9e70-77a1ce1068b1","system_id":"levelo_inurba_marseille","lat":43.26204,"lon":5.37454,"is_reserved":false,"is_disabled":false,"rental_uris":{"android":"levelo://app?vid=10d9a998-b998-4d10-9e70-77a1ce1068b1","ios":"levelo://app?vid=10d9a998-b998-4d10-9e70-77a1ce1068b1"},"vehicle_type_id":"4","last_reported":1734012581,"current_range_meters":16400,"station_id":"ce4bhgp2rcd13ifvqfc0","pricing_plan_id":"cebpf4jnsgd1na2vs0mg"},{"bike_id":"43c11533-6c80-4707-8c5e-17176954a27e","system_id":"levelo_inurba_marseille","lat":43.26208,"lon":5.3744,"is_reserved":false,"is_disabled":false,"rental_uris":{"android":"levelo://app?vid=43c11533-6c80-4707-8c5e-17176954a27e","ios":"levelo://app?vid=43c11533-6c80-4707-8c5e-17176954a27e"},"vehicle_type_id":"4","last_reported":1734012581,"current_range_meters":32000,"station_id":"ce4bhgp2rcd13ifvqfc0","pricing_plan_id":"cebpf4jnsgd1na2vs0mg"},{"bike_id":"54238831-b2f8-4803-a465-8faa1bf52ffc","system_id":"levelo_inurba_marseille","lat":43.24053,"lon":5.3773,"is_reserved":false,"is_disabled":false,"rental_uris":{"android":"levelo://app?vid=54238831-b2f8-4803-a465-8faa1bf52ffc","ios":"levelo://app?vid=54238831-b2f8-4803-a465-8faa1bf52ffc"},"vehicle_type_id":"4","last_reported":1734012581,"current_range_meters":36800,"station_id":"ce4bhnp2rcd13ifvqgvg","pricing_plan_id":"cebpf4jnsgd1na2vs0mg"},{"bike_id":"61df4582-7c9f-489e-b7da-d6a0cfdcd7c7","system_id":"levelo_inurba_marseille","lat":43.28656,"lon":5.36355,"is_reserved":false,"is_disabled":true,"rental_uris":{"android":"levelo://app?vid=61df4582-7c9f-489e-b7da-d6a0cfdcd7c7","ios":"levelo://app?vid=61df4582-7c9f-489e-b7da-d6a0cfdcd7c7"},"vehicle_type_id":"4","last_reported":1734012581,"current_range_meters":0,"station_id":"ce4bhah2rcd13ifvqej0","pricing_plan_id":"cebpf4jnsgd1na2vs0mg"},{"bike_id":"c3a7ecdd-5659-4915-847f-1af1fee194ca","system_id":"levelo_inurba_marseille","lat":43.29843,"lon":5.36268,"is_reserved":false,"is_disabled":false,"rental_uris":{"android":"levelo://app?vid=c3a7ecdd-5659-4915-847f-1af1fee194ca","ios":"levelo://app?vid=c3a7ecdd-5659-4915-847f-1af1fee194ca"},"vehicle_type_id":"4","last_reported":1734012581,"current_range_meters":38800,"station_id":"ce4bgpp2rcd13ifvqc3g","pricing_plan_id":"cebpf4jnsgd1na2vs0mg"},{"bike_id":"ca3bf6a0-806c-4046-b219-bbea4c2ba646","system_id":"levelo_inurba_marseille","lat":43.23201,"lon":5.35549,"is_reserved":false,"is_disabled":false,"rental_uris":{"android":"levelo://app?vid=ca3bf6a0-806c-4046-b219-bbea4c2ba646","ios":"levelo://app?vid=ca3bf6a0-806c-4046-b219-bbea4c2ba646"},"vehicle_type_id":"4","last_reported":1734012581,"current_range_meters":38800,"station_id":"ce4bhu92rcd13ifvqi70","pricing_plan_id":"cebpf4jnsgd1na2vs0mg"},{"bike_id":"b2a8a79e-603a-48d9-a045-27cd420ed3c6","system_id":"levelo_inurba_marseille","lat":43.27502,"lon":5.42451,"is_reserved":false,"is_disabled":false,"rental_uris":{"android":"levelo://app?vid=b2a8a79e-603a-48d9-a045-27cd420ed3c6","ios":"levelo://app?vid=b2a8a79e-603a-48d9-a045-27cd420ed3c6"},"vehicle_type_id":"4","last_reported":1734012581,"current_range_meters":11600,"station_id":"ce4bhn92rcd13ifvqgrg","pricing_plan_id":"cebpf4jnsgd1na2vs0mg"},{"bike_id":"da88eb33-42f7-4259-87f0-28899729ee6e","system_id":"levelo_inurba_marseille","lat":43.246438,"lon":5.389001,"is_reserved":false,"is_disabled":false,"rental_uris":{"android":"levelo://app?vid=da88eb33-42f7-4259-87f0-28899729ee6e","ios":"levelo://app?vid=da88eb33-42f7-4259-87f0-28899729ee6e"},"vehicle_type_id":"4","last_reported":1734012581,"current_range_meters":8000,"station_id":"ce4bhg12rcd13ifvqf60","pricing_plan_id":"cebpf4jnsgd1na2vs0mg"},{"bike_id":"46b2fdec-0870-4ae2-84dc-b1f57512351e","system_id":"levelo_inurba_marseille","lat":43.337444,"lon":5.374475,"is_reserved":false,"is_disabled":true,"rental_uris":{"android":"levelo://app?vid=46b2fdec-0870-4ae2-84dc-b1f57512351e","ios":"levelo://app?vid=46b2fdec-0870-4ae2-84dc-b1f57512351e"},"vehicle_type_id":"4","last_reported":1734012581,"current_range_meters":0,"station_id":"","pricing_plan_id":"cebpf4jnsgd1na2vs0mg"},{"bike_id":"ad8a8566-76f1-486f-a5c3-1b919241c9cc","system_id":"levelo_inurba_marseille","lat":43.30798,"lon":5.43523,"is_reserved":false,"is_disabled":true,"rental_uris":{"android":"levelo://app?vid=ad8a8566-76f1-486f-a5c3-1b919241c9cc","ios":"levelo://app?vid=ad8a8566-76f1-486f-a5c3-1b919241c9cc"},"vehicle_type_id":"4","last_reported":1734012581,"current_range_meters":1600,"station_id":"ce4bhph2rcd13ifvqheg","pricing_plan_id":"cebpf4jnsgd1na2vs0mg"},{"bike_id":"e8fc3e25-9e98-49d2-bdeb-6bdce100a8e1","system_id":"levelo_inurba_marseille","lat":43.29843,"lon":5.38347,"is_reserved":false,"is_disabled":false,"rental_uris":{"android":"levelo://app?vid=e8fc3e25-9e98-49d2-bdeb-6bdce100a8e1","ios":"levelo://app?vid=e8fc3e25-9e98-49d2-bdeb-6bdce100a8e1"},"vehicle_type_id":"4","last_reported":1734012581,"current_range_meters":27600,"station_id":"ce4bgj92rcd13ifvqbd0","pricing_plan_id":"cebpf4jnsgd1na2vs0mg"},{"bike_id":"ecf2be5e-1ccd-4595-8b48-deb0a4ad0510","system_id":"levelo_inurba_marseille","lat":43.25575,"lon":5.38251,"is_reserved":false,"is_disabled":true,"rental_uris":{"android":"levelo://app?vid=ecf2be5e-1ccd-4595-8b48-deb0a4ad0510","ios":"levelo://app?vid=ecf2be5e-1ccd-4595-8b48-deb0a4ad0510"},"vehicle_type_id":"4","last_reported":1734012581,"current_range_meters":2000,"station_id":"ce4bhih2rcd13ifvqfs0","pricing_plan_id":"cebpf4jnsgd1na2vs0mg"},{"bike_id":"b5cb506c-d5a2-40ca-8d90-ebc1337fb446","system_id":"levelo_inurba_marseille","lat":43.32487,"lon":5.36581,"is_reserved":false,"is_disabled":false,"rental_uris":{"android":"levelo://app?vid=b5cb506c-d5a2-40ca-8d90-ebc1337fb446","ios":"levelo://app?vid=b5cb506c-d5a2-40ca-8d90-ebc1337fb446"},"vehicle_type_id":"4","last_reported":1734012581,"current_range_meters":14000,"station_id":"ce4bhs12rcd13ifvqhvg","pricing_plan_id":"cebpf4jnsgd1na2vs0mg"},{"bike_id":"89689c13-bc4f-4ce0-ad6c-7c7345bf2b6b","system_id":"levelo_inurba_marseille","lat":43.27498,"lon":5.42454,"is_reserved":false,"is_disabled":true,"rental_uris":{"android":"levelo://app?vid=89689c13-bc4f-4ce0-ad6c-7c7345bf2b6b","ios":"levelo://app?vid=89689c13-bc4f-4ce0-ad6c-7c7345bf2b6b"},"vehicle_type_id":"4","last_reported":1734012581,"current_range_meters":1600,"station_id":"ce4bhn92rcd13ifvqgrg","pricing_plan_id":"cebpf4jnsgd1na2vs0mg"},{"bike_id":"66a70beb-6bbd-458f-80ac-788d12c338b6","system_id":"levelo_inurba_marseille","lat":43.28965,"lon":5.37851,"is_reserved":false,"is_disabled":false,"rental_uris":{"android":"levelo://app?vid=66a70beb-6bbd-458f-80ac-788d12c338b6","ios":"levelo://app?vid=66a70beb-6bbd-458f-80ac-788d12c338b6"},"vehicle_type_id":"4","last_reported":1734012581,"current_range_meters":36400,"station_id":"ce4bh9p2rcd13ifvqed0","pricing_plan_id":"cebpf4jnsgd1na2vs0mg"},{"bike_id":"8cd30422-7410-4328-92ef-3aaf72ab55db","system_id":"levelo_inurba_marseille","lat":43.2558,"lon":5.38226,"is_reserved":false,"is_disabled":false,"rental_uris":{"android":"levelo://app?vid=8cd30422-7410-4328-92ef-3aaf72ab55db","ios":"levelo://app?vid=8cd30422-7410-4328-92ef-3aaf72ab55db"},"vehicle_type_id":"4","last_reported":1734012581,"current_range_meters":20000,"station_id":"ce4bhih2rcd13ifvqfs0","pricing_plan_id":"cebpf4jnsgd1na2vs0mg"},{"bike_id":"f0385955-b302-4dd5-8fa2-b704d1cf74df","system_id":"levelo_inurba_marseille","lat":43.24079,"lon":5.37757,"is_reserved":false,"is_disabled":false,"rental_uris":{"android":"levelo://app?vid=f0385955-b302-4dd5-8fa2-b704d1cf74df","ios":"levelo://app?vid=f0385955-b302-4dd5-8fa2-b704d1cf74df"},"vehicle_type_id":"4","last_reported":1734012581,"current_range_meters":38800,"station_id":"ce4bhnp2rcd13ifvqgvg","pricing_plan_id":"cebpf4jnsgd1na2vs0mg"},{"bike_id":"6b270b5b-f3e5-4c8b-be18-db56ceb21224","system_id":"levelo_inurba_marseille","lat":43.29912,"lon":5.37475,"is_reserved":false,"is_disabled":false,"rental_uris":{"android":"levelo://app?vid=6b270b5b-f3e5-4c8b-be18-db56ceb21224","ios":"levelo://app?vid=6b270b5b-f3e5-4c8b-be18-db56ceb21224"},"vehicle_type_id":"4","last_reported":1734012581,"current_range_meters":12800,"station_id":"ce4bgjh2rcd13ifvqbg0","pricing_plan_id":"cebpf4jnsgd1na2vs0mg"},{"bike_id":"c2fb4f64-4544-4a5c-9d06-544bb604dc3f","system_id":"levelo_inurba_marseille","lat":43.28369,"lon":5.38632,"is_reserved":false,"is_disabled":false,"rental_uris":{"android":"levelo://app?vid=c2fb4f64-4544-4a5c-9d06-544bb604dc3f","ios":"levelo://app?vid=c2fb4f64-4544-4a5c-9d06-544bb604dc3f"},"vehicle_type_id":"4","last_reported":1734012581,"current_range_meters":36000,"station_id":"ce4bh492rcd13ifvqdvg","pricing_plan_id":"cebpf4jnsgd1na2vs0mg"},{"bike_id":"8c43d979-b90e-4853-9a3d-aa6600789d7d","system_id":"levelo_inurba_marseille","lat":43.29227,"lon":5.36076,"is_reserved":false,"is_disabled":false,"rental_uris":{"android":"levelo://app?vid=8c43d979-b90e-4853-9a3d-aa6600789d7d","ios":"levelo://app?vid=8c43d979-b90e-4853-9a3d-aa6600789d7d"},"vehicle_type_id":"4","last_reported":1734012581,"current_range_meters":28000,"station_id":"ce4bhbh2rcd13ifvqeqg","pricing_plan_id":"cebpf4jnsgd1na2vs0mg"},{"bike_id":"10ac0e7d-76d8-4dc5-be85-b7a88a30cdd6","system_id":"levelo_inurba_marseille","lat":43.28854,"lon":5.35844,"is_reserved":false,"is_disabled":false,"rental_uris":{"android":"levelo://app?vid=10ac0e7d-76d8-4dc5-be85-b7a88a30cdd6","ios":"levelo://app?vid=10ac0e7d-76d8-4dc5-be85-b7a88a30cdd6"},"vehicle_type_id":"4","last_reported":1734012581,"current_range_meters":35600,"station_id":"ce4bhb12rcd13ifvqem0","pricing_plan_id":"cebpf4jnsgd1na2vs0mg"},{"bike_id":"c8e399bb-b745-48cd-874e-631b983e67ce","system_id":"levelo_inurba_marseille","lat":43.31082,"lon":5.42431,"is_reserved":false,"is_disabled":false,"rental_uris":{"android":"levelo://app?vid=c8e399bb-b745-48cd-874e-631b983e67ce","ios":"levelo://app?vid=c8e399bb-b745-48cd-874e-631b983e67ce"},"vehicle_type_id":"4","last_reported":1734012581,"current_range_meters":4800,"station_id":"ce4bhp92rcd13ifvqhag","pricing_plan_id":"cebpf4jnsgd1na2vs0mg"},{"bike_id":"489ca354-9b79-4366-8398-0f3d41e32067","system_id":"levelo_inurba_marseille","lat":43.26052,"lon":5.39422,"is_reserved":false,"is_disabled":true,"rental_uris":{"android":"levelo://app?vid=489ca354-9b79-4366-8398-0f3d41e32067","ios":"levelo://app?vid=489ca354-9b79-4366-8398-0f3d41e32067"},"vehicle_type_id":"4","last_reported":1734012581,"current_range_meters":0,"station_id":"ce4bhh92rcd13ifvqfj0","pricing_plan_id":"cebpf4jnsgd1na2vs0mg"},{"bike_id":"9763c34f-c931-449c-a245-dfe0c63b961a","system_id":"levelo_inurba_marseille","lat":43.298488,"lon":5.362776,"is_reserved":false,"is_disabled":false,"rental_uris":{"android":"levelo://app?vid=9763c34f-c931-449c-a245-dfe0c63b961a","ios":"levelo://app?vid=9763c34f-c931-449c-a245-dfe0c63b961a"},"vehicle_type_id":"4","last_reported":1734012581,"current_range_meters":38000,"station_id":"ce4bgpp2rcd13ifvqc3g","pricing_plan_id":"cebpf4jnsgd1na2vs0mg"},{"bike_id":"5bcc130c-9e1a-4fa9-aa31-75f1f66e5bcc","system_id":"levelo_inurba_marseille","lat":43.30032,"lon":5.38922,"is_reserved":false,"is_disabled":false,"rental_uris":{"android":"levelo://app?vid=5bcc130c-9e1a-4fa9-aa31-75f1f66e5bcc","ios":"levelo://app?vid=5bcc130c-9e1a-4fa9-aa31-75f1f66e5bcc"},"vehicle_type_id":"4","last_reported":1734012581,"current_range_meters":38800,"station_id":"ce4bhph2rcd13ifvqheg","pricing_plan_id":"cebpf4jnsgd1na2vs0mg"},{"bike_id":"6d05f7ba-808a-4403-b1f3-f8483fec843c","system_id":"levelo_inurba_marseille","lat":43.23187,"lon":5.35575,"is_reserved":false,"is_disabled":false,"rental_uris":{"android":"levelo://app?vid=6d05f7ba-808a-4403-b1f3-f8483fec843c","ios":"levelo://app?vid=6d05f7ba-808a-4403-b1f3-f8483fec843c"},"vehicle_type_id":"4","last_reported":1734012581,"current_range_meters":31200,"station_id":"ce4bhu92rcd13ifvqi70","pricing_plan_id":"cebpf4jnsgd1na2vs0mg"},{"bike_id":"46c7a1c4-0161-440f-8b97-301f0e738b32","system_id":"levelo_inurba_marseille","lat":43.32496,"lon":5.36568,"is_reserved":false,"is_disabled":false,"rental_uris":{"android":"levelo://app?vid=46c7a1c4-0161-440f-8b97-301f0e738b32","ios":"levelo://app?vid=46c7a1c4-0161-440f-8b97-301f0e738b32"},"vehicle_type_id":"4","last_reported":1734012581,"current_range_meters":32400,"station_id":"ce4bhs12rcd13ifvqhvg","pricing_plan_id":"cebpf4jnsgd1na2vs0mg"},{"bike_id":"5b216ce0-5fe7-4327-a32a-feac1a44ddf5","system_id":"levelo_inurba_marseille","lat":43.27948,"lon":5.38704,"is_reserved":false,"is_disabled":true,"rental_uris":{"android":"levelo://app?vid=5b216ce0-5fe7-4327-a32a-feac1a44ddf5","ios":"levelo://app?vid=5b216ce0-5fe7-4327-a32a-feac1a44ddf5"},"vehicle_type_id":"4","last_reported":1734012581,"current_range_meters":27600,"station_id":"ce4bhg12rcd13ifvqf80","pricing_plan_id":"cebpf4jnsgd1na2vs0mg"},{"bike_id":"0adb0686-0fe4-4a66-87c1-12f0dc3c25e4","system_id":"levelo_inurba_marseille","lat":43.27505,"lon":5.42452,"is_reserved":false,"is_disabled":false,"rental_uris":{"android":"levelo://app?vid=0adb0686-0fe4-4a66-87c1-12f0dc3c25e4","ios":"levelo://app?vid=0adb0686-0fe4-4a66-87c1-12f0dc3c25e4"},"vehicle_type_id":"4","last_reported":1734012581,"current_range_meters":22400,"station_id":"ce4bhn92rcd13ifvqgrg","pricing_plan_id":"cebpf4jnsgd1na2vs0mg"},{"bike_id":"f5089d46-fd84-4b59-947f-734dfd999fac","system_id":"levelo_inurba_marseille","lat":43.27905,"lon":5.38009,"is_reserved":false,"is_disabled":false,"rental_uris":{"android":"levelo://app?vid=f5089d46-fd84-4b59-947f-734dfd999fac","ios":"levelo://app?vid=f5089d46-fd84-4b59-947f-734dfd999fac"},"vehicle_type_id":"4","last_reported":1734012581,"current_range_meters":24000,"station_id":"ce4bhf92rcd13ifvqf50","pricing_plan_id":"cebpf4jnsgd1na2vs0mg"},{"bike_id":"975c8998-8848-43f9-ab61-fd825e1d3481","system_id":"levelo_inurba_marseille","lat":43.24182,"lon":5.3972,"is_reserved":false,"is_disabled":false,"rental_uris":{"android":"levelo://app?vid=975c8998-8848-43f9-ab61-fd825e1d3481","ios":"levelo://app?vid=975c8998-8848-43f9-ab61-fd825e1d3481"},