{"last_updated":1757924059,"ttl":60,"version":"2.2","data":{"bikes":[{"bike_id":"773cd728-4305-413e-8dcb-4138f75d3fdd","system_id":"levelo_inurba_marseille","lat":43.32358,"lon":5.36766,"is_reserved":false,"is_disabled":false,"rental_uris":{"android":"levelo://app?vid=773cd728-4305-413e-8dcb-4138f75d3fdd","ios":"levelo://app?vid=773cd728-4305-413e-8dcb-4138f75d3fdd"},"vehicle_type_id":"4","last_reported":1757924059,"current_range_meters":2800,"station_id":"ce4bhsh2rcd13ifvqi2g","pricing_plan_id":"cebpf4jnsgd1na2vs0mg"},{"bike_id":"09141a2f-6b31-4b29-bd8c-84ef21308fe2","system_id":"levelo_inurba_marseille","lat":43.29279,"lon":5.36838,"is_reserved":false,"is_disabled":false,"rental_uris":{"android":"levelo://app?vid=09141a2f-6b31-4b29-bd8c-84ef21308fe2","ios":"levelo://app?vid=09141a2f-6b31-4b29-bd8c-84ef21308fe2"},"vehicle_type_id":"4","last_reported":1757924059,"current_range_meters":2800,"station_id":"ce4bhbp2rcd13ifvqesg","pricing_plan_id":"cebpf4jnsgd1na2vs0mg"},{"bike_id":"f7311eb6-521f-44cc-b513-a91a49bdb810","system_id":"levelo_inurba_marseille","lat":43.30313,"lon":5.369,"is_reserved":false,"is_disabled":false,"rental_uris":{"android":"levelo://app?vid=f7311eb6-521f-44cc-b513-a91a49bdb810","ios":"levelo://app?vid=f7311eb6-521f-44cc-b513-a91a49bdb810"},"vehicle_type_id":"4","last_reported":1757924059,"current_range_meters":3200,"station_id":"ce4bgqh2rcd13ifvqc5g","pricing_plan_id":"cebpf4jnsgd1na2vs0mg"},{"bike_id":"6054f30f-a682-4638-bcbe-10b0cfe43c5c","system_id":"levelo_inurba_marseille","lat":43.28707,"lon":5.37402,"is_reserved":false,"is_disabled":false,"rental_uris":{"android":"levelo://app?vid=6054f30f-a682-4638-bcbe-10b0cfe43c5c","ios":"levelo://app?vid=6054f30f-a682-4638-bcbe-10b0cfe43c5c"},"vehicle_type_id":"4","last_reported":1757924059,"current_range_meters":3200,"station_id":"ce4bh3p2rcd13ifvqdq0","pricing_plan_id":"cebpf4jnsgd1na2vs0mg"},{"bike_id":"2f17dcb5-16ac-45e4-80e6-cd311988bba8","system_id":"levelo_inurba_marseille","lat":43.28493,"lon":5.38573,"is_reserved":false,"is_disabled":false,"rental_uris":{"android":"levelo://app?vid=2f17dcb5-16ac-45e4-80e6-cd311988bba8","ios":"levelo://app?vid=2f17dcb5-16ac-45e4-80e6-cd311988bba8"},"vehicle_type_id":"4","last_reported":1757924059,"current_range_meters":3200,"station_id":"ce4bh8p2rcd13ifvqeb0","pricing_plan_id":"cebpf4jnsgd1na2vs0mg"},{"bike_id":"a24c4696-920b-4645-847f-87e0b46915a6","system_id":"levelo_inurba_marseille","lat":43.32452,"lon":5.42498,"is_reserved":false,"is_disabled":false,"rental_uris":{"android":"levelo://app?vid=a24c4696-920b-4645-847f-87e0b46915a6","ios":"levelo://app?vid=a24c4696-920b-4645-847f-87e0b46915a6"},"vehicle_type_id":"4","last_reported":1757924059,"current_range_meters":3600,"station_id":"","pricing_plan_id":"cebpf4jnsgd1na2vs0mg"},{"bike_id":"0b5e7908-675a-4dd8-8db0-2307e1b5163d","system_id":"levelo_inurba_marseille","lat":43.325468,"lon":5.414295,"is_reserved":false,"is_disabled":false,"rental_uris":{"android":"levelo://app?vid=0b5e7908-675a-4dd8-8db0-2307e1b5163d","ios":"levelo://app?vid=0b5e7908-675a-4dd8-8db0-2307e1b5163d"},"vehicle_type_id":"4","last_reported":1757924059,"current_range_meters":3600,"station_id":"ce4bhq12rcd13ifvqhhg","pricing_plan_id":"cebpf4jnsgd1na2vs0mg"},{"bike_id":"2a95e8d8-f04f-487b-bf1c-eb56d4eef22b","system_id":"levelo_inurba_marseille","lat":43.2649,"lon":5.39552,"is_reserved":false,"is_disabled":false,"rental_uris":{"android":"levelo://app?vid=2a95e8d8-f04f-487b-bf1c-eb56d4eef22b","ios":"levelo://app?vid=2a95e8d8-f04f-487b-bf1c-eb56d4eef22b"},"vehicle_type_id":"4","last_reported":1757924059,"current_range_meters":3600,"station_id":"ce4bhi12rcd13ifvqfq0","pricing_plan_id":"cebpf4jnsgd1na2vs0mg"},{"bike_id":"422469ce-ec23-458c-9ccc-93da3c172cac","system_id":"levelo_inurba_marseille","lat":43.2693,"lon":5.38925,"is_reserved":false,"is_disabled":false,"rental_uris":{"android":"levelo://app?vid=422469ce-ec23-458c-9ccc-93da3c172cac","ios":"levelo://app?vid=422469ce-ec23-458c-9ccc-93da3c172cac"},"vehicle_type_id":"4","last_reported":1757924059,"current_range_meters":4000,"station_id":"ce4bhhh2rcd13ifvqfl0","pricing_plan_id":"cebpf4jnsgd1na2vs0mg"},{"bike_id":"ae2200e0-55fa-4d16-87bf-72ca65d67371","system_id":"levelo_inurba_marseille","lat":43.28389,"lon":5.38475,"is_reserved":false,"is_disabled":false,"rental_uris":{"android":"levelo://app?vid=ae2200e0-55fa-4d16-87bf-72ca65d67371","ios":"levelo://app?vid=ae2200e0-55fa-4d16-87bf-72ca65d67371"},"vehicle_type_id":"4","last_reported":1757924059,"current_range_meters":4000,"station_id":"","pricing_plan_id":"cebpf4jnsgd1na2vs0mg"},{"bike_id":"8a1c985d-8abf-4ba0-95d4-d11dd91d05c0","system_id":"levelo_inurba_marseille","lat":43.29578,"lon":5.375254,"is_reserved":false,"is_disabled":false,"rental_uris":{"android":"levelo://app?vid=8a1c985d-8abf-4ba0-95d4-d11dd91d05c0","ios":"levelo://app?vid=8a1c985d-8abf-4ba0-95d4-d11dd91d05c0"},"vehicle_type_id":"4","last_reported":1757924059,"current_range_meters":4000,"station_id":"","pricing_plan_id":"cebpf4jnsgd1na2vs0mg"},{"bike_id":"4139ccef-c91b-4cf8-9bc3-346a6d084323","system_id":"levelo_inurba_marseille","lat":43.30468,"lon":5.37895,"is_reserved":false,"is_disabled":true,"rental_uris":{"android":"levelo://app?vid=4139ccef-c91b-4cf8-9bc3-346a6d084323","ios":"levelo://app?vid=4139ccef-c91b-4cf8-9bc3-346a6d084323"},"vehicle_type_id":"4","last_reported":1757924059,"current_range_meters":4400,"station_id":"ce4bgup2rcd13ifvqcn0","pricing_plan_id":"cebpf4jnsgd1na2vs0mg"},{"bike_id":"90b6c2c8-4803-4cbe-ac55-7b11770052b2","system_id":"levelo_inurba_marseille","lat":43.302619,"lon":5.377184,"is_reserved":false,"is_disabled":false,"rental_uris":{"android":"levelo://app?vid=90b6c2c8-4803-4cbe-ac55-7b11770052b2","ios":"levelo://app?vid=90b6c2c8-4803-4cbe-ac55-7b11770052b2"},"vehicle_type_id":"4","last_reported":1757924059,"current_range_meters":4400,"station_id":"ce4bguh2rcd13ifvqcj0","pricing_plan_id":"cebpf4jnsgd1na2vs0mg"},{"bike_id":"e03bd15c-c472-4f08-bc2f-c1b8a57b70fb","system_id":"levelo_inurba_marseille","lat":43.31085,"lon":5.40105,"is_reserved":false,"is_disabled":true,"rental_uris":{"android":"levelo://app?vid=e03bd15c-c472-4f08-bc2f-c1b8a57b70fb","ios":"levelo://app?vid=e03bd15c-c472-4f08-bc2f-c1b8a57b70fb"},"vehicle_type_id":"4","last_reported":1757924059,"current_range_meters":4400,"station_id":"","pricing_plan_id":"cebpf4jnsgd1na2vs0mg"},{"bike_id":"40c1fb86-298d-4e54-9b2c-51cd72a8a9e0","system_id":"levelo_inurba_marseille","lat":43.28852,"lon":5.35871,"is_reserved":false,"is_disabled":false,"rental_uris":{"android":"levelo://app?vid=40c1fb86-298d-4e54-9b2c-51cd72a8a9e0","ios":"levelo://app?vid=40c1fb86-298d-4e54-9b2c-51cd72a8a9e0"},"vehicle_type_id":"4","last_reported":1757924059,"current_range_meters":4400,"station_id":"ce4bhb12rcd13ifvqem0","pricing_plan_id":"cebpf4jnsgd1na2vs0mg"},{"bike_id":"076a0f9e-6b97-4a0b-bc00-8db1a72b4b9a","system_id":"levelo_inurba_marseille","lat":43.24086,"lon":5.37759,"is_reserved":false,"is_disabled":false,"rental_uris":{"android":"levelo://app?vid=076a0f9e-6b97-4a0b-bc00-8db1a72b4b9a","ios":"levelo://app?vid=076a0f9e-6b97-4a0b-bc00-8db1a72b4b9a"},"vehicle_type_id":"4","last_reported":1757924059,"current_range_meters":4800,"station_id":"ce4bhnp2rcd13ifvqgvg","pricing_plan_id":"cebpf4jnsgd1na2vs0mg"},{"bike_id":"4891d751-b66c-4a3d-89d5-78926b795844","system_id":"levelo_inurba_marseille","lat":43.337444,"lon":5.374475,"is_reserved":false,"is_disabled":false,"rental_uris":{"android":"levelo://app?vid=4891d751-b66c-4a3d-89d5-78926b795844","ios":"levelo://app?vid=4891d751-b66c-4a3d-89d5-78926b795844"},"vehicle_type_id":"4","last_reported":1757924059,"current_range_meters":4800,"station_id":"","pricing_plan_id":"cebpf4jnsgd1na2vs0mg"},{"bike_id":"9a45254c-c77a-469d-8fa3-a3fa05a580ba","system_id":"levelo_inurba_marseille","lat":43.2719,"lon":5.38667,"is_reserved":false,"is_disabled":false,"rental_uris":{"android":"levelo://app?vid=9a45254c-c77a-469d-8fa3-a3fa05a580ba","ios":"levelo://app?vid=9a45254c-c77a-469d-8fa3-a3fa05a580ba"},"vehicle_type_id":"4","last_reported":1757924059,"current_range_meters":4800,"station_id":"","pricing_plan_id":"cebpf4jnsgd1na2vs0mg"},{"bike_id":"84be000e-b186-4e60-8aaa-b7a0f42a7175","system_id":"levelo_inurba_marseille","lat":43.337749,"lon":5.374299,"is_reserved":false,"is_disabled":false,"rental_uris":{"android":"levelo://app?vid=84be000e-b186-4e60-8aaa-b7a0f42a7175","ios":"levelo://app?vid=84be000e-b186-4e60-8aaa-b7a0f42a7175"},"vehicle_type_id":"4","last_reported":1757924059,"current_range_meters":4800,"station_id":"","pricing_plan_id":"cebpf4jnsgd1na2vs0mg"},{"bike_id":"46abccb2-8643-462f-83c6-11d19b9f7030","system_id":"levelo_inurba_marseille","lat":43.28033,"lon":5.38858,"is_reserved":false,"is_disabled":true,"rental_uris":{"android":"levelo://app?vid=46abccb2-8643-462f-83c6-11d19b9f7030","ios":"levelo://app?vid=46abccb2-8643-462f-83c6-11d19b9f7030"},"vehicle_type_id":"4","last_reported":1757924059,"current_range_meters":4800,"station_id":"","pricing_plan_id":"cebpf4jnsgd1na2vs0mg"},{"bike_id":"ceca0047-d716-41e3-bf5e-aa691c46b86f","system_id":"levelo_inurba_marseille","lat":43.31186,"lon":5.36862,"is_reserved":false,"is_disabled":false,"rental_uris":{"android":"levelo://app?vid=ceca0047-d716-41e3-bf5e-aa691c46b86f","ios":"levelo://app?vid=ceca0047-d716-41e3-bf5e-aa691c46b86f"},"vehicle_type_id":"4","last_reported":1757924059,"current_range_meters":5600,"station_id":"ce4bgl92rcd13ifvqbq0","pricing_plan_id":"cebpf4jnsgd1na2vs0mg"},{"bike_id":"55d59e02-f5a5-4e1a-9360-556e842fa2a4","system_id":"levelo_inurba_marseille","lat":43.33764,"lon":5.37496,"is_reserved":false,"is_disabled":false,"rental_uris":{"android":"levelo://app?vid=55d59e02-f5a5-4e1a-9360-556e842fa2a4","ios":"levelo://app?vid=55d59e02-f5a5-4e1a-9360-556e842fa2a4"},"vehicle_type_id":"4","last_reported":1757924059,"current_range_meters":6000,"station_id":"","pricing_plan_id":"cebpf4jnsgd1na2vs0mg"},{"bike_id":"484bffae-1a3b-4bc3-9591-800118c9dc4a","system_id":"levelo_inurba_marseille","lat":43.30133,"lon":5.39867,"is_reserved":false,"is_disabled":false,"rental_uris":{"android":"levelo://app?vid=484bffae-1a3b-4bc3-9591-800118c9dc4a","ios":"levelo://app?vid=484bffae-1a3b-4bc3-9591-800118c9dc4a"},"vehicle_type_id":"4","last_reported":1757924059,"current_range_meters":6000,"station_id":"","pricing_plan_id":"cebpf4jnsgd1na2vs0mg"},{"bike_id":"4d595671-871f-4a53-886d-efa4b903bed8","system_id":"levelo_inurba_marseille","lat":43.26197,"lon":5.3794,"is_reserved":false,"is_disabled":false,"rental_uris":{"android":"levelo://app?vid=4d595671-871f-4a53-886d-efa4b903bed8","ios":"levelo://app?vid=4d595671-871f-4a53-886d-efa4b903bed8"},"vehicle_type_id":"4","last_reported":1757924059,"current_range_meters":6000,"station_id":"ce4bhjp2rcd13ifvqg90","pricing_plan_id":"cebpf4jnsgd1na2vs0mg"},{"bike_id":"2363ca6e-9861-422c-b8f3-df0fe96cba05","system_id":"levelo_inurba_marseille","lat":43.30949,"lon":5.39033,"is_reserved":false,"is_disabled":false,"rental_uris":{"android":"levelo://app?vid=2363ca6e-9861-422c-b8f3-df0fe96cba05","ios":"levelo://app?vid=2363ca6e-9861-422c-b8f3-df0fe96cba05"},"vehicle_type_id":"4","last_reported":1757924059,"current_range_meters":6000,"station_id":"ce4bgup2rcd13ifvqco0","pricing_plan_id":"cebpf4jnsgd1na2vs0mg"},{"bike_id":"3db67355-804e-4bcd-8a97-5d1970705558","system_id":"levelo_inurba_marseille","lat":43.286111,"lon":5.351138,"is_reserved":false,"is_disabled":false,"rental_uris":{"android":"levelo://app?vid=3db67355-804e-4bcd-8a97-5d1970705558","ios":"levelo://app?vid=3db67355-804e-4bcd-8a97-5d1970705558"},"vehicle_type_id":"4","last_reported":1757924059,"current_range_meters":6000,"station_id":"ce4bhch2rcd13ifvqeug","pricing_plan_id":"cebpf4jnsgd1na2vs0mg"},{"bike_id":"02dbb44c-70e3-4a7a-b86e-6159cc35ba47","system_id":"levelo_inurba_marseille","lat":43.29587,"lon":5.38689,"is_reserved":false,"is_disabled":false,"rental_uris":{"android":"levelo://app?vid=02dbb44c-70e3-4a7a-b86e-6159cc35ba47","ios":"levelo://app?vid=02dbb44c-70e3-4a7a-b86e-6159cc35ba47"},"vehicle_type_id":"4","last_reported":1757924059,"current_range_meters":6000,"station_id":"ce4bgih2rcd13ifvqba0","pricing_plan_id":"cebpf4jnsgd1na2vs0mg"},{"bike_id":"929cd849-1a61-4a20-8a15-bf83aed4405f","system_id":"levelo_inurba_marseille","lat":43.2903,"lon":5.39963,"is_reserved":false,"is_disabled":false,"rental_uris":{"android":"levelo://app?vid=929cd849-1a61-4a20-8a15-bf83aed4405f","ios":"levelo://app?vid=929cd849-1a61-4a20-8a15-bf83aed4405f"},"vehicle_type_id":"4","last_reported":1757924059,"current_range_meters":6400,"station_id":"ce4bh392rcd13ifvqdm0","pricing_plan_id":"cebpf4jnsgd1na2vs0mg"},{"bike_id":"907b6f80-1b43-46fc-8e68-e47a10687c9b","system_id":"levelo_inurba_marseille","lat":43.31323,"lon":5.3977,"is_reserved":false,"is_disabled":false,"rental_uris":{"android":"levelo://app?vid=907b6f80-1b43-46fc-8e68-e47a10687c9b","ios":"levelo://app?vid=907b6f80-1b43-46fc-8e68-e47a10687c9b"},"vehicle_type_id":"4","last_reported":1757924059,"current_range_meters":6400,"station_id":"ce4bgvp2rcd13ifvqcu0","pricing_plan_id":"cebpf4jnsgd1na2vs0mg"},{"bike_id":"182289c1-d8ed-492c-a287-70c8f4e5e1b2","system_id":"levelo_inurba_marseille","lat":43.32402,"lon":5.38931,"is_reserved":false,"is_disabled":false,"rental_uris":{"android":"levelo://app?vid=182289c1-d8ed-492c-a287-70c8f4e5e1b2","ios":"levelo://app?vid=182289c1-d8ed-492c-a287-70c8f4e5e1b2"},"vehicle_type_id":"4","last_reported":1757924059,"current_range_meters":6400,"station_id":"","pricing_plan_id":"cebpf4jnsgd1na2vs0mg"},{"bike_id":"cb4f19b0-1356-4736-8fdf-dfdd75a7d091","system_id":"levelo_inurba_marseille","lat":43.293,"lon":5.37446,"is_reserved":false,"is_disabled":false,"rental_uris":{"android":"levelo://app?vid=cb4f19b0-1356-4736-8fdf-dfdd75a7d091","ios":"levelo://app?vid=cb4f19b0-1356-4736-8fdf-dfdd75a7d091"},"vehicle_type_id":"4","last_reported":1757924059,"current_range_meters":6400,"station_id":"ce4bgi12rcd13ifvqb70","pricing_plan_id":"cebpf4jnsgd1na2vs0mg"},{"bike_id":"78f84639-56f9-4c15-8768-49ed5cee722d","system_id":"levelo_inurba_marseille","lat":43.2603,"lon":5.37556,"is_reserved":false,"is_disabled":true,"rental_uris":{"android":"levelo://app?vid=78f84639-56f9-4c15-8768-49ed5cee722d","ios":"levelo://app?vid=78f84639-56f9-4c15-8768-49ed5cee722d"},"vehicle_type_id":"4","last_reported":1757924059,"current_range_meters":6400,"station_id":"ce4bhgh2rcd13ifvqfa0","pricing_plan_id":"cebpf4jnsgd1na2vs0mg"},{"bike_id":"d5c98035-fc72-4062-a3ec-13203f68e8ed","system_id":"levelo_inurba_marseille","lat":43.288584,"lon":5.425112,"is_reserved":false,"is_disabled":false,"rental_uris":{"android":"levelo://app?vid=d5c98035-fc72-4062-a3ec-13203f68e8ed","ios":"levelo://app?vid=d5c98035-fc72-4062-a3ec-13203f68e8ed"},"vehicle_type_id":"4","last_reported":1757924059,"current_range_meters":6400,"station_id":"","pricing_plan_id":"cebpf4jnsgd1na2vs0mg"},{"bike_id":"d7929516-f0f3-4678-9593-1fcde1b25feb","system_id":"levelo_inurba_marseille","lat":43.30939,"lon":5.39029,"is_reserved":false,"is_disabled":false,"rental_uris":{"android":"levelo://app?vid=d7929516-f0f3-4678-9593-1fcde1b25feb","ios":"levelo://app?vid=d7929516-f0f3-4678-9593-1fcde1b25feb"},"vehicle_type_id":"4","last_reported":1757924059,"current_range_meters":6400,"station_id":"ce4bgup2rcd13ifvqco0","pricing_plan_id":"cebpf4jnsgd1na2vs0mg"},{"bike_id":"af284e3e-0c11-4fa8-be01-5a4602fe8ee5","system_id":"levelo_inurba_marseille","lat":43.29026,"lon":5.39993,"is_reserved":false,"is_disabled":false,"rental_uris":{"android":"levelo://app?vid=af284e3e-0c11-4fa8-be01-5a4602fe8ee5","ios":"levelo://app?vid=af284e3e-0c11-4fa8-be01-5a4602fe8ee5"},"vehicle_type_id":"4","last_reported":1757924059,"current_range_meters":6800,"station_id":"ce4bh392rcd13ifvqdm0","pricing_plan_id":"cebpf4jnsgd1na2vs0mg"},{"bike_id":"61b11629-c25e-4aee-a3fd-1596375c20bf","system_id":"levelo_inurba_marseille","lat":43.31349,"lon":5.36739,"is_reserved":false,"is_disabled":false,"rental_uris":{"android":"levelo://app?vid=61b11629-c25e-4aee-a3fd-1596375c20bf","ios":"levelo://app?vid=61b11629-c25e-4aee-a3fd-1596375c20bf"},"vehicle_type_id":"4","last_reported":1757924059,"current_range_meters":6800,"station_id":"ce4bgr92rcd13ifvqc6g","pricing_plan_id":"cebpf4jnsgd1na2vs0mg"},{"bike_id":"74aa6598-3846-4f63-a6e6-ad206e6e5190","system_id":"levelo_inurba_marseille","lat":43.30469,"lon":5.37915,"is_reserved":false,"is_disabled":false,"rental_uris":{"android":"levelo://app?vid=74aa6598-3846-4f63-a6e6-ad206e6e5190","ios":"levelo://app?vid=74aa6598-3846-4f63-a6e6-ad206e6e5190"},"vehicle_type_id":"4","last_reported":1757924059,"current_range_meters":6800,"station_id":"ce4bgup2rcd13ifvqcn0","pricing_plan_id":"cebpf4jnsgd1na2vs0mg"},{"bike_id":"6dfcd4d0-3fc8-4b80-82fb-c098603c831a","system_id":"levelo_inurba_marseille","lat":43.26649,"lon":5.38194,"is_reserved":false,"is_disabled":false,"rental_uris":{"android":"levelo://app?vid=6dfcd4d0-3fc8-4b80-82fb-c098603c831a","ios":"levelo://app?vid=6dfcd4d0-3fc8-4b80-82fb-c098603c831a"},"vehicle_type_id":"4","last_reported":1757924059,"current_range_meters":6800,"station_id":"","pricing_plan_id":"cebpf4jnsgd1na2vs0mg"},{"bike_id":"64fd3338-9664-4eab-9d69-526a809f8c3c","system_id":"levelo_inurba_marseille","lat":43.33795,"lon":5.36692,"is_reserved":false,"is_disabled":false,"rental_uris":{"android":"levelo://app?vid=64fd3338-9664-4eab-9d69-526a809f8c3c","ios":"levelo://app?vid=64fd3338-9664-4eab-9d69-526a809f8c3c"},"vehicle_type_id":"4","last_reported":1757924059,"current_range_meters":6800,"station_id":"","pricing_plan_id":"cebpf4jnsgd1na2vs0mg"},{"bike_id":"a11b82b7-ff76-4bdc-bf51-3178f0d9db3f","system_id":"levelo_inurba_marseille","lat":43.32535,"lon":5.4143,"is_reserved":false,"is_disabled":false,"rental_uris":{"android":"levelo://app?vid=a11b82b7-ff76-4bdc-bf51-3178f0d9db3f","ios":"levelo://app?vid=a11b82b7-ff76-4bdc-bf51-3178f0d9db3f"},"vehicle_type_id":"4","last_reported":1757924059,"current_range_meters":6400,"station_id":"ce4bhq12rcd13ifvqhhg","pricing_plan_id":"cebpf4jnsgd1na2vs0mg"},{"bike_id":"14c30bc2-b96f-4150-a178-4021e05ede8d","system_id":"levelo_inurba_marseille","lat":43.24081,"lon":5.37772,"is_reserved":false,"is_disabled":false,"rental_uris":{"android":"levelo://app?vid=14c30bc2-b96f-4150-a178-4021e05ede8d","ios":"levelo://app?vid=14c30bc2-b96f-4150-a178-4021e05ede8d"},"vehicle_type_id":"4","last_reported":1757924059,"current_range_meters":6800,"station_id":"ce4bhnp2rcd13ifvqgvg","pricing_plan_id":"cebpf4jnsgd1na2vs0mg"},{"bike_id":"034acc44-25f7-472e-aaf6-a5904fae00a9","system_id":"levelo_inurba_marseille","lat":43.29909,"lon":5.38147,"is_reserved":false,"is_disabled":false,"rental_uris":{"android":"levelo://app?vid=034acc44-25f7-472e-aaf6-a5904fae00a9","ios":"levelo://app?vid=034acc44-25f7-472e-aaf6-a5904fae00a9"},"vehicle_type_id":"4","last_reported":1757924059,"current_range_meters":7200,"station_id":"ce4bgj12rcd13ifvqbc0","pricing_plan_id":"cebpf4jnsgd1na2vs0mg"},{"bike_id":"af855c88-100f-429f-ba0c-3dad51b30928","system_id":"levelo_inurba_marseille","lat":43.21195,"lon":5.35078,"is_reserved":false,"is_disabled":true,"rental_uris":{"android":"levelo://app?vid=af855c88-100f-429f-ba0c-3dad51b30928","ios":"levelo://app?vid=af855c88-100f-429f-ba0c-3dad51b30928"},"vehicle_type_id":"4","last_reported":1757924059,"current_range_meters":7200,"station_id":"st_cvj6sg6p6f1abm77japg","pricing_plan_id":"cebpf4jnsgd1na2vs0mg"},{"bike_id":"1199f5eb-7ee2-4c49-9121-59b914d16bbd","system_id":"levelo_inurba_marseille","lat":43.29029,"lon":5.37564,"is_reserved":false,"is_disabled":false,"rental_uris":{"android":"levelo://app?vid=1199f5eb-7ee2-4c49-9121-59b914d16bbd","ios":"levelo://app?vid=1199f5eb-7ee2-4c49-9121-59b914d16bbd"},"vehicle_type_id":"4","last_reported":1757924059,"current_range_meters":7200,"station_id":"ce4bh692rcd13ifvqe90","pricing_plan_id":"cebpf4jnsgd1na2vs0mg"},{"bike_id":"c5cba6d7-e282-4417-a818-5fc0802dcb08","system_id":"levelo_inurba_marseille","lat":43.33761,"lon":5.3745,"is_reserved":false,"is_disabled":false,"rental_uris":{"android":"levelo://app?vid=c5cba6d7-e282-4417-a818-5fc0802dcb08","ios":"levelo://app?vid=c5cba6d7-e282-4417-a818-5fc0802dcb08"},"vehicle_type_id":"4","last_reported":1757924059,"current_range_meters":7200,"station_id":"","pricing_plan_id":"cebpf4jnsgd1na2vs0mg"},{"bike_id":"406f6607-363d-4cf0-95ae-26829ed0307c","system_id":"levelo_inurba_marseille","lat":43.26224,"lon":5.40458,"is_reserved":false,"is_disabled":true,"rental_uris":{"android":"levelo://app?vid=406f6607-363d-4cf0-95ae-26829ed0307c","ios":"levelo://app?vid=406f6607-363d-4cf0-95ae-26829ed0307c"},"vehicle_type_id":"4","last_reported":1757924059,"current_range_meters":7200,"station_id":"ce4bhmh2rcd13ifvqgmg","pricing_plan_id":"cebpf4jnsgd1na2vs0mg"},{"bike_id":"31f4578e-18c6-48fb-9fec-123fce0578f9","system_id":"levelo_inurba_marseille","lat":43.3377,"lon":5.37409,"is_reserved":false,"is_disabled":false,"rental_uris":{"android":"levelo://app?vid=31f4578e-18c6-48fb-9fec-123fce0578f9","ios":"levelo://app?vid=31f4578e-18c6-48fb-9fec-123fce0578f9"},"vehicle_type_id":"4","last_reported":1757924059,"current_range_meters":7200,"station_id":"","pricing_plan_id":"cebpf4jnsgd1na2vs0mg"},{"bike_id":"345d33d4-7cd9-47bd-a050-6e71aa2ba439","system_id":"levelo_inurba_marseille","lat":43.30141,"lon":5.37409,"is_reserved":false,"is_disabled":false,"rental_uris":{"android":"levelo://app?vid=345d33d4-7cd9-47bd-a050-6e71aa2ba439","ios":"levelo://app?vid=345d33d4-7cd9-47bd-a050-6e71aa2ba439"},"vehicle_type_id":"4","last_reported":1757924059,"current_range_meters":7200,"station_id":"ce4bgs92rcd13ifvqcc0","pricing_plan_id":"cebpf4jnsgd1na2vs0mg"},{"bike_id":"38753985-fc7c-45ab-b43c-c9e6eaf0f51a","system_id":"levelo_inurba_marseille","lat":43.29909,"lon":5.38132,"is_reserved":false,"is_disabled":false,"rental_uris":{"android":"levelo://app?vid=38753985-fc7c-45ab-b43c-c9e6eaf0f51a","ios":"levelo://app?vid=38753985-fc7c-45ab-b43c-c9e6eaf0f51a"},"vehicle_type_id":"4","last_reported":1757924059,"current_range_meters":8000,"station_id":"ce4bgj12rcd13ifvqbc0","pricing_plan_id":"cebpf4jnsgd1na2vs0mg"},{"bike_id":"d9c11a94-d122-4240-b95b-24fdee8810ac","system_id":"levelo_inurba_marseille","lat":43.282759,"lon":5.399032,"is_reserved":false,"is_disabled":false,"rental_uris":{"android":"levelo://app?vid=d9c11a94-d122-4240-b95b-24fdee8810ac","ios":"levelo://app?vid=d9c11a94-d122-4240-b95b-24fdee8810ac"},"vehicle_type_id":"4","last_reported":1757924059,"current_range_meters":8000,"station_id":"","pricing_plan_id":"cebpf4jnsgd1na2vs0mg"},{"bike_id":"30e85da9-4a4e-420a-bc64-cfe1eeea89eb","system_id":"levelo_inurba_marseille","lat":43.28337,"lon":5.37653,"is_reserved":false,"is_disabled":false,"rental_uris":{"android":"levelo://app?vid=30e85da9-4a4e-420a-bc64-cfe1eeea89eb","ios":"levelo://app?vid=30e85da9-4a4e-420a-bc64-cfe1eeea89eb"},"vehicle_type_id":"4","last_reported":1757924059,"current_range_meters":8000,"station_id":"","pricing_plan_id":"cebpf4jnsgd1na2vs0mg"},{"bike_id":"851541eb-552a-4761-beae-6e127e006c8c","system_id":"levelo_inurba_marseille","lat":43.31485,"lon":5.37312,"is_reserved":false,"is_disabled":false,"rental_uris":{"android":"levelo://app?vid=851541eb-552a-4761-beae-6e127e006c8c","ios":"levelo://app?vid=851541eb-552a-4761-beae-6e127e006c8c"},"vehicle_type_id":"4","last_reported":1757924059,"current_range_meters":8000,"station_id":"ce4bgt12rcd13ifvqcd0","pricing_plan_id":"cebpf4jnsgd1na2vs0mg"},{"bike_id":"49e31764-c086-4cb4-a02f-d4100031dd42","system_id":"levelo_inurba_marseille","lat":43.24998,"lon":5.38949,"is_reserved":false,"is_disabled":false,"rental_uris":{"android":"levelo://app?vid=49e31764-c086-4cb4-a02f-d4100031dd42","ios":"levelo://app?vid=49e31764-c086-4cb4-a02f-d4100031dd42"},"vehicle_type_id":"4","last_reported":1757924059,"current_range_meters":8000,"station_id":"ce4bhgp2rcd13ifvqfd0","pricing_plan_id":"cebpf4jnsgd1na2vs0mg"},{"bike_id":"974e0192-4f9e-4803-b6bc-e5f6e12940e1","system_id":"levelo_inurba_marseille","lat":43.31068,"lon":5.40093,"is_reserved":false,"is_disabled":false,"rental_uris":{"android":"levelo://app?vid=974e0192-4f9e-4803-b6bc-e5f6e12940e1","ios":"levelo://app?vid=974e0192-4f9e-4803-b6bc-e5f6e12940e1"},"vehicle_type_id":"4","last_reported":1757924059,"current_range_meters":8400,"station_id":"","pricing_plan_id":"cebpf4jnsgd1na2vs0mg"},{"bike_id":"90709169-fc08-4f66-8c58-b973e35c0ba1","system_id":"levelo_inurba_marseille","lat":43.2667,"lon":5.38256,"is_reserved":false,"is_disabled":false,"rental_uris":{"android":"levelo://app?vid=90709169-fc08-4f66-8c58-b973e35c0ba1","ios":"levelo://app?vid=90709169-fc08-4f66-8c58-b973e35c0ba1"},"vehicle_type_id":"4","last_reported":1757924059,"current_range_meters":8400,"station_id":"ce4bhg92rcd13ifvqf90","pricing_plan_id":"cebpf4jnsgd1na2vs0mg"},{"bike_id":"5c1e55d9-decd-426f-89d8-b98a558f3809","system_id":"levelo_inurba_marseille","lat":43.31697,"lon":5.40469,"is_reserved":false,"is_disabled":true,"rental_uris":{"android":"levelo://app?vid=5c1e55d9-decd-426f-89d8-b98a558f3809","ios":"levelo://app?vid=5c1e55d9-decd-426f-89d8-b98a558f3809"},"vehicle_type_id":"4","last_reported":1757924059,"current_range_meters":8400,"station_id":"ce4bh012rcd13ifvqd00","pricing_plan_id":"cebpf4jnsgd1na2vs0mg"},{"bike_id":"046ba709-b940-4fa3-9690-1d81db536e4b","system_id":"levelo_inurba_marseille","lat":43.2255,"lon":5.41626,"is_reserved":false,"is_disabled":false,"rental_uris":{"android":"levelo://app?vid=046ba709-b940-4fa3-9690-1d81db536e4b","ios":"levelo://app?vid=046ba709-b940-4fa3-9690-1d81db536e4b"},"vehicle_type_id":"4","last_reported":1757924059,"current_range_meters":8400,"station_id":"st_d2o4gvlbi1j2169b742g","pricing_plan_id":"cebpf4jnsgd1na2vs0mg"},{"bike_id":"8e7e0e5a-130c-414d-af81-801b0b3cc369","system_id":"levelo_inurba_marseille","lat":43.2893,"lon":5.36361,"is_reserved":false,"is_disabled":true,"rental_uris":{"android":"levelo://app?vid=8e7e0e5a-130c-414d-af81-801b0b3cc369","ios":"levelo://app?vid=8e7e0e5a-130c-414d-af81-801b0b3cc369"},"vehicle_type_id":"4","last_reported":1757924059,"current_range_meters":8400,"station_id":"ce4bhc92rcd13ifvqetg","pricing_plan_id":"cebpf4jnsgd1na2vs0mg"},{"bike_id":"2c38eb47-32da-43b9-b657-738345f650b7","system_id":"levelo_inurba_marseille","lat":43.31363,"lon":5.36708,"is_reserved":false,"is_disabled":false,"rental_uris":{"android":"levelo://app?vid=2c38eb47-32da-43b9-b657-738345f650b7","ios":"levelo://app?vid=2c38eb47-32da-43b9-b657-738345f650b7"},"vehicle_type_id":"4","last_reported":1757924059,"current_range_meters":8400,"station_id":"ce4bgr92rcd13ifvqc6g","pricing_plan_id":"cebpf4jnsgd1na2vs0mg"},{"bike_id":"ca4e529a-221b-492d-8125-8cf392ccfe1a","system_id":"levelo_inurba_marseille","lat":43.30142,"lon":5.37417,"is_reserved":false,"is_disabled":false,"rental_uris":{"android":"levelo://app?vid=ca4e529a-221b-492d-8125-8cf392ccfe1a","ios":"levelo://app?vid=ca4e529a-221b-492d-8125-8cf392ccfe1a"},"vehicle_type_id":"4","last_reported":1757924059,"current_range_meters":8000,"station_id":"ce4bgs92rcd13ifvqcc0","pricing_plan_id":"cebpf4jnsgd1na2vs0mg"},{"bike_id":"92328f20-9c61-4621-aefd-c280af7d31a0","system_id":"levelo_inurba_marseille","lat":43.28867,"lon":5.42525,"is_reserved":false,"is_disabled":false,"rental_uris":{"android":"levelo://app?vid=92328f20-9c61-4621-aefd-c280af7d31a0","ios":"levelo://app?vid=92328f20-9c61-4621-aefd-c280af7d31a0"},"vehicle_type_id":"4","last_reported":1757924059,"current_range_meters":8400,"station_id":"","pricing_plan_id":"cebpf4jnsgd1na2vs0mg"},{"bike_id":"31195751-bbc1-4ea5-8068-c21d8881b649","system_id":"levelo_inurba_marseille","lat":43.240928,"lon":5.377436,"is_reserved":false,"is_disabled":false,"rental_uris":{"android":"levelo://app?vid=31195751-bbc1-4ea5-8068-c21d8881b649","ios":"levelo://app?vid=31195751-bbc1-4ea5-8068-c21d8881b649"},"vehicle_type_id":"4","last_reported":1757924059,"current_range_meters":8800,"station_id":"ce4bhnp2rcd13ifvqgvg","pricing_plan_id":"cebpf4jnsgd1na2vs0mg"},{"bike_id":"0bdee19f-7ec9-4fbd-8c67-e5fc302dc054","system_id":"levelo_inurba_marseille","lat":43.2695,"lon":5.386292,"is_reserved":false,"is_disabled":false,"rental_uris":{"android":"levelo://app?vid=0bdee19f-7ec9-4fbd-8c67-e5fc302dc054","ios":"levelo://app?vid=0bdee19f-7ec9-4fbd-8c67-e5fc302dc054"},"vehicle_type_id":"4","last_reported":1757924059,"current_range_meters":8800,"station_id":"ce4bhh92rcd13ifvqfh0","pricing_plan_id":"cebpf4jnsgd1na2vs0mg"},{"bike_id":"2782b969-97c3-4777-b110-a75ea7479d96","system_id":"levelo_inurba_marseille","lat":43.29569,"lon":5.39975,"is_reserved":false,"is_disabled":false,"rental_uris":{"android":"levelo://app?vid=2782b969-97c3-4777-b110-a75ea7479d96","ios":"levelo://app?vid=2782b969-97c3-4777-b110-a75ea7479d96"},"vehicle_type_id":"4","last_reported":1757924059,"current_range_meters":8800,"station_id":"ce4bh312rcd13ifvqdj0","pricing_plan_id":"cebpf4jnsgd1na2vs0mg"},{"bike_id":"2df529da-7671-4f3b-a99d-bc83748ce199","system_id":"levelo_inurba_marseille","lat":43.29037,"lon":5.40004,"is_reserved":false,"is_disabled":false,"rental_uris":{"android":"levelo://app?vid=2df529da-7671-4f3b-a99d-bc83748ce199","ios":"levelo://app?vid=2df529da-7671-4f3b-a99d-bc83748ce199"},"vehicle_type_id":"4","last_reported":1757924059,"current_range_meters":8800,"station_id":"ce4bh392rcd13ifvqdm0","pricing_plan_id":"cebpf4jnsgd1na2vs0mg"},{"bike_id":"fc5173d7-de69-4c7e-888a-0a9efb136566","system_id":"levelo_inurba_marseille","lat":43.31213,"lon":5.36877,"is_reserved":false,"is_disabled":false,"rental_uris":{"android":"levelo://app?vid=fc5173d7-de69-4c7e-888a-0a9efb136566","ios":"levelo://app?vid=fc5173d7-de69-4c7e-888a-0a9efb136566"},"vehicle_type_id":"4","last_reported":1757924059,"current_range_meters":8800,"station_id":"ce4bgl92rcd13ifvqbq0","pricing_plan_id":"cebpf4jnsgd1na2vs0mg"},{"bike_id":"a22a2ad5-a3fa-4d21-afc1-6d0e503c7c8e","system_id":"levelo_inurba_marseille","lat":43.25015,"lon":5.38929,"is_reserved":false,"is_disabled":false,"rental_uris":{"android":"levelo://app?vid=a22a2ad5-a3fa-4d21-afc1-6d0e503c7c8e","ios":"levelo://app?vid=a22a2ad5-a3fa-4d21-afc1-6d0e503c7c8e"},"vehicle_type_id":"4","last_reported":1757924059,"current_range_meters":8800,"station_id":"ce4bhgp2rcd13ifvqfd0","pricing_plan_id":"cebpf4jnsgd1na2vs0mg"},{"bike_id":"90b99ccf-2b3c-4d75-9e45-7dd3a550aac1","system_id":"levelo_inurba_marseille","lat":43.23569,"lon":5.39891,"is_reserved":false,"is_disabled":false,"rental_uris":{"android":"levelo://app?vid=90b99ccf-2b3c-4d75-9e45-7dd3a550aac1","ios":"levelo://app?vid=90b99ccf-2b3c-4d75-9e45-7dd3a550aac1"},"vehicle_type_id":"4","last_reported":1757924059,"current_range_meters":8800,"station_id":"","pricing_plan_id":"cebpf4jnsgd1na2vs0mg"},{"bike_id":"f32b4a38-2322-4ea3-a8d9-b73c4a1faedb","system_id":"levelo_inurba_marseille","lat":43.3254,"lon":5.41444,"is_reserved":false,"is_disabled":false,"rental_uris":{"android":"levelo://app?vid=f32b4a38-2322-4ea3-a8d9-b73c4a1faedb","ios":"levelo://app?vid=f32b4a38-2322-4ea3-a8d9-b73c4a1faedb"},"vehicle_type_id":"4","last_reported":1757924059,"current_range_meters":9200,"station_id":"ce4bhq12rcd13ifvqhhg","pricing_plan_id":"cebpf4jnsgd1na2vs0mg"},{"bike_id":"8e3a9e83-812e-4b5d-8c7b-5119699e81be","system_id":"levelo_inurba_marseille","lat":43.31593,"lon":5.40553,"is_reserved":false,"is_disabled":false,"rental_uris":{"android":"levelo://app?vid=8e3a9e83-812e-4b5d-8c7b-5119699e81be","ios":"levelo://app?vid=8e3a9e83-812e-4b5d-8c7b-5119699e81be"},"vehicle_type_id":"4","last_reported":1757924059,"current_range_meters":9200,"station_id":"","pricing_plan_id":"cebpf4jnsgd1na2vs0mg"},{"bike_id":"1973ca9e-50d5-428a-b349-38b3688f536a","system_id":"levelo_inurba_marseille","lat":43.231516,"lon":5.437161,"is_reserved":false,"is_disabled":false,"rental_uris":{"android":"levelo://app?vid=1973ca9e-50d5-428a-b349-38b3688f536a","ios":"levelo://app?vid=1973ca9e-50d5-428a-b349-38b3688f536a"},"vehicle_type_id":"4","last_reported":1757924059,"current_range_meters":9200,"station_id":"ce4bhmp2rcd13ifvqgog","pricing_plan_id":"cebpf4jnsgd1na2vs0mg"},{"bike_id":"848ab5b9-29cd-4c8c-bda8-a375d6b1a760","system_id":"levelo_inurba_marseille","lat":43.297657,"lon":5.421719,"is_reserved":false,"is_disabled":false,"rental_uris":{"android":"levelo://app?vid=848ab5b9-29cd-4c8c-bda8-a375d6b1a760","ios":"levelo://app?vid=848ab5b9-29cd-4c8c-bda8-a375d6b1a760"},"vehicle_type_id":"4","last_reported":1757924059,"current_range_meters":9200,"station_id":"ce4bhp12rcd13ifvqh9g","pricing_plan_id":"cebpf4jnsgd1na2vs0mg"},{"bike_id":"30f62f7d-00d4-4f1b-971a-5e619c2acd83","system_id":"levelo_inurba_marseille","lat":43.30462,"lon":5.37911,"is_reserved":false,"is_disabled":false,"rental_uris":{"android":"levelo://app?vid=30f62f7d-00d4-4f1b-971a-5e619c2acd83","ios":"levelo://app?vid=30f62f7d-00d4-4f1b-971a-5e619c2acd83"},"vehicle_type_id":"4","last_reported":1757924059,"current_range_meters":9200,"station_id":"ce4bgup2rcd13ifvqcn0","pricing_plan_id":"cebpf4jnsgd1na2vs0mg"},{"bike_id":"99a205b3-3fdf-41a9-915c-e6863a0d0347","system_id":"levelo_inurba_marseille","lat":43.24153,"lon":5.39712,"is_reserved":false,"is_disabled":false,"rental_uris":{"android":"levelo://app?vid=99a205b3-3fdf-41a9-915c-e6863a0d0347","ios":"levelo://app?vid=99a205b3-3fdf-41a9-915c-e6863a0d0347"},"vehicle_type_id":"4","last_reported":1757924059,"current_range_meters":9200,"station_id":"ce4bhn12rcd13ifvqgpg","pricing_plan_id":"cebpf4jnsgd1na2vs0mg"},{"bike_id":"b0c30a7a-2e26-4f99-a91d-02bdb5ac2337","system_id":"levelo_inurba_marseille","lat":43.30141,"lon":5.37417,"is_reserved":false,"is_disabled":false,"rental_uris":{"android":"levelo://app?vid=b0c30a7a-2e26-4f99-a91d-02bdb5ac2337","ios":"levelo://app?vid=b0c30a7a-2e26-4f99-a91d-02bdb5ac2337"},"vehicle_type_id":"4","last_reported":1757924059,"current_range_meters":9600,"station_id":"ce4bgs92rcd13ifvqcc0","pricing_plan_id":"cebpf4jnsgd1na2vs0mg"},{"bike_id":"7612f9e4-75f3-4504-87de-23bc3f52b0aa","system_id":"levelo_inurba_marseille","lat":43.27491,"lon":5.42459,"is_reserved":false,"is_disabled":false,"rental_uris":{"android":"levelo://app?vid=7612f9e4-75f3-4504-87de-23bc3f52b0aa","ios":"levelo://app?vid=7612f9e4-75f3-4504-87de-23bc3f52b0aa"},"vehicle_type_id":"4","last_reported":1757924059,"current_range_meters":9600,"station_id":"ce4bhn92rcd13ifvqgrg","pricing_plan_id":"cebpf4jnsgd1na2vs0mg"},{"bike_id":"ee42c31a-b74b-4b2d-917a-cd50dc10c6ce","system_id":"levelo_inurba_marseille","lat":43.310611,"lon":5.400964,"is_reserved":false,"is_disabled":false,"rental_uris":{"android":"levelo://app?vid=ee42c31a-b74b-4b2d-917a-cd50dc10c6ce","ios":"levelo://app?vid=ee42c31a-b74b-4b2d-917a-cd50dc10c6ce"},"vehicle_type_id":"4","last_reported":1757924059,"current_range_meters":9600,"station_id":"","pricing_plan_id":"cebpf4jnsgd1na2vs0mg"},{"bike_id":"fbd0328c-4ce4-4080-b126-d2d47d815fa6","system_id":"levelo_inurba_marseille","lat":43.217446,"lon":5.346122,"is_reserved":false,"is_disabled":true,"rental_uris":{"android":"levelo://app?vid=fbd0328c-4ce4-4080-b126-d2d47d815fa6","ios":"levelo://app?vid=fbd0328c-4ce4-4080-b126-d2d47d815fa6"},"vehicle_type_id":"4","last_reported":1757924059,"current_range_meters":9600,"station_id":"st_cvj6r9ubvosntc0bgbag","pricing_plan_id":"cebpf4jnsgd1na2vs0mg"},{"bike_id":"7390beeb-b185-4878-82dc-76adb97cbd04","system_id":"levelo_inurba_marseille","lat":43.24071,"lon":5.37765,"is_reserved":false,"is_disabled":false,"rental_uris":{"android":"levelo://app?vid=7390beeb-b185-4878-82dc-76adb97cbd04","ios":"levelo://app?vid=7390beeb-b185-4878-82dc-76adb97cbd04"},"vehicle_type_id":"4","last_reported":1757924059,"current_range_meters":9600,"station_id":"ce4bhnp2rcd13ifvqgvg","pricing_plan_id":"cebpf4jnsgd1na2vs0mg"},{"bike_id":"7b0b1b19-bcd6-4dfa-b6cf-4ad82b528d45","system_id":"levelo_inurba_marseille","lat":43.231608,"lon":5.437645,"is_reserved":false,"is_disabled":false,"rental_uris":{"android":"levelo://app?vid=7b0b1b19-bcd6-4dfa-b6cf-4ad82b528d45","ios":"levelo://app?vid=7b0b1b19-bcd6-4dfa-b6cf-4ad82b528d45"},"vehicle_type_id":"4","last_reported":1757924059,"current_range_meters":9600,"station_id":"ce4bhmp2rcd13ifvqgog","pricing_plan_id":"cebpf4jnsgd1na2vs0mg"},{"bike_id":"ca0901f1-1b37-4a72-a69e-49f1521f44f3","system_id":"levelo_inurba_marseille","lat":43.30156,"lon":5.37419,"is_reserved":false,"is_disabled":false,"rental_uris":{"android":"levelo://app?vid=ca0901f1-1b37-4a72-a69e-49f1521f44f3","ios":"levelo://app?vid=ca0901f1-1b37-4a72-a69e-49f1521f44f3"},"vehicle_type_id":"4","last_reported":1757924059,"current_range_meters":10000,"station_id":"ce4bgs92rcd13ifvqcc0","pricing_plan_id":"cebpf4jnsgd1na2vs0mg"},{"bike_id":"0eac0c05-dbf1-4c0b-af6d-53c5df91e290","system_id":"levelo_inurba_marseille","lat":43.29853,"lon":5.36285,"is_reserved":false,"is_disabled":false,"rental_uris":{"android":"levelo://app?vid=0eac0c05-dbf1-4c0b-af6d-53c5df91e290","ios":"levelo://app?vid=0eac0c05-dbf1-4c0b-af6d-53c5df91e290"},"vehicle_type_id":"4","last_reported":1757924059,"current_range_meters":9600,"station_id":"ce4bgpp2rcd13ifvqc3g","pricing_plan_id":"cebpf4jnsgd1na2vs0mg"},{"bike_id":"b911eba7-032b-4013-9757-8e6dc6a12986","system_id":"levelo_inurba_marseille","lat":43.31347,"lon":5.36709,"is_reserved":false,"is_disabled":false,"rental_uris":{"android":"levelo://app?vid=b911eba7-032b-4013-9757-8e6dc6a12986","ios":"levelo://app?vid=b911eba7-032b-4013-9757-8e6dc6a12986"},"vehicle_type_id":"4","last_reported":1757924059,"current_range_meters":10000,"station_id":"ce4bgr92rcd13ifvqc6g","pricing_plan_id":"cebpf4jnsgd1na2vs0mg"},{"bike_id":"85db8ab9-6b24-4c23-8762-109e948df9cd","system_id":"levelo_inurba_marseille","lat":43.306033,"lon":5.404678,"is_reserved":false,"is_disabled":false,"rental_uris":{"android":"levelo://app?vid=85db8ab9-6b24-4c23-8762-109e948df9cd","ios":"levelo://app?vid=85db8ab9-6b24-4c23-8762-109e948df9cd"},"vehicle_type_id":"4","last_reported":1757924059,"current_range_meters":10000,"station_id":"","pricing_plan_id":"cebpf4jnsgd1na2vs0mg"},{"bike_id":"45caeb49-b7ef-42f1-a265-ce7d0e840925","system_id":"levelo_inurba_marseille","lat":43.264892,"lon":5.395384,"is_reserved":false,"is_disabled":false,"rental_uris":{"android":"levelo://app?vid=45caeb49-b7ef-42f1-a265-ce7d0e840925","ios":"levelo://app?vid=45caeb49-b7ef-42f1-a265-ce7d0e840925"},"vehicle_type_id":"4","last_reported":1757924059,"current_range_meters":10000,"station_id":"ce4bhi12rcd13ifvqfq0","pricing_plan_id":"cebpf4jnsgd1na2vs0mg"},{"bike_id":"05e3320f-36a7-4f88-8346-2754b84ec6da","system_id":"levelo_inurba_marseille","lat":43.240762,"lon":5.377537,"is_reserved":false,"is_disabled":false,"rental_uris":{"android":"levelo://app?vid=05e3320f-36a7-4f88-8346-2754b84ec6da","ios":"levelo://app?vid=05e3320f-36a7-4f88-8346-2754b84ec6da"},"vehicle_type_id":"4","last_reported":1757924059,"current_range_meters":10000,"station_id":"ce4bhnp2rcd13ifvqgvg","pricing_plan_id":"cebpf4jnsgd1na2vs0mg"},{"bike_id":"d63b6ce6-8464-4114-8ffd-37aa7c615a78","system_id":"levelo_inurba_marseille","lat":43.29301,"lon":5.37451,"is_reserved":false,"is_disabled":false,"rental_uris":{"android":"levelo://app?vid=d63b6ce6-8464-4114-8ffd-37aa7c615a78","ios":"levelo://app?vid=d63b6ce6-8464-4114-8ffd-37aa7c615a78"},"vehicle_type_id":"4","last_reported":1757924059,"current_range_meters":10000,"station_id":"ce4bgi12rcd13ifvqb70","pricing_plan_id":"cebpf4jnsgd1na2vs0mg"},{"bike_id":"66afd6b9-44ae-44a5-be71-0170ee931a12","system_id":"levelo_inurba_marseille","lat":43.23154,"lon":5.43714,"is_reserved":false,"is_disabled":false,"rental_uris":{"android":"levelo://app?vid=66afd6b9-44ae-44a5-be71-0170ee931a12","ios":"levelo://app?vid=66afd6b9-44ae-44a5-be71-0170ee931a12"},"vehicle_type_id":"4","last_reported":1757924059,"current_range_meters":10000,"station_id":"ce4bhmp2rcd13ifvqgog","pricing_plan_id":"cebpf4jnsgd1na2vs0mg"},{"bike_id":"88ae36ef-ed8e-404f-b3b4-4af0ac786b49","system_id":"levelo_inurba_marseille","lat":43.32539,"lon":5.41441,"is_reserved":false,"is_disabled":false,"rental_uris":{"android":"levelo://app?vid=88ae36ef-ed8e-404f-b3b4-4af0ac786b49","ios":"levelo://app?vid=88ae36ef-ed8e-404f-b3b4-4af0ac786b49"},"vehicle_type_id":"4","last_reported":1757924059,"current_range_meters":10000,"station_id":"ce4bhq12rcd13ifvqhhg","pricing_plan_id":"cebpf4jnsgd1na2vs0mg"},{"bike_id":"ebda39dd-ba01-49f2-9d04-dac934bdddef","system_id":"levelo_inurba_marseille","lat":43.275407,"lon":5.389325,"is_reserved":false,"is_disabled":false,"rental_uris":{"android":"levelo://app?vid=ebda39dd-ba01-49f2-9d04-dac934bdddef","ios":"levelo://app?vid=ebda39dd-ba01-49f2-9d04-dac934bdddef"},"vehicle_type_id":"4","last_reported":1757924059,"current_range_meters":10800,"station_id":"ce4bh412rcd13ifvqds0","pricing_plan_id":"cebpf4jnsgd1na2vs0mg"},{"bike_id":"955dcce1-ca4a-441e-87c1-4668435ea4d7","system_id":"levelo_inurba_marseille","lat":43.33598,"lon":5.41023,"is_reserved":false,"is_disabled":false,"rental_uris":{"android":"levelo://app?vid=955dcce1-ca4a-441e-87c1-4668435ea4d7","ios":"levelo://app?vid=955dcce1-ca4a-441e-87c1-4668435ea4d7"},"vehicle_type_id":"4","last_reported":1757924059,"current_range_meters":10800,"station_id":"ce4bhqh2rcd13ifvqhmg","pricing_plan_id":"cebpf4jnsgd1na2vs0mg"},{"bike_id":"558853aa-fbac-4c64-8a62-1d9d8c96e2cf","system_id":"levelo_inurba_marseille","lat":43.23192,"lon":5.35551,"is_reserved":false,"is_disabled":false,"rental_uris":{"android":"levelo://app?vid=558853aa-fbac-4c64-8a62-1d9d8c96e2cf","ios":"levelo://app?vid=558853aa-fbac-4c64-8a62-1d9d8c96e2cf"},"vehicle_type_id":"4","last_reported":1757924059,"current_range_meters":10800,"station_id":"ce4bhu92rcd13ifvqi70","pricing_plan_id":"cebpf4jnsgd1na2vs0mg"},{"bike_id":"f75319f4-d3a6-440f-9c89-5af7f4acd041","system_id":"levelo_inurba_marseille","lat":43.22555,"lon":5.41651,"is_reserved":false,"is_disabled":false,"rental_uris":{"android":"levelo://app?vid=f75319f4-d3a6-440f-9c89-5af7f4acd041","ios":"levelo://app?vid=f75319f4-d3a6-440f-9c89-5af7f4acd041"},"vehicle_type_id":"4","last_reported":1757924059,"current_range_meters":10800,"station_id":"st_d2o4gvlbi1j2169b742g","pricing_plan_id":"cebpf4jnsgd1na2vs0mg"},{"bike_id":"bd8d3b73-0477-4240-9a57-88519b536022","system_id":"levelo_inurba_marseille","lat":43.2985,"lon":5.36281,"is_reserved":false,"is_disabled":false,"rental_uris":{"android":"levelo://app?vid=bd8d3b73-0477-4240-9a57-88519b536022","ios":"levelo://app?vid=bd8d3b73-0477-4240-9a57-88519b536022"},"vehicle_type_id":"4","last_reported":1757924059,"current_range_meters":10800,"station_id":"ce4bgpp2rcd13ifvqc3g","pricing_plan_id":"cebpf4jnsgd1na2vs0mg"},{"bike_id":"e8930cfa-2c36-4dbf-ab3e-6afdedf38824","system_id":"levelo_inurba_marseille","lat":43.22558,"lon":5.4161,"is_reserved":false,"is_disabled":false,"rental_uris":{"android":"levelo://app?vid=e8930cfa-2c36-4dbf-ab3e-6afdedf38824","ios":"levelo://app?vid=e8930cfa-2c36-4dbf-ab3e-6afdedf38824"},"vehicle_type_id":"4","last_reported":1757924059,"current_range_meters":10800,"station_id":"st_d2o4gvlbi1j2169b742g","pricing_plan_id":"cebpf4jnsgd1na2vs0mg"},{"bike_id":"4b89ad18-a85a-4cf5-a107-a46d8823374f","system_id":"levelo_inurba_marseille","lat":43.22549,"lon":5.41632,"is_reserved":false,"is_disabled":false,"rental_uris":{"android":"levelo://app?vid=4b89ad18-a85a-4cf5-a107-a46d8823374f","ios":"levelo://app?vid=4b89ad18-a85a-4cf5-a107-a46d8823374f"},"vehicle_type_id":"4","last_reported":1757924059,"current_range_meters":10800,"station_id":"st_d2o4gvlbi1j2169b742g","pricing_plan_id":"cebpf4jnsgd1na2vs0mg"},{"bike_id":"4b7b9aa4-661b-4e78-8e48-1102a5b333b8","system_id":"levelo_inurba_marseille","lat":43.25842,"lon":5.39412,"is_reserved":false,"is_disabled":false,"rental_uris":{"android":"levelo://app?vid=4b7b9aa4-661b-4e78-8e48-1102a5b333b8","ios":"levelo://app?vid=4b7b9aa4-661b-4e78-8e48-1102a5b333b8"},"vehicle_type_id":"4","last_reported":1757924059,"current_range_meters":10800,"station_id":"ce4bhip2rcd13ifvqft0","pricing_plan_id":"cebpf4jnsgd1na2vs0mg"},{"bike_id":"8b29edbe-1eb4-4248-96bd-4cd59ee4e0a8","system_id":"levelo_inurba_marseille","lat":43.31102,"lon":5.388816,"is_reserved":false,"is_disabled":false,"rental_uris":{"android":"levelo://app?vid=8b29edbe-1eb4-4248-96bd-4cd59ee4e0a8","ios":"levelo://app?vid=8b29edbe-1eb4-4248-96bd-4cd59ee4e0a8"},"vehicle_type_id":"4","last_reported":1757924059,"current_range_meters":11200,"station_id":"ce4bgv12rcd13ifvqcp0","pricing_plan_id":"cebpf4jnsgd1na2vs0mg"},{"bike_id":"d9c4202c-de13-4428-8c40-40d90faf1618","system_id":"levelo_inurba_marseille","lat":43.31356,"lon":5.3707,"is_reserved":false,"is_disabled":false,"rental_uris":{"android":"levelo://app?vid=d9c4202c-de13-4428-8c40-40d90faf1618","ios":"levelo://app?vid=d9c4202c-de13-4428-8c40-40d90faf1618"},"vehicle_type_id":"4","last_reported":1757924059,"current_range_meters":11200,"station_id":"","pricing_plan_id":"cebpf4jnsgd1na2vs0mg"},{"bike_id":"4d6e6605-7f16-44fa-a19a-c138ee7cb360","system_id":"levelo_inurba_marseille","lat":43.33799,"lon":5.37446,"is_reserved":false,"is_disabled":false,"rental_uris":{"android":"levelo://app?vid=4d6e6605-7f16-44fa-a19a-c138ee7cb360","ios":"levelo://app?vid=4d6e6605-7f16-44fa-a19a-c138ee7cb360"},"vehicle_type_id":"4","last_reported":1757924059,"current_range_meters":11200,"station_id":"","pricing_plan_id":"cebpf4jnsgd1na2vs0mg"},{"bike_id":"53c0ca27-e73d-4412-a1ac-98d7ae4659e2","system_id":"levelo_inurba_marseille","lat":43.28623,"lon":5.35125,"is_reserved":false,"is_disabled":false,"rental_uris":{"android":"levelo://app?vid=53c0ca27-e73d-4412-a1ac-98d7ae4659e2","ios":"levelo://app?vid=53c0ca27-e73d-4412-a1ac-98d7ae4659e2"},"vehicle_type_id":"4","last_reported":1757924059,"current_range_meters":11200,"station_id":"ce4bhch2rcd13ifvqeug","pricing_plan_id":"cebpf4jnsgd1na2vs0mg"},{"bike_id":"64224e83-2a3e-4946-8f73-1598e69fd236","system_id":"levelo_inurba_marseille","lat":43.2931,"lon":5.37172,"is_reserved":false,"is_disabled":false,"rental_uris":{"android":"levelo://app?vid=64224e83-2a3e-4946-8f73-1598e69fd236","ios":"levelo://app?vid=64224e83-2a3e-4946-8f73-1598e69fd236"},"vehicle_type_id":"4","last_reported":1757924059,"current_range_meters":10800,"station_id":"ce4bgh92rcd13ifvqb40","pricing_plan_id":"cebpf4jnsgd1na2vs0mg"},{"bike_id":"c701869a-eef6-47cb-93d5-e6c6f986973e","system_id":"levelo_inurba_marseille","lat":43.2606,"lon":5.394,"is_reserved":false,"is_disabled":false,"rental_uris":{"android":"levelo://app?vid=c701869a-eef6-47cb-93d5-e6c6f986973e","ios":"levelo://app?vid=c701869a-eef6-47cb-93d5-e6c6f986973e"},"vehicle_type_id":"4","last_reported":1757924059,"current_range_meters":11200,"station_id":"ce4bhh92rcd13ifvqfj0","pricing_plan_id":"cebpf4jnsgd1na2vs0mg"},{"bike_id":"eaf6847e-5690-4791-af34-bfb52e6086ed","system_id":"levelo_inurba_marseille","lat":43.32113,"lon":5.3679,"is_reserved":false,"is_disabled":false,"rental_uris":{"android":"levelo://app?vid=eaf6847e-5690-4791-af34-bfb52e6086ed","ios":"levelo://app?vid=eaf6847e-5690-4791-af34-bfb52e6086ed"},"vehicle_type_id":"4","last_reported":1757924059,"current_range_meters":11600,"station_id":"ce4bhrh2rcd13ifvqhug","pricing_plan_id":"cebpf4jnsgd1na2vs0mg"},{"bike_id":"4ede8cc7-3a48-44f6-aa9c-e4a9f1c442ec","system_id":"levelo_inurba_marseille","lat":43.27074,"lon":5.42282,"is_reserved":false,"is_disabled":false,"rental_uris":{"android":"levelo://app?vid=4ede8cc7-3a48-44f6-aa9c-e4a9f1c442ec","ios":"levelo://app?vid=4ede8cc7-3a48-44f6-aa9c-e4a9f1c442ec"},"vehicle_type_id":"4","last_reported":1757924059,"current_range_meters":8400,"station_id":"ce4bhk92rcd13ifvqgb0","pricing_plan_id":"cebpf4jnsgd1na2vs0mg"},{"bike_id":"746f8f66-7f46-4e2a-8f64-942936320bf9","system_id":"levelo_inurba_marseille","lat":43.23959,"lon":5.36633,"is_reserved":false,"is_disabled":true,"rental_uris":{"android":"levelo://app?vid=746f8f66-7f46-4e2a-8f64-942936320bf9","ios":"levelo://app?vid=746f8f66-7f46-4e2a-8f64-942936320bf9"},"vehicle_type_id":"4","last_reported":1757924059,"current_range_meters":11600,"station_id":"ce4bhi12rcd13ifvqfp0","pricing_plan_id":"cebpf4jnsgd1na2vs0mg"},{"bike_id":"4fa32fc6-4b31-40eb-a03f-aff5cbd63440","system_id":"levelo_inurba_marseille","lat":43.30466,"lon":5.37896,"is_reserved":false,"is_disabled":true,"rental_uris":{"android":"levelo://app?vid=4fa32fc6-4b31-40eb-a03f-aff5cbd63440","ios":"levelo://app?vid=4fa32fc6-4b31-40eb-a03f-aff5cbd63440"},"vehicle_type_id":"4","last_reported":1757924059,"current_range_meters":12000,"station_id":"ce4bgup2rcd13ifvqcn0","pricing_plan_id":"cebpf4jnsgd1na2vs0mg"},{"bike_id":"1d93a4c8-5a5a-4f60-a7bd-f31018517f8f","system_id":"levelo_inurba_marseille","lat":43.27499,"lon":5.42457,"is_reserved":false,"is_disabled":false,"rental_uris":{"android":"levelo://app?vid=1d93a4c8-5a5a-4f60-a7bd-f31018517f8f","ios":"levelo://app?vid=1d93a4c8-5a5a-4f60-a7bd-f31018517f8f"},"vehicle_type_id":"4","last_reported":1757924059,"current_range_meters":12000,"station_id":"ce4bhn92rcd13ifvqgrg","pricing_plan_id":"cebpf4jnsgd1na2vs0mg"},{"bike_id":"e05eea5e-3ede-4b75-8a49-e9854c3d159d","system_id":"levelo_inurba_marseille","lat":43.28613,"lon":5.35095,"is_reserved":false,"is_disabled":false,"rental_uris":{"android":"levelo://app?vid=e05eea5e-3ede-4b75-8a49-e9854c3d159d","ios":"levelo://app?vid=e05eea5e-3ede-4b75-8a49-e9854c3d159d"},"vehicle_type_id":"4","last_reported":1757924059,"current_range_meters":12000,"station_id":"ce4bhch2rcd13ifvqeug","pricing_plan_id":"cebpf4jnsgd1na2vs0mg"},{"bike_id":"15c12f1b-150c-43be-9134-ac05fb9a1bef","system_id":"levelo_inurba_marseille","lat":43.29069,"lon":5.37131,"is_reserved":false,"is_disabled":true,"rental_uris":{"android":"levelo://app?vid=15c12f1b-150c-43be-9134-ac05fb9a1bef","ios":"levelo://app?vid=15c12f1b-150c-43be-9134-ac05fb9a1bef"},"vehicle_type_id":"4","last_reported":1757924059,"current_range_meters":12000,"station_id":"","pricing_plan_id":"cebpf4jnsgd1na2vs0mg"},{"bike_id":"522485c4-0df6-460f-9c5c-15d86f761668","system_id":"levelo_inurba_marseille","lat":43.29028,"lon":5.38643,"is_reserved":false,"is_disabled":false,"rental_uris":{"android":"levelo://app?vid=522485c4-0df6-460f-9c5c-15d86f761668","ios":"levelo://app?vid=522485c4-0df6-460f-9c5c-15d86f761668"},"vehicle_type_id":"4","last_reported":1757924059,"current_range_meters":12000,"station_id":"ce4bh4p2rcd13ifvqe0g","pricing_plan_id":"cebpf4jnsgd1na2vs0mg"},{"bike_id":"97706d3f-f9d6-47c3-953b-bd71c07a3fc3","system_id":"levelo_inurba_marseille","lat":43.25923,"lon":5.40891,"is_reserved":false,"is_disabled":false,"rental_uris":{"android":"levelo://app?vid=97706d3f-f9d6-47c3-953b-bd71c07a3fc3","ios":"levelo://app?vid=97706d3f-f9d6-47c3-953b-bd71c07a3fc3"},"vehicle_type_id":"4","last_reported":1757924059,"current_range_meters":12000,"station_id":"ce4bhm92rcd13ifvqglg","pricing_plan_id":"cebpf4jnsgd1na2vs0mg"},{"bike_id":"950a5f0c-6122-4d8d-a42b-4763023d14f2","system_id":"levelo_inurba_marseille","lat":43.25484,"lon":5.37643,"is_reserved":false,"is_disabled":true,"rental_uris":{"android":"levelo://app?vid=950a5f0c-6122-4d8d-a42b-4763023d14f2","ios":"levelo://app?vid=950a5f0c-6122-4d8d-a42b-4763023d14f2"},"vehicle_type_id":"4","last_reported":1757924059,"current_range_meters":12400,"station_id":"ce4bhh12rcd13ifvqff0","pricing_plan_id":"cebpf4jnsgd1na2vs0mg"},{"bike_id":"338968cf-ae3a-4b9f-8728-90575b922411","system_id":"levelo_inurba_marseille","lat":43.24383,"lon":5.37057,"is_reserved":false,"is_disabled":false,"rental_uris":{"android":"levelo://app?vid=338968cf-ae3a-4b9f-8728-90575b922411","ios":"levelo://app?vid=338968cf-ae3a-4b9f-8728-90575b922411"},"vehicle_type_id":"4","last_reported":1757924059,"current_range_meters":12000,"station_id":"ce4bhhh2rcd13ifvqfk0","pricing_plan_id":"cebpf4jnsgd1na2vs0mg"},{"bike_id":"2fa0852a-2c93-444f-a38b-f27307ccccc9","system_id":"levelo_inurba_marseille","lat":43.24672,"lon":5.3816,"is_reserved":false,"is_disabled":false,"rental_uris":{"android":"levelo://app?vid=2fa0852a-2c93-444f-a38b-f27307ccccc9","ios":"levelo://app?vid=2fa0852a-2c93-444f-a38b-f27307ccccc9"},"vehicle_type_id":"4","last_reported":1757924059,"current_range_meters":12400,"station_id":"ce4bhih2rcd13ifvqfr0","pricing_plan_id":"cebpf4jnsgd1na2vs0mg"},{"bike_id":"b2fba456-5a3b-40c6-8765-ad84661db187","system_id":"levelo_inurba_marseille","lat":43.257205,"lon":5.411136,"is_reserved":false,"is_disabled":false,"rental_uris":{"android":"levelo://app?vid=b2fba456-5a3b-40c6-8765-ad84661db187","ios":"levelo://app?vid=b2fba456-5a3b-40c6-8765-ad84661db187"},"vehicle_type_id":"4","last_reported":1757924059,"current_range_meters":12400,"station_id":"ce4bhkp2rcd13ifvqgd0","pricing_plan_id":"cebpf4jnsgd1na2vs0mg"},{"bike_id":"4b9c958a-8ae5-4328-ad46-9ca62e1e3e36","system_id":"levelo_inurba_marseille","lat":43.24542,"lon":5.39521,"is_reserved":false,"is_disabled":false,"rental_uris":{"android":"levelo://app?vid=4b9c958a-8ae5-4328-ad46-9ca62e1e3e36","ios":"levelo://app?vid=4b9c958a-8ae5-4328-ad46-9ca62e1e3e36"},"vehicle_type_id":"4","last_reported":1757924059,"current_range_meters":12400,"station_id":"ce4bhlp2rcd13ifvqgjg","pricing_plan_id":"cebpf4jnsgd1na2vs0mg"},{"bike_id":"b6d6f1e2-48c4-4558-b02a-207c838be43f","system_id":"levelo_inurba_marseille","lat":43.286105,"lon":5.370714,"is_reserved":false,"is_disabled":false,"rental_uris":{"android":"levelo://app?vid=b6d6f1e2-48c4-4558-b02a-207c838be43f","ios":"levelo://app?vid=b6d6f1e2-48c4-4558-b02a-207c838be43f"},"vehicle_type_id":"4","last_reported":1757924059,"current_range_meters":12400,"station_id":"ce4bht12rcd13ifvqi60","pricing_plan_id":"cebpf4jnsgd1na2vs0mg"},{"bike_id":"57127154-7e15-4346-89ed-ab9d76ef9c2c","system_id":"levelo_inurba_marseille","lat":43.28838,"lon":5.36326,"is_reserved":false,"is_disabled":false,"rental_uris":{"android":"levelo://app?vid=57127154-7e15-4346-89ed-ab9d76ef9c2c","ios":"levelo://app?vid=57127154-7e15-4346-89ed-ab9d76ef9c2c"},"vehicle_type_id":"4","last_reported":1757924059,"current_range_meters":12400,"station_id":"","pricing_plan_id":"cebpf4jnsgd1na2vs0mg"},{"bike_id":"6d86dd07-3dd9-4e0b-8a39-4bd38741c422","system_id":"levelo_inurba_marseille","lat":43.32479,"lon":5.365713,"is_reserved":false,"is_disabled":false,"rental_uris":{"android":"levelo://app?vid=6d86dd07-3dd9-4e0b-8a39-4bd38741c422","ios":"levelo://app?vid=6d86dd07-3dd9-4e0b-8a39-4bd38741c422"},"vehicle_type_id":"4","last_reported":1757924059,"current_range_meters":12400,"station_id":"ce4bhs12rcd13ifvqhvg","pricing_plan_id":"cebpf4jnsgd1na2vs0mg"},{"bike_id":"146d9d13-cf6d-4c32-9f07-05f123908819","system_id":"levelo_inurba_marseille","lat":43.290455,"lon":5.39946,"is_reserved":false,"is_disabled":false,"rental_uris":{"android":"levelo://app?vid=146d9d13-cf6d-4c32-9f07-05f123908819","ios":"levelo://app?vid=146d9d13-cf6d-4c32-9f07-05f123908819"},"vehicle_type_id":"4","last_reported":1757924059,"current_range_meters":12800,"station_id":"ce4bh392rcd13ifvqdm0","pricing_plan_id":"cebpf4jnsgd1na2vs0mg"},{"bike_id":"73a663d3-b16d-4de3-b2a5-ef65e30c0533","system_id":"levelo_inurba_marseille","lat":43.31163,"lon":5.38099,"is_reserved":false,"is_disabled":false,"rental_uris":{"android":"levelo://app?vid=73a663d3-b16d-4de3-b2a5-ef65e30c0533","ios":"levelo://app?vid=73a663d3-b16d-4de3-b2a5-ef65e30c0533"},"vehicle_type_id":"4","last_reported":1757924059,"current_range_meters":12800,"station_id":"","pricing_plan_id":"cebpf4jnsgd1na2vs0mg"},{"bike_id":"63b91871-b34b-4712-9837-8af5555cf547","system_id":"levelo_inurba_marseille","lat":43.30466,"lon":5.37911,"is_reserved":false,"is_disabled":false,"rental_uris":{"android":"levelo://app?vid=63b91871-b34b-4712-9837-8af5555cf547","ios":"levelo://app?vid=63b91871-b34b-4712-9837-8af5555cf547"},"vehicle_type_id":"4","last_reported":1757924059,"current_range_meters":12800,"station_id":"ce4bgup2rcd13ifvqcn0","pricing_plan_id":"cebpf4jnsgd1na2vs0mg"},{"bike_id":"c0f32586-9d54-43f2-a7a5-dcfdc97599ee","system_id":"levelo_inurba_marseille","lat":43.299745,"lon":5.371875,"is_reserved":false,"is_disabled":false,"rental_uris":{"android":"levelo://app?vid=c0f32586-9d54-43f2-a7a5-dcfdc97599ee","ios":"levelo://app?vid=c0f32586-9d54-43f2-a7a5-dcfdc97599ee"},"vehicle_type_id":"4","last_reported":1757924059,"current_range_meters":12800,"station_id":"ce4bgr92rcd13ifvqc7g","pricing_plan_id":"cebpf4jnsgd1na2vs0mg"},{"bike_id":"9cd52314-8bfe-4b56-8441-21b8990a645a","system_id":"levelo_inurba_marseille","lat":43.27489,"lon":5.42453,"is_reserved":false,"is_disabled":false,"rental_uris":{"android":"levelo://app?vid=9cd52314-8bfe-4b56-8441-21b8990a645a","ios":"levelo://app?vid=9cd52314-8bfe-4b56-8441-21b8990a645a"},"vehicle_type_id":"4","last_reported":1757924059,"current_range_meters":12800,"station_id":"ce4bhn92rcd13ifvqgrg","pricing_plan_id":"cebpf4jnsgd1na2vs0mg"},{"bike_id":"e7a329bd-ed66-4ac7-aaba-63f2810ddd86","system_id":"levelo_inurba_marseille","lat":43.31859,"lon":5.37206,"is_reserved":false,"is_disabled":false,"rental_uris":{"android":"levelo://app?vid=e7a329bd-ed66-4ac7-aaba-63f2810ddd86","ios":"levelo://app?vid=e7a329bd-ed66-4ac7-aaba-63f2810ddd86"},"vehicle_type_id":"4","last_reported":1757924059,"current_range_meters":12800,"station_id":"","pricing_plan_id":"cebpf4jnsgd1na2vs0mg"},{"bike_id":"4f36517e-2c99-43df-ba29-aa2ba9d41161","system_id":"levelo_inurba_marseille","lat":43.27487,"lon":5.42463,"is_reserved":false,"is_disabled":false,"rental_uris":{"android":"levelo://app?vid=4f36517e-2c99-43df-ba29-aa2ba9d41161","ios":"levelo://app?vid=4f36517e-2c99-43df-ba29-aa2ba9d41161"},"vehicle_type_id":"4","last_reported":1757924059,"current_range_meters":12800,"station_id":"ce4bhn92rcd13ifvqgrg","pricing_plan_id":"cebpf4jnsgd1na2vs0mg"},{"bike_id":"03a632f1-6cf9-48d9-8d0d-cdc6b623de20","system_id":"levelo_inurba_marseille","lat":43.25937,"lon":5.40904,"is_reserved":false,"is_disabled":false,"rental_uris":{"android":"levelo://app?vid=03a632f1-6cf9-48d9-8d0d-cdc6b623de20","ios":"levelo://app?vid=03a632f1-6cf9-48d9-8d0d-cdc6b623de20"},"vehicle_type_id":"4","last_reported":1757924059,"current_range_meters":12800,"station_id":"ce4bhm92rcd13ifvqglg","pricing_plan_id":"cebpf4jnsgd1na2vs0mg"},{"bike_id":"944ea2a6-5bea-4d9a-970b-669091a09825","system_id":"levelo_inurba_marseille","lat":43.30538,"lon":5.36567,"is_reserved":false,"is_disabled":false,"rental_uris":{"android":"levelo://app?vid=944ea2a6-5bea-4d9a-970b-669091a09825","ios":"levelo://app?vid=944ea2a6-5bea-4d9a-970b-669091a09825"},"vehicle_type_id":"4","last_reported":1757924059,"current_range_meters":12800,"station_id":"ce4bgs12rcd13ifvqcag","pricing_plan_id":"cebpf4jnsgd1na2vs0mg"},{"bike_id":"11588ff8-6fbe-4ba4-b634-5d56ffaea691","system_id":"levelo_inurba_marseille","lat":43.301318,"lon":5.398692,"is_reserved":false,"is_disabled":false,"rental_uris":{"android":"levelo://app?vid=11588ff8-6fbe-4ba4-b634-5d56ffaea691","ios":"levelo://app?vid=11588ff8-6fbe-4ba4-b634-5d56ffaea691"},"vehicle_type_id":"4","last_reported":1757924059,"current_range_meters":13600,"station_id":"","pricing_plan_id":"cebpf4jnsgd1na2vs0mg"},{"bike_id":"495774a5-b1f3-425b-8e85-81788c7725c2","system_id":"levelo_inurba_marseille","lat":43.29019,"lon":5.3813,"is_reserved":false,"is_disabled":false,"rental_uris":{"android":"levelo://app?vid=495774a5-b1f3-425b-8e85-81788c7725c2","ios":"levelo://app?vid=495774a5-b1f3-425b-8e85-81788c7725c2"},"vehicle_type_id":"4","last_reported":1757924059,"current_range_meters":13600,"station_id":"ce4bh4p2rcd13ifvqe1g","pricing_plan_id":"cebpf4jnsgd1na2vs0mg"},{"bike_id":"ea435ab9-fded-4f41-b18c-d27e26d01cfa","system_id":"levelo_inurba_marseille","lat":43.27489,"lon":5.42448,"is_reserved":false,"is_disabled":false,"rental_uris":{"android":"levelo://app?vid=ea435ab9-fded-4f41-b18c-d27e26d01cfa","ios":"levelo://app?vid=ea435ab9-fded-4f41-b18c-d27e26d01cfa"},"vehicle_type_id":"4","last_reported":1757924059,"current_range_meters":13600,"station_id":"ce4bhn92rcd13ifvqgrg","pricing_plan_id":"cebpf4jnsgd1na2vs0mg"},{"bike_id":"b5db6d25-086c-4bb7-a61c-206ba23fc9b5","system_id":"levelo_inurba_marseille","lat":43.27665,"lon":5.38906,"is_reserved":false,"is_disabled":false,"rental_uris":{"android":"levelo://app?vid=b5db6d25-086c-4bb7-a61c-206ba23fc9b5","ios":"levelo://app?vid=b5db6d25-086c-4bb7-a61c-206ba23fc9b5"},"vehicle_type_id":"4","last_reported":1757924059,"current_range_meters":13600,"station_id":"ce4bhi12rcd13ifvqfo0","pricing_plan_id":"cebpf4jnsgd1na2vs0mg"},{"bike_id":"60df5be0-868d-496d-a7cc-2e097de1a47a","system_id":"levelo_inurba_marseille","lat":43.22552,"lon":5.41672,"is_reserved":false,"is_disabled":false,"rental_uris":{"android":"levelo://app?vid=60df5be0-868d-496d-a7cc-2e097de1a47a","ios":"levelo://app?vid=60df5be0-868d-496d-a7cc-2e097de1a47a"},"vehicle_type_id":"4","last_reported":1757924059,"current_range_meters":13600,"station_id":"st_d2o4gvlbi1j2169b742g","pricing_plan_id":"cebpf4jnsgd1na2vs0mg"},{"bike_id":"0c6fe877-1024-4901-84e8-0fbaefe45584","system_id":"levelo_inurba_marseille","lat":43.334268,"lon":5.40054,"is_reserved":false,"is_disabled":false,"rental_uris":{"android":"levelo://app?vid=0c6fe877-1024-4901-84e8-0fbaefe45584","ios":"levelo://app?vid=0c6fe877-1024-4901-84e8-0fbaefe45584"},"vehicle_type_id":"4","last_reported":1757924059,"current_range_meters":14000,"station_id":"","pricing_plan_id":"cebpf4jnsgd1na2vs0mg"},{"bike_id":"322c1f5a-85db-4ef6-bcd4-1b5c417c8ee0","system_id":"levelo_inurba_marseille","lat":43.3377,"lon":5.37488,"is_reserved":false,"is_disabled":false,"rental_uris":{"android":"levelo://app?vid=322c1f5a-85db-4ef6-bcd4-1b5c417c8ee0","ios":"levelo://app?vid=322c1f5a-85db-4ef6-bcd4-1b5c417c8ee0"},"vehicle_type_id":"4","last_reported":1757924059,"current_range_meters":14000,"station_id":"","pricing_plan_id":"cebpf4jnsgd1na2vs0mg"},{"bike_id":"421cf7ab-5961-4338-ab6a-2ca99cb05a5c","system_id":"levelo_inurba_marseille","lat":43.2991,"lon":5.37472,"is_reserved":false,"is_disabled":false,"rental_uris":{"android":"levelo://app?vid=421cf7ab-5961-4338-ab6a-2ca99cb05a5c","ios":"levelo://app?vid=421cf7ab-5961-4338-ab6a-2ca99cb05a5c"},"vehicle_type_id":"4","last_reported":1757924059,"current_range_meters":13600,"station_id":"ce4bgjh2rcd13ifvqbg0","pricing_plan_id":"cebpf4jnsgd1na2vs0mg"},{"bike_id":"fd08cc05-8551-4b30-9875-2b93993aa21e","system_id":"levelo_inurba_marseille","lat":43.24216,"lon":5.36765,"is_reserved":false,"is_disabled":false,"rental_uris":{"android":"levelo://app?vid=fd08cc05-8551-4b30-9875-2b93993aa21e","ios":"levelo://app?vid=fd08cc05-8551-4b30-9875-2b93993aa21e"},"vehicle_type_id":"4","last_reported":1757924059,"current_range_meters":14000,"station_id":"","pricing_plan_id":"cebpf4jnsgd1na2vs0mg"},{"bike_id":"8f04fe6a-b496-4a33-88d0-7a57c81f211d","system_id":"levelo_inurba_marseille","lat":43.24389,"lon":5.37059,"is_reserved":false,"is_disabled":true,"rental_uris":{"android":"levelo://app?vid=8f04fe6a-b496-4a33-88d0-7a57c81f211d","ios":"levelo://app?vid=8f04fe6a-b496-4a33-88d0-7a57c81f211d"},"vehicle_type_id":"4","last_reported":1757924059,"current_range_meters":14000,"station_id":"ce4bhhh2rcd13ifvqfk0","pricing_plan_id":"cebpf4jnsgd1na2vs0mg"},{"bike_id":"299dc775-d218-43ec-8530-bde9319272f1","system_id":"levelo_inurba_marseille","lat":43.32478,"lon":5.36567,"is_reserved":false,"is_disabled":false,"rental_uris":{"android":"levelo://app?vid=299dc775-d218-43ec-8530-bde9319272f1","ios":"levelo://app?vid=299dc775-d218-43ec-8530-bde9319272f1"},"vehicle_type_id":"4","last_reported":1757924059,"current_range_meters":14000,"station_id":"ce4bhs12rcd13ifvqhvg","pricing_plan_id":"cebpf4jnsgd1na2vs0mg"},{"bike_id":"a33cf220-cfdd-4805-8e63-750c4bb9f2e3","system_id":"levelo_inurba_marseille","lat":43.23143,"lon":5.43718,"is_reserved":false,"is_disabled":false,"rental_uris":{"android":"levelo://app?vid=a33cf220-cfdd-4805-8e63-750c4bb9f2e3","ios":"levelo://app?vid=a33cf220-cfdd-4805-8e63-750c4bb9f2e3"},"vehicle_type_id":"4","last_reported":1757924059,"current_range_meters":14000,"station_id":"ce4bhmp2rcd13ifvqgog","pricing_plan_id":"cebpf4jnsgd1na2vs0mg"},{"bike_id":"2c5ee020-2461-471c-8a4c-6cab1ddb486f","system_id":"levelo_inurba_marseille","lat":43.25581,"lon":5.38244,"is_reserved":false,"is_disabled":false,"rental_uris":{"android":"levelo://app?vid=2c5ee020-2461-471c-8a4c-6cab1ddb486f","ios":"levelo://app?vid=2c5ee020-2461-471c-8a4c-6cab1ddb486f"},"vehicle_type_id":"4","last_reported":1757924059,"current_range_meters":14400,"station_id":"ce4bhih2rcd13ifvqfs0","pricing_plan_id":"cebpf4jnsgd1na2vs0mg"},{"bike_id":"9f2a46f0-1c52-4277-978f-c70949f50ff9","system_id":"levelo_inurba_marseille","lat":43.24086,"lon":5.37773,"is_reserved":false,"is_disabled":false,"rental_uris":{"android":"levelo://app?vid=9f2a46f0-1c52-4277-978f-c70949f50ff9","ios":"levelo://app?vid=9f2a46f0-1c52-4277-978f-c70949f50ff9"},"vehicle_type_id":"4","last_reported":1757924059,"current_range_meters":14400,"station_id":"ce4bhnp2rcd13ifvqgvg","pricing_plan_id":"cebpf4jnsgd1na2vs0mg"},{"bike_id":"26651805-1ffd-496b-9c51-fece900796ad","system_id":"levelo_inurba_marseille","lat":43.32478,"lon":5.36565,"is_reserved":false,"is_disabled":false,"rental_uris":{"android":"levelo://app?vid=26651805-1ffd-496b-9c51-fece900796ad","ios":"levelo://app?vid=26651805-1ffd-496b-9c51-fece900796ad"},"vehicle_type_id":"4","last_reported":1757924059,"current_range_meters":14400,"station_id":"ce4bhs12rcd13ifvqhvg","pricing_plan_id":"cebpf4jnsgd1na2vs0mg"},{"bike_id":"184c75ba-a2ae-4bc5-b888-4c430b804879","system_id":"levelo_inurba_marseille","lat":43.28418,"lon":5.34976,"is_reserved":false,"is_disabled":true,"rental_uris":{"android":"levelo://app?vid=184c75ba-a2ae-4bc5-b888-4c430b804879","ios":"levelo://app?vid=184c75ba-a2ae-4bc5-b888-4c430b804879"},"vehicle_type_id":"4","last_reported":1757924059,"current_range_meters":14400,"station_id":"ce4bhbh2rcd13ifvqepg","pricing_plan_id":"cebpf4jnsgd1na2vs0mg"},{"bike_id":"b879d7bb-31ea-4593-9ef4-447f9e530da2","system_id":"levelo_inurba_marseille","lat":43.30537,"lon":5.3653,"is_reserved":false,"is_disabled":false,"rental_uris":{"android":"levelo://app?vid=b879d7bb-31ea-4593-9ef4-447f9e530da2","ios":"levelo://app?vid=b879d7bb-31ea-4593-9ef4-447f9e530da2"},"vehicle_type_id":"4","last_reported":1757924059,"current_range_meters":14400,"station_id":"ce4bgs12rcd13ifvqcag","pricing_plan_id":"cebpf4jnsgd1na2vs0mg"},{"bike_id":"ebc28d3f-48e0-4c19-84dd-0c3a04a1ca62","system_id":"levelo_inurba_marseille","lat":43.25855,"lon":5.39905,"is_reserved":false,"is_disabled":true,"rental_uris":{"android":"levelo://app?vid=ebc28d3f-48e0-4c19-84dd-0c3a04a1ca62","ios":"levelo://app?vid=ebc28d3f-48e0-4c19-84dd-0c3a04a1ca62"},"vehicle_type_id":"4","last_reported":1757924059,"current_range_meters":14400,"station_id":"ce4bhl92rcd13ifvqghg","pricing_plan_id":"cebpf4jnsgd1na2vs0mg"},{"bike_id":"61242a27-0db1-42cc-9fb5-dd86bf5c6a93","system_id":"levelo_inurba_marseille","lat":43.246544,"lon":5.388882,"is_reserved":false,"is_disabled":false,"rental_uris":{"android":"levelo://app?vid=61242a27-0db1-42cc-9fb5-dd86bf5c6a93","ios":"levelo://app?vid=61242a27-0db1-42cc-9fb5-dd86bf5c6a93"},"vehicle_type_id":"4","last_reported":1757924059,"current_range_meters":14400,"station_id":"ce4bhg12rcd13ifvqf60","pricing_plan_id":"cebpf4jnsgd1na2vs0mg"},{"bike_id":"75eb15af-3770-4e38-9a4c-60bddcb0e0dc","system_id":"levelo_inurba_marseille","lat":43.29576,"lon":5.36742,"is_reserved":false,"is_disabled":false,"rental_uris":{"android":"levelo://app?vid=75eb15af-3770-4e38-9a4c-60bddcb0e0dc","ios":"levelo://app?vid=75eb15af-3770-4e38-9a4c-60bddcb0e0dc"},"vehicle_type_id":"4","last_reported":1757924059,"current_range_meters":14800,"station_id":"ce4bgph2rcd13ifvqc2g","pricing_plan_id":"cebpf4jnsgd1na2vs0mg"},{"bike_id":"108ada00-7d7d-42d3-b9cc-e55950a5c244","system_id":"levelo_inurba_marseille","lat":43.28932,"lon":5.36641,"is_reserved":false,"is_disabled":false,"rental_uris":{"android":"levelo://app?vid=108ada00-7d7d-42d3-b9cc-e55950a5c244","ios":"levelo://app?vid=108ada00-7d7d-42d3-b9cc-e55950a5c244"},"vehicle_type_id":"4","last_reported":1757924059,"current_range_meters":14800,"station_id":"ce4bhap2rcd13ifvqek0","pricing_plan_id":"cebpf4jnsgd1na2vs0mg"},{"bike_id":"392c87d8-e9ee-4bd5-8bf9-433b4e198ac4","system_id":"levelo_inurba_marseille","lat":43.29597,"lon":5.38102,"is_reserved":false,"is_disabled":false,"rental_uris":{"android":"levelo://app?vid=392c87d8-e9ee-4bd5-8bf9-433b4e198ac4","ios":"levelo://app?vid=392c87d8-e9ee-4bd5-8bf9-433b4e198ac4"},"vehicle_type_id":"4","last_reported":1757924059,"current_range_meters":14800,"station_id":"ce4bgl12rcd13ifvqbo0","pricing_plan_id":"cebpf4jnsgd1na2vs0mg"},{"bike_id":"41de12a2-5382-4da2-9751-1300a8df4dc1","system_id":"levelo_inurba_marseille","lat":43.22553,"lon":5.41626,"is_reserved":false,"is_disabled":false,"rental_uris":{"android":"levelo://app?vid=41de12a2-5382-4da2-9751-1300a8df4dc1","ios":"levelo://app?vid=41de12a2-5382-4da2-9751-1300a8df4dc1"},"vehicle_type_id":"4","last_reported":1757924059,"current_range_meters":14800,"station_id":"st_d2o4gvlbi1j2169b742g","pricing_plan_id":"cebpf4jnsgd1na2vs0mg"},{"bike_id":"d27a3574-c668-415b-ad3b-c0a1e10e6cf4","system_id":"levelo_inurba_marseille","lat":43.337444,"lon":5.374475,"is_reserved":false,"is_disabled":false,"rental_uris":{"android":"levelo://app?vid=d27a3574-c668-415b-ad3b-c0a1e10e6cf4","ios":"levelo://app?vid=d27a3574-c668-415b-ad3b-c0a1e10e6cf4"},"vehicle_type_id":"4","last_reported":1757924059,"current_range_meters":14800,"station_id":"","pricing_plan_id":"cebpf4jnsgd1na2vs0mg"},{"bike_id":"1ebb1ad1-55dd-457f-8c00-d14b6509395a","system_id":"levelo_inurba_marseille","lat":43.21743,"lon":5.34607,"is_reserved":false,"is_disabled":false,"rental_uris":{"android":"levelo://app?vid=1ebb1ad1-55dd-457f-8c00-d14b6509395a","ios":"levelo://app?vid=1ebb1ad1-55dd-457f-8c00-d14b6509395a"},"vehicle_type_id":"4","last_reported":1757924059,"current_range_meters":15200,"station_id":"","pricing_plan_id":"cebpf4jnsgd1na2vs0mg"},{"bike_id":"442a9ccd-7874-43e1-9d53-8111b6eceb04","system_id":"levelo_inurba_marseille","lat":43.23187,"lon":5.39965,"is_reserved":false,"is_disabled":false,"rental_uris":{"android":"levelo://app?vid=442a9ccd-7874-43e1-9d53-8111b6eceb04","ios":"levelo://app?vid=442a9ccd-7874-43e1-9d53-8111b6eceb04"},"vehicle_type_id":"4","last_reported":1757924059,"current_range_meters":14800,"station_id":"ce4bhn12rcd13ifvqgqg","pricing_plan_id":"cebpf4jnsgd1na2vs0mg"},{"bike_id":"a155e67d-bec0-4326-ae57-c035ef5e1c81","system_id":"levelo_inurba_marseille","lat":43.29911,"lon":5.43678,"is_reserved":false,"is_disabled":false,"rental_uris":{"android":"levelo://app?vid=a155e67d-bec0-4326-ae57-c035ef5e1c81","ios":"levelo://app?vid=a155e67d-bec0-4326-ae57-c035ef5e1c81"},"vehicle_type_id":"4","last_reported":1757924059,"current_range_meters":15200,"station_id":"ce4bhpp2rcd13ifvqhfg","pricing_plan_id":"cebpf4jnsgd1na2vs0mg"},{"bike_id":"d9215f12-e380-4d2b-aae4-ea8c6984db1d","system_id":"levelo_inurba_marseille","lat":43.30146,"lon":5.37416,"is_reserved":false,"is_disabled":false,"rental_uris":{"android":"levelo://app?vid=d9215f12-e380-4d2b-aae4-ea8c6984db1d","ios":"levelo://app?vid=d9215f12-e380-4d2b-aae4-ea8c6984db1d"},"vehicle_type_id":"4","last_reported":1757924059,"current_range_meters":15200,"station_id":"ce4bgs92rcd13ifvqcc0","pricing_plan_id":"cebpf4jnsgd1na2vs0mg"},{"bike_id":"dd3a0510-4538-48da-b2ec-17dcf454e84b","system_id":"levelo_inurba_marseille","lat":43.3015,"lon":5.37409,"is_reserved":false,"is_disabled":false,"rental_uris":{"android":"levelo://app?vid=dd3a0510-4538-48da-b2ec-17dcf454e84b","ios":"levelo://app?vid=dd3a0510-4538-48da-b2ec-17dcf454e84b"},"vehicle_type_id":"4","last_reported":1757924059,"current_range_meters":15200,"station_id":"ce4bgs92rcd13ifvqcc0","pricing_plan_id":"cebpf4jnsgd1na2vs0mg"},{"bike_id":"354803e4-5879-4aeb-b4ea-e35421599887","system_id":"levelo_inurba_marseille","lat":43.2749,"lon":5.42453,"is_reserved":false,"is_disabled":false,"rental_uris":{"android":"levelo://app?vid=354803e4-5879-4aeb-b4ea-e35421599887","ios":"levelo://app?vid=354803e4-5879-4aeb-b4ea-e35421599887"},"vehicle_type_id":"4","last_reported":1757924059,"current_range_meters":15200,"station_id":"ce4bhn92rcd13ifvqgrg","pricing_plan_id":"cebpf4jnsgd1na2vs0mg"},{"bike_id":"9b9a6aca-d8ba-4892-a70c-a46cb142c2a2","system_id":"levelo_inurba_marseille","lat":43.31376,"lon":5.36712,"is_reserved":false,"is_disabled":false,"rental_uris":{"android":"levelo://app?vid=9b9a6aca-d8ba-4892-a70c-a46cb142c2a2","ios":"levelo://app?vid=9b9a6aca-d8ba-4892-a70c-a46cb142c2a2"},"vehicle_type_id":"4","last_reported":1757924059,"current_range_meters":15200,"station_id":"ce4bgr92rcd13ifvqc6g","pricing_plan_id":"cebpf4jnsgd1na2vs0mg"},{"bike_id":"0a4a2685-acee-4ab8-a88c-fa4e12170bbb","system_id":"levelo_inurba_marseille","lat":43.309,"lon":5.36808,"is_reserved":false,"is_disabled":false,"rental_uris":{"android":"levelo://app?vid=0a4a2685-acee-4ab8-a88c-fa4e12170bbb","ios":"levelo://app?vid=0a4a2685-acee-4ab8-a88c-fa4e12170bbb"},"vehicle_type_id":"4","last_reported":1757924059,"current_range_meters":15200,"station_id":"ce4bgn92rcd13ifvqbvg","pricing_plan_id":"cebpf4jnsgd1na2vs0mg"},{"bike_id":"b292c67a-aaaa-4e31-af86-af4cb55936b8","system_id":"levelo_inurba_marseille","lat":43.3051,"lon":5.36723,"is_reserved":false,"is_disabled":false,"rental_uris":{"android":"levelo://app?vid=b292c67a-aaaa-4e31-af86-af4cb55936b8","ios":"levelo://app?vid=b292c67a-aaaa-4e31-af86-af4cb55936b8"},"vehicle_type_id":"4","last_reported":1757924059,"current_range_meters":15200,"station_id":"ce4bgrp2rcd13ifvqc9g","pricing_plan_id":"cebpf4jnsgd1na2vs0mg"},{"bike_id":"b8649ca9-bfb5-4973-9040-4e9ea8db1393","system_id":"levelo_inurba_marseille","lat":43.25935,"lon":5.40898,"is_reserved":false,"is_disabled":false,"rental_uris":{"android":"levelo://app?vid=b8649ca9-bfb5-4973-9040-4e9ea8db1393","ios":"levelo://app?vid=b8649ca9-bfb5-4973-9040-4e9ea8db1393"},"vehicle_type_id":"4","last_reported":1757924059,"current_range_meters":15200,"station_id":"ce4bhm92rcd13ifvqglg","pricing_plan_id":"cebpf4jnsgd1na2vs0mg"},{"bike_id":"28111598-ac20-4366-b438-636cfaa79f0a","system_id":"levelo_inurba_marseille","lat":43.28473,"lon":5.38585,"is_reserved":false,"is_disabled":false,"rental_uris":{"android":"levelo://app?vid=28111598-ac20-4366-b438-636cfaa79f0a","ios":"levelo://app?vid=28111598-ac20-4366-b438-636cfaa79f0a"},"vehicle_type_id":"4","last_reported":1757924059,"current_range_meters":15200,"station_id":"ce4bh8p2rcd13ifvqeb0","pricing_plan_id":"cebpf4jnsgd1na2vs0mg"},{"bike_id":"0ec22504-4f53-4a7d-8664-2802d447c65f","system_id":"levelo_inurba_marseille","lat":43.21749,"lon":5.34603,"is_reserved":false,"is_disabled":false,"rental_uris":{"android":"levelo://app?vid=0ec22504-4f53-4a7d-8664-2802d447c65f","ios":"levelo://app?vid=0ec22504-4f53-4a7d-8664-2802d447c65f"},"vehicle_type_id":"4","last_reported":1757924059,"current_range_meters":15200,"station_id":"","pricing_plan_id":"cebpf4jnsgd1na2vs0mg"},{"bike_id":"62abb7d7-263b-48b5-96e0-6a636f8bd90a","system_id":"levelo_inurba_marseille","lat":43.26926,"lon":5.38923,"is_reserved":false,"is_disabled":false,"rental_uris":{"android":"levelo://app?vid=62abb7d7-263b-48b5-96e0-6a636f8bd90a","ios":"levelo://app?vid=62abb7d7-263b-48b5-96e0-6a636f8bd90a"},"vehicle_type_id":"4","last_reported":1757924059,"current_range_meters":16000,"station_id":"ce4bhhh2rcd13ifvqfl0","pricing_plan_id":"cebpf4jnsgd1na2vs0mg"},{"bike_id":"d433f65c-48c2-4aa1-b7a0-61a992e3054a","system_id":"levelo_inurba_marseille","lat":43.291921,"lon":5.393265,"is_reserved":false,"is_disabled":true,"rental_uris":{"android":"levelo://app?vid=d433f65c-48c2-4aa1-b7a0-61a992e3054a","ios":"levelo://app?vid=d433f65c-48c2-4aa1-b7a0-61a992e3054a"},"vehicle_type_id":"4","last_reported":1757924059,"current_range_meters":16000,"station_id":"ce4bh192rcd13ifvqdd0","pricing_plan_id":"cebpf4jnsgd1na2vs0mg"},{"bike_id":"f7c56a48-db06-4ee3-9b90-45854a625eac","system_id":"levelo_inurba_marseille","lat":43.25952,"lon":5.40913,"is_reserved":false,"is_disabled":false,"rental_uris":{"android":"levelo://app?vid=f7c56a48-db06-4ee3-9b90-45854a625eac","ios":"levelo://app?vid=f7c56a48-db06-4ee3-9b90-45854a625eac"},"vehicle_type_id":"4","last_reported":1757924059,"current_range_meters":16000,"station_id":"ce4bhm92rcd13ifvqglg","pricing_plan_id":"cebpf4jnsgd1na2vs0mg"},{"bike_id":"f349a26b-1b9e-47af-a73e-c05f32ec3a06","system_id":"levelo_inurba_marseille","lat":43.31208,"lon":5.3686,"is_reserved":false,"is_disabled":false,"rental_uris":{"android":"levelo://app?vid=f349a26b-1b9e-47af-a73e-c05f32ec3a06","ios":"levelo://app?vid=f349a26b-1b9e-47af-a73e-c05f32ec3a06"},"vehicle_type_id":"4","last_reported":1757924059,"current_range_meters":16000,"station_id":"ce4bgl92rcd13ifvqbq0","pricing_plan_id":"cebpf4jnsgd1na2vs0mg"},{"bike_id":"af93e2a7-7f32-4c05-a606-8679eacb9543","system_id":"levelo_inurba_marseille","lat":43.26949,"lon":5.38629,"is_reserved":false,"is_disabled":false,"rental_uris":{"android":"levelo://app?vid=af93e2a7-7f32-4c05-a606-8679eacb9543","ios":"levelo://app?vid=af93e2a7-7f32-4c05-a606-8679eacb9543"},"vehicle_type_id":"4","last_reported":1757924059,"current_range_meters":16000,"station_id":"ce4bhh92rcd13ifvqfh0","pricing_plan_id":"cebpf4jnsgd1na2vs0mg"},{"bike_id":"36010e39-bf73-4523-876f-8443c255c356","system_id":"levelo_inurba_marseille","lat":43.24171,"lon":5.36405,"is_reserved":false,"is_disabled":false,"rental_uris":{"android":"levelo://app?vid=36010e39-bf73-4523-876f-8443c255c356","ios":"levelo://app?vid=36010e39-bf73-4523-876f-8443c255c356"},"vehicle_type_id":"4","last_reported":1757924059,"current_range_meters":16000,"station_id":"cpo36qri1sfpv3e86is0","pricing_plan_id":"cebpf4jnsgd1na2vs0mg"},{"bike_id":"7834a8ed-e197-4622-841e-04d9569a4cf2","system_id":"levelo_inurba_marseille","lat":43.26682,"lon":5.38264,"is_reserved":false,"is_disabled":false,"rental_uris":{"android":"levelo://app?vid=7834a8ed-e197-4622-841e-04d9569a4cf2","ios":"levelo://app?vid=7834a8ed-e197-4622-841e-04d9569a4cf2"},"vehicle_type_id":"4","last_reported":1757924059,"current_range_meters":16000,"station_id":"ce4bhg92rcd13ifvqf90","pricing_plan_id":"cebpf4jnsgd1na2vs0mg"},{"bike_id":"c2763259-e034-4877-bcdf-790c64e2e099","system_id":"levelo_inurba_marseille","lat":43.30539,"lon":5.38435,"is_reserved":false,"is_disabled":false,"rental_uris":{"android":"levelo://app?vid=c2763259-e034-4877-bcdf-790c64e2e099","ios":"levelo://app?vid=c2763259-e034-4877-bcdf-790c64e2e099"},"vehicle_type_id":"4","last_reported":1757924059,"current_range_meters":15200,"station_id":"ce4bgg92rcd13ifvqb30","pricing_plan_id":"cebpf4jnsgd1na2vs0mg"},{"bike_id":"d1ef1d18-ca3f-445d-a9d9-261dc371d56c","system_id":"levelo_inurba_marseille","lat":43.23157,"lon":5.43729,"is_reserved":false,"is_disabled":false,"rental_uris":{"android":"levelo://app?vid=d1ef1d18-ca3f-445d-a9d9-261dc371d56c","ios":"levelo://app?vid=d1ef1d18-ca3f-445d-a9d9-261dc371d56c"},"vehicle_type_id":"4","last_reported":1757924059,"current_range_meters":16000,"station_id":"ce4bhmp2rcd13ifvqgog","pricing_plan_id":"cebpf4jnsgd1na2vs0mg"},{"bike_id":"0f164135-28bf-4311-b653-1c6ae5f28cd0","system_id":"levelo_inurba_marseille","lat":43.240737,"lon":5.377569,"is_reserved":false,"is_disabled":false,"rental_uris":{"android":"levelo://app?vid=0f164135-28bf-4311-b653-1c6ae5f28cd0","ios":"levelo://app?vid=0f164135-28bf-4311-b653-1c6ae5f28cd0"},"vehicle_type_id":"4","last_reported":1757924059,"current_range_meters":16000,"station_id":"ce4bhnp2rcd13ifvqgvg","pricing_plan_id":"cebpf4jnsgd1na2vs0mg"},{"bike_id":"7f5fcc21-3633-4335-bb2c-d594f641d0f8","system_id":"levelo_inurba_marseille","lat":43.2767,"lon":5.38871,"is_reserved":false,"is_disabled":false,"rental_uris":{"android":"levelo://app?vid=7f5fcc21-3633-4335-bb2c-d594f641d0f8","ios":"levelo://app?vid=7f5fcc21-3633-4335-bb2c-d594f641d0f8"},"vehicle_type_id":"4","last_reported":1757924059,"current_range_meters":16400,"station_id":"ce4bhi12rcd13ifvqfo0","pricing_plan_id":"cebpf4jnsgd1na2vs0mg"},{"bike_id":"cd619329-841d-41e3-a043-a239388f23b4","system_id":"levelo_inurba_marseille","lat":43.30131,"lon":5.39888,"is_reserved":false,"is_disabled":false,"rental_uris":{"android":"levelo://app?vid=cd619329-841d-41e3-a043-a239388f23b4","ios":"levelo://app?vid=cd619329-841d-41e3-a043-a239388f23b4"},"vehicle_type_id":"4","last_reported":1757924059,"current_range_meters":16400,"station_id":"ce4bh0h2rcd13ifvqd40","pricing_plan_id":"cebpf4jnsgd1na2vs0mg"},{"bike_id":"d73ebff0-d957-41dc-a638-29b88edc4926","system_id":"levelo_inurba_marseille","lat":43.22566,"lon":5.41618,"is_reserved":false,"is_disabled":false,"rental_uris":{"android":"levelo://app?vid=d73ebff0-d957-41dc-a638-29b88edc4926","ios":"levelo://app?vid=d73ebff0-d957-41dc-a638-29b88edc4926"},"vehicle_type_id":"4","last_reported":1757924059,"current_range_meters":16400,"station_id":"st_d2o4gvlbi1j2169b742g","pricing_plan_id":"cebpf4jnsgd1na2vs0mg"},{"bike_id":"917eb991-d95e-46c8-a53b-6fd4a02aabb1","system_id":"levelo_inurba_marseille","lat":43.30274,"lon":5.37704,"is_reserved":false,"is_disabled":false,"rental_uris":{"android":"levelo://app?vid=917eb991-d95e-46c8-a53b-6fd4a02aabb1","ios":"levelo://app?vid=917eb991-d95e-46c8-a53b-6fd4a02aabb1"},"vehicle_type_id":"4","last_reported":1757924059,"current_range_meters":16400,"station_id":"ce4bguh2rcd13ifvqcj0","pricing_plan_id":"cebpf4jnsgd1na2vs0mg"},{"bike_id":"814afb5b-ac7e-497b-a371-c4ab43269b27","system_id":"levelo_inurba_marseille","lat":43.2668,"lon":5.38269,"is_reserved":false,"is_disabled":false,"rental_uris":{"android":"levelo://app?vid=814afb5b-ac7e-497b-a371-c4ab43269b27","ios":"levelo://app?vid=814afb5b-ac7e-497b-a371-c4ab43269b27"},"vehicle_type_id":"4","last_reported":1757924059,"current_range_meters":16400,"station_id":"ce4bhg92rcd13ifvqf90","pricing_plan_id":"cebpf4jnsgd1na2vs0mg"},{"bike_id":"16c0895a-a0ff-4784-bfff-44b44cb9ce92","system_id":"levelo_inurba_marseille","lat":43.26686,"lon":5.38281,"is_reserved":false,"is_disabled":false,"rental_uris":{"android":"levelo://app?vid=16c0895a-a0ff-4784-bfff-44b44cb9ce92","ios":"levelo://app?vid=16c0895a-a0ff-4784-bfff-44b44cb9ce92"},"vehicle_type_id":"4","last_reported":1757924059,"current_range_meters":16000,"station_id":"ce4bhg92rcd13ifvqf90","pricing_plan_id":"cebpf4jnsgd1na2vs0mg"},{"bike_id":"e19b9af5-dc8c-47cf-ad17-940da85a9ba6","system_id":"levelo_inurba_marseille","lat":43.23158,"lon":5.43705,"is_reserved":false,"is_disabled":false,"rental_uris":{"android":"levelo://app?vid=e19b9af5-dc8c-47cf-ad17-940da85a9ba6","ios":"levelo://app?vid=e19b9af5-dc8c-47cf-ad17-940da85a9ba6"},"vehicle_type_id":"4","last_reported":1757924059,"current_range_meters":16400,"station_id":"ce4bhmp2rcd13ifvqgog","pricing_plan_id":"cebpf4jnsgd1na2vs0mg"},{"bike_id":"8ef8bf7d-8a91-4724-8c2e-ddeef723e28a","system_id":"levelo_inurba_marseille","lat":43.27032,"lon":5.37902,"is_reserved":false,"is_disabled":false,"rental_uris":{"android":"levelo://app?vid=8ef8bf7d-8a91-4724-8c2e-ddeef723e28a","ios":"levelo://app?vid=8ef8bf7d-8a91-4724-8c2e-ddeef723e28a"},"vehicle_type_id":"4","last_reported":1757924059,"current_range_meters":16800,"station_id":"","pricing_plan_id":"cebpf4jnsgd1na2vs0mg"},{"bike_id":"ea4693de-86b3-41b2-926a-c1ac20480be1","system_id":"levelo_inurba_marseille","lat":43.31358,"lon":5.36647,"is_reserved":false,"is_disabled":false,"rental_uris":{"android":"levelo://app?vid=ea4693de-86b3-41b2-926a-c1ac20480be1","ios":"levelo://app?vid=ea4693de-86b3-41b2-926a-c1ac20480be1"},"vehicle_type_id":"4","last_reported":1757924059,"current_range_meters":16800,"station_id":"","pricing_plan_id":"cebpf4jnsgd1na2vs0mg"},{"bike_id":"ad27c4b6-1fe8-44b4-83a4-b5f6ff5008a5","system_id":"levelo_inurba_marseille","lat":43.262884,"lon":5.396736,"is_reserved":false,"is_disabled":false,"rental_uris":{"android":"levelo://app?vid=ad27c4b6-1fe8-44b4-83a4-b5f6ff5008a5","ios":"levelo://app?vid=ad27c4b6-1fe8-44b4-83a4-b5f6ff5008a5"},"vehicle_type_id":"4","last_reported":1757924059,"current_range_meters":16800,"station_id":"ce4bhi12rcd13ifvqfq0","pricing_plan_id":"cebpf4jnsgd1na2vs0mg"},{"bike_id":"460950e7-4882-4108-bd1f-4d12c674cb64","system_id":"levelo_inurba_marseille","lat":43.30542,"lon":5.36699,"is_reserved":false,"is_disabled":false,"rental_uris":{"android":"levelo://app?vid=460950e7-4882-4108-bd1f-4d12c674cb64","ios":"levelo://app?vid=460950e7-4882-4108-bd1f-4d12c674cb64"},"vehicle_type_id":"4","last_reported":1757924059,"current_range_meters":16800,"station_id":"ce4bgrp2rcd13ifvqc9g","pricing_plan_id":"cebpf4jnsgd1na2vs0mg"},{"bike_id":"088693c6-0a9a-45c3-b85d-0b3971b1e68f","system_id":"levelo_inurba_marseille","lat":43.30536,"lon":5.36538,"is_reserved":false,"is_disabled":false,"rental_uris":{"android":"levelo://app?vid=088693c6-0a9a-45c3-b85d-0b3971b1e68f","ios":"levelo://app?vid=088693c6-0a9a-45c3-b85d-0b3971b1e68f"},"vehicle_type_id":"4","last_reported":1757924059,"current_range_meters":16800,"station_id":"ce4bgs12rcd13ifvqcag","pricing_plan_id":"cebpf4jnsgd1na2vs0mg"},{"bike_id":"6dd1f8b7-92f4-4b6e-a4c5-017f772fd20c","system_id":"levelo_inurba_marseille","lat":43.30119,"lon":5.39876,"is_reserved":false,"is_disabled":false,"rental_uris":{"android":"levelo://app?vid=6dd1f8b7-92f4-4b6e-a4c5-017f772fd20c","ios":"levelo://app?vid=6dd1f8b7-92f4-4b6e-a4c5-017f772fd20c"},"vehicle_type_id":"4","last_reported":1757924059,"current_range_meters":16400,"station_id":"ce4bh0h2rcd13ifvqd40","pricing_plan_id":"cebpf4jnsgd1na2vs0mg"},{"bike_id":"4d0da910-152b-448e-9786-b400d7fabfca","system_id":"levelo_inurba_marseille","lat":43.292291,"lon":5.360836,"is_reserved":false,"is_disabled":false,"rental_uris":{"android":"levelo://app?vid=4d0da910-152b-448e-9786-b400d7fabfca","ios":"levelo://app?vid=4d0da910-152b-448e-9786-b400d7fabfca"},"vehicle_type_id":"4","last_reported":1757924059,"current_range_meters":16800,"station_id":"ce4bhbh2rcd13ifvqeqg","pricing_plan_id":"cebpf4jnsgd1na2vs0mg"},{"bike_id":"a333d9ec-a9a7-4617-ac2f-4224c0d88af6","system_id":"levelo_inurba_marseille","lat":43.27491,"lon":5.42453,"is_reserved":false,"is_disabled":false,"rental_uris":{"android":"levelo://app?vid=a333d9ec-a9a7-4617-ac2f-4224c0d88af6","ios":"levelo://app?vid=a333d9ec-a9a7-4617-ac2f-4224c0d88af6"},"vehicle_type_id":"4","last_reported":1757924059,"current_range_meters":16800,"station_id":"ce4bhn92rcd13ifvqgrg","pricing_plan_id":"cebpf4jnsgd1na2vs0mg"},{"bike_id":"991443db-c9bf-4ce2-a90c-c0dd0212f503","system_id":"levelo_inurba_marseille","lat":43.30534,"lon":5.38426,"is_reserved":false,"is_disabled":false,"rental_uris":{"android":"levelo://app?vid=991443db-c9bf-4ce2-a90c-c0dd0212f503","ios":"levelo://app?vid=991443db-c9bf-4ce2-a90c-c0dd0212f503"},"vehicle_type_id":"4","last_reported":1757924059,"current_range_meters":16800,"station_id":"ce4bgg92rcd13ifvqb30","pricing_plan_id":"cebpf4jnsgd1na2vs0mg"},{"bike_id":"c8cf71ab-2cba-487d-b0aa-fba68c18bfaa","system_id":"levelo_inurba_marseille","lat":43.27509,"lon":5.42452,"is_reserved":false,"is_disabled":false,"rental_uris":{"android":"levelo://app?vid=c8cf71ab-2cba-487d-b0aa-fba68c18bfaa","ios":"levelo://app?vid=c8cf71ab-2cba-487d-b0aa-fba68c18bfaa"},"vehicle_type_id":"4","last_reported":1757924059,"current_range_meters":17200,"station_id":"ce4bhn92rcd13ifvqgrg","pricing_plan_id":"cebpf4jnsgd1na2vs0mg"},{"bike_id":"34e28511-daa3-4532-b356-9c589f08e632","system_id":"levelo_inurba_marseille","lat":43.26942,"lon":5.38637,"is_reserved":false,"is_disabled":false,"rental_uris":{"android":"levelo://app?vid=34e28511-daa3-4532-b356-9c589f08e632","ios":"levelo://app?vid=34e28511-daa3-4532-b356-9c589f08e632"},"vehicle_type_id":"4","last_reported":1757924059,"current_range_meters":17200,"station_id":"ce4bhh92rcd13ifvqfh0","pricing_plan_id":"cebpf4jnsgd1na2vs0mg"},{"bike_id":"b575a595-f932-4230-9ca7-6937f4a43d90","system_id":"levelo_inurba_marseille","lat":43.21738,"lon":5.34597,"is_reserved":false,"is_disabled":false,"rental_uris":{"android":"levelo://app?vid=b575a595-f932-4230-9ca7-6937f4a43d90","ios":"levelo://app?vid=b575a595-f932-4230-9ca7-6937f4a43d90"},"vehicle_type_id":"4","last_reported":1757924059,"current_range_meters":17200,"station_id":"st_cvj6r9ubvosntc0bgbag","pricing_plan_id":"cebpf4jnsgd1na2vs0mg"},{"bike_id":"e73916b7-bc89-4fdf-b4a5-8d4b161d5820","system_id":"levelo_inurba_marseille","lat":43.3046,"lon":5.37902,"is_reserved":false,"is_disabled":false,"rental_uris":{"android":"levelo://app?vid=e73916b7-bc89-4fdf-b4a5-8d4b161d5820","ios":"levelo://app?vid=e73916b7-bc89-4fdf-b4a5-8d4b161d5820"},"vehicle_type_id":"4","last_reported":1757924059,"current_range_meters":17200,"station_id":"ce4bgup2rcd13ifvqcn0","pricing_plan_id":"cebpf4jnsgd1na2vs0mg"},{"bike_id":"8df3c2b0-5059-483d-81de-e48ff85284a5","system_id":"levelo_inurba_marseille","lat":43.301351,"lon":5.398666,"is_reserved":false,"is_disabled":false,"rental_uris":{"android":"levelo://app?vid=8df3c2b0-5059-483d-81de-e48ff85284a5","ios":"levelo://app?vid=8df3c2b0-5059-483d-81de-e48ff85284a5"},"vehicle_type_id":"4","last_reported":1757924059,"current_range_meters":17200,"station_id":"ce4bh0h2rcd13ifvqd40","pricing_plan_id":"cebpf4jnsgd1na2vs0mg"},{"bike_id":"c34467f4-410e-4312-96b1-d0d1f59a8225","system_id":"levelo_inurba_marseille","lat":43.33604,"lon":5.41022,"is_reserved":false,"is_disabled":false,"rental_uris":{"android":"levelo://app?vid=c34467f4-410e-4312-96b1-d0d1f59a8225","ios":"levelo://app?vid=c34467f4-410e-4312-96b1-d0d1f59a8225"},"vehicle_type_id":"4","last_reported":1757924059,"current_range_meters":17600,"station_id":"ce4bhqh2rcd13ifvqhmg","pricing_plan_id":"cebpf4jnsgd1na2vs0mg"},{"bike_id":"63584e28-b3a5-4c16-b833-94772c5e6d88","system_id":"levelo_inurba_marseille","lat":43.24103,"lon":5.37765,"is_reserved":false,"is_disabled":false,"rental_uris":{"android":"levelo://app?vid=63584e28-b3a5-4c16-b833-94772c5e6d88","ios":"levelo://app?vid=63584e28-b3a5-4c16-b833-94772c5e6d88"},"vehicle_type_id":"4","last_reported":1757924059,"current_range_meters":17600,"station_id":"ce4bhnp2rcd13ifvqgvg","pricing_plan_id":"cebpf4jnsgd1na2vs0mg"},{"bike_id":"526baf53-3841-4d73-88e9-086586535063","system_id":"levelo_inurba_marseille","lat":43.2407,"lon":5.37773,"is_reserved":false,"is_disabled":false,"rental_uris":{"android":"levelo://app?vid=526baf53-3841-4d73-88e9-086586535063","ios":"levelo://app?vid=526baf53-3841-4d73-88e9-086586535063"},"vehicle_type_id":"4","last_reported":1757924059,"current_range_meters":17600,"station_id":"ce4bhnp2rcd13ifvqgvg","pricing_plan_id":"cebpf4jnsgd1na2vs0mg"},{"bike_id":"1bfdbe6a-fa81-407c-9d15-d53df7ffd6ea","system_id":"levelo_inurba_marseille","lat":43.2495,"lon":5.40483,"is_reserved":false,"is_disabled":false,"rental_uris":{"android":"levelo://app?vid=1bfdbe6a-fa81-407c-9d15-d53df7ffd6ea","ios":"levelo://app?vid=1bfdbe6a-fa81-407c-9d15-d53df7ffd6ea"},"vehicle_type_id":"4","last_reported":1757924059,"current_range_meters":17600,"station_id":"st_d2ngiaodas8pm72gd1h0","pricing_plan_id":"cebpf4jnsgd1na2vs0mg"},{"bike_id":"d20b75b4-d76e-4692-b05c-3173e3d6164a","system_id":"levelo_inurba_marseille","lat":43.24101,"lon":5.37772,"is_reserved":false,"is_disabled":false,"rental_uris":{"android":"levelo://app?vid=d20b75b4-d76e-4692-b05c-3173e3d6164a","ios":"levelo://app?vid=d20b75b4-d76e-4692-b05c-3173e3d6164a"},"vehicle_type_id":"4","last_reported":1757924059,"current_range_meters":17600,"station_id":"ce4bhnp2rcd13ifvqgvg","pricing_plan_id":"cebpf4jnsgd1na2vs0mg"},{"bike_id":"5d5b51f8-15be-4825-804c-c2485c6a00ac","system_id":"levelo_inurba_marseille","lat":43.25918,"lon":5.40917,"is_reserved":false,"is_disabled":false,"rental_uris":{"android":"levelo://app?vid=5d5b51f8-15be-4825-804c-c2485c6a00ac","ios":"levelo://app?vid=5d5b51f8-15be-4825-804c-c2485c6a00ac"},"vehicle_type_id":"4","last_reported":1757924059,"current_range_meters":18000,"station_id":"ce4bhm92rcd13ifvqglg","pricing_plan_id":"cebpf4jnsgd1na2vs0mg"},{"bike_id":"a33cf4c6-054f-4a1b-8f82-8fc5a7d7e84b","system_id":"levelo_inurba_marseille","lat":43.29042,"lon":5.39977,"is_reserved":false,"is_disabled":false,"rental_uris":{"android":"levelo://app?vid=a33cf4c6-054f-4a1b-8f82-8fc5a7d7e84b","ios":"levelo://app?vid=a33cf4c6-054f-4a1b-8f82-8fc5a7d7e84b"},"vehicle_type_id":"4","last_reported":1757924059,"current_range_meters":18000,"station_id":"ce4bh392rcd13ifvqdm0","pricing_plan_id":"cebpf4jnsgd1na2vs0mg"},{"bike_id":"e4a7c665-9570-4391-9eb1-3f311535f14d","system_id":"levelo_inurba_marseille","lat":43.27914,"lon":5.39579,"is_reserved":false,"is_disabled":false,"rental_uris":{"android":"levelo://app?vid=e4a7c665-9570-4391-9eb1-3f311535f14d","ios":"levelo://app?vid=e4a7c665-9570-4391-9eb1-3f311535f14d"},"vehicle_type_id":"4","last_reported":1757924059,"current_range_meters":18000,"station_id":"ce4bhf92rcd13ifvqf40","pricing_plan_id":"cebpf4jnsgd1na2vs0mg"},{"bike_id":"a02e580d-3093-4e34-a053-4227fdd65225","system_id":"levelo_inurba_marseille","lat":43.25886,"lon":5.39922,"is_reserved":false,"is_disabled":false,"rental_uris":{"android":"levelo://app?vid=a02e580d-3093-4e34-a053-4227fdd65225","ios":"levelo://app?vid=a02e580d-3093-4e34-a053-4227fdd65225"},"vehicle_type_id":"4","last_reported":1757924059,"current_range_meters":18000,"station_id":"ce4bhl92rcd13ifvqghg","pricing_plan_id":"cebpf4jnsgd1na2vs0mg"},{"bike_id":"223f56a2-a417-4446-ad31-9a4ed45de01c","system_id":"levelo_inurba_marseille","lat":43.24077,"lon":5.37741,"is_reserved":false,"is_disabled":false,"rental_uris":{"android":"levelo://app?vid=223f56a2-a417-4446-ad31-9a4ed45de01c","ios":"levelo://app?vid=223f56a2-a417-4446-ad31-9a4ed45de01c"},"vehicle_type_id":"4","last_reported":1757924059,"current_range_meters":18000,"station_id":"ce4bhnp2rcd13ifvqgvg","pricing_plan_id":"cebpf4jnsgd1na2vs0mg"},{"bike_id":"3382229d-00c9-4f32-914e-37271c34598d","system_id":"levelo_inurba_marseille","lat":43.28082,"lon":5.39658,"is_reserved":false,"is_disabled":true,"rental_uris":{"android":"levelo://app?vid=3382229d-00c9-4f32-914e-37271c34598d","ios":"levelo://app?vid=3382229d-00c9-4f32-914e-37271c34598d"},"vehicle_type_id":"4","last_reported":1757924059,"current_range_meters":18000,"station_id":"ce4bho12rcd13ifvqh2g","pricing_plan_id":"cebpf4jnsgd1na2vs0mg"},{"bike_id":"8c3a9697-4a5c-47e8-9933-ec74fb640ce5","system_id":"levelo_inurba_marseille","lat":43.29304,"lon":5.37443,"is_reserved":false,"is_disabled":false,"rental_uris":{"android":"levelo://app?vid=8c3a9697-4a5c-47e8-9933-ec74fb640ce5","ios":"levelo://app?vid=8c3a9697-4a5c-47e8-9933-ec74fb640ce5"},"vehicle_type_id":"4","last_reported":1757924059,"current_range_meters":18000,"station_id":"ce4bgi12rcd13ifvqb70","pricing_plan_id":"cebpf4jnsgd1na2vs0mg"},{"bike_id":"f10a4125-ea58-4e63-b38e-ac18ed551e3a","system_id":"levelo_inurba_marseille","lat":43.31044,"lon":5.40036,"is_reserved":false,"is_disabled":true,"rental_uris":{"android":"levelo://app?vid=f10a4125-ea58-4e63-b38e-ac18ed551e3a","ios":"levelo://app?vid=f10a4125-ea58-4e63-b38e-ac18ed551e3a"},"vehicle_type_id":"4","last_reported":1757924059,"current_range_meters":18800,"station_id":"","pricing_plan_id":"cebpf4jnsgd1na2vs0mg"},{"bike_id":"2dd4e87e-130d-4b89-8d68-e7e34799b4f1","system_id":"levelo_inurba_marseille","lat":43.31169,"lon":5.38722,"is_reserved":false,"is_disabled":false,"rental_uris":{"android":"levelo://app?vid=2dd4e87e-130d-4b89-8d68-e7e34799b4f1","ios":"levelo://app?vid=2dd4e87e-130d-4b89-8d68-e7e34799b4f1"},"vehicle_type_id":"4","last_reported":1757924059,"current_range_meters":18800,"station_id":"ce4bgv12rcd13ifvqcp0","pricing_plan_id":"cebpf4jnsgd1na2vs0mg"},{"bike_id":"eb7cc917-6832-4011-8ed0-0ea12e66e244","system_id":"levelo_inurba_marseille","lat":43.32477,"lon":5.36556,"is_reserved":false,"is_disabled":false,"rental_uris":{"android":"levelo://app?vid=eb7cc917-6832-4011-8ed0-0ea12e66e244","ios":"levelo://app?vid=eb7cc917-6832-4011-8ed0-0ea12e66e244"},"vehicle_type_id":"4","last_reported":1757924059,"current_range_meters":18800,"station_id":"ce4bhs12rcd13ifvqhvg","pricing_plan_id":"cebpf4jnsgd1na2vs0mg"},{"bike_id":"47bbfecc-2dac-438f-9a1d-9b4ffed834df","system_id":"levelo_inurba_marseille","lat":43.24087,"lon":5.37774,"is_reserved":false,"is_disabled":false,"rental_uris":{"android":"levelo://app?vid=47bbfecc-2dac-438f-9a1d-9b4ffed834df","ios":"levelo://app?vid=47bbfecc-2dac-438f-9a1d-9b4ffed834df"},"vehicle_type_id":"4","last_reported":1757924059,"current_range_meters":18800,"station_id":"ce4bhnp2rcd13ifvqgvg","pricing_plan_id":"cebpf4jnsgd1na2vs0mg"},{"bike_id":"d076778c-1c4b-4d1d-a7f9-3fd721dc9e6d","system_id":"levelo_inurba_marseille","lat":43.27506,"lon":5.42458,"is_reserved":false,"is_disabled":false,"rental_uris":{"android":"levelo://app?vid=d076778c-1c4b-4d1d-a7f9-3fd721dc9e6d","ios":"levelo://app?vid=d076778c-1c4b-4d1d-a7f9-3fd721dc9e6d"},"vehicle_type_id":"4","last_reported":1757924059,"current_range_meters":18800,"station_id":"ce4bhn92rcd13ifvqgrg","pricing_plan_id":"cebpf4jnsgd1na2vs0mg"},{"bike_id":"c7ab1c64-b46c-40d1-9358-4b28ab296fab","system_id":"levelo_inurba_marseille","lat":43.29031,"lon":5.39961,"is_reserved":false,"is_disabled":false,"rental_uris":{"android":"levelo://app?vid=c7ab1c64-b46c-40d1-9358-4b28ab296fab","ios":"levelo://app?vid=c7ab1c64-b46c-40d1-9358-4b28ab296fab"},"vehicle_type_id":"4","last_reported":1757924059,"current_range_meters":18800,"station_id":"ce4bh392rcd13ifvqdm0","pricing_plan_id":"cebpf4jnsgd1na2vs0mg"},{"bike_id":"96ee9b57-cff5-4252-a08f-6a37cf344cd3","system_id":"levelo_inurba_marseille","lat":43.27082,"lon":5.42257,"is_reserved":false,"is_disabled":false,"rental_uris":{"android":"levelo://app?vid=96ee9b57-cff5-4252-a08f-6a37cf344cd3","ios":"levelo://app?vid=96ee9b57-cff5-4252-a08f-6a37cf344cd3"},"vehicle_type_id":"4","last_reported":1757924059,"current_range_meters":18800,"station_id":"ce4bhk92rcd13ifvqgb0","pricing_plan_id":"cebpf4jnsgd1na2vs0mg"},{"bike_id":"b1182963-b9c4-4fff-b950-e76aa9d44dff","system_id":"levelo_inurba_marseille","lat":43.25922,"lon":5.40873,"is_reserved":false,"is_disabled":false,"rental_uris":{"android":"levelo://app?vid=b1182963-b9c4-4fff-b950-e76aa9d44dff","ios":"levelo://app?vid=b1182963-b9c4-4fff-b950-e76aa9d44dff"},"vehicle_type_id":"4","last_reported":1757924059,"current_range_meters":18800,"station_id":"ce4bhm92rcd13ifvqglg","pricing_plan_id":"cebpf4jnsgd1na2vs0mg"},{"bike_id":"e73470b2-f46f-4f87-989f-53f8372e4317","system_id":"levelo_inurba_marseille","lat":43.33889,"lon":5.39197,"is_reserved":false,"is_disabled":false,"rental_uris":{"android":"levelo://app?vid=e73470b2-f46f-4f87-989f-53f8372e4317","ios":"levelo://app?vid=e73470b2-f46f-4f87-989f-53f8372e4317"},"vehicle_type_id":"4","last_reported":1757924059,"current_range_meters":18800,"station_id":"","pricing_plan_id":"cebpf4jnsgd1na2vs0mg"},{"bike_id":"921ff5bf-eb9d-4b59-9c86-c405e972b901","system_id":"levelo_inurba_marseille","lat":43.25914,"lon":5.40872,"is_reserved":false,"is_disabled":false,"rental_uris":{"android":"levelo://app?vid=921ff5bf-eb9d-4b59-9c86-c405e972b901","ios":"levelo://app?vid=921ff5bf-eb9d-4b59-9c86-c405e972b901"},"vehicle_type_id":"4","last_reported":1757924059,"current_range_meters":18800,"station_id":"ce4bhm92rcd13ifvqglg","pricing_plan_id":"cebpf4jnsgd1na2vs0mg"},{"bike_id":"cc83002c-47fb-48f6-8a92-3b69209d5491","system_id":"levelo_inurba_marseille","lat":43.32541,"lon":5.41464,"is_reserved":false,"is_disabled":false,"rental_uris":{"android":"levelo://app?vid=cc83002c-47fb-48f6-8a92-3b69209d5491","ios":"levelo://app?vid=cc83002c-47fb-48f6-8a92-3b69209d5491"},"vehicle_type_id":"4","last_reported":1757924059,"current_range_meters":18800,"station_id":"ce4bhq12rcd13ifvqhhg","pricing_plan_id":"cebpf4jnsgd1na2vs0mg"},{"bike_id":"8d03a449-2421-421d-be27-1f9fe9c3aa04","system_id":"levelo_inurba_marseille","lat":43.23139,"lon":5.43715,"is_reserved":false,"is_disabled":false,"rental_uris":{"android":"levelo://app?vid=8d03a449-2421-421d-be27-1f9fe9c3aa04","ios":"levelo://app?vid=8d03a449-2421-421d-be27-1f9fe9c3aa04"},"vehicle_type_id":"4","last_reported":1757924059,"current_range_meters":18800,"station_id":"ce4bhmp2rcd13ifvqgog","pricing_plan_id":"cebpf4jnsgd1na2vs0mg"},