{"last_updated":1703614100,"ttl":30,"version":"2.2","data":{"bikes":[{"bike_id":"bf4330aa-8ea0-49bd-8e45-f34b9cfb48d1","system_id":"levelo_inurba_marseille","lat":43.312239,"lon":5.368562,"is_reserved":false,"is_disabled":false,"rental_uris":{"android":"levelo://app?vid=bf4330aa-8ea0-49bd-8e45-f34b9cfb48d1","ios":"levelo://app?vid=bf4330aa-8ea0-49bd-8e45-f34b9cfb48d1"},"vehicle_type_id":"4","last_reported":1703614101,"current_range_meters":15600,"station_id":"ce4bgl92rcd13ifvqbq0","pricing_plan_id":"free"},{"bike_id":"4691c37a-74d4-4bd1-9bbe-e7a9fe0b6880","system_id":"levelo_inurba_marseille","lat":43.314811,"lon":5.373103,"is_reserved":false,"is_disabled":false,"rental_uris":{"android":"levelo://app?vid=4691c37a-74d4-4bd1-9bbe-e7a9fe0b6880","ios":"levelo://app?vid=4691c37a-74d4-4bd1-9bbe-e7a9fe0b6880"},"vehicle_type_id":"4","last_reported":1703614101,"current_range_meters":4000,"station_id":"ce4bgt12rcd13ifvqcd0","pricing_plan_id":"free"},{"bike_id":"b931d269-f7ba-46db-ba3a-b5519adb677d","system_id":"levelo_inurba_marseille","lat":43.314811,"lon":5.373103,"is_reserved":false,"is_disabled":false,"rental_uris":{"android":"levelo://app?vid=b931d269-f7ba-46db-ba3a-b5519adb677d","ios":"levelo://app?vid=b931d269-f7ba-46db-ba3a-b5519adb677d"},"vehicle_type_id":"4","last_reported":1703614101,"current_range_meters":22800,"station_id":"ce4bgt12rcd13ifvqcd0","pricing_plan_id":"free"},{"bike_id":"88c3fb68-6904-4361-aba8-f466f0e5a198","system_id":"levelo_inurba_marseille","lat":43.314811,"lon":5.373104,"is_reserved":false,"is_disabled":false,"rental_uris":{"android":"levelo://app?vid=88c3fb68-6904-4361-aba8-f466f0e5a198","ios":"levelo://app?vid=88c3fb68-6904-4361-aba8-f466f0e5a198"},"vehicle_type_id":"4","last_reported":1703614101,"current_range_meters":29200,"station_id":"ce4bgt12rcd13ifvqcd0","pricing_plan_id":"free"},{"bike_id":"98fc8f36-009c-49c0-bde9-eaacf0237add","system_id":"levelo_inurba_marseille","lat":43.314937,"lon":5.373913,"is_reserved":false,"is_disabled":false,"rental_uris":{"android":"levelo://app?vid=98fc8f36-009c-49c0-bde9-eaacf0237add","ios":"levelo://app?vid=98fc8f36-009c-49c0-bde9-eaacf0237add"},"vehicle_type_id":"4","last_reported":1703614101,"current_range_meters":25200,"station_id":"","pricing_plan_id":"free"},{"bike_id":"437be774-9347-4f56-865e-861017296255","system_id":"levelo_inurba_marseille","lat":43.318964,"lon":5.36877,"is_reserved":false,"is_disabled":false,"rental_uris":{"android":"levelo://app?vid=437be774-9347-4f56-865e-861017296255","ios":"levelo://app?vid=437be774-9347-4f56-865e-861017296255"},"vehicle_type_id":"4","last_reported":1703614101,"current_range_meters":11200,"station_id":"","pricing_plan_id":"free"},{"bike_id":"a025ee10-e0fd-4a67-ab74-02b198874434","system_id":"levelo_inurba_marseille","lat":43.305706,"lon":5.365654,"is_reserved":false,"is_disabled":false,"rental_uris":{"android":"levelo://app?vid=a025ee10-e0fd-4a67-ab74-02b198874434","ios":"levelo://app?vid=a025ee10-e0fd-4a67-ab74-02b198874434"},"vehicle_type_id":"4","last_reported":1703614101,"current_range_meters":12800,"station_id":"ce4bgs12rcd13ifvqcag","pricing_plan_id":"free"},{"bike_id":"b061bfe4-9ece-49a3-8659-e5632938f5dc","system_id":"levelo_inurba_marseille","lat":43.311125,"lon":5.377624,"is_reserved":false,"is_disabled":false,"rental_uris":{"android":"levelo://app?vid=b061bfe4-9ece-49a3-8659-e5632938f5dc","ios":"levelo://app?vid=b061bfe4-9ece-49a3-8659-e5632938f5dc"},"vehicle_type_id":"4","last_reported":1703614101,"current_range_meters":26400,"station_id":"ce4bgt92rcd13ifvqcg0","pricing_plan_id":"free"},{"bike_id":"de5a5de1-5fe5-42e3-9c3f-34e8b3df6b65","system_id":"levelo_inurba_marseille","lat":43.311125,"lon":5.377624,"is_reserved":false,"is_disabled":false,"rental_uris":{"android":"levelo://app?vid=de5a5de1-5fe5-42e3-9c3f-34e8b3df6b65","ios":"levelo://app?vid=de5a5de1-5fe5-42e3-9c3f-34e8b3df6b65"},"vehicle_type_id":"4","last_reported":1703614101,"current_range_meters":18000,"station_id":"ce4bgt92rcd13ifvqcg0","pricing_plan_id":"free"},{"bike_id":"328f3d0e-db0d-4428-b320-b697f9327d9e","system_id":"levelo_inurba_marseille","lat":43.311125,"lon":5.377624,"is_reserved":false,"is_disabled":false,"rental_uris":{"android":"levelo://app?vid=328f3d0e-db0d-4428-b320-b697f9327d9e","ios":"levelo://app?vid=328f3d0e-db0d-4428-b320-b697f9327d9e"},"vehicle_type_id":"4","last_reported":1703614101,"current_range_meters":20800,"station_id":"ce4bgt92rcd13ifvqcg0","pricing_plan_id":"free"},{"bike_id":"f5485fb3-6908-4a19-9802-f3271733bbef","system_id":"levelo_inurba_marseille","lat":43.307945,"lon":5.376487,"is_reserved":false,"is_disabled":false,"rental_uris":{"android":"levelo://app?vid=f5485fb3-6908-4a19-9802-f3271733bbef","ios":"levelo://app?vid=f5485fb3-6908-4a19-9802-f3271733bbef"},"vehicle_type_id":"4","last_reported":1703614101,"current_range_meters":22000,"station_id":"ce4bgv92rcd13ifvqcq0","pricing_plan_id":"free"},{"bike_id":"4d253966-2b1d-4f80-a6e0-281d872c687a","system_id":"levelo_inurba_marseille","lat":43.317133,"lon":5.377197,"is_reserved":false,"is_disabled":false,"rental_uris":{"android":"levelo://app?vid=4d253966-2b1d-4f80-a6e0-281d872c687a","ios":"levelo://app?vid=4d253966-2b1d-4f80-a6e0-281d872c687a"},"vehicle_type_id":"4","last_reported":1703614101,"current_range_meters":20800,"station_id":"ce4bgth2rcd13ifvqch0","pricing_plan_id":"free"},{"bike_id":"d01bea36-f5d3-4bd8-b117-209f24674382","system_id":"levelo_inurba_marseille","lat":43.317075,"lon":5.377367,"is_reserved":false,"is_disabled":false,"rental_uris":{"android":"levelo://app?vid=d01bea36-f5d3-4bd8-b117-209f24674382","ios":"levelo://app?vid=d01bea36-f5d3-4bd8-b117-209f24674382"},"vehicle_type_id":"4","last_reported":1703614101,"current_range_meters":10800,"station_id":"ce4bgth2rcd13ifvqch0","pricing_plan_id":"free"},{"bike_id":"1bed2fa6-322c-4e81-a06a-690c3bf0d99a","system_id":"levelo_inurba_marseille","lat":43.301939,"lon":5.366286,"is_reserved":false,"is_disabled":false,"rental_uris":{"android":"levelo://app?vid=1bed2fa6-322c-4e81-a06a-690c3bf0d99a","ios":"levelo://app?vid=1bed2fa6-322c-4e81-a06a-690c3bf0d99a"},"vehicle_type_id":"4","last_reported":1703614101,"current_range_meters":7600,"station_id":"ce4bgrh2rcd13ifvqc8g","pricing_plan_id":"free"},{"bike_id":"1b4419af-8c05-4d56-8daa-afe8e598a700","system_id":"levelo_inurba_marseille","lat":43.308012,"lon":5.381511,"is_reserved":false,"is_disabled":false,"rental_uris":{"android":"levelo://app?vid=1b4419af-8c05-4d56-8daa-afe8e598a700","ios":"levelo://app?vid=1b4419af-8c05-4d56-8daa-afe8e598a700"},"vehicle_type_id":"4","last_reported":1703614101,"current_range_meters":27600,"station_id":"ce4bgt12rcd13ifvqce0","pricing_plan_id":"free"},{"bike_id":"382b2c4a-4fd0-4c3a-acbf-6fa6ef0d9a2e","system_id":"levelo_inurba_marseille","lat":43.308012,"lon":5.381511,"is_reserved":false,"is_disabled":false,"rental_uris":{"android":"levelo://app?vid=382b2c4a-4fd0-4c3a-acbf-6fa6ef0d9a2e","ios":"levelo://app?vid=382b2c4a-4fd0-4c3a-acbf-6fa6ef0d9a2e"},"vehicle_type_id":"4","last_reported":1703614101,"current_range_meters":22000,"station_id":"ce4bgt12rcd13ifvqce0","pricing_plan_id":"free"},{"bike_id":"56f345dd-5057-49e4-9c2a-dc2a2de6ec7d","system_id":"levelo_inurba_marseille","lat":43.308012,"lon":5.381511,"is_reserved":false,"is_disabled":false,"rental_uris":{"android":"levelo://app?vid=56f345dd-5057-49e4-9c2a-dc2a2de6ec7d","ios":"levelo://app?vid=56f345dd-5057-49e4-9c2a-dc2a2de6ec7d"},"vehicle_type_id":"4","last_reported":1703614101,"current_range_meters":12000,"station_id":"ce4bgt12rcd13ifvqce0","pricing_plan_id":"free"},{"bike_id":"b35aaccb-8af9-4f9a-b783-732e331263f8","system_id":"levelo_inurba_marseille","lat":43.308058,"lon":5.381528,"is_reserved":false,"is_disabled":false,"rental_uris":{"android":"levelo://app?vid=b35aaccb-8af9-4f9a-b783-732e331263f8","ios":"levelo://app?vid=b35aaccb-8af9-4f9a-b783-732e331263f8"},"vehicle_type_id":"4","last_reported":1703614101,"current_range_meters":25200,"station_id":"ce4bgt12rcd13ifvqce0","pricing_plan_id":"free"},{"bike_id":"d2209fd0-6e1e-4b46-89eb-44545c4f07f8","system_id":"levelo_inurba_marseille","lat":43.308012,"lon":5.381511,"is_reserved":false,"is_disabled":false,"rental_uris":{"android":"levelo://app?vid=d2209fd0-6e1e-4b46-89eb-44545c4f07f8","ios":"levelo://app?vid=d2209fd0-6e1e-4b46-89eb-44545c4f07f8"},"vehicle_type_id":"4","last_reported":1703614101,"current_range_meters":21600,"station_id":"ce4bgt12rcd13ifvqce0","pricing_plan_id":"free"},{"bike_id":"7b2e1957-3cd3-4484-989a-8daf9851cedf","system_id":"levelo_inurba_marseille","lat":43.308012,"lon":5.381511,"is_reserved":false,"is_disabled":false,"rental_uris":{"android":"levelo://app?vid=7b2e1957-3cd3-4484-989a-8daf9851cedf","ios":"levelo://app?vid=7b2e1957-3cd3-4484-989a-8daf9851cedf"},"vehicle_type_id":"4","last_reported":1703614101,"current_range_meters":26400,"station_id":"ce4bgt12rcd13ifvqce0","pricing_plan_id":"free"},{"bike_id":"bb6049dc-99b6-46b9-960b-b6be12bd1a3d","system_id":"levelo_inurba_marseille","lat":43.308012,"lon":5.381511,"is_reserved":false,"is_disabled":false,"rental_uris":{"android":"levelo://app?vid=bb6049dc-99b6-46b9-960b-b6be12bd1a3d","ios":"levelo://app?vid=bb6049dc-99b6-46b9-960b-b6be12bd1a3d"},"vehicle_type_id":"4","last_reported":1703614101,"current_range_meters":18400,"station_id":"ce4bgt12rcd13ifvqce0","pricing_plan_id":"free"},{"bike_id":"d1d94e8d-b730-42f5-aec1-c0de39b35f48","system_id":"levelo_inurba_marseille","lat":43.308012,"lon":5.381511,"is_reserved":false,"is_disabled":false,"rental_uris":{"android":"levelo://app?vid=d1d94e8d-b730-42f5-aec1-c0de39b35f48","ios":"levelo://app?vid=d1d94e8d-b730-42f5-aec1-c0de39b35f48"},"vehicle_type_id":"4","last_reported":1703614101,"current_range_meters":14400,"station_id":"ce4bgt12rcd13ifvqce0","pricing_plan_id":"free"},{"bike_id":"c53191d7-23da-4221-a56e-c8c873fb90c8","system_id":"levelo_inurba_marseille","lat":43.304606,"lon":5.379026,"is_reserved":false,"is_disabled":false,"rental_uris":{"android":"levelo://app?vid=c53191d7-23da-4221-a56e-c8c873fb90c8","ios":"levelo://app?vid=c53191d7-23da-4221-a56e-c8c873fb90c8"},"vehicle_type_id":"4","last_reported":1703614101,"current_range_meters":26800,"station_id":"ce4bgup2rcd13ifvqcn0","pricing_plan_id":"free"},{"bike_id":"a9bb2618-5a29-43e2-b671-aa5febeaa61d","system_id":"levelo_inurba_marseille","lat":43.304713,"lon":5.379005,"is_reserved":false,"is_disabled":false,"rental_uris":{"android":"levelo://app?vid=a9bb2618-5a29-43e2-b671-aa5febeaa61d","ios":"levelo://app?vid=a9bb2618-5a29-43e2-b671-aa5febeaa61d"},"vehicle_type_id":"4","last_reported":1703614101,"current_range_meters":26800,"station_id":"ce4bgup2rcd13ifvqcn0","pricing_plan_id":"free"},{"bike_id":"015f3b0c-adfc-4673-bcc3-428f9b23222e","system_id":"levelo_inurba_marseille","lat":43.30471,"lon":5.37901,"is_reserved":false,"is_disabled":false,"rental_uris":{"android":"levelo://app?vid=015f3b0c-adfc-4673-bcc3-428f9b23222e","ios":"levelo://app?vid=015f3b0c-adfc-4673-bcc3-428f9b23222e"},"vehicle_type_id":"4","last_reported":1703614101,"current_range_meters":20800,"station_id":"ce4bgup2rcd13ifvqcn0","pricing_plan_id":"free"},{"bike_id":"f9c0218b-5208-4023-a3a0-7953bfc9adf2","system_id":"levelo_inurba_marseille","lat":43.304685,"lon":5.379,"is_reserved":false,"is_disabled":false,"rental_uris":{"android":"levelo://app?vid=f9c0218b-5208-4023-a3a0-7953bfc9adf2","ios":"levelo://app?vid=f9c0218b-5208-4023-a3a0-7953bfc9adf2"},"vehicle_type_id":"4","last_reported":1703614101,"current_range_meters":31200,"station_id":"ce4bgup2rcd13ifvqcn0","pricing_plan_id":"free"},{"bike_id":"f5c0e4d6-16bd-47eb-ba92-aa201d0984ce","system_id":"levelo_inurba_marseille","lat":43.324771,"lon":5.36557,"is_reserved":false,"is_disabled":false,"rental_uris":{"android":"levelo://app?vid=f5c0e4d6-16bd-47eb-ba92-aa201d0984ce","ios":"levelo://app?vid=f5c0e4d6-16bd-47eb-ba92-aa201d0984ce"},"vehicle_type_id":"4","last_reported":1703614101,"current_range_meters":28800,"station_id":"ce4bhs12rcd13ifvqhvg","pricing_plan_id":"free"},{"bike_id":"e101af2c-c501-4e28-8d72-12ad3a8d21a2","system_id":"levelo_inurba_marseille","lat":43.324771,"lon":5.36557,"is_reserved":false,"is_disabled":false,"rental_uris":{"android":"levelo://app?vid=e101af2c-c501-4e28-8d72-12ad3a8d21a2","ios":"levelo://app?vid=e101af2c-c501-4e28-8d72-12ad3a8d21a2"},"vehicle_type_id":"4","last_reported":1703614101,"current_range_meters":22800,"station_id":"ce4bhs12rcd13ifvqhvg","pricing_plan_id":"free"},{"bike_id":"c1036f84-926b-4f48-9508-638d09d99652","system_id":"levelo_inurba_marseille","lat":43.302801,"lon":5.376924,"is_reserved":false,"is_disabled":false,"rental_uris":{"android":"levelo://app?vid=c1036f84-926b-4f48-9508-638d09d99652","ios":"levelo://app?vid=c1036f84-926b-4f48-9508-638d09d99652"},"vehicle_type_id":"4","last_reported":1703614101,"current_range_meters":25200,"station_id":"","pricing_plan_id":"free"},{"bike_id":"5b9bd249-cb52-40e7-8f87-78da1b84365a","system_id":"levelo_inurba_marseille","lat":43.302774,"lon":5.37691,"is_reserved":false,"is_disabled":false,"rental_uris":{"android":"levelo://app?vid=5b9bd249-cb52-40e7-8f87-78da1b84365a","ios":"levelo://app?vid=5b9bd249-cb52-40e7-8f87-78da1b84365a"},"vehicle_type_id":"4","last_reported":1703614101,"current_range_meters":24800,"station_id":"","pricing_plan_id":"free"},{"bike_id":"dce5a95d-3708-473f-b69d-a5b6db17ba84","system_id":"levelo_inurba_marseille","lat":43.309047,"lon":5.396551,"is_reserved":false,"is_disabled":false,"rental_uris":{"android":"levelo://app?vid=dce5a95d-3708-473f-b69d-a5b6db17ba84","ios":"levelo://app?vid=dce5a95d-3708-473f-b69d-a5b6db17ba84"},"vehicle_type_id":"4","last_reported":1703614101,"current_range_meters":8000,"station_id":"ce4bh012rcd13ifvqcv0","pricing_plan_id":"free"},{"bike_id":"d01c7cfc-2230-472e-906e-13110349dea5","system_id":"levelo_inurba_marseille","lat":43.302757,"lon":5.376967,"is_reserved":false,"is_disabled":false,"rental_uris":{"android":"levelo://app?vid=d01c7cfc-2230-472e-906e-13110349dea5","ios":"levelo://app?vid=d01c7cfc-2230-472e-906e-13110349dea5"},"vehicle_type_id":"4","last_reported":1703614101,"current_range_meters":25200,"station_id":"","pricing_plan_id":"free"},{"bike_id":"a4c9db62-e396-4539-993a-7a0850c8f675","system_id":"levelo_inurba_marseille","lat":43.302754,"lon":5.376967,"is_reserved":false,"is_disabled":false,"rental_uris":{"android":"levelo://app?vid=a4c9db62-e396-4539-993a-7a0850c8f675","ios":"levelo://app?vid=a4c9db62-e396-4539-993a-7a0850c8f675"},"vehicle_type_id":"4","last_reported":1703614101,"current_range_meters":25200,"station_id":"","pricing_plan_id":"free"},{"bike_id":"faff7f16-5971-41a7-bb52-5b6f1908a2d7","system_id":"levelo_inurba_marseille","lat":43.30279,"lon":5.37706,"is_reserved":false,"is_disabled":false,"rental_uris":{"android":"levelo://app?vid=faff7f16-5971-41a7-bb52-5b6f1908a2d7","ios":"levelo://app?vid=faff7f16-5971-41a7-bb52-5b6f1908a2d7"},"vehicle_type_id":"4","last_reported":1703614101,"current_range_meters":25600,"station_id":"","pricing_plan_id":"free"},{"bike_id":"9fd0f1fb-194c-4d6c-a7e1-13975396e81c","system_id":"levelo_inurba_marseille","lat":43.301453,"lon":5.37416,"is_reserved":false,"is_disabled":false,"rental_uris":{"android":"levelo://app?vid=9fd0f1fb-194c-4d6c-a7e1-13975396e81c","ios":"levelo://app?vid=9fd0f1fb-194c-4d6c-a7e1-13975396e81c"},"vehicle_type_id":"4","last_reported":1703614101,"current_range_meters":12800,"station_id":"","pricing_plan_id":"free"},{"bike_id":"9a6dbaa9-ce8f-4adf-92a5-13d99be18384","system_id":"levelo_inurba_marseille","lat":43.313571,"lon":5.384829,"is_reserved":false,"is_disabled":false,"rental_uris":{"android":"levelo://app?vid=9a6dbaa9-ce8f-4adf-92a5-13d99be18384","ios":"levelo://app?vid=9a6dbaa9-ce8f-4adf-92a5-13d99be18384"},"vehicle_type_id":"4","last_reported":1703614101,"current_range_meters":26000,"station_id":"ce4bgt92rcd13ifvqcf0","pricing_plan_id":"free"},{"bike_id":"00918877-1345-4713-9b5a-28e9738e66ab","system_id":"levelo_inurba_marseille","lat":43.319935,"lon":5.381699,"is_reserved":false,"is_disabled":false,"rental_uris":{"android":"levelo://app?vid=00918877-1345-4713-9b5a-28e9738e66ab","ios":"levelo://app?vid=00918877-1345-4713-9b5a-28e9738e66ab"},"vehicle_type_id":"4","last_reported":1703614101,"current_range_meters":3200,"station_id":"ce4bhr12rcd13ifvqhpg","pricing_plan_id":"free"},{"bike_id":"d50a7df1-7e74-446f-b9f4-2754cff05bd9","system_id":"levelo_inurba_marseille","lat":43.319935,"lon":5.381699,"is_reserved":false,"is_disabled":false,"rental_uris":{"android":"levelo://app?vid=d50a7df1-7e74-446f-b9f4-2754cff05bd9","ios":"levelo://app?vid=d50a7df1-7e74-446f-b9f4-2754cff05bd9"},"vehicle_type_id":"4","last_reported":1703614101,"current_range_meters":9200,"station_id":"ce4bhr12rcd13ifvqhpg","pricing_plan_id":"free"},{"bike_id":"8aba050a-8811-4086-b8e8-4572cc6fcac0","system_id":"levelo_inurba_marseille","lat":43.319935,"lon":5.381699,"is_reserved":false,"is_disabled":false,"rental_uris":{"android":"levelo://app?vid=8aba050a-8811-4086-b8e8-4572cc6fcac0","ios":"levelo://app?vid=8aba050a-8811-4086-b8e8-4572cc6fcac0"},"vehicle_type_id":"4","last_reported":1703614101,"current_range_meters":21600,"station_id":"ce4bhr12rcd13ifvqhpg","pricing_plan_id":"free"},{"bike_id":"5c521df4-606b-455d-8167-e197a1f393bb","system_id":"levelo_inurba_marseille","lat":43.30047,"lon":5.37439,"is_reserved":false,"is_disabled":false,"rental_uris":{"android":"levelo://app?vid=5c521df4-606b-455d-8167-e197a1f393bb","ios":"levelo://app?vid=5c521df4-606b-455d-8167-e197a1f393bb"},"vehicle_type_id":"4","last_reported":1703614101,"current_range_meters":6800,"station_id":"","pricing_plan_id":"free"},{"bike_id":"f6ce5080-13bd-460c-8f9c-fd4fcaa45167","system_id":"levelo_inurba_marseille","lat":43.299222,"lon":5.365554,"is_reserved":false,"is_disabled":false,"rental_uris":{"android":"levelo://app?vid=f6ce5080-13bd-460c-8f9c-fd4fcaa45167","ios":"levelo://app?vid=f6ce5080-13bd-460c-8f9c-fd4fcaa45167"},"vehicle_type_id":"4","last_reported":1703614101,"current_range_meters":4000,"station_id":"ce4bgm92rcd13ifvqbr0","pricing_plan_id":"free"},{"bike_id":"cc4da9de-65d5-4b03-a151-94016d9571a2","system_id":"levelo_inurba_marseille","lat":43.299222,"lon":5.365554,"is_reserved":false,"is_disabled":false,"rental_uris":{"android":"levelo://app?vid=cc4da9de-65d5-4b03-a151-94016d9571a2","ios":"levelo://app?vid=cc4da9de-65d5-4b03-a151-94016d9571a2"},"vehicle_type_id":"4","last_reported":1703614101,"current_range_meters":22800,"station_id":"ce4bgm92rcd13ifvqbr0","pricing_plan_id":"free"},{"bike_id":"b7e64b69-9850-47e5-b937-dba600477927","system_id":"levelo_inurba_marseille","lat":43.298516,"lon":5.362898,"is_reserved":false,"is_disabled":false,"rental_uris":{"android":"levelo://app?vid=b7e64b69-9850-47e5-b937-dba600477927","ios":"levelo://app?vid=b7e64b69-9850-47e5-b937-dba600477927"},"vehicle_type_id":"4","last_reported":1703614101,"current_range_meters":31200,"station_id":"ce4bgpp2rcd13ifvqc3g","pricing_plan_id":"free"},{"bike_id":"6e33b6f2-797c-4e8c-8af1-3add54dba90a","system_id":"levelo_inurba_marseille","lat":43.298444,"lon":5.362951,"is_reserved":false,"is_disabled":false,"rental_uris":{"android":"levelo://app?vid=6e33b6f2-797c-4e8c-8af1-3add54dba90a","ios":"levelo://app?vid=6e33b6f2-797c-4e8c-8af1-3add54dba90a"},"vehicle_type_id":"4","last_reported":1703614101,"current_range_meters":19200,"station_id":"ce4bgpp2rcd13ifvqc3g","pricing_plan_id":"free"},{"bike_id":"a35359b4-188d-4f34-a049-cb96b784db3d","system_id":"levelo_inurba_marseille","lat":43.311722,"lon":5.387247,"is_reserved":false,"is_disabled":false,"rental_uris":{"android":"levelo://app?vid=a35359b4-188d-4f34-a049-cb96b784db3d","ios":"levelo://app?vid=a35359b4-188d-4f34-a049-cb96b784db3d"},"vehicle_type_id":"4","last_reported":1703614101,"current_range_meters":13200,"station_id":"ce4bgv12rcd13ifvqcp0","pricing_plan_id":"free"},{"bike_id":"4a88de63-682f-44d3-b391-fe33da53a356","system_id":"levelo_inurba_marseille","lat":43.297774,"lon":5.370875,"is_reserved":false,"is_disabled":false,"rental_uris":{"android":"levelo://app?vid=4a88de63-682f-44d3-b391-fe33da53a356","ios":"levelo://app?vid=4a88de63-682f-44d3-b391-fe33da53a356"},"vehicle_type_id":"4","last_reported":1703614101,"current_range_meters":29200,"station_id":"ce4bgop2rcd13ifvqc1g","pricing_plan_id":"free"},{"bike_id":"7b35961e-ce26-4a19-be21-bf42fab4fce9","system_id":"levelo_inurba_marseille","lat":43.322872,"lon":5.382756,"is_reserved":false,"is_disabled":false,"rental_uris":{"android":"levelo://app?vid=7b35961e-ce26-4a19-be21-bf42fab4fce9","ios":"levelo://app?vid=7b35961e-ce26-4a19-be21-bf42fab4fce9"},"vehicle_type_id":"4","last_reported":1703614101,"current_range_meters":26000,"station_id":"ce4bhr12rcd13ifvqhqg","pricing_plan_id":"free"},{"bike_id":"1cecd7ec-d453-43c5-a38d-0ee14477aaf1","system_id":"levelo_inurba_marseille","lat":43.322872,"lon":5.382756,"is_reserved":false,"is_disabled":false,"rental_uris":{"android":"levelo://app?vid=1cecd7ec-d453-43c5-a38d-0ee14477aaf1","ios":"levelo://app?vid=1cecd7ec-d453-43c5-a38d-0ee14477aaf1"},"vehicle_type_id":"4","last_reported":1703614101,"current_range_meters":26000,"station_id":"ce4bhr12rcd13ifvqhqg","pricing_plan_id":"free"},{"bike_id":"deaa60e3-faa1-4618-a611-d4fd33052f5d","system_id":"levelo_inurba_marseille","lat":43.32816,"lon":5.36636,"is_reserved":false,"is_disabled":false,"rental_uris":{"android":"levelo://app?vid=deaa60e3-faa1-4618-a611-d4fd33052f5d","ios":"levelo://app?vid=deaa60e3-faa1-4618-a611-d4fd33052f5d"},"vehicle_type_id":"4","last_reported":1703614101,"current_range_meters":28800,"station_id":"ce4bhs92rcd13ifvqi0g","pricing_plan_id":"free"},{"bike_id":"5fed18d1-7f81-4167-a351-7c4be7bb7921","system_id":"levelo_inurba_marseille","lat":43.32822,"lon":5.36662,"is_reserved":false,"is_disabled":false,"rental_uris":{"android":"levelo://app?vid=5fed18d1-7f81-4167-a351-7c4be7bb7921","ios":"levelo://app?vid=5fed18d1-7f81-4167-a351-7c4be7bb7921"},"vehicle_type_id":"4","last_reported":1703614101,"current_range_meters":25200,"station_id":"ce4bhs92rcd13ifvqi0g","pricing_plan_id":"free"},{"bike_id":"5c89eee7-6e83-42b4-bd81-efdcf68f6666","system_id":"levelo_inurba_marseille","lat":43.32824,"lon":5.36668,"is_reserved":false,"is_disabled":false,"rental_uris":{"android":"levelo://app?vid=5c89eee7-6e83-42b4-bd81-efdcf68f6666","ios":"levelo://app?vid=5c89eee7-6e83-42b4-bd81-efdcf68f6666"},"vehicle_type_id":"4","last_reported":1703614101,"current_range_meters":28800,"station_id":"ce4bhs92rcd13ifvqi0g","pricing_plan_id":"free"},{"bike_id":"51714c4a-3132-4951-88ec-80e85fa125e8","system_id":"levelo_inurba_marseille","lat":43.328245,"lon":5.36687,"is_reserved":false,"is_disabled":false,"rental_uris":{"android":"levelo://app?vid=51714c4a-3132-4951-88ec-80e85fa125e8","ios":"levelo://app?vid=51714c4a-3132-4951-88ec-80e85fa125e8"},"vehicle_type_id":"4","last_reported":1703614101,"current_range_meters":27200,"station_id":"ce4bhs92rcd13ifvqi0g","pricing_plan_id":"free"},{"bike_id":"acc7f1fe-f6d4-44df-8a2c-5075bd906f80","system_id":"levelo_inurba_marseille","lat":43.32826,"lon":5.36692,"is_reserved":false,"is_disabled":false,"rental_uris":{"android":"levelo://app?vid=acc7f1fe-f6d4-44df-8a2c-5075bd906f80","ios":"levelo://app?vid=acc7f1fe-f6d4-44df-8a2c-5075bd906f80"},"vehicle_type_id":"4","last_reported":1703614101,"current_range_meters":23200,"station_id":"ce4bhs92rcd13ifvqi0g","pricing_plan_id":"free"},{"bike_id":"a448ca86-2b35-41e1-89c4-32a99bab0563","system_id":"levelo_inurba_marseille","lat":43.328371,"lon":5.366912,"is_reserved":false,"is_disabled":false,"rental_uris":{"android":"levelo://app?vid=a448ca86-2b35-41e1-89c4-32a99bab0563","ios":"levelo://app?vid=a448ca86-2b35-41e1-89c4-32a99bab0563"},"vehicle_type_id":"4","last_reported":1703614101,"current_range_meters":31200,"station_id":"ce4bhs92rcd13ifvqi0g","pricing_plan_id":"free"},{"bike_id":"6f67326a-1664-406f-9978-902e013e2357","system_id":"levelo_inurba_marseille","lat":43.328371,"lon":5.366909,"is_reserved":false,"is_disabled":false,"rental_uris":{"android":"levelo://app?vid=6f67326a-1664-406f-9978-902e013e2357","ios":"levelo://app?vid=6f67326a-1664-406f-9978-902e013e2357"},"vehicle_type_id":"4","last_reported":1703614101,"current_range_meters":30800,"station_id":"ce4bhs92rcd13ifvqi0g","pricing_plan_id":"free"},{"bike_id":"904f83aa-e9ab-401d-84c1-9edfed82b884","system_id":"levelo_inurba_marseille","lat":43.328371,"lon":5.366909,"is_reserved":false,"is_disabled":false,"rental_uris":{"android":"levelo://app?vid=904f83aa-e9ab-401d-84c1-9edfed82b884","ios":"levelo://app?vid=904f83aa-e9ab-401d-84c1-9edfed82b884"},"vehicle_type_id":"4","last_reported":1703614101,"current_range_meters":18400,"station_id":"ce4bhs92rcd13ifvqi0g","pricing_plan_id":"free"},{"bike_id":"de708f00-7118-4d7c-9021-d7dcbd798473","system_id":"levelo_inurba_marseille","lat":43.328371,"lon":5.366909,"is_reserved":false,"is_disabled":false,"rental_uris":{"android":"levelo://app?vid=de708f00-7118-4d7c-9021-d7dcbd798473","ios":"levelo://app?vid=de708f00-7118-4d7c-9021-d7dcbd798473"},"vehicle_type_id":"4","last_reported":1703614101,"current_range_meters":24400,"station_id":"ce4bhs92rcd13ifvqi0g","pricing_plan_id":"free"},{"bike_id":"40c2b532-aa81-4c78-b896-98260fc2f589","system_id":"levelo_inurba_marseille","lat":43.297163,"lon":5.365866,"is_reserved":false,"is_disabled":false,"rental_uris":{"android":"levelo://app?vid=40c2b532-aa81-4c78-b896-98260fc2f589","ios":"levelo://app?vid=40c2b532-aa81-4c78-b896-98260fc2f589"},"vehicle_type_id":"4","last_reported":1703614101,"current_range_meters":31200,"station_id":"ce4bgn12rcd13ifvqbt0","pricing_plan_id":"free"},{"bike_id":"7cd124e5-cd1f-48aa-b0d7-982c276a2779","system_id":"levelo_inurba_marseille","lat":43.2968,"lon":5.37291,"is_reserved":false,"is_disabled":false,"rental_uris":{"android":"levelo://app?vid=7cd124e5-cd1f-48aa-b0d7-982c276a2779","ios":"levelo://app?vid=7cd124e5-cd1f-48aa-b0d7-982c276a2779"},"vehicle_type_id":"4","last_reported":1703614101,"current_range_meters":20000,"station_id":"ce4bgk12rcd13ifvqbj0","pricing_plan_id":"free"},{"bike_id":"921b424d-ad0d-4c7a-9d74-66e3a49bfa19","system_id":"levelo_inurba_marseille","lat":43.32934,"lon":5.36612,"is_reserved":false,"is_disabled":false,"rental_uris":{"android":"levelo://app?vid=921b424d-ad0d-4c7a-9d74-66e3a49bfa19","ios":"levelo://app?vid=921b424d-ad0d-4c7a-9d74-66e3a49bfa19"},"vehicle_type_id":"4","last_reported":1703614101,"current_range_meters":20400,"station_id":"","pricing_plan_id":"free"},{"bike_id":"e1dc9a31-7ea3-4fb8-8dd0-80b4801d009d","system_id":"levelo_inurba_marseille","lat":43.296935,"lon":5.376544,"is_reserved":false,"is_disabled":false,"rental_uris":{"android":"levelo://app?vid=e1dc9a31-7ea3-4fb8-8dd0-80b4801d009d","ios":"levelo://app?vid=e1dc9a31-7ea3-4fb8-8dd0-80b4801d009d"},"vehicle_type_id":"4","last_reported":1703614101,"current_range_meters":7600,"station_id":"ce4bgkh2rcd13ifvqbl0","pricing_plan_id":"free"},{"bike_id":"90a03234-1383-47b3-af08-374630d56e98","system_id":"levelo_inurba_marseille","lat":43.296935,"lon":5.376544,"is_reserved":false,"is_disabled":false,"rental_uris":{"android":"levelo://app?vid=90a03234-1383-47b3-af08-374630d56e98","ios":"levelo://app?vid=90a03234-1383-47b3-af08-374630d56e98"},"vehicle_type_id":"4","last_reported":1703614101,"current_range_meters":22000,"station_id":"ce4bgkh2rcd13ifvqbl0","pricing_plan_id":"free"},{"bike_id":"02b31deb-8d27-47bf-bbf0-4ae52b237d44","system_id":"levelo_inurba_marseille","lat":43.317557,"lon":5.390173,"is_reserved":false,"is_disabled":false,"rental_uris":{"android":"levelo://app?vid=02b31deb-8d27-47bf-bbf0-4ae52b237d44","ios":"levelo://app?vid=02b31deb-8d27-47bf-bbf0-4ae52b237d44"},"vehicle_type_id":"4","last_reported":1703614101,"current_range_meters":18000,"station_id":"ce4bhqp2rcd13ifvqhng","pricing_plan_id":"free"},{"bike_id":"11a450a5-1df3-45ed-90fc-ffc21ef858f6","system_id":"levelo_inurba_marseille","lat":43.304193,"lon":5.387983,"is_reserved":false,"is_disabled":false,"rental_uris":{"android":"levelo://app?vid=11a450a5-1df3-45ed-90fc-ffc21ef858f6","ios":"levelo://app?vid=11a450a5-1df3-45ed-90fc-ffc21ef858f6"},"vehicle_type_id":"4","last_reported":1703614101,"current_range_meters":20400,"station_id":"","pricing_plan_id":"free"},{"bike_id":"14ab3560-2354-4f11-9358-4e47520a0c26","system_id":"levelo_inurba_marseille","lat":43.317557,"lon":5.390173,"is_reserved":false,"is_disabled":false,"rental_uris":{"android":"levelo://app?vid=14ab3560-2354-4f11-9358-4e47520a0c26","ios":"levelo://app?vid=14ab3560-2354-4f11-9358-4e47520a0c26"},"vehicle_type_id":"4","last_reported":1703614101,"current_range_meters":17600,"station_id":"ce4bhqp2rcd13ifvqhng","pricing_plan_id":"free"},{"bike_id":"702b7326-8feb-49b6-8f9f-eb8afb8f021d","system_id":"levelo_inurba_marseille","lat":43.317557,"lon":5.390173,"is_reserved":false,"is_disabled":false,"rental_uris":{"android":"levelo://app?vid=702b7326-8feb-49b6-8f9f-eb8afb8f021d","ios":"levelo://app?vid=702b7326-8feb-49b6-8f9f-eb8afb8f021d"},"vehicle_type_id":"4","last_reported":1703614101,"current_range_meters":17200,"station_id":"ce4bhqp2rcd13ifvqhng","pricing_plan_id":"free"},{"bike_id":"6630e8ed-1566-484d-9bc5-1cd9908d4453","system_id":"levelo_inurba_marseille","lat":43.317557,"lon":5.390173,"is_reserved":false,"is_disabled":false,"rental_uris":{"android":"levelo://app?vid=6630e8ed-1566-484d-9bc5-1cd9908d4453","ios":"levelo://app?vid=6630e8ed-1566-484d-9bc5-1cd9908d4453"},"vehicle_type_id":"4","last_reported":1703614101,"current_range_meters":31200,"station_id":"ce4bhqp2rcd13ifvqhng","pricing_plan_id":"free"},{"bike_id":"c9d9086a-89a1-47ce-80fd-f25bfede78ef","system_id":"levelo_inurba_marseille","lat":43.292644,"lon":5.384257,"is_reserved":false,"is_disabled":false,"rental_uris":{"android":"levelo://app?vid=c9d9086a-89a1-47ce-80fd-f25bfede78ef","ios":"levelo://app?vid=c9d9086a-89a1-47ce-80fd-f25bfede78ef"},"vehicle_type_id":"4","last_reported":1703614101,"current_range_meters":18000,"station_id":"ce4bh692rcd13ifvqea0","pricing_plan_id":"free"},{"bike_id":"d610dc3b-e90c-4ee3-8957-c3a8878f35dd","system_id":"levelo_inurba_marseille","lat":43.29601,"lon":5.381084,"is_reserved":false,"is_disabled":false,"rental_uris":{"android":"levelo://app?vid=d610dc3b-e90c-4ee3-8957-c3a8878f35dd","ios":"levelo://app?vid=d610dc3b-e90c-4ee3-8957-c3a8878f35dd"},"vehicle_type_id":"4","last_reported":1703614101,"current_range_meters":9600,"station_id":"ce4bgl12rcd13ifvqbo0","pricing_plan_id":"free"},{"bike_id":"b28037bb-a9f5-4150-8758-7d7f6f529dac","system_id":"levelo_inurba_marseille","lat":43.32367,"lon":5.38877,"is_reserved":false,"is_disabled":false,"rental_uris":{"android":"levelo://app?vid=b28037bb-a9f5-4150-8758-7d7f6f529dac","ios":"levelo://app?vid=b28037bb-a9f5-4150-8758-7d7f6f529dac"},"vehicle_type_id":"4","last_reported":1703614101,"current_range_meters":13200,"station_id":"ce4bhqp2rcd13ifvqhog","pricing_plan_id":"free"},{"bike_id":"0aeff03b-c088-4633-a9b9-ca0ac8a59c2c","system_id":"levelo_inurba_marseille","lat":43.32367,"lon":5.38883,"is_reserved":false,"is_disabled":false,"rental_uris":{"android":"levelo://app?vid=0aeff03b-c088-4633-a9b9-ca0ac8a59c2c","ios":"levelo://app?vid=0aeff03b-c088-4633-a9b9-ca0ac8a59c2c"},"vehicle_type_id":"4","last_reported":1703614101,"current_range_meters":5200,"station_id":"ce4bhqp2rcd13ifvqhog","pricing_plan_id":"free"},{"bike_id":"6229a11e-67ff-4128-994f-a106996e1234","system_id":"levelo_inurba_marseille","lat":43.32367,"lon":5.388836,"is_reserved":false,"is_disabled":false,"rental_uris":{"android":"levelo://app?vid=6229a11e-67ff-4128-994f-a106996e1234","ios":"levelo://app?vid=6229a11e-67ff-4128-994f-a106996e1234"},"vehicle_type_id":"4","last_reported":1703614101,"current_range_meters":7200,"station_id":"ce4bhqp2rcd13ifvqhog","pricing_plan_id":"free"},{"bike_id":"b83c8fd4-a17a-4b11-9bb1-c71fbbfa6596","system_id":"levelo_inurba_marseille","lat":43.29898,"lon":5.386337,"is_reserved":false,"is_disabled":false,"rental_uris":{"android":"levelo://app?vid=b83c8fd4-a17a-4b11-9bb1-c71fbbfa6596","ios":"levelo://app?vid=b83c8fd4-a17a-4b11-9bb1-c71fbbfa6596"},"vehicle_type_id":"4","last_reported":1703614101,"current_range_meters":22800,"station_id":"","pricing_plan_id":"free"},{"bike_id":"26ba0bf8-bcdc-4522-9c8f-850e7bc2de96","system_id":"levelo_inurba_marseille","lat":43.29904,"lon":5.386417,"is_reserved":false,"is_disabled":false,"rental_uris":{"android":"levelo://app?vid=26ba0bf8-bcdc-4522-9c8f-850e7bc2de96","ios":"levelo://app?vid=26ba0bf8-bcdc-4522-9c8f-850e7bc2de96"},"vehicle_type_id":"4","last_reported":1703614101,"current_range_meters":21200,"station_id":"","pricing_plan_id":"free"},{"bike_id":"9012f819-c033-4be0-92cc-28c7aae3f5cc","system_id":"levelo_inurba_marseille","lat":43.29894,"lon":5.386403,"is_reserved":false,"is_disabled":false,"rental_uris":{"android":"levelo://app?vid=9012f819-c033-4be0-92cc-28c7aae3f5cc","ios":"levelo://app?vid=9012f819-c033-4be0-92cc-28c7aae3f5cc"},"vehicle_type_id":"4","last_reported":1703614101,"current_range_meters":23600,"station_id":"","pricing_plan_id":"free"},{"bike_id":"0dc697aa-4493-4f25-83a3-34e29b7178ff","system_id":"levelo_inurba_marseille","lat":43.292749,"lon":5.368398,"is_reserved":false,"is_disabled":false,"rental_uris":{"android":"levelo://app?vid=0dc697aa-4493-4f25-83a3-34e29b7178ff","ios":"levelo://app?vid=0dc697aa-4493-4f25-83a3-34e29b7178ff"},"vehicle_type_id":"4","last_reported":1703614101,"current_range_meters":30800,"station_id":"ce4bhbp2rcd13ifvqesg","pricing_plan_id":"free"},{"bike_id":"bad63b56-53cc-4291-aab7-feb910af0055","system_id":"levelo_inurba_marseille","lat":43.293249,"lon":5.371578,"is_reserved":false,"is_disabled":false,"rental_uris":{"android":"levelo://app?vid=bad63b56-53cc-4291-aab7-feb910af0055","ios":"levelo://app?vid=bad63b56-53cc-4291-aab7-feb910af0055"},"vehicle_type_id":"4","last_reported":1703614101,"current_range_meters":20000,"station_id":"ce4bgh92rcd13ifvqb40","pricing_plan_id":"free"},{"bike_id":"e298088e-eda3-4e31-b23b-9300ce0d3858","system_id":"levelo_inurba_marseille","lat":43.305994,"lon":5.393687,"is_reserved":false,"is_disabled":false,"rental_uris":{"android":"levelo://app?vid=e298088e-eda3-4e31-b23b-9300ce0d3858","ios":"levelo://app?vid=e298088e-eda3-4e31-b23b-9300ce0d3858"},"vehicle_type_id":"4","last_reported":1703614101,"current_range_meters":8800,"station_id":"ce4bh0p2rcd13ifvqd80","pricing_plan_id":"free"},{"bike_id":"c12cf31a-f1d6-4077-ad25-1f11ecab7a76","system_id":"levelo_inurba_marseille","lat":43.303,"lon":5.39205,"is_reserved":false,"is_disabled":false,"rental_uris":{"android":"levelo://app?vid=c12cf31a-f1d6-4077-ad25-1f11ecab7a76","ios":"levelo://app?vid=c12cf31a-f1d6-4077-ad25-1f11ecab7a76"},"vehicle_type_id":"4","last_reported":1703614101,"current_range_meters":21600,"station_id":"ce4bgkh2rcd13ifvqbk0","pricing_plan_id":"free"},{"bike_id":"a5cc0575-30af-4d2e-888d-07de9b20b30d","system_id":"levelo_inurba_marseille","lat":43.302992,"lon":5.392136,"is_reserved":false,"is_disabled":false,"rental_uris":{"android":"levelo://app?vid=a5cc0575-30af-4d2e-888d-07de9b20b30d","ios":"levelo://app?vid=a5cc0575-30af-4d2e-888d-07de9b20b30d"},"vehicle_type_id":"4","last_reported":1703614101,"current_range_meters":18000,"station_id":"ce4bgkh2rcd13ifvqbk0","pricing_plan_id":"free"},{"bike_id":"a6c478e6-554c-4570-a53b-a57aeca6c785","system_id":"levelo_inurba_marseille","lat":43.292311,"lon":5.360731,"is_reserved":false,"is_disabled":false,"rental_uris":{"android":"levelo://app?vid=a6c478e6-554c-4570-a53b-a57aeca6c785","ios":"levelo://app?vid=a6c478e6-554c-4570-a53b-a57aeca6c785"},"vehicle_type_id":"4","last_reported":1703614101,"current_range_meters":18400,"station_id":"ce4bhbh2rcd13ifvqeqg","pricing_plan_id":"free"},{"bike_id":"389b2b5c-75e4-4f8b-8209-de11f9f8e70e","system_id":"levelo_inurba_marseille","lat":43.292311,"lon":5.360731,"is_reserved":false,"is_disabled":false,"rental_uris":{"android":"levelo://app?vid=389b2b5c-75e4-4f8b-8209-de11f9f8e70e","ios":"levelo://app?vid=389b2b5c-75e4-4f8b-8209-de11f9f8e70e"},"vehicle_type_id":"4","last_reported":1703614101,"current_range_meters":25600,"station_id":"ce4bhbh2rcd13ifvqeqg","pricing_plan_id":"free"},{"bike_id":"adcf9d60-7ace-476e-a407-0a8ade18cb37","system_id":"levelo_inurba_marseille","lat":43.292311,"lon":5.360731,"is_reserved":false,"is_disabled":false,"rental_uris":{"android":"levelo://app?vid=adcf9d60-7ace-476e-a407-0a8ade18cb37","ios":"levelo://app?vid=adcf9d60-7ace-476e-a407-0a8ade18cb37"},"vehicle_type_id":"4","last_reported":1703614101,"current_range_meters":30000,"station_id":"ce4bhbh2rcd13ifvqeqg","pricing_plan_id":"free"},{"bike_id":"5988ce9f-473a-4bf4-87d6-88005766eb18","system_id":"levelo_inurba_marseille","lat":43.291675,"lon":5.371583,"is_reserved":false,"is_disabled":false,"rental_uris":{"android":"levelo://app?vid=5988ce9f-473a-4bf4-87d6-88005766eb18","ios":"levelo://app?vid=5988ce9f-473a-4bf4-87d6-88005766eb18"},"vehicle_type_id":"4","last_reported":1703614101,"current_range_meters":22800,"station_id":"ce4bha92rcd13ifvqeh0","pricing_plan_id":"free"},{"bike_id":"1bb700d2-6de6-40ae-97b1-d48f6723d97f","system_id":"levelo_inurba_marseille","lat":43.291671,"lon":5.371575,"is_reserved":false,"is_disabled":false,"rental_uris":{"android":"levelo://app?vid=1bb700d2-6de6-40ae-97b1-d48f6723d97f","ios":"levelo://app?vid=1bb700d2-6de6-40ae-97b1-d48f6723d97f"},"vehicle_type_id":"4","last_reported":1703614101,"current_range_meters":12000,"station_id":"ce4bha92rcd13ifvqeh0","pricing_plan_id":"free"},{"bike_id":"3bb8d376-dbd2-41c8-81d7-29c11ff68e70","system_id":"levelo_inurba_marseille","lat":43.298717,"lon":5.388999,"is_reserved":false,"is_disabled":false,"rental_uris":{"android":"levelo://app?vid=3bb8d376-dbd2-41c8-81d7-29c11ff68e70","ios":"levelo://app?vid=3bb8d376-dbd2-41c8-81d7-29c11ff68e70"},"vehicle_type_id":"4","last_reported":1703614101,"current_range_meters":20000,"station_id":"","pricing_plan_id":"free"},{"bike_id":"1bb7557e-eac8-4579-af6c-b9683358fea4","system_id":"levelo_inurba_marseille","lat":43.29872,"lon":5.389058,"is_reserved":false,"is_disabled":false,"rental_uris":{"android":"levelo://app?vid=1bb7557e-eac8-4579-af6c-b9683358fea4","ios":"levelo://app?vid=1bb7557e-eac8-4579-af6c-b9683358fea4"},"vehicle_type_id":"4","last_reported":1703614101,"current_range_meters":23600,"station_id":"","pricing_plan_id":"free"},{"bike_id":"00adc04f-d541-4aac-9c27-7e0bf1935a73","system_id":"levelo_inurba_marseille","lat":43.298583,"lon":5.388943,"is_reserved":false,"is_disabled":false,"rental_uris":{"android":"levelo://app?vid=00adc04f-d541-4aac-9c27-7e0bf1935a73","ios":"levelo://app?vid=00adc04f-d541-4aac-9c27-7e0bf1935a73"},"vehicle_type_id":"4","last_reported":1703614101,"current_range_meters":15200,"station_id":"","pricing_plan_id":"free"},{"bike_id":"f8ad87fb-faf9-4310-8434-bc415fdf4816","system_id":"levelo_inurba_marseille","lat":43.29867,"lon":5.38909,"is_reserved":false,"is_disabled":false,"rental_uris":{"android":"levelo://app?vid=f8ad87fb-faf9-4310-8434-bc415fdf4816","ios":"levelo://app?vid=f8ad87fb-faf9-4310-8434-bc415fdf4816"},"vehicle_type_id":"4","last_reported":1703614101,"current_range_meters":22000,"station_id":"","pricing_plan_id":"free"},{"bike_id":"83da56ef-c98e-4a29-9845-cefd5b085f83","system_id":"levelo_inurba_marseille","lat":43.309038,"lon":5.396546,"is_reserved":false,"is_disabled":false,"rental_uris":{"android":"levelo://app?vid=83da56ef-c98e-4a29-9845-cefd5b085f83","ios":"levelo://app?vid=83da56ef-c98e-4a29-9845-cefd5b085f83"},"vehicle_type_id":"4","last_reported":1703614101,"current_range_meters":31200,"station_id":"ce4bh012rcd13ifvqcv0","pricing_plan_id":"free"},{"bike_id":"32e6c3f6-bd36-487e-aba2-da0886bfd5d0","system_id":"levelo_inurba_marseille","lat":43.308887,"lon":5.3964,"is_reserved":false,"is_disabled":false,"rental_uris":{"android":"levelo://app?vid=32e6c3f6-bd36-487e-aba2-da0886bfd5d0","ios":"levelo://app?vid=32e6c3f6-bd36-487e-aba2-da0886bfd5d0"},"vehicle_type_id":"4","last_reported":1703614101,"current_range_meters":10000,"station_id":"ce4bh012rcd13ifvqcv0","pricing_plan_id":"free"},{"bike_id":"6e41d692-23fc-4ffb-833f-520f69f97811","system_id":"levelo_inurba_marseille","lat":43.313291,"lon":5.396838,"is_reserved":false,"is_disabled":false,"rental_uris":{"android":"levelo://app?vid=6e41d692-23fc-4ffb-833f-520f69f97811","ios":"levelo://app?vid=6e41d692-23fc-4ffb-833f-520f69f97811"},"vehicle_type_id":"4","last_reported":1703614101,"current_range_meters":5600,"station_id":"ce4bgvp2rcd13ifvqcu0","pricing_plan_id":"free"},{"bike_id":"46d0f64c-11ea-4ec1-acf6-82933feca189","system_id":"levelo_inurba_marseille","lat":43.313291,"lon":5.396838,"is_reserved":false,"is_disabled":false,"rental_uris":{"android":"levelo://app?vid=46d0f64c-11ea-4ec1-acf6-82933feca189","ios":"levelo://app?vid=46d0f64c-11ea-4ec1-acf6-82933feca189"},"vehicle_type_id":"4","last_reported":1703614101,"current_range_meters":18800,"station_id":"ce4bgvp2rcd13ifvqcu0","pricing_plan_id":"free"},{"bike_id":"94113dfe-1841-4eb4-a206-dfb275cb371b","system_id":"levelo_inurba_marseille","lat":43.309047,"lon":5.396551,"is_reserved":false,"is_disabled":false,"rental_uris":{"android":"levelo://app?vid=94113dfe-1841-4eb4-a206-dfb275cb371b","ios":"levelo://app?vid=94113dfe-1841-4eb4-a206-dfb275cb371b"},"vehicle_type_id":"4","last_reported":1703614101,"current_range_meters":28800,"station_id":"ce4bh012rcd13ifvqcv0","pricing_plan_id":"free"},{"bike_id":"c58ba41a-636f-4589-8431-bb83ec018498","system_id":"levelo_inurba_marseille","lat":43.313291,"lon":5.396838,"is_reserved":false,"is_disabled":false,"rental_uris":{"android":"levelo://app?vid=c58ba41a-636f-4589-8431-bb83ec018498","ios":"levelo://app?vid=c58ba41a-636f-4589-8431-bb83ec018498"},"vehicle_type_id":"4","last_reported":1703614101,"current_range_meters":19600,"station_id":"ce4bgvp2rcd13ifvqcu0","pricing_plan_id":"free"},{"bike_id":"9ac3d446-5ebd-44be-b20a-21849522d3f5","system_id":"levelo_inurba_marseille","lat":43.309047,"lon":5.396551,"is_reserved":false,"is_disabled":false,"rental_uris":{"android":"levelo://app?vid=9ac3d446-5ebd-44be-b20a-21849522d3f5","ios":"levelo://app?vid=9ac3d446-5ebd-44be-b20a-21849522d3f5"},"vehicle_type_id":"4","last_reported":1703614101,"current_range_meters":16400,"station_id":"ce4bh012rcd13ifvqcv0","pricing_plan_id":"free"},{"bike_id":"9ce2da2b-a8bd-495a-b004-cf7a4f0878ef","system_id":"levelo_inurba_marseille","lat":43.29529,"lon":5.385581,"is_reserved":false,"is_disabled":false,"rental_uris":{"android":"levelo://app?vid=9ce2da2b-a8bd-495a-b004-cf7a4f0878ef","ios":"levelo://app?vid=9ce2da2b-a8bd-495a-b004-cf7a4f0878ef"},"vehicle_type_id":"4","last_reported":1703614101,"current_range_meters":30800,"station_id":"ce4bgih2rcd13ifvqba0","pricing_plan_id":"free"},{"bike_id":"37aa2ace-07a4-4393-888a-98e42e1ffc78","system_id":"levelo_inurba_marseille","lat":43.29529,"lon":5.385581,"is_reserved":false,"is_disabled":false,"rental_uris":{"android":"levelo://app?vid=37aa2ace-07a4-4393-888a-98e42e1ffc78","ios":"levelo://app?vid=37aa2ace-07a4-4393-888a-98e42e1ffc78"},"vehicle_type_id":"4","last_reported":1703614101,"current_range_meters":31200,"station_id":"ce4bgih2rcd13ifvqba0","pricing_plan_id":"free"},{"bike_id":"cbd65ac0-d4ea-4aff-958f-a3a914794e9e","system_id":"levelo_inurba_marseille","lat":43.29529,"lon":5.385581,"is_reserved":false,"is_disabled":false,"rental_uris":{"android":"levelo://app?vid=cbd65ac0-d4ea-4aff-958f-a3a914794e9e","ios":"levelo://app?vid=cbd65ac0-d4ea-4aff-958f-a3a914794e9e"},"vehicle_type_id":"4","last_reported":1703614101,"current_range_meters":7200,"station_id":"ce4bgih2rcd13ifvqba0","pricing_plan_id":"free"},{"bike_id":"0aa5d323-407a-4d75-a8e9-b77fe5e8bf6e","system_id":"levelo_inurba_marseille","lat":43.29529,"lon":5.385581,"is_reserved":false,"is_disabled":false,"rental_uris":{"android":"levelo://app?vid=0aa5d323-407a-4d75-a8e9-b77fe5e8bf6e","ios":"levelo://app?vid=0aa5d323-407a-4d75-a8e9-b77fe5e8bf6e"},"vehicle_type_id":"4","last_reported":1703614101,"current_range_meters":0,"station_id":"ce4bgih2rcd13ifvqba0","pricing_plan_id":"free"},{"bike_id":"1e5cf9c4-c357-4519-81a8-055640605e8f","system_id":"levelo_inurba_marseille","lat":43.290779,"lon":5.371482,"is_reserved":false,"is_disabled":false,"rental_uris":{"android":"levelo://app?vid=1e5cf9c4-c357-4519-81a8-055640605e8f","ios":"levelo://app?vid=1e5cf9c4-c357-4519-81a8-055640605e8f"},"vehicle_type_id":"4","last_reported":1703614101,"current_range_meters":17600,"station_id":"ce4bh5p2rcd13ifvqe4g","pricing_plan_id":"free"},{"bike_id":"79eaecdc-a3c8-4913-a3ee-a05ed81eddc9","system_id":"levelo_inurba_marseille","lat":43.29029,"lon":5.36938,"is_reserved":false,"is_disabled":false,"rental_uris":{"android":"levelo://app?vid=79eaecdc-a3c8-4913-a3ee-a05ed81eddc9","ios":"levelo://app?vid=79eaecdc-a3c8-4913-a3ee-a05ed81eddc9"},"vehicle_type_id":"4","last_reported":1703614101,"current_range_meters":400,"station_id":"ce4bh4p2rcd13ifvqe0g","pricing_plan_id":"free"},{"bike_id":"a899b957-f31d-418b-8379-94ce35e00c0e","system_id":"levelo_inurba_marseille","lat":43.290631,"lon":5.359244,"is_reserved":false,"is_disabled":false,"rental_uris":{"android":"levelo://app?vid=a899b957-f31d-418b-8379-94ce35e00c0e","ios":"levelo://app?vid=a899b957-f31d-418b-8379-94ce35e00c0e"},"vehicle_type_id":"4","last_reported":1703614101,"current_range_meters":26000,"station_id":"ce4bha92rcd13ifvqeg0","pricing_plan_id":"free"},{"bike_id":"b8284b2a-e025-4f82-bc57-6b47ee733640","system_id":"levelo_inurba_marseille","lat":43.294153,"lon":5.386305,"is_reserved":false,"is_disabled":false,"rental_uris":{"android":"levelo://app?vid=b8284b2a-e025-4f82-bc57-6b47ee733640","ios":"levelo://app?vid=b8284b2a-e025-4f82-bc57-6b47ee733640"},"vehicle_type_id":"4","last_reported":1703614101,"current_range_meters":13200,"station_id":"ce4bh2h2rcd13ifvqdh0","pricing_plan_id":"free"},{"bike_id":"8fc6dc51-1558-4258-8a5f-ce0063fbbaa3","system_id":"levelo_inurba_marseille","lat":43.289468,"lon":5.363719,"is_reserved":false,"is_disabled":false,"rental_uris":{"android":"levelo://app?vid=8fc6dc51-1558-4258-8a5f-ce0063fbbaa3","ios":"levelo://app?vid=8fc6dc51-1558-4258-8a5f-ce0063fbbaa3"},"vehicle_type_id":"4","last_reported":1703614101,"current_range_meters":26800,"station_id":"ce4bhc92rcd13ifvqetg","pricing_plan_id":"free"},{"bike_id":"95d09514-2d50-498d-b1be-de8878436da9","system_id":"levelo_inurba_marseille","lat":43.289184,"lon":5.366408,"is_reserved":false,"is_disabled":false,"rental_uris":{"android":"levelo://app?vid=95d09514-2d50-498d-b1be-de8878436da9","ios":"levelo://app?vid=95d09514-2d50-498d-b1be-de8878436da9"},"vehicle_type_id":"4","last_reported":1703614101,"current_range_meters":31200,"station_id":"ce4bhap2rcd13ifvqek0","pricing_plan_id":"free"},{"bike_id":"d31b1eb5-3088-488c-90ea-f71079308d4d","system_id":"levelo_inurba_marseille","lat":43.294153,"lon":5.386305,"is_reserved":false,"is_disabled":false,"rental_uris":{"android":"levelo://app?vid=d31b1eb5-3088-488c-90ea-f71079308d4d","ios":"levelo://app?vid=d31b1eb5-3088-488c-90ea-f71079308d4d"},"vehicle_type_id":"4","last_reported":1703614101,"current_range_meters":28400,"station_id":"ce4bh2h2rcd13ifvqdh0","pricing_plan_id":"free"},{"bike_id":"04a29f43-a762-4724-9b3b-a55c832cbf9e","system_id":"levelo_inurba_marseille","lat":43.289184,"lon":5.366408,"is_reserved":false,"is_disabled":false,"rental_uris":{"android":"levelo://app?vid=04a29f43-a762-4724-9b3b-a55c832cbf9e","ios":"levelo://app?vid=04a29f43-a762-4724-9b3b-a55c832cbf9e"},"vehicle_type_id":"4","last_reported":1703614101,"current_range_meters":24000,"station_id":"ce4bhap2rcd13ifvqek0","pricing_plan_id":"free"},{"bike_id":"23662936-7627-44fa-a071-ee28f6713241","system_id":"levelo_inurba_marseille","lat":43.292644,"lon":5.384257,"is_reserved":false,"is_disabled":false,"rental_uris":{"android":"levelo://app?vid=23662936-7627-44fa-a071-ee28f6713241","ios":"levelo://app?vid=23662936-7627-44fa-a071-ee28f6713241"},"vehicle_type_id":"4","last_reported":1703614101,"current_range_meters":24400,"station_id":"ce4bh692rcd13ifvqea0","pricing_plan_id":"free"},{"bike_id":"e1f87e32-a9e8-49e2-8b4f-15d7dcc108de","system_id":"levelo_inurba_marseille","lat":43.292642,"lon":5.384254,"is_reserved":false,"is_disabled":false,"rental_uris":{"android":"levelo://app?vid=e1f87e32-a9e8-49e2-8b4f-15d7dcc108de","ios":"levelo://app?vid=e1f87e32-a9e8-49e2-8b4f-15d7dcc108de"},"vehicle_type_id":"4","last_reported":1703614101,"current_range_meters":14000,"station_id":"ce4bh692rcd13ifvqea0","pricing_plan_id":"free"},{"bike_id":"3c158253-bbee-4d5d-be1b-313272f3d471","system_id":"levelo_inurba_marseille","lat":43.292642,"lon":5.384254,"is_reserved":false,"is_disabled":false,"rental_uris":{"android":"levelo://app?vid=3c158253-bbee-4d5d-be1b-313272f3d471","ios":"levelo://app?vid=3c158253-bbee-4d5d-be1b-313272f3d471"},"vehicle_type_id":"4","last_reported":1703614101,"current_range_meters":25200,"station_id":"ce4bh692rcd13ifvqea0","pricing_plan_id":"free"},{"bike_id":"aeef21ff-8122-4b12-8f1a-697c5bb6a5ad","system_id":"levelo_inurba_marseille","lat":43.292644,"lon":5.384257,"is_reserved":false,"is_disabled":false,"rental_uris":{"android":"levelo://app?vid=aeef21ff-8122-4b12-8f1a-697c5bb6a5ad","ios":"levelo://app?vid=aeef21ff-8122-4b12-8f1a-697c5bb6a5ad"},"vehicle_type_id":"4","last_reported":1703614101,"current_range_meters":15200,"station_id":"ce4bh692rcd13ifvqea0","pricing_plan_id":"free"},{"bike_id":"34f401e4-3678-42c7-b41d-3d19b7b62510","system_id":"levelo_inurba_marseille","lat":43.30425,"lon":5.397553,"is_reserved":false,"is_disabled":false,"rental_uris":{"android":"levelo://app?vid=34f401e4-3678-42c7-b41d-3d19b7b62510","ios":"levelo://app?vid=34f401e4-3678-42c7-b41d-3d19b7b62510"},"vehicle_type_id":"4","last_reported":1703614101,"current_range_meters":24400,"station_id":"ce4bh092rcd13ifvqd20","pricing_plan_id":"free"},{"bike_id":"0a5283ad-c1e3-4154-8926-97ef69636c54","system_id":"levelo_inurba_marseille","lat":43.290995,"lon":5.381361,"is_reserved":false,"is_disabled":false,"rental_uris":{"android":"levelo://app?vid=0a5283ad-c1e3-4154-8926-97ef69636c54","ios":"levelo://app?vid=0a5283ad-c1e3-4154-8926-97ef69636c54"},"vehicle_type_id":"4","last_reported":1703614101,"current_range_meters":12400,"station_id":"ce4bh512rcd13ifvqe2g","pricing_plan_id":"free"},{"bike_id":"7528b2c6-0071-4cbe-b556-7a0cb6294854","system_id":"levelo_inurba_marseille","lat":43.29785,"lon":5.39337,"is_reserved":false,"is_disabled":false,"rental_uris":{"android":"levelo://app?vid=7528b2c6-0071-4cbe-b556-7a0cb6294854","ios":"levelo://app?vid=7528b2c6-0071-4cbe-b556-7a0cb6294854"},"vehicle_type_id":"4","last_reported":1703614101,"current_range_meters":16800,"station_id":"chh1huq6cuj3fo74tm60","pricing_plan_id":"free"},{"bike_id":"9e64f113-6936-4491-89c9-8c0889fef29c","system_id":"levelo_inurba_marseille","lat":43.297815,"lon":5.393548,"is_reserved":false,"is_disabled":false,"rental_uris":{"android":"levelo://app?vid=9e64f113-6936-4491-89c9-8c0889fef29c","ios":"levelo://app?vid=9e64f113-6936-4491-89c9-8c0889fef29c"},"vehicle_type_id":"4","last_reported":1703614101,"current_range_meters":12800,"station_id":"chh1huq6cuj3fo74tm60","pricing_plan_id":"free"},{"bike_id":"495faf64-a935-4c6e-b77f-2b296d14493a","system_id":"levelo_inurba_marseille","lat":43.331017,"lon":5.389194,"is_reserved":false,"is_disabled":false,"rental_uris":{"android":"levelo://app?vid=495faf64-a935-4c6e-b77f-2b296d14493a","ios":"levelo://app?vid=495faf64-a935-4c6e-b77f-2b296d14493a"},"vehicle_type_id":"4","last_reported":1703614101,"current_range_meters":20000,"station_id":"","pricing_plan_id":"free"},{"bike_id":"18ec1453-63e5-4b22-a54e-20e51e1a0d8d","system_id":"levelo_inurba_marseille","lat":43.330203,"lon":5.390423,"is_reserved":false,"is_disabled":false,"rental_uris":{"android":"levelo://app?vid=18ec1453-63e5-4b22-a54e-20e51e1a0d8d","ios":"levelo://app?vid=18ec1453-63e5-4b22-a54e-20e51e1a0d8d"},"vehicle_type_id":"4","last_reported":1703614101,"current_range_meters":19600,"station_id":"","pricing_plan_id":"free"},{"bike_id":"fd9475a8-0af4-48e4-8c59-5c87667e54c2","system_id":"levelo_inurba_marseille","lat":43.330442,"lon":5.389148,"is_reserved":false,"is_disabled":false,"rental_uris":{"android":"levelo://app?vid=fd9475a8-0af4-48e4-8c59-5c87667e54c2","ios":"levelo://app?vid=fd9475a8-0af4-48e4-8c59-5c87667e54c2"},"vehicle_type_id":"4","last_reported":1703614101,"current_range_meters":4000,"station_id":"ce4bhr92rcd13ifvqhrg","pricing_plan_id":"free"},{"bike_id":"4cb8d58c-64cc-4ef8-82e3-1054052a40eb","system_id":"levelo_inurba_marseille","lat":43.295169,"lon":5.390426,"is_reserved":false,"is_disabled":false,"rental_uris":{"android":"levelo://app?vid=4cb8d58c-64cc-4ef8-82e3-1054052a40eb","ios":"levelo://app?vid=4cb8d58c-64cc-4ef8-82e3-1054052a40eb"},"vehicle_type_id":"4","last_reported":1703614101,"current_range_meters":12000,"station_id":"ce4bh3p2rcd13ifvqdp0","pricing_plan_id":"free"},{"bike_id":"f3c63c7b-09e2-4734-8986-14ad4d133994","system_id":"levelo_inurba_marseille","lat":43.33028,"lon":5.39053,"is_reserved":false,"is_disabled":false,"rental_uris":{"android":"levelo://app?vid=f3c63c7b-09e2-4734-8986-14ad4d133994","ios":"levelo://app?vid=f3c63c7b-09e2-4734-8986-14ad4d133994"},"vehicle_type_id":"4","last_reported":1703614101,"current_range_meters":10400,"station_id":"","pricing_plan_id":"free"},{"bike_id":"01eec893-cb22-47ea-ba6f-18aee64380c7","system_id":"levelo_inurba_marseille","lat":43.33031,"lon":5.3909,"is_reserved":false,"is_disabled":false,"rental_uris":{"android":"levelo://app?vid=01eec893-cb22-47ea-ba6f-18aee64380c7","ios":"levelo://app?vid=01eec893-cb22-47ea-ba6f-18aee64380c7"},"vehicle_type_id":"4","last_reported":1703614101,"current_range_meters":9200,"station_id":"","pricing_plan_id":"free"},{"bike_id":"e6cee7ee-26f5-4a5e-ae34-a45cb19e2e5b","system_id":"levelo_inurba_marseille","lat":43.2901,"lon":5.381269,"is_reserved":false,"is_disabled":false,"rental_uris":{"android":"levelo://app?vid=e6cee7ee-26f5-4a5e-ae34-a45cb19e2e5b","ios":"levelo://app?vid=e6cee7ee-26f5-4a5e-ae34-a45cb19e2e5b"},"vehicle_type_id":"4","last_reported":1703614101,"current_range_meters":5200,"station_id":"ce4bh4p2rcd13ifvqe1g","pricing_plan_id":"free"},{"bike_id":"3f2609aa-c745-489a-b3ba-9215e4987479","system_id":"levelo_inurba_marseille","lat":43.290094,"lon":5.381264,"is_reserved":false,"is_disabled":false,"rental_uris":{"android":"levelo://app?vid=3f2609aa-c745-489a-b3ba-9215e4987479","ios":"levelo://app?vid=3f2609aa-c745-489a-b3ba-9215e4987479"},"vehicle_type_id":"4","last_reported":1703614101,"current_range_meters":1600,"station_id":"ce4bh4p2rcd13ifvqe1g","pricing_plan_id":"free"},{"bike_id":"0bcebe22-38ea-4ad0-983d-634a2976ff8c","system_id":"levelo_inurba_marseille","lat":43.290094,"lon":5.381264,"is_reserved":false,"is_disabled":false,"rental_uris":{"android":"levelo://app?vid=0bcebe22-38ea-4ad0-983d-634a2976ff8c","ios":"levelo://app?vid=0bcebe22-38ea-4ad0-983d-634a2976ff8c"},"vehicle_type_id":"4","last_reported":1703614101,"current_range_meters":5600,"station_id":"ce4bh4p2rcd13ifvqe1g","pricing_plan_id":"free"},{"bike_id":"9c21bc91-eb77-4587-9604-41bb35b14ce5","system_id":"levelo_inurba_marseille","lat":43.28856,"lon":5.358371,"is_reserved":false,"is_disabled":false,"rental_uris":{"android":"levelo://app?vid=9c21bc91-eb77-4587-9604-41bb35b14ce5","ios":"levelo://app?vid=9c21bc91-eb77-4587-9604-41bb35b14ce5"},"vehicle_type_id":"4","last_reported":1703614101,"current_range_meters":24800,"station_id":"ce4bhb12rcd13ifvqem0","pricing_plan_id":"free"},{"bike_id":"3408225b-ef8b-48b7-8130-eeeabaf97d4a","system_id":"levelo_inurba_marseille","lat":43.28856,"lon":5.358371,"is_reserved":false,"is_disabled":false,"rental_uris":{"android":"levelo://app?vid=3408225b-ef8b-48b7-8130-eeeabaf97d4a","ios":"levelo://app?vid=3408225b-ef8b-48b7-8130-eeeabaf97d4a"},"vehicle_type_id":"4","last_reported":1703614101,"current_range_meters":23200,"station_id":"ce4bhb12rcd13ifvqem0","pricing_plan_id":"free"},{"bike_id":"7a543b19-90cd-4a87-b80d-37f423d89307","system_id":"levelo_inurba_marseille","lat":43.33044,"lon":5.39122,"is_reserved":false,"is_disabled":false,"rental_uris":{"android":"levelo://app?vid=7a543b19-90cd-4a87-b80d-37f423d89307","ios":"levelo://app?vid=7a543b19-90cd-4a87-b80d-37f423d89307"},"vehicle_type_id":"4","last_reported":1703614101,"current_range_meters":7600,"station_id":"","pricing_plan_id":"free"},{"bike_id":"fd734b72-c7ac-4a25-b658-6d2feab99aa2","system_id":"levelo_inurba_marseille","lat":43.28856,"lon":5.358371,"is_reserved":false,"is_disabled":false,"rental_uris":{"android":"levelo://app?vid=fd734b72-c7ac-4a25-b658-6d2feab99aa2","ios":"levelo://app?vid=fd734b72-c7ac-4a25-b658-6d2feab99aa2"},"vehicle_type_id":"4","last_reported":1703614101,"current_range_meters":4000,"station_id":"ce4bhb12rcd13ifvqem0","pricing_plan_id":"free"},{"bike_id":"690eccad-9069-43a9-a974-0f635be67caa","system_id":"levelo_inurba_marseille","lat":43.309371,"lon":5.401449,"is_reserved":false,"is_disabled":false,"rental_uris":{"android":"levelo://app?vid=690eccad-9069-43a9-a974-0f635be67caa","ios":"levelo://app?vid=690eccad-9069-43a9-a974-0f635be67caa"},"vehicle_type_id":"4","last_reported":1703614101,"current_range_meters":22400,"station_id":"ce4bgvp2rcd13ifvqct0","pricing_plan_id":"free"},{"bike_id":"f1bcf467-cfe0-498c-a496-3b8738ebf41b","system_id":"levelo_inurba_marseille","lat":43.309371,"lon":5.401449,"is_reserved":false,"is_disabled":false,"rental_uris":{"android":"levelo://app?vid=f1bcf467-cfe0-498c-a496-3b8738ebf41b","ios":"levelo://app?vid=f1bcf467-cfe0-498c-a496-3b8738ebf41b"},"vehicle_type_id":"4","last_reported":1703614101,"current_range_meters":12800,"station_id":"ce4bgvp2rcd13ifvqct0","pricing_plan_id":"free"},{"bike_id":"e80f0ed0-6a4e-405a-8da1-244c0c09f819","system_id":"levelo_inurba_marseille","lat":43.312609,"lon":5.401662,"is_reserved":false,"is_disabled":false,"rental_uris":{"android":"levelo://app?vid=e80f0ed0-6a4e-405a-8da1-244c0c09f819","ios":"levelo://app?vid=e80f0ed0-6a4e-405a-8da1-244c0c09f819"},"vehicle_type_id":"4","last_reported":1703614101,"current_range_meters":22400,"station_id":"ce4bh092rcd13ifvqd30","pricing_plan_id":"free"},{"bike_id":"2f35dce5-74ab-4564-8168-e26fa81e58bd","system_id":"levelo_inurba_marseille","lat":43.309371,"lon":5.401449,"is_reserved":false,"is_disabled":false,"rental_uris":{"android":"levelo://app?vid=2f35dce5-74ab-4564-8168-e26fa81e58bd","ios":"levelo://app?vid=2f35dce5-74ab-4564-8168-e26fa81e58bd"},"vehicle_type_id":"4","last_reported":1703614101,"current_range_meters":24000,"station_id":"ce4bgvp2rcd13ifvqct0","pricing_plan_id":"free"},{"bike_id":"088eacfa-022a-45c3-be1f-39a115813f60","system_id":"levelo_inurba_marseille","lat":43.306412,"lon":5.401035,"is_reserved":false,"is_disabled":false,"rental_uris":{"android":"levelo://app?vid=088eacfa-022a-45c3-be1f-39a115813f60","ios":"levelo://app?vid=088eacfa-022a-45c3-be1f-39a115813f60"},"vehicle_type_id":"4","last_reported":1703614101,"current_range_meters":28800,"station_id":"ce4bh112rcd13ifvqda0","pricing_plan_id":"free"},{"bike_id":"70287e38-69e6-4505-be80-98ffdf42dbee","system_id":"levelo_inurba_marseille","lat":43.299028,"lon":5.381509,"is_reserved":false,"is_disabled":false,"rental_uris":{"android":"levelo://app?vid=70287e38-69e6-4505-be80-98ffdf42dbee","ios":"levelo://app?vid=70287e38-69e6-4505-be80-98ffdf42dbee"},"vehicle_type_id":"4","last_reported":1703614101,"current_range_meters":27200,"station_id":"ce4bgj12rcd13ifvqbc0","pricing_plan_id":"free"},{"bike_id":"e8333dc6-0a00-4918-9bf4-210e7c543756","system_id":"levelo_inurba_marseille","lat":43.306412,"lon":5.401035,"is_reserved":false,"is_disabled":false,"rental_uris":{"android":"levelo://app?vid=e8333dc6-0a00-4918-9bf4-210e7c543756","ios":"levelo://app?vid=e8333dc6-0a00-4918-9bf4-210e7c543756"},"vehicle_type_id":"4","last_reported":1703614101,"current_range_meters":24000,"station_id":"ce4bh112rcd13ifvqda0","pricing_plan_id":"free"},{"bike_id":"3a70ba87-d511-4aaf-b0ab-bf41a847d3c0","system_id":"levelo_inurba_marseille","lat":43.337708,"lon":5.37439,"is_reserved":false,"is_disabled":false,"rental_uris":{"android":"levelo://app?vid=3a70ba87-d511-4aaf-b0ab-bf41a847d3c0","ios":"levelo://app?vid=3a70ba87-d511-4aaf-b0ab-bf41a847d3c0"},"vehicle_type_id":"4","last_reported":1703614101,"current_range_meters":26800,"station_id":"","pricing_plan_id":"free"},{"bike_id":"65b40f44-8357-4c5c-98a6-1fa2c6b96e44","system_id":"levelo_inurba_marseille","lat":43.301117,"lon":5.398795,"is_reserved":false,"is_disabled":false,"rental_uris":{"android":"levelo://app?vid=65b40f44-8357-4c5c-98a6-1fa2c6b96e44","ios":"levelo://app?vid=65b40f44-8357-4c5c-98a6-1fa2c6b96e44"},"vehicle_type_id":"4","last_reported":1703614101,"current_range_meters":30000,"station_id":"ce4bh0h2rcd13ifvqd40","pricing_plan_id":"free"},{"bike_id":"0014df2c-4b32-408a-a33c-e05ed84bad98","system_id":"levelo_inurba_marseille","lat":43.301117,"lon":5.398795,"is_reserved":false,"is_disabled":false,"rental_uris":{"android":"levelo://app?vid=0014df2c-4b32-408a-a33c-e05ed84bad98","ios":"levelo://app?vid=0014df2c-4b32-408a-a33c-e05ed84bad98"},"vehicle_type_id":"4","last_reported":1703614101,"current_range_meters":17200,"station_id":"ce4bh0h2rcd13ifvqd40","pricing_plan_id":"free"},{"bike_id":"395b4c6b-2846-48f8-adf3-a7b6e4defa20","system_id":"levelo_inurba_marseille","lat":43.28727,"lon":5.36078,"is_reserved":false,"is_disabled":false,"rental_uris":{"android":"levelo://app?vid=395b4c6b-2846-48f8-adf3-a7b6e4defa20","ios":"levelo://app?vid=395b4c6b-2846-48f8-adf3-a7b6e4defa20"},"vehicle_type_id":"4","last_reported":1703614101,"current_range_meters":26400,"station_id":"cki0cbj6b192h4jlfktg","pricing_plan_id":"free"},{"bike_id":"e9b0480e-13c1-41d4-8086-c513b735d9cb","system_id":"levelo_inurba_marseille","lat":43.301117,"lon":5.398795,"is_reserved":false,"is_disabled":false,"rental_uris":{"android":"levelo://app?vid=e9b0480e-13c1-41d4-8086-c513b735d9cb","ios":"levelo://app?vid=e9b0480e-13c1-41d4-8086-c513b735d9cb"},"vehicle_type_id":"4","last_reported":1703614101,"current_range_meters":16800,"station_id":"ce4bh0h2rcd13ifvqd40","pricing_plan_id":"free"},{"bike_id":"aa743935-8558-45a1-aa4e-06dd50e5fa89","system_id":"levelo_inurba_marseille","lat":43.28727,"lon":5.36078,"is_reserved":false,"is_disabled":false,"rental_uris":{"android":"levelo://app?vid=aa743935-8558-45a1-aa4e-06dd50e5fa89","ios":"levelo://app?vid=aa743935-8558-45a1-aa4e-06dd50e5fa89"},"vehicle_type_id":"4","last_reported":1703614101,"current_range_meters":28400,"station_id":"cki0cbj6b192h4jlfktg","pricing_plan_id":"free"},{"bike_id":"f5430d8c-dbc0-4e31-a003-95dde548e7cc","system_id":"levelo_inurba_marseille","lat":43.298681,"lon":5.397225,"is_reserved":false,"is_disabled":false,"rental_uris":{"android":"levelo://app?vid=f5430d8c-dbc0-4e31-a003-95dde548e7cc","ios":"levelo://app?vid=f5430d8c-dbc0-4e31-a003-95dde548e7cc"},"vehicle_type_id":"4","last_reported":1703614101,"current_range_meters":18800,"station_id":"ce4bh0h2rcd13ifvqd50","pricing_plan_id":"free"},{"bike_id":"9010a516-95e6-406b-917f-5e2a36fd62b8","system_id":"levelo_inurba_marseille","lat":43.286729,"lon":5.363378,"is_reserved":false,"is_disabled":false,"rental_uris":{"android":"levelo://app?vid=9010a516-95e6-406b-917f-5e2a36fd62b8","ios":"levelo://app?vid=9010a516-95e6-406b-917f-5e2a36fd62b8"},"vehicle_type_id":"4","last_reported":1703614101,"current_range_meters":0,"station_id":"ce4bhah2rcd13ifvqej0","pricing_plan_id":"free"},{"bike_id":"4b590bb7-7233-4682-8b48-dda589b6bfc7","system_id":"levelo_inurba_marseille","lat":43.298681,"lon":5.397225,"is_reserved":false,"is_disabled":false,"rental_uris":{"android":"levelo://app?vid=4b590bb7-7233-4682-8b48-dda589b6bfc7","ios":"levelo://app?vid=4b590bb7-7233-4682-8b48-dda589b6bfc7"},"vehicle_type_id":"4","last_reported":1703614101,"current_range_meters":20000,"station_id":"ce4bh0h2rcd13ifvqd50","pricing_plan_id":"free"},{"bike_id":"c9c9bda5-31b6-4788-b7e2-a35eab64ee2b","system_id":"levelo_inurba_marseille","lat":43.287027,"lon":5.373923,"is_reserved":false,"is_disabled":false,"rental_uris":{"android":"levelo://app?vid=c9c9bda5-31b6-4788-b7e2-a35eab64ee2b","ios":"levelo://app?vid=c9c9bda5-31b6-4788-b7e2-a35eab64ee2b"},"vehicle_type_id":"4","last_reported":1703614101,"current_range_meters":25200,"station_id":"ce4bh3p2rcd13ifvqdq0","pricing_plan_id":"free"},{"bike_id":"91720a86-83e3-4909-9469-824364526d66","system_id":"levelo_inurba_marseille","lat":43.298681,"lon":5.397225,"is_reserved":false,"is_disabled":false,"rental_uris":{"android":"levelo://app?vid=91720a86-83e3-4909-9469-824364526d66","ios":"levelo://app?vid=91720a86-83e3-4909-9469-824364526d66"},"vehicle_type_id":"4","last_reported":1703614101,"current_range_meters":2400,"station_id":"ce4bh0h2rcd13ifvqd50","pricing_plan_id":"free"},{"bike_id":"cc25cb3a-d613-4810-b255-e799cf4240bb","system_id":"levelo_inurba_marseille","lat":43.28659,"lon":5.36342,"is_reserved":false,"is_disabled":false,"rental_uris":{"android":"levelo://app?vid=cc25cb3a-d613-4810-b255-e799cf4240bb","ios":"levelo://app?vid=cc25cb3a-d613-4810-b255-e799cf4240bb"},"vehicle_type_id":"4","last_reported":1703614101,"current_range_meters":400,"station_id":"ce4bhah2rcd13ifvqej0","pricing_plan_id":"free"},{"bike_id":"3047a84a-afb8-4bac-a4b8-f4cf2dd1af39","system_id":"levelo_inurba_marseille","lat":43.286961,"lon":5.373785,"is_reserved":false,"is_disabled":false,"rental_uris":{"android":"levelo://app?vid=3047a84a-afb8-4bac-a4b8-f4cf2dd1af39","ios":"levelo://app?vid=3047a84a-afb8-4bac-a4b8-f4cf2dd1af39"},"vehicle_type_id":"4","last_reported":1703614101,"current_range_meters":20000,"station_id":"ce4bh3p2rcd13ifvqdq0","pricing_plan_id":"free"},{"bike_id":"30b3fbda-0d80-4255-98cd-64f81055c13b","system_id":"levelo_inurba_marseille","lat":43.295196,"lon":5.39397,"is_reserved":false,"is_disabled":false,"rental_uris":{"android":"levelo://app?vid=30b3fbda-0d80-4255-98cd-64f81055c13b","ios":"levelo://app?vid=30b3fbda-0d80-4255-98cd-64f81055c13b"},"vehicle_type_id":"4","last_reported":1703614101,"current_range_meters":27200,"station_id":"ce4bh292rcd13ifvqdf0","pricing_plan_id":"free"},{"bike_id":"4cff218e-0c04-4ddb-a88b-3f41d66d73ac","system_id":"levelo_inurba_marseille","lat":43.295196,"lon":5.39397,"is_reserved":false,"is_disabled":false,"rental_uris":{"android":"levelo://app?vid=4cff218e-0c04-4ddb-a88b-3f41d66d73ac","ios":"levelo://app?vid=4cff218e-0c04-4ddb-a88b-3f41d66d73ac"},"vehicle_type_id":"4","last_reported":1703614101,"current_range_meters":29200,"station_id":"ce4bh292rcd13ifvqdf0","pricing_plan_id":"free"},{"bike_id":"9a129b35-17a1-4ae1-8ff3-93f6170b6697","system_id":"levelo_inurba_marseille","lat":43.295194,"lon":5.39397,"is_reserved":false,"is_disabled":false,"rental_uris":{"android":"levelo://app?vid=9a129b35-17a1-4ae1-8ff3-93f6170b6697","ios":"levelo://app?vid=9a129b35-17a1-4ae1-8ff3-93f6170b6697"},"vehicle_type_id":"4","last_reported":1703614101,"current_range_meters":2800,"station_id":"ce4bh292rcd13ifvqdf0","pricing_plan_id":"free"},{"bike_id":"1b882004-0efd-4a44-9bf5-aecc7ca6e4d5","system_id":"levelo_inurba_marseille","lat":43.302759,"lon":5.400793,"is_reserved":false,"is_disabled":false,"rental_uris":{"android":"levelo://app?vid=1b882004-0efd-4a44-9bf5-aecc7ca6e4d5","ios":"levelo://app?vid=1b882004-0efd-4a44-9bf5-aecc7ca6e4d5"},"vehicle_type_id":"4","last_reported":1703614101,"current_range_meters":24000,"station_id":"ce4bgvh2rcd13ifvqcs0","pricing_plan_id":"free"},{"bike_id":"5316b749-27aa-4a43-a24d-8a5daeaad6e0","system_id":"levelo_inurba_marseille","lat":43.290345,"lon":5.38646,"is_reserved":false,"is_disabled":false,"rental_uris":{"android":"levelo://app?vid=5316b749-27aa-4a43-a24d-8a5daeaad6e0","ios":"levelo://app?vid=5316b749-27aa-4a43-a24d-8a5daeaad6e0"},"vehicle_type_id":"4","last_reported":1703614101,"current_range_meters":20800,"station_id":"ce4bh4p2rcd13ifvqe0g","pricing_plan_id":"free"},{"bike_id":"4b91ade0-5ed5-4829-b02a-c68ebff043fb","system_id":"levelo_inurba_marseille","lat":43.290345,"lon":5.38646,"is_reserved":false,"is_disabled":false,"rental_uris":{"android":"levelo://app?vid=4b91ade0-5ed5-4829-b02a-c68ebff043fb","ios":"levelo://app?vid=4b91ade0-5ed5-4829-b02a-c68ebff043fb"},"vehicle_type_id":"4","last_reported":1703614101,"current_range_meters":20000,"station_id":"ce4bh4p2rcd13ifvqe0g","pricing_plan_id":"free"},{"bike_id":"59ee2bfc-c36e-4ce9-b329-d348da76d953","system_id":"levelo_inurba_marseille","lat":43.302759,"lon":5.400793,"is_reserved":false,"is_disabled":false,"rental_uris":{"android":"levelo://app?vid=59ee2bfc-c36e-4ce9-b329-d348da76d953","ios":"levelo://app?vid=59ee2bfc-c36e-4ce9-b329-d348da76d953"},"vehicle_type_id":"4","last_reported":1703614101,"current_range_meters":23600,"station_id":"ce4bgvh2rcd13ifvqcs0","pricing_plan_id":"free"},{"bike_id":"1bafe52b-de01-4b2b-ba84-f729c4d660ef","system_id":"levelo_inurba_marseille","lat":43.286039,"lon":5.370679,"is_reserved":false,"is_disabled":false,"rental_uris":{"android":"levelo://app?vid=1bafe52b-de01-4b2b-ba84-f729c4d660ef","ios":"levelo://app?vid=1bafe52b-de01-4b2b-ba84-f729c4d660ef"},"vehicle_type_id":"4","last_reported":1703614101,"current_range_meters":17600,"station_id":"ce4bht12rcd13ifvqi60","pricing_plan_id":"free"},{"bike_id":"b8ae8959-d827-4ceb-8ce0-3e03906d250d","system_id":"levelo_inurba_marseille","lat":43.28611,"lon":5.37077,"is_reserved":false,"is_disabled":false,"rental_uris":{"android":"levelo://app?vid=b8ae8959-d827-4ceb-8ce0-3e03906d250d","ios":"levelo://app?vid=b8ae8959-d827-4ceb-8ce0-3e03906d250d"},"vehicle_type_id":"4","last_reported":1703614101,"current_range_meters":26000,"station_id":"ce4bht12rcd13ifvqi60","pricing_plan_id":"free"},{"bike_id":"7260845c-a0df-4ce3-b635-e91590bb4f9a","system_id":"levelo_inurba_marseille","lat":43.286077,"lon":5.370676,"is_reserved":false,"is_disabled":false,"rental_uris":{"android":"levelo://app?vid=7260845c-a0df-4ce3-b635-e91590bb4f9a","ios":"levelo://app?vid=7260845c-a0df-4ce3-b635-e91590bb4f9a"},"vehicle_type_id":"4","last_reported":1703614101,"current_range_meters":19200,"station_id":"ce4bht12rcd13ifvqi60","pricing_plan_id":"free"},{"bike_id":"e42f2d48-1eac-4ea9-97da-9a200b97c493","system_id":"levelo_inurba_marseille","lat":43.28604,"lon":5.37065,"is_reserved":false,"is_disabled":false,"rental_uris":{"android":"levelo://app?vid=e42f2d48-1eac-4ea9-97da-9a200b97c493","ios":"levelo://app?vid=e42f2d48-1eac-4ea9-97da-9a200b97c493"},"vehicle_type_id":"4","last_reported":1703614101,"current_range_meters":24000,"station_id":"ce4bht12rcd13ifvqi60","pricing_plan_id":"free"},{"bike_id":"0ade99fb-20fc-423b-a697-58876a6bf0b1","system_id":"levelo_inurba_marseille","lat":43.287091,"lon":5.37934,"is_reserved":false,"is_disabled":false,"rental_uris":{"android":"levelo://app?vid=0ade99fb-20fc-423b-a697-58876a6bf0b1","ios":"levelo://app?vid=0ade99fb-20fc-423b-a697-58876a6bf0b1"},"vehicle_type_id":"4","last_reported":1703614101,"current_range_meters":17600,"station_id":"ce4bh9p2rcd13ifvqec0","pricing_plan_id":"free"},{"bike_id":"bb78c580-b425-4860-8180-54e8753b49c8","system_id":"levelo_inurba_marseille","lat":43.316828,"lon":5.404723,"is_reserved":false,"is_disabled":false,"rental_uris":{"android":"levelo://app?vid=bb78c580-b425-4860-8180-54e8753b49c8","ios":"levelo://app?vid=bb78c580-b425-4860-8180-54e8753b49c8"},"vehicle_type_id":"4","last_reported":1703614101,"current_range_meters":11200,"station_id":"ce4bh012rcd13ifvqd00","pricing_plan_id":"free"},{"bike_id":"fa7570f2-256e-4948-b3fc-55402630ffd7","system_id":"levelo_inurba_marseille","lat":43.291994,"lon":5.392907,"is_reserved":false,"is_disabled":false,"rental_uris":{"android":"levelo://app?vid=fa7570f2-256e-4948-b3fc-55402630ffd7","ios":"levelo://app?vid=fa7570f2-256e-4948-b3fc-55402630ffd7"},"vehicle_type_id":"4","last_reported":1703614101,"current_range_meters":0,"station_id":"ce4bh192rcd13ifvqdd0","pricing_plan_id":"free"},{"bike_id":"e2adfa7c-882e-48a1-9ee4-b36e6186ebbf","system_id":"levelo_inurba_marseille","lat":43.330912,"lon":5.396935,"is_reserved":false,"is_disabled":false,"rental_uris":{"android":"levelo://app?vid=e2adfa7c-882e-48a1-9ee4-b36e6186ebbf","ios":"levelo://app?vid=e2adfa7c-882e-48a1-9ee4-b36e6186ebbf"},"vehicle_type_id":"4","last_reported":1703614101,"current_range_meters":2400,"station_id":"","pricing_plan_id":"free"},{"bike_id":"ee34b0cb-3b36-4a75-b0a7-d9f1e13f004d","system_id":"levelo_inurba_marseille","lat":43.284538,"lon":5.358657,"is_reserved":false,"is_disabled":false,"rental_uris":{"android":"levelo://app?vid=ee34b0cb-3b36-4a75-b0a7-d9f1e13f004d","ios":"levelo://app?vid=ee34b0cb-3b36-4a75-b0a7-d9f1e13f004d"},"vehicle_type_id":"4","last_reported":1703614101,"current_range_meters":8400,"station_id":"ce4bhah2rcd13ifvqei0","pricing_plan_id":"free"},{"bike_id":"12929816-9c62-44b2-8623-6ad5fdc45cf8","system_id":"levelo_inurba_marseille","lat":43.284682,"lon":5.358934,"is_reserved":false,"is_disabled":false,"rental_uris":{"android":"levelo://app?vid=12929816-9c62-44b2-8623-6ad5fdc45cf8","ios":"levelo://app?vid=12929816-9c62-44b2-8623-6ad5fdc45cf8"},"vehicle_type_id":"4","last_reported":1703614101,"current_range_meters":16800,"station_id":"ce4bhah2rcd13ifvqei0","pricing_plan_id":"free"},{"bike_id":"d4a8c6f5-1913-4f5f-bcba-c2528c2f764a","system_id":"levelo_inurba_marseille","lat":43.284538,"lon":5.358657,"is_reserved":false,"is_disabled":false,"rental_uris":{"android":"levelo://app?vid=d4a8c6f5-1913-4f5f-bcba-c2528c2f764a","ios":"levelo://app?vid=d4a8c6f5-1913-4f5f-bcba-c2528c2f764a"},"vehicle_type_id":"4","last_reported":1703614101,"current_range_meters":31600,"station_id":"ce4bhah2rcd13ifvqei0","pricing_plan_id":"free"},{"bike_id":"da26f0d6-6705-4c0a-9d55-77b4ba84dd30","system_id":"levelo_inurba_marseille","lat":43.284534,"lon":5.358662,"is_reserved":false,"is_disabled":false,"rental_uris":{"android":"levelo://app?vid=da26f0d6-6705-4c0a-9d55-77b4ba84dd30","ios":"levelo://app?vid=da26f0d6-6705-4c0a-9d55-77b4ba84dd30"},"vehicle_type_id":"4","last_reported":1703614101,"current_range_meters":9600,"station_id":"ce4bhah2rcd13ifvqei0","pricing_plan_id":"free"},{"bike_id":"ad28d462-7697-4caa-820c-1453694819f1","system_id":"levelo_inurba_marseille","lat":43.284538,"lon":5.358657,"is_reserved":false,"is_disabled":false,"rental_uris":{"android":"levelo://app?vid=ad28d462-7697-4caa-820c-1453694819f1","ios":"levelo://app?vid=ad28d462-7697-4caa-820c-1453694819f1"},"vehicle_type_id":"4","last_reported":1703614101,"current_range_meters":20800,"station_id":"ce4bhah2rcd13ifvqei0","pricing_plan_id":"free"},{"bike_id":"5c2c7dc3-1166-46a7-a622-ee785bb4f15f","system_id":"levelo_inurba_marseille","lat":43.284538,"lon":5.358657,"is_reserved":false,"is_disabled":false,"rental_uris":{"android":"levelo://app?vid=5c2c7dc3-1166-46a7-a622-ee785bb4f15f","ios":"levelo://app?vid=5c2c7dc3-1166-46a7-a622-ee785bb4f15f"},"vehicle_type_id":"4","last_reported":1703614101,"current_range_meters":23200,"station_id":"ce4bhah2rcd13ifvqei0","pricing_plan_id":"free"},{"bike_id":"3ab71d57-f31d-4921-8d19-d8aa06494a99","system_id":"levelo_inurba_marseille","lat":43.284534,"lon":5.358662,"is_reserved":false,"is_disabled":false,"rental_uris":{"android":"levelo://app?vid=3ab71d57-f31d-4921-8d19-d8aa06494a99","ios":"levelo://app?vid=3ab71d57-f31d-4921-8d19-d8aa06494a99"},"vehicle_type_id":"4","last_reported":1703614101,"current_range_meters":2400,"station_id":"ce4bhah2rcd13ifvqei0","pricing_plan_id":"free"},{"bike_id":"71283b06-6af7-41ae-a62c-e10dff701164","system_id":"levelo_inurba_marseille","lat":43.284538,"lon":5.358657,"is_reserved":false,"is_disabled":false,"rental_uris":{"android":"levelo://app?vid=71283b06-6af7-41ae-a62c-e10dff701164","ios":"levelo://app?vid=71283b06-6af7-41ae-a62c-e10dff701164"},"vehicle_type_id":"4","last_reported":1703614101,"current_range_meters":25200,"station_id":"ce4bhah2rcd13ifvqei0","pricing_plan_id":"free"},{"bike_id":"4cd86e13-8bfc-45f2-9ab8-42e6de13b38c","system_id":"levelo_inurba_marseille","lat":43.294314,"lon":5.397498,"is_reserved":false,"is_disabled":false,"rental_uris":{"android":"levelo://app?vid=4cd86e13-8bfc-45f2-9ab8-42e6de13b38c","ios":"levelo://app?vid=4cd86e13-8bfc-45f2-9ab8-42e6de13b38c"},"vehicle_type_id":"4","last_reported":1703614101,"current_range_meters":24000,"station_id":"ce4bh3h2rcd13ifvqdo0","pricing_plan_id":"free"},{"bike_id":"563251ba-fd3b-4266-b285-e39ab16e0ec2","system_id":"levelo_inurba_marseille","lat":43.294314,"lon":5.397498,"is_reserved":false,"is_disabled":false,"rental_uris":{"android":"levelo://app?vid=563251ba-fd3b-4266-b285-e39ab16e0ec2","ios":"levelo://app?vid=563251ba-fd3b-4266-b285-e39ab16e0ec2"},"vehicle_type_id":"4","last_reported":1703614101,"current_range_meters":26400,"station_id":"ce4bh3h2rcd13ifvqdo0","pricing_plan_id":"free"},{"bike_id":"51e17138-6637-4300-b9a2-aa8c98496572","system_id":"levelo_inurba_marseille","lat":43.285856,"lon":5.350771,"is_reserved":false,"is_disabled":false,"rental_uris":{"android":"levelo://app?vid=51e17138-6637-4300-b9a2-aa8c98496572","ios":"levelo://app?vid=51e17138-6637-4300-b9a2-aa8c98496572"},"vehicle_type_id":"4","last_reported":1703614101,"current_range_meters":22400,"station_id":"ce4bhch2rcd13ifvqeug","pricing_plan_id":"free"},{"bike_id":"96b2ffa9-ebc1-4a7c-8400-482a164dc524","system_id":"levelo_inurba_marseille","lat":43.283998,"lon":5.375062,"is_reserved":false,"is_disabled":false,"rental_uris":{"android":"levelo://app?vid=96b2ffa9-ebc1-4a7c-8400-482a164dc524","ios":"levelo://app?vid=96b2ffa9-ebc1-4a7c-8400-482a164dc524"},"vehicle_type_id":"4","last_reported":1703614101,"current_range_meters":0,"station_id":"ce4bh412rcd13ifvqds0","pricing_plan_id":"free"},{"bike_id":"b3c74a90-056c-47f9-bf2e-21253b84e506","system_id":"levelo_inurba_marseille","lat":43.283998,"lon":5.375062,"is_reserved":false,"is_disabled":false,"rental_uris":{"android":"levelo://app?vid=b3c74a90-056c-47f9-bf2e-21253b84e506","ios":"levelo://app?vid=b3c74a90-056c-47f9-bf2e-21253b84e506"},"vehicle_type_id":"4","last_reported":1703614101,"current_range_meters":22800,"station_id":"ce4bh412rcd13ifvqds0","pricing_plan_id":"free"},{"bike_id":"5f04d3dd-3688-4f4e-beda-19d871c9b670","system_id":"levelo_inurba_marseille","lat":43.283998,"lon":5.375062,"is_reserved":false,"is_disabled":false,"rental_uris":{"android":"levelo://app?vid=5f04d3dd-3688-4f4e-beda-19d871c9b670","ios":"levelo://app?vid=5f04d3dd-3688-4f4e-beda-19d871c9b670"},"vehicle_type_id":"4","last_reported":1703614101,"current_range_meters":23200,"station_id":"ce4bh412rcd13ifvqds0","pricing_plan_id":"free"},{"bike_id":"9e68e8b2-14e1-4803-b010-426b0224a805","system_id":"levelo_inurba_marseille","lat":43.295713,"lon":5.399639,"is_reserved":false,"is_disabled":false,"rental_uris":{"android":"levelo://app?vid=9e68e8b2-14e1-4803-b010-426b0224a805","ios":"levelo://app?vid=9e68e8b2-14e1-4803-b010-426b0224a805"},"vehicle_type_id":"4","last_reported":1703614101,"current_range_meters":23600,"station_id":"ce4bh312rcd13ifvqdj0","pricing_plan_id":"free"},{"bike_id":"d5a69a10-c7f4-483c-ba64-25165e285185","system_id":"levelo_inurba_marseille","lat":43.286595,"lon":5.386795,"is_reserved":false,"is_disabled":false,"rental_uris":{"android":"levelo://app?vid=d5a69a10-c7f4-483c-ba64-25165e285185","ios":"levelo://app?vid=d5a69a10-c7f4-483c-ba64-25165e285185"},"vehicle_type_id":"4","last_reported":1703614101,"current_range_meters":23200,"station_id":"ce4bh492rcd13ifvqdug","pricing_plan_id":"free"},{"bike_id":"826589f8-856e-4430-84c2-071b20d27bee","system_id":"levelo_inurba_marseille","lat":43.319179,"lon":5.407725,"is_reserved":false,"is_disabled":false,"rental_uris":{"android":"levelo://app?vid=826589f8-856e-4430-84c2-071b20d27bee","ios":"levelo://app?vid=826589f8-856e-4430-84c2-071b20d27bee"},"vehicle_type_id":"4","last_reported":1703614101,"current_range_meters":28400,"station_id":"ce4bhq12rcd13ifvqhig","pricing_plan_id":"free"},{"bike_id":"ba8e1031-f40c-4d14-bb5e-73ab46293434","system_id":"levelo_inurba_marseille","lat":43.284793,"lon":5.384119,"is_reserved":false,"is_disabled":false,"rental_uris":{"android":"levelo://app?vid=ba8e1031-f40c-4d14-bb5e-73ab46293434","ios":"levelo://app?vid=ba8e1031-f40c-4d14-bb5e-73ab46293434"},"vehicle_type_id":"4","last_reported":1703614101,"current_range_meters":17200,"station_id":"ce4bh512rcd13ifvqe3g","pricing_plan_id":"free"},{"bike_id":"3d563cb4-bc1a-49b0-a06d-6910e3778215","system_id":"levelo_inurba_marseille","lat":43.284793,"lon":5.384119,"is_reserved":false,"is_disabled":false,"rental_uris":{"android":"levelo://app?vid=3d563cb4-bc1a-49b0-a06d-6910e3778215","ios":"levelo://app?vid=3d563cb4-bc1a-49b0-a06d-6910e3778215"},"vehicle_type_id":"4","last_reported":1703614101,"current_range_meters":18400,"station_id":"ce4bh512rcd13ifvqe3g","pricing_plan_id":"free"},{"bike_id":"0f78220a-16f8-4667-a617-106a8c4df1d0","system_id":"levelo_inurba_marseille","lat":43.29795,"lon":5.404086,"is_reserved":false,"is_disabled":false,"rental_uris":{"android":"levelo://app?vid=0f78220a-16f8-4667-a617-106a8c4df1d0","ios":"levelo://app?vid=0f78220a-16f8-4667-a617-106a8c4df1d0"},"vehicle_type_id":"4","last_reported":1703614101,"current_range_meters":25600,"station_id":"ce4bh112rcd13ifvqd90","pricing_plan_id":"free"},{"bike_id":"929408d6-8d9c-42e5-bcbf-e961eef6e1da","system_id":"levelo_inurba_marseille","lat":43.283494,"lon":5.380945,"is_reserved":false,"is_disabled":false,"rental_uris":{"android":"levelo://app?vid=929408d6-8d9c-42e5-bcbf-e961eef6e1da","ios":"levelo://app?vid=929408d6-8d9c-42e5-bcbf-e961eef6e1da"},"vehicle_type_id":"4","last_reported":1703614101,"current_range_meters":0,"station_id":"ce4bh412rcd13ifvqdr0","pricing_plan_id":"free"},{"bike_id":"dd56f053-76e9-4b1a-be9a-a855afb8a653","system_id":"levelo_inurba_marseille","lat":43.283494,"lon":5.380945,"is_reserved":false,"is_disabled":false,"rental_uris":{"android":"levelo://app?vid=dd56f053-76e9-4b1a-be9a-a855afb8a653","ios":"levelo://app?vid=dd56f053-76e9-4b1a-be9a-a855afb8a653"},"vehicle_type_id":"4","last_reported":1703614101,"current_range_meters":23600,"station_id":"ce4bh412rcd13ifvqdr0","pricing_plan_id":"free"},{"bike_id":"bd70cfc0-cbcf-4770-8b6c-efb9dbd68efa","system_id":"levelo_inurba_marseille","lat":43.283498,"lon":5.380948,"is_reserved":false,"is_disabled":false,"rental_uris":{"android":"levelo://app?vid=bd70cfc0-cbcf-4770-8b6c-efb9dbd68efa","ios":"levelo://app?vid=bd70cfc0-cbcf-4770-8b6c-efb9dbd68efa"},"vehicle_type_id":"4","last_reported":1703614101,"current_range_meters":23600,"station_id":"ce4bh412rcd13ifvqdr0","pricing_plan_id":"free"},{"bike_id":"83edfe75-0342-4059-9e69-cd1943c747c9","system_id":"levelo_inurba_marseille","lat":43.288501,"lon":5.393087,"is_reserved":false,"is_disabled":false,"rental_uris":{"android":"levelo://app?vid=83edfe75-0342-4059-9e69-cd1943c747c9","ios":"levelo://app?vid=83edfe75-0342-4059-9e69-cd1943c747c9"},"vehicle_type_id":"4","last_reported":1703614101,"current_range_meters":26400,"station_id":"ce4bh2p2rcd13ifvqdi0","pricing_plan_id":"free"},{"bike_id":"e0b68692-8b72-46fb-ac41-394761fb3425","system_id":"levelo_inurba_marseille","lat":43.283494,"lon":5.380945,"is_reserved":false,"is_disabled":false,"rental_uris":{"android":"levelo://app?vid=e0b68692-8b72-46fb-ac41-394761fb3425","ios":"levelo://app?vid=e0b68692-8b72-46fb-ac41-394761fb3425"},"vehicle_type_id":"4","last_reported":1703614101,"current_range_meters":32000,"station_id":"ce4bh412rcd13ifvqdr0","pricing_plan_id":"free"},{"bike_id":"ddedd4db-7bba-4397-8ccb-787f9d9ddabe","system_id":"levelo_inurba_marseille","lat":43.283498,"lon":5.380948,"is_reserved":false,"is_disabled":false,"rental_uris":{"android":"levelo://app?vid=ddedd4db-7bba-4397-8ccb-787f9d9ddabe","ios":"levelo://app?vid=ddedd4db-7bba-4397-8ccb-787f9d9ddabe"},"vehicle_type_id":"4","last_reported":1703614101,"current_range_meters":3200,"station_id":"ce4bh412rcd13ifvqdr0","pricing_plan_id":"free"},{"bike_id":"96f08949-9741-46b9-b3c5-0056fdb3c07d","system_id":"levelo_inurba_marseille","lat":43.283494,"lon":5.380945,"is_reserved":false,"is_disabled":false,"rental_uris":{"android":"levelo://app?vid=96f08949-9741-46b9-b3c5-0056fdb3c07d","ios":"levelo://app?vid=96f08949-9741-46b9-b3c5-0056fdb3c07d"},"vehicle_type_id":"4","last_reported":1703614101,"current_range_meters":18000,"station_id":"ce4bh412rcd13ifvqdr0","pricing_plan_id":"free"},{"bike_id":"8752f406-7ee5-452b-aa39-8aaf354476cc","system_id":"levelo_inurba_marseille","lat":43.283498,"lon":5.380948,"is_reserved":false,"is_disabled":false,"rental_uris":{"android":"levelo://app?vid=8752f406-7ee5-452b-aa39-8aaf354476cc","ios":"levelo://app?vid=8752f406-7ee5-452b-aa39-8aaf354476cc"},"vehicle_type_id":"4","last_reported":1703614101,"current_range_meters":16800,"station_id":"ce4bh412rcd13ifvqdr0","pricing_plan_id":"free"},{"bike_id":"f13ec3b6-4233-4299-8051-736bcb56f9bc","system_id":"levelo_inurba_marseille","lat":43.283498,"lon":5.380948,"is_reserved":false,"is_disabled":false,"rental_uris":{"android":"levelo://app?vid=f13ec3b6-4233-4299-8051-736bcb56f9bc","ios":"levelo://app?vid=f13ec3b6-4233-4299-8051-736bcb56f9bc"},"vehicle_type_id":"4","last_reported":1703614101,"current_range_meters":5600,"station_id":"ce4bh412rcd13ifvqdr0","pricing_plan_id":"free"},{"bike_id":"c17cf6bd-767b-4bd0-8d7e-872b5c64c3a6","system_id":"levelo_inurba_marseille","lat":43.283498,"lon":5.380948,"is_reserved":false,"is_disabled":false,"rental_uris":{"android":"levelo://app?vid=c17cf6bd-767b-4bd0-8d7e-872b5c64c3a6","ios":"levelo://app?vid=c17cf6bd-767b-4bd0-8d7e-872b5c64c3a6"},"vehicle_type_id":"4","last_reported":1703614101,"current_range_meters":18400,"station_id":"ce4bh412rcd13ifvqdr0","pricing_plan_id":"free"},{"bike_id":"e485450b-2736-4f4c-b94b-0da5a69b88aa","system_id":"levelo_inurba_marseille","lat":43.33385,"lon":5.39822,"is_reserved":false,"is_disabled":false,"rental_uris":{"android":"levelo://app?vid=e485450b-2736-4f4c-b94b-0da5a69b88aa","ios":"levelo://app?vid=e485450b-2736-4f4c-b94b-0da5a69b88aa"},"vehicle_type_id":"4","last_reported":1703614101,"current_range_meters":21600,"station_id":"","pricing_plan_id":"free"},{"bike_id":"e67dac4f-939b-4d98-8085-821c2c82d655","system_id":"levelo_inurba_marseille","lat":43.292724,"lon":5.401131,"is_reserved":false,"is_disabled":false,"rental_uris":{"android":"levelo://app?vid=e67dac4f-939b-4d98-8085-821c2c82d655","ios":"levelo://app?vid=e67dac4f-939b-4d98-8085-821c2c82d655"},"vehicle_type_id":"4","last_reported":1703614101,"current_range_meters":27200,"station_id":"ce4bh312rcd13ifvqdk0","pricing_plan_id":"free"},{"bike_id":"787fc710-c520-40d9-ae3d-3491dbbb263b","system_id":"levelo_inurba_marseille","lat":43.28369,"lon":5.38633,"is_reserved":false,"is_disabled":false,"rental_uris":{"android":"levelo://app?vid=787fc710-c520-40d9-ae3d-3491dbbb263b","ios":"levelo://app?vid=787fc710-c520-40d9-ae3d-3491dbbb263b"},"vehicle_type_id":"4","last_reported":1703614101,"current_range_meters":0,"station_id":"ce4bh492rcd13ifvqdvg","pricing_plan_id":"free"},{"bike_id":"5b839ccd-5819-4047-83a8-ee9a7df11432","system_id":"levelo_inurba_marseille","lat":43.28263,"lon":5.35068,"is_reserved":false,"is_disabled":false,"rental_uris":{"android":"levelo://app?vid=5b839ccd-5819-4047-83a8-ee9a7df11432","ios":"levelo://app?vid=5b839ccd-5819-4047-83a8-ee9a7df11432"},"vehicle_type_id":"4","last_reported":1703614101,"current_range_meters":13600,"station_id":"ce4bhbp2rcd13ifvqerg","pricing_plan_id":"free"},{"bike_id":"24e2c243-d810-4cb0-bf16-4757ab160c8b","system_id":"levelo_inurba_marseille","lat":43.28039,"lon":5.369297,"is_reserved":false,"is_disabled":false,"rental_uris":{"android":"levelo://app?vid=24e2c243-d810-4cb0-bf16-4757ab160c8b","ios":"levelo://app?vid=24e2c243-d810-4cb0-bf16-4757ab160c8b"},"vehicle_type_id":"4","last_reported":1703614101,"current_range_meters":19600,"station_id":"ce4bha12rcd13ifvqef0","pricing_plan_id":"free"},{"bike_id":"21cdddc6-61d7-4c4d-8e98-9b6c2f0d4480","system_id":"levelo_inurba_marseille","lat":43.280382,"lon":5.369291,"is_reserved":false,"is_disabled":false,"rental_uris":{"android":"levelo://app?vid=21cdddc6-61d7-4c4d-8e98-9b6c2f0d4480","ios":"levelo://app?vid=21cdddc6-61d7-4c4d-8e98-9b6c2f0d4480"},"vehicle_type_id":"4","last_reported":1703614101,"current_range_meters":24000,"station_id":"ce4bha12rcd13ifvqef0","pricing_plan_id":"free"},{"bike_id":"874247a8-b851-4752-bb55-16e8eebdc42c","system_id":"levelo_inurba_marseille","lat":43.280382,"lon":5.369291,"is_reserved":false,"is_disabled":false,"rental_uris":{"android":"levelo://app?vid=874247a8-b851-4752-bb55-16e8eebdc42c","ios":"levelo://app?vid=874247a8-b851-4752-bb55-16e8eebdc42c"},"vehicle_type_id":"4","last_reported":1703614101,"current_range_meters":30400,"station_id":"ce4bha12rcd13ifvqef0","pricing_plan_id":"free"},{"bike_id":"f11c0d97-8f26-4026-85eb-53e9266c8779","system_id":"levelo_inurba_marseille","lat":43.281044,"lon":5.378308,"is_reserved":false,"is_disabled":false,"rental_uris":{"android":"levelo://app?vid=f11c0d97-8f26-4026-85eb-53e9266c8779","ios":"levelo://app?vid=f11c0d97-8f26-4026-85eb-53e9266c8779"},"vehicle_type_id":"4","last_reported":1703614101,"current_range_meters":24400,"station_id":"ce4bha12rcd13ifvqee0","pricing_plan_id":"free"},{"bike_id":"da81fefb-e435-4dec-8363-2617c173ba0e","system_id":"levelo_inurba_marseille","lat":43.28101,"lon":5.37827,"is_reserved":false,"is_disabled":false,"rental_uris":{"android":"levelo://app?vid=da81fefb-e435-4dec-8363-2617c173ba0e","ios":"levelo://app?vid=da81fefb-e435-4dec-8363-2617c173ba0e"},"vehicle_type_id":"4","last_reported":1703614101,"current_range_meters":10800,"station_id":"ce4bha12rcd13ifvqee0","pricing_plan_id":"free"},{"bike_id":"2f480e3f-e459-45f1-8d71-e0a8ac0a6abe","system_id":"levelo_inurba_marseille","lat":43.284462,"lon":5.392121,"is_reserved":false,"is_disabled":false,"rental_uris":{"android":"levelo://app?vid=2f480e3f-e459-45f1-8d71-e0a8ac0a6abe","ios":"levelo://app?vid=2f480e3f-e459-45f1-8d71-e0a8ac0a6abe"},"vehicle_type_id":"4","last_reported":1703614101,"current_range_meters":22800,"station_id":"ce4bhoh2rcd13ifvqh5g","pricing_plan_id":"free"},{"bike_id":"a4a5ccde-62af-4c28-95c1-d68b50703509","system_id":"levelo_inurba_marseille","lat":43.326605,"lon":5.409903,"is_reserved":false,"is_disabled":false,"rental_uris":{"android":"levelo://app?vid=a4a5ccde-62af-4c28-95c1-d68b50703509","ios":"levelo://app?vid=a4a5ccde-62af-4c28-95c1-d68b50703509"},"vehicle_type_id":"4","last_reported":1703614101,"current_range_meters":30400,"station_id":"ce4bhpp2rcd13ifvqhgg","pricing_plan_id":"free"},{"bike_id":"28708514-7775-4006-9dac-5c325bd92343","system_id":"levelo_inurba_marseille","lat":43.326605,"lon":5.409903,"is_reserved":false,"is_disabled":false,"rental_uris":{"android":"levelo://app?vid=28708514-7775-4006-9dac-5c325bd92343","ios":"levelo://app?vid=28708514-7775-4006-9dac-5c325bd92343"},"vehicle_type_id":"4","last_reported":1703614101,"current_range_meters":22000,"station_id":"ce4bhpp2rcd13ifvqhgg","pricing_plan_id":"free"},{"bike_id":"23a18914-adeb-4148-a7d9-94eed249347d","system_id":"levelo_inurba_marseille","lat":43.304188,"lon":5.412904,"is_reserved":false,"is_disabled":false,"rental_uris":{"android":"levelo://app?vid=23a18914-adeb-4148-a7d9-94eed249347d","ios":"levelo://app?vid=23a18914-adeb-4148-a7d9-94eed249347d"},"vehicle_type_id":"4","last_reported":1703614101,"current_range_meters":22400,"station_id":"ce4bhop2rcd13ifvqh8g","pricing_plan_id":"free"},{"bike_id":"12e2eb34-0a3c-49c1-b8e6-9db93976feb5","system_id":"levelo_inurba_marseille","lat":43.279087,"lon":5.380114,"is_reserved":false,"is_disabled":false,"rental_uris":{"android":"levelo://app?vid=12e2eb34-0a3c-49c1-b8e6-9db93976feb5","ios":"levelo://app?vid=12e2eb34-0a3c-49c1-b8e6-9db93976feb5"},"vehicle_type_id":"4","last_reported":1703614101,"current_range_meters":31200,"station_id":"ce4bhf92rcd13ifvqf50","pricing_plan_id":"free"},{"bike_id":"25144207-a989-440a-82e1-7e2ec2ad54d2","system_id":"levelo_inurba_marseille","lat":43.279087,"lon":5.380114,"is_reserved":false,"is_disabled":false,"rental_uris":{"android":"levelo://app?vid=25144207-a989-440a-82e1-7e2ec2ad54d2","ios":"levelo://app?vid=25144207-a989-440a-82e1-7e2ec2ad54d2"},"vehicle_type_id":"4","last_reported":1703614101,"current_range_meters":9200,"station_id":"ce4bhf92rcd13ifvqf50","pricing_plan_id":"free"},{"bike_id":"703bc676-5288-425d-9622-2e272fa24436","system_id":"levelo_inurba_marseille","lat":43.287154,"lon":5.399979,"is_reserved":false,"is_disabled":false,"rental_uris":{"android":"levelo://app?vid=703bc676-5288-425d-9622-2e272fa24436","ios":"levelo://app?vid=703bc676-5288-425d-9622-2e272fa24436"},"vehicle_type_id":"4","last_reported":1703614101,"current_range_meters":28800,"station_id":"ce4bho92rcd13ifvqh3g","pricing_plan_id":"free"},{"bike_id":"1f49b234-69ed-438e-8d08-179a4fc9c8c6","system_id":"levelo_inurba_marseille","lat":43.320045,"lon":5.415046,"is_reserved":false,"is_disabled":false,"rental_uris":{"android":"levelo://app?vid=1f49b234-69ed-438e-8d08-179a4fc9c8c6","ios":"levelo://app?vid=1f49b234-69ed-438e-8d08-179a4fc9c8c6"},"vehicle_type_id":"4","last_reported":1703614101,"current_range_meters":31200,"station_id":"ce4bhq92rcd13ifvqhkg","pricing_plan_id":"free"},{"bike_id":"c7bd3360-8623-45a1-80df-ba9edb342255","system_id":"levelo_inurba_marseille","lat":43.320045,"lon":5.415046,"is_reserved":false,"is_disabled":false,"rental_uris":{"android":"levelo://app?vid=c7bd3360-8623-45a1-80df-ba9edb342255","ios":"levelo://app?vid=c7bd3360-8623-45a1-80df-ba9edb342255"},"vehicle_type_id":"4","last_reported":1703614101,"current_range_meters":8400,"station_id":"ce4bhq92rcd13ifvqhkg","pricing_plan_id":"free"},{"bike_id":"0f9ba54f-2d34-4815-a7a3-85ee9d8e32a4","system_id":"levelo_inurba_marseille","lat":43.320045,"lon":5.415048,"is_reserved":false,"is_disabled":false,"rental_uris":{"android":"levelo://app?vid=0f9ba54f-2d34-4815-a7a3-85ee9d8e32a4","ios":"levelo://app?vid=0f9ba54f-2d34-4815-a7a3-85ee9d8e32a4"},"vehicle_type_id":"4","last_reported":1703614101,"current_range_meters":29200,"station_id":"ce4bhq92rcd13ifvqhkg","pricing_plan_id":"free"},{"bike_id":"ddf6ee76-df1d-4211-a047-b58bf2672a56","system_id":"levelo_inurba_marseille","lat":43.303837,"lon":5.418724,"is_reserved":false,"is_disabled":false,"rental_uris":{"android":"levelo://app?vid=ddf6ee76-df1d-4211-a047-b58bf2672a56","ios":"levelo://app?vid=ddf6ee76-df1d-4211-a047-b58bf2672a56"},"vehicle_type_id":"4","last_reported":1703614101,"current_range_meters":28000,"station_id":"ce4bhop2rcd13ifvqh7g","pricing_plan_id":"free"},{"bike_id":"9d6125c0-bcac-4fa9-acc9-7deec1125b58","system_id":"levelo_inurba_marseille","lat":43.27836,"lon":5.392,"is_reserved":false,"is_disabled":false,"rental_uris":{"android":"levelo://app?vid=9d6125c0-bcac-4fa9-acc9-7deec1125b58","ios":"levelo://app?vid=9d6125c0-bcac-4fa9-acc9-7deec1125b58"},"vehicle_type_id":"4","last_reported":1703614101,"current_range_meters":21600,"station_id":"ce4bhjp2rcd13ifvqga0","pricing_plan_id":"free"},{"bike_id":"272aebf6-3871-4774-92ef-8806c2ff89d1","system_id":"levelo_inurba_marseille","lat":43.278307,"lon":5.392064,"is_reserved":false,"is_disabled":false,"rental_uris":{"android":"levelo://app?vid=272aebf6-3871-4774-92ef-8806c2ff89d1","ios":"levelo://app?vid=272aebf6-3871-4774-92ef-8806c2ff89d1"},"vehicle_type_id":"4","last_reported":1703614101,"current_range_meters":27200,"station_id":"ce4bhjp2rcd13ifvqga0","pricing_plan_id":"free"},{"bike_id":"dbbf128a-13e7-4409-b9d6-79b544ad04a6","system_id":"levelo_inurba_marseille","lat":43.336134,"lon":5.410341,"is_reserved":false,"is_disabled":false,"rental_uris":{"android":"levelo://app?vid=dbbf128a-13e7-4409-b9d6-79b544ad04a6","ios":"levelo://app?vid=dbbf128a-13e7-4409-b9d6-79b544ad04a6"},"vehicle_type_id":"4","last_reported":1703614101,"current_range_meters":22800,"station_id":"ce4bhqh2rcd13ifvqhmg","pricing_plan_id":"free"},{"bike_id":"704be52c-3b70-4426-88c8-83f6ddc8792d","system_id":"levelo_inurba_marseille","lat":43.276769,"lon":5.388787,"is_reserved":false,"is_disabled":false,"rental_uris":{"android":"levelo://app?vid=704be52c-3b70-4426-88c8-83f6ddc8792d","ios":"levelo://app?vid=704be52c-3b70-4426-88c8-83f6ddc8792d"},"vehicle_type_id":"4","last_reported":1703614101,"current_range_meters":29200,"station_id":"ce4bhi12rcd13ifvqfo0","pricing_plan_id":"free"},{"bike_id":"405579c3-6615-4147-ad0c-8d8dfc60b07d","system_id":"levelo_inurba_marseille","lat":43.317121,"lon":5.423936,"is_reserved":false,"is_disabled":false,"rental_uris":{"android":"levelo://app?vid=405579c3-6615-4147-ad0c-8d8dfc60b07d","ios":"levelo://app?vid=405579c3-6615-4147-ad0c-8d8dfc60b07d"},"vehicle_type_id":"4","last_reported":1703614101,"current_range_meters":29200,"station_id":"ce4bhp92rcd13ifvqhbg","pricing_plan_id":"free"},{"bike_id":"c807b277-1704-46fd-9976-fda8eb7df135","system_id":"levelo_inurba_marseille","lat":43.31081,"lon":5.42426,"is_reserved":false,"is_disabled":false,"rental_uris":{"android":"levelo://app?vid=c807b277-1704-46fd-9976-fda8eb7df135","ios":"levelo://app?vid=c807b277-1704-46fd-9976-fda8eb7df135"},"vehicle_type_id":"4","last_reported":1703614101,"current_range_meters":20000,"station_id":"ce4bhp92rcd13ifvqhag","pricing_plan_id":"free"},{"bike_id":"c228ce51-0034-408b-93aa-dbde9bbacd8a","system_id":"levelo_inurba_marseille","lat":43.31084,"lon":5.42431,"is_reserved":false,"is_disabled":false,"rental_uris":{"android":"levelo://app?vid=c228ce51-0034-408b-93aa-dbde9bbacd8a","ios":"levelo://app?vid=c228ce51-0034-408b-93aa-dbde9bbacd8a"},"vehicle_type_id":"4","last_reported":1703614101,"current_range_meters":30000,"station_id":"ce4bhp92rcd13ifvqhag","pricing_plan_id":"free"},{"bike_id":"a5ef3ffe-074d-4034-8a49-1265e8309ea7","system_id":"levelo_inurba_marseille","lat":43.31085,"lon":5.42433,"is_reserved":false,"is_disabled":false,"rental_uris":{"android":"levelo://app?vid=a5ef3ffe-074d-4034-8a49-1265e8309ea7","ios":"levelo://app?vid=a5ef3ffe-074d-4034-8a49-1265e8309ea7"},"vehicle_type_id":"4","last_reported":1703614101,"current_range_meters":31200,"station_id":"ce4bhp92rcd13ifvqhag","pricing_plan_id":"free"},{"bike_id":"8688502e-c777-4738-8968-43d18688f77f","system_id":"levelo_inurba_marseille","lat":43.31082,"lon":5.42433,"is_reserved":false,"is_disabled":false,"rental_uris":{"android":"levelo://app?vid=8688502e-c777-4738-8968-43d18688f77f","ios":"levelo://app?vid=8688502e-c777-4738-8968-43d18688f77f"},"vehicle_type_id":"4","last_reported":1703614101,"current_range_meters":31200,"station_id":"ce4bhp92rcd13ifvqhag","pricing_plan_id":"free"},{"bike_id":"40000c49-67f1-4183-81bd-797685f5b1f8","system_id":"levelo_inurba_marseille","lat":43.31081,"lon":5.42435,"is_reserved":false,"is_disabled":false,"rental_uris":{"android":"levelo://app?vid=40000c49-67f1-4183-81bd-797685f5b1f8","ios":"levelo://app?vid=40000c49-67f1-4183-81bd-797685f5b1f8"},"vehicle_type_id":"4","last_reported":1703614101,"current_range_meters":28400,"station_id":"ce4bhp92rcd13ifvqhag","pricing_plan_id":"free"},{"bike_id":"68736a0c-c45e-44b7-9894-9250e5012bfe","system_id":"levelo_inurba_marseille","lat":43.31083,"lon":5.42436,"is_reserved":false,"is_disabled":false,"rental_uris":{"android":"levelo://app?vid=68736a0c-c45e-44b7-9894-9250e5012bfe","ios":"levelo://app?vid=68736a0c-c45e-44b7-9894-9250e5012bfe"},"vehicle_type_id":"4","last_reported":1703614101,"current_range_meters":26400,"station_id":"ce4bhp92rcd13ifvqhag","pricing_plan_id":"free"},{"bike_id":"b2974ce4-58ca-4652-8486-f4891c019db7","system_id":"levelo_inurba_marseille","lat":43.310785,"lon":5.424305,"is_reserved":false,"is_disabled":false,"rental_uris":{"android":"levelo://app?vid=b2974ce4-58ca-4652-8486-f4891c019db7","ios":"levelo://app?vid=b2974ce4-58ca-4652-8486-f4891c019db7"},"vehicle_type_id":"4","last_reported":1703614101,"current_range_meters":27200,"station_id":"ce4bhp92rcd13ifvqhag","pricing_plan_id":"free"},{"bike_id":"bb90a34b-3d33-434d-960c-40abe2f16ea4","system_id":"levelo_inurba_marseille","lat":43.31082,"lon":5.42439,"is_reserved":false,"is_disabled":false,"rental_uris":{"android":"levelo://app?vid=bb90a34b-3d33-434d-960c-40abe2f16ea4","ios":"levelo://app?vid=bb90a34b-3d33-434d-960c-40abe2f16ea4"},"vehicle_type_id":"4","last_reported":1703614101,"current_range_meters":28000,"station_id":"ce4bhp92rcd13ifvqhag","pricing_plan_id":"free"},