{"last_updated":1730498888,"ttl":60,"version":"2.2","data":{"bikes":[{"bike_id":"5bf3f753-f735-497a-a831-5b9bf24c3516","system_id":"levelo_inurba_marseille","lat":43.26031,"lon":5.37547,"is_reserved":false,"is_disabled":false,"rental_uris":{"android":"levelo://app?vid=5bf3f753-f735-497a-a831-5b9bf24c3516","ios":"levelo://app?vid=5bf3f753-f735-497a-a831-5b9bf24c3516"},"vehicle_type_id":"4","last_reported":1730498888,"current_range_meters":23200,"station_id":"ce4bhgh2rcd13ifvqfa0","pricing_plan_id":"cebpf4jnsgd1na2vs0mg"},{"bike_id":"7f47fea8-3b5e-437a-a31e-f4194bf70b17","system_id":"levelo_inurba_marseille","lat":43.24662,"lon":5.38152,"is_reserved":false,"is_disabled":false,"rental_uris":{"android":"levelo://app?vid=7f47fea8-3b5e-437a-a31e-f4194bf70b17","ios":"levelo://app?vid=7f47fea8-3b5e-437a-a31e-f4194bf70b17"},"vehicle_type_id":"4","last_reported":1730498888,"current_range_meters":32400,"station_id":"ce4bhih2rcd13ifvqfr0","pricing_plan_id":"cebpf4jnsgd1na2vs0mg"},{"bike_id":"fb29093b-f2cf-4386-a4f0-84965008c68b","system_id":"levelo_inurba_marseille","lat":43.31111,"lon":5.37769,"is_reserved":false,"is_disabled":false,"rental_uris":{"android":"levelo://app?vid=fb29093b-f2cf-4386-a4f0-84965008c68b","ios":"levelo://app?vid=fb29093b-f2cf-4386-a4f0-84965008c68b"},"vehicle_type_id":"4","last_reported":1730498888,"current_range_meters":16400,"station_id":"ce4bgt92rcd13ifvqcg0","pricing_plan_id":"cebpf4jnsgd1na2vs0mg"},{"bike_id":"53361ed5-44e3-4331-b1db-d839ce43605d","system_id":"levelo_inurba_marseille","lat":43.32665,"lon":5.40989,"is_reserved":false,"is_disabled":false,"rental_uris":{"android":"levelo://app?vid=53361ed5-44e3-4331-b1db-d839ce43605d","ios":"levelo://app?vid=53361ed5-44e3-4331-b1db-d839ce43605d"},"vehicle_type_id":"4","last_reported":1730498888,"current_range_meters":9200,"station_id":"ce4bhpp2rcd13ifvqhgg","pricing_plan_id":"cebpf4jnsgd1na2vs0mg"},{"bike_id":"8682c02d-b75e-4986-bf40-c0b0cf6578e7","system_id":"levelo_inurba_marseille","lat":43.32102,"lon":5.36773,"is_reserved":false,"is_disabled":false,"rental_uris":{"android":"levelo://app?vid=8682c02d-b75e-4986-bf40-c0b0cf6578e7","ios":"levelo://app?vid=8682c02d-b75e-4986-bf40-c0b0cf6578e7"},"vehicle_type_id":"4","last_reported":1730498888,"current_range_meters":38800,"station_id":"ce4bhrh2rcd13ifvqhug","pricing_plan_id":"cebpf4jnsgd1na2vs0mg"},{"bike_id":"4060b50c-15a4-41ff-9d32-c5b655d62ee3","system_id":"levelo_inurba_marseille","lat":43.28774,"lon":5.39007,"is_reserved":false,"is_disabled":false,"rental_uris":{"android":"levelo://app?vid=4060b50c-15a4-41ff-9d32-c5b655d62ee3","ios":"levelo://app?vid=4060b50c-15a4-41ff-9d32-c5b655d62ee3"},"vehicle_type_id":"4","last_reported":1730498888,"current_range_meters":8400,"station_id":"","pricing_plan_id":"cebpf4jnsgd1na2vs0mg"},{"bike_id":"da4b1b9f-a552-4935-bde7-5d2e3f226f86","system_id":"levelo_inurba_marseille","lat":43.29553,"lon":5.42286,"is_reserved":false,"is_disabled":false,"rental_uris":{"android":"levelo://app?vid=da4b1b9f-a552-4935-bde7-5d2e3f226f86","ios":"levelo://app?vid=da4b1b9f-a552-4935-bde7-5d2e3f226f86"},"vehicle_type_id":"4","last_reported":1730498888,"current_range_meters":38400,"station_id":"ce4bhph2rcd13ifvqhdg","pricing_plan_id":"cebpf4jnsgd1na2vs0mg"},{"bike_id":"01247e72-d93d-44bb-a492-b9bb7634f5bf","system_id":"levelo_inurba_marseille","lat":43.3117,"lon":5.38715,"is_reserved":false,"is_disabled":false,"rental_uris":{"android":"levelo://app?vid=01247e72-d93d-44bb-a492-b9bb7634f5bf","ios":"levelo://app?vid=01247e72-d93d-44bb-a492-b9bb7634f5bf"},"vehicle_type_id":"4","last_reported":1730498888,"current_range_meters":13600,"station_id":"ce4bgv12rcd13ifvqcp0","pricing_plan_id":"cebpf4jnsgd1na2vs0mg"},{"bike_id":"f2db7198-4220-45ab-8f67-5c82af524f11","system_id":"levelo_inurba_marseille","lat":43.29523,"lon":5.3905,"is_reserved":false,"is_disabled":false,"rental_uris":{"android":"levelo://app?vid=f2db7198-4220-45ab-8f67-5c82af524f11","ios":"levelo://app?vid=f2db7198-4220-45ab-8f67-5c82af524f11"},"vehicle_type_id":"4","last_reported":1730498888,"current_range_meters":37600,"station_id":"ce4bh3p2rcd13ifvqdp0","pricing_plan_id":"cebpf4jnsgd1na2vs0mg"},{"bike_id":"10ea9a0f-b501-4ef1-898a-613d9438f9dc","system_id":"levelo_inurba_marseille","lat":43.25825,"lon":5.39437,"is_reserved":false,"is_disabled":false,"rental_uris":{"android":"levelo://app?vid=10ea9a0f-b501-4ef1-898a-613d9438f9dc","ios":"levelo://app?vid=10ea9a0f-b501-4ef1-898a-613d9438f9dc"},"vehicle_type_id":"4","last_reported":1730498888,"current_range_meters":33600,"station_id":"ce4bhip2rcd13ifvqft0","pricing_plan_id":"cebpf4jnsgd1na2vs0mg"},{"bike_id":"512c4bd5-3edb-49b7-a54a-bbe327a08aa0","system_id":"levelo_inurba_marseille","lat":43.25732,"lon":5.41105,"is_reserved":false,"is_disabled":false,"rental_uris":{"android":"levelo://app?vid=512c4bd5-3edb-49b7-a54a-bbe327a08aa0","ios":"levelo://app?vid=512c4bd5-3edb-49b7-a54a-bbe327a08aa0"},"vehicle_type_id":"4","last_reported":1730498888,"current_range_meters":16400,"station_id":"ce4bhkp2rcd13ifvqgd0","pricing_plan_id":"cebpf4jnsgd1na2vs0mg"},{"bike_id":"a4627486-a087-47d1-bdea-e9476cd49986","system_id":"levelo_inurba_marseille","lat":43.23197,"lon":5.35547,"is_reserved":false,"is_disabled":false,"rental_uris":{"android":"levelo://app?vid=a4627486-a087-47d1-bdea-e9476cd49986","ios":"levelo://app?vid=a4627486-a087-47d1-bdea-e9476cd49986"},"vehicle_type_id":"4","last_reported":1730498888,"current_range_meters":29600,"station_id":"ce4bhu92rcd13ifvqi70","pricing_plan_id":"cebpf4jnsgd1na2vs0mg"},{"bike_id":"98606055-e59c-468c-9d5f-0ff0d6cc7798","system_id":"levelo_inurba_marseille","lat":43.29602,"lon":5.380995,"is_reserved":false,"is_disabled":false,"rental_uris":{"android":"levelo://app?vid=98606055-e59c-468c-9d5f-0ff0d6cc7798","ios":"levelo://app?vid=98606055-e59c-468c-9d5f-0ff0d6cc7798"},"vehicle_type_id":"4","last_reported":1730498888,"current_range_meters":32000,"station_id":"ce4bgl12rcd13ifvqbo0","pricing_plan_id":"cebpf4jnsgd1na2vs0mg"},{"bike_id":"509a9bdc-ca48-4855-8040-748bb9b3087b","system_id":"levelo_inurba_marseille","lat":43.25938,"lon":5.40893,"is_reserved":false,"is_disabled":false,"rental_uris":{"android":"levelo://app?vid=509a9bdc-ca48-4855-8040-748bb9b3087b","ios":"levelo://app?vid=509a9bdc-ca48-4855-8040-748bb9b3087b"},"vehicle_type_id":"4","last_reported":1730498888,"current_range_meters":25200,"station_id":"ce4bhm92rcd13ifvqglg","pricing_plan_id":"cebpf4jnsgd1na2vs0mg"},{"bike_id":"613a7d55-fbc6-427f-bf59-5c900b195db6","system_id":"levelo_inurba_marseille","lat":43.29025,"lon":5.38648,"is_reserved":false,"is_disabled":false,"rental_uris":{"android":"levelo://app?vid=613a7d55-fbc6-427f-bf59-5c900b195db6","ios":"levelo://app?vid=613a7d55-fbc6-427f-bf59-5c900b195db6"},"vehicle_type_id":"4","last_reported":1730498888,"current_range_meters":31200,"station_id":"ce4bh4p2rcd13ifvqe0g","pricing_plan_id":"cebpf4jnsgd1na2vs0mg"},{"bike_id":"87ed5b90-8e03-4a43-b258-8b0293b00409","system_id":"levelo_inurba_marseille","lat":43.28614,"lon":5.351,"is_reserved":false,"is_disabled":false,"rental_uris":{"android":"levelo://app?vid=87ed5b90-8e03-4a43-b258-8b0293b00409","ios":"levelo://app?vid=87ed5b90-8e03-4a43-b258-8b0293b00409"},"vehicle_type_id":"4","last_reported":1730498888,"current_range_meters":9200,"station_id":"ce4bhch2rcd13ifvqeug","pricing_plan_id":"cebpf4jnsgd1na2vs0mg"},{"bike_id":"ac4021a0-a62b-409d-8bf7-26ede467ef47","system_id":"levelo_inurba_marseille","lat":43.297786,"lon":5.403889,"is_reserved":false,"is_disabled":false,"rental_uris":{"android":"levelo://app?vid=ac4021a0-a62b-409d-8bf7-26ede467ef47","ios":"levelo://app?vid=ac4021a0-a62b-409d-8bf7-26ede467ef47"},"vehicle_type_id":"4","last_reported":1730498888,"current_range_meters":3600,"station_id":"ce4bh112rcd13ifvqd90","pricing_plan_id":"cebpf4jnsgd1na2vs0mg"},{"bike_id":"e5509989-8e42-4408-bbf5-a5d8fcd4071d","system_id":"levelo_inurba_marseille","lat":43.294632,"lon":5.385642,"is_reserved":false,"is_disabled":false,"rental_uris":{"android":"levelo://app?vid=e5509989-8e42-4408-bbf5-a5d8fcd4071d","ios":"levelo://app?vid=e5509989-8e42-4408-bbf5-a5d8fcd4071d"},"vehicle_type_id":"4","last_reported":1730498888,"current_range_meters":20800,"station_id":"","pricing_plan_id":"cebpf4jnsgd1na2vs0mg"},{"bike_id":"efbe383f-83c6-4df5-ac1f-ffa8f2e0197b","system_id":"levelo_inurba_marseille","lat":43.31335,"lon":5.39699,"is_reserved":false,"is_disabled":false,"rental_uris":{"android":"levelo://app?vid=efbe383f-83c6-4df5-ac1f-ffa8f2e0197b","ios":"levelo://app?vid=efbe383f-83c6-4df5-ac1f-ffa8f2e0197b"},"vehicle_type_id":"4","last_reported":1730498888,"current_range_meters":8000,"station_id":"ce4bgvp2rcd13ifvqcu0","pricing_plan_id":"cebpf4jnsgd1na2vs0mg"},{"bike_id":"34773571-d1ef-4029-88e1-49b50b78a386","system_id":"levelo_inurba_marseille","lat":43.2573,"lon":5.41114,"is_reserved":false,"is_disabled":false,"rental_uris":{"android":"levelo://app?vid=34773571-d1ef-4029-88e1-49b50b78a386","ios":"levelo://app?vid=34773571-d1ef-4029-88e1-49b50b78a386"},"vehicle_type_id":"4","last_reported":1730498888,"current_range_meters":2800,"station_id":"ce4bhkp2rcd13ifvqgd0","pricing_plan_id":"cebpf4jnsgd1na2vs0mg"},{"bike_id":"d8927fc2-6f46-4383-bb36-187c37344880","system_id":"levelo_inurba_marseille","lat":43.30142,"lon":5.38777,"is_reserved":false,"is_disabled":false,"rental_uris":{"android":"levelo://app?vid=d8927fc2-6f46-4383-bb36-187c37344880","ios":"levelo://app?vid=d8927fc2-6f46-4383-bb36-187c37344880"},"vehicle_type_id":"4","last_reported":1730498888,"current_range_meters":38800,"station_id":"ce4bghh2rcd13ifvqb60","pricing_plan_id":"cebpf4jnsgd1na2vs0mg"},{"bike_id":"d2896018-51ec-47f9-bd36-7737b82f546d","system_id":"levelo_inurba_marseille","lat":43.31488,"lon":5.37304,"is_reserved":false,"is_disabled":false,"rental_uris":{"android":"levelo://app?vid=d2896018-51ec-47f9-bd36-7737b82f546d","ios":"levelo://app?vid=d2896018-51ec-47f9-bd36-7737b82f546d"},"vehicle_type_id":"4","last_reported":1730498888,"current_range_meters":38400,"station_id":"ce4bgt12rcd13ifvqcd0","pricing_plan_id":"cebpf4jnsgd1na2vs0mg"},{"bike_id":"727f9214-35e2-4693-a132-fcd8d713c122","system_id":"levelo_inurba_marseille","lat":43.30929,"lon":5.40142,"is_reserved":false,"is_disabled":false,"rental_uris":{"android":"levelo://app?vid=727f9214-35e2-4693-a132-fcd8d713c122","ios":"levelo://app?vid=727f9214-35e2-4693-a132-fcd8d713c122"},"vehicle_type_id":"4","last_reported":1730498888,"current_range_meters":38800,"station_id":"ce4bgvp2rcd13ifvqct0","pricing_plan_id":"cebpf4jnsgd1na2vs0mg"},{"bike_id":"8cba0623-9dce-4e04-a8e4-327b466e7d92","system_id":"levelo_inurba_marseille","lat":43.28662,"lon":5.36356,"is_reserved":false,"is_disabled":false,"rental_uris":{"android":"levelo://app?vid=8cba0623-9dce-4e04-a8e4-327b466e7d92","ios":"levelo://app?vid=8cba0623-9dce-4e04-a8e4-327b466e7d92"},"vehicle_type_id":"4","last_reported":1730498888,"current_range_meters":38000,"station_id":"ce4bhah2rcd13ifvqej0","pricing_plan_id":"cebpf4jnsgd1na2vs0mg"},{"bike_id":"d939edb6-4472-4de1-920d-e35623da1e3c","system_id":"levelo_inurba_marseille","lat":43.27435,"lon":5.394115,"is_reserved":false,"is_disabled":false,"rental_uris":{"android":"levelo://app?vid=d939edb6-4472-4de1-920d-e35623da1e3c","ios":"levelo://app?vid=d939edb6-4472-4de1-920d-e35623da1e3c"},"vehicle_type_id":"4","last_reported":1730498888,"current_range_meters":38400,"station_id":"ce4bhdp2rcd13ifvqf20","pricing_plan_id":"cebpf4jnsgd1na2vs0mg"},{"bike_id":"53666ca2-d243-4f5e-8466-56bcf2799a94","system_id":"levelo_inurba_marseille","lat":43.29414,"lon":5.38629,"is_reserved":false,"is_disabled":false,"rental_uris":{"android":"levelo://app?vid=53666ca2-d243-4f5e-8466-56bcf2799a94","ios":"levelo://app?vid=53666ca2-d243-4f5e-8466-56bcf2799a94"},"vehicle_type_id":"4","last_reported":1730498888,"current_range_meters":11200,"station_id":"ce4bh2h2rcd13ifvqdh0","pricing_plan_id":"cebpf4jnsgd1na2vs0mg"},{"bike_id":"ca7418d4-c49d-4525-bde7-bfd3a3b3b27d","system_id":"levelo_inurba_marseille","lat":43.29423,"lon":5.38613,"is_reserved":false,"is_disabled":false,"rental_uris":{"android":"levelo://app?vid=ca7418d4-c49d-4525-bde7-bfd3a3b3b27d","ios":"levelo://app?vid=ca7418d4-c49d-4525-bde7-bfd3a3b3b27d"},"vehicle_type_id":"4","last_reported":1730498888,"current_range_meters":38000,"station_id":"ce4bh2h2rcd13ifvqdh0","pricing_plan_id":"cebpf4jnsgd1na2vs0mg"},{"bike_id":"dda0e212-4309-4695-9f60-11cac500acd1","system_id":"levelo_inurba_marseille","lat":43.30438,"lon":5.38894,"is_reserved":false,"is_disabled":false,"rental_uris":{"android":"levelo://app?vid=dda0e212-4309-4695-9f60-11cac500acd1","ios":"levelo://app?vid=dda0e212-4309-4695-9f60-11cac500acd1"},"vehicle_type_id":"4","last_reported":1730498888,"current_range_meters":38800,"station_id":"ce4bgk12rcd13ifvqbi0","pricing_plan_id":"cebpf4jnsgd1na2vs0mg"},{"bike_id":"8e860348-228f-405d-89f1-b2d5a7b9c901","system_id":"levelo_inurba_marseille","lat":43.29604,"lon":5.38096,"is_reserved":false,"is_disabled":false,"rental_uris":{"android":"levelo://app?vid=8e860348-228f-405d-89f1-b2d5a7b9c901","ios":"levelo://app?vid=8e860348-228f-405d-89f1-b2d5a7b9c901"},"vehicle_type_id":"4","last_reported":1730498888,"current_range_meters":38000,"station_id":"ce4bgl12rcd13ifvqbo0","pricing_plan_id":"cebpf4jnsgd1na2vs0mg"},{"bike_id":"5d33c49a-89b9-4778-8ce0-40bafcfb7158","system_id":"levelo_inurba_marseille","lat":43.2926,"lon":5.38448,"is_reserved":false,"is_disabled":false,"rental_uris":{"android":"levelo://app?vid=5d33c49a-89b9-4778-8ce0-40bafcfb7158","ios":"levelo://app?vid=5d33c49a-89b9-4778-8ce0-40bafcfb7158"},"vehicle_type_id":"4","last_reported":1730498888,"current_range_meters":10800,"station_id":"ce4bh692rcd13ifvqea0","pricing_plan_id":"cebpf4jnsgd1na2vs0mg"},{"bike_id":"956f1479-9e28-47c4-8d7e-8d831209c19f","system_id":"levelo_inurba_marseille","lat":43.30209,"lon":5.39476,"is_reserved":false,"is_disabled":false,"rental_uris":{"android":"levelo://app?vid=956f1479-9e28-47c4-8d7e-8d831209c19f","ios":"levelo://app?vid=956f1479-9e28-47c4-8d7e-8d831209c19f"},"vehicle_type_id":"4","last_reported":1730498888,"current_range_meters":38400,"station_id":"ce4bh0p2rcd13ifvqd70","pricing_plan_id":"cebpf4jnsgd1na2vs0mg"},{"bike_id":"8ac4f741-2911-42d6-a00a-51cf057a7d47","system_id":"levelo_inurba_marseille","lat":43.27498,"lon":5.42456,"is_reserved":false,"is_disabled":false,"rental_uris":{"android":"levelo://app?vid=8ac4f741-2911-42d6-a00a-51cf057a7d47","ios":"levelo://app?vid=8ac4f741-2911-42d6-a00a-51cf057a7d47"},"vehicle_type_id":"4","last_reported":1730498888,"current_range_meters":38800,"station_id":"ce4bhn92rcd13ifvqgrg","pricing_plan_id":"cebpf4jnsgd1na2vs0mg"},{"bike_id":"b56c78ce-95d3-4584-8dea-b6005d67852d","system_id":"levelo_inurba_marseille","lat":43.292,"lon":5.39318,"is_reserved":false,"is_disabled":false,"rental_uris":{"android":"levelo://app?vid=b56c78ce-95d3-4584-8dea-b6005d67852d","ios":"levelo://app?vid=b56c78ce-95d3-4584-8dea-b6005d67852d"},"vehicle_type_id":"4","last_reported":1730498888,"current_range_meters":4400,"station_id":"ce4bh192rcd13ifvqdd0","pricing_plan_id":"cebpf4jnsgd1na2vs0mg"},{"bike_id":"927cdf92-a252-437e-96d0-20884e5c00d0","system_id":"levelo_inurba_marseille","lat":43.31171,"lon":5.38729,"is_reserved":false,"is_disabled":false,"rental_uris":{"android":"levelo://app?vid=927cdf92-a252-437e-96d0-20884e5c00d0","ios":"levelo://app?vid=927cdf92-a252-437e-96d0-20884e5c00d0"},"vehicle_type_id":"4","last_reported":1730498888,"current_range_meters":16000,"station_id":"ce4bgv12rcd13ifvqcp0","pricing_plan_id":"cebpf4jnsgd1na2vs0mg"},{"bike_id":"3e4f331d-dcc1-46e6-9d10-cd5d116a5f49","system_id":"levelo_inurba_marseille","lat":43.29512,"lon":5.39396,"is_reserved":false,"is_disabled":false,"rental_uris":{"android":"levelo://app?vid=3e4f331d-dcc1-46e6-9d10-cd5d116a5f49","ios":"levelo://app?vid=3e4f331d-dcc1-46e6-9d10-cd5d116a5f49"},"vehicle_type_id":"4","last_reported":1730498888,"current_range_meters":38800,"station_id":"ce4bh292rcd13ifvqdf0","pricing_plan_id":"cebpf4jnsgd1na2vs0mg"},{"bike_id":"a7125d65-74ce-495d-817a-4658be7b2ef8","system_id":"levelo_inurba_marseille","lat":43.28704,"lon":5.37389,"is_reserved":false,"is_disabled":false,"rental_uris":{"android":"levelo://app?vid=a7125d65-74ce-495d-817a-4658be7b2ef8","ios":"levelo://app?vid=a7125d65-74ce-495d-817a-4658be7b2ef8"},"vehicle_type_id":"4","last_reported":1730498888,"current_range_meters":19600,"station_id":"ce4bh3p2rcd13ifvqdq0","pricing_plan_id":"cebpf4jnsgd1na2vs0mg"},{"bike_id":"4fcbeb62-63ac-4a93-9f6e-2a929a16fb8e","system_id":"levelo_inurba_marseille","lat":43.28702,"lon":5.37393,"is_reserved":false,"is_disabled":false,"rental_uris":{"android":"levelo://app?vid=4fcbeb62-63ac-4a93-9f6e-2a929a16fb8e","ios":"levelo://app?vid=4fcbeb62-63ac-4a93-9f6e-2a929a16fb8e"},"vehicle_type_id":"4","last_reported":1730498888,"current_range_meters":9600,"station_id":"ce4bh3p2rcd13ifvqdq0","pricing_plan_id":"cebpf4jnsgd1na2vs0mg"},{"bike_id":"dccc613c-7c9d-44fc-9625-47ccbc365073","system_id":"levelo_inurba_marseille","lat":43.27493,"lon":5.42451,"is_reserved":false,"is_disabled":false,"rental_uris":{"android":"levelo://app?vid=dccc613c-7c9d-44fc-9625-47ccbc365073","ios":"levelo://app?vid=dccc613c-7c9d-44fc-9625-47ccbc365073"},"vehicle_type_id":"4","last_reported":1730498888,"current_range_meters":38800,"station_id":"ce4bhn92rcd13ifvqgrg","pricing_plan_id":"cebpf4jnsgd1na2vs0mg"},{"bike_id":"faba172c-86ce-46d2-999d-c8a4a7dd2780","system_id":"levelo_inurba_marseille","lat":43.29251,"lon":5.38451,"is_reserved":false,"is_disabled":false,"rental_uris":{"android":"levelo://app?vid=faba172c-86ce-46d2-999d-c8a4a7dd2780","ios":"levelo://app?vid=faba172c-86ce-46d2-999d-c8a4a7dd2780"},"vehicle_type_id":"4","last_reported":1730498888,"current_range_meters":32800,"station_id":"ce4bh692rcd13ifvqea0","pricing_plan_id":"cebpf4jnsgd1na2vs0mg"},{"bike_id":"33c513c1-0c30-413c-9d3b-35dd29a13d6f","system_id":"levelo_inurba_marseille","lat":43.3169,"lon":5.40481,"is_reserved":false,"is_disabled":false,"rental_uris":{"android":"levelo://app?vid=33c513c1-0c30-413c-9d3b-35dd29a13d6f","ios":"levelo://app?vid=33c513c1-0c30-413c-9d3b-35dd29a13d6f"},"vehicle_type_id":"4","last_reported":1730498888,"current_range_meters":38000,"station_id":"ce4bh012rcd13ifvqd00","pricing_plan_id":"cebpf4jnsgd1na2vs0mg"},{"bike_id":"e34d395a-023f-4e43-8b15-cc986a73c0a7","system_id":"levelo_inurba_marseille","lat":43.28702,"lon":5.39981,"is_reserved":false,"is_disabled":false,"rental_uris":{"android":"levelo://app?vid=e34d395a-023f-4e43-8b15-cc986a73c0a7","ios":"levelo://app?vid=e34d395a-023f-4e43-8b15-cc986a73c0a7"},"vehicle_type_id":"4","last_reported":1730498888,"current_range_meters":38800,"station_id":"ce4bho92rcd13ifvqh3g","pricing_plan_id":"cebpf4jnsgd1na2vs0mg"},{"bike_id":"d13f50f8-8290-406f-b40c-3c00fbb374ab","system_id":"levelo_inurba_marseille","lat":43.28933,"lon":5.38399,"is_reserved":false,"is_disabled":false,"rental_uris":{"android":"levelo://app?vid=d13f50f8-8290-406f-b40c-3c00fbb374ab","ios":"levelo://app?vid=d13f50f8-8290-406f-b40c-3c00fbb374ab"},"vehicle_type_id":"4","last_reported":1730498888,"current_range_meters":38800,"station_id":"ce4bh612rcd13ifvqe6g","pricing_plan_id":"cebpf4jnsgd1na2vs0mg"},{"bike_id":"7aca20f8-1574-4b9d-bf15-a513db192236","system_id":"levelo_inurba_marseille","lat":43.29417,"lon":5.38631,"is_reserved":false,"is_disabled":false,"rental_uris":{"android":"levelo://app?vid=7aca20f8-1574-4b9d-bf15-a513db192236","ios":"levelo://app?vid=7aca20f8-1574-4b9d-bf15-a513db192236"},"vehicle_type_id":"4","last_reported":1730498888,"current_range_meters":38800,"station_id":"ce4bh2h2rcd13ifvqdh0","pricing_plan_id":"cebpf4jnsgd1na2vs0mg"},{"bike_id":"cc52de2e-7e4b-450e-9a23-852298d683d8","system_id":"levelo_inurba_marseille","lat":43.29528,"lon":5.37503,"is_reserved":false,"is_disabled":false,"rental_uris":{"android":"levelo://app?vid=cc52de2e-7e4b-450e-9a23-852298d683d8","ios":"levelo://app?vid=cc52de2e-7e4b-450e-9a23-852298d683d8"},"vehicle_type_id":"4","last_reported":1730498888,"current_range_meters":35600,"station_id":"ce4bgkp2rcd13ifvqbmg","pricing_plan_id":"cebpf4jnsgd1na2vs0mg"},{"bike_id":"86501ceb-c189-4af2-bac2-4f3b6c95b810","system_id":"levelo_inurba_marseille","lat":43.2942,"lon":5.38611,"is_reserved":false,"is_disabled":false,"rental_uris":{"android":"levelo://app?vid=86501ceb-c189-4af2-bac2-4f3b6c95b810","ios":"levelo://app?vid=86501ceb-c189-4af2-bac2-4f3b6c95b810"},"vehicle_type_id":"4","last_reported":1730498888,"current_range_meters":38400,"station_id":"ce4bh2h2rcd13ifvqdh0","pricing_plan_id":"cebpf4jnsgd1na2vs0mg"},{"bike_id":"95b0abe9-ea21-42b3-a093-96c7a8da01f6","system_id":"levelo_inurba_marseille","lat":43.2892,"lon":5.36405,"is_reserved":false,"is_disabled":false,"rental_uris":{"android":"levelo://app?vid=95b0abe9-ea21-42b3-a093-96c7a8da01f6","ios":"levelo://app?vid=95b0abe9-ea21-42b3-a093-96c7a8da01f6"},"vehicle_type_id":"4","last_reported":1730498888,"current_range_meters":19200,"station_id":"ce4bhc92rcd13ifvqetg","pricing_plan_id":"cebpf4jnsgd1na2vs0mg"},{"bike_id":"1994cd20-32ae-4177-8030-69c11b23a867","system_id":"levelo_inurba_marseille","lat":43.25112,"lon":5.40327,"is_reserved":false,"is_disabled":false,"rental_uris":{"android":"levelo://app?vid=1994cd20-32ae-4177-8030-69c11b23a867","ios":"levelo://app?vid=1994cd20-32ae-4177-8030-69c11b23a867"},"vehicle_type_id":"4","last_reported":1730498888,"current_range_meters":10800,"station_id":"ce4bhlh2rcd13ifvqgig","pricing_plan_id":"cebpf4jnsgd1na2vs0mg"},{"bike_id":"73471677-91da-434b-ba8d-02cf7e488941","system_id":"levelo_inurba_marseille","lat":43.24386,"lon":5.3706,"is_reserved":false,"is_disabled":false,"rental_uris":{"android":"levelo://app?vid=73471677-91da-434b-ba8d-02cf7e488941","ios":"levelo://app?vid=73471677-91da-434b-ba8d-02cf7e488941"},"vehicle_type_id":"4","last_reported":1730498888,"current_range_meters":18800,"station_id":"ce4bhhh2rcd13ifvqfk0","pricing_plan_id":"cebpf4jnsgd1na2vs0mg"},{"bike_id":"bd8735ce-4787-4ea7-948a-d7eb3faabfb1","system_id":"levelo_inurba_marseille","lat":43.2893,"lon":5.38393,"is_reserved":false,"is_disabled":false,"rental_uris":{"android":"levelo://app?vid=bd8735ce-4787-4ea7-948a-d7eb3faabfb1","ios":"levelo://app?vid=bd8735ce-4787-4ea7-948a-d7eb3faabfb1"},"vehicle_type_id":"4","last_reported":1730498888,"current_range_meters":20800,"station_id":"ce4bh612rcd13ifvqe6g","pricing_plan_id":"cebpf4jnsgd1na2vs0mg"},{"bike_id":"7dc1c1ed-2472-4dd8-84f9-9b00a0c2baff","system_id":"levelo_inurba_marseille","lat":43.29549,"lon":5.4228,"is_reserved":false,"is_disabled":false,"rental_uris":{"android":"levelo://app?vid=7dc1c1ed-2472-4dd8-84f9-9b00a0c2baff","ios":"levelo://app?vid=7dc1c1ed-2472-4dd8-84f9-9b00a0c2baff"},"vehicle_type_id":"4","last_reported":1730498888,"current_range_meters":38800,"station_id":"ce4bhph2rcd13ifvqhdg","pricing_plan_id":"cebpf4jnsgd1na2vs0mg"},{"bike_id":"bfe303db-6cda-40ee-b40d-56d16607fd9f","system_id":"levelo_inurba_marseille","lat":43.29845,"lon":5.36279,"is_reserved":false,"is_disabled":false,"rental_uris":{"android":"levelo://app?vid=bfe303db-6cda-40ee-b40d-56d16607fd9f","ios":"levelo://app?vid=bfe303db-6cda-40ee-b40d-56d16607fd9f"},"vehicle_type_id":"4","last_reported":1730498888,"current_range_meters":38000,"station_id":"ce4bgpp2rcd13ifvqc3g","pricing_plan_id":"cebpf4jnsgd1na2vs0mg"},{"bike_id":"cc2c6e9e-adec-4c59-b288-21ebbf8a6210","system_id":"levelo_inurba_marseille","lat":43.30808,"lon":5.38172,"is_reserved":false,"is_disabled":false,"rental_uris":{"android":"levelo://app?vid=cc2c6e9e-adec-4c59-b288-21ebbf8a6210","ios":"levelo://app?vid=cc2c6e9e-adec-4c59-b288-21ebbf8a6210"},"vehicle_type_id":"4","last_reported":1730498888,"current_range_meters":28000,"station_id":"ce4bgt12rcd13ifvqce0","pricing_plan_id":"cebpf4jnsgd1na2vs0mg"},{"bike_id":"fa6d808e-d533-491e-8823-4300020e1493","system_id":"levelo_inurba_marseille","lat":43.29877,"lon":5.38901,"is_reserved":false,"is_disabled":false,"rental_uris":{"android":"levelo://app?vid=fa6d808e-d533-491e-8823-4300020e1493","ios":"levelo://app?vid=fa6d808e-d533-491e-8823-4300020e1493"},"vehicle_type_id":"4","last_reported":1730498888,"current_range_meters":27200,"station_id":"ce4bh392rcd13ifvqdl0","pricing_plan_id":"cebpf4jnsgd1na2vs0mg"},{"bike_id":"4dd74b80-423d-4a82-8b5a-fef5ebd97f46","system_id":"levelo_inurba_marseille","lat":43.2439,"lon":5.37058,"is_reserved":false,"is_disabled":false,"rental_uris":{"android":"levelo://app?vid=4dd74b80-423d-4a82-8b5a-fef5ebd97f46","ios":"levelo://app?vid=4dd74b80-423d-4a82-8b5a-fef5ebd97f46"},"vehicle_type_id":"4","last_reported":1730498888,"current_range_meters":24800,"station_id":"ce4bhhh2rcd13ifvqfk0","pricing_plan_id":"cebpf4jnsgd1na2vs0mg"},{"bike_id":"afa39957-71be-4682-bdac-91a4c814290b","system_id":"levelo_inurba_marseille","lat":43.28929,"lon":5.38396,"is_reserved":false,"is_disabled":false,"rental_uris":{"android":"levelo://app?vid=afa39957-71be-4682-bdac-91a4c814290b","ios":"levelo://app?vid=afa39957-71be-4682-bdac-91a4c814290b"},"vehicle_type_id":"4","last_reported":1730498888,"current_range_meters":39200,"station_id":"ce4bh612rcd13ifvqe6g","pricing_plan_id":"cebpf4jnsgd1na2vs0mg"},{"bike_id":"9938ebcd-9900-4f33-ae62-087d07b91466","system_id":"levelo_inurba_marseille","lat":43.25726,"lon":5.41104,"is_reserved":false,"is_disabled":false,"rental_uris":{"android":"levelo://app?vid=9938ebcd-9900-4f33-ae62-087d07b91466","ios":"levelo://app?vid=9938ebcd-9900-4f33-ae62-087d07b91466"},"vehicle_type_id":"4","last_reported":1730498888,"current_range_meters":38800,"station_id":"ce4bhkp2rcd13ifvqgd0","pricing_plan_id":"cebpf4jnsgd1na2vs0mg"},{"bike_id":"f81c9dc1-d86c-4ae4-bbfb-f96586a0c69c","system_id":"levelo_inurba_marseille","lat":43.29249,"lon":5.38455,"is_reserved":false,"is_disabled":false,"rental_uris":{"android":"levelo://app?vid=f81c9dc1-d86c-4ae4-bbfb-f96586a0c69c","ios":"levelo://app?vid=f81c9dc1-d86c-4ae4-bbfb-f96586a0c69c"},"vehicle_type_id":"4","last_reported":1730498888,"current_range_meters":38800,"station_id":"ce4bh692rcd13ifvqea0","pricing_plan_id":"cebpf4jnsgd1na2vs0mg"},{"bike_id":"e960ac30-070e-494a-a9c1-effafcd9c6f4","system_id":"levelo_inurba_marseille","lat":43.29458,"lon":5.39585,"is_reserved":false,"is_disabled":false,"rental_uris":{"android":"levelo://app?vid=e960ac30-070e-494a-a9c1-effafcd9c6f4","ios":"levelo://app?vid=e960ac30-070e-494a-a9c1-effafcd9c6f4"},"vehicle_type_id":"4","last_reported":1730498888,"current_range_meters":10800,"station_id":"","pricing_plan_id":"cebpf4jnsgd1na2vs0mg"},{"bike_id":"69b19630-c65e-47f5-8f1d-2705b847d650","system_id":"levelo_inurba_marseille","lat":43.30608,"lon":5.37228,"is_reserved":false,"is_disabled":false,"rental_uris":{"android":"levelo://app?vid=69b19630-c65e-47f5-8f1d-2705b847d650","ios":"levelo://app?vid=69b19630-c65e-47f5-8f1d-2705b847d650"},"vehicle_type_id":"4","last_reported":1730498888,"current_range_meters":38800,"station_id":"ce4bgqh2rcd13ifvqc4g","pricing_plan_id":"cebpf4jnsgd1na2vs0mg"},{"bike_id":"99d0ee73-2391-487d-8bd2-5dd26fd3a101","system_id":"levelo_inurba_marseille","lat":43.30155,"lon":5.39876,"is_reserved":false,"is_disabled":false,"rental_uris":{"android":"levelo://app?vid=99d0ee73-2391-487d-8bd2-5dd26fd3a101","ios":"levelo://app?vid=99d0ee73-2391-487d-8bd2-5dd26fd3a101"},"vehicle_type_id":"4","last_reported":1730498888,"current_range_meters":24800,"station_id":"ce4bh0h2rcd13ifvqd40","pricing_plan_id":"cebpf4jnsgd1na2vs0mg"},{"bike_id":"5a588df1-fc21-4202-a0ec-c725a0368f37","system_id":"levelo_inurba_marseille","lat":43.27944,"lon":5.41042,"is_reserved":false,"is_disabled":false,"rental_uris":{"android":"levelo://app?vid=5a588df1-fc21-4202-a0ec-c725a0368f37","ios":"levelo://app?vid=5a588df1-fc21-4202-a0ec-c725a0368f37"},"vehicle_type_id":"4","last_reported":1730498888,"current_range_meters":36800,"station_id":"ce4bhnp2rcd13ifvqh0g","pricing_plan_id":"cebpf4jnsgd1na2vs0mg"},{"bike_id":"42890dc6-02c7-4ea9-9f5a-99ce200c07cf","system_id":"levelo_inurba_marseille","lat":43.30209,"lon":5.3946,"is_reserved":false,"is_disabled":false,"rental_uris":{"android":"levelo://app?vid=42890dc6-02c7-4ea9-9f5a-99ce200c07cf","ios":"levelo://app?vid=42890dc6-02c7-4ea9-9f5a-99ce200c07cf"},"vehicle_type_id":"4","last_reported":1730498888,"current_range_meters":38000,"station_id":"ce4bh0p2rcd13ifvqd70","pricing_plan_id":"cebpf4jnsgd1na2vs0mg"},{"bike_id":"988fb15d-281e-40df-8e67-8061ffcdd50e","system_id":"levelo_inurba_marseille","lat":43.308012,"lon":5.381668,"is_reserved":false,"is_disabled":false,"rental_uris":{"android":"levelo://app?vid=988fb15d-281e-40df-8e67-8061ffcdd50e","ios":"levelo://app?vid=988fb15d-281e-40df-8e67-8061ffcdd50e"},"vehicle_type_id":"4","last_reported":1730498888,"current_range_meters":36000,"station_id":"ce4bgt12rcd13ifvqce0","pricing_plan_id":"cebpf4jnsgd1na2vs0mg"},{"bike_id":"a14e2691-daf5-491c-b98d-f73686dec4fa","system_id":"levelo_inurba_marseille","lat":43.28662,"lon":5.38661,"is_reserved":false,"is_disabled":false,"rental_uris":{"android":"levelo://app?vid=a14e2691-daf5-491c-b98d-f73686dec4fa","ios":"levelo://app?vid=a14e2691-daf5-491c-b98d-f73686dec4fa"},"vehicle_type_id":"4","last_reported":1730498888,"current_range_meters":16000,"station_id":"ce4bh492rcd13ifvqdug","pricing_plan_id":"cebpf4jnsgd1na2vs0mg"},{"bike_id":"d69eef29-33f1-400b-9dbd-e583b4f600d8","system_id":"levelo_inurba_marseille","lat":43.24665,"lon":5.38896,"is_reserved":false,"is_disabled":false,"rental_uris":{"android":"levelo://app?vid=d69eef29-33f1-400b-9dbd-e583b4f600d8","ios":"levelo://app?vid=d69eef29-33f1-400b-9dbd-e583b4f600d8"},"vehicle_type_id":"4","last_reported":1730498888,"current_range_meters":34000,"station_id":"ce4bhg12rcd13ifvqf60","pricing_plan_id":"cebpf4jnsgd1na2vs0mg"},{"bike_id":"bd4e2b20-1aa1-479f-bd96-ad4e0572a62c","system_id":"levelo_inurba_marseille","lat":43.32484,"lon":5.36576,"is_reserved":false,"is_disabled":false,"rental_uris":{"android":"levelo://app?vid=bd4e2b20-1aa1-479f-bd96-ad4e0572a62c","ios":"levelo://app?vid=bd4e2b20-1aa1-479f-bd96-ad4e0572a62c"},"vehicle_type_id":"4","last_reported":1730498888,"current_range_meters":28000,"station_id":"ce4bhs12rcd13ifvqhvg","pricing_plan_id":"cebpf4jnsgd1na2vs0mg"},{"bike_id":"7ecf360b-c330-4319-b95c-5fe5e198de21","system_id":"levelo_inurba_marseille","lat":43.3078,"lon":5.37647,"is_reserved":false,"is_disabled":false,"rental_uris":{"android":"levelo://app?vid=7ecf360b-c330-4319-b95c-5fe5e198de21","ios":"levelo://app?vid=7ecf360b-c330-4319-b95c-5fe5e198de21"},"vehicle_type_id":"4","last_reported":1730498888,"current_range_meters":38400,"station_id":"ce4bgv92rcd13ifvqcq0","pricing_plan_id":"cebpf4jnsgd1na2vs0mg"},{"bike_id":"2749a0d0-f853-40f1-94a4-905f9c1a5e39","system_id":"levelo_inurba_marseille","lat":43.28728,"lon":5.37934,"is_reserved":false,"is_disabled":false,"rental_uris":{"android":"levelo://app?vid=2749a0d0-f853-40f1-94a4-905f9c1a5e39","ios":"levelo://app?vid=2749a0d0-f853-40f1-94a4-905f9c1a5e39"},"vehicle_type_id":"4","last_reported":1730498888,"current_range_meters":38800,"station_id":"ce4bh9p2rcd13ifvqec0","pricing_plan_id":"cebpf4jnsgd1na2vs0mg"},{"bike_id":"66047545-0fb8-424f-9043-6c30d457954a","system_id":"levelo_inurba_marseille","lat":43.3093,"lon":5.40141,"is_reserved":false,"is_disabled":false,"rental_uris":{"android":"levelo://app?vid=66047545-0fb8-424f-9043-6c30d457954a","ios":"levelo://app?vid=66047545-0fb8-424f-9043-6c30d457954a"},"vehicle_type_id":"4","last_reported":1730498888,"current_range_meters":12800,"station_id":"ce4bgvp2rcd13ifvqct0","pricing_plan_id":"cebpf4jnsgd1na2vs0mg"},{"bike_id":"06be640b-96e2-4919-955a-a51491d326e8","system_id":"levelo_inurba_marseille","lat":43.30797,"lon":5.43527,"is_reserved":false,"is_disabled":false,"rental_uris":{"android":"levelo://app?vid=06be640b-96e2-4919-955a-a51491d326e8","ios":"levelo://app?vid=06be640b-96e2-4919-955a-a51491d326e8"},"vehicle_type_id":"4","last_reported":1730498888,"current_range_meters":32400,"station_id":"ce4bhph2rcd13ifvqheg","pricing_plan_id":"cebpf4jnsgd1na2vs0mg"},{"bike_id":"8df2a536-85e2-4625-b049-08d00f519928","system_id":"levelo_inurba_marseille","lat":43.28969,"lon":5.37836,"is_reserved":false,"is_disabled":false,"rental_uris":{"android":"levelo://app?vid=8df2a536-85e2-4625-b049-08d00f519928","ios":"levelo://app?vid=8df2a536-85e2-4625-b049-08d00f519928"},"vehicle_type_id":"4","last_reported":1730498888,"current_range_meters":38800,"station_id":"ce4bh9p2rcd13ifvqed0","pricing_plan_id":"cebpf4jnsgd1na2vs0mg"},{"bike_id":"8e03cbf0-6e85-4204-b689-62114c04dc75","system_id":"levelo_inurba_marseille","lat":43.28702,"lon":5.3998,"is_reserved":false,"is_disabled":false,"rental_uris":{"android":"levelo://app?vid=8e03cbf0-6e85-4204-b689-62114c04dc75","ios":"levelo://app?vid=8e03cbf0-6e85-4204-b689-62114c04dc75"},"vehicle_type_id":"4","last_reported":1730498888,"current_range_meters":21600,"station_id":"ce4bho92rcd13ifvqh3g","pricing_plan_id":"cebpf4jnsgd1na2vs0mg"},{"bike_id":"50ab6d02-5cf7-4ab5-a9ca-83d9edd20f3f","system_id":"levelo_inurba_marseille","lat":43.30256,"lon":5.40068,"is_reserved":false,"is_disabled":false,"rental_uris":{"android":"levelo://app?vid=50ab6d02-5cf7-4ab5-a9ca-83d9edd20f3f","ios":"levelo://app?vid=50ab6d02-5cf7-4ab5-a9ca-83d9edd20f3f"},"vehicle_type_id":"4","last_reported":1730498888,"current_range_meters":24800,"station_id":"ce4bgvh2rcd13ifvqcs0","pricing_plan_id":"cebpf4jnsgd1na2vs0mg"},{"bike_id":"658dacf4-7ef3-4634-8126-9bbd88e5a6eb","system_id":"levelo_inurba_marseille","lat":43.231935,"lon":5.35548,"is_reserved":false,"is_disabled":false,"rental_uris":{"android":"levelo://app?vid=658dacf4-7ef3-4634-8126-9bbd88e5a6eb","ios":"levelo://app?vid=658dacf4-7ef3-4634-8126-9bbd88e5a6eb"},"vehicle_type_id":"4","last_reported":1730498888,"current_range_meters":22800,"station_id":"ce4bhu92rcd13ifvqi70","pricing_plan_id":"cebpf4jnsgd1na2vs0mg"},{"bike_id":"b98cfd7f-acdf-400e-bf8f-9132b0f74693","system_id":"levelo_inurba_marseille","lat":43.281042,"lon":5.37844,"is_reserved":false,"is_disabled":false,"rental_uris":{"android":"levelo://app?vid=b98cfd7f-acdf-400e-bf8f-9132b0f74693","ios":"levelo://app?vid=b98cfd7f-acdf-400e-bf8f-9132b0f74693"},"vehicle_type_id":"4","last_reported":1730498888,"current_range_meters":28800,"station_id":"ce4bha12rcd13ifvqee0","pricing_plan_id":"cebpf4jnsgd1na2vs0mg"},{"bike_id":"e62e38a9-284c-4b15-bfe8-8b214b98f04b","system_id":"levelo_inurba_marseille","lat":43.2305,"lon":5.35493,"is_reserved":false,"is_disabled":false,"rental_uris":{"android":"levelo://app?vid=e62e38a9-284c-4b15-bfe8-8b214b98f04b","ios":"levelo://app?vid=e62e38a9-284c-4b15-bfe8-8b214b98f04b"},"vehicle_type_id":"4","last_reported":1730498888,"current_range_meters":24800,"station_id":"cpo3342slgdg3j2ifvpg","pricing_plan_id":"cebpf4jnsgd1na2vs0mg"},{"bike_id":"8467fedf-7c26-41e5-8c2d-54535cb434fe","system_id":"levelo_inurba_marseille","lat":43.29029,"lon":5.38637,"is_reserved":false,"is_disabled":false,"rental_uris":{"android":"levelo://app?vid=8467fedf-7c26-41e5-8c2d-54535cb434fe","ios":"levelo://app?vid=8467fedf-7c26-41e5-8c2d-54535cb434fe"},"vehicle_type_id":"4","last_reported":1730498888,"current_range_meters":20000,"station_id":"ce4bh4p2rcd13ifvqe0g","pricing_plan_id":"cebpf4jnsgd1na2vs0mg"},{"bike_id":"54c851ab-23d2-4aa5-b3b1-52c639b79f0a","system_id":"levelo_inurba_marseille","lat":43.25823,"lon":5.39425,"is_reserved":false,"is_disabled":false,"rental_uris":{"android":"levelo://app?vid=54c851ab-23d2-4aa5-b3b1-52c639b79f0a","ios":"levelo://app?vid=54c851ab-23d2-4aa5-b3b1-52c639b79f0a"},"vehicle_type_id":"4","last_reported":1730498888,"current_range_meters":37600,"station_id":"ce4bhip2rcd13ifvqft0","pricing_plan_id":"cebpf4jnsgd1na2vs0mg"},{"bike_id":"1ced4d08-43fd-46f8-ab9a-555d4f897397","system_id":"levelo_inurba_marseille","lat":43.3229,"lon":5.38272,"is_reserved":false,"is_disabled":false,"rental_uris":{"android":"levelo://app?vid=1ced4d08-43fd-46f8-ab9a-555d4f897397","ios":"levelo://app?vid=1ced4d08-43fd-46f8-ab9a-555d4f897397"},"vehicle_type_id":"4","last_reported":1730498888,"current_range_meters":25200,"station_id":"ce4bhr12rcd13ifvqhqg","pricing_plan_id":"cebpf4jnsgd1na2vs0mg"},{"bike_id":"a3120b9d-7f7c-489b-bd2d-43eea791cd04","system_id":"levelo_inurba_marseille","lat":43.29922,"lon":5.37463,"is_reserved":false,"is_disabled":false,"rental_uris":{"android":"levelo://app?vid=a3120b9d-7f7c-489b-bd2d-43eea791cd04","ios":"levelo://app?vid=a3120b9d-7f7c-489b-bd2d-43eea791cd04"},"vehicle_type_id":"4","last_reported":1730498888,"current_range_meters":18800,"station_id":"ce4bgjh2rcd13ifvqbg0","pricing_plan_id":"cebpf4jnsgd1na2vs0mg"},{"bike_id":"aad83483-aaa8-43f3-b586-ce82558627fc","system_id":"levelo_inurba_marseille","lat":43.30303,"lon":5.39206,"is_reserved":false,"is_disabled":false,"rental_uris":{"android":"levelo://app?vid=aad83483-aaa8-43f3-b586-ce82558627fc","ios":"levelo://app?vid=aad83483-aaa8-43f3-b586-ce82558627fc"},"vehicle_type_id":"4","last_reported":1730498888,"current_range_meters":38000,"station_id":"ce4bgkh2rcd13ifvqbk0","pricing_plan_id":"cebpf4jnsgd1na2vs0mg"},{"bike_id":"d01a7532-4379-4554-9b46-57f3cd0a1fa3","system_id":"levelo_inurba_marseille","lat":43.25588,"lon":5.3823,"is_reserved":false,"is_disabled":false,"rental_uris":{"android":"levelo://app?vid=d01a7532-4379-4554-9b46-57f3cd0a1fa3","ios":"levelo://app?vid=d01a7532-4379-4554-9b46-57f3cd0a1fa3"},"vehicle_type_id":"4","last_reported":1730498888,"current_range_meters":30800,"station_id":"ce4bhih2rcd13ifvqfs0","pricing_plan_id":"cebpf4jnsgd1na2vs0mg"},{"bike_id":"06bafe2f-5ab2-48d6-b3d1-6b00cdae1a8c","system_id":"levelo_inurba_marseille","lat":43.30146,"lon":5.38086,"is_reserved":false,"is_disabled":false,"rental_uris":{"android":"levelo://app?vid=06bafe2f-5ab2-48d6-b3d1-6b00cdae1a8c","ios":"levelo://app?vid=06bafe2f-5ab2-48d6-b3d1-6b00cdae1a8c"},"vehicle_type_id":"4","last_reported":1730498888,"current_range_meters":38800,"station_id":"ce4bgjp2rcd13ifvqbh0","pricing_plan_id":"cebpf4jnsgd1na2vs0mg"},{"bike_id":"b0d0f0bb-42ff-4ebf-8686-64832137c359","system_id":"levelo_inurba_marseille","lat":43.29033,"lon":5.38136,"is_reserved":false,"is_disabled":false,"rental_uris":{"android":"levelo://app?vid=b0d0f0bb-42ff-4ebf-8686-64832137c359","ios":"levelo://app?vid=b0d0f0bb-42ff-4ebf-8686-64832137c359"},"vehicle_type_id":"4","last_reported":1730498888,"current_range_meters":36400,"station_id":"ce4bh4p2rcd13ifvqe1g","pricing_plan_id":"cebpf4jnsgd1na2vs0mg"},{"bike_id":"b890158d-4cc0-42ea-b1b1-cf934d08cc8a","system_id":"levelo_inurba_marseille","lat":43.32366,"lon":5.38878,"is_reserved":false,"is_disabled":false,"rental_uris":{"android":"levelo://app?vid=b890158d-4cc0-42ea-b1b1-cf934d08cc8a","ios":"levelo://app?vid=b890158d-4cc0-42ea-b1b1-cf934d08cc8a"},"vehicle_type_id":"4","last_reported":1730498888,"current_range_meters":30800,"station_id":"ce4bhqp2rcd13ifvqhog","pricing_plan_id":"cebpf4jnsgd1na2vs0mg"},{"bike_id":"fe9625bd-3854-4eec-a593-8fa0f2878c84","system_id":"levelo_inurba_marseille","lat":43.29531,"lon":5.38534,"is_reserved":false,"is_disabled":false,"rental_uris":{"android":"levelo://app?vid=fe9625bd-3854-4eec-a593-8fa0f2878c84","ios":"levelo://app?vid=fe9625bd-3854-4eec-a593-8fa0f2878c84"},"vehicle_type_id":"4","last_reported":1730498888,"current_range_meters":15200,"station_id":"ce4bgih2rcd13ifvqba0","pricing_plan_id":"cebpf4jnsgd1na2vs0mg"},{"bike_id":"5dfc5511-3b28-411a-bc77-7d913f352b0b","system_id":"levelo_inurba_marseille","lat":43.2893,"lon":5.36631,"is_reserved":false,"is_disabled":false,"rental_uris":{"android":"levelo://app?vid=5dfc5511-3b28-411a-bc77-7d913f352b0b","ios":"levelo://app?vid=5dfc5511-3b28-411a-bc77-7d913f352b0b"},"vehicle_type_id":"4","last_reported":1730498888,"current_range_meters":25200,"station_id":"ce4bhap2rcd13ifvqek0","pricing_plan_id":"cebpf4jnsgd1na2vs0mg"},{"bike_id":"569b0fbe-ed72-417d-9e56-1ca18cf64965","system_id":"levelo_inurba_marseille","lat":43.29708,"lon":5.36161,"is_reserved":false,"is_disabled":false,"rental_uris":{"android":"levelo://app?vid=569b0fbe-ed72-417d-9e56-1ca18cf64965","ios":"levelo://app?vid=569b0fbe-ed72-417d-9e56-1ca18cf64965"},"vehicle_type_id":"4","last_reported":1730498888,"current_range_meters":34000,"station_id":"","pricing_plan_id":"cebpf4jnsgd1na2vs0mg"},{"bike_id":"07039837-b8c2-46fc-82a9-b7f62cec4c36","system_id":"levelo_inurba_marseille","lat":43.29592,"lon":5.38101,"is_reserved":false,"is_disabled":false,"rental_uris":{"android":"levelo://app?vid=07039837-b8c2-46fc-82a9-b7f62cec4c36","ios":"levelo://app?vid=07039837-b8c2-46fc-82a9-b7f62cec4c36"},"vehicle_type_id":"4","last_reported":1730498888,"current_range_meters":28000,"station_id":"ce4bgl12rcd13ifvqbo0","pricing_plan_id":"cebpf4jnsgd1na2vs0mg"},{"bike_id":"49fa9b25-41dd-4d2f-8a0f-daceffc956d9","system_id":"levelo_inurba_marseille","lat":43.27664,"lon":5.38866,"is_reserved":false,"is_disabled":false,"rental_uris":{"android":"levelo://app?vid=49fa9b25-41dd-4d2f-8a0f-daceffc956d9","ios":"levelo://app?vid=49fa9b25-41dd-4d2f-8a0f-daceffc956d9"},"vehicle_type_id":"4","last_reported":1730498888,"current_range_meters":32800,"station_id":"ce4bhi12rcd13ifvqfo0","pricing_plan_id":"cebpf4jnsgd1na2vs0mg"},{"bike_id":"ae6438f8-57ee-43d4-8e49-35f050ba43cc","system_id":"levelo_inurba_marseille","lat":43.29253,"lon":5.3844,"is_reserved":false,"is_disabled":false,"rental_uris":{"android":"levelo://app?vid=ae6438f8-57ee-43d4-8e49-35f050ba43cc","ios":"levelo://app?vid=ae6438f8-57ee-43d4-8e49-35f050ba43cc"},"vehicle_type_id":"4","last_reported":1730498888,"current_range_meters":30800,"station_id":"ce4bh692rcd13ifvqea0","pricing_plan_id":"cebpf4jnsgd1na2vs0mg"},{"bike_id":"bfab254b-dda0-49c5-ae2e-902568de5a52","system_id":"levelo_inurba_marseille","lat":43.25115,"lon":5.40327,"is_reserved":false,"is_disabled":false,"rental_uris":{"android":"levelo://app?vid=bfab254b-dda0-49c5-ae2e-902568de5a52","ios":"levelo://app?vid=bfab254b-dda0-49c5-ae2e-902568de5a52"},"vehicle_type_id":"4","last_reported":1730498888,"current_range_meters":9200,"station_id":"ce4bhlh2rcd13ifvqgig","pricing_plan_id":"cebpf4jnsgd1na2vs0mg"},{"bike_id":"99c75985-eb4a-49d1-83f4-1dfd2721cdb2","system_id":"levelo_inurba_marseille","lat":43.30895,"lon":5.37191,"is_reserved":false,"is_disabled":false,"rental_uris":{"android":"levelo://app?vid=99c75985-eb4a-49d1-83f4-1dfd2721cdb2","ios":"levelo://app?vid=99c75985-eb4a-49d1-83f4-1dfd2721cdb2"},"vehicle_type_id":"4","last_reported":1730498888,"current_range_meters":28000,"station_id":"ce4bguh2rcd13ifvqckg","pricing_plan_id":"cebpf4jnsgd1na2vs0mg"},{"bike_id":"fddf9f91-21a3-47a1-bc35-78aff98c35f7","system_id":"levelo_inurba_marseille","lat":43.29419,"lon":5.38617,"is_reserved":false,"is_disabled":false,"rental_uris":{"android":"levelo://app?vid=fddf9f91-21a3-47a1-bc35-78aff98c35f7","ios":"levelo://app?vid=fddf9f91-21a3-47a1-bc35-78aff98c35f7"},"vehicle_type_id":"4","last_reported":1730498888,"current_range_meters":14800,"station_id":"ce4bh2h2rcd13ifvqdh0","pricing_plan_id":"cebpf4jnsgd1na2vs0mg"},{"bike_id":"9b3cdd1c-31e2-45e9-a347-f5de25356952","system_id":"levelo_inurba_marseille","lat":43.29417,"lon":5.38613,"is_reserved":false,"is_disabled":false,"rental_uris":{"android":"levelo://app?vid=9b3cdd1c-31e2-45e9-a347-f5de25356952","ios":"levelo://app?vid=9b3cdd1c-31e2-45e9-a347-f5de25356952"},"vehicle_type_id":"4","last_reported":1730498888,"current_range_meters":38800,"station_id":"ce4bh2h2rcd13ifvqdh0","pricing_plan_id":"cebpf4jnsgd1na2vs0mg"},{"bike_id":"b9dae35d-f9f9-4405-947e-479a57dd0f89","system_id":"levelo_inurba_marseille","lat":43.2885,"lon":5.35859,"is_reserved":false,"is_disabled":false,"rental_uris":{"android":"levelo://app?vid=b9dae35d-f9f9-4405-947e-479a57dd0f89","ios":"levelo://app?vid=b9dae35d-f9f9-4405-947e-479a57dd0f89"},"vehicle_type_id":"4","last_reported":1730498888,"current_range_meters":38400,"station_id":"ce4bhb12rcd13ifvqem0","pricing_plan_id":"cebpf4jnsgd1na2vs0mg"},{"bike_id":"59a99926-5b79-4af6-b314-341f25656fe2","system_id":"levelo_inurba_marseille","lat":43.29197,"lon":5.39326,"is_reserved":false,"is_disabled":false,"rental_uris":{"android":"levelo://app?vid=59a99926-5b79-4af6-b314-341f25656fe2","ios":"levelo://app?vid=59a99926-5b79-4af6-b314-341f25656fe2"},"vehicle_type_id":"4","last_reported":1730498888,"current_range_meters":22000,"station_id":"ce4bh192rcd13ifvqdd0","pricing_plan_id":"cebpf4jnsgd1na2vs0mg"},{"bike_id":"016a4bf1-781c-43c3-9a9e-b42149c36362","system_id":"levelo_inurba_marseille","lat":43.28347,"lon":5.3811,"is_reserved":false,"is_disabled":false,"rental_uris":{"android":"levelo://app?vid=016a4bf1-781c-43c3-9a9e-b42149c36362","ios":"levelo://app?vid=016a4bf1-781c-43c3-9a9e-b42149c36362"},"vehicle_type_id":"4","last_reported":1730498888,"current_range_meters":7200,"station_id":"ce4bh412rcd13ifvqdr0","pricing_plan_id":"cebpf4jnsgd1na2vs0mg"},{"bike_id":"91f7493f-832e-4490-ab02-f3bd3a59805d","system_id":"levelo_inurba_marseille","lat":43.28465,"lon":5.35888,"is_reserved":false,"is_disabled":false,"rental_uris":{"android":"levelo://app?vid=91f7493f-832e-4490-ab02-f3bd3a59805d","ios":"levelo://app?vid=91f7493f-832e-4490-ab02-f3bd3a59805d"},"vehicle_type_id":"4","last_reported":1730498888,"current_range_meters":38800,"station_id":"ce4bhah2rcd13ifvqei0","pricing_plan_id":"cebpf4jnsgd1na2vs0mg"},{"bike_id":"327422c2-1d23-4538-86af-b479422fc3ae","system_id":"levelo_inurba_marseille","lat":43.32655,"lon":5.40998,"is_reserved":false,"is_disabled":false,"rental_uris":{"android":"levelo://app?vid=327422c2-1d23-4538-86af-b479422fc3ae","ios":"levelo://app?vid=327422c2-1d23-4538-86af-b479422fc3ae"},"vehicle_type_id":"4","last_reported":1730498888,"current_range_meters":8800,"station_id":"ce4bhr92rcd13ifvqhrg","pricing_plan_id":"cebpf4jnsgd1na2vs0mg"},{"bike_id":"2d7de978-fe7a-4748-bce2-9b270b74d3a7","system_id":"levelo_inurba_marseille","lat":43.28107,"lon":5.37845,"is_reserved":false,"is_disabled":false,"rental_uris":{"android":"levelo://app?vid=2d7de978-fe7a-4748-bce2-9b270b74d3a7","ios":"levelo://app?vid=2d7de978-fe7a-4748-bce2-9b270b74d3a7"},"vehicle_type_id":"4","last_reported":1730498888,"current_range_meters":38000,"station_id":"ce4bha12rcd13ifvqee0","pricing_plan_id":"cebpf4jnsgd1na2vs0mg"},{"bike_id":"64f2c005-032c-4707-acd0-06377d52b98a","system_id":"levelo_inurba_marseille","lat":43.31712,"lon":5.37744,"is_reserved":false,"is_disabled":false,"rental_uris":{"android":"levelo://app?vid=64f2c005-032c-4707-acd0-06377d52b98a","ios":"levelo://app?vid=64f2c005-032c-4707-acd0-06377d52b98a"},"vehicle_type_id":"4","last_reported":1730498888,"current_range_meters":17600,"station_id":"ce4bgth2rcd13ifvqch0","pricing_plan_id":"cebpf4jnsgd1na2vs0mg"},{"bike_id":"b0176a28-527c-42b9-b750-f1dad8510223","system_id":"levelo_inurba_marseille","lat":43.29733,"lon":5.37418,"is_reserved":false,"is_disabled":false,"rental_uris":{"android":"levelo://app?vid=b0176a28-527c-42b9-b750-f1dad8510223","ios":"levelo://app?vid=b0176a28-527c-42b9-b750-f1dad8510223"},"vehicle_type_id":"4","last_reported":1730498888,"current_range_meters":32000,"station_id":"","pricing_plan_id":"cebpf4jnsgd1na2vs0mg"},{"bike_id":"4dc4243b-561d-4d61-a556-a9023b476fcb","system_id":"levelo_inurba_marseille","lat":43.29424,"lon":5.38623,"is_reserved":false,"is_disabled":false,"rental_uris":{"android":"levelo://app?vid=4dc4243b-561d-4d61-a556-a9023b476fcb","ios":"levelo://app?vid=4dc4243b-561d-4d61-a556-a9023b476fcb"},"vehicle_type_id":"4","last_reported":1730498888,"current_range_meters":31200,"station_id":"ce4bh2h2rcd13ifvqdh0","pricing_plan_id":"cebpf4jnsgd1na2vs0mg"},{"bike_id":"15097f61-a1d7-4b0b-80aa-883f8eebec37","system_id":"levelo_inurba_marseille","lat":43.30593,"lon":5.39351,"is_reserved":false,"is_disabled":false,"rental_uris":{"android":"levelo://app?vid=15097f61-a1d7-4b0b-80aa-883f8eebec37","ios":"levelo://app?vid=15097f61-a1d7-4b0b-80aa-883f8eebec37"},"vehicle_type_id":"4","last_reported":1730498888,"current_range_meters":38800,"station_id":"ce4bh0p2rcd13ifvqd80","pricing_plan_id":"cebpf4jnsgd1na2vs0mg"},{"bike_id":"b2362997-f37b-4511-b744-2795bb584636","system_id":"levelo_inurba_marseille","lat":43.281,"lon":5.37839,"is_reserved":false,"is_disabled":false,"rental_uris":{"android":"levelo://app?vid=b2362997-f37b-4511-b744-2795bb584636","ios":"levelo://app?vid=b2362997-f37b-4511-b744-2795bb584636"},"vehicle_type_id":"4","last_reported":1730498888,"current_range_meters":34000,"station_id":"ce4bha12rcd13ifvqee0","pricing_plan_id":"cebpf4jnsgd1na2vs0mg"},{"bike_id":"ced2c869-3acd-455a-b67a-a37d01c70d0b","system_id":"levelo_inurba_marseille","lat":43.32657,"lon":5.41258,"is_reserved":false,"is_disabled":false,"rental_uris":{"android":"levelo://app?vid=ced2c869-3acd-455a-b67a-a37d01c70d0b","ios":"levelo://app?vid=ced2c869-3acd-455a-b67a-a37d01c70d0b"},"vehicle_type_id":"4","last_reported":1730498888,"current_range_meters":36400,"station_id":"","pricing_plan_id":"cebpf4jnsgd1na2vs0mg"},{"bike_id":"a4de29bb-1d70-40a6-bd33-383183bead72","system_id":"levelo_inurba_marseille","lat":43.29419,"lon":5.38605,"is_reserved":false,"is_disabled":false,"rental_uris":{"android":"levelo://app?vid=a4de29bb-1d70-40a6-bd33-383183bead72","ios":"levelo://app?vid=a4de29bb-1d70-40a6-bd33-383183bead72"},"vehicle_type_id":"4","last_reported":1730498888,"current_range_meters":38400,"station_id":"ce4bh2h2rcd13ifvqdh0","pricing_plan_id":"cebpf4jnsgd1na2vs0mg"},{"bike_id":"1f7b396e-d5ec-4d2b-9f87-e2d2e119b93c","system_id":"levelo_inurba_marseille","lat":43.2942,"lon":5.38627,"is_reserved":false,"is_disabled":false,"rental_uris":{"android":"levelo://app?vid=1f7b396e-d5ec-4d2b-9f87-e2d2e119b93c","ios":"levelo://app?vid=1f7b396e-d5ec-4d2b-9f87-e2d2e119b93c"},"vehicle_type_id":"4","last_reported":1730498888,"current_range_meters":3200,"station_id":"ce4bh2h2rcd13ifvqdh0","pricing_plan_id":"cebpf4jnsgd1na2vs0mg"},{"bike_id":"25efdd14-e5a3-4f02-a8ea-e62e3c219fa3","system_id":"levelo_inurba_marseille","lat":43.281548,"lon":5.426492,"is_reserved":false,"is_disabled":false,"rental_uris":{"android":"levelo://app?vid=25efdd14-e5a3-4f02-a8ea-e62e3c219fa3","ios":"levelo://app?vid=25efdd14-e5a3-4f02-a8ea-e62e3c219fa3"},"vehicle_type_id":"4","last_reported":1730498888,"current_range_meters":38800,"station_id":"ce4bhnh2rcd13ifvqgug","pricing_plan_id":"cebpf4jnsgd1na2vs0mg"},{"bike_id":"25cf2f5f-2b58-45a3-999c-92f0dbbbea7c","system_id":"levelo_inurba_marseille","lat":43.27318,"lon":5.39098,"is_reserved":false,"is_disabled":false,"rental_uris":{"android":"levelo://app?vid=25cf2f5f-2b58-45a3-999c-92f0dbbbea7c","ios":"levelo://app?vid=25cf2f5f-2b58-45a3-999c-92f0dbbbea7c"},"vehicle_type_id":"4","last_reported":1730498888,"current_range_meters":36800,"station_id":"ce4bhgp2rcd13ifvqfe0","pricing_plan_id":"cebpf4jnsgd1na2vs0mg"},{"bike_id":"e1610605-5756-4123-907e-88ebe2cdf2d8","system_id":"levelo_inurba_marseille","lat":43.29025,"lon":5.38631,"is_reserved":false,"is_disabled":false,"rental_uris":{"android":"levelo://app?vid=e1610605-5756-4123-907e-88ebe2cdf2d8","ios":"levelo://app?vid=e1610605-5756-4123-907e-88ebe2cdf2d8"},"vehicle_type_id":"4","last_reported":1730498888,"current_range_meters":34000,"station_id":"ce4bh4p2rcd13ifvqe0g","pricing_plan_id":"cebpf4jnsgd1na2vs0mg"},{"bike_id":"18402065-9e87-476b-95ad-30853de181a0","system_id":"levelo_inurba_marseille","lat":43.32446,"lon":5.45549,"is_reserved":false,"is_disabled":false,"rental_uris":{"android":"levelo://app?vid=18402065-9e87-476b-95ad-30853de181a0","ios":"levelo://app?vid=18402065-9e87-476b-95ad-30853de181a0"},"vehicle_type_id":"4","last_reported":1730498888,"current_range_meters":9600,"station_id":"","pricing_plan_id":"cebpf4jnsgd1na2vs0mg"},{"bike_id":"e3bbd86b-867d-4a71-ad09-6911756eb59e","system_id":"levelo_inurba_marseille","lat":43.29422,"lon":5.38625,"is_reserved":false,"is_disabled":false,"rental_uris":{"android":"levelo://app?vid=e3bbd86b-867d-4a71-ad09-6911756eb59e","ios":"levelo://app?vid=e3bbd86b-867d-4a71-ad09-6911756eb59e"},"vehicle_type_id":"4","last_reported":1730498888,"current_range_meters":34000,"station_id":"ce4bh2h2rcd13ifvqdh0","pricing_plan_id":"cebpf4jnsgd1na2vs0mg"},{"bike_id":"f6fac059-fe85-4d7a-8ea9-001b079724c7","system_id":"levelo_inurba_marseille","lat":43.29422,"lon":5.38602,"is_reserved":false,"is_disabled":false,"rental_uris":{"android":"levelo://app?vid=f6fac059-fe85-4d7a-8ea9-001b079724c7","ios":"levelo://app?vid=f6fac059-fe85-4d7a-8ea9-001b079724c7"},"vehicle_type_id":"4","last_reported":1730498888,"current_range_meters":38400,"station_id":"ce4bh2h2rcd13ifvqdh0","pricing_plan_id":"cebpf4jnsgd1na2vs0mg"},{"bike_id":"711fc037-1485-48d1-a756-6d4246ae9cd4","system_id":"levelo_inurba_marseille","lat":43.24655,"lon":5.38893,"is_reserved":false,"is_disabled":false,"rental_uris":{"android":"levelo://app?vid=711fc037-1485-48d1-a756-6d4246ae9cd4","ios":"levelo://app?vid=711fc037-1485-48d1-a756-6d4246ae9cd4"},"vehicle_type_id":"4","last_reported":1730498888,"current_range_meters":6400,"station_id":"ce4bhg12rcd13ifvqf60","pricing_plan_id":"cebpf4jnsgd1na2vs0mg"},{"bike_id":"bcf7fd0f-8c82-4927-bce3-78aae8816f12","system_id":"levelo_inurba_marseille","lat":43.29417,"lon":5.38626,"is_reserved":false,"is_disabled":false,"rental_uris":{"android":"levelo://app?vid=bcf7fd0f-8c82-4927-bce3-78aae8816f12","ios":"levelo://app?vid=bcf7fd0f-8c82-4927-bce3-78aae8816f12"},"vehicle_type_id":"4","last_reported":1730498888,"current_range_meters":27600,"station_id":"ce4bh2h2rcd13ifvqdh0","pricing_plan_id":"cebpf4jnsgd1na2vs0mg"},{"bike_id":"10ba1237-0b94-41b7-894d-044c99e47881","system_id":"levelo_inurba_marseille","lat":43.29606,"lon":5.38104,"is_reserved":false,"is_disabled":false,"rental_uris":{"android":"levelo://app?vid=10ba1237-0b94-41b7-894d-044c99e47881","ios":"levelo://app?vid=10ba1237-0b94-41b7-894d-044c99e47881"},"vehicle_type_id":"4","last_reported":1730498888,"current_range_meters":35600,"station_id":"ce4bgl12rcd13ifvqbo0","pricing_plan_id":"cebpf4jnsgd1na2vs0mg"},{"bike_id":"05289bf4-73c4-4b4e-830b-c6a22094e995","system_id":"levelo_inurba_marseille","lat":43.2737,"lon":5.36262,"is_reserved":false,"is_disabled":false,"rental_uris":{"android":"levelo://app?vid=05289bf4-73c4-4b4e-830b-c6a22094e995","ios":"levelo://app?vid=05289bf4-73c4-4b4e-830b-c6a22094e995"},"vehicle_type_id":"4","last_reported":1730498888,"current_range_meters":38800,"station_id":"ce4bhbh2rcd13ifvqeo0","pricing_plan_id":"cebpf4jnsgd1na2vs0mg"},{"bike_id":"460f8dbf-5c74-4538-b47c-2be4684064c4","system_id":"levelo_inurba_marseille","lat":43.24382,"lon":5.37059,"is_reserved":false,"is_disabled":false,"rental_uris":{"android":"levelo://app?vid=460f8dbf-5c74-4538-b47c-2be4684064c4","ios":"levelo://app?vid=460f8dbf-5c74-4538-b47c-2be4684064c4"},"vehicle_type_id":"4","last_reported":1730498888,"current_range_meters":4000,"station_id":"ce4bhhh2rcd13ifvqfk0","pricing_plan_id":"cebpf4jnsgd1na2vs0mg"},{"bike_id":"9e54130a-3084-46d5-a88d-7b44c836d8d6","system_id":"levelo_inurba_marseille","lat":43.26809,"lon":5.40263,"is_reserved":false,"is_disabled":false,"rental_uris":{"android":"levelo://app?vid=9e54130a-3084-46d5-a88d-7b44c836d8d6","ios":"levelo://app?vid=9e54130a-3084-46d5-a88d-7b44c836d8d6"},"vehicle_type_id":"4","last_reported":1730498888,"current_range_meters":6000,"station_id":"ce501612rcd8frsf0b60","pricing_plan_id":"cebpf4jnsgd1na2vs0mg"},{"bike_id":"003141cc-57ad-4350-872f-1e1448004c32","system_id":"levelo_inurba_marseille","lat":43.26788,"lon":5.41148,"is_reserved":false,"is_disabled":false,"rental_uris":{"android":"levelo://app?vid=003141cc-57ad-4350-872f-1e1448004c32","ios":"levelo://app?vid=003141cc-57ad-4350-872f-1e1448004c32"},"vehicle_type_id":"4","last_reported":1730498888,"current_range_meters":36800,"station_id":"","pricing_plan_id":"cebpf4jnsgd1na2vs0mg"},{"bike_id":"ef30c907-9b95-4f0a-99f1-0cbd098879ad","system_id":"levelo_inurba_marseille","lat":43.2856,"lon":5.39516,"is_reserved":false,"is_disabled":false,"rental_uris":{"android":"levelo://app?vid=ef30c907-9b95-4f0a-99f1-0cbd098879ad","ios":"levelo://app?vid=ef30c907-9b95-4f0a-99f1-0cbd098879ad"},"vehicle_type_id":"4","last_reported":1730498888,"current_range_meters":38800,"station_id":"ce4bh292rcd13ifvqdg0","pricing_plan_id":"cebpf4jnsgd1na2vs0mg"},{"bike_id":"cffa510c-a8c3-4e26-9743-eacf445e8e29","system_id":"levelo_inurba_marseille","lat":43.29311,"lon":5.3718,"is_reserved":false,"is_disabled":false,"rental_uris":{"android":"levelo://app?vid=cffa510c-a8c3-4e26-9743-eacf445e8e29","ios":"levelo://app?vid=cffa510c-a8c3-4e26-9743-eacf445e8e29"},"vehicle_type_id":"4","last_reported":1730498888,"current_range_meters":27200,"station_id":"ce4bgh92rcd13ifvqb40","pricing_plan_id":"cebpf4jnsgd1na2vs0mg"},{"bike_id":"a7d9d63e-9c3c-4965-94e0-27a78e2a9b02","system_id":"levelo_inurba_marseille","lat":43.29588,"lon":5.38128,"is_reserved":false,"is_disabled":false,"rental_uris":{"android":"levelo://app?vid=a7d9d63e-9c3c-4965-94e0-27a78e2a9b02","ios":"levelo://app?vid=a7d9d63e-9c3c-4965-94e0-27a78e2a9b02"},"vehicle_type_id":"4","last_reported":1730498888,"current_range_meters":38800,"station_id":"ce4bgl12rcd13ifvqbo0","pricing_plan_id":"cebpf4jnsgd1na2vs0mg"},{"bike_id":"c464d67e-1a73-40bd-b8bb-ad08b05c10b4","system_id":"levelo_inurba_marseille","lat":43.31274,"lon":5.40177,"is_reserved":false,"is_disabled":false,"rental_uris":{"android":"levelo://app?vid=c464d67e-1a73-40bd-b8bb-ad08b05c10b4","ios":"levelo://app?vid=c464d67e-1a73-40bd-b8bb-ad08b05c10b4"},"vehicle_type_id":"4","last_reported":1730498888,"current_range_meters":10800,"station_id":"ce4bh092rcd13ifvqd30","pricing_plan_id":"cebpf4jnsgd1na2vs0mg"},{"bike_id":"e5070e4c-9968-4447-becd-5685052f4b82","system_id":"levelo_inurba_marseille","lat":43.27313,"lon":5.39076,"is_reserved":false,"is_disabled":false,"rental_uris":{"android":"levelo://app?vid=e5070e4c-9968-4447-becd-5685052f4b82","ios":"levelo://app?vid=e5070e4c-9968-4447-becd-5685052f4b82"},"vehicle_type_id":"4","last_reported":1730498888,"current_range_meters":28000,"station_id":"ce4bhgp2rcd13ifvqfe0","pricing_plan_id":"cebpf4jnsgd1na2vs0mg"},{"bike_id":"dd146168-981e-408f-b3fe-7656f2b9a9b9","system_id":"levelo_inurba_marseille","lat":43.30938,"lon":5.40136,"is_reserved":false,"is_disabled":false,"rental_uris":{"android":"levelo://app?vid=dd146168-981e-408f-b3fe-7656f2b9a9b9","ios":"levelo://app?vid=dd146168-981e-408f-b3fe-7656f2b9a9b9"},"vehicle_type_id":"4","last_reported":1730498888,"current_range_meters":27600,"station_id":"ce4bgvp2rcd13ifvqct0","pricing_plan_id":"cebpf4jnsgd1na2vs0mg"},{"bike_id":"039a64d6-5e87-4141-81e3-2e1ffc1e11a5","system_id":"levelo_inurba_marseille","lat":43.27996,"lon":5.40018,"is_reserved":false,"is_disabled":false,"rental_uris":{"android":"levelo://app?vid=039a64d6-5e87-4141-81e3-2e1ffc1e11a5","ios":"levelo://app?vid=039a64d6-5e87-4141-81e3-2e1ffc1e11a5"},"vehicle_type_id":"4","last_reported":1730498888,"current_range_meters":37600,"station_id":"ce4bho92rcd13ifvqh4g","pricing_plan_id":"cebpf4jnsgd1na2vs0mg"},{"bike_id":"a5058c7c-1905-4bd3-9d43-fefe64152d11","system_id":"levelo_inurba_marseille","lat":43.27813,"lon":5.40707,"is_reserved":false,"is_disabled":false,"rental_uris":{"android":"levelo://app?vid=a5058c7c-1905-4bd3-9d43-fefe64152d11","ios":"levelo://app?vid=a5058c7c-1905-4bd3-9d43-fefe64152d11"},"vehicle_type_id":"4","last_reported":1730498888,"current_range_meters":37600,"station_id":"ce4bhnh2rcd13ifvqgtg","pricing_plan_id":"cebpf4jnsgd1na2vs0mg"},{"bike_id":"feb33e77-985d-4d2f-b6f2-91b950c16319","system_id":"levelo_inurba_marseille","lat":43.31227,"lon":5.36866,"is_reserved":false,"is_disabled":false,"rental_uris":{"android":"levelo://app?vid=feb33e77-985d-4d2f-b6f2-91b950c16319","ios":"levelo://app?vid=feb33e77-985d-4d2f-b6f2-91b950c16319"},"vehicle_type_id":"4","last_reported":1730498888,"current_range_meters":38800,"station_id":"ce4bgl92rcd13ifvqbq0","pricing_plan_id":"cebpf4jnsgd1na2vs0mg"},{"bike_id":"c9258630-63f3-4a53-8f49-8d49a400e0ec","system_id":"levelo_inurba_marseille","lat":43.288528,"lon":5.358676,"is_reserved":false,"is_disabled":false,"rental_uris":{"android":"levelo://app?vid=c9258630-63f3-4a53-8f49-8d49a400e0ec","ios":"levelo://app?vid=c9258630-63f3-4a53-8f49-8d49a400e0ec"},"vehicle_type_id":"4","last_reported":1730498888,"current_range_meters":25200,"station_id":"ce4bhb12rcd13ifvqem0","pricing_plan_id":"cebpf4jnsgd1na2vs0mg"},{"bike_id":"05a1b52d-ed51-46c3-9c46-ad7ff8006470","system_id":"levelo_inurba_marseille","lat":43.24677,"lon":5.38167,"is_reserved":false,"is_disabled":false,"rental_uris":{"android":"levelo://app?vid=05a1b52d-ed51-46c3-9c46-ad7ff8006470","ios":"levelo://app?vid=05a1b52d-ed51-46c3-9c46-ad7ff8006470"},"vehicle_type_id":"4","last_reported":1730498888,"current_range_meters":6000,"station_id":"ce4bhih2rcd13ifvqfr0","pricing_plan_id":"cebpf4jnsgd1na2vs0mg"},{"bike_id":"627d220e-daa9-4a70-b12f-dfeb64a7a8be","system_id":"levelo_inurba_marseille","lat":43.28924,"lon":5.38403,"is_reserved":false,"is_disabled":false,"rental_uris":{"android":"levelo://app?vid=627d220e-daa9-4a70-b12f-dfeb64a7a8be","ios":"levelo://app?vid=627d220e-daa9-4a70-b12f-dfeb64a7a8be"},"vehicle_type_id":"4","last_reported":1730498888,"current_range_meters":14000,"station_id":"ce4bh612rcd13ifvqe6g","pricing_plan_id":"cebpf4jnsgd1na2vs0mg"},{"bike_id":"b18f9999-3088-4ef8-9376-9cfecad69475","system_id":"levelo_inurba_marseille","lat":43.30784,"lon":5.3765,"is_reserved":false,"is_disabled":false,"rental_uris":{"android":"levelo://app?vid=b18f9999-3088-4ef8-9376-9cfecad69475","ios":"levelo://app?vid=b18f9999-3088-4ef8-9376-9cfecad69475"},"vehicle_type_id":"4","last_reported":1730498888,"current_range_meters":24000,"station_id":"ce4bgv92rcd13ifvqcq0","pricing_plan_id":"cebpf4jnsgd1na2vs0mg"},{"bike_id":"6fe18682-cd8d-42dd-bfda-25ed8e767456","system_id":"levelo_inurba_marseille","lat":43.2942,"lon":5.38631,"is_reserved":false,"is_disabled":false,"rental_uris":{"android":"levelo://app?vid=6fe18682-cd8d-42dd-bfda-25ed8e767456","ios":"levelo://app?vid=6fe18682-cd8d-42dd-bfda-25ed8e767456"},"vehicle_type_id":"4","last_reported":1730498888,"current_range_meters":28800,"station_id":"ce4bh2h2rcd13ifvqdh0","pricing_plan_id":"cebpf4jnsgd1na2vs0mg"},{"bike_id":"181e392c-49ab-4006-ab89-c51519379775","system_id":"levelo_inurba_marseille","lat":43.28695,"lon":5.37395,"is_reserved":false,"is_disabled":false,"rental_uris":{"android":"levelo://app?vid=181e392c-49ab-4006-ab89-c51519379775","ios":"levelo://app?vid=181e392c-49ab-4006-ab89-c51519379775"},"vehicle_type_id":"4","last_reported":1730498888,"current_range_meters":38800,"station_id":"ce4bh3p2rcd13ifvqdq0","pricing_plan_id":"cebpf4jnsgd1na2vs0mg"},{"bike_id":"89f9b078-381e-4f1b-943b-461fcea88c01","system_id":"levelo_inurba_marseille","lat":43.28724,"lon":5.39991,"is_reserved":false,"is_disabled":false,"rental_uris":{"android":"levelo://app?vid=89f9b078-381e-4f1b-943b-461fcea88c01","ios":"levelo://app?vid=89f9b078-381e-4f1b-943b-461fcea88c01"},"vehicle_type_id":"4","last_reported":1730498888,"current_range_meters":38800,"station_id":"ce4bho92rcd13ifvqh3g","pricing_plan_id":"cebpf4jnsgd1na2vs0mg"},{"bike_id":"d8c8460e-88aa-4929-8b6f-75300411d6df","system_id":"levelo_inurba_marseille","lat":43.27437,"lon":5.39405,"is_reserved":false,"is_disabled":false,"rental_uris":{"android":"levelo://app?vid=d8c8460e-88aa-4929-8b6f-75300411d6df","ios":"levelo://app?vid=d8c8460e-88aa-4929-8b6f-75300411d6df"},"vehicle_type_id":"4","last_reported":1730498888,"current_range_meters":16000,"station_id":"ce4bhdp2rcd13ifvqf20","pricing_plan_id":"cebpf4jnsgd1na2vs0mg"},{"bike_id":"c7e7c0b0-5966-4107-8d4c-f58ccc4d9394","system_id":"levelo_inurba_marseille","lat":43.30798,"lon":5.38151,"is_reserved":false,"is_disabled":false,"rental_uris":{"android":"levelo://app?vid=c7e7c0b0-5966-4107-8d4c-f58ccc4d9394","ios":"levelo://app?vid=c7e7c0b0-5966-4107-8d4c-f58ccc4d9394"},"vehicle_type_id":"4","last_reported":1730498888,"current_range_meters":24800,"station_id":"ce4bgt12rcd13ifvqce0","pricing_plan_id":"cebpf4jnsgd1na2vs0mg"},{"bike_id":"ef10497a-439b-4c81-9e9b-6c7dcb7e5450","system_id":"levelo_inurba_marseille","lat":43.28703,"lon":5.40001,"is_reserved":false,"is_disabled":false,"rental_uris":{"android":"levelo://app?vid=ef10497a-439b-4c81-9e9b-6c7dcb7e5450","ios":"levelo://app?vid=ef10497a-439b-4c81-9e9b-6c7dcb7e5450"},"vehicle_type_id":"4","last_reported":1730498888,"current_range_meters":38400,"station_id":"ce4bho92rcd13ifvqh3g","pricing_plan_id":"cebpf4jnsgd1na2vs0mg"},{"bike_id":"bbdcb840-5f6c-4490-9fd4-391fed34b525","system_id":"levelo_inurba_marseille","lat":43.27374,"lon":5.36264,"is_reserved":false,"is_disabled":false,"rental_uris":{"android":"levelo://app?vid=bbdcb840-5f6c-4490-9fd4-391fed34b525","ios":"levelo://app?vid=bbdcb840-5f6c-4490-9fd4-391fed34b525"},"vehicle_type_id":"4","last_reported":1730498888,"current_range_meters":27600,"station_id":"ce4bhbh2rcd13ifvqeo0","pricing_plan_id":"cebpf4jnsgd1na2vs0mg"},{"bike_id":"bff4d2d5-c517-49af-84bd-b3ba7cffdb4c","system_id":"levelo_inurba_marseille","lat":43.25824,"lon":5.39432,"is_reserved":false,"is_disabled":false,"rental_uris":{"android":"levelo://app?vid=bff4d2d5-c517-49af-84bd-b3ba7cffdb4c","ios":"levelo://app?vid=bff4d2d5-c517-49af-84bd-b3ba7cffdb4c"},"vehicle_type_id":"4","last_reported":1730498888,"current_range_meters":39200,"station_id":"ce4bhip2rcd13ifvqft0","pricing_plan_id":"cebpf4jnsgd1na2vs0mg"},{"bike_id":"f5b8ac0f-cd64-4677-b9a3-29759d99c053","system_id":"levelo_inurba_marseille","lat":43.24998,"lon":5.38935,"is_reserved":false,"is_disabled":false,"rental_uris":{"android":"levelo://app?vid=f5b8ac0f-cd64-4677-b9a3-29759d99c053","ios":"levelo://app?vid=f5b8ac0f-cd64-4677-b9a3-29759d99c053"},"vehicle_type_id":"4","last_reported":1730498888,"current_range_meters":37600,"station_id":"ce4bhgp2rcd13ifvqfd0","pricing_plan_id":"cebpf4jnsgd1na2vs0mg"},{"bike_id":"f88989b6-736f-446e-9c01-0be35d9db2d8","system_id":"levelo_inurba_marseille","lat":43.29613,"lon":5.38094,"is_reserved":false,"is_disabled":false,"rental_uris":{"android":"levelo://app?vid=f88989b6-736f-446e-9c01-0be35d9db2d8","ios":"levelo://app?vid=f88989b6-736f-446e-9c01-0be35d9db2d8"},"vehicle_type_id":"4","last_reported":1730498888,"current_range_meters":17600,"station_id":"ce4bgl12rcd13ifvqbo0","pricing_plan_id":"cebpf4jnsgd1na2vs0mg"},{"bike_id":"04bb0bc0-fd9d-4169-b947-9b5d9c899f23","system_id":"levelo_inurba_marseille","lat":43.28623,"lon":5.35103,"is_reserved":false,"is_disabled":false,"rental_uris":{"android":"levelo://app?vid=04bb0bc0-fd9d-4169-b947-9b5d9c899f23","ios":"levelo://app?vid=04bb0bc0-fd9d-4169-b947-9b5d9c899f23"},"vehicle_type_id":"4","last_reported":1730498888,"current_range_meters":26800,"station_id":"ce4bhch2rcd13ifvqeug","pricing_plan_id":"cebpf4jnsgd1na2vs0mg"},{"bike_id":"40093d02-6f7a-41b9-a540-1965db1c6825","system_id":"levelo_inurba_marseille","lat":43.29415,"lon":5.38638,"is_reserved":false,"is_disabled":false,"rental_uris":{"android":"levelo://app?vid=40093d02-6f7a-41b9-a540-1965db1c6825","ios":"levelo://app?vid=40093d02-6f7a-41b9-a540-1965db1c6825"},"vehicle_type_id":"4","last_reported":1730498888,"current_range_meters":6800,"station_id":"ce4bh2h2rcd13ifvqdh0","pricing_plan_id":"cebpf4jnsgd1na2vs0mg"},{"bike_id":"4aca9276-a75c-423e-b263-5d8176dc7d7b","system_id":"levelo_inurba_marseille","lat":43.30928,"lon":5.40143,"is_reserved":false,"is_disabled":false,"rental_uris":{"android":"levelo://app?vid=4aca9276-a75c-423e-b263-5d8176dc7d7b","ios":"levelo://app?vid=4aca9276-a75c-423e-b263-5d8176dc7d7b"},"vehicle_type_id":"4","last_reported":1730498888,"current_range_meters":10800,"station_id":"ce4bgvp2rcd13ifvqct0","pricing_plan_id":"cebpf4jnsgd1na2vs0mg"},{"bike_id":"8c67d340-801d-46e5-b910-2f8aff3ff078","system_id":"levelo_inurba_marseille","lat":43.33365,"lon":5.3703,"is_reserved":false,"is_disabled":false,"rental_uris":{"android":"levelo://app?vid=8c67d340-801d-46e5-b910-2f8aff3ff078","ios":"levelo://app?vid=8c67d340-801d-46e5-b910-2f8aff3ff078"},"vehicle_type_id":"4","last_reported":1730498888,"current_range_meters":14000,"station_id":"","pricing_plan_id":"cebpf4jnsgd1na2vs0mg"},{"bike_id":"83356032-baeb-401a-bdff-8adddb83ed12","system_id":"levelo_inurba_marseille","lat":43.23197,"lon":5.35546,"is_reserved":false,"is_disabled":false,"rental_uris":{"android":"levelo://app?vid=83356032-baeb-401a-bdff-8adddb83ed12","ios":"levelo://app?vid=83356032-baeb-401a-bdff-8adddb83ed12"},"vehicle_type_id":"4","last_reported":1730498888,"current_range_meters":38400,"station_id":"ce4bhu92rcd13ifvqi70","pricing_plan_id":"cebpf4jnsgd1na2vs0mg"},{"bike_id":"af963c11-4218-4474-b8e9-bbb749cadb90","system_id":"levelo_inurba_marseille","lat":43.30206,"lon":5.39462,"is_reserved":false,"is_disabled":false,"rental_uris":{"android":"levelo://app?vid=af963c11-4218-4474-b8e9-bbb749cadb90","ios":"levelo://app?vid=af963c11-4218-4474-b8e9-bbb749cadb90"},"vehicle_type_id":"4","last_reported":1730498888,"current_range_meters":29600,"station_id":"ce4bh0p2rcd13ifvqd70","pricing_plan_id":"cebpf4jnsgd1na2vs0mg"},{"bike_id":"c51bdb8d-15a4-4391-9581-03faab0332bb","system_id":"levelo_inurba_marseille","lat":43.28453,"lon":5.3589,"is_reserved":false,"is_disabled":false,"rental_uris":{"android":"levelo://app?vid=c51bdb8d-15a4-4391-9581-03faab0332bb","ios":"levelo://app?vid=c51bdb8d-15a4-4391-9581-03faab0332bb"},"vehicle_type_id":"4","last_reported":1730498888,"current_range_meters":20400,"station_id":"ce4bhah2rcd13ifvqei0","pricing_plan_id":"cebpf4jnsgd1na2vs0mg"},{"bike_id":"8cfa2329-f7e9-4c51-a668-99c0a6d5a317","system_id":"levelo_inurba_marseille","lat":43.29184,"lon":5.35807,"is_reserved":false,"is_disabled":false,"rental_uris":{"android":"levelo://app?vid=8cfa2329-f7e9-4c51-a668-99c0a6d5a317","ios":"levelo://app?vid=8cfa2329-f7e9-4c51-a668-99c0a6d5a317"},"vehicle_type_id":"4","last_reported":1730498888,"current_range_meters":18800,"station_id":"ce4bhb12rcd13ifvqel0","pricing_plan_id":"cebpf4jnsgd1na2vs0mg"},{"bike_id":"df63b9c4-e15c-4263-a5c8-6ddf8c81a210","system_id":"levelo_inurba_marseille","lat":43.26058,"lon":5.3939,"is_reserved":false,"is_disabled":false,"rental_uris":{"android":"levelo://app?vid=df63b9c4-e15c-4263-a5c8-6ddf8c81a210","ios":"levelo://app?vid=df63b9c4-e15c-4263-a5c8-6ddf8c81a210"},"vehicle_type_id":"4","last_reported":1730498888,"current_range_meters":22800,"station_id":"ce4bhh92rcd13ifvqfj0","pricing_plan_id":"cebpf4jnsgd1na2vs0mg"},{"bike_id":"69a0d18e-0381-4102-9fad-3f8c57fc1228","system_id":"levelo_inurba_marseille","lat":43.23068,"lon":5.35493,"is_reserved":false,"is_disabled":false,"rental_uris":{"android":"levelo://app?vid=69a0d18e-0381-4102-9fad-3f8c57fc1228","ios":"levelo://app?vid=69a0d18e-0381-4102-9fad-3f8c57fc1228"},"vehicle_type_id":"4","last_reported":1730498888,"current_range_meters":38800,"station_id":"cpo3342slgdg3j2ifvpg","pricing_plan_id":"cebpf4jnsgd1na2vs0mg"},{"bike_id":"07d0df56-f8bc-46e6-871c-8e071fb175e5","system_id":"levelo_inurba_marseille","lat":43.232,"lon":5.35557,"is_reserved":false,"is_disabled":false,"rental_uris":{"android":"levelo://app?vid=07d0df56-f8bc-46e6-871c-8e071fb175e5","ios":"levelo://app?vid=07d0df56-f8bc-46e6-871c-8e071fb175e5"},"vehicle_type_id":"4","last_reported":1730498888,"current_range_meters":38800,"station_id":"ce4bhu92rcd13ifvqi70","pricing_plan_id":"cebpf4jnsgd1na2vs0mg"},{"bike_id":"d067261d-1f65-4dda-b2ae-d6541cf03bfa","system_id":"levelo_inurba_marseille","lat":43.2866,"lon":5.38664,"is_reserved":false,"is_disabled":false,"rental_uris":{"android":"levelo://app?vid=d067261d-1f65-4dda-b2ae-d6541cf03bfa","ios":"levelo://app?vid=d067261d-1f65-4dda-b2ae-d6541cf03bfa"},"vehicle_type_id":"4","last_reported":1730498888,"current_range_meters":36400,"station_id":"ce4bh492rcd13ifvqdug","pricing_plan_id":"cebpf4jnsgd1na2vs0mg"},{"bike_id":"19e6008c-0743-45ac-b4bf-fc683ef0e14c","system_id":"levelo_inurba_marseille","lat":43.2572,"lon":5.4111,"is_reserved":false,"is_disabled":false,"rental_uris":{"android":"levelo://app?vid=19e6008c-0743-45ac-b4bf-fc683ef0e14c","ios":"levelo://app?vid=19e6008c-0743-45ac-b4bf-fc683ef0e14c"},"vehicle_type_id":"4","last_reported":1730498888,"current_range_meters":28400,"station_id":"ce4bhkp2rcd13ifvqgd0","pricing_plan_id":"cebpf4jnsgd1na2vs0mg"},{"bike_id":"55b4d402-cd88-41c4-94f3-0c54ee939bb0","system_id":"levelo_inurba_marseille","lat":43.2587,"lon":5.39901,"is_reserved":false,"is_disabled":false,"rental_uris":{"android":"levelo://app?vid=55b4d402-cd88-41c4-94f3-0c54ee939bb0","ios":"levelo://app?vid=55b4d402-cd88-41c4-94f3-0c54ee939bb0"},"vehicle_type_id":"4","last_reported":1730498888,"current_range_meters":22000,"station_id":"ce4bhl92rcd13ifvqghg","pricing_plan_id":"cebpf4jnsgd1na2vs0mg"},{"bike_id":"c121262e-e64f-4c57-ad81-84bc1a1971e7","system_id":"levelo_inurba_marseille","lat":43.29415,"lon":5.38606,"is_reserved":false,"is_disabled":false,"rental_uris":{"android":"levelo://app?vid=c121262e-e64f-4c57-ad81-84bc1a1971e7","ios":"levelo://app?vid=c121262e-e64f-4c57-ad81-84bc1a1971e7"},"vehicle_type_id":"4","last_reported":1730498888,"current_range_meters":26000,"station_id":"ce4bh2h2rcd13ifvqdh0","pricing_plan_id":"cebpf4jnsgd1na2vs0mg"},{"bike_id":"c14abbb4-4d06-46c3-8367-d2701001bce7","system_id":"levelo_inurba_marseille","lat":43.30013,"lon":5.4005,"is_reserved":false,"is_disabled":false,"rental_uris":{"android":"levelo://app?vid=c14abbb4-4d06-46c3-8367-d2701001bce7","ios":"levelo://app?vid=c14abbb4-4d06-46c3-8367-d2701001bce7"},"vehicle_type_id":"4","last_reported":1730498888,"current_range_meters":34800,"station_id":"","pricing_plan_id":"cebpf4jnsgd1na2vs0mg"},{"bike_id":"d43eb6e6-188f-4b61-baef-2c942fc313d9","system_id":"levelo_inurba_marseille","lat":43.29527,"lon":5.38535,"is_reserved":false,"is_disabled":false,"rental_uris":{"android":"levelo://app?vid=d43eb6e6-188f-4b61-baef-2c942fc313d9","ios":"levelo://app?vid=d43eb6e6-188f-4b61-baef-2c942fc313d9"},"vehicle_type_id":"4","last_reported":1730498888,"current_range_meters":18800,"station_id":"ce4bgih2rcd13ifvqba0","pricing_plan_id":"cebpf4jnsgd1na2vs0mg"},{"bike_id":"e46bb17b-2752-4677-bb19-57747f80054d","system_id":"levelo_inurba_marseille","lat":43.303512,"lon":5.418728,"is_reserved":false,"is_disabled":false,"rental_uris":{"android":"levelo://app?vid=e46bb17b-2752-4677-bb19-57747f80054d","ios":"levelo://app?vid=e46bb17b-2752-4677-bb19-57747f80054d"},"vehicle_type_id":"4","last_reported":1730498888,"current_range_meters":38000,"station_id":"ce4bhop2rcd13ifvqh7g","pricing_plan_id":"cebpf4jnsgd1na2vs0mg"},{"bike_id":"b35737c6-49ec-46a6-98b7-a66d9ca0bf72","system_id":"levelo_inurba_marseille","lat":43.29524,"lon":5.39037,"is_reserved":false,"is_disabled":false,"rental_uris":{"android":"levelo://app?vid=b35737c6-49ec-46a6-98b7-a66d9ca0bf72","ios":"levelo://app?vid=b35737c6-49ec-46a6-98b7-a66d9ca0bf72"},"vehicle_type_id":"4","last_reported":1730498888,"current_range_meters":38800,"station_id":"ce4bh3p2rcd13ifvqdp0","pricing_plan_id":"cebpf4jnsgd1na2vs0mg"},{"bike_id":"223427b6-a667-4fba-bfd1-d25670cecee0","system_id":"levelo_inurba_marseille","lat":43.29024,"lon":5.37563,"is_reserved":false,"is_disabled":false,"rental_uris":{"android":"levelo://app?vid=223427b6-a667-4fba-bfd1-d25670cecee0","ios":"levelo://app?vid=223427b6-a667-4fba-bfd1-d25670cecee0"},"vehicle_type_id":"4","last_reported":1730498888,"current_range_meters":38800,"station_id":"ce4bh692rcd13ifvqe90","pricing_plan_id":"cebpf4jnsgd1na2vs0mg"},{"bike_id":"c512dfa3-9aad-4a81-a8ab-c1d000bfa4c9","system_id":"levelo_inurba_marseille","lat":43.27897,"lon":5.38008,"is_reserved":false,"is_disabled":false,"rental_uris":{"android":"levelo://app?vid=c512dfa3-9aad-4a81-a8ab-c1d000bfa4c9","ios":"levelo://app?vid=c512dfa3-9aad-4a81-a8ab-c1d000bfa4c9"},"vehicle_type_id":"4","last_reported":1730498888,"current_range_meters":14800,"station_id":"ce4bhf92rcd13ifvqf50","pricing_plan_id":"cebpf4jnsgd1na2vs0mg"},{"bike_id":"fec36ca1-9bdc-4fa7-b5d7-3ab6e50fb600","system_id":"levelo_inurba_marseille","lat":43.30297,"lon":5.39224,"is_reserved":false,"is_disabled":false,"rental_uris":{"android":"levelo://app?vid=fec36ca1-9bdc-4fa7-b5d7-3ab6e50fb600","ios":"levelo://app?vid=fec36ca1-9bdc-4fa7-b5d7-3ab6e50fb600"},"vehicle_type_id":"4","last_reported":1730498888,"current_range_meters":36000,"station_id":"ce4bgkh2rcd13ifvqbk0","pricing_plan_id":"cebpf4jnsgd1na2vs0mg"},{"bike_id":"7f570767-d207-4521-b57a-a07e30c76386","system_id":"levelo_inurba_marseille","lat":43.27895,"lon":5.38002,"is_reserved":false,"is_disabled":false,"rental_uris":{"android":"levelo://app?vid=7f570767-d207-4521-b57a-a07e30c76386","ios":"levelo://app?vid=7f570767-d207-4521-b57a-a07e30c76386"},"vehicle_type_id":"4","last_reported":1730498888,"current_range_meters":15200,"station_id":"ce4bhf92rcd13ifvqf50","pricing_plan_id":"cebpf4jnsgd1na2vs0mg"},{"bike_id":"fa3f4d31-2071-40ff-8b11-64a809d98327","system_id":"levelo_inurba_marseille","lat":43.27828,"lon":5.39206,"is_reserved":false,"is_disabled":false,"rental_uris":{"android":"levelo://app?vid=fa3f4d31-2071-40ff-8b11-64a809d98327","ios":"levelo://app?vid=fa3f4d31-2071-40ff-8b11-64a809d98327"},"vehicle_type_id":"4","last_reported":1730498888,"current_range_meters":6400,"station_id":"ce4bhjp2rcd13ifvqga0","pricing_plan_id":"cebpf4jnsgd1na2vs0mg"},{"bike_id":"367151e3-d9d1-496e-afc3-1d3ad14f98c6","system_id":"levelo_inurba_marseille","lat":43.32372,"lon":5.38881,"is_reserved":false,"is_disabled":false,"rental_uris":{"android":"levelo://app?vid=367151e3-d9d1-496e-afc3-1d3ad14f98c6","ios":"levelo://app?vid=367151e3-d9d1-496e-afc3-1d3ad14f98c6"},"vehicle_type_id":"4","last_reported":1730498888,"current_range_meters":35600,"station_id":"ce4bhqp2rcd13ifvqhog","pricing_plan_id":"cebpf4jnsgd1na2vs0mg"},{"bike_id":"70f4385c-6b37-4d0d-8049-f1a6bce30f9f","system_id":"levelo_inurba_marseille","lat":43.28469,"lon":5.35896,"is_reserved":false,"is_disabled":false,"rental_uris":{"android":"levelo://app?vid=70f4385c-6b37-4d0d-8049-f1a6bce30f9f","ios":"levelo://app?vid=70f4385c-6b37-4d0d-8049-f1a6bce30f9f"},"vehicle_type_id":"4","last_reported":1730498888,"current_range_meters":6800,"station_id":"ce4bhah2rcd13ifvqei0","pricing_plan_id":"cebpf4jnsgd1na2vs0mg"},{"bike_id":"63ccde5a-d15c-43ed-b4dc-589fa356b4a8","system_id":"levelo_inurba_marseille","lat":43.27436,"lon":5.39406,"is_reserved":false,"is_disabled":false,"rental_uris":{"android":"levelo://app?vid=63ccde5a-d15c-43ed-b4dc-589fa356b4a8","ios":"levelo://app?vid=63ccde5a-d15c-43ed-b4dc-589fa356b4a8"},"vehicle_type_id":"4","last_reported":1730498888,"current_range_meters":38800,"station_id":"ce4bhdp2rcd13ifvqf20","pricing_plan_id":"cebpf4jnsgd1na2vs0mg"},{"bike_id":"d8b30d62-8fb7-4930-b190-e85b44e5d382","system_id":"levelo_inurba_marseille","lat":43.29809,"lon":5.38108,"is_reserved":false,"is_disabled":false,"rental_uris":{"android":"levelo://app?vid=d8b30d62-8fb7-4930-b190-e85b44e5d382","ios":"levelo://app?vid=d8b30d62-8fb7-4930-b190-e85b44e5d382"},"vehicle_type_id":"4","last_reported":1730498888,"current_range_meters":24000,"station_id":"ce4bgip2rcd13ifvqbb0","pricing_plan_id":"cebpf4jnsgd1na2vs0mg"},{"bike_id":"70e4cee7-c8db-4e93-ae10-f94ee4eddb12","system_id":"levelo_inurba_marseille","lat":43.279633,"lon":5.387461,"is_reserved":false,"is_disabled":false,"rental_uris":{"android":"levelo://app?vid=70e4cee7-c8db-4e93-ae10-f94ee4eddb12","ios":"levelo://app?vid=70e4cee7-c8db-4e93-ae10-f94ee4eddb12"},"vehicle_type_id":"4","last_reported":1730498888,"current_range_meters":24000,"station_id":"ce4bhjp2rcd13ifvqga0","pricing_plan_id":"cebpf4jnsgd1na2vs0mg"},{"bike_id":"e07c4a5d-78e2-4160-93d1-094ae910ad1d","system_id":"levelo_inurba_marseille","lat":43.30209,"lon":5.39471,"is_reserved":false,"is_disabled":false,"rental_uris":{"android":"levelo://app?vid=e07c4a5d-78e2-4160-93d1-094ae910ad1d","ios":"levelo://app?vid=e07c4a5d-78e2-4160-93d1-094ae910ad1d"},"vehicle_type_id":"4","last_reported":1730498888,"current_range_meters":27600,"station_id":"ce4bh0p2rcd13ifvqd70","pricing_plan_id":"cebpf4jnsgd1na2vs0mg"},{"bike_id":"b308451d-42cb-41d1-b5a5-a3a56d0b89d4","system_id":"levelo_inurba_marseille","lat":43.29034,"lon":5.3865,"is_reserved":false,"is_disabled":false,"rental_uris":{"android":"levelo://app?vid=b308451d-42cb-41d1-b5a5-a3a56d0b89d4","ios":"levelo://app?vid=b308451d-42cb-41d1-b5a5-a3a56d0b89d4"},"vehicle_type_id":"4","last_reported":1730498888,"current_range_meters":38800,"station_id":"ce4bh4p2rcd13ifvqe0g","pricing_plan_id":"cebpf4jnsgd1na2vs0mg"},{"bike_id":"a666d207-ba0b-4da4-ab30-e5fee93d146b","system_id":"levelo_inurba_marseille","lat":43.29418,"lon":5.38629,"is_reserved":false,"is_disabled":false,"rental_uris":{"android":"levelo://app?vid=a666d207-ba0b-4da4-ab30-e5fee93d146b","ios":"levelo://app?vid=a666d207-ba0b-4da4-ab30-e5fee93d146b"},"vehicle_type_id":"4","last_reported":1730498888,"current_range_meters":16000,"station_id":"ce4bh2h2rcd13ifvqdh0","pricing_plan_id":"cebpf4jnsgd1na2vs0mg"},{"bike_id":"1253142a-3431-44fc-88d3-dafaa2237fdb","system_id":"levelo_inurba_marseille","lat":43.27993,"lon":5.41665,"is_reserved":false,"is_disabled":false,"rental_uris":{"android":"levelo://app?vid=1253142a-3431-44fc-88d3-dafaa2237fdb","ios":"levelo://app?vid=1253142a-3431-44fc-88d3-dafaa2237fdb"},"vehicle_type_id":"4","last_reported":1730498888,"current_range_meters":19200,"station_id":"ce4bho12rcd13ifvqh1g","pricing_plan_id":"cebpf4jnsgd1na2vs0mg"},{"bike_id":"57d18951-2001-4003-92d2-aa5cb684af8c","system_id":"levelo_inurba_marseille","lat":43.27106,"lon":5.39462,"is_reserved":false,"is_disabled":false,"rental_uris":{"android":"levelo://app?vid=57d18951-2001-4003-92d2-aa5cb684af8c","ios":"levelo://app?vid=57d18951-2001-4003-92d2-aa5cb684af8c"},"vehicle_type_id":"4","last_reported":1730498888,"current_range_meters":20000,"station_id":"","pricing_plan_id":"cebpf4jnsgd1na2vs0mg"},{"bike_id":"5c27b960-6461-4f9d-887b-b61a1549abaa","system_id":"levelo_inurba_marseille","lat":43.25122,"lon":5.40316,"is_reserved":false,"is_disabled":false,"rental_uris":{"android":"levelo://app?vid=5c27b960-6461-4f9d-887b-b61a1549abaa","ios":"levelo://app?vid=5c27b960-6461-4f9d-887b-b61a1549abaa"},"vehicle_type_id":"4","last_reported":1730498888,"current_range_meters":6800,"station_id":"ce4bhlh2rcd13ifvqgig","pricing_plan_id":"cebpf4jnsgd1na2vs0mg"},{"bike_id":"3730747f-62e1-4de2-8b52-5c433fdc4dd3","system_id":"levelo_inurba_marseille","lat":43.23183,"lon":5.3999,"is_reserved":false,"is_disabled":false,"rental_uris":{"android":"levelo://app?vid=3730747f-62e1-4de2-8b52-5c433fdc4dd3","ios":"levelo://app?vid=3730747f-62e1-4de2-8b52-5c433fdc4dd3"},"vehicle_type_id":"4","last_reported":1730498888,"current_range_meters":6400,"station_id":"ce4bhn12rcd13ifvqgqg","pricing_plan_id":"cebpf4jnsgd1na2vs0mg"},{"bike_id":"682bf1c5-5903-4d2f-ab10-5dd6d792be55","system_id":"levelo_inurba_marseille","lat":43.258219,"lon":5.394271,"is_reserved":false,"is_disabled":false,"rental_uris":{"android":"levelo://app?vid=682bf1c5-5903-4d2f-ab10-5dd6d792be55","ios":"levelo://app?vid=682bf1c5-5903-4d2f-ab10-5dd6d792be55"},"vehicle_type_id":"4","last_reported":1730498888,"current_range_meters":38800,"station_id":"ce4bhip2rcd13ifvqft0","pricing_plan_id":"cebpf4jnsgd1na2vs0mg"},{"bike_id":"7952e5d0-80e3-40a1-8d19-e2d3cdcd4398","system_id":"levelo_inurba_marseille","lat":43.29304,"lon":5.37455,"is_reserved":false,"is_disabled":false,"rental_uris":{"android":"levelo://app?vid=7952e5d0-80e3-40a1-8d19-e2d3cdcd4398","ios":"levelo://app?vid=7952e5d0-80e3-40a1-8d19-e2d3cdcd4398"},"vehicle_type_id":"4","last_reported":1730498888,"current_range_meters":8000,"station_id":"ce4bgi12rcd13ifvqb70","pricing_plan_id":"cebpf4jnsgd1na2vs0mg"},{"bike_id":"0f524f7a-e87b-40e6-a0d2-ade4e8a08165","system_id":"levelo_inurba_marseille","lat":43.27436,"lon":5.39415,"is_reserved":false,"is_disabled":false,"rental_uris":{"android":"levelo://app?vid=0f524f7a-e87b-40e6-a0d2-ade4e8a08165","ios":"levelo://app?vid=0f524f7a-e87b-40e6-a0d2-ade4e8a08165"},"vehicle_type_id":"4","last_reported":1730498888,"current_range_meters":38800,"station_id":"ce4bhdp2rcd13ifvqf20","pricing_plan_id":"cebpf4jnsgd1na2vs0mg"},{"bike_id":"639bb546-5a14-42d0-a97f-a7a60c11c0e2","system_id":"levelo_inurba_marseille","lat":43.30812,"lon":5.3816,"is_reserved":false,"is_disabled":false,"rental_uris":{"android":"levelo://app?vid=639bb546-5a14-42d0-a97f-a7a60c11c0e2","ios":"levelo://app?vid=639bb546-5a14-42d0-a97f-a7a60c11c0e2"},"vehicle_type_id":"4","last_reported":1730498888,"current_range_meters":26000,"station_id":"ce4bgt12rcd13ifvqce0","pricing_plan_id":"cebpf4jnsgd1na2vs0mg"},{"bike_id":"94279a57-03c0-47b7-abe3-7226e86fd3b0","system_id":"levelo_inurba_marseille","lat":43.27614,"lon":5.36102,"is_reserved":false,"is_disabled":false,"rental_uris":{"android":"levelo://app?vid=94279a57-03c0-47b7-abe3-7226e86fd3b0","ios":"levelo://app?vid=94279a57-03c0-47b7-abe3-7226e86fd3b0"},"vehicle_type_id":"4","last_reported":1730498888,"current_range_meters":24000,"station_id":"ce4bgj92rcd13ifvqbe0","pricing_plan_id":"cebpf4jnsgd1na2vs0mg"},{"bike_id":"0aef02cc-f185-45c5-bb2a-fe0e30b3a8fa","system_id":"levelo_inurba_marseille","lat":43.30921,"lon":5.40143,"is_reserved":false,"is_disabled":false,"rental_uris":{"android":"levelo://app?vid=0aef02cc-f185-45c5-bb2a-fe0e30b3a8fa","ios":"levelo://app?vid=0aef02cc-f185-45c5-bb2a-fe0e30b3a8fa"},"vehicle_type_id":"4","last_reported":1730498888,"current_range_meters":38000,"station_id":"ce4bgvp2rcd13ifvqct0","pricing_plan_id":"cebpf4jnsgd1na2vs0mg"},{"bike_id":"1bd5b08a-eda8-4406-8254-7f9d0b12de51","system_id":"levelo_inurba_marseille","lat":43.31332,"lon":5.39685,"is_reserved":false,"is_disabled":false,"rental_uris":{"android":"levelo://app?vid=1bd5b08a-eda8-4406-8254-7f9d0b12de51","ios":"levelo://app?vid=1bd5b08a-eda8-4406-8254-7f9d0b12de51"},"vehicle_type_id":"4","last_reported":1730498888,"current_range_meters":29600,"station_id":"ce4bgvp2rcd13ifvqcu0","pricing_plan_id":"cebpf4jnsgd1na2vs0mg"},{"bike_id":"a83605b0-6e9a-440d-9dfb-b4aa16ed34b5","system_id":"levelo_inurba_marseille","lat":43.29597,"lon":5.37734,"is_reserved":false,"is_disabled":false,"rental_uris":{"android":"levelo://app?vid=a83605b0-6e9a-440d-9dfb-b4aa16ed34b5","ios":"levelo://app?vid=a83605b0-6e9a-440d-9dfb-b4aa16ed34b5"},"vehicle_type_id":"4","last_reported":1730498888,"current_range_meters":38000,"station_id":"ce4bgi92rcd13ifvqb90","pricing_plan_id":"cebpf4jnsgd1na2vs0mg"},{"bike_id":"6c2c3cb0-1feb-40b9-ab27-36ab3e40beed","system_id":"levelo_inurba_marseille","lat":43.2743,"lon":5.39401,"is_reserved":false,"is_disabled":false,"rental_uris":{"android":"levelo://app?vid=6c2c3cb0-1feb-40b9-ab27-36ab3e40beed","ios":"levelo://app?vid=6c2c3cb0-1feb-40b9-ab27-36ab3e40beed"},"vehicle_type_id":"4","last_reported":1730498888,"current_range_meters":38800,"station_id":"ce4bhdp2rcd13ifvqf20","pricing_plan_id":"cebpf4jnsgd1na2vs0mg"},{"bike_id":"811f91a7-b491-4bd2-b61b-6549a4b39843","system_id":"levelo_inurba_marseille","lat":43.29424,"lon":5.38608,"is_reserved":false,"is_disabled":false,"rental_uris":{"android":"levelo://app?vid=811f91a7-b491-4bd2-b61b-6549a4b39843","ios":"levelo://app?vid=811f91a7-b491-4bd2-b61b-6549a4b39843"},"vehicle_type_id":"4","last_reported":1730498888,"current_range_meters":32000,"station_id":"ce4bh2h2rcd13ifvqdh0","pricing_plan_id":"cebpf4jnsgd1na2vs0mg"},{"bike_id":"1f35312e-f2aa-4f2a-9e88-8e78d750b7f1","system_id":"levelo_inurba_marseille","lat":43.28485,"lon":5.3842,"is_reserved":false,"is_disabled":false,"rental_uris":{"android":"levelo://app?vid=1f35312e-f2aa-4f2a-9e88-8e78d750b7f1","ios":"levelo://app?vid=1f35312e-f2aa-4f2a-9e88-8e78d750b7f1"},"vehicle_type_id":"4","last_reported":1730498888,"current_range_meters":38800,"station_id":"ce4bh512rcd13ifvqe3g","pricing_plan_id":"cebpf4jnsgd1na2vs0mg"},{"bike_id":"a4ddac70-224a-4d67-9763-f4c6e357f8ed","system_id":"levelo_inurba_marseille","lat":43.29971,"lon":5.38491,"is_reserved":false,"is_disabled":false,"rental_uris":{"android":"levelo://app?vid=a4ddac70-224a-4d67-9763-f4c6e357f8ed","ios":"levelo://app?vid=a4ddac70-224a-4d67-9763-f4c6e357f8ed"},"vehicle_type_id":"4","last_reported":1730498888,"current_range_meters":35200,"station_id":"ce4bgj92rcd13ifvqbd0","pricing_plan_id":"cebpf4jnsgd1na2vs0mg"},{"bike_id":"67486188-f5ce-4c42-b6cb-bccf3802458c","system_id":"levelo_inurba_marseille","lat":43.29038,"lon":5.37558,"is_reserved":false,"is_disabled":false,"rental_uris":{"android":"levelo://app?vid=67486188-f5ce-4c42-b6cb-bccf3802458c","ios":"levelo://app?vid=67486188-f5ce-4c42-b6cb-bccf3802458c"},"vehicle_type_id":"4","last_reported":1730498888,"current_range_meters":37600,"station_id":"ce4bh692rcd13ifvqe90","pricing_plan_id":"cebpf4jnsgd1na2vs0mg"},{"bike_id":"ce7a9679-1309-4337-a277-05901a838b7d","system_id":"levelo_inurba_marseille","lat":43.29352,"lon":5.4343,"is_reserved":false,"is_disabled":false,"rental_uris":{"android":"levelo://app?vid=ce7a9679-1309-4337-a277-05901a838b7d","ios":"levelo://app?vid=ce7a9679-1309-4337-a277-05901a838b7d"},"vehicle_type_id":"4","last_reported":1730498888,"current_range_meters":14800,"station_id":"","pricing_plan_id":"cebpf4jnsgd1na2vs0mg"},{"bike_id":"55c2ff85-182d-4d03-a560-84245f7bc52a","system_id":"levelo_inurba_marseille","lat":43.29525,"lon":5.37509,"is_reserved":false,"is_disabled":false,"rental_uris":{"android":"levelo://app?vid=55c2ff85-182d-4d03-a560-84245f7bc52a","ios":"levelo://app?vid=55c2ff85-182d-4d03-a560-84245f7bc52a"},"vehicle_type_id":"4","last_reported":1730498888,"current_range_meters":38800,"station_id":"ce4bgkp2rcd13ifvqbmg","pricing_plan_id":"cebpf4jnsgd1na2vs0mg"},{"bike_id":"5a0d6e70-4bf5-47da-89b9-94aaa8a6f1ad","system_id":"levelo_inurba_marseille","lat":43.287,"lon":5.39987,"is_reserved":false,"is_disabled":false,"rental_uris":{"android":"levelo://app?vid=5a0d6e70-4bf5-47da-89b9-94aaa8a6f1ad","ios":"levelo://app?vid=5a0d6e70-4bf5-47da-89b9-94aaa8a6f1ad"},"vehicle_type_id":"4","last_reported":1730498888,"current_range_meters":30400,"station_id":"ce4bho92rcd13ifvqh3g","pricing_plan_id":"cebpf4jnsgd1na2vs0mg"},{"bike_id":"e134859c-2a61-4bca-97b8-71a097ecbcd5","system_id":"levelo_inurba_marseille","lat":43.3133,"lon":5.39691,"is_reserved":false,"is_disabled":false,"rental_uris":{"android":"levelo://app?vid=e134859c-2a61-4bca-97b8-71a097ecbcd5","ios":"levelo://app?vid=e134859c-2a61-4bca-97b8-71a097ecbcd5"},"vehicle_type_id":"4","last_reported":1730498888,"current_range_meters":37600,"station_id":"ce4bgvp2rcd13ifvqcu0","pricing_plan_id":"cebpf4jnsgd1na2vs0mg"},{"bike_id":"78b2177b-882f-41be-b6b9-03266c0d960b","system_id":"levelo_inurba_marseille","lat":43.30187,"lon":5.36608,"is_reserved":false,"is_disabled":false,"rental_uris":{"android":"levelo://app?vid=78b2177b-882f-41be-b6b9-03266c0d960b","ios":"levelo://app?vid=78b2177b-882f-41be-b6b9-03266c0d960b"},"vehicle_type_id":"4","last_reported":1730498888,"current_range_meters":38800,"station_id":"ce4bgrh2rcd13ifvqc8g","pricing_plan_id":"cebpf4jnsgd1na2vs0mg"},{"bike_id":"25b8a6cd-9406-45b3-a610-9ff6eec6b3a1","system_id":"levelo_inurba_marseille","lat":43.28721,"lon":5.36095,"is_reserved":false,"is_disabled":false,"rental_uris":{"android":"levelo://app?vid=25b8a6cd-9406-45b3-a610-9ff6eec6b3a1","ios":"levelo://app?vid=25b8a6cd-9406-45b3-a610-9ff6eec6b3a1"},"vehicle_type_id":"4","last_reported":1730498888,"current_range_meters":6400,"station_id":"cki0cbj6b192h4jlfktg","pricing_plan_id":"cebpf4jnsgd1na2vs0mg"},{"bike_id":"f113a14a-1ae1-46ee-a930-2096de8d492c","system_id":"levelo_inurba_marseille","lat":43.30149,"lon":5.38082,"is_reserved":false,"is_disabled":false,"rental_uris":{"android":"levelo://app?vid=f113a14a-1ae1-46ee-a930-2096de8d492c","ios":"levelo://app?vid=f113a14a-1ae1-46ee-a930-2096de8d492c"},"vehicle_type_id":"4","last_reported":1730498888,"current_range_meters":32000,"station_id":"ce4bgjp2rcd13ifvqbh0","pricing_plan_id":"cebpf4jnsgd1na2vs0mg"},{"bike_id":"00e70a20-c568-4fa0-a424-a40454a7bfa5","system_id":"levelo_inurba_marseille","lat":43.32368,"lon":5.38876,"is_reserved":false,"is_disabled":false,"rental_uris":{"android":"levelo://app?vid=00e70a20-c568-4fa0-a424-a40454a7bfa5","ios":"levelo://app?vid=00e70a20-c568-4fa0-a424-a40454a7bfa5"},"vehicle_type_id":"4","last_reported":1730498888,"current_range_meters":10800,"station_id":"ce4bhqp2rcd13ifvqhog","pricing_plan_id":"cebpf4jnsgd1na2vs0mg"},{"bike_id":"a142f4c9-da25-4bce-889c-001e62f0bcb0","system_id":"levelo_inurba_marseille","lat":43.29504,"lon":5.37513,"is_reserved":false,"is_disabled":false,"rental_uris":{"android":"levelo://app?vid=a142f4c9-da25-4bce-889c-001e62f0bcb0","ios":"levelo://app?vid=a142f4c9-da25-4bce-889c-001e62f0bcb0"},"vehicle_type_id":"4","last_reported":1730498888,"current_range_meters":32800,"station_id":"ce4bgkp2rcd13ifvqbmg","pricing_plan_id":"cebpf4jnsgd1na2vs0mg"},{"bike_id":"6993734d-fdc9-423f-861e-5a2e6f7b420b","system_id":"levelo_inurba_marseille","lat":43.35695,"lon":5.414,"is_reserved":false,"is_disabled":false,"rental_uris":{"android":"levelo://app?vid=6993734d-fdc9-423f-861e-5a2e6f7b420b","ios":"levelo://app?vid=6993734d-fdc9-423f-861e-5a2e6f7b420b"},"vehicle_type_id":"4","last_reported":1730498888,"current_range_meters":22800,"station_id":"","pricing_plan_id":"cebpf4jnsgd1na2vs0mg"},{"bike_id":"b0c56942-3d9e-4aaa-a6a2-74e268fbd84d","system_id":"levelo_inurba_marseille","lat":43.28444,"lon":5.39199,"is_reserved":false,"is_disabled":false,"rental_uris":{"android":"levelo://app?vid=b0c56942-3d9e-4aaa-a6a2-74e268fbd84d","ios":"levelo://app?vid=b0c56942-3d9e-4aaa-a6a2-74e268fbd84d"},"vehicle_type_id":"4","last_reported":1730498888,"current_range_meters":30000,"station_id":"ce4bhoh2rcd13ifvqh5g","pricing_plan_id":"cebpf4jnsgd1na2vs0mg"},{"bike_id":"d50f606e-f4bc-464a-a19d-df1ef05eabaa","system_id":"levelo_inurba_marseille","lat":43.28919,"lon":5.38403,"is_reserved":false,"is_disabled":false,"rental_uris":{"android":"levelo://app?vid=d50f606e-f4bc-464a-a19d-df1ef05eabaa","ios":"levelo://app?vid=d50f606e-f4bc-464a-a19d-df1ef05eabaa"},"vehicle_type_id":"4","last_reported":1730498888,"current_range_meters":36000,"station_id":"ce4bh612rcd13ifvqe6g","pricing_plan_id":"cebpf4jnsgd1na2vs0mg"},{"bike_id":"cd2db01a-0087-434a-b1d1-6bff617efd21","system_id":"levelo_inurba_marseille","lat":43.29591,"lon":5.38107,"is_reserved":false,"is_disabled":false,"rental_uris":{"android":"levelo://app?vid=cd2db01a-0087-434a-b1d1-6bff617efd21","ios":"levelo://app?vid=cd2db01a-0087-434a-b1d1-6bff617efd21"},"vehicle_type_id":"4","last_reported":1730498888,"current_range_meters":20800,"station_id":"ce4bgl12rcd13ifvqbo0","pricing_plan_id":"cebpf4jnsgd1na2vs0mg"},{"bike_id":"89278f8d-dfe9-4ad6-a16f-d4bb717fd27f","system_id":"levelo_inurba_marseille","lat":43.29412,"lon":5.38633,"is_reserved":false,"is_disabled":false,"rental_uris":{"android":"levelo://app?vid=89278f8d-dfe9-4ad6-a16f-d4bb717fd27f","ios":"levelo://app?vid=89278f8d-dfe9-4ad6-a16f-d4bb717fd27f"},"vehicle_type_id":"4","last_reported":1730498888,"current_range_meters":23200,"station_id":"ce4bh2h2rcd13ifvqdh0","pricing_plan_id":"cebpf4jnsgd1na2vs0mg"},{"bike_id":"0d55d1b3-6747-4c98-9a33-dab2dd3772a2","system_id":"levelo_inurba_marseille","lat":43.287262,"lon":5.360879,"is_reserved":false,"is_disabled":false,"rental_uris":{"android":"levelo://app?vid=0d55d1b3-6747-4c98-9a33-dab2dd3772a2","ios":"levelo://app?vid=0d55d1b3-6747-4c98-9a33-dab2dd3772a2"},"vehicle_type_id":"4","last_reported":1730498888,"current_range_meters":28800,"station_id":"cki0cbj6b192h4jlfktg","pricing_plan_id":"cebpf4jnsgd1na2vs0mg"},{"bike_id":"67c105b9-496e-4638-9b26-5787e92b93b9","system_id":"levelo_inurba_marseille","lat":43.31717,"lon":5.37763,"is_reserved":false,"is_disabled":false,"rental_uris":{"android":"levelo://app?vid=67c105b9-496e-4638-9b26-5787e92b93b9","ios":"levelo://app?vid=67c105b9-496e-4638-9b26-5787e92b93b9"},"vehicle_type_id":"4","last_reported":1730498888,"current_range_meters":30000,"station_id":"ce4bgth2rcd13ifvqch0","pricing_plan_id":"cebpf4jnsgd1na2vs0mg"},{"bike_id":"aea44ede-f2aa-4413-b1bd-9de00b274b46","system_id":"levelo_inurba_marseille","lat":43.25004,"lon":5.38924,"is_reserved":false,"is_disabled":false,"rental_uris":{"android":"levelo://app?vid=aea44ede-f2aa-4413-b1bd-9de00b274b46","ios":"levelo://app?vid=aea44ede-f2aa-4413-b1bd-9de00b274b46"},"vehicle_type_id":"4","last_reported":1730498888,"current_range_meters":30000,"station_id":"ce4bhgp2rcd13ifvqfd0","pricing_plan_id":"cebpf4jnsgd1na2vs0mg"},{"bike_id":"5e485333-62fb-4da8-97a1-fa557b7ae588","system_id":"levelo_inurba_marseille","lat":43.28407,"lon":5.37511,"is_reserved":false,"is_disabled":false,"rental_uris":{"android":"levelo://app?vid=5e485333-62fb-4da8-97a1-fa557b7ae588","ios":"levelo://app?vid=5e485333-62fb-4da8-97a1-fa557b7ae588"},"vehicle_type_id":"4","last_reported":1730498888,"current_range_meters":25200,"station_id":"ce4bh412rcd13ifvqds0","pricing_plan_id":"cebpf4jnsgd1na2vs0mg"},{"bike_id":"48f311ea-c15c-4c36-b596-38b404fd4878","system_id":"levelo_inurba_marseille","lat":43.29596,"lon":5.3809,"is_reserved":false,"is_disabled":false,"rental_uris":{"android":"levelo://app?vid=48f311ea-c15c-4c36-b596-38b404fd4878","ios":"levelo://app?vid=48f311ea-c15c-4c36-b596-38b404fd4878"},"vehicle_type_id":"4","last_reported":1730498888,"current_range_meters":33200,"station_id":"ce4bgl12rcd13ifvqbo0","pricing_plan_id":"cebpf4jnsgd1na2vs0mg"},{"bike_id":"80f86e7c-536f-40e9-9aa9-068b42b09339","system_id":"levelo_inurba_marseille","lat":43.30085,"lon":5.39088,"is_reserved":false,"is_disabled":false,"rental_uris":{"android":"levelo://app?vid=80f86e7c-536f-40e9-9aa9-068b42b09339","ios":"levelo://app?vid=80f86e7c-536f-40e9-9aa9-068b42b09339"},"vehicle_type_id":"4","last_reported":1730498888,"current_range_meters":16800,"station_id":"ce4bh192rcd13ifvqdb0","pricing_plan_id":"cebpf4jnsgd1na2vs0mg"},{"bike_id":"3f061dc3-45bd-49fb-8977-c47757d5a3f4","system_id":"levelo_inurba_marseille","lat":43.297882,"lon":5.393429,"is_reserved":false,"is_disabled":false,"rental_uris":{"android":"levelo://app?vid=3f061dc3-45bd-49fb-8977-c47757d5a3f4","ios":"levelo://app?vid=3f061dc3-45bd-49fb-8977-c47757d5a3f4"},"vehicle_type_id":"4","last_reported":1730498888,"current_range_meters":16400,"station_id":"chh1huq6cuj3fo74tm60","pricing_plan_id":"cebpf4jnsgd1na2vs0mg"},{"bike_id":"fcb96d8f-6854-4fbb-a255-1177695f3474","system_id":"levelo_inurba_marseille","lat":43.29194,"lon":5.39327,"is_reserved":false,"is_disabled":false,"rental_uris":{"android":"levelo://app?vid=fcb96d8f-6854-4fbb-a255-1177695f3474","ios":"levelo://app?vid=fcb96d8f-6854-4fbb-a255-1177695f3474"},"vehicle_type_id":"4","last_reported":1730498888,"current_range_meters":8800,"station_id":"ce4bh192rcd13ifvqdd0","pricing_plan_id":"cebpf4jnsgd1na2vs0mg"},{"bike_id":"41d47d69-979b-4480-8fb6-135de4b1e8ff","system_id":"levelo_inurba_marseille","lat":43.25716,"lon":5.41124,"is_reserved":false,"is_disabled":false,"rental_uris":{"android":"levelo://app?vid=41d47d69-979b-4480-8fb6-135de4b1e8ff","ios":"levelo://app?vid=41d47d69-979b-4480-8fb6-135de4b1e8ff"},"vehicle_type_id":"4","last_reported":1730498888,"current_range_meters":38800,"station_id":"ce4bhkp2rcd13ifvqgd0","pricing_plan_id":"cebpf4jnsgd1na2vs0mg"},{"bike_id":"7ab7a2b8-6120-48d3-9e78-2dc7c0c16bf5","system_id":"levelo_inurba_marseille","lat":43.27943,"lon":5.41035,"is_reserved":false,"is_disabled":false,"rental_uris":{"android":"levelo://app?vid=7ab7a2b8-6120-48d3-9e78-2dc7c0c16bf5","ios":"levelo://app?vid=7ab7a2b8-6120-48d3-9e78-2dc7c0c16bf5"},"vehicle_type_id":"4","last_reported":1730498888,"current_range_meters":24000,"station_id":"ce4bhnp2rcd13ifvqh0g","pricing_plan_id":"cebpf4jnsgd1na2vs0mg"},{"bike_id":"066435ff-957d-4c00-bee6-d0afc37d866a","system_id":"levelo_inurba_marseille","lat":43.29689,"lon":5.3729,"is_reserved":false,"is_disabled":false,"rental_uris":{"android":"levelo://app?vid=066435ff-957d-4c00-bee6-d0afc37d866a","ios":"levelo://app?vid=066435ff-957d-4c00-bee6-d0afc37d866a"},"vehicle_type_id":"4","last_reported":1730498888,"current_range_meters":13600,"station_id":"ce4bgk12rcd13ifvqbj0","pricing_plan_id":"cebpf4jnsgd1na2vs0mg"},