{"last_updated":1762355477,"ttl":60,"version":"2.2","data":{"bikes":[{"bike_id":"b7c5e96f-2666-418c-b8cc-36dfc613348c","system_id":"levelo_inurba_marseille","lat":43.337444,"lon":5.374475,"is_reserved":false,"is_disabled":false,"rental_uris":{"android":"levelo://app?vid=b7c5e96f-2666-418c-b8cc-36dfc613348c","ios":"levelo://app?vid=b7c5e96f-2666-418c-b8cc-36dfc613348c"},"vehicle_type_id":"4","last_reported":1762355477,"current_range_meters":0,"station_id":"","pricing_plan_id":"cebpf4jnsgd1na2vs0mg"},{"bike_id":"9c46a9f5-39cb-461a-ac28-286dc216524b","system_id":"levelo_inurba_marseille","lat":43.337444,"lon":5.374475,"is_reserved":false,"is_disabled":false,"rental_uris":{"android":"levelo://app?vid=9c46a9f5-39cb-461a-ac28-286dc216524b","ios":"levelo://app?vid=9c46a9f5-39cb-461a-ac28-286dc216524b"},"vehicle_type_id":"4","last_reported":1762355477,"current_range_meters":0,"station_id":"","pricing_plan_id":"cebpf4jnsgd1na2vs0mg"},{"bike_id":"2aa95e42-5a8c-4825-81d0-40d356e0168e","system_id":"levelo_inurba_marseille","lat":43.337444,"lon":5.374475,"is_reserved":false,"is_disabled":false,"rental_uris":{"android":"levelo://app?vid=2aa95e42-5a8c-4825-81d0-40d356e0168e","ios":"levelo://app?vid=2aa95e42-5a8c-4825-81d0-40d356e0168e"},"vehicle_type_id":"4","last_reported":1762355477,"current_range_meters":0,"station_id":"","pricing_plan_id":"cebpf4jnsgd1na2vs0mg"},{"bike_id":"23f7c00c-abd3-4b9e-b454-b625ef68ddce","system_id":"levelo_inurba_marseille","lat":43.337444,"lon":5.374475,"is_reserved":false,"is_disabled":false,"rental_uris":{"android":"levelo://app?vid=23f7c00c-abd3-4b9e-b454-b625ef68ddce","ios":"levelo://app?vid=23f7c00c-abd3-4b9e-b454-b625ef68ddce"},"vehicle_type_id":"4","last_reported":1762355477,"current_range_meters":0,"station_id":"","pricing_plan_id":"cebpf4jnsgd1na2vs0mg"},{"bike_id":"a3451d83-9c80-4ffa-96f9-a14c25634465","system_id":"levelo_inurba_marseille","lat":43.337444,"lon":5.374475,"is_reserved":false,"is_disabled":false,"rental_uris":{"android":"levelo://app?vid=a3451d83-9c80-4ffa-96f9-a14c25634465","ios":"levelo://app?vid=a3451d83-9c80-4ffa-96f9-a14c25634465"},"vehicle_type_id":"4","last_reported":1762355477,"current_range_meters":0,"station_id":"","pricing_plan_id":"cebpf4jnsgd1na2vs0mg"},{"bike_id":"19649598-fd0f-4237-a302-8b748132eb30","system_id":"levelo_inurba_marseille","lat":43.337444,"lon":5.374475,"is_reserved":false,"is_disabled":false,"rental_uris":{"android":"levelo://app?vid=19649598-fd0f-4237-a302-8b748132eb30","ios":"levelo://app?vid=19649598-fd0f-4237-a302-8b748132eb30"},"vehicle_type_id":"4","last_reported":1762355477,"current_range_meters":0,"station_id":"","pricing_plan_id":"cebpf4jnsgd1na2vs0mg"},{"bike_id":"79f0199f-1fbb-40b2-9337-191d82b520a7","system_id":"levelo_inurba_marseille","lat":43.337444,"lon":5.374475,"is_reserved":false,"is_disabled":false,"rental_uris":{"android":"levelo://app?vid=79f0199f-1fbb-40b2-9337-191d82b520a7","ios":"levelo://app?vid=79f0199f-1fbb-40b2-9337-191d82b520a7"},"vehicle_type_id":"4","last_reported":1762355477,"current_range_meters":0,"station_id":"","pricing_plan_id":"cebpf4jnsgd1na2vs0mg"},{"bike_id":"34a0d96e-bbf5-4ab6-8de8-a56cc767fd57","system_id":"levelo_inurba_marseille","lat":43.337444,"lon":5.374475,"is_reserved":false,"is_disabled":false,"rental_uris":{"android":"levelo://app?vid=34a0d96e-bbf5-4ab6-8de8-a56cc767fd57","ios":"levelo://app?vid=34a0d96e-bbf5-4ab6-8de8-a56cc767fd57"},"vehicle_type_id":"4","last_reported":1762355477,"current_range_meters":0,"station_id":"","pricing_plan_id":"cebpf4jnsgd1na2vs0mg"},{"bike_id":"30c4756b-2e3a-4ac9-b1fb-aa08283eecaa","system_id":"levelo_inurba_marseille","lat":43.337444,"lon":5.374475,"is_reserved":false,"is_disabled":false,"rental_uris":{"android":"levelo://app?vid=30c4756b-2e3a-4ac9-b1fb-aa08283eecaa","ios":"levelo://app?vid=30c4756b-2e3a-4ac9-b1fb-aa08283eecaa"},"vehicle_type_id":"4","last_reported":1762355477,"current_range_meters":0,"station_id":"","pricing_plan_id":"cebpf4jnsgd1na2vs0mg"},{"bike_id":"cb5b6ee7-3ef8-4299-a38d-cc32f035098b","system_id":"levelo_inurba_marseille","lat":43.337444,"lon":5.374475,"is_reserved":false,"is_disabled":false,"rental_uris":{"android":"levelo://app?vid=cb5b6ee7-3ef8-4299-a38d-cc32f035098b","ios":"levelo://app?vid=cb5b6ee7-3ef8-4299-a38d-cc32f035098b"},"vehicle_type_id":"4","last_reported":1762355477,"current_range_meters":0,"station_id":"","pricing_plan_id":"cebpf4jnsgd1na2vs0mg"},{"bike_id":"0dbf8834-1963-4427-879a-60d5139a1252","system_id":"levelo_inurba_marseille","lat":43.337444,"lon":5.374475,"is_reserved":false,"is_disabled":false,"rental_uris":{"android":"levelo://app?vid=0dbf8834-1963-4427-879a-60d5139a1252","ios":"levelo://app?vid=0dbf8834-1963-4427-879a-60d5139a1252"},"vehicle_type_id":"4","last_reported":1762355477,"current_range_meters":0,"station_id":"","pricing_plan_id":"cebpf4jnsgd1na2vs0mg"},{"bike_id":"c3d3ce5c-8075-4b42-9455-beadd1468f17","system_id":"levelo_inurba_marseille","lat":43.337444,"lon":5.374475,"is_reserved":false,"is_disabled":false,"rental_uris":{"android":"levelo://app?vid=c3d3ce5c-8075-4b42-9455-beadd1468f17","ios":"levelo://app?vid=c3d3ce5c-8075-4b42-9455-beadd1468f17"},"vehicle_type_id":"4","last_reported":1762355477,"current_range_meters":0,"station_id":"","pricing_plan_id":"cebpf4jnsgd1na2vs0mg"},{"bike_id":"2177a091-7ad7-4fcd-ad08-e78406d1a8ef","system_id":"levelo_inurba_marseille","lat":43.337444,"lon":5.374475,"is_reserved":false,"is_disabled":false,"rental_uris":{"android":"levelo://app?vid=2177a091-7ad7-4fcd-ad08-e78406d1a8ef","ios":"levelo://app?vid=2177a091-7ad7-4fcd-ad08-e78406d1a8ef"},"vehicle_type_id":"4","last_reported":1762355477,"current_range_meters":0,"station_id":"","pricing_plan_id":"cebpf4jnsgd1na2vs0mg"},{"bike_id":"ed2dc6ad-7a96-47d2-b4d0-3deee38fd62c","system_id":"levelo_inurba_marseille","lat":43.337444,"lon":5.374475,"is_reserved":false,"is_disabled":false,"rental_uris":{"android":"levelo://app?vid=ed2dc6ad-7a96-47d2-b4d0-3deee38fd62c","ios":"levelo://app?vid=ed2dc6ad-7a96-47d2-b4d0-3deee38fd62c"},"vehicle_type_id":"4","last_reported":1762355477,"current_range_meters":0,"station_id":"","pricing_plan_id":"cebpf4jnsgd1na2vs0mg"},{"bike_id":"42735ee1-244b-4d96-8480-f9806199924f","system_id":"levelo_inurba_marseille","lat":43.337444,"lon":5.374475,"is_reserved":false,"is_disabled":false,"rental_uris":{"android":"levelo://app?vid=42735ee1-244b-4d96-8480-f9806199924f","ios":"levelo://app?vid=42735ee1-244b-4d96-8480-f9806199924f"},"vehicle_type_id":"4","last_reported":1762355477,"current_range_meters":0,"station_id":"","pricing_plan_id":"cebpf4jnsgd1na2vs0mg"},{"bike_id":"0d7ab61a-02ec-456f-ab23-ba92f34594d5","system_id":"levelo_inurba_marseille","lat":43.337444,"lon":5.374475,"is_reserved":false,"is_disabled":false,"rental_uris":{"android":"levelo://app?vid=0d7ab61a-02ec-456f-ab23-ba92f34594d5","ios":"levelo://app?vid=0d7ab61a-02ec-456f-ab23-ba92f34594d5"},"vehicle_type_id":"4","last_reported":1762355477,"current_range_meters":0,"station_id":"","pricing_plan_id":"cebpf4jnsgd1na2vs0mg"},{"bike_id":"f68022fa-eb0a-4aac-8aea-6f2e14d0afb9","system_id":"levelo_inurba_marseille","lat":43.337444,"lon":5.374475,"is_reserved":false,"is_disabled":false,"rental_uris":{"android":"levelo://app?vid=f68022fa-eb0a-4aac-8aea-6f2e14d0afb9","ios":"levelo://app?vid=f68022fa-eb0a-4aac-8aea-6f2e14d0afb9"},"vehicle_type_id":"4","last_reported":1762355477,"current_range_meters":0,"station_id":"","pricing_plan_id":"cebpf4jnsgd1na2vs0mg"},{"bike_id":"386a9781-f1f4-4d33-8679-4d1163c3b9de","system_id":"levelo_inurba_marseille","lat":43.337444,"lon":5.374475,"is_reserved":false,"is_disabled":false,"rental_uris":{"android":"levelo://app?vid=386a9781-f1f4-4d33-8679-4d1163c3b9de","ios":"levelo://app?vid=386a9781-f1f4-4d33-8679-4d1163c3b9de"},"vehicle_type_id":"4","last_reported":1762355477,"current_range_meters":0,"station_id":"","pricing_plan_id":"cebpf4jnsgd1na2vs0mg"},{"bike_id":"4692d694-8a80-47c7-a7c6-1264ca94c6df","system_id":"levelo_inurba_marseille","lat":43.337444,"lon":5.374475,"is_reserved":false,"is_disabled":false,"rental_uris":{"android":"levelo://app?vid=4692d694-8a80-47c7-a7c6-1264ca94c6df","ios":"levelo://app?vid=4692d694-8a80-47c7-a7c6-1264ca94c6df"},"vehicle_type_id":"4","last_reported":1762355477,"current_range_meters":0,"station_id":"","pricing_plan_id":"cebpf4jnsgd1na2vs0mg"},{"bike_id":"4706d18d-408c-4dc1-a44f-b0f99f27bdf0","system_id":"levelo_inurba_marseille","lat":43.337444,"lon":5.374475,"is_reserved":false,"is_disabled":false,"rental_uris":{"android":"levelo://app?vid=4706d18d-408c-4dc1-a44f-b0f99f27bdf0","ios":"levelo://app?vid=4706d18d-408c-4dc1-a44f-b0f99f27bdf0"},"vehicle_type_id":"4","last_reported":1762355477,"current_range_meters":0,"station_id":"","pricing_plan_id":"cebpf4jnsgd1na2vs0mg"},{"bike_id":"abb77335-fe7b-4b75-9b2f-be4bb45cbb0d","system_id":"levelo_inurba_marseille","lat":43.337444,"lon":5.374475,"is_reserved":false,"is_disabled":false,"rental_uris":{"android":"levelo://app?vid=abb77335-fe7b-4b75-9b2f-be4bb45cbb0d","ios":"levelo://app?vid=abb77335-fe7b-4b75-9b2f-be4bb45cbb0d"},"vehicle_type_id":"4","last_reported":1762355477,"current_range_meters":0,"station_id":"","pricing_plan_id":"cebpf4jnsgd1na2vs0mg"},{"bike_id":"4bde9393-6919-41f3-8fef-f4b40f375cc0","system_id":"levelo_inurba_marseille","lat":43.337444,"lon":5.374475,"is_reserved":false,"is_disabled":false,"rental_uris":{"android":"levelo://app?vid=4bde9393-6919-41f3-8fef-f4b40f375cc0","ios":"levelo://app?vid=4bde9393-6919-41f3-8fef-f4b40f375cc0"},"vehicle_type_id":"4","last_reported":1762355477,"current_range_meters":0,"station_id":"","pricing_plan_id":"cebpf4jnsgd1na2vs0mg"},{"bike_id":"51f4e824-5009-4c5b-9283-cfda2d34404c","system_id":"levelo_inurba_marseille","lat":43.337444,"lon":5.374475,"is_reserved":false,"is_disabled":false,"rental_uris":{"android":"levelo://app?vid=51f4e824-5009-4c5b-9283-cfda2d34404c","ios":"levelo://app?vid=51f4e824-5009-4c5b-9283-cfda2d34404c"},"vehicle_type_id":"4","last_reported":1762355477,"current_range_meters":0,"station_id":"","pricing_plan_id":"cebpf4jnsgd1na2vs0mg"},{"bike_id":"d155d58c-f50a-4469-b126-b5af1b8d3f8a","system_id":"levelo_inurba_marseille","lat":43.337444,"lon":5.374475,"is_reserved":false,"is_disabled":false,"rental_uris":{"android":"levelo://app?vid=d155d58c-f50a-4469-b126-b5af1b8d3f8a","ios":"levelo://app?vid=d155d58c-f50a-4469-b126-b5af1b8d3f8a"},"vehicle_type_id":"4","last_reported":1762355477,"current_range_meters":0,"station_id":"","pricing_plan_id":"cebpf4jnsgd1na2vs0mg"},{"bike_id":"16f471c2-a8ed-4e61-ba2a-d83085a9c284","system_id":"levelo_inurba_marseille","lat":43.337444,"lon":5.374475,"is_reserved":false,"is_disabled":false,"rental_uris":{"android":"levelo://app?vid=16f471c2-a8ed-4e61-ba2a-d83085a9c284","ios":"levelo://app?vid=16f471c2-a8ed-4e61-ba2a-d83085a9c284"},"vehicle_type_id":"4","last_reported":1762355477,"current_range_meters":0,"station_id":"","pricing_plan_id":"cebpf4jnsgd1na2vs0mg"},{"bike_id":"b8bd4cc4-f519-43de-b194-2cc2cf75483c","system_id":"levelo_inurba_marseille","lat":43.337444,"lon":5.374475,"is_reserved":false,"is_disabled":false,"rental_uris":{"android":"levelo://app?vid=b8bd4cc4-f519-43de-b194-2cc2cf75483c","ios":"levelo://app?vid=b8bd4cc4-f519-43de-b194-2cc2cf75483c"},"vehicle_type_id":"4","last_reported":1762355477,"current_range_meters":0,"station_id":"","pricing_plan_id":"cebpf4jnsgd1na2vs0mg"},{"bike_id":"591b062c-0423-40a0-9120-f7c30f97e98f","system_id":"levelo_inurba_marseille","lat":43.337444,"lon":5.374475,"is_reserved":false,"is_disabled":false,"rental_uris":{"android":"levelo://app?vid=591b062c-0423-40a0-9120-f7c30f97e98f","ios":"levelo://app?vid=591b062c-0423-40a0-9120-f7c30f97e98f"},"vehicle_type_id":"4","last_reported":1762355477,"current_range_meters":0,"station_id":"","pricing_plan_id":"cebpf4jnsgd1na2vs0mg"},{"bike_id":"8fbb8d57-565e-4232-a867-846a316b3375","system_id":"levelo_inurba_marseille","lat":43.337444,"lon":5.374475,"is_reserved":false,"is_disabled":false,"rental_uris":{"android":"levelo://app?vid=8fbb8d57-565e-4232-a867-846a316b3375","ios":"levelo://app?vid=8fbb8d57-565e-4232-a867-846a316b3375"},"vehicle_type_id":"4","last_reported":1762355477,"current_range_meters":0,"station_id":"","pricing_plan_id":"cebpf4jnsgd1na2vs0mg"},{"bike_id":"e6134458-396f-46c5-87ab-a79cf2b6424c","system_id":"levelo_inurba_marseille","lat":43.337444,"lon":5.374475,"is_reserved":false,"is_disabled":false,"rental_uris":{"android":"levelo://app?vid=e6134458-396f-46c5-87ab-a79cf2b6424c","ios":"levelo://app?vid=e6134458-396f-46c5-87ab-a79cf2b6424c"},"vehicle_type_id":"4","last_reported":1762355477,"current_range_meters":0,"station_id":"","pricing_plan_id":"cebpf4jnsgd1na2vs0mg"},{"bike_id":"0a0d4295-fe5b-4614-b2ca-f5579d5190b0","system_id":"levelo_inurba_marseille","lat":43.337444,"lon":5.374475,"is_reserved":false,"is_disabled":false,"rental_uris":{"android":"levelo://app?vid=0a0d4295-fe5b-4614-b2ca-f5579d5190b0","ios":"levelo://app?vid=0a0d4295-fe5b-4614-b2ca-f5579d5190b0"},"vehicle_type_id":"4","last_reported":1762355477,"current_range_meters":0,"station_id":"","pricing_plan_id":"cebpf4jnsgd1na2vs0mg"},{"bike_id":"93e60748-606f-4a7c-a0a4-d33fc5c01e6a","system_id":"levelo_inurba_marseille","lat":43.31492,"lon":5.37261,"is_reserved":false,"is_disabled":false,"rental_uris":{"android":"levelo://app?vid=93e60748-606f-4a7c-a0a4-d33fc5c01e6a","ios":"levelo://app?vid=93e60748-606f-4a7c-a0a4-d33fc5c01e6a"},"vehicle_type_id":"4","last_reported":1762355477,"current_range_meters":2800,"station_id":"ce4bgt12rcd13ifvqcd0","pricing_plan_id":"cebpf4jnsgd1na2vs0mg"},{"bike_id":"137a63c4-a5cc-46b6-b906-a2acb40bd7cd","system_id":"levelo_inurba_marseille","lat":43.285364,"lon":5.44097,"is_reserved":false,"is_disabled":false,"rental_uris":{"android":"levelo://app?vid=137a63c4-a5cc-46b6-b906-a2acb40bd7cd","ios":"levelo://app?vid=137a63c4-a5cc-46b6-b906-a2acb40bd7cd"},"vehicle_type_id":"4","last_reported":1762355477,"current_range_meters":2800,"station_id":"st_d3j3df2ikq2c7380ej80","pricing_plan_id":"cebpf4jnsgd1na2vs0mg"},{"bike_id":"0464b9d1-e411-4c9a-8aee-df4743e5280b","system_id":"levelo_inurba_marseille","lat":43.321054,"lon":5.367834,"is_reserved":false,"is_disabled":false,"rental_uris":{"android":"levelo://app?vid=0464b9d1-e411-4c9a-8aee-df4743e5280b","ios":"levelo://app?vid=0464b9d1-e411-4c9a-8aee-df4743e5280b"},"vehicle_type_id":"4","last_reported":1762355477,"current_range_meters":2800,"station_id":"ce4bhrh2rcd13ifvqhug","pricing_plan_id":"cebpf4jnsgd1na2vs0mg"},{"bike_id":"d03a92a1-da77-40c3-bce6-b32acb058c28","system_id":"levelo_inurba_marseille","lat":43.241835,"lon":5.397269,"is_reserved":false,"is_disabled":false,"rental_uris":{"android":"levelo://app?vid=d03a92a1-da77-40c3-bce6-b32acb058c28","ios":"levelo://app?vid=d03a92a1-da77-40c3-bce6-b32acb058c28"},"vehicle_type_id":"4","last_reported":1762355477,"current_range_meters":2800,"station_id":"ce4bhn12rcd13ifvqgpg","pricing_plan_id":"cebpf4jnsgd1na2vs0mg"},{"bike_id":"adf5f020-f46e-4633-860d-ea5fc6e4a304","system_id":"levelo_inurba_marseille","lat":43.25826,"lon":5.39436,"is_reserved":false,"is_disabled":false,"rental_uris":{"android":"levelo://app?vid=adf5f020-f46e-4633-860d-ea5fc6e4a304","ios":"levelo://app?vid=adf5f020-f46e-4633-860d-ea5fc6e4a304"},"vehicle_type_id":"4","last_reported":1762355477,"current_range_meters":2800,"station_id":"ce4bhip2rcd13ifvqft0","pricing_plan_id":"cebpf4jnsgd1na2vs0mg"},{"bike_id":"0c9d6780-61e6-4b03-9422-f75061702607","system_id":"levelo_inurba_marseille","lat":43.295285,"lon":5.385386,"is_reserved":false,"is_disabled":false,"rental_uris":{"android":"levelo://app?vid=0c9d6780-61e6-4b03-9422-f75061702607","ios":"levelo://app?vid=0c9d6780-61e6-4b03-9422-f75061702607"},"vehicle_type_id":"4","last_reported":1762355477,"current_range_meters":3200,"station_id":"ce4bgih2rcd13ifvqba0","pricing_plan_id":"cebpf4jnsgd1na2vs0mg"},{"bike_id":"b7274164-d104-4569-8e8d-d56b2a397565","system_id":"levelo_inurba_marseille","lat":43.284766,"lon":5.483996,"is_reserved":false,"is_disabled":false,"rental_uris":{"android":"levelo://app?vid=b7274164-d104-4569-8e8d-d56b2a397565","ios":"levelo://app?vid=b7274164-d104-4569-8e8d-d56b2a397565"},"vehicle_type_id":"4","last_reported":1762355477,"current_range_meters":3200,"station_id":"st_d3svhcjqgbts73a3dn0g","pricing_plan_id":"cebpf4jnsgd1na2vs0mg"},{"bike_id":"6b7227d9-546c-46d3-bac4-ddad98263634","system_id":"levelo_inurba_marseille","lat":43.279417,"lon":5.410498,"is_reserved":false,"is_disabled":true,"rental_uris":{"android":"levelo://app?vid=6b7227d9-546c-46d3-bac4-ddad98263634","ios":"levelo://app?vid=6b7227d9-546c-46d3-bac4-ddad98263634"},"vehicle_type_id":"4","last_reported":1762355477,"current_range_meters":3600,"station_id":"ce4bhnp2rcd13ifvqh0g","pricing_plan_id":"cebpf4jnsgd1na2vs0mg"},{"bike_id":"c85ae9fa-0b0c-4c82-ade1-672306f69ff3","system_id":"levelo_inurba_marseille","lat":43.231514,"lon":5.437284,"is_reserved":false,"is_disabled":false,"rental_uris":{"android":"levelo://app?vid=c85ae9fa-0b0c-4c82-ade1-672306f69ff3","ios":"levelo://app?vid=c85ae9fa-0b0c-4c82-ade1-672306f69ff3"},"vehicle_type_id":"4","last_reported":1762355477,"current_range_meters":3600,"station_id":"ce4bhmp2rcd13ifvqgog","pricing_plan_id":"cebpf4jnsgd1na2vs0mg"},{"bike_id":"4206fd1c-fca5-4468-81b6-1c50d2a4a589","system_id":"levelo_inurba_marseille","lat":43.29783,"lon":5.43811,"is_reserved":false,"is_disabled":false,"rental_uris":{"android":"levelo://app?vid=4206fd1c-fca5-4468-81b6-1c50d2a4a589","ios":"levelo://app?vid=4206fd1c-fca5-4468-81b6-1c50d2a4a589"},"vehicle_type_id":"4","last_reported":1762355477,"current_range_meters":3600,"station_id":"","pricing_plan_id":"cebpf4jnsgd1na2vs0mg"},{"bike_id":"e7718cf5-1f12-4ef4-99e4-3a0acd7a4cbc","system_id":"levelo_inurba_marseille","lat":43.30465,"lon":5.37904,"is_reserved":false,"is_disabled":false,"rental_uris":{"android":"levelo://app?vid=e7718cf5-1f12-4ef4-99e4-3a0acd7a4cbc","ios":"levelo://app?vid=e7718cf5-1f12-4ef4-99e4-3a0acd7a4cbc"},"vehicle_type_id":"4","last_reported":1762355477,"current_range_meters":4400,"station_id":"ce4bgup2rcd13ifvqcn0","pricing_plan_id":"cebpf4jnsgd1na2vs0mg"},{"bike_id":"47a3f115-11ab-4358-a54d-4a034486f9a7","system_id":"levelo_inurba_marseille","lat":43.29087,"lon":5.37159,"is_reserved":false,"is_disabled":false,"rental_uris":{"android":"levelo://app?vid=47a3f115-11ab-4358-a54d-4a034486f9a7","ios":"levelo://app?vid=47a3f115-11ab-4358-a54d-4a034486f9a7"},"vehicle_type_id":"4","last_reported":1762355477,"current_range_meters":4400,"station_id":"ce4bh5p2rcd13ifvqe4g","pricing_plan_id":"cebpf4jnsgd1na2vs0mg"},{"bike_id":"60fd2392-832d-4279-bd39-5c03dbe5fbe8","system_id":"levelo_inurba_marseille","lat":43.286107,"lon":5.370654,"is_reserved":false,"is_disabled":false,"rental_uris":{"android":"levelo://app?vid=60fd2392-832d-4279-bd39-5c03dbe5fbe8","ios":"levelo://app?vid=60fd2392-832d-4279-bd39-5c03dbe5fbe8"},"vehicle_type_id":"4","last_reported":1762355477,"current_range_meters":4400,"station_id":"ce4bht12rcd13ifvqi60","pricing_plan_id":"cebpf4jnsgd1na2vs0mg"},{"bike_id":"28b85111-1e3c-4e94-9d4a-5a837507bfee","system_id":"levelo_inurba_marseille","lat":43.29763,"lon":5.42625,"is_reserved":false,"is_disabled":false,"rental_uris":{"android":"levelo://app?vid=28b85111-1e3c-4e94-9d4a-5a837507bfee","ios":"levelo://app?vid=28b85111-1e3c-4e94-9d4a-5a837507bfee"},"vehicle_type_id":"4","last_reported":1762355477,"current_range_meters":4800,"station_id":"","pricing_plan_id":"cebpf4jnsgd1na2vs0mg"},{"bike_id":"e0725b12-0891-48f5-b811-b27dcf5c4552","system_id":"levelo_inurba_marseille","lat":43.272046,"lon":5.391829,"is_reserved":false,"is_disabled":false,"rental_uris":{"android":"levelo://app?vid=e0725b12-0891-48f5-b811-b27dcf5c4552","ios":"levelo://app?vid=e0725b12-0891-48f5-b811-b27dcf5c4552"},"vehicle_type_id":"4","last_reported":1762355477,"current_range_meters":4800,"station_id":"","pricing_plan_id":"cebpf4jnsgd1na2vs0mg"},{"bike_id":"b2edbec7-9959-4a3c-90f0-6e77723c6b7d","system_id":"levelo_inurba_marseille","lat":43.31718,"lon":5.42403,"is_reserved":false,"is_disabled":false,"rental_uris":{"android":"levelo://app?vid=b2edbec7-9959-4a3c-90f0-6e77723c6b7d","ios":"levelo://app?vid=b2edbec7-9959-4a3c-90f0-6e77723c6b7d"},"vehicle_type_id":"4","last_reported":1762355477,"current_range_meters":4800,"station_id":"ce4bhp92rcd13ifvqhbg","pricing_plan_id":"cebpf4jnsgd1na2vs0mg"},{"bike_id":"3fbe5ef4-1d2a-4118-8eed-535ebabd1ed4","system_id":"levelo_inurba_marseille","lat":43.23174,"lon":5.43716,"is_reserved":false,"is_disabled":false,"rental_uris":{"android":"levelo://app?vid=3fbe5ef4-1d2a-4118-8eed-535ebabd1ed4","ios":"levelo://app?vid=3fbe5ef4-1d2a-4118-8eed-535ebabd1ed4"},"vehicle_type_id":"4","last_reported":1762355477,"current_range_meters":4800,"station_id":"ce4bhmp2rcd13ifvqgog","pricing_plan_id":"cebpf4jnsgd1na2vs0mg"},{"bike_id":"7fe76318-f123-495a-9981-57a4a2bb5087","system_id":"levelo_inurba_marseille","lat":43.304438,"lon":5.378524,"is_reserved":false,"is_disabled":false,"rental_uris":{"android":"levelo://app?vid=7fe76318-f123-495a-9981-57a4a2bb5087","ios":"levelo://app?vid=7fe76318-f123-495a-9981-57a4a2bb5087"},"vehicle_type_id":"4","last_reported":1762355477,"current_range_meters":4800,"station_id":"ce4bgup2rcd13ifvqcn0","pricing_plan_id":"cebpf4jnsgd1na2vs0mg"},{"bike_id":"2bc241d6-0ebc-48de-b384-0e9f1c07e4a9","system_id":"levelo_inurba_marseille","lat":43.28399,"lon":5.37532,"is_reserved":false,"is_disabled":false,"rental_uris":{"android":"levelo://app?vid=2bc241d6-0ebc-48de-b384-0e9f1c07e4a9","ios":"levelo://app?vid=2bc241d6-0ebc-48de-b384-0e9f1c07e4a9"},"vehicle_type_id":"4","last_reported":1762355477,"current_range_meters":4800,"station_id":"ce4bh412rcd13ifvqds0","pricing_plan_id":"cebpf4jnsgd1na2vs0mg"},{"bike_id":"17d1ff73-76c3-4a5b-bef7-8d904f3a21f3","system_id":"levelo_inurba_marseille","lat":43.2873,"lon":5.36079,"is_reserved":false,"is_disabled":false,"rental_uris":{"android":"levelo://app?vid=17d1ff73-76c3-4a5b-bef7-8d904f3a21f3","ios":"levelo://app?vid=17d1ff73-76c3-4a5b-bef7-8d904f3a21f3"},"vehicle_type_id":"4","last_reported":1762355477,"current_range_meters":4800,"station_id":"cki0cbj6b192h4jlfktg","pricing_plan_id":"cebpf4jnsgd1na2vs0mg"},{"bike_id":"811dfb6d-8287-48ee-8f02-7d2df6abf4fb","system_id":"levelo_inurba_marseille","lat":43.29554,"lon":5.42281,"is_reserved":false,"is_disabled":false,"rental_uris":{"android":"levelo://app?vid=811dfb6d-8287-48ee-8f02-7d2df6abf4fb","ios":"levelo://app?vid=811dfb6d-8287-48ee-8f02-7d2df6abf4fb"},"vehicle_type_id":"4","last_reported":1762355477,"current_range_meters":5600,"station_id":"ce4bhph2rcd13ifvqhdg","pricing_plan_id":"cebpf4jnsgd1na2vs0mg"},{"bike_id":"996c61f1-427f-4ec8-8393-d45b81054ce7","system_id":"levelo_inurba_marseille","lat":43.30295,"lon":5.39219,"is_reserved":false,"is_disabled":false,"rental_uris":{"android":"levelo://app?vid=996c61f1-427f-4ec8-8393-d45b81054ce7","ios":"levelo://app?vid=996c61f1-427f-4ec8-8393-d45b81054ce7"},"vehicle_type_id":"4","last_reported":1762355477,"current_range_meters":5600,"station_id":"ce4bgkh2rcd13ifvqbk0","pricing_plan_id":"cebpf4jnsgd1na2vs0mg"},{"bike_id":"e9856231-4e72-4013-8cb8-847322beb61e","system_id":"levelo_inurba_marseille","lat":43.31547,"lon":5.37252,"is_reserved":false,"is_disabled":false,"rental_uris":{"android":"levelo://app?vid=e9856231-4e72-4013-8cb8-847322beb61e","ios":"levelo://app?vid=e9856231-4e72-4013-8cb8-847322beb61e"},"vehicle_type_id":"4","last_reported":1762355477,"current_range_meters":5600,"station_id":"","pricing_plan_id":"cebpf4jnsgd1na2vs0mg"},{"bike_id":"915154a8-14e2-4ce6-91fc-464d59e7a995","system_id":"levelo_inurba_marseille","lat":43.23779,"lon":5.36633,"is_reserved":false,"is_disabled":false,"rental_uris":{"android":"levelo://app?vid=915154a8-14e2-4ce6-91fc-464d59e7a995","ios":"levelo://app?vid=915154a8-14e2-4ce6-91fc-464d59e7a995"},"vehicle_type_id":"4","last_reported":1762355477,"current_range_meters":5600,"station_id":"st_d3nk18o9ro0c73en2l3g","pricing_plan_id":"cebpf4jnsgd1na2vs0mg"},{"bike_id":"915d9cd4-dbfd-4730-b906-8a30d00005e4","system_id":"levelo_inurba_marseille","lat":43.30806,"lon":5.38168,"is_reserved":false,"is_disabled":false,"rental_uris":{"android":"levelo://app?vid=915d9cd4-dbfd-4730-b906-8a30d00005e4","ios":"levelo://app?vid=915d9cd4-dbfd-4730-b906-8a30d00005e4"},"vehicle_type_id":"4","last_reported":1762355477,"current_range_meters":5600,"station_id":"ce4bgt12rcd13ifvqce0","pricing_plan_id":"cebpf4jnsgd1na2vs0mg"},{"bike_id":"f9b55f15-cf36-4ad9-90e5-59c582e0b2c7","system_id":"levelo_inurba_marseille","lat":43.22993,"lon":5.44005,"is_reserved":false,"is_disabled":false,"rental_uris":{"android":"levelo://app?vid=f9b55f15-cf36-4ad9-90e5-59c582e0b2c7","ios":"levelo://app?vid=f9b55f15-cf36-4ad9-90e5-59c582e0b2c7"},"vehicle_type_id":"4","last_reported":1762355477,"current_range_meters":6000,"station_id":"","pricing_plan_id":"cebpf4jnsgd1na2vs0mg"},{"bike_id":"b5f953b8-0b23-4a53-85d8-d39eab8e6c05","system_id":"levelo_inurba_marseille","lat":43.30312,"lon":5.3689,"is_reserved":false,"is_disabled":false,"rental_uris":{"android":"levelo://app?vid=b5f953b8-0b23-4a53-85d8-d39eab8e6c05","ios":"levelo://app?vid=b5f953b8-0b23-4a53-85d8-d39eab8e6c05"},"vehicle_type_id":"4","last_reported":1762355477,"current_range_meters":6000,"station_id":"ce4bgqh2rcd13ifvqc5g","pricing_plan_id":"cebpf4jnsgd1na2vs0mg"},{"bike_id":"945966ba-0e85-41fc-86d4-13ccd54fe5ef","system_id":"levelo_inurba_marseille","lat":43.29772,"lon":5.3932,"is_reserved":false,"is_disabled":false,"rental_uris":{"android":"levelo://app?vid=945966ba-0e85-41fc-86d4-13ccd54fe5ef","ios":"levelo://app?vid=945966ba-0e85-41fc-86d4-13ccd54fe5ef"},"vehicle_type_id":"4","last_reported":1762355477,"current_range_meters":6000,"station_id":"chh1huq6cuj3fo74tm60","pricing_plan_id":"cebpf4jnsgd1na2vs0mg"},{"bike_id":"9071cd37-8431-47aa-a612-fee246477b64","system_id":"levelo_inurba_marseille","lat":43.30319,"lon":5.4045,"is_reserved":false,"is_disabled":false,"rental_uris":{"android":"levelo://app?vid=9071cd37-8431-47aa-a612-fee246477b64","ios":"levelo://app?vid=9071cd37-8431-47aa-a612-fee246477b64"},"vehicle_type_id":"4","last_reported":1762355477,"current_range_meters":6400,"station_id":"ce4bh012rcd13ifvqd10","pricing_plan_id":"cebpf4jnsgd1na2vs0mg"},{"bike_id":"6ebaa4b9-66f3-410a-bc45-a6339dad2f2d","system_id":"levelo_inurba_marseille","lat":43.29239,"lon":5.38433,"is_reserved":false,"is_disabled":false,"rental_uris":{"android":"levelo://app?vid=6ebaa4b9-66f3-410a-bc45-a6339dad2f2d","ios":"levelo://app?vid=6ebaa4b9-66f3-410a-bc45-a6339dad2f2d"},"vehicle_type_id":"4","last_reported":1762355477,"current_range_meters":6400,"station_id":"ce4bh692rcd13ifvqea0","pricing_plan_id":"cebpf4jnsgd1na2vs0mg"},{"bike_id":"22f48cc6-594c-43fb-9a62-57c1d39f6208","system_id":"levelo_inurba_marseille","lat":43.26596,"lon":5.39372,"is_reserved":false,"is_disabled":false,"rental_uris":{"android":"levelo://app?vid=22f48cc6-594c-43fb-9a62-57c1d39f6208","ios":"levelo://app?vid=22f48cc6-594c-43fb-9a62-57c1d39f6208"},"vehicle_type_id":"4","last_reported":1762355477,"current_range_meters":6800,"station_id":"","pricing_plan_id":"cebpf4jnsgd1na2vs0mg"},{"bike_id":"91cf2b95-225c-4885-9dcf-d498df265a19","system_id":"levelo_inurba_marseille","lat":43.28271,"lon":5.35084,"is_reserved":false,"is_disabled":false,"rental_uris":{"android":"levelo://app?vid=91cf2b95-225c-4885-9dcf-d498df265a19","ios":"levelo://app?vid=91cf2b95-225c-4885-9dcf-d498df265a19"},"vehicle_type_id":"4","last_reported":1762355477,"current_range_meters":6800,"station_id":"ce4bhbp2rcd13ifvqerg","pricing_plan_id":"cebpf4jnsgd1na2vs0mg"},{"bike_id":"3800314d-6410-4feb-bd76-28cb0729c673","system_id":"levelo_inurba_marseille","lat":43.30342,"lon":5.40071,"is_reserved":false,"is_disabled":false,"rental_uris":{"android":"levelo://app?vid=3800314d-6410-4feb-bd76-28cb0729c673","ios":"levelo://app?vid=3800314d-6410-4feb-bd76-28cb0729c673"},"vehicle_type_id":"4","last_reported":1762355477,"current_range_meters":6800,"station_id":"","pricing_plan_id":"cebpf4jnsgd1na2vs0mg"},{"bike_id":"35ea7f61-75b8-4d6f-929c-b2e8797f4832","system_id":"levelo_inurba_marseille","lat":43.27064,"lon":5.39199,"is_reserved":false,"is_disabled":false,"rental_uris":{"android":"levelo://app?vid=35ea7f61-75b8-4d6f-929c-b2e8797f4832","ios":"levelo://app?vid=35ea7f61-75b8-4d6f-929c-b2e8797f4832"},"vehicle_type_id":"4","last_reported":1762355477,"current_range_meters":6800,"station_id":"","pricing_plan_id":"cebpf4jnsgd1na2vs0mg"},{"bike_id":"b6c79a8a-15fc-4a7f-be28-ac0d70fe9076","system_id":"levelo_inurba_marseille","lat":43.29298,"lon":5.37152,"is_reserved":false,"is_disabled":false,"rental_uris":{"android":"levelo://app?vid=b6c79a8a-15fc-4a7f-be28-ac0d70fe9076","ios":"levelo://app?vid=b6c79a8a-15fc-4a7f-be28-ac0d70fe9076"},"vehicle_type_id":"4","last_reported":1762355477,"current_range_meters":6800,"station_id":"ce4bgh92rcd13ifvqb40","pricing_plan_id":"cebpf4jnsgd1na2vs0mg"},{"bike_id":"3471baf7-2e0f-4531-bbde-1d1fb06390aa","system_id":"levelo_inurba_marseille","lat":43.295768,"lon":5.367492,"is_reserved":false,"is_disabled":false,"rental_uris":{"android":"levelo://app?vid=3471baf7-2e0f-4531-bbde-1d1fb06390aa","ios":"levelo://app?vid=3471baf7-2e0f-4531-bbde-1d1fb06390aa"},"vehicle_type_id":"4","last_reported":1762355477,"current_range_meters":6800,"station_id":"ce4bgph2rcd13ifvqc2g","pricing_plan_id":"cebpf4jnsgd1na2vs0mg"},{"bike_id":"ca027186-72c6-4358-8d7a-70b219e6273a","system_id":"levelo_inurba_marseille","lat":43.35094,"lon":5.38095,"is_reserved":false,"is_disabled":false,"rental_uris":{"android":"levelo://app?vid=ca027186-72c6-4358-8d7a-70b219e6273a","ios":"levelo://app?vid=ca027186-72c6-4358-8d7a-70b219e6273a"},"vehicle_type_id":"4","last_reported":1762355477,"current_range_meters":7200,"station_id":"","pricing_plan_id":"cebpf4jnsgd1na2vs0mg"},{"bike_id":"654dc482-8458-4686-a09b-a5e21a822232","system_id":"levelo_inurba_marseille","lat":43.23183,"lon":5.3557,"is_reserved":false,"is_disabled":true,"rental_uris":{"android":"levelo://app?vid=654dc482-8458-4686-a09b-a5e21a822232","ios":"levelo://app?vid=654dc482-8458-4686-a09b-a5e21a822232"},"vehicle_type_id":"4","last_reported":1762355477,"current_range_meters":7200,"station_id":"ce4bhu92rcd13ifvqi70","pricing_plan_id":"cebpf4jnsgd1na2vs0mg"},{"bike_id":"84dc979f-6225-4528-80b2-664c3021c64f","system_id":"levelo_inurba_marseille","lat":43.28563,"lon":5.395,"is_reserved":false,"is_disabled":false,"rental_uris":{"android":"levelo://app?vid=84dc979f-6225-4528-80b2-664c3021c64f","ios":"levelo://app?vid=84dc979f-6225-4528-80b2-664c3021c64f"},"vehicle_type_id":"4","last_reported":1762355477,"current_range_meters":7200,"station_id":"ce4bh292rcd13ifvqdg0","pricing_plan_id":"cebpf4jnsgd1na2vs0mg"},{"bike_id":"4e92a88c-7958-48dd-a152-3a32b70f5220","system_id":"levelo_inurba_marseille","lat":43.28996,"lon":5.37844,"is_reserved":false,"is_disabled":false,"rental_uris":{"android":"levelo://app?vid=4e92a88c-7958-48dd-a152-3a32b70f5220","ios":"levelo://app?vid=4e92a88c-7958-48dd-a152-3a32b70f5220"},"vehicle_type_id":"4","last_reported":1762355477,"current_range_meters":7200,"station_id":"ce4bh9p2rcd13ifvqed0","pricing_plan_id":"cebpf4jnsgd1na2vs0mg"},{"bike_id":"7c572724-d246-444c-a818-2550f93cae1a","system_id":"levelo_inurba_marseille","lat":43.28823,"lon":5.38619,"is_reserved":false,"is_disabled":false,"rental_uris":{"android":"levelo://app?vid=7c572724-d246-444c-a818-2550f93cae1a","ios":"levelo://app?vid=7c572724-d246-444c-a818-2550f93cae1a"},"vehicle_type_id":"4","last_reported":1762355477,"current_range_meters":7200,"station_id":"","pricing_plan_id":"cebpf4jnsgd1na2vs0mg"},{"bike_id":"e0d5390b-bee5-44c6-8912-b0ac7fb6016c","system_id":"levelo_inurba_marseille","lat":43.260162,"lon":5.393942,"is_reserved":false,"is_disabled":false,"rental_uris":{"android":"levelo://app?vid=e0d5390b-bee5-44c6-8912-b0ac7fb6016c","ios":"levelo://app?vid=e0d5390b-bee5-44c6-8912-b0ac7fb6016c"},"vehicle_type_id":"4","last_reported":1762355477,"current_range_meters":7200,"station_id":"ce4bhip2rcd13ifvqft0","pricing_plan_id":"cebpf4jnsgd1na2vs0mg"},{"bike_id":"6dda11f9-81ce-4ed0-b0d0-0e068f7b859a","system_id":"levelo_inurba_marseille","lat":43.29274,"lon":5.40884,"is_reserved":false,"is_disabled":false,"rental_uris":{"android":"levelo://app?vid=6dda11f9-81ce-4ed0-b0d0-0e068f7b859a","ios":"levelo://app?vid=6dda11f9-81ce-4ed0-b0d0-0e068f7b859a"},"vehicle_type_id":"4","last_reported":1762355477,"current_range_meters":7200,"station_id":"ce4bh192rcd13ifvqdc0","pricing_plan_id":"cebpf4jnsgd1na2vs0mg"},{"bike_id":"663c1282-fbf9-4303-b9aa-00529c606e1f","system_id":"levelo_inurba_marseille","lat":43.30044,"lon":5.37736,"is_reserved":false,"is_disabled":false,"rental_uris":{"android":"levelo://app?vid=663c1282-fbf9-4303-b9aa-00529c606e1f","ios":"levelo://app?vid=663c1282-fbf9-4303-b9aa-00529c606e1f"},"vehicle_type_id":"4","last_reported":1762355477,"current_range_meters":7200,"station_id":"","pricing_plan_id":"cebpf4jnsgd1na2vs0mg"},{"bike_id":"97d1c492-4fb3-49d3-801b-9e74a51b1440","system_id":"levelo_inurba_marseille","lat":43.25514,"lon":5.37677,"is_reserved":false,"is_disabled":false,"rental_uris":{"android":"levelo://app?vid=97d1c492-4fb3-49d3-801b-9e74a51b1440","ios":"levelo://app?vid=97d1c492-4fb3-49d3-801b-9e74a51b1440"},"vehicle_type_id":"4","last_reported":1762355477,"current_range_meters":8000,"station_id":"ce4bhh12rcd13ifvqff0","pricing_plan_id":"cebpf4jnsgd1na2vs0mg"},{"bike_id":"e36573e6-dc3c-4897-8a74-39c456437594","system_id":"levelo_inurba_marseille","lat":43.30307,"lon":5.39209,"is_reserved":false,"is_disabled":false,"rental_uris":{"android":"levelo://app?vid=e36573e6-dc3c-4897-8a74-39c456437594","ios":"levelo://app?vid=e36573e6-dc3c-4897-8a74-39c456437594"},"vehicle_type_id":"4","last_reported":1762355477,"current_range_meters":8000,"station_id":"ce4bgkh2rcd13ifvqbk0","pricing_plan_id":"cebpf4jnsgd1na2vs0mg"},{"bike_id":"08761793-49b5-4588-a5a9-44e5009b34a1","system_id":"levelo_inurba_marseille","lat":43.297928,"lon":5.404068,"is_reserved":false,"is_disabled":false,"rental_uris":{"android":"levelo://app?vid=08761793-49b5-4588-a5a9-44e5009b34a1","ios":"levelo://app?vid=08761793-49b5-4588-a5a9-44e5009b34a1"},"vehicle_type_id":"4","last_reported":1762355477,"current_range_meters":8000,"station_id":"ce4bh112rcd13ifvqd90","pricing_plan_id":"cebpf4jnsgd1na2vs0mg"},{"bike_id":"c9910cfc-fc90-4e69-8701-89ecb80c4a15","system_id":"levelo_inurba_marseille","lat":43.24617,"lon":5.43145,"is_reserved":false,"is_disabled":false,"rental_uris":{"android":"levelo://app?vid=c9910cfc-fc90-4e69-8701-89ecb80c4a15","ios":"levelo://app?vid=c9910cfc-fc90-4e69-8701-89ecb80c4a15"},"vehicle_type_id":"4","last_reported":1762355477,"current_range_meters":8000,"station_id":"st_d2m6c4gdas8pm72e190g","pricing_plan_id":"cebpf4jnsgd1na2vs0mg"},{"bike_id":"8625fd71-52f7-4d25-987b-6e76164035a5","system_id":"levelo_inurba_marseille","lat":43.307839,"lon":5.405431,"is_reserved":false,"is_disabled":false,"rental_uris":{"android":"levelo://app?vid=8625fd71-52f7-4d25-987b-6e76164035a5","ios":"levelo://app?vid=8625fd71-52f7-4d25-987b-6e76164035a5"},"vehicle_type_id":"4","last_reported":1762355477,"current_range_meters":8000,"station_id":"","pricing_plan_id":"cebpf4jnsgd1na2vs0mg"},{"bike_id":"f842f661-e0b9-4ed7-9590-2fd2f10216f5","system_id":"levelo_inurba_marseille","lat":43.32373,"lon":5.36752,"is_reserved":false,"is_disabled":false,"rental_uris":{"android":"levelo://app?vid=f842f661-e0b9-4ed7-9590-2fd2f10216f5","ios":"levelo://app?vid=f842f661-e0b9-4ed7-9590-2fd2f10216f5"},"vehicle_type_id":"4","last_reported":1762355477,"current_range_meters":8000,"station_id":"ce4bhsh2rcd13ifvqi2g","pricing_plan_id":"cebpf4jnsgd1na2vs0mg"},{"bike_id":"b565d406-165a-4a7d-a973-59282dbe55e8","system_id":"levelo_inurba_marseille","lat":43.290116,"lon":5.356202,"is_reserved":false,"is_disabled":true,"rental_uris":{"android":"levelo://app?vid=b565d406-165a-4a7d-a973-59282dbe55e8","ios":"levelo://app?vid=b565d406-165a-4a7d-a973-59282dbe55e8"},"vehicle_type_id":"4","last_reported":1762355477,"current_range_meters":8000,"station_id":"ce4bhb92rcd13ifvqen0","pricing_plan_id":"cebpf4jnsgd1na2vs0mg"},{"bike_id":"23964c97-3fd6-4bb3-826f-883f4ab3ad9b","system_id":"levelo_inurba_marseille","lat":43.29986,"lon":5.38492,"is_reserved":false,"is_disabled":false,"rental_uris":{"android":"levelo://app?vid=23964c97-3fd6-4bb3-826f-883f4ab3ad9b","ios":"levelo://app?vid=23964c97-3fd6-4bb3-826f-883f4ab3ad9b"},"vehicle_type_id":"4","last_reported":1762355477,"current_range_meters":8400,"station_id":"ce4bgj92rcd13ifvqbd0","pricing_plan_id":"cebpf4jnsgd1na2vs0mg"},{"bike_id":"53dda434-dc8b-4c51-879b-e5cd0d7bf8c7","system_id":"levelo_inurba_marseille","lat":43.31236,"lon":5.36862,"is_reserved":false,"is_disabled":false,"rental_uris":{"android":"levelo://app?vid=53dda434-dc8b-4c51-879b-e5cd0d7bf8c7","ios":"levelo://app?vid=53dda434-dc8b-4c51-879b-e5cd0d7bf8c7"},"vehicle_type_id":"4","last_reported":1762355477,"current_range_meters":8400,"station_id":"ce4bgl92rcd13ifvqbq0","pricing_plan_id":"cebpf4jnsgd1na2vs0mg"},{"bike_id":"5e6b5e6b-9f8a-43ab-9eb8-b69e41a6c1e6","system_id":"levelo_inurba_marseille","lat":43.225298,"lon":5.348365,"is_reserved":false,"is_disabled":false,"rental_uris":{"android":"levelo://app?vid=5e6b5e6b-9f8a-43ab-9eb8-b69e41a6c1e6","ios":"levelo://app?vid=5e6b5e6b-9f8a-43ab-9eb8-b69e41a6c1e6"},"vehicle_type_id":"4","last_reported":1762355477,"current_range_meters":8400,"station_id":"","pricing_plan_id":"cebpf4jnsgd1na2vs0mg"},{"bike_id":"26faa3b5-ca27-42e8-b96e-b08098a0b652","system_id":"levelo_inurba_marseille","lat":43.29624,"lon":5.3716,"is_reserved":false,"is_disabled":false,"rental_uris":{"android":"levelo://app?vid=26faa3b5-ca27-42e8-b96e-b08098a0b652","ios":"levelo://app?vid=26faa3b5-ca27-42e8-b96e-b08098a0b652"},"vehicle_type_id":"4","last_reported":1762355477,"current_range_meters":8800,"station_id":"ce4bgnh2rcd13ifvqc0g","pricing_plan_id":"cebpf4jnsgd1na2vs0mg"},{"bike_id":"f7a192fe-ecfa-451f-8d3a-3c4f39209fc4","system_id":"levelo_inurba_marseille","lat":43.32368,"lon":5.38886,"is_reserved":false,"is_disabled":false,"rental_uris":{"android":"levelo://app?vid=f7a192fe-ecfa-451f-8d3a-3c4f39209fc4","ios":"levelo://app?vid=f7a192fe-ecfa-451f-8d3a-3c4f39209fc4"},"vehicle_type_id":"4","last_reported":1762355477,"current_range_meters":8800,"station_id":"ce4bhqp2rcd13ifvqhog","pricing_plan_id":"cebpf4jnsgd1na2vs0mg"},{"bike_id":"b9531aea-88a2-4c14-8b44-f1490c0de3c3","system_id":"levelo_inurba_marseille","lat":43.298645,"lon":5.397415,"is_reserved":false,"is_disabled":false,"rental_uris":{"android":"levelo://app?vid=b9531aea-88a2-4c14-8b44-f1490c0de3c3","ios":"levelo://app?vid=b9531aea-88a2-4c14-8b44-f1490c0de3c3"},"vehicle_type_id":"4","last_reported":1762355477,"current_range_meters":8800,"station_id":"ce4bh0h2rcd13ifvqd50","pricing_plan_id":"cebpf4jnsgd1na2vs0mg"},{"bike_id":"eed78698-4705-4f36-b1cc-c3cc31682f5d","system_id":"levelo_inurba_marseille","lat":43.33398,"lon":5.41971,"is_reserved":false,"is_disabled":false,"rental_uris":{"android":"levelo://app?vid=eed78698-4705-4f36-b1cc-c3cc31682f5d","ios":"levelo://app?vid=eed78698-4705-4f36-b1cc-c3cc31682f5d"},"vehicle_type_id":"4","last_reported":1762355477,"current_range_meters":8800,"station_id":"","pricing_plan_id":"cebpf4jnsgd1na2vs0mg"},{"bike_id":"ad483091-7411-4e16-8cc4-09042e8161f5","system_id":"levelo_inurba_marseille","lat":43.273468,"lon":5.385179,"is_reserved":false,"is_disabled":true,"rental_uris":{"android":"levelo://app?vid=ad483091-7411-4e16-8cc4-09042e8161f5","ios":"levelo://app?vid=ad483091-7411-4e16-8cc4-09042e8161f5"},"vehicle_type_id":"4","last_reported":1762355477,"current_range_meters":8800,"station_id":"","pricing_plan_id":"cebpf4jnsgd1na2vs0mg"},{"bike_id":"d8286316-308b-4b8d-b58d-577cf7d8c028","system_id":"levelo_inurba_marseille","lat":43.24635,"lon":5.43145,"is_reserved":false,"is_disabled":false,"rental_uris":{"android":"levelo://app?vid=d8286316-308b-4b8d-b58d-577cf7d8c028","ios":"levelo://app?vid=d8286316-308b-4b8d-b58d-577cf7d8c028"},"vehicle_type_id":"4","last_reported":1762355477,"current_range_meters":9200,"station_id":"st_d2m6c4gdas8pm72e190g","pricing_plan_id":"cebpf4jnsgd1na2vs0mg"},{"bike_id":"59ebe6d3-7cca-436f-922d-8b9c51ac34d2","system_id":"levelo_inurba_marseille","lat":43.2707,"lon":5.38309,"is_reserved":false,"is_disabled":false,"rental_uris":{"android":"levelo://app?vid=59ebe6d3-7cca-436f-922d-8b9c51ac34d2","ios":"levelo://app?vid=59ebe6d3-7cca-436f-922d-8b9c51ac34d2"},"vehicle_type_id":"4","last_reported":1762355477,"current_range_meters":9200,"station_id":"st_d3n2fo6cfp8s73cte1j0","pricing_plan_id":"cebpf4jnsgd1na2vs0mg"},{"bike_id":"faced5f8-0d58-4762-8c0a-2df9652fbd78","system_id":"levelo_inurba_marseille","lat":43.31315,"lon":5.36735,"is_reserved":false,"is_disabled":false,"rental_uris":{"android":"levelo://app?vid=faced5f8-0d58-4762-8c0a-2df9652fbd78","ios":"levelo://app?vid=faced5f8-0d58-4762-8c0a-2df9652fbd78"},"vehicle_type_id":"4","last_reported":1762355477,"current_range_meters":9200,"station_id":"ce4bgr92rcd13ifvqc6g","pricing_plan_id":"cebpf4jnsgd1na2vs0mg"},{"bike_id":"c37e7590-0814-4e56-8068-a8e5214553e2","system_id":"levelo_inurba_marseille","lat":43.29633,"lon":5.406,"is_reserved":false,"is_disabled":false,"rental_uris":{"android":"levelo://app?vid=c37e7590-0814-4e56-8068-a8e5214553e2","ios":"levelo://app?vid=c37e7590-0814-4e56-8068-a8e5214553e2"},"vehicle_type_id":"4","last_reported":1762355477,"current_range_meters":9200,"station_id":"ce4bh0h2rcd13ifvqd60","pricing_plan_id":"cebpf4jnsgd1na2vs0mg"},{"bike_id":"cd9c6c8f-813a-4b2c-b0c7-7a3265cb2fa0","system_id":"levelo_inurba_marseille","lat":43.24215,"lon":5.39312,"is_reserved":false,"is_disabled":false,"rental_uris":{"android":"levelo://app?vid=cd9c6c8f-813a-4b2c-b0c7-7a3265cb2fa0","ios":"levelo://app?vid=cd9c6c8f-813a-4b2c-b0c7-7a3265cb2fa0"},"vehicle_type_id":"4","last_reported":1762355477,"current_range_meters":9200,"station_id":"","pricing_plan_id":"cebpf4jnsgd1na2vs0mg"},{"bike_id":"d07162e3-640f-482e-b9bc-c0a5952f19aa","system_id":"levelo_inurba_marseille","lat":43.25339,"lon":5.42173,"is_reserved":false,"is_disabled":false,"rental_uris":{"android":"levelo://app?vid=d07162e3-640f-482e-b9bc-c0a5952f19aa","ios":"levelo://app?vid=d07162e3-640f-482e-b9bc-c0a5952f19aa"},"vehicle_type_id":"4","last_reported":1762355477,"current_range_meters":9200,"station_id":"st_d2m65c5bi1j21697t3ng","pricing_plan_id":"cebpf4jnsgd1na2vs0mg"},{"bike_id":"ff1609d7-5d89-4691-8ca9-f87740941dbd","system_id":"levelo_inurba_marseille","lat":43.32484,"lon":5.36568,"is_reserved":false,"is_disabled":false,"rental_uris":{"android":"levelo://app?vid=ff1609d7-5d89-4691-8ca9-f87740941dbd","ios":"levelo://app?vid=ff1609d7-5d89-4691-8ca9-f87740941dbd"},"vehicle_type_id":"4","last_reported":1762355477,"current_range_meters":9600,"station_id":"ce4bhs12rcd13ifvqhvg","pricing_plan_id":"cebpf4jnsgd1na2vs0mg"},{"bike_id":"813baf66-bb5e-4c63-975b-f06075374a57","system_id":"levelo_inurba_marseille","lat":43.30796,"lon":5.38149,"is_reserved":false,"is_disabled":false,"rental_uris":{"android":"levelo://app?vid=813baf66-bb5e-4c63-975b-f06075374a57","ios":"levelo://app?vid=813baf66-bb5e-4c63-975b-f06075374a57"},"vehicle_type_id":"4","last_reported":1762355477,"current_range_meters":9600,"station_id":"ce4bgt12rcd13ifvqce0","pricing_plan_id":"cebpf4jnsgd1na2vs0mg"},{"bike_id":"36dadbf7-a228-4f6f-8b08-391008b68693","system_id":"levelo_inurba_marseille","lat":43.34543,"lon":5.36887,"is_reserved":false,"is_disabled":false,"rental_uris":{"android":"levelo://app?vid=36dadbf7-a228-4f6f-8b08-391008b68693","ios":"levelo://app?vid=36dadbf7-a228-4f6f-8b08-391008b68693"},"vehicle_type_id":"4","last_reported":1762355477,"current_range_meters":9600,"station_id":"","pricing_plan_id":"cebpf4jnsgd1na2vs0mg"},{"bike_id":"7d015b59-7421-4083-af2a-e63ff2f4d5e3","system_id":"levelo_inurba_marseille","lat":43.248,"lon":5.37458,"is_reserved":false,"is_disabled":false,"rental_uris":{"android":"levelo://app?vid=7d015b59-7421-4083-af2a-e63ff2f4d5e3","ios":"levelo://app?vid=7d015b59-7421-4083-af2a-e63ff2f4d5e3"},"vehicle_type_id":"4","last_reported":1762355477,"current_range_meters":9600,"station_id":"ce4bhgh2rcd13ifvqfb0","pricing_plan_id":"cebpf4jnsgd1na2vs0mg"},{"bike_id":"47de9693-398c-4078-bb2e-bf0d38c76c57","system_id":"levelo_inurba_marseille","lat":43.28496,"lon":5.3878,"is_reserved":false,"is_disabled":false,"rental_uris":{"android":"levelo://app?vid=47de9693-398c-4078-bb2e-bf0d38c76c57","ios":"levelo://app?vid=47de9693-398c-4078-bb2e-bf0d38c76c57"},"vehicle_type_id":"4","last_reported":1762355477,"current_range_meters":10000,"station_id":"","pricing_plan_id":"cebpf4jnsgd1na2vs0mg"},{"bike_id":"ea4f4b84-78b0-4180-a7f8-ecb8c6182713","system_id":"levelo_inurba_marseille","lat":43.2953,"lon":5.36104,"is_reserved":false,"is_disabled":true,"rental_uris":{"android":"levelo://app?vid=ea4f4b84-78b0-4180-a7f8-ecb8c6182713","ios":"levelo://app?vid=ea4f4b84-78b0-4180-a7f8-ecb8c6182713"},"vehicle_type_id":"4","last_reported":1762355477,"current_range_meters":10000,"station_id":"","pricing_plan_id":"cebpf4jnsgd1na2vs0mg"},{"bike_id":"353688e2-4048-41d4-b706-569c5c4ece5f","system_id":"levelo_inurba_marseille","lat":43.26548,"lon":5.37286,"is_reserved":false,"is_disabled":false,"rental_uris":{"android":"levelo://app?vid=353688e2-4048-41d4-b706-569c5c4ece5f","ios":"levelo://app?vid=353688e2-4048-41d4-b706-569c5c4ece5f"},"vehicle_type_id":"4","last_reported":1762355477,"current_range_meters":10000,"station_id":"ce4bhg12rcd13ifvqf70","pricing_plan_id":"cebpf4jnsgd1na2vs0mg"},{"bike_id":"92fc39cd-72a4-417f-acfe-d281ee0ae1c4","system_id":"levelo_inurba_marseille","lat":43.28459,"lon":5.3588,"is_reserved":false,"is_disabled":false,"rental_uris":{"android":"levelo://app?vid=92fc39cd-72a4-417f-acfe-d281ee0ae1c4","ios":"levelo://app?vid=92fc39cd-72a4-417f-acfe-d281ee0ae1c4"},"vehicle_type_id":"4","last_reported":1762355477,"current_range_meters":10000,"station_id":"ce4bhah2rcd13ifvqei0","pricing_plan_id":"cebpf4jnsgd1na2vs0mg"},{"bike_id":"7479cfee-6f68-4a59-afc8-ceca6b83dba4","system_id":"levelo_inurba_marseille","lat":43.25579,"lon":5.38217,"is_reserved":false,"is_disabled":false,"rental_uris":{"android":"levelo://app?vid=7479cfee-6f68-4a59-afc8-ceca6b83dba4","ios":"levelo://app?vid=7479cfee-6f68-4a59-afc8-ceca6b83dba4"},"vehicle_type_id":"4","last_reported":1762355477,"current_range_meters":10800,"station_id":"ce4bhih2rcd13ifvqfs0","pricing_plan_id":"cebpf4jnsgd1na2vs0mg"},{"bike_id":"d22ff754-87ce-44f8-aed5-47d9680ff319","system_id":"levelo_inurba_marseille","lat":43.29566,"lon":5.37529,"is_reserved":false,"is_disabled":false,"rental_uris":{"android":"levelo://app?vid=d22ff754-87ce-44f8-aed5-47d9680ff319","ios":"levelo://app?vid=d22ff754-87ce-44f8-aed5-47d9680ff319"},"vehicle_type_id":"4","last_reported":1762355477,"current_range_meters":10800,"station_id":"ce4bgh92rcd13ifvqb50","pricing_plan_id":"cebpf4jnsgd1na2vs0mg"},{"bike_id":"98aaf8ca-1976-4abd-8242-5535e20c1dab","system_id":"levelo_inurba_marseille","lat":43.279982,"lon":5.400045,"is_reserved":false,"is_disabled":false,"rental_uris":{"android":"levelo://app?vid=98aaf8ca-1976-4abd-8242-5535e20c1dab","ios":"levelo://app?vid=98aaf8ca-1976-4abd-8242-5535e20c1dab"},"vehicle_type_id":"4","last_reported":1762355477,"current_range_meters":10800,"station_id":"ce4bho92rcd13ifvqh4g","pricing_plan_id":"cebpf4jnsgd1na2vs0mg"},{"bike_id":"d64c09ea-6ee3-43b9-bc17-74f7325bc0c4","system_id":"levelo_inurba_marseille","lat":43.29799,"lon":5.40406,"is_reserved":false,"is_disabled":false,"rental_uris":{"android":"levelo://app?vid=d64c09ea-6ee3-43b9-bc17-74f7325bc0c4","ios":"levelo://app?vid=d64c09ea-6ee3-43b9-bc17-74f7325bc0c4"},"vehicle_type_id":"4","last_reported":1762355477,"current_range_meters":10800,"station_id":"ce4bh112rcd13ifvqd90","pricing_plan_id":"cebpf4jnsgd1na2vs0mg"},{"bike_id":"d3bae8a1-cad8-4e59-848c-3a0e9d960ded","system_id":"levelo_inurba_marseille","lat":43.28421,"lon":5.34983,"is_reserved":false,"is_disabled":false,"rental_uris":{"android":"levelo://app?vid=d3bae8a1-cad8-4e59-848c-3a0e9d960ded","ios":"levelo://app?vid=d3bae8a1-cad8-4e59-848c-3a0e9d960ded"},"vehicle_type_id":"4","last_reported":1762355477,"current_range_meters":10800,"station_id":"ce4bhbh2rcd13ifvqepg","pricing_plan_id":"cebpf4jnsgd1na2vs0mg"},{"bike_id":"02c565c9-e1be-4475-b1a9-b37751cdb830","system_id":"levelo_inurba_marseille","lat":43.34366,"lon":5.34896,"is_reserved":false,"is_disabled":false,"rental_uris":{"android":"levelo://app?vid=02c565c9-e1be-4475-b1a9-b37751cdb830","ios":"levelo://app?vid=02c565c9-e1be-4475-b1a9-b37751cdb830"},"vehicle_type_id":"4","last_reported":1762355477,"current_range_meters":11200,"station_id":"","pricing_plan_id":"cebpf4jnsgd1na2vs0mg"},{"bike_id":"dceb4beb-6bb5-4225-ae7e-d3c4b9815bbe","system_id":"levelo_inurba_marseille","lat":43.28457,"lon":5.48418,"is_reserved":false,"is_disabled":false,"rental_uris":{"android":"levelo://app?vid=dceb4beb-6bb5-4225-ae7e-d3c4b9815bbe","ios":"levelo://app?vid=dceb4beb-6bb5-4225-ae7e-d3c4b9815bbe"},"vehicle_type_id":"4","last_reported":1762355477,"current_range_meters":11200,"station_id":"st_d3svhcjqgbts73a3dn0g","pricing_plan_id":"cebpf4jnsgd1na2vs0mg"},{"bike_id":"6bcff5e5-3ff8-43f5-bbbd-97e308b7b135","system_id":"levelo_inurba_marseille","lat":43.26191,"lon":5.37937,"is_reserved":false,"is_disabled":false,"rental_uris":{"android":"levelo://app?vid=6bcff5e5-3ff8-43f5-bbbd-97e308b7b135","ios":"levelo://app?vid=6bcff5e5-3ff8-43f5-bbbd-97e308b7b135"},"vehicle_type_id":"4","last_reported":1762355477,"current_range_meters":11200,"station_id":"ce4bhjp2rcd13ifvqg90","pricing_plan_id":"cebpf4jnsgd1na2vs0mg"},{"bike_id":"78653021-51f7-454f-abbf-85eedff5500e","system_id":"levelo_inurba_marseille","lat":43.27611,"lon":5.36128,"is_reserved":false,"is_disabled":false,"rental_uris":{"android":"levelo://app?vid=78653021-51f7-454f-abbf-85eedff5500e","ios":"levelo://app?vid=78653021-51f7-454f-abbf-85eedff5500e"},"vehicle_type_id":"4","last_reported":1762355477,"current_range_meters":11200,"station_id":"ce4bgj92rcd13ifvqbe0","pricing_plan_id":"cebpf4jnsgd1na2vs0mg"},{"bike_id":"7c8c77e6-611f-4f5e-8374-da326e1729a3","system_id":"levelo_inurba_marseille","lat":43.29801,"lon":5.44066,"is_reserved":false,"is_disabled":false,"rental_uris":{"android":"levelo://app?vid=7c8c77e6-611f-4f5e-8374-da326e1729a3","ios":"levelo://app?vid=7c8c77e6-611f-4f5e-8374-da326e1729a3"},"vehicle_type_id":"4","last_reported":1762355477,"current_range_meters":11200,"station_id":"st_d3jp68qikq2c7381ktn0","pricing_plan_id":"cebpf4jnsgd1na2vs0mg"},{"bike_id":"92f1987a-55b8-4d4f-b4b6-cdbfa4658be9","system_id":"levelo_inurba_marseille","lat":43.32475,"lon":5.36572,"is_reserved":false,"is_disabled":false,"rental_uris":{"android":"levelo://app?vid=92f1987a-55b8-4d4f-b4b6-cdbfa4658be9","ios":"levelo://app?vid=92f1987a-55b8-4d4f-b4b6-cdbfa4658be9"},"vehicle_type_id":"4","last_reported":1762355477,"current_range_meters":11200,"station_id":"ce4bhs12rcd13ifvqhvg","pricing_plan_id":"cebpf4jnsgd1na2vs0mg"},{"bike_id":"e7002296-a724-4792-9c77-9aa7da662e7d","system_id":"levelo_inurba_marseille","lat":43.29752,"lon":5.36248,"is_reserved":false,"is_disabled":false,"rental_uris":{"android":"levelo://app?vid=e7002296-a724-4792-9c77-9aa7da662e7d","ios":"levelo://app?vid=e7002296-a724-4792-9c77-9aa7da662e7d"},"vehicle_type_id":"4","last_reported":1762355477,"current_range_meters":11200,"station_id":"","pricing_plan_id":"cebpf4jnsgd1na2vs0mg"},{"bike_id":"cae09b99-f4ef-4dba-84ee-07073a8f32cf","system_id":"levelo_inurba_marseille","lat":43.27357,"lon":5.36251,"is_reserved":false,"is_disabled":false,"rental_uris":{"android":"levelo://app?vid=cae09b99-f4ef-4dba-84ee-07073a8f32cf","ios":"levelo://app?vid=cae09b99-f4ef-4dba-84ee-07073a8f32cf"},"vehicle_type_id":"4","last_reported":1762355477,"current_range_meters":11200,"station_id":"ce4bhbh2rcd13ifvqeo0","pricing_plan_id":"cebpf4jnsgd1na2vs0mg"},{"bike_id":"70d6ed86-f7b2-4f05-99b0-c344fd505f81","system_id":"levelo_inurba_marseille","lat":43.28676,"lon":5.36349,"is_reserved":false,"is_disabled":false,"rental_uris":{"android":"levelo://app?vid=70d6ed86-f7b2-4f05-99b0-c344fd505f81","ios":"levelo://app?vid=70d6ed86-f7b2-4f05-99b0-c344fd505f81"},"vehicle_type_id":"4","last_reported":1762355477,"current_range_meters":11200,"station_id":"ce4bhah2rcd13ifvqej0","pricing_plan_id":"cebpf4jnsgd1na2vs0mg"},{"bike_id":"4b24dbba-41a5-4ecf-ade9-ac15d69f3a39","system_id":"levelo_inurba_marseille","lat":43.30277,"lon":5.37689,"is_reserved":false,"is_disabled":false,"rental_uris":{"android":"levelo://app?vid=4b24dbba-41a5-4ecf-ade9-ac15d69f3a39","ios":"levelo://app?vid=4b24dbba-41a5-4ecf-ade9-ac15d69f3a39"},"vehicle_type_id":"4","last_reported":1762355477,"current_range_meters":11600,"station_id":"ce4bguh2rcd13ifvqcj0","pricing_plan_id":"cebpf4jnsgd1na2vs0mg"},{"bike_id":"a83ec8b9-c0ea-4ae8-974c-cc57ab5c361b","system_id":"levelo_inurba_marseille","lat":43.217513,"lon":5.346036,"is_reserved":false,"is_disabled":false,"rental_uris":{"android":"levelo://app?vid=a83ec8b9-c0ea-4ae8-974c-cc57ab5c361b","ios":"levelo://app?vid=a83ec8b9-c0ea-4ae8-974c-cc57ab5c361b"},"vehicle_type_id":"4","last_reported":1762355477,"current_range_meters":11600,"station_id":"ce4bhh92rcd13ifvqfi0","pricing_plan_id":"cebpf4jnsgd1na2vs0mg"},{"bike_id":"84c6a8cf-7c39-493d-8287-ba426d8a9736","system_id":"levelo_inurba_marseille","lat":43.299042,"lon":5.3815,"is_reserved":false,"is_disabled":false,"rental_uris":{"android":"levelo://app?vid=84c6a8cf-7c39-493d-8287-ba426d8a9736","ios":"levelo://app?vid=84c6a8cf-7c39-493d-8287-ba426d8a9736"},"vehicle_type_id":"4","last_reported":1762355477,"current_range_meters":11600,"station_id":"ce4bgj12rcd13ifvqbc0","pricing_plan_id":"cebpf4jnsgd1na2vs0mg"},{"bike_id":"7e8da862-2af0-47cd-9267-b7b5a54bf28d","system_id":"levelo_inurba_marseille","lat":43.22937,"lon":5.35371,"is_reserved":false,"is_disabled":false,"rental_uris":{"android":"levelo://app?vid=7e8da862-2af0-47cd-9267-b7b5a54bf28d","ios":"levelo://app?vid=7e8da862-2af0-47cd-9267-b7b5a54bf28d"},"vehicle_type_id":"4","last_reported":1762355477,"current_range_meters":11600,"station_id":"cpo3532slgdg3j2ikp40","pricing_plan_id":"cebpf4jnsgd1na2vs0mg"},{"bike_id":"765b9661-2b24-4c0f-a9fb-732d7409b10c","system_id":"levelo_inurba_marseille","lat":43.21619,"lon":5.34431,"is_reserved":false,"is_disabled":false,"rental_uris":{"android":"levelo://app?vid=765b9661-2b24-4c0f-a9fb-732d7409b10c","ios":"levelo://app?vid=765b9661-2b24-4c0f-a9fb-732d7409b10c"},"vehicle_type_id":"4","last_reported":1762355477,"current_range_meters":11600,"station_id":"","pricing_plan_id":"cebpf4jnsgd1na2vs0mg"},{"bike_id":"13c3ccaa-99d2-4685-a1fa-a15f41ed3f72","system_id":"levelo_inurba_marseille","lat":43.305554,"lon":5.365407,"is_reserved":false,"is_disabled":false,"rental_uris":{"android":"levelo://app?vid=13c3ccaa-99d2-4685-a1fa-a15f41ed3f72","ios":"levelo://app?vid=13c3ccaa-99d2-4685-a1fa-a15f41ed3f72"},"vehicle_type_id":"4","last_reported":1762355477,"current_range_meters":11600,"station_id":"ce4bgs12rcd13ifvqcag","pricing_plan_id":"cebpf4jnsgd1na2vs0mg"},{"bike_id":"fc720a8a-1f75-4c72-a6f4-70569a2f4662","system_id":"levelo_inurba_marseille","lat":43.23186,"lon":5.35559,"is_reserved":false,"is_disabled":false,"rental_uris":{"android":"levelo://app?vid=fc720a8a-1f75-4c72-a6f4-70569a2f4662","ios":"levelo://app?vid=fc720a8a-1f75-4c72-a6f4-70569a2f4662"},"vehicle_type_id":"4","last_reported":1762355477,"current_range_meters":11600,"station_id":"ce4bhu92rcd13ifvqi70","pricing_plan_id":"cebpf4jnsgd1na2vs0mg"},{"bike_id":"ba2938fb-1ec4-425e-b6e5-c82904ce08fe","system_id":"levelo_inurba_marseille","lat":43.24647,"lon":5.43127,"is_reserved":false,"is_disabled":false,"rental_uris":{"android":"levelo://app?vid=ba2938fb-1ec4-425e-b6e5-c82904ce08fe","ios":"levelo://app?vid=ba2938fb-1ec4-425e-b6e5-c82904ce08fe"},"vehicle_type_id":"4","last_reported":1762355477,"current_range_meters":11600,"station_id":"st_d2m6c4gdas8pm72e190g","pricing_plan_id":"cebpf4jnsgd1na2vs0mg"},{"bike_id":"405999da-3201-402a-acbb-efc20e60a204","system_id":"levelo_inurba_marseille","lat":43.24915,"lon":5.40505,"is_reserved":false,"is_disabled":false,"rental_uris":{"android":"levelo://app?vid=405999da-3201-402a-acbb-efc20e60a204","ios":"levelo://app?vid=405999da-3201-402a-acbb-efc20e60a204"},"vehicle_type_id":"4","last_reported":1762355477,"current_range_meters":12000,"station_id":"st_d2ngiaodas8pm72gd1h0","pricing_plan_id":"cebpf4jnsgd1na2vs0mg"},{"bike_id":"4157caeb-aecc-449f-8a83-236ee4326b32","system_id":"levelo_inurba_marseille","lat":43.29709,"lon":5.36596,"is_reserved":false,"is_disabled":false,"rental_uris":{"android":"levelo://app?vid=4157caeb-aecc-449f-8a83-236ee4326b32","ios":"levelo://app?vid=4157caeb-aecc-449f-8a83-236ee4326b32"},"vehicle_type_id":"4","last_reported":1762355477,"current_range_meters":12000,"station_id":"ce4bgn12rcd13ifvqbt0","pricing_plan_id":"cebpf4jnsgd1na2vs0mg"},{"bike_id":"e2104b6a-7e12-4a20-ae1b-cf4b446d5e26","system_id":"levelo_inurba_marseille","lat":43.28472,"lon":5.48393,"is_reserved":false,"is_disabled":false,"rental_uris":{"android":"levelo://app?vid=e2104b6a-7e12-4a20-ae1b-cf4b446d5e26","ios":"levelo://app?vid=e2104b6a-7e12-4a20-ae1b-cf4b446d5e26"},"vehicle_type_id":"4","last_reported":1762355477,"current_range_meters":12000,"station_id":"st_d3svhcjqgbts73a3dn0g","pricing_plan_id":"cebpf4jnsgd1na2vs0mg"},{"bike_id":"acbeb352-9854-4df4-aee6-a888f4007e0f","system_id":"levelo_inurba_marseille","lat":43.30423,"lon":5.39753,"is_reserved":false,"is_disabled":false,"rental_uris":{"android":"levelo://app?vid=acbeb352-9854-4df4-aee6-a888f4007e0f","ios":"levelo://app?vid=acbeb352-9854-4df4-aee6-a888f4007e0f"},"vehicle_type_id":"4","last_reported":1762355477,"current_range_meters":12000,"station_id":"ce4bh092rcd13ifvqd20","pricing_plan_id":"cebpf4jnsgd1na2vs0mg"},{"bike_id":"e9d81bd7-cf35-4967-95c1-1cc012b12aac","system_id":"levelo_inurba_marseille","lat":43.28079,"lon":5.39662,"is_reserved":false,"is_disabled":false,"rental_uris":{"android":"levelo://app?vid=e9d81bd7-cf35-4967-95c1-1cc012b12aac","ios":"levelo://app?vid=e9d81bd7-cf35-4967-95c1-1cc012b12aac"},"vehicle_type_id":"4","last_reported":1762355477,"current_range_meters":12400,"station_id":"ce4bho12rcd13ifvqh2g","pricing_plan_id":"cebpf4jnsgd1na2vs0mg"},{"bike_id":"e458a04e-8648-405c-ad83-b53d61f3e64a","system_id":"levelo_inurba_marseille","lat":43.229315,"lon":5.353866,"is_reserved":false,"is_disabled":false,"rental_uris":{"android":"levelo://app?vid=e458a04e-8648-405c-ad83-b53d61f3e64a","ios":"levelo://app?vid=e458a04e-8648-405c-ad83-b53d61f3e64a"},"vehicle_type_id":"4","last_reported":1762355477,"current_range_meters":12400,"station_id":"cpo3532slgdg3j2ikp40","pricing_plan_id":"cebpf4jnsgd1na2vs0mg"},{"bike_id":"9019f7cf-e9f5-4980-af08-2a9229e87d23","system_id":"levelo_inurba_marseille","lat":43.296733,"lon":5.372961,"is_reserved":false,"is_disabled":false,"rental_uris":{"android":"levelo://app?vid=9019f7cf-e9f5-4980-af08-2a9229e87d23","ios":"levelo://app?vid=9019f7cf-e9f5-4980-af08-2a9229e87d23"},"vehicle_type_id":"4","last_reported":1762355477,"current_range_meters":12400,"station_id":"ce4bgk12rcd13ifvqbj0","pricing_plan_id":"cebpf4jnsgd1na2vs0mg"},{"bike_id":"d77e7c12-ac08-437c-acb2-3f67df8ecede","system_id":"levelo_inurba_marseille","lat":43.3059,"lon":5.37219,"is_reserved":false,"is_disabled":false,"rental_uris":{"android":"levelo://app?vid=d77e7c12-ac08-437c-acb2-3f67df8ecede","ios":"levelo://app?vid=d77e7c12-ac08-437c-acb2-3f67df8ecede"},"vehicle_type_id":"4","last_reported":1762355477,"current_range_meters":12400,"station_id":"ce4bgqh2rcd13ifvqc4g","pricing_plan_id":"cebpf4jnsgd1na2vs0mg"},{"bike_id":"dae30738-204c-4787-a9b5-e056fa94e0c9","system_id":"levelo_inurba_marseille","lat":43.22561,"lon":5.41646,"is_reserved":false,"is_disabled":false,"rental_uris":{"android":"levelo://app?vid=dae30738-204c-4787-a9b5-e056fa94e0c9","ios":"levelo://app?vid=dae30738-204c-4787-a9b5-e056fa94e0c9"},"vehicle_type_id":"4","last_reported":1762355477,"current_range_meters":12400,"station_id":"st_d2o4gvlbi1j2169b742g","pricing_plan_id":"cebpf4jnsgd1na2vs0mg"},{"bike_id":"43941623-4a77-483d-a9db-507b5a0af213","system_id":"levelo_inurba_marseille","lat":43.27367,"lon":5.36261,"is_reserved":false,"is_disabled":false,"rental_uris":{"android":"levelo://app?vid=43941623-4a77-483d-a9db-507b5a0af213","ios":"levelo://app?vid=43941623-4a77-483d-a9db-507b5a0af213"},"vehicle_type_id":"4","last_reported":1762355477,"current_range_meters":12400,"station_id":"ce4bhbh2rcd13ifvqeo0","pricing_plan_id":"cebpf4jnsgd1na2vs0mg"},{"bike_id":"f92c7607-34e6-4e40-94d2-42f075e79107","system_id":"levelo_inurba_marseille","lat":43.27992,"lon":5.40019,"is_reserved":false,"is_disabled":false,"rental_uris":{"android":"levelo://app?vid=f92c7607-34e6-4e40-94d2-42f075e79107","ios":"levelo://app?vid=f92c7607-34e6-4e40-94d2-42f075e79107"},"vehicle_type_id":"4","last_reported":1762355477,"current_range_meters":12400,"station_id":"ce4bho92rcd13ifvqh4g","pricing_plan_id":"cebpf4jnsgd1na2vs0mg"},{"bike_id":"b89beb64-1831-42f0-89a6-fb4e887d047b","system_id":"levelo_inurba_marseille","lat":43.257271,"lon":5.411175,"is_reserved":false,"is_disabled":false,"rental_uris":{"android":"levelo://app?vid=b89beb64-1831-42f0-89a6-fb4e887d047b","ios":"levelo://app?vid=b89beb64-1831-42f0-89a6-fb4e887d047b"},"vehicle_type_id":"4","last_reported":1762355477,"current_range_meters":12400,"station_id":"ce4bhkp2rcd13ifvqgd0","pricing_plan_id":"cebpf4jnsgd1na2vs0mg"},{"bike_id":"b8db43c7-aad5-404d-af95-53081eddb1b2","system_id":"levelo_inurba_marseille","lat":43.29792,"lon":5.39326,"is_reserved":false,"is_disabled":false,"rental_uris":{"android":"levelo://app?vid=b8db43c7-aad5-404d-af95-53081eddb1b2","ios":"levelo://app?vid=b8db43c7-aad5-404d-af95-53081eddb1b2"},"vehicle_type_id":"4","last_reported":1762355477,"current_range_meters":12800,"station_id":"chh1huq6cuj3fo74tm60","pricing_plan_id":"cebpf4jnsgd1na2vs0mg"},{"bike_id":"8f5c5e28-dca5-4cf0-8947-a5cfbda88464","system_id":"levelo_inurba_marseille","lat":43.23193,"lon":5.3998,"is_reserved":false,"is_disabled":false,"rental_uris":{"android":"levelo://app?vid=8f5c5e28-dca5-4cf0-8947-a5cfbda88464","ios":"levelo://app?vid=8f5c5e28-dca5-4cf0-8947-a5cfbda88464"},"vehicle_type_id":"4","last_reported":1762355477,"current_range_meters":12800,"station_id":"ce4bhn12rcd13ifvqgqg","pricing_plan_id":"cebpf4jnsgd1na2vs0mg"},{"bike_id":"268df429-9e44-441d-bd31-c98c2b36d87b","system_id":"levelo_inurba_marseille","lat":43.28935,"lon":5.36638,"is_reserved":false,"is_disabled":false,"rental_uris":{"android":"levelo://app?vid=268df429-9e44-441d-bd31-c98c2b36d87b","ios":"levelo://app?vid=268df429-9e44-441d-bd31-c98c2b36d87b"},"vehicle_type_id":"4","last_reported":1762355477,"current_range_meters":12800,"station_id":"ce4bhap2rcd13ifvqek0","pricing_plan_id":"cebpf4jnsgd1na2vs0mg"},{"bike_id":"ab9b2bcc-ea75-449d-adbb-4add292d38c4","system_id":"levelo_inurba_marseille","lat":43.34053,"lon":5.38135,"is_reserved":false,"is_disabled":false,"rental_uris":{"android":"levelo://app?vid=ab9b2bcc-ea75-449d-adbb-4add292d38c4","ios":"levelo://app?vid=ab9b2bcc-ea75-449d-adbb-4add292d38c4"},"vehicle_type_id":"4","last_reported":1762355477,"current_range_meters":12800,"station_id":"","pricing_plan_id":"cebpf4jnsgd1na2vs0mg"},{"bike_id":"f4331116-374b-4c31-b153-1f65ba32ef31","system_id":"levelo_inurba_marseille","lat":43.29262,"lon":5.38438,"is_reserved":false,"is_disabled":false,"rental_uris":{"android":"levelo://app?vid=f4331116-374b-4c31-b153-1f65ba32ef31","ios":"levelo://app?vid=f4331116-374b-4c31-b153-1f65ba32ef31"},"vehicle_type_id":"4","last_reported":1762355477,"current_range_meters":12800,"station_id":"ce4bh692rcd13ifvqea0","pricing_plan_id":"cebpf4jnsgd1na2vs0mg"},{"bike_id":"d0e358d0-2b7f-4690-bfeb-b519074127bb","system_id":"levelo_inurba_marseille","lat":43.255608,"lon":5.382445,"is_reserved":false,"is_disabled":false,"rental_uris":{"android":"levelo://app?vid=d0e358d0-2b7f-4690-bfeb-b519074127bb","ios":"levelo://app?vid=d0e358d0-2b7f-4690-bfeb-b519074127bb"},"vehicle_type_id":"4","last_reported":1762355477,"current_range_meters":12800,"station_id":"ce4bhih2rcd13ifvqfs0","pricing_plan_id":"cebpf4jnsgd1na2vs0mg"},{"bike_id":"ac3661dd-248f-4b92-ad04-1fbf8e5c6660","system_id":"levelo_inurba_marseille","lat":43.28035,"lon":5.36946,"is_reserved":false,"is_disabled":true,"rental_uris":{"android":"levelo://app?vid=ac3661dd-248f-4b92-ad04-1fbf8e5c6660","ios":"levelo://app?vid=ac3661dd-248f-4b92-ad04-1fbf8e5c6660"},"vehicle_type_id":"4","last_reported":1762355477,"current_range_meters":12800,"station_id":"ce4bha12rcd13ifvqef0","pricing_plan_id":"cebpf4jnsgd1na2vs0mg"},{"bike_id":"571bd3a6-912b-44a3-9841-50c558a61481","system_id":"levelo_inurba_marseille","lat":43.28125,"lon":5.40554,"is_reserved":false,"is_disabled":false,"rental_uris":{"android":"levelo://app?vid=571bd3a6-912b-44a3-9841-50c558a61481","ios":"levelo://app?vid=571bd3a6-912b-44a3-9841-50c558a61481"},"vehicle_type_id":"4","last_reported":1762355477,"current_range_meters":13600,"station_id":"","pricing_plan_id":"cebpf4jnsgd1na2vs0mg"},{"bike_id":"e858a06f-fba4-4666-b231-1b452f797d3f","system_id":"levelo_inurba_marseille","lat":43.284814,"lon":5.359453,"is_reserved":false,"is_disabled":false,"rental_uris":{"android":"levelo://app?vid=e858a06f-fba4-4666-b231-1b452f797d3f","ios":"levelo://app?vid=e858a06f-fba4-4666-b231-1b452f797d3f"},"vehicle_type_id":"4","last_reported":1762355477,"current_range_meters":13600,"station_id":"ce4bhah2rcd13ifvqei0","pricing_plan_id":"cebpf4jnsgd1na2vs0mg"},{"bike_id":"b9211a18-502a-4b61-ac71-cf29c2a37ede","system_id":"levelo_inurba_marseille","lat":43.31236,"lon":5.36858,"is_reserved":false,"is_disabled":false,"rental_uris":{"android":"levelo://app?vid=b9211a18-502a-4b61-ac71-cf29c2a37ede","ios":"levelo://app?vid=b9211a18-502a-4b61-ac71-cf29c2a37ede"},"vehicle_type_id":"4","last_reported":1762355477,"current_range_meters":13600,"station_id":"ce4bgl92rcd13ifvqbq0","pricing_plan_id":"cebpf4jnsgd1na2vs0mg"},{"bike_id":"879d958d-a506-45c4-943b-a2c3fa29f453","system_id":"levelo_inurba_marseille","lat":43.21196,"lon":5.35065,"is_reserved":false,"is_disabled":false,"rental_uris":{"android":"levelo://app?vid=879d958d-a506-45c4-943b-a2c3fa29f453","ios":"levelo://app?vid=879d958d-a506-45c4-943b-a2c3fa29f453"},"vehicle_type_id":"4","last_reported":1762355477,"current_range_meters":13600,"station_id":"st_cvj6sg6p6f1abm77japg","pricing_plan_id":"cebpf4jnsgd1na2vs0mg"},{"bike_id":"f558d479-ce57-4cf0-a0fa-5a549c753dc8","system_id":"levelo_inurba_marseille","lat":43.23069,"lon":5.35491,"is_reserved":false,"is_disabled":false,"rental_uris":{"android":"levelo://app?vid=f558d479-ce57-4cf0-a0fa-5a549c753dc8","ios":"levelo://app?vid=f558d479-ce57-4cf0-a0fa-5a549c753dc8"},"vehicle_type_id":"4","last_reported":1762355477,"current_range_meters":14000,"station_id":"cpo3342slgdg3j2ifvpg","pricing_plan_id":"cebpf4jnsgd1na2vs0mg"},{"bike_id":"8c469623-2e38-46c0-af40-d2bd7c685bdf","system_id":"levelo_inurba_marseille","lat":43.32368,"lon":5.38878,"is_reserved":false,"is_disabled":false,"rental_uris":{"android":"levelo://app?vid=8c469623-2e38-46c0-af40-d2bd7c685bdf","ios":"levelo://app?vid=8c469623-2e38-46c0-af40-d2bd7c685bdf"},"vehicle_type_id":"4","last_reported":1762355477,"current_range_meters":14000,"station_id":"ce4bhqp2rcd13ifvqhog","pricing_plan_id":"cebpf4jnsgd1na2vs0mg"},{"bike_id":"604a4a96-00ae-4719-afaf-053b11b9b8d2","system_id":"levelo_inurba_marseille","lat":43.25338,"lon":5.42177,"is_reserved":false,"is_disabled":false,"rental_uris":{"android":"levelo://app?vid=604a4a96-00ae-4719-afaf-053b11b9b8d2","ios":"levelo://app?vid=604a4a96-00ae-4719-afaf-053b11b9b8d2"},"vehicle_type_id":"4","last_reported":1762355477,"current_range_meters":14000,"station_id":"st_d2m65c5bi1j21697t3ng","pricing_plan_id":"cebpf4jnsgd1na2vs0mg"},{"bike_id":"6edaa430-e37a-4cc5-b572-2c09b5252b2c","system_id":"levelo_inurba_marseille","lat":43.323693,"lon":5.388809,"is_reserved":false,"is_disabled":false,"rental_uris":{"android":"levelo://app?vid=6edaa430-e37a-4cc5-b572-2c09b5252b2c","ios":"levelo://app?vid=6edaa430-e37a-4cc5-b572-2c09b5252b2c"},"vehicle_type_id":"4","last_reported":1762355477,"current_range_meters":14000,"station_id":"ce4bhqp2rcd13ifvqhog","pricing_plan_id":"cebpf4jnsgd1na2vs0mg"},{"bike_id":"bcb3c39b-ec48-48ef-9eac-eb8b71840959","system_id":"levelo_inurba_marseille","lat":43.33757,"lon":5.37464,"is_reserved":false,"is_disabled":false,"rental_uris":{"android":"levelo://app?vid=bcb3c39b-ec48-48ef-9eac-eb8b71840959","ios":"levelo://app?vid=bcb3c39b-ec48-48ef-9eac-eb8b71840959"},"vehicle_type_id":"4","last_reported":1762355477,"current_range_meters":14400,"station_id":"","pricing_plan_id":"cebpf4jnsgd1na2vs0mg"},{"bike_id":"0a567e7b-a8c7-4700-b2e5-90b665b67c4d","system_id":"levelo_inurba_marseille","lat":43.259406,"lon":5.408891,"is_reserved":false,"is_disabled":false,"rental_uris":{"android":"levelo://app?vid=0a567e7b-a8c7-4700-b2e5-90b665b67c4d","ios":"levelo://app?vid=0a567e7b-a8c7-4700-b2e5-90b665b67c4d"},"vehicle_type_id":"4","last_reported":1762355477,"current_range_meters":14400,"station_id":"ce4bhm92rcd13ifvqglg","pricing_plan_id":"cebpf4jnsgd1na2vs0mg"},{"bike_id":"22a7bd28-8ad0-4e95-aaec-223d16ea423c","system_id":"levelo_inurba_marseille","lat":43.24396,"lon":5.37056,"is_reserved":false,"is_disabled":false,"rental_uris":{"android":"levelo://app?vid=22a7bd28-8ad0-4e95-aaec-223d16ea423c","ios":"levelo://app?vid=22a7bd28-8ad0-4e95-aaec-223d16ea423c"},"vehicle_type_id":"4","last_reported":1762355477,"current_range_meters":14400,"station_id":"ce4bhhh2rcd13ifvqfk0","pricing_plan_id":"cebpf4jnsgd1na2vs0mg"},{"bike_id":"d7b6cff5-7db0-4bcb-8f54-427bce1d167d","system_id":"levelo_inurba_marseille","lat":43.31266,"lon":5.40161,"is_reserved":false,"is_disabled":false,"rental_uris":{"android":"levelo://app?vid=d7b6cff5-7db0-4bcb-8f54-427bce1d167d","ios":"levelo://app?vid=d7b6cff5-7db0-4bcb-8f54-427bce1d167d"},"vehicle_type_id":"4","last_reported":1762355477,"current_range_meters":14400,"station_id":"ce4bh092rcd13ifvqd30","pricing_plan_id":"cebpf4jnsgd1na2vs0mg"},{"bike_id":"cd8bf1f8-9869-4151-a50d-4f7aee98aa13","system_id":"levelo_inurba_marseille","lat":43.30145,"lon":5.38093,"is_reserved":false,"is_disabled":false,"rental_uris":{"android":"levelo://app?vid=cd8bf1f8-9869-4151-a50d-4f7aee98aa13","ios":"levelo://app?vid=cd8bf1f8-9869-4151-a50d-4f7aee98aa13"},"vehicle_type_id":"4","last_reported":1762355477,"current_range_meters":14400,"station_id":"ce4bgjp2rcd13ifvqbh0","pricing_plan_id":"cebpf4jnsgd1na2vs0mg"},{"bike_id":"ee7b4a2a-327b-4f7c-88c2-d8bb993ed935","system_id":"levelo_inurba_marseille","lat":43.25927,"lon":5.40897,"is_reserved":false,"is_disabled":false,"rental_uris":{"android":"levelo://app?vid=ee7b4a2a-327b-4f7c-88c2-d8bb993ed935","ios":"levelo://app?vid=ee7b4a2a-327b-4f7c-88c2-d8bb993ed935"},"vehicle_type_id":"4","last_reported":1762355477,"current_range_meters":14800,"station_id":"ce4bhm92rcd13ifvqglg","pricing_plan_id":"cebpf4jnsgd1na2vs0mg"},{"bike_id":"94b06f3e-9c43-404e-899a-d1e48d6d7a76","system_id":"levelo_inurba_marseille","lat":43.287102,"lon":5.399967,"is_reserved":false,"is_disabled":false,"rental_uris":{"android":"levelo://app?vid=94b06f3e-9c43-404e-899a-d1e48d6d7a76","ios":"levelo://app?vid=94b06f3e-9c43-404e-899a-d1e48d6d7a76"},"vehicle_type_id":"4","last_reported":1762355477,"current_range_meters":14800,"station_id":"ce4bho92rcd13ifvqh3g","pricing_plan_id":"cebpf4jnsgd1na2vs0mg"},{"bike_id":"761b4093-e9a9-4035-8bc4-55a8ef848908","system_id":"levelo_inurba_marseille","lat":43.27613,"lon":5.36128,"is_reserved":false,"is_disabled":false,"rental_uris":{"android":"levelo://app?vid=761b4093-e9a9-4035-8bc4-55a8ef848908","ios":"levelo://app?vid=761b4093-e9a9-4035-8bc4-55a8ef848908"},"vehicle_type_id":"4","last_reported":1762355477,"current_range_meters":14800,"station_id":"ce4bgj92rcd13ifvqbe0","pricing_plan_id":"cebpf4jnsgd1na2vs0mg"},{"bike_id":"2f48cf35-5d42-4374-92c8-06a6b14f6c6f","system_id":"levelo_inurba_marseille","lat":43.298431,"lon":5.362681,"is_reserved":false,"is_disabled":false,"rental_uris":{"android":"levelo://app?vid=2f48cf35-5d42-4374-92c8-06a6b14f6c6f","ios":"levelo://app?vid=2f48cf35-5d42-4374-92c8-06a6b14f6c6f"},"vehicle_type_id":"4","last_reported":1762355477,"current_range_meters":14800,"station_id":"ce4bgpp2rcd13ifvqc3g","pricing_plan_id":"cebpf4jnsgd1na2vs0mg"},{"bike_id":"c14b70b2-98d4-4848-a2d9-32722b8d1daf","system_id":"levelo_inurba_marseille","lat":43.32088,"lon":5.36844,"is_reserved":false,"is_disabled":false,"rental_uris":{"android":"levelo://app?vid=c14b70b2-98d4-4848-a2d9-32722b8d1daf","ios":"levelo://app?vid=c14b70b2-98d4-4848-a2d9-32722b8d1daf"},"vehicle_type_id":"4","last_reported":1762355477,"current_range_meters":14800,"station_id":"","pricing_plan_id":"cebpf4jnsgd1na2vs0mg"},{"bike_id":"42d2792a-88bd-48e5-afe0-4b6400cd337a","system_id":"levelo_inurba_marseille","lat":43.31701,"lon":5.38209,"is_reserved":false,"is_disabled":false,"rental_uris":{"android":"levelo://app?vid=42d2792a-88bd-48e5-afe0-4b6400cd337a","ios":"levelo://app?vid=42d2792a-88bd-48e5-afe0-4b6400cd337a"},"vehicle_type_id":"4","last_reported":1762355477,"current_range_meters":14800,"station_id":"","pricing_plan_id":"cebpf4jnsgd1na2vs0mg"},{"bike_id":"dbb6b5e9-b188-4887-bba4-ba2a589c69fd","system_id":"levelo_inurba_marseille","lat":43.258582,"lon":5.399024,"is_reserved":false,"is_disabled":false,"rental_uris":{"android":"levelo://app?vid=dbb6b5e9-b188-4887-bba4-ba2a589c69fd","ios":"levelo://app?vid=dbb6b5e9-b188-4887-bba4-ba2a589c69fd"},"vehicle_type_id":"4","last_reported":1762355477,"current_range_meters":14800,"station_id":"ce4bhl92rcd13ifvqghg","pricing_plan_id":"cebpf4jnsgd1na2vs0mg"},{"bike_id":"8dc7779b-3ef6-4e6f-af35-7b777172050f","system_id":"levelo_inurba_marseille","lat":43.257168,"lon":5.410979,"is_reserved":false,"is_disabled":false,"rental_uris":{"android":"levelo://app?vid=8dc7779b-3ef6-4e6f-af35-7b777172050f","ios":"levelo://app?vid=8dc7779b-3ef6-4e6f-af35-7b777172050f"},"vehicle_type_id":"4","last_reported":1762355477,"current_range_meters":14800,"station_id":"ce4bhkp2rcd13ifvqgd0","pricing_plan_id":"cebpf4jnsgd1na2vs0mg"},{"bike_id":"27aefe03-bbd2-43d3-8d72-3a7105da9194","system_id":"levelo_inurba_marseille","lat":43.31356,"lon":5.37911,"is_reserved":false,"is_disabled":false,"rental_uris":{"android":"levelo://app?vid=27aefe03-bbd2-43d3-8d72-3a7105da9194","ios":"levelo://app?vid=27aefe03-bbd2-43d3-8d72-3a7105da9194"},"vehicle_type_id":"4","last_reported":1762355477,"current_range_meters":14800,"station_id":"","pricing_plan_id":"cebpf4jnsgd1na2vs0mg"},{"bike_id":"81dcc136-dea2-46c0-98af-42dbdee92b54","system_id":"levelo_inurba_marseille","lat":43.28473,"lon":5.48411,"is_reserved":false,"is_disabled":false,"rental_uris":{"android":"levelo://app?vid=81dcc136-dea2-46c0-98af-42dbdee92b54","ios":"levelo://app?vid=81dcc136-dea2-46c0-98af-42dbdee92b54"},"vehicle_type_id":"4","last_reported":1762355477,"current_range_meters":14800,"station_id":"","pricing_plan_id":"cebpf4jnsgd1na2vs0mg"},{"bike_id":"701154fb-b47f-4359-b45a-a748fa93bbcc","system_id":"levelo_inurba_marseille","lat":43.286987,"lon":5.373867,"is_reserved":false,"is_disabled":false,"rental_uris":{"android":"levelo://app?vid=701154fb-b47f-4359-b45a-a748fa93bbcc","ios":"levelo://app?vid=701154fb-b47f-4359-b45a-a748fa93bbcc"},"vehicle_type_id":"4","last_reported":1762355477,"current_range_meters":14800,"station_id":"ce4bh3p2rcd13ifvqdq0","pricing_plan_id":"cebpf4jnsgd1na2vs0mg"},{"bike_id":"82b39bed-1651-4187-a212-55e735128d2f","system_id":"levelo_inurba_marseille","lat":43.296194,"lon":5.377645,"is_reserved":false,"is_disabled":false,"rental_uris":{"android":"levelo://app?vid=82b39bed-1651-4187-a212-55e735128d2f","ios":"levelo://app?vid=82b39bed-1651-4187-a212-55e735128d2f"},"vehicle_type_id":"4","last_reported":1762355477,"current_range_meters":14800,"station_id":"ce4bgi92rcd13ifvqb90","pricing_plan_id":"cebpf4jnsgd1na2vs0mg"},{"bike_id":"195163d2-2653-458a-96ad-6cab0094f991","system_id":"levelo_inurba_marseille","lat":43.25872,"lon":5.39892,"is_reserved":false,"is_disabled":false,"rental_uris":{"android":"levelo://app?vid=195163d2-2653-458a-96ad-6cab0094f991","ios":"levelo://app?vid=195163d2-2653-458a-96ad-6cab0094f991"},"vehicle_type_id":"4","last_reported":1762355477,"current_range_meters":14800,"station_id":"ce4bhl92rcd13ifvqghg","pricing_plan_id":"cebpf4jnsgd1na2vs0mg"},{"bike_id":"813d84df-d28e-442a-86a4-2693a3f1117d","system_id":"levelo_inurba_marseille","lat":43.230504,"lon":5.354934,"is_reserved":false,"is_disabled":false,"rental_uris":{"android":"levelo://app?vid=813d84df-d28e-442a-86a4-2693a3f1117d","ios":"levelo://app?vid=813d84df-d28e-442a-86a4-2693a3f1117d"},"vehicle_type_id":"4","last_reported":1762355477,"current_range_meters":15200,"station_id":"cpo3342slgdg3j2ifvpg","pricing_plan_id":"cebpf4jnsgd1na2vs0mg"},{"bike_id":"cff64f4e-5f37-43ea-ae7e-1ca574864a38","system_id":"levelo_inurba_marseille","lat":43.32392,"lon":5.42836,"is_reserved":false,"is_disabled":false,"rental_uris":{"android":"levelo://app?vid=cff64f4e-5f37-43ea-ae7e-1ca574864a38","ios":"levelo://app?vid=cff64f4e-5f37-43ea-ae7e-1ca574864a38"},"vehicle_type_id":"4","last_reported":1762355477,"current_range_meters":15200,"station_id":"","pricing_plan_id":"cebpf4jnsgd1na2vs0mg"},{"bike_id":"81ac0ba6-3f71-481e-bb86-6417cb8d40e0","system_id":"levelo_inurba_marseille","lat":43.30959,"lon":5.39033,"is_reserved":false,"is_disabled":false,"rental_uris":{"android":"levelo://app?vid=81ac0ba6-3f71-481e-bb86-6417cb8d40e0","ios":"levelo://app?vid=81ac0ba6-3f71-481e-bb86-6417cb8d40e0"},"vehicle_type_id":"4","last_reported":1762355477,"current_range_meters":15200,"station_id":"ce4bgup2rcd13ifvqco0","pricing_plan_id":"cebpf4jnsgd1na2vs0mg"},{"bike_id":"ca46fdbd-ac89-432a-9c58-507605a7d54c","system_id":"levelo_inurba_marseille","lat":43.29269,"lon":5.37629,"is_reserved":false,"is_disabled":false,"rental_uris":{"android":"levelo://app?vid=ca46fdbd-ac89-432a-9c58-507605a7d54c","ios":"levelo://app?vid=ca46fdbd-ac89-432a-9c58-507605a7d54c"},"vehicle_type_id":"4","last_reported":1762355477,"current_range_meters":15200,"station_id":"ce4bgi12rcd13ifvqb80","pricing_plan_id":"cebpf4jnsgd1na2vs0mg"},{"bike_id":"89668189-b95b-43c4-a0b4-cad5f1f90638","system_id":"levelo_inurba_marseille","lat":43.30158,"lon":5.38114,"is_reserved":false,"is_disabled":true,"rental_uris":{"android":"levelo://app?vid=89668189-b95b-43c4-a0b4-cad5f1f90638","ios":"levelo://app?vid=89668189-b95b-43c4-a0b4-cad5f1f90638"},"vehicle_type_id":"4","last_reported":1762355477,"current_range_meters":15200,"station_id":"ce4bgjp2rcd13ifvqbh0","pricing_plan_id":"cebpf4jnsgd1na2vs0mg"},{"bike_id":"7ee8d533-399f-43d1-af0e-a78799d9a1a3","system_id":"levelo_inurba_marseille","lat":43.25864,"lon":5.39908,"is_reserved":false,"is_disabled":false,"rental_uris":{"android":"levelo://app?vid=7ee8d533-399f-43d1-af0e-a78799d9a1a3","ios":"levelo://app?vid=7ee8d533-399f-43d1-af0e-a78799d9a1a3"},"vehicle_type_id":"4","last_reported":1762355477,"current_range_meters":15200,"station_id":"ce4bhl92rcd13ifvqghg","pricing_plan_id":"cebpf4jnsgd1na2vs0mg"},{"bike_id":"01600945-921c-4a67-8455-076bf1f986c2","system_id":"levelo_inurba_marseille","lat":43.29565,"lon":5.37523,"is_reserved":false,"is_disabled":false,"rental_uris":{"android":"levelo://app?vid=01600945-921c-4a67-8455-076bf1f986c2","ios":"levelo://app?vid=01600945-921c-4a67-8455-076bf1f986c2"},"vehicle_type_id":"4","last_reported":1762355477,"current_range_meters":15200,"station_id":"ce4bgh92rcd13ifvqb50","pricing_plan_id":"cebpf4jnsgd1na2vs0mg"},{"bike_id":"48a108fc-24be-42ef-a242-d925255a7718","system_id":"levelo_inurba_marseille","lat":43.279779,"lon":5.399209,"is_reserved":false,"is_disabled":false,"rental_uris":{"android":"levelo://app?vid=48a108fc-24be-42ef-a242-d925255a7718","ios":"levelo://app?vid=48a108fc-24be-42ef-a242-d925255a7718"},"vehicle_type_id":"4","last_reported":1762355477,"current_range_meters":15200,"station_id":"ce4bho12rcd13ifvqh2g","pricing_plan_id":"cebpf4jnsgd1na2vs0mg"},{"bike_id":"8cf54d33-efb5-4166-8509-df2cb57488b1","system_id":"levelo_inurba_marseille","lat":43.33443,"lon":5.40019,"is_reserved":false,"is_disabled":false,"rental_uris":{"android":"levelo://app?vid=8cf54d33-efb5-4166-8509-df2cb57488b1","ios":"levelo://app?vid=8cf54d33-efb5-4166-8509-df2cb57488b1"},"vehicle_type_id":"4","last_reported":1762355477,"current_range_meters":15200,"station_id":"","pricing_plan_id":"cebpf4jnsgd1na2vs0mg"},{"bike_id":"5723bd73-9710-42c3-9fb9-1abe9c1aacd8","system_id":"levelo_inurba_marseille","lat":43.29262,"lon":5.38444,"is_reserved":false,"is_disabled":false,"rental_uris":{"android":"levelo://app?vid=5723bd73-9710-42c3-9fb9-1abe9c1aacd8","ios":"levelo://app?vid=5723bd73-9710-42c3-9fb9-1abe9c1aacd8"},"vehicle_type_id":"4","last_reported":1762355477,"current_range_meters":16000,"station_id":"ce4bh692rcd13ifvqea0","pricing_plan_id":"cebpf4jnsgd1na2vs0mg"},{"bike_id":"c1b34527-cb3d-4f35-952c-fd012070ab00","system_id":"levelo_inurba_marseille","lat":43.29269,"lon":5.38437,"is_reserved":false,"is_disabled":false,"rental_uris":{"android":"levelo://app?vid=c1b34527-cb3d-4f35-952c-fd012070ab00","ios":"levelo://app?vid=c1b34527-cb3d-4f35-952c-fd012070ab00"},"vehicle_type_id":"4","last_reported":1762355477,"current_range_meters":16000,"station_id":"ce4bh692rcd13ifvqea0","pricing_plan_id":"cebpf4jnsgd1na2vs0mg"},{"bike_id":"64f63343-4494-416c-90c6-98a294ecb70d","system_id":"levelo_inurba_marseille","lat":43.30964,"lon":5.39029,"is_reserved":false,"is_disabled":false,"rental_uris":{"android":"levelo://app?vid=64f63343-4494-416c-90c6-98a294ecb70d","ios":"levelo://app?vid=64f63343-4494-416c-90c6-98a294ecb70d"},"vehicle_type_id":"4","last_reported":1762355477,"current_range_meters":16000,"station_id":"ce4bgup2rcd13ifvqco0","pricing_plan_id":"cebpf4jnsgd1na2vs0mg"},{"bike_id":"6a809bca-8e07-4d4a-926a-533252e3c7f9","system_id":"levelo_inurba_marseille","lat":43.29442,"lon":5.38648,"is_reserved":false,"is_disabled":false,"rental_uris":{"android":"levelo://app?vid=6a809bca-8e07-4d4a-926a-533252e3c7f9","ios":"levelo://app?vid=6a809bca-8e07-4d4a-926a-533252e3c7f9"},"vehicle_type_id":"4","last_reported":1762355477,"current_range_meters":16000,"station_id":"","pricing_plan_id":"cebpf4jnsgd1na2vs0mg"},{"bike_id":"eb77b97b-8065-4ae0-8a67-6e39651a69b9","system_id":"levelo_inurba_marseille","lat":43.28078,"lon":5.39663,"is_reserved":false,"is_disabled":false,"rental_uris":{"android":"levelo://app?vid=eb77b97b-8065-4ae0-8a67-6e39651a69b9","ios":"levelo://app?vid=eb77b97b-8065-4ae0-8a67-6e39651a69b9"},"vehicle_type_id":"4","last_reported":1762355477,"current_range_meters":16000,"station_id":"ce4bho12rcd13ifvqh2g","pricing_plan_id":"cebpf4jnsgd1na2vs0mg"},{"bike_id":"4b9b61f9-e84c-4648-b6f6-faf53029a4ee","system_id":"levelo_inurba_marseille","lat":43.27043,"lon":5.42294,"is_reserved":false,"is_disabled":false,"rental_uris":{"android":"levelo://app?vid=4b9b61f9-e84c-4648-b6f6-faf53029a4ee","ios":"levelo://app?vid=4b9b61f9-e84c-4648-b6f6-faf53029a4ee"},"vehicle_type_id":"4","last_reported":1762355477,"current_range_meters":16400,"station_id":"ce4bhk92rcd13ifvqgb0","pricing_plan_id":"cebpf4jnsgd1na2vs0mg"},{"bike_id":"5f68c4c7-48b2-46a7-91c2-488372474659","system_id":"levelo_inurba_marseille","lat":43.30787,"lon":5.37655,"is_reserved":false,"is_disabled":false,"rental_uris":{"android":"levelo://app?vid=5f68c4c7-48b2-46a7-91c2-488372474659","ios":"levelo://app?vid=5f68c4c7-48b2-46a7-91c2-488372474659"},"vehicle_type_id":"4","last_reported":1762355477,"current_range_meters":16400,"station_id":"ce4bgv92rcd13ifvqcq0","pricing_plan_id":"cebpf4jnsgd1na2vs0mg"},{"bike_id":"22eb7bc2-be32-4b89-9839-554fdfb59370","system_id":"levelo_inurba_marseille","lat":43.303009,"lon":5.369004,"is_reserved":false,"is_disabled":false,"rental_uris":{"android":"levelo://app?vid=22eb7bc2-be32-4b89-9839-554fdfb59370","ios":"levelo://app?vid=22eb7bc2-be32-4b89-9839-554fdfb59370"},"vehicle_type_id":"4","last_reported":1762355477,"current_range_meters":16400,"station_id":"ce4bgqh2rcd13ifvqc5g","pricing_plan_id":"cebpf4jnsgd1na2vs0mg"},{"bike_id":"5498fff1-bad7-4fe9-a980-89edcdfca969","system_id":"levelo_inurba_marseille","lat":43.26225,"lon":5.40455,"is_reserved":false,"is_disabled":false,"rental_uris":{"android":"levelo://app?vid=5498fff1-bad7-4fe9-a980-89edcdfca969","ios":"levelo://app?vid=5498fff1-bad7-4fe9-a980-89edcdfca969"},"vehicle_type_id":"4","last_reported":1762355477,"current_range_meters":16400,"station_id":"ce4bhmh2rcd13ifvqgmg","pricing_plan_id":"cebpf4jnsgd1na2vs0mg"},{"bike_id":"a6010974-670e-49c0-b408-8e5fee4c2775","system_id":"levelo_inurba_marseille","lat":43.24167,"lon":5.36395,"is_reserved":false,"is_disabled":false,"rental_uris":{"android":"levelo://app?vid=a6010974-670e-49c0-b408-8e5fee4c2775","ios":"levelo://app?vid=a6010974-670e-49c0-b408-8e5fee4c2775"},"vehicle_type_id":"4","last_reported":1762355477,"current_range_meters":16400,"station_id":"cpo36qri1sfpv3e86is0","pricing_plan_id":"cebpf4jnsgd1na2vs0mg"},{"bike_id":"57d7b013-6212-494f-b4ef-1d8b49b3d422","system_id":"levelo_inurba_marseille","lat":43.28642,"lon":5.35495,"is_reserved":false,"is_disabled":false,"rental_uris":{"android":"levelo://app?vid=57d7b013-6212-494f-b4ef-1d8b49b3d422","ios":"levelo://app?vid=57d7b013-6212-494f-b4ef-1d8b49b3d422"},"vehicle_type_id":"4","last_reported":1762355477,"current_range_meters":16400,"station_id":"","pricing_plan_id":"cebpf4jnsgd1na2vs0mg"},{"bike_id":"b225a357-c7d6-42e1-a9c8-660e35973a75","system_id":"levelo_inurba_marseille","lat":43.31479,"lon":5.37309,"is_reserved":false,"is_disabled":false,"rental_uris":{"android":"levelo://app?vid=b225a357-c7d6-42e1-a9c8-660e35973a75","ios":"levelo://app?vid=b225a357-c7d6-42e1-a9c8-660e35973a75"},"vehicle_type_id":"4","last_reported":1762355477,"current_range_meters":16400,"station_id":"ce4bgt12rcd13ifvqcd0","pricing_plan_id":"cebpf4jnsgd1na2vs0mg"},{"bike_id":"c6d2dafc-fb2c-4b82-8b78-f3d7d347211b","system_id":"levelo_inurba_marseille","lat":43.323596,"lon":5.367493,"is_reserved":false,"is_disabled":false,"rental_uris":{"android":"levelo://app?vid=c6d2dafc-fb2c-4b82-8b78-f3d7d347211b","ios":"levelo://app?vid=c6d2dafc-fb2c-4b82-8b78-f3d7d347211b"},"vehicle_type_id":"4","last_reported":1762355477,"current_range_meters":16400,"station_id":"ce4bhsh2rcd13ifvqi2g","pricing_plan_id":"cebpf4jnsgd1na2vs0mg"},{"bike_id":"2fa2ac04-3e75-4120-8aa9-4853e3d7f20e","system_id":"levelo_inurba_marseille","lat":43.2846,"lon":5.35885,"is_reserved":false,"is_disabled":false,"rental_uris":{"android":"levelo://app?vid=2fa2ac04-3e75-4120-8aa9-4853e3d7f20e","ios":"levelo://app?vid=2fa2ac04-3e75-4120-8aa9-4853e3d7f20e"},"vehicle_type_id":"4","last_reported":1762355477,"current_range_meters":16400,"station_id":"ce4bhah2rcd13ifvqei0","pricing_plan_id":"cebpf4jnsgd1na2vs0mg"},{"bike_id":"a3f0dcd0-1c60-4759-80ab-239cc38bf10a","system_id":"levelo_inurba_marseille","lat":43.28469,"lon":5.35892,"is_reserved":false,"is_disabled":false,"rental_uris":{"android":"levelo://app?vid=a3f0dcd0-1c60-4759-80ab-239cc38bf10a","ios":"levelo://app?vid=a3f0dcd0-1c60-4759-80ab-239cc38bf10a"},"vehicle_type_id":"4","last_reported":1762355477,"current_range_meters":16400,"station_id":"ce4bhah2rcd13ifvqei0","pricing_plan_id":"cebpf4jnsgd1na2vs0mg"},{"bike_id":"aee05e44-58d8-4251-b642-bba3a7afe48a","system_id":"levelo_inurba_marseille","lat":43.2119,"lon":5.35083,"is_reserved":false,"is_disabled":false,"rental_uris":{"android":"levelo://app?vid=aee05e44-58d8-4251-b642-bba3a7afe48a","ios":"levelo://app?vid=aee05e44-58d8-4251-b642-bba3a7afe48a"},"vehicle_type_id":"4","last_reported":1762355477,"current_range_meters":16400,"station_id":"st_cvj6sg6p6f1abm77japg","pricing_plan_id":"cebpf4jnsgd1na2vs0mg"},{"bike_id":"460958aa-abb4-46e7-a2e3-909165861081","system_id":"levelo_inurba_marseille","lat":43.29829,"lon":5.3628,"is_reserved":false,"is_disabled":false,"rental_uris":{"android":"levelo://app?vid=460958aa-abb4-46e7-a2e3-909165861081","ios":"levelo://app?vid=460958aa-abb4-46e7-a2e3-909165861081"},"vehicle_type_id":"4","last_reported":1762355477,"current_range_meters":16400,"station_id":"ce4bgpp2rcd13ifvqc3g","pricing_plan_id":"cebpf4jnsgd1na2vs0mg"},{"bike_id":"1972d616-0980-48ec-8dcf-fd9496b29051","system_id":"levelo_inurba_marseille","lat":43.24676,"lon":5.38158,"is_reserved":false,"is_disabled":false,"rental_uris":{"android":"levelo://app?vid=1972d616-0980-48ec-8dcf-fd9496b29051","ios":"levelo://app?vid=1972d616-0980-48ec-8dcf-fd9496b29051"},"vehicle_type_id":"4","last_reported":1762355477,"current_range_meters":16800,"station_id":"ce4bhih2rcd13ifvqfr0","pricing_plan_id":"cebpf4jnsgd1na2vs0mg"},{"bike_id":"d9c15cae-4319-427a-b3fc-228ddcf46cce","system_id":"levelo_inurba_marseille","lat":43.28,"lon":5.40018,"is_reserved":false,"is_disabled":false,"rental_uris":{"android":"levelo://app?vid=d9c15cae-4319-427a-b3fc-228ddcf46cce","ios":"levelo://app?vid=d9c15cae-4319-427a-b3fc-228ddcf46cce"},"vehicle_type_id":"4","last_reported":1762355477,"current_range_meters":16800,"station_id":"ce4bho92rcd13ifvqh4g","pricing_plan_id":"cebpf4jnsgd1na2vs0mg"},{"bike_id":"d77a88e5-20b9-4fe1-89df-69baec122738","system_id":"levelo_inurba_marseille","lat":43.29748,"lon":5.38075,"is_reserved":false,"is_disabled":false,"rental_uris":{"android":"levelo://app?vid=d77a88e5-20b9-4fe1-89df-69baec122738","ios":"levelo://app?vid=d77a88e5-20b9-4fe1-89df-69baec122738"},"vehicle_type_id":"4","last_reported":1762355477,"current_range_meters":16800,"station_id":"","pricing_plan_id":"cebpf4jnsgd1na2vs0mg"},{"bike_id":"cb8ee62f-fc52-4fa5-a545-b823cfc4aedd","system_id":"levelo_inurba_marseille","lat":43.32384,"lon":5.38902,"is_reserved":false,"is_disabled":false,"rental_uris":{"android":"levelo://app?vid=cb8ee62f-fc52-4fa5-a545-b823cfc4aedd","ios":"levelo://app?vid=cb8ee62f-fc52-4fa5-a545-b823cfc4aedd"},"vehicle_type_id":"4","last_reported":1762355477,"current_range_meters":16800,"station_id":"ce4bhqp2rcd13ifvqhog","pricing_plan_id":"cebpf4jnsgd1na2vs0mg"},{"bike_id":"456325d2-f213-43d0-b8bb-83874dc983a6","system_id":"levelo_inurba_marseille","lat":43.25575,"lon":5.38255,"is_reserved":false,"is_disabled":false,"rental_uris":{"android":"levelo://app?vid=456325d2-f213-43d0-b8bb-83874dc983a6","ios":"levelo://app?vid=456325d2-f213-43d0-b8bb-83874dc983a6"},"vehicle_type_id":"4","last_reported":1762355477,"current_range_meters":16800,"station_id":"ce4bhih2rcd13ifvqfs0","pricing_plan_id":"cebpf4jnsgd1na2vs0mg"},{"bike_id":"547bd023-8622-489f-a20c-b5470712154b","system_id":"levelo_inurba_marseille","lat":43.315,"lon":5.37289,"is_reserved":false,"is_disabled":false,"rental_uris":{"android":"levelo://app?vid=547bd023-8622-489f-a20c-b5470712154b","ios":"levelo://app?vid=547bd023-8622-489f-a20c-b5470712154b"},"vehicle_type_id":"4","last_reported":1762355477,"current_range_meters":16800,"station_id":"ce4bgt12rcd13ifvqcd0","pricing_plan_id":"cebpf4jnsgd1na2vs0mg"},{"bike_id":"e946e9ec-a4d2-434a-b465-1ffc5a3e6b52","system_id":"levelo_inurba_marseille","lat":43.25905,"lon":5.40868,"is_reserved":false,"is_disabled":false,"rental_uris":{"android":"levelo://app?vid=e946e9ec-a4d2-434a-b465-1ffc5a3e6b52","ios":"levelo://app?vid=e946e9ec-a4d2-434a-b465-1ffc5a3e6b52"},"vehicle_type_id":"4","last_reported":1762355477,"current_range_meters":16800,"station_id":"ce4bhm92rcd13ifvqglg","pricing_plan_id":"cebpf4jnsgd1na2vs0mg"},{"bike_id":"09c1a48b-37a9-470b-838c-43210debac3c","system_id":"levelo_inurba_marseille","lat":43.27684,"lon":5.38905,"is_reserved":false,"is_disabled":false,"rental_uris":{"android":"levelo://app?vid=09c1a48b-37a9-470b-838c-43210debac3c","ios":"levelo://app?vid=09c1a48b-37a9-470b-838c-43210debac3c"},"vehicle_type_id":"4","last_reported":1762355477,"current_range_meters":17200,"station_id":"ce4bhi12rcd13ifvqfo0","pricing_plan_id":"cebpf4jnsgd1na2vs0mg"},{"bike_id":"d2f2965d-d17c-4939-9679-9f3775ffce03","system_id":"levelo_inurba_marseille","lat":43.24945,"lon":5.40497,"is_reserved":false,"is_disabled":false,"rental_uris":{"android":"levelo://app?vid=d2f2965d-d17c-4939-9679-9f3775ffce03","ios":"levelo://app?vid=d2f2965d-d17c-4939-9679-9f3775ffce03"},"vehicle_type_id":"4","last_reported":1762355477,"current_range_meters":17200,"station_id":"st_d2ngiaodas8pm72gd1h0","pricing_plan_id":"cebpf4jnsgd1na2vs0mg"},{"bike_id":"40f5976f-c878-42d3-9960-e1343fe3aac7","system_id":"levelo_inurba_marseille","lat":43.26548,"lon":5.37303,"is_reserved":false,"is_disabled":false,"rental_uris":{"android":"levelo://app?vid=40f5976f-c878-42d3-9960-e1343fe3aac7","ios":"levelo://app?vid=40f5976f-c878-42d3-9960-e1343fe3aac7"},"vehicle_type_id":"4","last_reported":1762355477,"current_range_meters":17200,"station_id":"ce4bhg12rcd13ifvqf70","pricing_plan_id":"cebpf4jnsgd1na2vs0mg"},{"bike_id":"911e4953-b4f0-4f3b-8b46-4afd9c958d45","system_id":"levelo_inurba_marseille","lat":43.30597,"lon":5.39353,"is_reserved":false,"is_disabled":false,"rental_uris":{"android":"levelo://app?vid=911e4953-b4f0-4f3b-8b46-4afd9c958d45","ios":"levelo://app?vid=911e4953-b4f0-4f3b-8b46-4afd9c958d45"},"vehicle_type_id":"4","last_reported":1762355477,"current_range_meters":17200,"station_id":"ce4bh0p2rcd13ifvqd80","pricing_plan_id":"cebpf4jnsgd1na2vs0mg"},{"bike_id":"4d1b38d0-b014-4162-b570-867bd1d2dbe7","system_id":"levelo_inurba_marseille","lat":43.31316,"lon":5.39711,"is_reserved":false,"is_disabled":false,"rental_uris":{"android":"levelo://app?vid=4d1b38d0-b014-4162-b570-867bd1d2dbe7","ios":"levelo://app?vid=4d1b38d0-b014-4162-b570-867bd1d2dbe7"},"vehicle_type_id":"4","last_reported":1762355477,"current_range_meters":17200,"station_id":"ce4bgvp2rcd13ifvqcu0","pricing_plan_id":"cebpf4jnsgd1na2vs0mg"},{"bike_id":"f522ce77-1b95-429b-9f15-a73981df8fec","system_id":"levelo_inurba_marseille","lat":43.30923,"lon":5.40151,"is_reserved":false,"is_disabled":false,"rental_uris":{"android":"levelo://app?vid=f522ce77-1b95-429b-9f15-a73981df8fec","ios":"levelo://app?vid=f522ce77-1b95-429b-9f15-a73981df8fec"},"vehicle_type_id":"4","last_reported":1762355477,"current_range_meters":17200,"station_id":"ce4bgvp2rcd13ifvqct0","pricing_plan_id":"cebpf4jnsgd1na2vs0mg"},{"bike_id":"f1cccc88-ebe5-4993-bb11-7453c07455c3","system_id":"levelo_inurba_marseille","lat":43.26545,"lon":5.37291,"is_reserved":false,"is_disabled":false,"rental_uris":{"android":"levelo://app?vid=f1cccc88-ebe5-4993-bb11-7453c07455c3","ios":"levelo://app?vid=f1cccc88-ebe5-4993-bb11-7453c07455c3"},"vehicle_type_id":"4","last_reported":1762355477,"current_range_meters":17200,"station_id":"ce4bhg12rcd13ifvqf70","pricing_plan_id":"cebpf4jnsgd1na2vs0mg"},{"bike_id":"9e6f01f0-3d67-418f-8602-fe28f95ec763","system_id":"levelo_inurba_marseille","lat":43.26034,"lon":5.37552,"is_reserved":false,"is_disabled":false,"rental_uris":{"android":"levelo://app?vid=9e6f01f0-3d67-418f-8602-fe28f95ec763","ios":"levelo://app?vid=9e6f01f0-3d67-418f-8602-fe28f95ec763"},"vehicle_type_id":"4","last_reported":1762355477,"current_range_meters":17200,"station_id":"ce4bhgh2rcd13ifvqfa0","pricing_plan_id":"cebpf4jnsgd1na2vs0mg"},{"bike_id":"9c13396c-079d-47ad-a953-2ce612750053","system_id":"levelo_inurba_marseille","lat":43.24584,"lon":5.43187,"is_reserved":false,"is_disabled":false,"rental_uris":{"android":"levelo://app?vid=9c13396c-079d-47ad-a953-2ce612750053","ios":"levelo://app?vid=9c13396c-079d-47ad-a953-2ce612750053"},"vehicle_type_id":"4","last_reported":1762355477,"current_range_meters":17600,"station_id":"","pricing_plan_id":"cebpf4jnsgd1na2vs0mg"},{"bike_id":"4409e8e6-e2b1-45fd-ac80-4ccdb4f82c11","system_id":"levelo_inurba_marseille","lat":43.31087,"lon":5.42429,"is_reserved":false,"is_disabled":false,"rental_uris":{"android":"levelo://app?vid=4409e8e6-e2b1-45fd-ac80-4ccdb4f82c11","ios":"levelo://app?vid=4409e8e6-e2b1-45fd-ac80-4ccdb4f82c11"},"vehicle_type_id":"4","last_reported":1762355477,"current_range_meters":17600,"station_id":"ce4bhp92rcd13ifvqhag","pricing_plan_id":"cebpf4jnsgd1na2vs0mg"},{"bike_id":"7cc78d55-4eb6-4ea5-bd8a-feb5c0031d50","system_id":"levelo_inurba_marseille","lat":43.31469,"lon":5.37323,"is_reserved":false,"is_disabled":false,"rental_uris":{"android":"levelo://app?vid=7cc78d55-4eb6-4ea5-bd8a-feb5c0031d50","ios":"levelo://app?vid=7cc78d55-4eb6-4ea5-bd8a-feb5c0031d50"},"vehicle_type_id":"4","last_reported":1762355477,"current_range_meters":17600,"station_id":"ce4bgt12rcd13ifvqcd0","pricing_plan_id":"cebpf4jnsgd1na2vs0mg"},{"bike_id":"a715c0ef-3857-414c-967a-b5d1a542eb13","system_id":"levelo_inurba_marseille","lat":43.224571,"lon":5.347186,"is_reserved":false,"is_disabled":false,"rental_uris":{"android":"levelo://app?vid=a715c0ef-3857-414c-967a-b5d1a542eb13","ios":"levelo://app?vid=a715c0ef-3857-414c-967a-b5d1a542eb13"},"vehicle_type_id":"4","last_reported":1762355477,"current_range_meters":17600,"station_id":"","pricing_plan_id":"cebpf4jnsgd1na2vs0mg"},{"bike_id":"f40c2fc8-4bc9-4da2-9104-8dbbcf0283f0","system_id":"levelo_inurba_marseille","lat":43.2762,"lon":5.36108,"is_reserved":false,"is_disabled":false,"rental_uris":{"android":"levelo://app?vid=f40c2fc8-4bc9-4da2-9104-8dbbcf0283f0","ios":"levelo://app?vid=f40c2fc8-4bc9-4da2-9104-8dbbcf0283f0"},"vehicle_type_id":"4","last_reported":1762355477,"current_range_meters":17600,"station_id":"ce4bgj92rcd13ifvqbe0","pricing_plan_id":"cebpf4jnsgd1na2vs0mg"},{"bike_id":"c3099294-07de-461a-ab07-d7f77ecdfb93","system_id":"levelo_inurba_marseille","lat":43.28144,"lon":5.40191,"is_reserved":false,"is_disabled":false,"rental_uris":{"android":"levelo://app?vid=c3099294-07de-461a-ab07-d7f77ecdfb93","ios":"levelo://app?vid=c3099294-07de-461a-ab07-d7f77ecdfb93"},"vehicle_type_id":"4","last_reported":1762355477,"current_range_meters":17600,"station_id":"","pricing_plan_id":"cebpf4jnsgd1na2vs0mg"},{"bike_id":"9bbd3d85-b440-471b-b356-6d920393d718","system_id":"levelo_inurba_marseille","lat":43.23958,"lon":5.36647,"is_reserved":false,"is_disabled":false,"rental_uris":{"android":"levelo://app?vid=9bbd3d85-b440-471b-b356-6d920393d718","ios":"levelo://app?vid=9bbd3d85-b440-471b-b356-6d920393d718"},"vehicle_type_id":"4","last_reported":1762355477,"current_range_meters":17600,"station_id":"ce4bhi12rcd13ifvqfp0","pricing_plan_id":"cebpf4jnsgd1na2vs0mg"},{"bike_id":"d5144146-c39f-4ebf-8294-c16354fbf196","system_id":"levelo_inurba_marseille","lat":43.31321,"lon":5.39696,"is_reserved":false,"is_disabled":false,"rental_uris":{"android":"levelo://app?vid=d5144146-c39f-4ebf-8294-c16354fbf196","ios":"levelo://app?vid=d5144146-c39f-4ebf-8294-c16354fbf196"},"vehicle_type_id":"4","last_reported":1762355477,"current_range_meters":18000,"station_id":"ce4bgvp2rcd13ifvqcu0","pricing_plan_id":"cebpf4jnsgd1na2vs0mg"},{"bike_id":"d011c4c2-9fe2-4a53-8917-614e85bb2fbb","system_id":"levelo_inurba_marseille","lat":43.29981,"lon":5.38498,"is_reserved":false,"is_disabled":false,"rental_uris":{"android":"levelo://app?vid=d011c4c2-9fe2-4a53-8917-614e85bb2fbb","ios":"levelo://app?vid=d011c4c2-9fe2-4a53-8917-614e85bb2fbb"},"vehicle_type_id":"4","last_reported":1762355477,"current_range_meters":18000,"station_id":"ce4bgj92rcd13ifvqbd0","pricing_plan_id":"cebpf4jnsgd1na2vs0mg"},{"bike_id":"b311b2f6-735e-444b-9f9c-f00dfe7c9f6f","system_id":"levelo_inurba_marseille","lat":43.22934,"lon":5.35383,"is_reserved":false,"is_disabled":false,"rental_uris":{"android":"levelo://app?vid=b311b2f6-735e-444b-9f9c-f00dfe7c9f6f","ios":"levelo://app?vid=b311b2f6-735e-444b-9f9c-f00dfe7c9f6f"},"vehicle_type_id":"4","last_reported":1762355477,"current_range_meters":18000,"station_id":"cpo3532slgdg3j2ikp40","pricing_plan_id":"cebpf4jnsgd1na2vs0mg"},{"bike_id":"d51807c0-b7c5-40ec-9073-bfdbfe370629","system_id":"levelo_inurba_marseille","lat":43.27058,"lon":5.40255,"is_reserved":false,"is_disabled":false,"rental_uris":{"android":"levelo://app?vid=d51807c0-b7c5-40ec-9073-bfdbfe370629","ios":"levelo://app?vid=d51807c0-b7c5-40ec-9073-bfdbfe370629"},