{"last_updated":1746094251,"ttl":60,"version":"2.2","data":{"bikes":[{"bike_id":"f1cb23bc-1834-4089-a420-ddfb793eb286","system_id":"levelo_inurba_marseille","lat":43.3262,"lon":5.35672,"is_reserved":false,"is_disabled":true,"rental_uris":{"android":"levelo://app?vid=f1cb23bc-1834-4089-a420-ddfb793eb286","ios":"levelo://app?vid=f1cb23bc-1834-4089-a420-ddfb793eb286"},"vehicle_type_id":"4","last_reported":1746094251,"current_range_meters":0,"station_id":"","pricing_plan_id":"cebpf4jnsgd1na2vs0mg"},{"bike_id":"d460f272-473a-41f6-abdc-1faecc077d69","system_id":"levelo_inurba_marseille","lat":43.252792,"lon":5.40227,"is_reserved":false,"is_disabled":true,"rental_uris":{"android":"levelo://app?vid=d460f272-473a-41f6-abdc-1faecc077d69","ios":"levelo://app?vid=d460f272-473a-41f6-abdc-1faecc077d69"},"vehicle_type_id":"4","last_reported":1746094251,"current_range_meters":0,"station_id":"","pricing_plan_id":"cebpf4jnsgd1na2vs0mg"},{"bike_id":"26deac1f-c435-40bc-9469-9ae0b266bb77","system_id":"levelo_inurba_marseille","lat":43.3014,"lon":5.38457,"is_reserved":false,"is_disabled":true,"rental_uris":{"android":"levelo://app?vid=26deac1f-c435-40bc-9469-9ae0b266bb77","ios":"levelo://app?vid=26deac1f-c435-40bc-9469-9ae0b266bb77"},"vehicle_type_id":"4","last_reported":1746094251,"current_range_meters":0,"station_id":"","pricing_plan_id":"cebpf4jnsgd1na2vs0mg"},{"bike_id":"8e55d48e-7012-4fef-8d0c-97558eaa8974","system_id":"levelo_inurba_marseille","lat":43.27508,"lon":5.38953,"is_reserved":false,"is_disabled":true,"rental_uris":{"android":"levelo://app?vid=8e55d48e-7012-4fef-8d0c-97558eaa8974","ios":"levelo://app?vid=8e55d48e-7012-4fef-8d0c-97558eaa8974"},"vehicle_type_id":"4","last_reported":1746094251,"current_range_meters":0,"station_id":"","pricing_plan_id":"cebpf4jnsgd1na2vs0mg"},{"bike_id":"705db5aa-feb0-4862-923d-cfb22bced0d3","system_id":"levelo_inurba_marseille","lat":43.21483,"lon":5.34822,"is_reserved":false,"is_disabled":true,"rental_uris":{"android":"levelo://app?vid=705db5aa-feb0-4862-923d-cfb22bced0d3","ios":"levelo://app?vid=705db5aa-feb0-4862-923d-cfb22bced0d3"},"vehicle_type_id":"4","last_reported":1746094251,"current_range_meters":0,"station_id":"","pricing_plan_id":"cebpf4jnsgd1na2vs0mg"},{"bike_id":"3a90c7e6-7292-46bf-9841-b93d1681705c","system_id":"levelo_inurba_marseille","lat":43.27615,"lon":5.36106,"is_reserved":false,"is_disabled":true,"rental_uris":{"android":"levelo://app?vid=3a90c7e6-7292-46bf-9841-b93d1681705c","ios":"levelo://app?vid=3a90c7e6-7292-46bf-9841-b93d1681705c"},"vehicle_type_id":"4","last_reported":1746094251,"current_range_meters":0,"station_id":"ce4bgj92rcd13ifvqbe0","pricing_plan_id":"cebpf4jnsgd1na2vs0mg"},{"bike_id":"bb0b18f3-6f49-4269-8123-c4d74655e72e","system_id":"levelo_inurba_marseille","lat":43.31681,"lon":5.40474,"is_reserved":false,"is_disabled":true,"rental_uris":{"android":"levelo://app?vid=bb0b18f3-6f49-4269-8123-c4d74655e72e","ios":"levelo://app?vid=bb0b18f3-6f49-4269-8123-c4d74655e72e"},"vehicle_type_id":"4","last_reported":1746094251,"current_range_meters":0,"station_id":"ce4bh012rcd13ifvqd00","pricing_plan_id":"cebpf4jnsgd1na2vs0mg"},{"bike_id":"f2ee7bd8-3782-4f87-8d18-90319b64e46b","system_id":"levelo_inurba_marseille","lat":43.27367,"lon":5.36263,"is_reserved":false,"is_disabled":true,"rental_uris":{"android":"levelo://app?vid=f2ee7bd8-3782-4f87-8d18-90319b64e46b","ios":"levelo://app?vid=f2ee7bd8-3782-4f87-8d18-90319b64e46b"},"vehicle_type_id":"4","last_reported":1746094251,"current_range_meters":0,"station_id":"ce4bhbh2rcd13ifvqeo0","pricing_plan_id":"cebpf4jnsgd1na2vs0mg"},{"bike_id":"cca34523-25eb-435b-8760-33415db11a60","system_id":"levelo_inurba_marseille","lat":43.2695,"lon":5.38631,"is_reserved":false,"is_disabled":true,"rental_uris":{"android":"levelo://app?vid=cca34523-25eb-435b-8760-33415db11a60","ios":"levelo://app?vid=cca34523-25eb-435b-8760-33415db11a60"},"vehicle_type_id":"4","last_reported":1746094251,"current_range_meters":0,"station_id":"ce4bhh92rcd13ifvqfh0","pricing_plan_id":"cebpf4jnsgd1na2vs0mg"},{"bike_id":"7bba6da2-4756-48ec-904c-6d58e224934c","system_id":"levelo_inurba_marseille","lat":43.24555,"lon":5.39517,"is_reserved":false,"is_disabled":true,"rental_uris":{"android":"levelo://app?vid=7bba6da2-4756-48ec-904c-6d58e224934c","ios":"levelo://app?vid=7bba6da2-4756-48ec-904c-6d58e224934c"},"vehicle_type_id":"4","last_reported":1746094251,"current_range_meters":0,"station_id":"ce4bhlp2rcd13ifvqgjg","pricing_plan_id":"cebpf4jnsgd1na2vs0mg"},{"bike_id":"94a8fcc1-e1a4-4f8e-a9f5-5464b7650446","system_id":"levelo_inurba_marseille","lat":43.23157,"lon":5.43724,"is_reserved":false,"is_disabled":false,"rental_uris":{"android":"levelo://app?vid=94a8fcc1-e1a4-4f8e-a9f5-5464b7650446","ios":"levelo://app?vid=94a8fcc1-e1a4-4f8e-a9f5-5464b7650446"},"vehicle_type_id":"4","last_reported":1746094251,"current_range_meters":0,"station_id":"ce4bhmp2rcd13ifvqgog","pricing_plan_id":"cebpf4jnsgd1na2vs0mg"},{"bike_id":"18015bc1-b446-4a72-bcfa-d59229548502","system_id":"levelo_inurba_marseille","lat":43.23147,"lon":5.43719,"is_reserved":false,"is_disabled":true,"rental_uris":{"android":"levelo://app?vid=18015bc1-b446-4a72-bcfa-d59229548502","ios":"levelo://app?vid=18015bc1-b446-4a72-bcfa-d59229548502"},"vehicle_type_id":"4","last_reported":1746094251,"current_range_meters":0,"station_id":"ce4bhmp2rcd13ifvqgog","pricing_plan_id":"cebpf4jnsgd1na2vs0mg"},{"bike_id":"8279eb1e-2f2c-4e73-bf6c-ad45a79c352c","system_id":"levelo_inurba_marseille","lat":43.23154,"lon":5.43702,"is_reserved":false,"is_disabled":true,"rental_uris":{"android":"levelo://app?vid=8279eb1e-2f2c-4e73-bf6c-ad45a79c352c","ios":"levelo://app?vid=8279eb1e-2f2c-4e73-bf6c-ad45a79c352c"},"vehicle_type_id":"4","last_reported":1746094251,"current_range_meters":0,"station_id":"ce4bhmp2rcd13ifvqgog","pricing_plan_id":"cebpf4jnsgd1na2vs0mg"},{"bike_id":"042ab00b-d873-40b1-a008-32c312479667","system_id":"levelo_inurba_marseille","lat":43.21208,"lon":5.35056,"is_reserved":false,"is_disabled":true,"rental_uris":{"android":"levelo://app?vid=042ab00b-d873-40b1-a008-32c312479667","ios":"levelo://app?vid=042ab00b-d873-40b1-a008-32c312479667"},"vehicle_type_id":"4","last_reported":1746094251,"current_range_meters":0,"station_id":"st_cvj6sg6p6f1abm77japg","pricing_plan_id":"cebpf4jnsgd1na2vs0mg"},{"bike_id":"3f06fb43-12f7-4ccb-b229-ae326cbe6dad","system_id":"levelo_inurba_marseille","lat":43.26885,"lon":5.3691,"is_reserved":false,"is_disabled":true,"rental_uris":{"android":"levelo://app?vid=3f06fb43-12f7-4ccb-b229-ae326cbe6dad","ios":"levelo://app?vid=3f06fb43-12f7-4ccb-b229-ae326cbe6dad"},"vehicle_type_id":"4","last_reported":1746094251,"current_range_meters":400,"station_id":"","pricing_plan_id":"cebpf4jnsgd1na2vs0mg"},{"bike_id":"fe81155a-2ab7-4d6b-97a0-2f6d953b0027","system_id":"levelo_inurba_marseille","lat":43.29052,"lon":5.39981,"is_reserved":false,"is_disabled":true,"rental_uris":{"android":"levelo://app?vid=fe81155a-2ab7-4d6b-97a0-2f6d953b0027","ios":"levelo://app?vid=fe81155a-2ab7-4d6b-97a0-2f6d953b0027"},"vehicle_type_id":"4","last_reported":1746094251,"current_range_meters":400,"station_id":"ce4bh392rcd13ifvqdm0","pricing_plan_id":"cebpf4jnsgd1na2vs0mg"},{"bike_id":"4464f90d-0a35-42fa-816d-3541d0b3c5c3","system_id":"levelo_inurba_marseille","lat":43.290258,"lon":5.3813,"is_reserved":false,"is_disabled":true,"rental_uris":{"android":"levelo://app?vid=4464f90d-0a35-42fa-816d-3541d0b3c5c3","ios":"levelo://app?vid=4464f90d-0a35-42fa-816d-3541d0b3c5c3"},"vehicle_type_id":"4","last_reported":1746094251,"current_range_meters":400,"station_id":"ce4bh4p2rcd13ifvqe1g","pricing_plan_id":"cebpf4jnsgd1na2vs0mg"},{"bike_id":"287f6e20-1316-4dc4-a61d-db01547191ba","system_id":"levelo_inurba_marseille","lat":43.29886,"lon":5.38899,"is_reserved":false,"is_disabled":true,"rental_uris":{"android":"levelo://app?vid=287f6e20-1316-4dc4-a61d-db01547191ba","ios":"levelo://app?vid=287f6e20-1316-4dc4-a61d-db01547191ba"},"vehicle_type_id":"4","last_reported":1746094251,"current_range_meters":800,"station_id":"ce4bh392rcd13ifvqdl0","pricing_plan_id":"cebpf4jnsgd1na2vs0mg"},{"bike_id":"611502b4-a796-4039-b2db-ee7fcc8bb2ce","system_id":"levelo_inurba_marseille","lat":43.28964,"lon":5.37851,"is_reserved":false,"is_disabled":true,"rental_uris":{"android":"levelo://app?vid=611502b4-a796-4039-b2db-ee7fcc8bb2ce","ios":"levelo://app?vid=611502b4-a796-4039-b2db-ee7fcc8bb2ce"},"vehicle_type_id":"4","last_reported":1746094251,"current_range_meters":800,"station_id":"ce4bh9p2rcd13ifvqed0","pricing_plan_id":"cebpf4jnsgd1na2vs0mg"},{"bike_id":"1336e245-aaab-443d-9d75-9be6d62bfa6c","system_id":"levelo_inurba_marseille","lat":43.27379,"lon":5.36261,"is_reserved":false,"is_disabled":false,"rental_uris":{"android":"levelo://app?vid=1336e245-aaab-443d-9d75-9be6d62bfa6c","ios":"levelo://app?vid=1336e245-aaab-443d-9d75-9be6d62bfa6c"},"vehicle_type_id":"4","last_reported":1746094251,"current_range_meters":800,"station_id":"ce4bhbh2rcd13ifvqeo0","pricing_plan_id":"cebpf4jnsgd1na2vs0mg"},{"bike_id":"067accc8-aad3-4e55-a1ee-6fafab6b82d9","system_id":"levelo_inurba_marseille","lat":43.26549,"lon":5.37295,"is_reserved":false,"is_disabled":true,"rental_uris":{"android":"levelo://app?vid=067accc8-aad3-4e55-a1ee-6fafab6b82d9","ios":"levelo://app?vid=067accc8-aad3-4e55-a1ee-6fafab6b82d9"},"vehicle_type_id":"4","last_reported":1746094251,"current_range_meters":800,"station_id":"ce4bhg12rcd13ifvqf70","pricing_plan_id":"cebpf4jnsgd1na2vs0mg"},{"bike_id":"5ae4b472-fe5f-4980-810c-e6e449693a09","system_id":"levelo_inurba_marseille","lat":43.31091,"lon":5.42443,"is_reserved":false,"is_disabled":true,"rental_uris":{"android":"levelo://app?vid=5ae4b472-fe5f-4980-810c-e6e449693a09","ios":"levelo://app?vid=5ae4b472-fe5f-4980-810c-e6e449693a09"},"vehicle_type_id":"4","last_reported":1746094251,"current_range_meters":800,"station_id":"ce4bhp92rcd13ifvqhag","pricing_plan_id":"cebpf4jnsgd1na2vs0mg"},{"bike_id":"8c03f75c-3c59-45f6-b513-bf4705ed25fb","system_id":"levelo_inurba_marseille","lat":43.27369,"lon":5.36257,"is_reserved":false,"is_disabled":true,"rental_uris":{"android":"levelo://app?vid=8c03f75c-3c59-45f6-b513-bf4705ed25fb","ios":"levelo://app?vid=8c03f75c-3c59-45f6-b513-bf4705ed25fb"},"vehicle_type_id":"4","last_reported":1746094251,"current_range_meters":1200,"station_id":"ce4bhbh2rcd13ifvqeo0","pricing_plan_id":"cebpf4jnsgd1na2vs0mg"},{"bike_id":"f3d6a9f7-6926-4392-9065-581c48c89b60","system_id":"levelo_inurba_marseille","lat":43.27368,"lon":5.36263,"is_reserved":false,"is_disabled":true,"rental_uris":{"android":"levelo://app?vid=f3d6a9f7-6926-4392-9065-581c48c89b60","ios":"levelo://app?vid=f3d6a9f7-6926-4392-9065-581c48c89b60"},"vehicle_type_id":"4","last_reported":1746094251,"current_range_meters":1200,"station_id":"ce4bhbh2rcd13ifvqeo0","pricing_plan_id":"cebpf4jnsgd1na2vs0mg"},{"bike_id":"bf017b5d-11a4-4853-9d10-12e9e46a2dc5","system_id":"levelo_inurba_marseille","lat":43.23057,"lon":5.35495,"is_reserved":false,"is_disabled":false,"rental_uris":{"android":"levelo://app?vid=bf017b5d-11a4-4853-9d10-12e9e46a2dc5","ios":"levelo://app?vid=bf017b5d-11a4-4853-9d10-12e9e46a2dc5"},"vehicle_type_id":"4","last_reported":1746094251,"current_range_meters":1200,"station_id":"cpo3342slgdg3j2ifvpg","pricing_plan_id":"cebpf4jnsgd1na2vs0mg"},{"bike_id":"0c5ce951-dab6-4441-bedf-aa080591e662","system_id":"levelo_inurba_marseille","lat":43.29361,"lon":5.37846,"is_reserved":false,"is_disabled":true,"rental_uris":{"android":"levelo://app?vid=0c5ce951-dab6-4441-bedf-aa080591e662","ios":"levelo://app?vid=0c5ce951-dab6-4441-bedf-aa080591e662"},"vehicle_type_id":"4","last_reported":1746094251,"current_range_meters":1600,"station_id":"ce4bgjh2rcd13ifvqbf0","pricing_plan_id":"cebpf4jnsgd1na2vs0mg"},{"bike_id":"7d073648-399d-495a-9447-a1b2b3ac41db","system_id":"levelo_inurba_marseille","lat":43.29001,"lon":5.35608,"is_reserved":false,"is_disabled":true,"rental_uris":{"android":"levelo://app?vid=7d073648-399d-495a-9447-a1b2b3ac41db","ios":"levelo://app?vid=7d073648-399d-495a-9447-a1b2b3ac41db"},"vehicle_type_id":"4","last_reported":1746094251,"current_range_meters":1600,"station_id":"ce4bhb92rcd13ifvqen0","pricing_plan_id":"cebpf4jnsgd1na2vs0mg"},{"bike_id":"e2d31b3a-c743-4405-b65a-7119f23f86fa","system_id":"levelo_inurba_marseille","lat":43.27368,"lon":5.36255,"is_reserved":false,"is_disabled":false,"rental_uris":{"android":"levelo://app?vid=e2d31b3a-c743-4405-b65a-7119f23f86fa","ios":"levelo://app?vid=e2d31b3a-c743-4405-b65a-7119f23f86fa"},"vehicle_type_id":"4","last_reported":1746094251,"current_range_meters":1600,"station_id":"ce4bhbh2rcd13ifvqeo0","pricing_plan_id":"cebpf4jnsgd1na2vs0mg"},{"bike_id":"14d2451a-edff-4bc1-a0e6-95af81a7f31e","system_id":"levelo_inurba_marseille","lat":43.2841,"lon":5.34993,"is_reserved":false,"is_disabled":true,"rental_uris":{"android":"levelo://app?vid=14d2451a-edff-4bc1-a0e6-95af81a7f31e","ios":"levelo://app?vid=14d2451a-edff-4bc1-a0e6-95af81a7f31e"},"vehicle_type_id":"4","last_reported":1746094251,"current_range_meters":2000,"station_id":"ce4bhbh2rcd13ifvqepg","pricing_plan_id":"cebpf4jnsgd1na2vs0mg"},{"bike_id":"caa3143a-602d-4b19-8e30-ecb92c0c5ed3","system_id":"levelo_inurba_marseille","lat":43.290444,"lon":5.375797,"is_reserved":false,"is_disabled":true,"rental_uris":{"android":"levelo://app?vid=caa3143a-602d-4b19-8e30-ecb92c0c5ed3","ios":"levelo://app?vid=caa3143a-602d-4b19-8e30-ecb92c0c5ed3"},"vehicle_type_id":"4","last_reported":1746094251,"current_range_meters":2000,"station_id":"ce4bhc92rcd13ifvqetg","pricing_plan_id":"cebpf4jnsgd1na2vs0mg"},{"bike_id":"e340839a-274e-4f53-a8d8-5383cab1ed04","system_id":"levelo_inurba_marseille","lat":43.27416,"lon":5.39412,"is_reserved":false,"is_disabled":true,"rental_uris":{"android":"levelo://app?vid=e340839a-274e-4f53-a8d8-5383cab1ed04","ios":"levelo://app?vid=e340839a-274e-4f53-a8d8-5383cab1ed04"},"vehicle_type_id":"4","last_reported":1746094251,"current_range_meters":2000,"station_id":"ce4bhdp2rcd13ifvqf20","pricing_plan_id":"cebpf4jnsgd1na2vs0mg"},{"bike_id":"e4c0bcf3-c30b-4d7c-827b-14bc8a1c335b","system_id":"levelo_inurba_marseille","lat":43.27952,"lon":5.4104,"is_reserved":false,"is_disabled":true,"rental_uris":{"android":"levelo://app?vid=e4c0bcf3-c30b-4d7c-827b-14bc8a1c335b","ios":"levelo://app?vid=e4c0bcf3-c30b-4d7c-827b-14bc8a1c335b"},"vehicle_type_id":"4","last_reported":1746094251,"current_range_meters":2000,"station_id":"ce4bhnp2rcd13ifvqh0g","pricing_plan_id":"cebpf4jnsgd1na2vs0mg"},{"bike_id":"1657eab5-ee7e-4168-b9d8-70537f78f976","system_id":"levelo_inurba_marseille","lat":43.31113,"lon":5.37774,"is_reserved":false,"is_disabled":false,"rental_uris":{"android":"levelo://app?vid=1657eab5-ee7e-4168-b9d8-70537f78f976","ios":"levelo://app?vid=1657eab5-ee7e-4168-b9d8-70537f78f976"},"vehicle_type_id":"4","last_reported":1746094251,"current_range_meters":2800,"station_id":"ce4bgt92rcd13ifvqcg0","pricing_plan_id":"cebpf4jnsgd1na2vs0mg"},{"bike_id":"cef35479-5fd7-45c0-8207-702c95454da5","system_id":"levelo_inurba_marseille","lat":43.30885,"lon":5.39628,"is_reserved":false,"is_disabled":false,"rental_uris":{"android":"levelo://app?vid=cef35479-5fd7-45c0-8207-702c95454da5","ios":"levelo://app?vid=cef35479-5fd7-45c0-8207-702c95454da5"},"vehicle_type_id":"4","last_reported":1746094251,"current_range_meters":2800,"station_id":"ce4bh012rcd13ifvqcv0","pricing_plan_id":"cebpf4jnsgd1na2vs0mg"},{"bike_id":"6020963d-2ff4-4bcb-9f33-dc9c5274ca07","system_id":"levelo_inurba_marseille","lat":43.31679,"lon":5.40486,"is_reserved":false,"is_disabled":false,"rental_uris":{"android":"levelo://app?vid=6020963d-2ff4-4bcb-9f33-dc9c5274ca07","ios":"levelo://app?vid=6020963d-2ff4-4bcb-9f33-dc9c5274ca07"},"vehicle_type_id":"4","last_reported":1746094251,"current_range_meters":2800,"station_id":"ce4bh012rcd13ifvqd00","pricing_plan_id":"cebpf4jnsgd1na2vs0mg"},{"bike_id":"d88aa90a-3938-4369-93c0-daf2c2c38957","system_id":"levelo_inurba_marseille","lat":43.29573,"lon":5.3997,"is_reserved":false,"is_disabled":false,"rental_uris":{"android":"levelo://app?vid=d88aa90a-3938-4369-93c0-daf2c2c38957","ios":"levelo://app?vid=d88aa90a-3938-4369-93c0-daf2c2c38957"},"vehicle_type_id":"4","last_reported":1746094251,"current_range_meters":2800,"station_id":"ce4bh312rcd13ifvqdj0","pricing_plan_id":"cebpf4jnsgd1na2vs0mg"},{"bike_id":"391a8d78-05d0-4646-a233-93b77fe2f2b7","system_id":"levelo_inurba_marseille","lat":43.29003,"lon":5.35613,"is_reserved":false,"is_disabled":false,"rental_uris":{"android":"levelo://app?vid=391a8d78-05d0-4646-a233-93b77fe2f2b7","ios":"levelo://app?vid=391a8d78-05d0-4646-a233-93b77fe2f2b7"},"vehicle_type_id":"4","last_reported":1746094251,"current_range_meters":2800,"station_id":"ce4bhb92rcd13ifvqen0","pricing_plan_id":"cebpf4jnsgd1na2vs0mg"},{"bike_id":"e06e3ad6-0e5a-49f2-98bb-d0b7ffaaf745","system_id":"levelo_inurba_marseille","lat":43.23397,"lon":5.36089,"is_reserved":false,"is_disabled":false,"rental_uris":{"android":"levelo://app?vid=e06e3ad6-0e5a-49f2-98bb-d0b7ffaaf745","ios":"levelo://app?vid=e06e3ad6-0e5a-49f2-98bb-d0b7ffaaf745"},"vehicle_type_id":"4","last_reported":1746094251,"current_range_meters":3200,"station_id":"","pricing_plan_id":"cebpf4jnsgd1na2vs0mg"},{"bike_id":"6bfc0e03-fd1e-4af1-8b66-5038dd2530cd","system_id":"levelo_inurba_marseille","lat":43.28409,"lon":5.34988,"is_reserved":false,"is_disabled":false,"rental_uris":{"android":"levelo://app?vid=6bfc0e03-fd1e-4af1-8b66-5038dd2530cd","ios":"levelo://app?vid=6bfc0e03-fd1e-4af1-8b66-5038dd2530cd"},"vehicle_type_id":"4","last_reported":1746094251,"current_range_meters":3200,"station_id":"ce4bhbh2rcd13ifvqepg","pricing_plan_id":"cebpf4jnsgd1na2vs0mg"},{"bike_id":"56bed95f-1ac9-4fa3-b906-043a59606cd4","system_id":"levelo_inurba_marseille","lat":43.2603,"lon":5.37548,"is_reserved":false,"is_disabled":false,"rental_uris":{"android":"levelo://app?vid=56bed95f-1ac9-4fa3-b906-043a59606cd4","ios":"levelo://app?vid=56bed95f-1ac9-4fa3-b906-043a59606cd4"},"vehicle_type_id":"4","last_reported":1746094251,"current_range_meters":3200,"station_id":"ce4bhgh2rcd13ifvqfa0","pricing_plan_id":"cebpf4jnsgd1na2vs0mg"},{"bike_id":"2d0fea3e-041c-4d20-aeb7-63739e3d5c27","system_id":"levelo_inurba_marseille","lat":43.30605,"lon":5.36587,"is_reserved":false,"is_disabled":false,"rental_uris":{"android":"levelo://app?vid=2d0fea3e-041c-4d20-aeb7-63739e3d5c27","ios":"levelo://app?vid=2d0fea3e-041c-4d20-aeb7-63739e3d5c27"},"vehicle_type_id":"4","last_reported":1746094251,"current_range_meters":3600,"station_id":"","pricing_plan_id":"cebpf4jnsgd1na2vs0mg"},{"bike_id":"cf94e6df-851d-4f1a-a8d6-f17d7b8b3f1e","system_id":"levelo_inurba_marseille","lat":43.2978,"lon":5.37102,"is_reserved":false,"is_disabled":false,"rental_uris":{"android":"levelo://app?vid=cf94e6df-851d-4f1a-a8d6-f17d7b8b3f1e","ios":"levelo://app?vid=cf94e6df-851d-4f1a-a8d6-f17d7b8b3f1e"},"vehicle_type_id":"4","last_reported":1746094251,"current_range_meters":3600,"station_id":"ce4bgop2rcd13ifvqc1g","pricing_plan_id":"cebpf4jnsgd1na2vs0mg"},{"bike_id":"4be347d7-271c-49b3-949b-f198f2934a1a","system_id":"levelo_inurba_marseille","lat":43.26211,"lon":5.37441,"is_reserved":false,"is_disabled":false,"rental_uris":{"android":"levelo://app?vid=4be347d7-271c-49b3-949b-f198f2934a1a","ios":"levelo://app?vid=4be347d7-271c-49b3-949b-f198f2934a1a"},"vehicle_type_id":"4","last_reported":1746094251,"current_range_meters":3600,"station_id":"ce4bhgp2rcd13ifvqfc0","pricing_plan_id":"cebpf4jnsgd1na2vs0mg"},{"bike_id":"323095e6-8798-42da-9c92-f032214ad049","system_id":"levelo_inurba_marseille","lat":43.23177,"lon":5.39995,"is_reserved":false,"is_disabled":false,"rental_uris":{"android":"levelo://app?vid=323095e6-8798-42da-9c92-f032214ad049","ios":"levelo://app?vid=323095e6-8798-42da-9c92-f032214ad049"},"vehicle_type_id":"4","last_reported":1746094251,"current_range_meters":3600,"station_id":"ce4bhn12rcd13ifvqgqg","pricing_plan_id":"cebpf4jnsgd1na2vs0mg"},{"bike_id":"b0c378a9-440c-4736-aca3-cfc637c9e394","system_id":"levelo_inurba_marseille","lat":43.265739,"lon":5.372904,"is_reserved":false,"is_disabled":false,"rental_uris":{"android":"levelo://app?vid=b0c378a9-440c-4736-aca3-cfc637c9e394","ios":"levelo://app?vid=b0c378a9-440c-4736-aca3-cfc637c9e394"},"vehicle_type_id":"4","last_reported":1746094251,"current_range_meters":4000,"station_id":"","pricing_plan_id":"cebpf4jnsgd1na2vs0mg"},{"bike_id":"4578fafa-a7c1-4051-91b2-dac7f838ceb0","system_id":"levelo_inurba_marseille","lat":43.28421,"lon":5.34986,"is_reserved":false,"is_disabled":false,"rental_uris":{"android":"levelo://app?vid=4578fafa-a7c1-4051-91b2-dac7f838ceb0","ios":"levelo://app?vid=4578fafa-a7c1-4051-91b2-dac7f838ceb0"},"vehicle_type_id":"4","last_reported":1746094251,"current_range_meters":4800,"station_id":"ce4bhbh2rcd13ifvqepg","pricing_plan_id":"cebpf4jnsgd1na2vs0mg"},{"bike_id":"7fca455a-6eca-4faa-b0d9-8cc698bdf095","system_id":"levelo_inurba_marseille","lat":43.315338,"lon":5.380287,"is_reserved":false,"is_disabled":false,"rental_uris":{"android":"levelo://app?vid=7fca455a-6eca-4faa-b0d9-8cc698bdf095","ios":"levelo://app?vid=7fca455a-6eca-4faa-b0d9-8cc698bdf095"},"vehicle_type_id":"4","last_reported":1746094251,"current_range_meters":4800,"station_id":"ce4bhsp2rcd13ifvqi50","pricing_plan_id":"cebpf4jnsgd1na2vs0mg"},{"bike_id":"3c51200c-0f23-499c-aef9-9d47e698a558","system_id":"levelo_inurba_marseille","lat":43.276963,"lon":5.35737,"is_reserved":false,"is_disabled":false,"rental_uris":{"android":"levelo://app?vid=3c51200c-0f23-499c-aef9-9d47e698a558","ios":"levelo://app?vid=3c51200c-0f23-499c-aef9-9d47e698a558"},"vehicle_type_id":"4","last_reported":1746094251,"current_range_meters":5600,"station_id":"","pricing_plan_id":"cebpf4jnsgd1na2vs0mg"},{"bike_id":"18e5551b-ea9a-4429-bec9-ca557dee947d","system_id":"levelo_inurba_marseille","lat":43.2572,"lon":5.41098,"is_reserved":false,"is_disabled":false,"rental_uris":{"android":"levelo://app?vid=18e5551b-ea9a-4429-bec9-ca557dee947d","ios":"levelo://app?vid=18e5551b-ea9a-4429-bec9-ca557dee947d"},"vehicle_type_id":"4","last_reported":1746094251,"current_range_meters":5600,"station_id":"ce4bhkp2rcd13ifvqgd0","pricing_plan_id":"cebpf4jnsgd1na2vs0mg"},{"bike_id":"00b2317b-6a33-40ee-b0ce-b84e9d1fb715","system_id":"levelo_inurba_marseille","lat":43.26196,"lon":5.37939,"is_reserved":false,"is_disabled":false,"rental_uris":{"android":"levelo://app?vid=00b2317b-6a33-40ee-b0ce-b84e9d1fb715","ios":"levelo://app?vid=00b2317b-6a33-40ee-b0ce-b84e9d1fb715"},"vehicle_type_id":"4","last_reported":1746094251,"current_range_meters":6000,"station_id":"ce4bhjp2rcd13ifvqg90","pricing_plan_id":"cebpf4jnsgd1na2vs0mg"},{"bike_id":"489415b8-9254-45c1-b00c-e7554d56755c","system_id":"levelo_inurba_marseille","lat":43.2457,"lon":5.41175,"is_reserved":false,"is_disabled":false,"rental_uris":{"android":"levelo://app?vid=489415b8-9254-45c1-b00c-e7554d56755c","ios":"levelo://app?vid=489415b8-9254-45c1-b00c-e7554d56755c"},"vehicle_type_id":"4","last_reported":1746094251,"current_range_meters":6400,"station_id":"","pricing_plan_id":"cebpf4jnsgd1na2vs0mg"},{"bike_id":"90843883-b654-4d95-896f-a998799d268c","system_id":"levelo_inurba_marseille","lat":43.29538,"lon":5.37498,"is_reserved":false,"is_disabled":false,"rental_uris":{"android":"levelo://app?vid=90843883-b654-4d95-896f-a998799d268c","ios":"levelo://app?vid=90843883-b654-4d95-896f-a998799d268c"},"vehicle_type_id":"4","last_reported":1746094251,"current_range_meters":6400,"station_id":"ce4bgkp2rcd13ifvqbmg","pricing_plan_id":"cebpf4jnsgd1na2vs0mg"},{"bike_id":"fa93aa0a-05d0-424e-b547-8e86e18bee2a","system_id":"levelo_inurba_marseille","lat":43.26193,"lon":5.37928,"is_reserved":false,"is_disabled":false,"rental_uris":{"android":"levelo://app?vid=fa93aa0a-05d0-424e-b547-8e86e18bee2a","ios":"levelo://app?vid=fa93aa0a-05d0-424e-b547-8e86e18bee2a"},"vehicle_type_id":"4","last_reported":1746094251,"current_range_meters":6400,"station_id":"ce4bhjp2rcd13ifvqg90","pricing_plan_id":"cebpf4jnsgd1na2vs0mg"},{"bike_id":"07edfd45-c3fa-4b57-b865-cf1bf9963264","system_id":"levelo_inurba_marseille","lat":43.233878,"lon":5.364163,"is_reserved":false,"is_disabled":false,"rental_uris":{"android":"levelo://app?vid=07edfd45-c3fa-4b57-b865-cf1bf9963264","ios":"levelo://app?vid=07edfd45-c3fa-4b57-b865-cf1bf9963264"},"vehicle_type_id":"4","last_reported":1746094251,"current_range_meters":6800,"station_id":"","pricing_plan_id":"cebpf4jnsgd1na2vs0mg"},{"bike_id":"65af32e3-5b11-4551-8dc5-d25e120f998b","system_id":"levelo_inurba_marseille","lat":43.27365,"lon":5.36263,"is_reserved":false,"is_disabled":false,"rental_uris":{"android":"levelo://app?vid=65af32e3-5b11-4551-8dc5-d25e120f998b","ios":"levelo://app?vid=65af32e3-5b11-4551-8dc5-d25e120f998b"},"vehicle_type_id":"4","last_reported":1746094251,"current_range_meters":6800,"station_id":"ce4bhbh2rcd13ifvqeo0","pricing_plan_id":"cebpf4jnsgd1na2vs0mg"},{"bike_id":"c11fa232-d7c9-4bd2-a73d-e6aa42607093","system_id":"levelo_inurba_marseille","lat":43.26026,"lon":5.37548,"is_reserved":false,"is_disabled":false,"rental_uris":{"android":"levelo://app?vid=c11fa232-d7c9-4bd2-a73d-e6aa42607093","ios":"levelo://app?vid=c11fa232-d7c9-4bd2-a73d-e6aa42607093"},"vehicle_type_id":"4","last_reported":1746094251,"current_range_meters":6800,"station_id":"ce4bhgh2rcd13ifvqfa0","pricing_plan_id":"cebpf4jnsgd1na2vs0mg"},{"bike_id":"1afd5452-4a57-46ff-a3d1-33f6beb2af26","system_id":"levelo_inurba_marseille","lat":43.25494,"lon":5.37647,"is_reserved":false,"is_disabled":false,"rental_uris":{"android":"levelo://app?vid=1afd5452-4a57-46ff-a3d1-33f6beb2af26","ios":"levelo://app?vid=1afd5452-4a57-46ff-a3d1-33f6beb2af26"},"vehicle_type_id":"4","last_reported":1746094251,"current_range_meters":6800,"station_id":"ce4bhh12rcd13ifvqff0","pricing_plan_id":"cebpf4jnsgd1na2vs0mg"},{"bike_id":"c5686b4c-d5aa-4106-8424-febe212b0d8e","system_id":"levelo_inurba_marseille","lat":43.27564,"lon":5.38415,"is_reserved":false,"is_disabled":false,"rental_uris":{"android":"levelo://app?vid=c5686b4c-d5aa-4106-8424-febe212b0d8e","ios":"levelo://app?vid=c5686b4c-d5aa-4106-8424-febe212b0d8e"},"vehicle_type_id":"4","last_reported":1746094251,"current_range_meters":6800,"station_id":"ce4bhh92rcd13ifvqfi0","pricing_plan_id":"cebpf4jnsgd1na2vs0mg"},{"bike_id":"066a29f0-4e67-4977-ad38-33ca6a311375","system_id":"levelo_inurba_marseille","lat":43.231505,"lon":5.43716,"is_reserved":false,"is_disabled":false,"rental_uris":{"android":"levelo://app?vid=066a29f0-4e67-4977-ad38-33ca6a311375","ios":"levelo://app?vid=066a29f0-4e67-4977-ad38-33ca6a311375"},"vehicle_type_id":"4","last_reported":1746094251,"current_range_meters":6800,"station_id":"ce4bhmp2rcd13ifvqgog","pricing_plan_id":"cebpf4jnsgd1na2vs0mg"},{"bike_id":"ab6cc9c9-69c8-48cc-bcbd-c9541d1c7966","system_id":"levelo_inurba_marseille","lat":43.29718,"lon":5.4014,"is_reserved":false,"is_disabled":false,"rental_uris":{"android":"levelo://app?vid=ab6cc9c9-69c8-48cc-bcbd-c9541d1c7966","ios":"levelo://app?vid=ab6cc9c9-69c8-48cc-bcbd-c9541d1c7966"},"vehicle_type_id":"4","last_reported":1746094251,"current_range_meters":7200,"station_id":"","pricing_plan_id":"cebpf4jnsgd1na2vs0mg"},{"bike_id":"93a76fe1-7b9f-4413-9579-5c78217729c7","system_id":"levelo_inurba_marseille","lat":43.28413,"lon":5.34979,"is_reserved":false,"is_disabled":false,"rental_uris":{"android":"levelo://app?vid=93a76fe1-7b9f-4413-9579-5c78217729c7","ios":"levelo://app?vid=93a76fe1-7b9f-4413-9579-5c78217729c7"},"vehicle_type_id":"4","last_reported":1746094251,"current_range_meters":7200,"station_id":"ce4bhbh2rcd13ifvqepg","pricing_plan_id":"cebpf4jnsgd1na2vs0mg"},{"bike_id":"defb834a-ab2a-4540-b75e-cca341a78955","system_id":"levelo_inurba_marseille","lat":43.2315,"lon":5.43708,"is_reserved":false,"is_disabled":false,"rental_uris":{"android":"levelo://app?vid=defb834a-ab2a-4540-b75e-cca341a78955","ios":"levelo://app?vid=defb834a-ab2a-4540-b75e-cca341a78955"},"vehicle_type_id":"4","last_reported":1746094251,"current_range_meters":7200,"station_id":"ce4bhmp2rcd13ifvqgog","pricing_plan_id":"cebpf4jnsgd1na2vs0mg"},{"bike_id":"f7d6b441-9255-43f4-80d9-2ffc8ce4a29d","system_id":"levelo_inurba_marseille","lat":43.27378,"lon":5.36264,"is_reserved":false,"is_disabled":false,"rental_uris":{"android":"levelo://app?vid=f7d6b441-9255-43f4-80d9-2ffc8ce4a29d","ios":"levelo://app?vid=f7d6b441-9255-43f4-80d9-2ffc8ce4a29d"},"vehicle_type_id":"4","last_reported":1746094251,"current_range_meters":8000,"station_id":"ce4bhbh2rcd13ifvqeo0","pricing_plan_id":"cebpf4jnsgd1na2vs0mg"},{"bike_id":"d75dcfaf-3459-4020-a2bd-d30c23dc1fd2","system_id":"levelo_inurba_marseille","lat":43.27371,"lon":5.36256,"is_reserved":false,"is_disabled":false,"rental_uris":{"android":"levelo://app?vid=d75dcfaf-3459-4020-a2bd-d30c23dc1fd2","ios":"levelo://app?vid=d75dcfaf-3459-4020-a2bd-d30c23dc1fd2"},"vehicle_type_id":"4","last_reported":1746094251,"current_range_meters":8000,"station_id":"ce4bhbh2rcd13ifvqeo0","pricing_plan_id":"cebpf4jnsgd1na2vs0mg"},{"bike_id":"adee1e3f-cced-432e-b29f-b08383d1c7a5","system_id":"levelo_inurba_marseille","lat":43.24811,"lon":5.37455,"is_reserved":false,"is_disabled":false,"rental_uris":{"android":"levelo://app?vid=adee1e3f-cced-432e-b29f-b08383d1c7a5","ios":"levelo://app?vid=adee1e3f-cced-432e-b29f-b08383d1c7a5"},"vehicle_type_id":"4","last_reported":1746094251,"current_range_meters":8000,"station_id":"ce4bhgh2rcd13ifvqfb0","pricing_plan_id":"cebpf4jnsgd1na2vs0mg"},{"bike_id":"ed89d67a-a922-469b-bbdc-d437af27a591","system_id":"levelo_inurba_marseille","lat":43.25936,"lon":5.4088,"is_reserved":false,"is_disabled":false,"rental_uris":{"android":"levelo://app?vid=ed89d67a-a922-469b-bbdc-d437af27a591","ios":"levelo://app?vid=ed89d67a-a922-469b-bbdc-d437af27a591"},"vehicle_type_id":"4","last_reported":1746094251,"current_range_meters":8000,"station_id":"ce4bhm92rcd13ifvqglg","pricing_plan_id":"cebpf4jnsgd1na2vs0mg"},{"bike_id":"2c29fed6-449b-4a2c-8146-5a48dbc29614","system_id":"levelo_inurba_marseille","lat":43.23144,"lon":5.43705,"is_reserved":false,"is_disabled":false,"rental_uris":{"android":"levelo://app?vid=2c29fed6-449b-4a2c-8146-5a48dbc29614","ios":"levelo://app?vid=2c29fed6-449b-4a2c-8146-5a48dbc29614"},"vehicle_type_id":"4","last_reported":1746094251,"current_range_meters":8000,"station_id":"ce4bhmp2rcd13ifvqgog","pricing_plan_id":"cebpf4jnsgd1na2vs0mg"},{"bike_id":"bb2034db-3c35-433a-a976-fae99769e7e7","system_id":"levelo_inurba_marseille","lat":43.336088,"lon":5.410398,"is_reserved":false,"is_disabled":false,"rental_uris":{"android":"levelo://app?vid=bb2034db-3c35-433a-a976-fae99769e7e7","ios":"levelo://app?vid=bb2034db-3c35-433a-a976-fae99769e7e7"},"vehicle_type_id":"4","last_reported":1746094251,"current_range_meters":8000,"station_id":"ce4bhqh2rcd13ifvqhmg","pricing_plan_id":"cebpf4jnsgd1na2vs0mg"},{"bike_id":"59af6c2f-0c8e-422a-95c5-71852a400bc7","system_id":"levelo_inurba_marseille","lat":43.23064,"lon":5.35489,"is_reserved":false,"is_disabled":false,"rental_uris":{"android":"levelo://app?vid=59af6c2f-0c8e-422a-95c5-71852a400bc7","ios":"levelo://app?vid=59af6c2f-0c8e-422a-95c5-71852a400bc7"},"vehicle_type_id":"4","last_reported":1746094251,"current_range_meters":8000,"station_id":"cpo3342slgdg3j2ifvpg","pricing_plan_id":"cebpf4jnsgd1na2vs0mg"},{"bike_id":"811b5129-6c77-4114-b4ef-a2261dadc99f","system_id":"levelo_inurba_marseille","lat":43.22937,"lon":5.353516,"is_reserved":false,"is_disabled":false,"rental_uris":{"android":"levelo://app?vid=811b5129-6c77-4114-b4ef-a2261dadc99f","ios":"levelo://app?vid=811b5129-6c77-4114-b4ef-a2261dadc99f"},"vehicle_type_id":"4","last_reported":1746094251,"current_range_meters":8400,"station_id":"","pricing_plan_id":"cebpf4jnsgd1na2vs0mg"},{"bike_id":"3a6bed13-1a34-48f0-b750-0a5a4674ee4d","system_id":"levelo_inurba_marseille","lat":43.30116,"lon":5.383807,"is_reserved":false,"is_disabled":false,"rental_uris":{"android":"levelo://app?vid=3a6bed13-1a34-48f0-b750-0a5a4674ee4d","ios":"levelo://app?vid=3a6bed13-1a34-48f0-b750-0a5a4674ee4d"},"vehicle_type_id":"4","last_reported":1746094251,"current_range_meters":8400,"station_id":"","pricing_plan_id":"cebpf4jnsgd1na2vs0mg"},{"bike_id":"b843346b-ea63-41d5-a881-36cbf5ad64fe","system_id":"levelo_inurba_marseille","lat":43.27377,"lon":5.36252,"is_reserved":false,"is_disabled":false,"rental_uris":{"android":"levelo://app?vid=b843346b-ea63-41d5-a881-36cbf5ad64fe","ios":"levelo://app?vid=b843346b-ea63-41d5-a881-36cbf5ad64fe"},"vehicle_type_id":"4","last_reported":1746094251,"current_range_meters":8400,"station_id":"ce4bhbh2rcd13ifvqeo0","pricing_plan_id":"cebpf4jnsgd1na2vs0mg"},{"bike_id":"92d5d07d-780c-4686-b58c-f4448dd500fb","system_id":"levelo_inurba_marseille","lat":43.261993,"lon":5.3793,"is_reserved":false,"is_disabled":false,"rental_uris":{"android":"levelo://app?vid=92d5d07d-780c-4686-b58c-f4448dd500fb","ios":"levelo://app?vid=92d5d07d-780c-4686-b58c-f4448dd500fb"},"vehicle_type_id":"4","last_reported":1746094251,"current_range_meters":8400,"station_id":"ce4bhjp2rcd13ifvqg90","pricing_plan_id":"cebpf4jnsgd1na2vs0mg"},{"bike_id":"fa3051f3-dd02-4d9a-9d39-66257474a468","system_id":"levelo_inurba_marseille","lat":43.229248,"lon":5.353732,"is_reserved":false,"is_disabled":false,"rental_uris":{"android":"levelo://app?vid=fa3051f3-dd02-4d9a-9d39-66257474a468","ios":"levelo://app?vid=fa3051f3-dd02-4d9a-9d39-66257474a468"},"vehicle_type_id":"4","last_reported":1746094251,"current_range_meters":8400,"station_id":"cpo3532slgdg3j2ikp40","pricing_plan_id":"cebpf4jnsgd1na2vs0mg"},{"bike_id":"88108ce5-6cc3-4e69-aa28-6ef0ad82f3cf","system_id":"levelo_inurba_marseille","lat":43.22505,"lon":5.34791,"is_reserved":false,"is_disabled":false,"rental_uris":{"android":"levelo://app?vid=88108ce5-6cc3-4e69-aa28-6ef0ad82f3cf","ios":"levelo://app?vid=88108ce5-6cc3-4e69-aa28-6ef0ad82f3cf"},"vehicle_type_id":"4","last_reported":1746094251,"current_range_meters":8400,"station_id":"st_cvj5dfep6f1abm77gieg","pricing_plan_id":"cebpf4jnsgd1na2vs0mg"},{"bike_id":"2b61497a-a801-4575-83bd-f87826c5dbf6","system_id":"levelo_inurba_marseille","lat":43.2119,"lon":5.35073,"is_reserved":false,"is_disabled":false,"rental_uris":{"android":"levelo://app?vid=2b61497a-a801-4575-83bd-f87826c5dbf6","ios":"levelo://app?vid=2b61497a-a801-4575-83bd-f87826c5dbf6"},"vehicle_type_id":"4","last_reported":1746094251,"current_range_meters":8400,"station_id":"st_cvj6sg6p6f1abm77japg","pricing_plan_id":"cebpf4jnsgd1na2vs0mg"},{"bike_id":"1648828d-c8c9-45bd-8013-cec4665b40ff","system_id":"levelo_inurba_marseille","lat":43.29502,"lon":5.37395,"is_reserved":false,"is_disabled":false,"rental_uris":{"android":"levelo://app?vid=1648828d-c8c9-45bd-8013-cec4665b40ff","ios":"levelo://app?vid=1648828d-c8c9-45bd-8013-cec4665b40ff"},"vehicle_type_id":"4","last_reported":1746094251,"current_range_meters":8800,"station_id":"","pricing_plan_id":"cebpf4jnsgd1na2vs0mg"},{"bike_id":"e5e92a64-e709-4b1a-a9b1-cbffe85789ca","system_id":"levelo_inurba_marseille","lat":43.255421,"lon":5.381444,"is_reserved":false,"is_disabled":false,"rental_uris":{"android":"levelo://app?vid=e5e92a64-e709-4b1a-a9b1-cbffe85789ca","ios":"levelo://app?vid=e5e92a64-e709-4b1a-a9b1-cbffe85789ca"},"vehicle_type_id":"4","last_reported":1746094251,"current_range_meters":8800,"station_id":"","pricing_plan_id":"cebpf4jnsgd1na2vs0mg"},{"bike_id":"0458560d-c954-4ac9-bcec-241d0a54d60f","system_id":"levelo_inurba_marseille","lat":43.32354,"lon":5.38897,"is_reserved":false,"is_disabled":false,"rental_uris":{"android":"levelo://app?vid=0458560d-c954-4ac9-bcec-241d0a54d60f","ios":"levelo://app?vid=0458560d-c954-4ac9-bcec-241d0a54d60f"},"vehicle_type_id":"4","last_reported":1746094251,"current_range_meters":8800,"station_id":"ce4bhqp2rcd13ifvqhog","pricing_plan_id":"cebpf4jnsgd1na2vs0mg"},{"bike_id":"405fa080-f811-46f3-8582-d87d58738f3b","system_id":"levelo_inurba_marseille","lat":43.257136,"lon":5.418106,"is_reserved":false,"is_disabled":false,"rental_uris":{"android":"levelo://app?vid=405fa080-f811-46f3-8582-d87d58738f3b","ios":"levelo://app?vid=405fa080-f811-46f3-8582-d87d58738f3b"},"vehicle_type_id":"4","last_reported":1746094251,"current_range_meters":9200,"station_id":"","pricing_plan_id":"cebpf4jnsgd1na2vs0mg"},{"bike_id":"b6470db4-6671-428d-ac42-2872a3405b9a","system_id":"levelo_inurba_marseille","lat":43.2962,"lon":5.37161,"is_reserved":false,"is_disabled":false,"rental_uris":{"android":"levelo://app?vid=b6470db4-6671-428d-ac42-2872a3405b9a","ios":"levelo://app?vid=b6470db4-6671-428d-ac42-2872a3405b9a"},"vehicle_type_id":"4","last_reported":1746094251,"current_range_meters":9200,"station_id":"ce4bgnh2rcd13ifvqc0g","pricing_plan_id":"cebpf4jnsgd1na2vs0mg"},{"bike_id":"f6e21050-79d7-44f6-985b-703e4d49356c","system_id":"levelo_inurba_marseille","lat":43.273707,"lon":5.362583,"is_reserved":false,"is_disabled":false,"rental_uris":{"android":"levelo://app?vid=f6e21050-79d7-44f6-985b-703e4d49356c","ios":"levelo://app?vid=f6e21050-79d7-44f6-985b-703e4d49356c"},"vehicle_type_id":"4","last_reported":1746094251,"current_range_meters":9200,"station_id":"ce4bhbh2rcd13ifvqeo0","pricing_plan_id":"cebpf4jnsgd1na2vs0mg"},{"bike_id":"607661f6-961a-4c6d-a7ba-a14be9045d0d","system_id":"levelo_inurba_marseille","lat":43.24806,"lon":5.37463,"is_reserved":false,"is_disabled":false,"rental_uris":{"android":"levelo://app?vid=607661f6-961a-4c6d-a7ba-a14be9045d0d","ios":"levelo://app?vid=607661f6-961a-4c6d-a7ba-a14be9045d0d"},"vehicle_type_id":"4","last_reported":1746094251,"current_range_meters":9200,"station_id":"ce4bhgh2rcd13ifvqfb0","pricing_plan_id":"cebpf4jnsgd1na2vs0mg"},{"bike_id":"fa0013e1-384c-4a43-9dc8-c63fff3d2b7e","system_id":"levelo_inurba_marseille","lat":43.23179,"lon":5.39985,"is_reserved":false,"is_disabled":false,"rental_uris":{"android":"levelo://app?vid=fa0013e1-384c-4a43-9dc8-c63fff3d2b7e","ios":"levelo://app?vid=fa0013e1-384c-4a43-9dc8-c63fff3d2b7e"},"vehicle_type_id":"4","last_reported":1746094251,"current_range_meters":9200,"station_id":"ce4bhn12rcd13ifvqgqg","pricing_plan_id":"cebpf4jnsgd1na2vs0mg"},{"bike_id":"fca9dc8b-9c20-4eab-83ff-17d0ce9a6922","system_id":"levelo_inurba_marseille","lat":43.26022,"lon":5.41745,"is_reserved":false,"is_disabled":false,"rental_uris":{"android":"levelo://app?vid=fca9dc8b-9c20-4eab-83ff-17d0ce9a6922","ios":"levelo://app?vid=fca9dc8b-9c20-4eab-83ff-17d0ce9a6922"},"vehicle_type_id":"4","last_reported":1746094251,"current_range_meters":9600,"station_id":"","pricing_plan_id":"cebpf4jnsgd1na2vs0mg"},{"bike_id":"379b8933-bc6e-4164-9d36-daaf2941e50f","system_id":"levelo_inurba_marseille","lat":43.30774,"lon":5.37483,"is_reserved":false,"is_disabled":false,"rental_uris":{"android":"levelo://app?vid=379b8933-bc6e-4164-9d36-daaf2941e50f","ios":"levelo://app?vid=379b8933-bc6e-4164-9d36-daaf2941e50f"},"vehicle_type_id":"4","last_reported":1746094251,"current_range_meters":9600,"station_id":"","pricing_plan_id":"cebpf4jnsgd1na2vs0mg"},{"bike_id":"964d5cba-c592-41c0-9dcc-3fe22502149b","system_id":"levelo_inurba_marseille","lat":43.23959,"lon":5.36622,"is_reserved":false,"is_disabled":false,"rental_uris":{"android":"levelo://app?vid=964d5cba-c592-41c0-9dcc-3fe22502149b","ios":"levelo://app?vid=964d5cba-c592-41c0-9dcc-3fe22502149b"},"vehicle_type_id":"4","last_reported":1746094251,"current_range_meters":9600,"station_id":"ce4bhi12rcd13ifvqfp0","pricing_plan_id":"cebpf4jnsgd1na2vs0mg"},{"bike_id":"a076933d-3a98-414c-b7e5-30c1a775a06f","system_id":"levelo_inurba_marseille","lat":43.31377,"lon":5.3909,"is_reserved":false,"is_disabled":false,"rental_uris":{"android":"levelo://app?vid=a076933d-3a98-414c-b7e5-30c1a775a06f","ios":"levelo://app?vid=a076933d-3a98-414c-b7e5-30c1a775a06f"},"vehicle_type_id":"4","last_reported":1746094251,"current_range_meters":10000,"station_id":"","pricing_plan_id":"cebpf4jnsgd1na2vs0mg"},{"bike_id":"ccfc4022-7c99-47b4-85a0-8bf95bcf0cca","system_id":"levelo_inurba_marseille","lat":43.27618,"lon":5.36109,"is_reserved":false,"is_disabled":false,"rental_uris":{"android":"levelo://app?vid=ccfc4022-7c99-47b4-85a0-8bf95bcf0cca","ios":"levelo://app?vid=ccfc4022-7c99-47b4-85a0-8bf95bcf0cca"},"vehicle_type_id":"4","last_reported":1746094251,"current_range_meters":10000,"station_id":"ce4bgj92rcd13ifvqbe0","pricing_plan_id":"cebpf4jnsgd1na2vs0mg"},{"bike_id":"ff5f9ba0-94d0-426e-b3b9-206f898069a1","system_id":"levelo_inurba_marseille","lat":43.2318,"lon":5.39986,"is_reserved":false,"is_disabled":false,"rental_uris":{"android":"levelo://app?vid=ff5f9ba0-94d0-426e-b3b9-206f898069a1","ios":"levelo://app?vid=ff5f9ba0-94d0-426e-b3b9-206f898069a1"},"vehicle_type_id":"4","last_reported":1746094251,"current_range_meters":10000,"station_id":"ce4bhn12rcd13ifvqgqg","pricing_plan_id":"cebpf4jnsgd1na2vs0mg"},{"bike_id":"3716d17a-c495-4731-a70d-6de7f12ecef0","system_id":"levelo_inurba_marseille","lat":43.32368,"lon":5.38887,"is_reserved":false,"is_disabled":false,"rental_uris":{"android":"levelo://app?vid=3716d17a-c495-4731-a70d-6de7f12ecef0","ios":"levelo://app?vid=3716d17a-c495-4731-a70d-6de7f12ecef0"},"vehicle_type_id":"4","last_reported":1746094251,"current_range_meters":10000,"station_id":"ce4bhqp2rcd13ifvqhog","pricing_plan_id":"cebpf4jnsgd1na2vs0mg"},{"bike_id":"5247e975-f8f6-4b41-ba9f-efa8aa432eaa","system_id":"levelo_inurba_marseille","lat":43.2175,"lon":5.34588,"is_reserved":false,"is_disabled":false,"rental_uris":{"android":"levelo://app?vid=5247e975-f8f6-4b41-ba9f-efa8aa432eaa","ios":"levelo://app?vid=5247e975-f8f6-4b41-ba9f-efa8aa432eaa"},"vehicle_type_id":"4","last_reported":1746094251,"current_range_meters":10000,"station_id":"st_cvj6r9ubvosntc0bgbag","pricing_plan_id":"cebpf4jnsgd1na2vs0mg"},{"bike_id":"ebccb26d-3ec0-4d43-ad0f-ffba41789756","system_id":"levelo_inurba_marseille","lat":43.25481,"lon":5.37657,"is_reserved":false,"is_disabled":false,"rental_uris":{"android":"levelo://app?vid=ebccb26d-3ec0-4d43-ad0f-ffba41789756","ios":"levelo://app?vid=ebccb26d-3ec0-4d43-ad0f-ffba41789756"},"vehicle_type_id":"4","last_reported":1746094251,"current_range_meters":10800,"station_id":"ce4bhh12rcd13ifvqff0","pricing_plan_id":"cebpf4jnsgd1na2vs0mg"},{"bike_id":"e1793f1e-a94b-46e8-96d1-06b7e46648a8","system_id":"levelo_inurba_marseille","lat":43.32366,"lon":5.38887,"is_reserved":false,"is_disabled":false,"rental_uris":{"android":"levelo://app?vid=e1793f1e-a94b-46e8-96d1-06b7e46648a8","ios":"levelo://app?vid=e1793f1e-a94b-46e8-96d1-06b7e46648a8"},"vehicle_type_id":"4","last_reported":1746094251,"current_range_meters":10800,"station_id":"ce4bhqp2rcd13ifvqhog","pricing_plan_id":"cebpf4jnsgd1na2vs0mg"},{"bike_id":"42979274-76ae-42a2-b009-8dde9f74aa65","system_id":"levelo_inurba_marseille","lat":43.33039,"lon":5.39034,"is_reserved":false,"is_disabled":false,"rental_uris":{"android":"levelo://app?vid=42979274-76ae-42a2-b009-8dde9f74aa65","ios":"levelo://app?vid=42979274-76ae-42a2-b009-8dde9f74aa65"},"vehicle_type_id":"4","last_reported":1746094251,"current_range_meters":10800,"station_id":"ce4bhr92rcd13ifvqhrg","pricing_plan_id":"cebpf4jnsgd1na2vs0mg"},{"bike_id":"042c4c71-e1ce-4750-b447-ddf1317c5423","system_id":"levelo_inurba_marseille","lat":43.24171,"lon":5.36391,"is_reserved":false,"is_disabled":false,"rental_uris":{"android":"levelo://app?vid=042c4c71-e1ce-4750-b447-ddf1317c5423","ios":"levelo://app?vid=042c4c71-e1ce-4750-b447-ddf1317c5423"},"vehicle_type_id":"4","last_reported":1746094251,"current_range_meters":10800,"station_id":"cpo36qri1sfpv3e86is0","pricing_plan_id":"cebpf4jnsgd1na2vs0mg"},{"bike_id":"15ed00fc-3b01-4b9b-8e6c-32067a90b2b0","system_id":"levelo_inurba_marseille","lat":43.23965,"lon":5.3663,"is_reserved":false,"is_disabled":false,"rental_uris":{"android":"levelo://app?vid=15ed00fc-3b01-4b9b-8e6c-32067a90b2b0","ios":"levelo://app?vid=15ed00fc-3b01-4b9b-8e6c-32067a90b2b0"},"vehicle_type_id":"4","last_reported":1746094251,"current_range_meters":11200,"station_id":"ce4bhi12rcd13ifvqfp0","pricing_plan_id":"cebpf4jnsgd1na2vs0mg"},{"bike_id":"9e43dbdf-97fd-4e0b-8659-76c0eeecf214","system_id":"levelo_inurba_marseille","lat":43.25727,"lon":5.41108,"is_reserved":false,"is_disabled":false,"rental_uris":{"android":"levelo://app?vid=9e43dbdf-97fd-4e0b-8659-76c0eeecf214","ios":"levelo://app?vid=9e43dbdf-97fd-4e0b-8659-76c0eeecf214"},"vehicle_type_id":"4","last_reported":1746094251,"current_range_meters":11200,"station_id":"ce4bhkp2rcd13ifvqgd0","pricing_plan_id":"cebpf4jnsgd1na2vs0mg"},{"bike_id":"a732b3d6-472a-46b2-b5fc-7d86a14ed2fc","system_id":"levelo_inurba_marseille","lat":43.33046,"lon":5.39027,"is_reserved":false,"is_disabled":false,"rental_uris":{"android":"levelo://app?vid=a732b3d6-472a-46b2-b5fc-7d86a14ed2fc","ios":"levelo://app?vid=a732b3d6-472a-46b2-b5fc-7d86a14ed2fc"},"vehicle_type_id":"4","last_reported":1746094251,"current_range_meters":11600,"station_id":"ce4bhr92rcd13ifvqhrg","pricing_plan_id":"cebpf4jnsgd1na2vs0mg"},{"bike_id":"792acaca-4671-4fe4-868e-07df654d917d","system_id":"levelo_inurba_marseille","lat":43.23195,"lon":5.35552,"is_reserved":false,"is_disabled":false,"rental_uris":{"android":"levelo://app?vid=792acaca-4671-4fe4-868e-07df654d917d","ios":"levelo://app?vid=792acaca-4671-4fe4-868e-07df654d917d"},"vehicle_type_id":"4","last_reported":1746094251,"current_range_meters":11600,"station_id":"ce4bhu92rcd13ifvqi70","pricing_plan_id":"cebpf4jnsgd1na2vs0mg"},{"bike_id":"0336bf1e-0870-44a5-a3e0-e3c3acef88ff","system_id":"levelo_inurba_marseille","lat":43.28859,"lon":5.35859,"is_reserved":false,"is_disabled":false,"rental_uris":{"android":"levelo://app?vid=0336bf1e-0870-44a5-a3e0-e3c3acef88ff","ios":"levelo://app?vid=0336bf1e-0870-44a5-a3e0-e3c3acef88ff"},"vehicle_type_id":"4","last_reported":1746094251,"current_range_meters":12000,"station_id":"ce4bhb12rcd13ifvqem0","pricing_plan_id":"cebpf4jnsgd1na2vs0mg"},{"bike_id":"5854b493-3cc1-4406-90b9-4c3d0d4f00bd","system_id":"levelo_inurba_marseille","lat":43.27372,"lon":5.36259,"is_reserved":false,"is_disabled":false,"rental_uris":{"android":"levelo://app?vid=5854b493-3cc1-4406-90b9-4c3d0d4f00bd","ios":"levelo://app?vid=5854b493-3cc1-4406-90b9-4c3d0d4f00bd"},"vehicle_type_id":"4","last_reported":1746094251,"current_range_meters":12000,"station_id":"ce4bhbh2rcd13ifvqeo0","pricing_plan_id":"cebpf4jnsgd1na2vs0mg"},{"bike_id":"47ac4905-aa32-47ce-b199-7c1305022bdb","system_id":"levelo_inurba_marseille","lat":43.23182,"lon":5.40009,"is_reserved":false,"is_disabled":false,"rental_uris":{"android":"levelo://app?vid=47ac4905-aa32-47ce-b199-7c1305022bdb","ios":"levelo://app?vid=47ac4905-aa32-47ce-b199-7c1305022bdb"},"vehicle_type_id":"4","last_reported":1746094251,"current_range_meters":12000,"station_id":"ce4bhn12rcd13ifvqgqg","pricing_plan_id":"cebpf4jnsgd1na2vs0mg"},{"bike_id":"d967f54c-b8c4-4d9f-87ef-b9d2e0cd1075","system_id":"levelo_inurba_marseille","lat":43.23193,"lon":5.35546,"is_reserved":false,"is_disabled":false,"rental_uris":{"android":"levelo://app?vid=d967f54c-b8c4-4d9f-87ef-b9d2e0cd1075","ios":"levelo://app?vid=d967f54c-b8c4-4d9f-87ef-b9d2e0cd1075"},"vehicle_type_id":"4","last_reported":1746094251,"current_range_meters":12000,"station_id":"ce4bhu92rcd13ifvqi70","pricing_plan_id":"cebpf4jnsgd1na2vs0mg"},{"bike_id":"7940bc1b-eaa7-4f49-a435-46dc9391f6a1","system_id":"levelo_inurba_marseille","lat":43.211884,"lon":5.35075,"is_reserved":false,"is_disabled":false,"rental_uris":{"android":"levelo://app?vid=7940bc1b-eaa7-4f49-a435-46dc9391f6a1","ios":"levelo://app?vid=7940bc1b-eaa7-4f49-a435-46dc9391f6a1"},"vehicle_type_id":"4","last_reported":1746094251,"current_range_meters":12000,"station_id":"st_cvj6sg6p6f1abm77japg","pricing_plan_id":"cebpf4jnsgd1na2vs0mg"},{"bike_id":"59400724-4df3-4c50-928c-527abdf613ae","system_id":"levelo_inurba_marseille","lat":43.27372,"lon":5.36251,"is_reserved":false,"is_disabled":false,"rental_uris":{"android":"levelo://app?vid=59400724-4df3-4c50-928c-527abdf613ae","ios":"levelo://app?vid=59400724-4df3-4c50-928c-527abdf613ae"},"vehicle_type_id":"4","last_reported":1746094251,"current_range_meters":12400,"station_id":"ce4bhbh2rcd13ifvqeo0","pricing_plan_id":"cebpf4jnsgd1na2vs0mg"},{"bike_id":"e8fa9120-40eb-4703-871e-013e250566a3","system_id":"levelo_inurba_marseille","lat":43.28421,"lon":5.3499,"is_reserved":false,"is_disabled":false,"rental_uris":{"android":"levelo://app?vid=e8fa9120-40eb-4703-871e-013e250566a3","ios":"levelo://app?vid=e8fa9120-40eb-4703-871e-013e250566a3"},"vehicle_type_id":"4","last_reported":1746094251,"current_range_meters":12400,"station_id":"ce4bhbh2rcd13ifvqepg","pricing_plan_id":"cebpf4jnsgd1na2vs0mg"},{"bike_id":"1a34bfd1-51b2-472f-bf82-e49cfebb3e0c","system_id":"levelo_inurba_marseille","lat":43.25118,"lon":5.40319,"is_reserved":false,"is_disabled":false,"rental_uris":{"android":"levelo://app?vid=1a34bfd1-51b2-472f-bf82-e49cfebb3e0c","ios":"levelo://app?vid=1a34bfd1-51b2-472f-bf82-e49cfebb3e0c"},"vehicle_type_id":"4","last_reported":1746094251,"current_range_meters":12400,"station_id":"ce4bhlh2rcd13ifvqgig","pricing_plan_id":"cebpf4jnsgd1na2vs0mg"},{"bike_id":"2c27a7a2-3425-4bc8-8800-38779687dcb9","system_id":"levelo_inurba_marseille","lat":43.23064,"lon":5.35489,"is_reserved":false,"is_disabled":false,"rental_uris":{"android":"levelo://app?vid=2c27a7a2-3425-4bc8-8800-38779687dcb9","ios":"levelo://app?vid=2c27a7a2-3425-4bc8-8800-38779687dcb9"},"vehicle_type_id":"4","last_reported":1746094251,"current_range_meters":12400,"station_id":"cpo3342slgdg3j2ifvpg","pricing_plan_id":"cebpf4jnsgd1na2vs0mg"},{"bike_id":"34b484ab-c0f1-4e55-b51a-e2bafdafb63e","system_id":"levelo_inurba_marseille","lat":43.230397,"lon":5.35502,"is_reserved":false,"is_disabled":false,"rental_uris":{"android":"levelo://app?vid=34b484ab-c0f1-4e55-b51a-e2bafdafb63e","ios":"levelo://app?vid=34b484ab-c0f1-4e55-b51a-e2bafdafb63e"},"vehicle_type_id":"4","last_reported":1746094251,"current_range_meters":12400,"station_id":"cpo3342slgdg3j2ifvpg","pricing_plan_id":"cebpf4jnsgd1na2vs0mg"},{"bike_id":"fd7875a1-1cd0-47f8-880b-6ef58a6b7e2e","system_id":"levelo_inurba_marseille","lat":43.22951,"lon":5.35387,"is_reserved":false,"is_disabled":false,"rental_uris":{"android":"levelo://app?vid=fd7875a1-1cd0-47f8-880b-6ef58a6b7e2e","ios":"levelo://app?vid=fd7875a1-1cd0-47f8-880b-6ef58a6b7e2e"},"vehicle_type_id":"4","last_reported":1746094251,"current_range_meters":12400,"station_id":"cpo3532slgdg3j2ikp40","pricing_plan_id":"cebpf4jnsgd1na2vs0mg"},{"bike_id":"b5ca6c28-779d-4f21-855b-4b69c4765d74","system_id":"levelo_inurba_marseille","lat":43.27364,"lon":5.36258,"is_reserved":false,"is_disabled":false,"rental_uris":{"android":"levelo://app?vid=b5ca6c28-779d-4f21-855b-4b69c4765d74","ios":"levelo://app?vid=b5ca6c28-779d-4f21-855b-4b69c4765d74"},"vehicle_type_id":"4","last_reported":1746094251,"current_range_meters":12800,"station_id":"ce4bhbh2rcd13ifvqeo0","pricing_plan_id":"cebpf4jnsgd1na2vs0mg"},{"bike_id":"0602cf4b-4db4-48c2-a5d3-0aa7c3a32d80","system_id":"levelo_inurba_marseille","lat":43.2737,"lon":5.36249,"is_reserved":false,"is_disabled":false,"rental_uris":{"android":"levelo://app?vid=0602cf4b-4db4-48c2-a5d3-0aa7c3a32d80","ios":"levelo://app?vid=0602cf4b-4db4-48c2-a5d3-0aa7c3a32d80"},"vehicle_type_id":"4","last_reported":1746094251,"current_range_meters":12800,"station_id":"ce4bhbh2rcd13ifvqeo0","pricing_plan_id":"cebpf4jnsgd1na2vs0mg"},{"bike_id":"e3bb0f98-08b5-4dd7-9b8f-bbf72b6e2b19","system_id":"levelo_inurba_marseille","lat":43.23967,"lon":5.36628,"is_reserved":false,"is_disabled":false,"rental_uris":{"android":"levelo://app?vid=e3bb0f98-08b5-4dd7-9b8f-bbf72b6e2b19","ios":"levelo://app?vid=e3bb0f98-08b5-4dd7-9b8f-bbf72b6e2b19"},"vehicle_type_id":"4","last_reported":1746094251,"current_range_meters":12800,"station_id":"ce4bhi12rcd13ifvqfp0","pricing_plan_id":"cebpf4jnsgd1na2vs0mg"},{"bike_id":"641ff1dc-31d8-4919-9229-d2737245cf00","system_id":"levelo_inurba_marseille","lat":43.23152,"lon":5.43723,"is_reserved":false,"is_disabled":false,"rental_uris":{"android":"levelo://app?vid=641ff1dc-31d8-4919-9229-d2737245cf00","ios":"levelo://app?vid=641ff1dc-31d8-4919-9229-d2737245cf00"},"vehicle_type_id":"4","last_reported":1746094251,"current_range_meters":12800,"station_id":"ce4bhmp2rcd13ifvqgog","pricing_plan_id":"cebpf4jnsgd1na2vs0mg"},{"bike_id":"2fab73d2-cef0-485f-94c0-49d3e5fcaea5","system_id":"levelo_inurba_marseille","lat":43.23202,"lon":5.40003,"is_reserved":false,"is_disabled":false,"rental_uris":{"android":"levelo://app?vid=2fab73d2-cef0-485f-94c0-49d3e5fcaea5","ios":"levelo://app?vid=2fab73d2-cef0-485f-94c0-49d3e5fcaea5"},"vehicle_type_id":"4","last_reported":1746094251,"current_range_meters":12800,"station_id":"ce4bhn12rcd13ifvqgqg","pricing_plan_id":"cebpf4jnsgd1na2vs0mg"},{"bike_id":"2bfb0f9e-3194-41eb-be7f-d93d6441d855","system_id":"levelo_inurba_marseille","lat":43.217491,"lon":5.345992,"is_reserved":false,"is_disabled":false,"rental_uris":{"android":"levelo://app?vid=2bfb0f9e-3194-41eb-be7f-d93d6441d855","ios":"levelo://app?vid=2bfb0f9e-3194-41eb-be7f-d93d6441d855"},"vehicle_type_id":"4","last_reported":1746094251,"current_range_meters":12800,"station_id":"st_cvj6r9ubvosntc0bgbag","pricing_plan_id":"cebpf4jnsgd1na2vs0mg"},{"bike_id":"8684773b-7cd0-43d2-b482-b8d955efbdd2","system_id":"levelo_inurba_marseille","lat":43.26756,"lon":5.40225,"is_reserved":false,"is_disabled":false,"rental_uris":{"android":"levelo://app?vid=8684773b-7cd0-43d2-b482-b8d955efbdd2","ios":"levelo://app?vid=8684773b-7cd0-43d2-b482-b8d955efbdd2"},"vehicle_type_id":"4","last_reported":1746094251,"current_range_meters":13600,"station_id":"","pricing_plan_id":"cebpf4jnsgd1na2vs0mg"},{"bike_id":"1d8a3520-d456-4674-a853-da90035100f3","system_id":"levelo_inurba_marseille","lat":43.25497,"lon":5.37644,"is_reserved":false,"is_disabled":false,"rental_uris":{"android":"levelo://app?vid=1d8a3520-d456-4674-a853-da90035100f3","ios":"levelo://app?vid=1d8a3520-d456-4674-a853-da90035100f3"},"vehicle_type_id":"4","last_reported":1746094251,"current_range_meters":13600,"station_id":"ce4bhh12rcd13ifvqff0","pricing_plan_id":"cebpf4jnsgd1na2vs0mg"},{"bike_id":"6d7ac254-4842-42d8-8542-f16f6d073d0f","system_id":"levelo_inurba_marseille","lat":43.24389,"lon":5.37056,"is_reserved":false,"is_disabled":false,"rental_uris":{"android":"levelo://app?vid=6d7ac254-4842-42d8-8542-f16f6d073d0f","ios":"levelo://app?vid=6d7ac254-4842-42d8-8542-f16f6d073d0f"},"vehicle_type_id":"4","last_reported":1746094251,"current_range_meters":13600,"station_id":"ce4bhhh2rcd13ifvqfk0","pricing_plan_id":"cebpf4jnsgd1na2vs0mg"},{"bike_id":"c1962ba5-8a91-4a1c-91ee-96111ce7c7be","system_id":"levelo_inurba_marseille","lat":43.23061,"lon":5.35499,"is_reserved":false,"is_disabled":false,"rental_uris":{"android":"levelo://app?vid=c1962ba5-8a91-4a1c-91ee-96111ce7c7be","ios":"levelo://app?vid=c1962ba5-8a91-4a1c-91ee-96111ce7c7be"},"vehicle_type_id":"4","last_reported":1746094251,"current_range_meters":13600,"station_id":"cpo3342slgdg3j2ifvpg","pricing_plan_id":"cebpf4jnsgd1na2vs0mg"},{"bike_id":"f649bbcf-f1ec-41ae-9810-4157e3752ba7","system_id":"levelo_inurba_marseille","lat":43.31443,"lon":5.37397,"is_reserved":false,"is_disabled":false,"rental_uris":{"android":"levelo://app?vid=f649bbcf-f1ec-41ae-9810-4157e3752ba7","ios":"levelo://app?vid=f649bbcf-f1ec-41ae-9810-4157e3752ba7"},"vehicle_type_id":"4","last_reported":1746094251,"current_range_meters":14000,"station_id":"","pricing_plan_id":"cebpf4jnsgd1na2vs0mg"},{"bike_id":"879a7270-da56-4b1b-9f35-e00e1f01e951","system_id":"levelo_inurba_marseille","lat":43.28399,"lon":5.34986,"is_reserved":false,"is_disabled":false,"rental_uris":{"android":"levelo://app?vid=879a7270-da56-4b1b-9f35-e00e1f01e951","ios":"levelo://app?vid=879a7270-da56-4b1b-9f35-e00e1f01e951"},"vehicle_type_id":"4","last_reported":1746094251,"current_range_meters":14000,"station_id":"ce4bhbh2rcd13ifvqepg","pricing_plan_id":"cebpf4jnsgd1na2vs0mg"},{"bike_id":"b58385b2-d1b2-4ecc-af75-eb7cf4772905","system_id":"levelo_inurba_marseille","lat":43.2306,"lon":5.354921,"is_reserved":false,"is_disabled":false,"rental_uris":{"android":"levelo://app?vid=b58385b2-d1b2-4ecc-af75-eb7cf4772905","ios":"levelo://app?vid=b58385b2-d1b2-4ecc-af75-eb7cf4772905"},"vehicle_type_id":"4","last_reported":1746094251,"current_range_meters":14400,"station_id":"cpo3342slgdg3j2ifvpg","pricing_plan_id":"cebpf4jnsgd1na2vs0mg"},{"bike_id":"617e4391-c2b2-41b6-81fa-a4207b7b52d3","system_id":"levelo_inurba_marseille","lat":43.27376,"lon":5.36256,"is_reserved":false,"is_disabled":false,"rental_uris":{"android":"levelo://app?vid=617e4391-c2b2-41b6-81fa-a4207b7b52d3","ios":"levelo://app?vid=617e4391-c2b2-41b6-81fa-a4207b7b52d3"},"vehicle_type_id":"4","last_reported":1746094251,"current_range_meters":14800,"station_id":"ce4bhbh2rcd13ifvqeo0","pricing_plan_id":"cebpf4jnsgd1na2vs0mg"},{"bike_id":"846e77ab-f262-4f08-9c84-77ff9b509b66","system_id":"levelo_inurba_marseille","lat":43.26027,"lon":5.37548,"is_reserved":false,"is_disabled":false,"rental_uris":{"android":"levelo://app?vid=846e77ab-f262-4f08-9c84-77ff9b509b66","ios":"levelo://app?vid=846e77ab-f262-4f08-9c84-77ff9b509b66"},"vehicle_type_id":"4","last_reported":1746094251,"current_range_meters":14800,"station_id":"ce4bhgh2rcd13ifvqfa0","pricing_plan_id":"cebpf4jnsgd1na2vs0mg"},{"bike_id":"686755ed-e7a5-4d32-88e6-63da00eb21de","system_id":"levelo_inurba_marseille","lat":43.23157,"lon":5.43711,"is_reserved":false,"is_disabled":false,"rental_uris":{"android":"levelo://app?vid=686755ed-e7a5-4d32-88e6-63da00eb21de","ios":"levelo://app?vid=686755ed-e7a5-4d32-88e6-63da00eb21de"},"vehicle_type_id":"4","last_reported":1746094251,"current_range_meters":14800,"station_id":"ce4bhmp2rcd13ifvqgog","pricing_plan_id":"cebpf4jnsgd1na2vs0mg"},{"bike_id":"bba31c47-23e6-47b3-9cdc-9e3a80be600e","system_id":"levelo_inurba_marseille","lat":43.24168,"lon":5.3639,"is_reserved":false,"is_disabled":false,"rental_uris":{"android":"levelo://app?vid=bba31c47-23e6-47b3-9cdc-9e3a80be600e","ios":"levelo://app?vid=bba31c47-23e6-47b3-9cdc-9e3a80be600e"},"vehicle_type_id":"4","last_reported":1746094251,"current_range_meters":14800,"station_id":"cpo36qri1sfpv3e86is0","pricing_plan_id":"cebpf4jnsgd1na2vs0mg"},{"bike_id":"9fcadb24-88c0-486c-b6e8-5dce927e138f","system_id":"levelo_inurba_marseille","lat":43.2737,"lon":5.36256,"is_reserved":false,"is_disabled":false,"rental_uris":{"android":"levelo://app?vid=9fcadb24-88c0-486c-b6e8-5dce927e138f","ios":"levelo://app?vid=9fcadb24-88c0-486c-b6e8-5dce927e138f"},"vehicle_type_id":"4","last_reported":1746094251,"current_range_meters":15200,"station_id":"ce4bhbh2rcd13ifvqeo0","pricing_plan_id":"cebpf4jnsgd1na2vs0mg"},{"bike_id":"409603f1-0422-4fcf-b0d2-2bf56341c588","system_id":"levelo_inurba_marseille","lat":43.33597,"lon":5.4103,"is_reserved":false,"is_disabled":false,"rental_uris":{"android":"levelo://app?vid=409603f1-0422-4fcf-b0d2-2bf56341c588","ios":"levelo://app?vid=409603f1-0422-4fcf-b0d2-2bf56341c588"},"vehicle_type_id":"4","last_reported":1746094251,"current_range_meters":15200,"station_id":"ce4bhqh2rcd13ifvqhmg","pricing_plan_id":"cebpf4jnsgd1na2vs0mg"},{"bike_id":"5b35de44-5cb4-40c3-940c-8da2d2015e49","system_id":"levelo_inurba_marseille","lat":43.23193,"lon":5.35549,"is_reserved":false,"is_disabled":false,"rental_uris":{"android":"levelo://app?vid=5b35de44-5cb4-40c3-940c-8da2d2015e49","ios":"levelo://app?vid=5b35de44-5cb4-40c3-940c-8da2d2015e49"},"vehicle_type_id":"4","last_reported":1746094251,"current_range_meters":15200,"station_id":"ce4bhu92rcd13ifvqi70","pricing_plan_id":"cebpf4jnsgd1na2vs0mg"},{"bike_id":"d6a01f4e-ec52-481a-8651-0c772dcedaa5","system_id":"levelo_inurba_marseille","lat":43.21186,"lon":5.35071,"is_reserved":false,"is_disabled":false,"rental_uris":{"android":"levelo://app?vid=d6a01f4e-ec52-481a-8651-0c772dcedaa5","ios":"levelo://app?vid=d6a01f4e-ec52-481a-8651-0c772dcedaa5"},"vehicle_type_id":"4","last_reported":1746094251,"current_range_meters":15200,"station_id":"st_cvj6sg6p6f1abm77japg","pricing_plan_id":"cebpf4jnsgd1na2vs0mg"},{"bike_id":"0b9ac188-19a7-4ad4-8279-34f1318ce56d","system_id":"levelo_inurba_marseille","lat":43.312806,"lon":5.377534,"is_reserved":false,"is_disabled":false,"rental_uris":{"android":"levelo://app?vid=0b9ac188-19a7-4ad4-8279-34f1318ce56d","ios":"levelo://app?vid=0b9ac188-19a7-4ad4-8279-34f1318ce56d"},"vehicle_type_id":"4","last_reported":1746094251,"current_range_meters":16000,"station_id":"","pricing_plan_id":"cebpf4jnsgd1na2vs0mg"},{"bike_id":"81a7e121-ddc0-44ab-a124-f2f18e0e019a","system_id":"levelo_inurba_marseille","lat":43.28424,"lon":5.34982,"is_reserved":false,"is_disabled":false,"rental_uris":{"android":"levelo://app?vid=81a7e121-ddc0-44ab-a124-f2f18e0e019a","ios":"levelo://app?vid=81a7e121-ddc0-44ab-a124-f2f18e0e019a"},"vehicle_type_id":"4","last_reported":1746094251,"current_range_meters":16000,"station_id":"ce4bhbh2rcd13ifvqepg","pricing_plan_id":"cebpf4jnsgd1na2vs0mg"},{"bike_id":"6714b874-4531-400a-84c6-5f76eeb4b6f8","system_id":"levelo_inurba_marseille","lat":43.23963,"lon":5.36628,"is_reserved":false,"is_disabled":false,"rental_uris":{"android":"levelo://app?vid=6714b874-4531-400a-84c6-5f76eeb4b6f8","ios":"levelo://app?vid=6714b874-4531-400a-84c6-5f76eeb4b6f8"},"vehicle_type_id":"4","last_reported":1746094251,"current_range_meters":16000,"station_id":"ce4bhi12rcd13ifvqfp0","pricing_plan_id":"cebpf4jnsgd1na2vs0mg"},{"bike_id":"2e1ce04f-74c7-4d68-a96b-b9dc1d6897ee","system_id":"levelo_inurba_marseille","lat":43.32291,"lon":5.38255,"is_reserved":false,"is_disabled":false,"rental_uris":{"android":"levelo://app?vid=2e1ce04f-74c7-4d68-a96b-b9dc1d6897ee","ios":"levelo://app?vid=2e1ce04f-74c7-4d68-a96b-b9dc1d6897ee"},"vehicle_type_id":"4","last_reported":1746094251,"current_range_meters":16000,"station_id":"ce4bhr12rcd13ifvqhqg","pricing_plan_id":"cebpf4jnsgd1na2vs0mg"},{"bike_id":"0858c022-5aea-47a1-a1f2-5bd5b080eb55","system_id":"levelo_inurba_marseille","lat":43.30926,"lon":5.40129,"is_reserved":false,"is_disabled":false,"rental_uris":{"android":"levelo://app?vid=0858c022-5aea-47a1-a1f2-5bd5b080eb55","ios":"levelo://app?vid=0858c022-5aea-47a1-a1f2-5bd5b080eb55"},"vehicle_type_id":"4","last_reported":1746094251,"current_range_meters":16400,"station_id":"ce4bgvp2rcd13ifvqct0","pricing_plan_id":"cebpf4jnsgd1na2vs0mg"},{"bike_id":"72533343-08bc-4039-82ae-9da82b929efb","system_id":"levelo_inurba_marseille","lat":43.284097,"lon":5.349809,"is_reserved":false,"is_disabled":false,"rental_uris":{"android":"levelo://app?vid=72533343-08bc-4039-82ae-9da82b929efb","ios":"levelo://app?vid=72533343-08bc-4039-82ae-9da82b929efb"},"vehicle_type_id":"4","last_reported":1746094251,"current_range_meters":16400,"station_id":"ce4bhbh2rcd13ifvqepg","pricing_plan_id":"cebpf4jnsgd1na2vs0mg"},{"bike_id":"807f9b6a-b2ed-4b40-833e-873c1d95e070","system_id":"levelo_inurba_marseille","lat":43.23963,"lon":5.36629,"is_reserved":false,"is_disabled":false,"rental_uris":{"android":"levelo://app?vid=807f9b6a-b2ed-4b40-833e-873c1d95e070","ios":"levelo://app?vid=807f9b6a-b2ed-4b40-833e-873c1d95e070"},"vehicle_type_id":"4","last_reported":1746094251,"current_range_meters":16400,"station_id":"ce4bhi12rcd13ifvqfp0","pricing_plan_id":"cebpf4jnsgd1na2vs0mg"},{"bike_id":"0faaaf04-40f2-428e-b5fd-41998c97ab2d","system_id":"levelo_inurba_marseille","lat":43.23964,"lon":5.3663,"is_reserved":false,"is_disabled":false,"rental_uris":{"android":"levelo://app?vid=0faaaf04-40f2-428e-b5fd-41998c97ab2d","ios":"levelo://app?vid=0faaaf04-40f2-428e-b5fd-41998c97ab2d"},"vehicle_type_id":"4","last_reported":1746094251,"current_range_meters":16400,"station_id":"ce4bhi12rcd13ifvqfp0","pricing_plan_id":"cebpf4jnsgd1na2vs0mg"},{"bike_id":"33fac4a5-e169-4241-a55a-64a5c337bdfe","system_id":"levelo_inurba_marseille","lat":43.23132,"lon":5.4374,"is_reserved":false,"is_disabled":false,"rental_uris":{"android":"levelo://app?vid=33fac4a5-e169-4241-a55a-64a5c337bdfe","ios":"levelo://app?vid=33fac4a5-e169-4241-a55a-64a5c337bdfe"},"vehicle_type_id":"4","last_reported":1746094251,"current_range_meters":16400,"station_id":"ce4bhmp2rcd13ifvqgog","pricing_plan_id":"cebpf4jnsgd1na2vs0mg"},{"bike_id":"16abf086-9b8c-433e-949a-7601ccf5d234","system_id":"levelo_inurba_marseille","lat":43.21756,"lon":5.34582,"is_reserved":false,"is_disabled":false,"rental_uris":{"android":"levelo://app?vid=16abf086-9b8c-433e-949a-7601ccf5d234","ios":"levelo://app?vid=16abf086-9b8c-433e-949a-7601ccf5d234"},"vehicle_type_id":"4","last_reported":1746094251,"current_range_meters":16400,"station_id":"st_cvj6r9ubvosntc0bgbag","pricing_plan_id":"cebpf4jnsgd1na2vs0mg"},{"bike_id":"8d17b367-8061-4c82-8409-5df859a79302","system_id":"levelo_inurba_marseille","lat":43.32002,"lon":5.3808,"is_reserved":false,"is_disabled":false,"rental_uris":{"android":"levelo://app?vid=8d17b367-8061-4c82-8409-5df859a79302","ios":"levelo://app?vid=8d17b367-8061-4c82-8409-5df859a79302"},"vehicle_type_id":"4","last_reported":1746094251,"current_range_meters":16800,"station_id":"","pricing_plan_id":"cebpf4jnsgd1na2vs0mg"},{"bike_id":"0bffff10-143f-4e3c-87dd-e93d6fc37079","system_id":"levelo_inurba_marseille","lat":43.28425,"lon":5.34994,"is_reserved":false,"is_disabled":false,"rental_uris":{"android":"levelo://app?vid=0bffff10-143f-4e3c-87dd-e93d6fc37079","ios":"levelo://app?vid=0bffff10-143f-4e3c-87dd-e93d6fc37079"},"vehicle_type_id":"4","last_reported":1746094251,"current_range_meters":16800,"station_id":"ce4bhbh2rcd13ifvqepg","pricing_plan_id":"cebpf4jnsgd1na2vs0mg"},{"bike_id":"5362abee-344d-4f84-a05f-99438b693705","system_id":"levelo_inurba_marseille","lat":43.27203,"lon":5.39182,"is_reserved":false,"is_disabled":false,"rental_uris":{"android":"levelo://app?vid=5362abee-344d-4f84-a05f-99438b693705","ios":"levelo://app?vid=5362abee-344d-4f84-a05f-99438b693705"},"vehicle_type_id":"4","last_reported":1746094251,"current_range_meters":16800,"station_id":"ce4bhhp2rcd13ifvqfm0","pricing_plan_id":"cebpf4jnsgd1na2vs0mg"},{"bike_id":"348a4ed5-2d50-4c09-89fd-433b5c0d8fe9","system_id":"levelo_inurba_marseille","lat":43.23958,"lon":5.36636,"is_reserved":false,"is_disabled":false,"rental_uris":{"android":"levelo://app?vid=348a4ed5-2d50-4c09-89fd-433b5c0d8fe9","ios":"levelo://app?vid=348a4ed5-2d50-4c09-89fd-433b5c0d8fe9"},"vehicle_type_id":"4","last_reported":1746094251,"current_range_meters":16800,"station_id":"ce4bhi12rcd13ifvqfp0","pricing_plan_id":"cebpf4jnsgd1na2vs0mg"},{"bike_id":"122b1b62-8962-4f1a-a7f8-315cbdcb1478","system_id":"levelo_inurba_marseille","lat":43.32103,"lon":5.36758,"is_reserved":false,"is_disabled":false,"rental_uris":{"android":"levelo://app?vid=122b1b62-8962-4f1a-a7f8-315cbdcb1478","ios":"levelo://app?vid=122b1b62-8962-4f1a-a7f8-315cbdcb1478"},"vehicle_type_id":"4","last_reported":1746094251,"current_range_meters":16800,"station_id":"ce4bhrh2rcd13ifvqhug","pricing_plan_id":"cebpf4jnsgd1na2vs0mg"},{"bike_id":"a801b4fa-b185-4240-bf2d-e26870e53cc8","system_id":"levelo_inurba_marseille","lat":43.31707,"lon":5.37753,"is_reserved":false,"is_disabled":false,"rental_uris":{"android":"levelo://app?vid=a801b4fa-b185-4240-bf2d-e26870e53cc8","ios":"levelo://app?vid=a801b4fa-b185-4240-bf2d-e26870e53cc8"},"vehicle_type_id":"4","last_reported":1746094251,"current_range_meters":17200,"station_id":"ce4bgth2rcd13ifvqch0","pricing_plan_id":"cebpf4jnsgd1na2vs0mg"},{"bike_id":"f4559dc5-0c48-4a56-860c-146ac55fb15e","system_id":"levelo_inurba_marseille","lat":43.2604,"lon":5.37539,"is_reserved":false,"is_disabled":false,"rental_uris":{"android":"levelo://app?vid=f4559dc5-0c48-4a56-860c-146ac55fb15e","ios":"levelo://app?vid=f4559dc5-0c48-4a56-860c-146ac55fb15e"},"vehicle_type_id":"4","last_reported":1746094251,"current_range_meters":17200,"station_id":"ce4bhgh2rcd13ifvqfa0","pricing_plan_id":"cebpf4jnsgd1na2vs0mg"},{"bike_id":"1556515c-a632-436a-9dfa-0ef09d1673fe","system_id":"levelo_inurba_marseille","lat":43.21747,"lon":5.34599,"is_reserved":false,"is_disabled":false,"rental_uris":{"android":"levelo://app?vid=1556515c-a632-436a-9dfa-0ef09d1673fe","ios":"levelo://app?vid=1556515c-a632-436a-9dfa-0ef09d1673fe"},"vehicle_type_id":"4","last_reported":1746094251,"current_range_meters":17200,"station_id":"st_cvj6r9ubvosntc0bgbag","pricing_plan_id":"cebpf4jnsgd1na2vs0mg"},{"bike_id":"8daef51c-0276-4dc3-9dae-ee17d20684be","system_id":"levelo_inurba_marseille","lat":43.21192,"lon":5.3507,"is_reserved":false,"is_disabled":false,"rental_uris":{"android":"levelo://app?vid=8daef51c-0276-4dc3-9dae-ee17d20684be","ios":"levelo://app?vid=8daef51c-0276-4dc3-9dae-ee17d20684be"},"vehicle_type_id":"4","last_reported":1746094251,"current_range_meters":17200,"station_id":"st_cvj6sg6p6f1abm77japg","pricing_plan_id":"cebpf4jnsgd1na2vs0mg"},{"bike_id":"783ae433-7918-41a7-81c0-3ed1b3b9ba29","system_id":"levelo_inurba_marseille","lat":43.231519,"lon":5.437067,"is_reserved":false,"is_disabled":false,"rental_uris":{"android":"levelo://app?vid=783ae433-7918-41a7-81c0-3ed1b3b9ba29","ios":"levelo://app?vid=783ae433-7918-41a7-81c0-3ed1b3b9ba29"},"vehicle_type_id":"4","last_reported":1746094251,"current_range_meters":17600,"station_id":"","pricing_plan_id":"cebpf4jnsgd1na2vs0mg"},{"bike_id":"6545ef7c-1f73-4b71-816f-80cb46f8e007","system_id":"levelo_inurba_marseille","lat":43.282654,"lon":5.350527,"is_reserved":false,"is_disabled":false,"rental_uris":{"android":"levelo://app?vid=6545ef7c-1f73-4b71-816f-80cb46f8e007","ios":"levelo://app?vid=6545ef7c-1f73-4b71-816f-80cb46f8e007"},"vehicle_type_id":"4","last_reported":1746094251,"current_range_meters":17600,"station_id":"ce4bhbp2rcd13ifvqerg","pricing_plan_id":"cebpf4jnsgd1na2vs0mg"},{"bike_id":"85526acc-28a7-4352-a4e7-3abd6a310fed","system_id":"levelo_inurba_marseille","lat":43.28276,"lon":5.35067,"is_reserved":false,"is_disabled":false,"rental_uris":{"android":"levelo://app?vid=85526acc-28a7-4352-a4e7-3abd6a310fed","ios":"levelo://app?vid=85526acc-28a7-4352-a4e7-3abd6a310fed"},"vehicle_type_id":"4","last_reported":1746094251,"current_range_meters":17600,"station_id":"ce4bhbp2rcd13ifvqerg","pricing_plan_id":"cebpf4jnsgd1na2vs0mg"},{"bike_id":"4b438d4b-9110-49cc-bce8-481653ea9c83","system_id":"levelo_inurba_marseille","lat":43.21747,"lon":5.34602,"is_reserved":false,"is_disabled":false,"rental_uris":{"android":"levelo://app?vid=4b438d4b-9110-49cc-bce8-481653ea9c83","ios":"levelo://app?vid=4b438d4b-9110-49cc-bce8-481653ea9c83"},"vehicle_type_id":"4","last_reported":1746094251,"current_range_meters":17600,"station_id":"st_cvj6r9ubvosntc0bgbag","pricing_plan_id":"cebpf4jnsgd1na2vs0mg"},{"bike_id":"46b77709-c12e-4c6b-87cd-5bddfa53b8a8","system_id":"levelo_inurba_marseille","lat":43.217473,"lon":5.34603,"is_reserved":false,"is_disabled":false,"rental_uris":{"android":"levelo://app?vid=46b77709-c12e-4c6b-87cd-5bddfa53b8a8","ios":"levelo://app?vid=46b77709-c12e-4c6b-87cd-5bddfa53b8a8"},"vehicle_type_id":"4","last_reported":1746094251,"current_range_meters":17600,"station_id":"st_cvj6r9ubvosntc0bgbag","pricing_plan_id":"cebpf4jnsgd1na2vs0mg"},{"bike_id":"34c6541a-451e-4a25-9f41-23b329707f46","system_id":"levelo_inurba_marseille","lat":43.217506,"lon":5.34599,"is_reserved":false,"is_disabled":false,"rental_uris":{"android":"levelo://app?vid=34c6541a-451e-4a25-9f41-23b329707f46","ios":"levelo://app?vid=34c6541a-451e-4a25-9f41-23b329707f46"},"vehicle_type_id":"4","last_reported":1746094251,"current_range_meters":17600,"station_id":"st_cvj6r9ubvosntc0bgbag","pricing_plan_id":"cebpf4jnsgd1na2vs0mg"},{"bike_id":"2e2e5efe-f419-451f-916b-a8e851606328","system_id":"levelo_inurba_marseille","lat":43.28411,"lon":5.34973,"is_reserved":false,"is_disabled":false,"rental_uris":{"android":"levelo://app?vid=2e2e5efe-f419-451f-916b-a8e851606328","ios":"levelo://app?vid=2e2e5efe-f419-451f-916b-a8e851606328"},"vehicle_type_id":"4","last_reported":1746094251,"current_range_meters":18000,"station_id":"ce4bhbh2rcd13ifvqepg","pricing_plan_id":"cebpf4jnsgd1na2vs0mg"},{"bike_id":"5a4a7493-c020-45c9-a67f-09ebde2403c9","system_id":"levelo_inurba_marseille","lat":43.231893,"lon":5.355458,"is_reserved":false,"is_disabled":false,"rental_uris":{"android":"levelo://app?vid=5a4a7493-c020-45c9-a67f-09ebde2403c9","ios":"levelo://app?vid=5a4a7493-c020-45c9-a67f-09ebde2403c9"},"vehicle_type_id":"4","last_reported":1746094251,"current_range_meters":18000,"station_id":"ce4bhu92rcd13ifvqi70","pricing_plan_id":"cebpf4jnsgd1na2vs0mg"},{"bike_id":"6050ed74-1a45-4e2a-8267-9e52708ead9e","system_id":"levelo_inurba_marseille","lat":43.2737,"lon":5.36248,"is_reserved":false,"is_disabled":false,"rental_uris":{"android":"levelo://app?vid=6050ed74-1a45-4e2a-8267-9e52708ead9e","ios":"levelo://app?vid=6050ed74-1a45-4e2a-8267-9e52708ead9e"},"vehicle_type_id":"4","last_reported":1746094251,"current_range_meters":18800,"station_id":"ce4bhbh2rcd13ifvqeo0","pricing_plan_id":"cebpf4jnsgd1na2vs0mg"},{"bike_id":"ea7b5fff-0bb5-44e8-af4a-84232b6a32f7","system_id":"levelo_inurba_marseille","lat":43.28411,"lon":5.34996,"is_reserved":false,"is_disabled":false,"rental_uris":{"android":"levelo://app?vid=ea7b5fff-0bb5-44e8-af4a-84232b6a32f7","ios":"levelo://app?vid=ea7b5fff-0bb5-44e8-af4a-84232b6a32f7"},"vehicle_type_id":"4","last_reported":1746094251,"current_range_meters":18800,"station_id":"ce4bhbh2rcd13ifvqepg","pricing_plan_id":"cebpf4jnsgd1na2vs0mg"},{"bike_id":"cd1f00f1-de1f-4b99-b793-b6d2d379752c","system_id":"levelo_inurba_marseille","lat":43.25932,"lon":5.409,"is_reserved":false,"is_disabled":false,"rental_uris":{"android":"levelo://app?vid=cd1f00f1-de1f-4b99-b793-b6d2d379752c","ios":"levelo://app?vid=cd1f00f1-de1f-4b99-b793-b6d2d379752c"},"vehicle_type_id":"4","last_reported":1746094251,"current_range_meters":18800,"station_id":"ce4bhm92rcd13ifvqglg","pricing_plan_id":"cebpf4jnsgd1na2vs0mg"},{"bike_id":"2e8fd03b-7835-40e2-88b3-f16f15f8e783","system_id":"levelo_inurba_marseille","lat":43.231823,"lon":5.399817,"is_reserved":false,"is_disabled":false,"rental_uris":{"android":"levelo://app?vid=2e8fd03b-7835-40e2-88b3-f16f15f8e783","ios":"levelo://app?vid=2e8fd03b-7835-40e2-88b3-f16f15f8e783"},"vehicle_type_id":"4","last_reported":1746094251,"current_range_meters":18800,"station_id":"ce4bhn12rcd13ifvqgqg","pricing_plan_id":"cebpf4jnsgd1na2vs0mg"},{"bike_id":"6d6b1320-f585-4cb0-8c83-48b995ee10c7","system_id":"levelo_inurba_marseille","lat":43.23183,"lon":5.3555,"is_reserved":false,"is_disabled":false,"rental_uris":{"android":"levelo://app?vid=6d6b1320-f585-4cb0-8c83-48b995ee10c7","ios":"levelo://app?vid=6d6b1320-f585-4cb0-8c83-48b995ee10c7"},"vehicle_type_id":"4","last_reported":1746094251,"current_range_meters":18800,"station_id":"ce4bhu92rcd13ifvqi70","pricing_plan_id":"cebpf4jnsgd1na2vs0mg"},{"bike_id":"3aeb961f-88b6-47fd-986a-c7b2a855fefd","system_id":"levelo_inurba_marseille","lat":43.23074,"lon":5.35497,"is_reserved":false,"is_disabled":false,"rental_uris":{"android":"levelo://app?vid=3aeb961f-88b6-47fd-986a-c7b2a855fefd","ios":"levelo://app?vid=3aeb961f-88b6-47fd-986a-c7b2a855fefd"},"vehicle_type_id":"4","last_reported":1746094251,"current_range_meters":18800,"station_id":"cpo3342slgdg3j2ifvpg","pricing_plan_id":"cebpf4jnsgd1na2vs0mg"},{"bike_id":"677a381b-b527-42a3-b987-992902b9ea2d","system_id":"levelo_inurba_marseille","lat":43.23052,"lon":5.35491,"is_reserved":false,"is_disabled":false,"rental_uris":{"android":"levelo://app?vid=677a381b-b527-42a3-b987-992902b9ea2d","ios":"levelo://app?vid=677a381b-b527-42a3-b987-992902b9ea2d"},"vehicle_type_id":"4","last_reported":1746094251,"current_range_meters":18800,"station_id":"cpo3342slgdg3j2ifvpg","pricing_plan_id":"cebpf4jnsgd1na2vs0mg"},{"bike_id":"bb06211c-3045-4345-aab0-b20bbecf5420","system_id":"levelo_inurba_marseille","lat":43.21188,"lon":5.35078,"is_reserved":false,"is_disabled":false,"rental_uris":{"android":"levelo://app?vid=bb06211c-3045-4345-aab0-b20bbecf5420","ios":"levelo://app?vid=bb06211c-3045-4345-aab0-b20bbecf5420"},"vehicle_type_id":"4","last_reported":1746094251,"current_range_meters":18800,"station_id":"st_cvj6sg6p6f1abm77japg","pricing_plan_id":"cebpf4jnsgd1na2vs0mg"},{"bike_id":"0e97a791-c216-423c-a049-2a4a0aa50931","system_id":"levelo_inurba_marseille","lat":43.28419,"lon":5.35006,"is_reserved":false,"is_disabled":false,"rental_uris":{"android":"levelo://app?vid=0e97a791-c216-423c-a049-2a4a0aa50931","ios":"levelo://app?vid=0e97a791-c216-423c-a049-2a4a0aa50931"},"vehicle_type_id":"4","last_reported":1746094251,"current_range_meters":19200,"station_id":"ce4bhbh2rcd13ifvqepg","pricing_plan_id":"cebpf4jnsgd1na2vs0mg"},{"bike_id":"2c4e9a38-45ce-47ed-9e92-df5ce99e8715","system_id":"levelo_inurba_marseille","lat":43.23148,"lon":5.43706,"is_reserved":false,"is_disabled":false,"rental_uris":{"android":"levelo://app?vid=2c4e9a38-45ce-47ed-9e92-df5ce99e8715","ios":"levelo://app?vid=2c4e9a38-45ce-47ed-9e92-df5ce99e8715"},"vehicle_type_id":"4","last_reported":1746094251,"current_range_meters":19200,"station_id":"ce4bhmp2rcd13ifvqgog","pricing_plan_id":"cebpf4jnsgd1na2vs0mg"},{"bike_id":"12c5aaeb-65a0-44f7-8d26-5a600f96adfa","system_id":"levelo_inurba_marseille","lat":43.24168,"lon":5.36396,"is_reserved":false,"is_disabled":false,"rental_uris":{"android":"levelo://app?vid=12c5aaeb-65a0-44f7-8d26-5a600f96adfa","ios":"levelo://app?vid=12c5aaeb-65a0-44f7-8d26-5a600f96adfa"},"vehicle_type_id":"4","last_reported":1746094251,"current_range_meters":19200,"station_id":"cpo36qri1sfpv3e86is0","pricing_plan_id":"cebpf4jnsgd1na2vs0mg"},{"bike_id":"065765f8-8f15-4262-89f7-93e8317cbc42","system_id":"levelo_inurba_marseille","lat":43.21744,"lon":5.34602,"is_reserved":false,"is_disabled":false,"rental_uris":{"android":"levelo://app?vid=065765f8-8f15-4262-89f7-93e8317cbc42","ios":"levelo://app?vid=065765f8-8f15-4262-89f7-93e8317cbc42"},"vehicle_type_id":"4","last_reported":1746094251,"current_range_meters":19200,"station_id":"st_cvj6r9ubvosntc0bgbag","pricing_plan_id":"cebpf4jnsgd1na2vs0mg"},{"bike_id":"711c0417-79e9-48f6-bd77-fbb813aa92bc","system_id":"levelo_inurba_marseille","lat":43.284709,"lon":5.39216,"is_reserved":false,"is_disabled":false,"rental_uris":{"android":"levelo://app?vid=711c0417-79e9-48f6-bd77-fbb813aa92bc","ios":"levelo://app?vid=711c0417-79e9-48f6-bd77-fbb813aa92bc"},"vehicle_type_id":"4","last_reported":1746094251,"current_range_meters":19600,"station_id":"","pricing_plan_id":"cebpf4jnsgd1na2vs0mg"},{"bike_id":"b14013f0-61d2-4eef-b91e-d9d169a4d3cf","system_id":"levelo_inurba_marseille","lat":43.27653,"lon":5.36108,"is_reserved":false,"is_disabled":false,"rental_uris":{"android":"levelo://app?vid=b14013f0-61d2-4eef-b91e-d9d169a4d3cf","ios":"levelo://app?vid=b14013f0-61d2-4eef-b91e-d9d169a4d3cf"},"vehicle_type_id":"4","last_reported":1746094251,"current_range_meters":19600,"station_id":"ce4bgj92rcd13ifvqbe0","pricing_plan_id":"cebpf4jnsgd1na2vs0mg"},{"bike_id":"74030413-b25f-4980-9856-4fa8e078fc22","system_id":"levelo_inurba_marseille","lat":43.24798,"lon":5.37454,"is_reserved":false,"is_disabled":false,"rental_uris":{"android":"levelo://app?vid=74030413-b25f-4980-9856-4fa8e078fc22","ios":"levelo://app?vid=74030413-b25f-4980-9856-4fa8e078fc22"},"vehicle_type_id":"4","last_reported":1746094251,"current_range_meters":19600,"station_id":"ce4bhgh2rcd13ifvqfb0","pricing_plan_id":"cebpf4jnsgd1na2vs0mg"},{"bike_id":"df47a7ec-8fc4-4442-a6e9-7421bddaed04","system_id":"levelo_inurba_marseille","lat":43.23141,"lon":5.43728,"is_reserved":false,"is_disabled":false,"rental_uris":{"android":"levelo://app?vid=df47a7ec-8fc4-4442-a6e9-7421bddaed04","ios":"levelo://app?vid=df47a7ec-8fc4-4442-a6e9-7421bddaed04"},"vehicle_type_id":"4","last_reported":1746094251,"current_range_meters":19600,"station_id":"ce4bhmp2rcd13ifvqgog","pricing_plan_id":"cebpf4jnsgd1na2vs0mg"},{"bike_id":"9948b8c0-52d2-4eb8-8da4-a50a93afeb9b","system_id":"levelo_inurba_marseille","lat":43.2293,"lon":5.35371,"is_reserved":false,"is_disabled":false,"rental_uris":{"android":"levelo://app?vid=9948b8c0-52d2-4eb8-8da4-a50a93afeb9b","ios":"levelo://app?vid=9948b8c0-52d2-4eb8-8da4-a50a93afeb9b"},"vehicle_type_id":"4","last_reported":1746094251,"current_range_meters":19600,"station_id":"cpo3532slgdg3j2ikp40","pricing_plan_id":"cebpf4jnsgd1na2vs0mg"},{"bike_id":"7ea9d47c-f551-4b52-a08d-512bf20c1b7a","system_id":"levelo_inurba_marseille","lat":43.29582,"lon":5.36743,"is_reserved":false,"is_disabled":false,"rental_uris":{"android":"levelo://app?vid=7ea9d47c-f551-4b52-a08d-512bf20c1b7a","ios":"levelo://app?vid=7ea9d47c-f551-4b52-a08d-512bf20c1b7a"},"vehicle_type_id":"4","last_reported":1746094251,"current_range_meters":20000,"station_id":"ce4bgph2rcd13ifvqc2g","pricing_plan_id":"cebpf4jnsgd1na2vs0mg"},{"bike_id":"69b38c4c-00d6-4461-84b1-4640f9a4db8f","system_id":"levelo_inurba_marseille","lat":43.30429,"lon":5.39747,"is_reserved":false,"is_disabled":false,"rental_uris":{"android":"levelo://app?vid=69b38c4c-00d6-4461-84b1-4640f9a4db8f","ios":"levelo://app?vid=69b38c4c-00d6-4461-84b1-4640f9a4db8f"},"vehicle_type_id":"4","last_reported":1746094251,"current_range_meters":20000,"station_id":"ce4bh092rcd13ifvqd20","pricing_plan_id":"cebpf4jnsgd1na2vs0mg"},{"bike_id":"797c8302-be0d-414b-ab1e-a0b36a449d32","system_id":"levelo_inurba_marseille","lat":43.28276,"lon":5.35063,"is_reserved":false,"is_disabled":false,"rental_uris":{"android":"levelo://app?vid=797c8302-be0d-414b-ab1e-a0b36a449d32","ios":"levelo://app?vid=797c8302-be0d-414b-ab1e-a0b36a449d32"},"vehicle_type_id":"4","last_reported":1746094251,"current_range_meters":20000,"station_id":"ce4bhbp2rcd13ifvqerg","pricing_plan_id":"cebpf4jnsgd1na2vs0mg"},{"bike_id":"35f8cfae-28c8-4a44-9c8e-5b5ce51adfb9","system_id":"levelo_inurba_marseille","lat":43.24804,"lon":5.37463,"is_reserved":false,"is_disabled":false,"rental_uris":{"android":"levelo://app?vid=35f8cfae-28c8-4a44-9c8e-5b5ce51adfb9","ios":"levelo://app?vid=35f8cfae-28c8-4a44-9c8e-5b5ce51adfb9"},"vehicle_type_id":"4","last_reported":1746094251,"current_range_meters":20000,"station_id":"ce4bhgh2rcd13ifvqfb0","pricing_plan_id":"cebpf4jnsgd1na2vs0mg"},{"bike_id":"3d490464-bda9-4ada-a302-8889d23f7a56","system_id":"levelo_inurba_marseille","lat":43.23958,"lon":5.36645,"is_reserved":false,"is_disabled":false,"rental_uris":{"android":"levelo://app?vid=3d490464-bda9-4ada-a302-8889d23f7a56","ios":"levelo://app?vid=3d490464-bda9-4ada-a302-8889d23f7a56"},"vehicle_type_id":"4","last_reported":1746094251,"current_range_meters":20000,"station_id":"ce4bhi12rcd13ifvqfp0","pricing_plan_id":"cebpf4jnsgd1na2vs0mg"},{"bike_id":"55057634-8349-4441-9ed6-a333a281b384","system_id":"levelo_inurba_marseille","lat":43.30419,"lon":5.41293,"is_reserved":false,"is_disabled":false,"rental_uris":{"android":"levelo://app?vid=55057634-8349-4441-9ed6-a333a281b384","ios":"levelo://app?vid=55057634-8349-4441-9ed6-a333a281b384"},"vehicle_type_id":"4","last_reported":1746094251,"current_range_meters":20000,"station_id":"ce4bhop2rcd13ifvqh8g","pricing_plan_id":"cebpf4jnsgd1na2vs0mg"},{"bike_id":"55d122d1-eb10-4eca-8c01-b96508e4e80e","system_id":"levelo_inurba_marseille","lat":43.21187,"lon":5.35078,"is_reserved":false,"is_disabled":false,"rental_uris":{"android":"levelo://app?vid=55d122d1-eb10-4eca-8c01-b96508e4e80e","ios":"levelo://app?vid=55d122d1-eb10-4eca-8c01-b96508e4e80e"},"vehicle_type_id":"4","last_reported":1746094251,"current_range_meters":20000,"station_id":"st_cvj6sg6p6f1abm77japg","pricing_plan_id":"cebpf4jnsgd1na2vs0mg"},{"bike_id":"a8a9a90c-6e26-4cb4-81c0-c09afa3591ab","system_id":"levelo_inurba_marseille","lat":43.21189,"lon":5.35071,"is_reserved":false,"is_disabled":false,"rental_uris":{"android":"levelo://app?vid=a8a9a90c-6e26-4cb4-81c0-c09afa3591ab","ios":"levelo://app?vid=a8a9a90c-6e26-4cb4-81c0-c09afa3591ab"},"vehicle_type_id":"4","last_reported":1746094251,"current_range_meters":20000,"station_id":"st_cvj6sg6p6f1abm77japg","pricing_plan_id":"cebpf4jnsgd1na2vs0mg"},{"bike_id":"c8f258d8-1a57-48d0-8c89-5e767dabee19","system_id":"levelo_inurba_marseille","lat":43.25506,"lon":5.37662,"is_reserved":false,"is_disabled":false,"rental_uris":{"android":"levelo://app?vid=c8f258d8-1a57-48d0-8c89-5e767dabee19","ios":"levelo://app?vid=c8f258d8-1a57-48d0-8c89-5e767dabee19"},"vehicle_type_id":"4","last_reported":1746094251,"current_range_meters":20400,"station_id":"ce4bhh12rcd13ifvqff0","pricing_plan_id":"cebpf4jnsgd1na2vs0mg"},{"bike_id":"1877320e-14c4-4c2e-953a-26af85d421fe","system_id":"levelo_inurba_marseille","lat":43.23147,"lon":5.437107,"is_reserved":false,"is_disabled":false,"rental_uris":{"android":"levelo://app?vid=1877320e-14c4-4c2e-953a-26af85d421fe","ios":"levelo://app?vid=1877320e-14c4-4c2e-953a-26af85d421fe"},"vehicle_type_id":"4","last_reported":1746094251,"current_range_meters":20400,"station_id":"ce4bhmp2rcd13ifvqgog","pricing_plan_id":"cebpf4jnsgd1na2vs0mg"},{"bike_id":"a2b55c1b-92dd-4bf0-9b9a-1d8656ab38da","system_id":"levelo_inurba_marseille","lat":43.30807,"lon":5.43526,"is_reserved":false,"is_disabled":false,"rental_uris":{"android":"levelo://app?vid=a2b55c1b-92dd-4bf0-9b9a-1d8656ab38da","ios":"levelo://app?vid=a2b55c1b-92dd-4bf0-9b9a-1d8656ab38da"},"vehicle_type_id":"4","last_reported":1746094251,"current_range_meters":20400,"station_id":"ce4bhph2rcd13ifvqheg","pricing_plan_id":"cebpf4jnsgd1na2vs0mg"},{"bike_id":"735d5b0a-b07a-42b6-9ca1-ad68b1dd40df","system_id":"levelo_inurba_marseille","lat":43.26073,"lon":5.37563,"is_reserved":false,"is_disabled":false,"rental_uris":{"android":"levelo://app?vid=735d5b0a-b07a-42b6-9ca1-ad68b1dd40df","ios":"levelo://app?vid=735d5b0a-b07a-42b6-9ca1-ad68b1dd40df"},"vehicle_type_id":"4","last_reported":1746094251,"current_range_meters":20800,"station_id":"","pricing_plan_id":"cebpf4jnsgd1na2vs0mg"},{"bike_id":"9aa33079-0760-4d4c-9acb-154d0e0de6b5","system_id":"levelo_inurba_marseille","lat":43.24392,"lon":5.37058,"is_reserved":false,"is_disabled":false,"rental_uris":{"android":"levelo://app?vid=9aa33079-0760-4d4c-9acb-154d0e0de6b5","ios":"levelo://app?vid=9aa33079-0760-4d4c-9acb-154d0e0de6b5"},"vehicle_type_id":"4","last_reported":1746094251,"current_range_meters":20800,"station_id":"ce4bhhh2rcd13ifvqfk0","pricing_plan_id":"cebpf4jnsgd1na2vs0mg"},{"bike_id":"75199fed-4965-4dc3-9f43-6daa87122b48","system_id":"levelo_inurba_marseille","lat":43.25923,"lon":5.40899,"is_reserved":false,"is_disabled":false,"rental_uris":{"android":"levelo://app?vid=75199fed-4965-4dc3-9f43-6daa87122b48","ios":"levelo://app?vid=75199fed-4965-4dc3-9f43-6daa87122b48"},"vehicle_type_id":"4","last_reported":1746094251,"current_range_meters":20800,"station_id":"ce4bhm92rcd13ifvqglg","pricing_plan_id":"cebpf4jnsgd1na2vs0mg"},{"bike_id":"f3cd021d-838e-4cae-a82c-7bc665591677","system_id":"levelo_inurba_marseille","lat":43.23151,"lon":5.43714,"is_reserved":false,"is_disabled":false,"rental_uris":{"android":"levelo://app?vid=f3cd021d-838e-4cae-a82c-7bc665591677","ios":"levelo://app?vid=f3cd021d-838e-4cae-a82c-7bc665591677"},"vehicle_type_id":"4","last_reported":1746094251,"current_range_meters":20800,"station_id":"ce4bhmp2rcd13ifvqgog","pricing_plan_id":"cebpf4jnsgd1na2vs0mg"},{"bike_id":"4e70eb18-5bf5-4398-baf9-27d88efbfe75","system_id":"levelo_inurba_marseille","lat":43.23133,"lon":5.43717,"is_reserved":false,"is_disabled":false,"rental_uris":{"android":"levelo://app?vid=4e70eb18-5bf5-4398-baf9-27d88efbfe75","ios":"levelo://app?vid=4e70eb18-5bf5-4398-baf9-27d88efbfe75"},"vehicle_type_id":"4","last_reported":1746094251,"current_range_meters":20800,"station_id":"ce4bhmp2rcd13ifvqgog","pricing_plan_id":"cebpf4jnsgd1na2vs0mg"},{"bike_id":"494828d9-50d1-4fda-9c92-909f122894a0","system_id":"levelo_inurba_marseille","lat":43.23963,"lon":5.36633,"is_reserved":false,"is_disabled":false,"rental_uris":{"android":"levelo://app?vid=494828d9-50d1-4fda-9c92-909f122894a0","ios":"levelo://app?vid=494828d9-50d1-4fda-9c92-909f122894a0"},"vehicle_type_id":"4","last_reported":1746094251,"current_range_meters":21600,"station_id":"ce4bhi12rcd13ifvqfp0","pricing_plan_id":"cebpf4jnsgd1na2vs0mg"},{"bike_id":"bcbcb4df-1df7-4e1d-bfeb-ec941e0b3931","system_id":"levelo_inurba_marseille","lat":43.27369,"lon":5.36264,"is_reserved":false,"is_disabled":false,"rental_uris":{"android":"levelo://app?vid=bcbcb4df-1df7-4e1d-bfeb-ec941e0b3931","ios":"levelo://app?vid=bcbcb4df-1df7-4e1d-bfeb-ec941e0b3931"},"vehicle_type_id":"4","last_reported":1746094251,"current_range_meters":22000,"station_id":"ce4bhbh2rcd13ifvqeo0","pricing_plan_id":"cebpf4jnsgd1na2vs0mg"},{"bike_id":"07454b12-16e7-4723-bf66-8d30a9c72f12","system_id":"levelo_inurba_marseille","lat":43.24162,"lon":5.36392,"is_reserved":false,"is_disabled":false,"rental_uris":{"android":"levelo://app?vid=07454b12-16e7-4723-bf66-8d30a9c72f12","ios":"levelo://app?vid=07454b12-16e7-4723-bf66-8d30a9c72f12"},"vehicle_type_id":"4","last_reported":1746094251,"current_range_meters":22000,"station_id":"cpo36qri1sfpv3e86is0","pricing_plan_id":"cebpf4jnsgd1na2vs0mg"},{"bike_id":"d27cd6c8-330e-4aae-afdf-a6cf9138a1bc","system_id":"levelo_inurba_marseille","lat":43.29708,"lon":5.3769,"is_reserved":false,"is_disabled":false,"rental_uris":{"android":"levelo://app?vid=d27cd6c8-330e-4aae-afdf-a6cf9138a1bc","ios":"levelo://app?vid=d27cd6c8-330e-4aae-afdf-a6cf9138a1bc"},"vehicle_type_id":"4","last_reported":1746094251,"current_range_meters":22400,"station_id":"ce4bgkh2rcd13ifvqbl0","pricing_plan_id":"cebpf4jnsgd1na2vs0mg"},{"bike_id":"1ed74b73-8f91-4e5c-a555-4b22ba5dbadb","system_id":"levelo_inurba_marseille","lat":43.27368,"lon":5.36257,"is_reserved":false,"is_disabled":false,"rental_uris":{"android":"levelo://app?vid=1ed74b73-8f91-4e5c-a555-4b22ba5dbadb","ios":"levelo://app?vid=1ed74b73-8f91-4e5c-a555-4b22ba5dbadb"},"vehicle_type_id":"4","last_reported":1746094251,"current_range_meters":22400,"station_id":"ce4bhbh2rcd13ifvqeo0","pricing_plan_id":"cebpf4jnsgd1na2vs0mg"},{"bike_id":"ec1f12b0-4cd8-4463-96e8-f962b0469510","system_id":"levelo_inurba_marseille","lat":43.26204,"lon":5.37446,"is_reserved":false,"is_disabled":false,"rental_uris":{"android":"levelo://app?vid=ec1f12b0-4cd8-4463-96e8-f962b0469510","ios":"levelo://app?vid=ec1f12b0-4cd8-4463-96e8-f962b0469510"},"vehicle_type_id":"4","last_reported":1746094251,"current_range_meters":22400,"station_id":"ce4bhgp2rcd13ifvqfc0","pricing_plan_id":"cebpf4jnsgd1na2vs0mg"},{"bike_id":"b6fbd6e4-836b-4feb-82be-b1fbb14ee47f","system_id":"levelo_inurba_marseille","lat":43.25743,"lon":5.41071,"is_reserved":false,"is_disabled":false,"rental_uris":{"android":"levelo://app?vid=b6fbd6e4-836b-4feb-82be-b1fbb14ee47f","ios":"levelo://app?vid=b6fbd6e4-836b-4feb-82be-b1fbb14ee47f"},"vehicle_type_id":"4","last_reported":1746094251,"current_range_meters":22400,"station_id":"ce4bhkp2rcd13ifvqgd0","pricing_plan_id":"cebpf4jnsgd1na2vs0mg"},{"bike_id":"70fed946-8c54-49f5-bd18-d39199d006d7","system_id":"levelo_inurba_marseille","lat":43.23058,"lon":5.3549,"is_reserved":false,"is_disabled":false,"rental_uris":{"android":"levelo://app?vid=70fed946-8c54-49f5-bd18-d39199d006d7","ios":"levelo://app?vid=70fed946-8c54-49f5-bd18-d39199d006d7"},"vehicle_type_id":"4","last_reported":1746094251,"current_range_meters":22400,"station_id":"cpo3342slgdg3j2ifvpg","pricing_plan_id":"cebpf4jnsgd1na2vs0mg"},{"bike_id":"89a33b00-7254-4df6-ae40-9c45b935158d","system_id":"levelo_inurba_marseille","lat":43.22502,"lon":5.34788,"is_reserved":false,"is_disabled":false,"rental_uris":{"android":"levelo://app?vid=89a33b00-7254-4df6-ae40-9c45b935158d","ios":"levelo://app?vid=89a33b00-7254-4df6-ae40-9c45b935158d"},"vehicle_type_id":"4","last_reported":1746094251,"current_range_meters":22400,"station_id":"st_cvj5dfep6f1abm77gieg","pricing_plan_id":"cebpf4jnsgd1na2vs0mg"},{"bike_id":"3278d3c6-6274-4351-b72a-95ba06251694","system_id":"levelo_inurba_marseille","lat":43.217476,"lon":5.346035,"is_reserved":false,"is_disabled":false,"rental_uris":{"android":"levelo://app?vid=3278d3c6-6274-4351-b72a-95ba06251694","ios":"levelo://app?vid=3278d3c6-6274-4351-b72a-95ba06251694"},"vehicle_type_id":"4","last_reported":1746094251,"current_range_meters":22400,"station_id":"st_cvj6r9ubvosntc0bgbag","pricing_plan_id":"cebpf4jnsgd1na2vs0mg"},{"bike_id":"642ecc14-9856-4cea-a334-764d729566d6","system_id":"levelo_inurba_marseille","lat":43.28419,"lon":5.34984,"is_reserved":false,"is_disabled":false,"rental_uris":{"android":"levelo://app?vid=642ecc14-9856-4cea-a334-764d729566d6","ios":"levelo://app?vid=642ecc14-9856-4cea-a334-764d729566d6"},"vehicle_type_id":"4","last_reported":1746094251,"current_range_meters":22800,"station_id":"ce4bhbh2rcd13ifvqepg","pricing_plan_id":"cebpf4jnsgd1na2vs0mg"},{"bike_id":"bc571c97-5e44-4d79-8f6d-ff4b87ac3e6f","system_id":"levelo_inurba_marseille","lat":43.282684,"lon":5.350509,"is_reserved":false,"is_disabled":false,"rental_uris":{"android":"levelo://app?vid=bc571c97-5e44-4d79-8f6d-ff4b87ac3e6f","ios":"levelo://app?vid=bc571c97-5e44-4d79-8f6d-ff4b87ac3e6f"},"vehicle_type_id":"4","last_reported":1746094251,"current_range_meters":22800,"station_id":"ce4bhbp2rcd13ifvqerg","pricing_plan_id":"cebpf4jnsgd1na2vs0mg"},{"bike_id":"0b554a3c-5bda-4917-9867-069b0d65fc84","system_id":"levelo_inurba_marseille","lat":43.248,"lon":5.37454,"is_reserved":false,"is_disabled":false,"rental_uris":{"android":"levelo://app?vid=0b554a3c-5bda-4917-9867-069b0d65fc84","ios":"levelo://app?vid=0b554a3c-5bda-4917-9867-069b0d65fc84"},"vehicle_type_id":"4","last_reported":1746094251,"current_range_meters":22800,"station_id":"ce4bhgh2rcd13ifvqfb0","pricing_plan_id":"cebpf4jnsgd1na2vs0mg"},{"bike_id":"314e8a3e-595a-46bc-a208-98cb62d42fd9","system_id":"levelo_inurba_marseille","lat":43.24388,"lon":5.37062,"is_reserved":false,"is_disabled":false,"rental_uris":{"android":"levelo://app?vid=314e8a3e-595a-46bc-a208-98cb62d42fd9","ios":"levelo://app?vid=314e8a3e-595a-46bc-a208-98cb62d42fd9"},"vehicle_type_id":"4","last_reported":1746094251,"current_range_meters":22800,"station_id":"ce4bhhh2rcd13ifvqfk0","pricing_plan_id":"cebpf4jnsgd1na2vs0mg"},{"bike_id":"3fa20ce5-7209-40e1-bcf3-f760679230dd","system_id":"levelo_inurba_marseille","lat":43.3042,"lon":5.41281,"is_reserved":false,"is_disabled":false,"rental_uris":{"android":"levelo://app?vid=3fa20ce5-7209-40e1-bcf3-f760679230dd","ios":"levelo://app?vid=3fa20ce5-7209-40e1-bcf3-f760679230dd"},"vehicle_type_id":"4","last_reported":1746094251,"current_range_meters":22800,"station_id":"ce4bhop2rcd13ifvqh8g","pricing_plan_id":"cebpf4jnsgd1na2vs0mg"},{"bike_id":"bdd874bf-8b3d-4076-a712-d07e93d4641c","system_id":"levelo_inurba_marseille","lat":43.33047,"lon":5.3904,"is_reserved":false,"is_disabled":false,"rental_uris":{"android":"levelo://app?vid=bdd874bf-8b3d-4076-a712-d07e93d4641c","ios":"levelo://app?vid=bdd874bf-8b3d-4076-a712-d07e93d4641c"},"vehicle_type_id":"4","last_reported":1746094251,"current_range_meters":22800,"station_id":"ce4bhr92rcd13ifvqhrg","pricing_plan_id":"cebpf4jnsgd1na2vs0mg"},{"bike_id":"cce7d4cb-815a-43e8-a8ce-f16da69b88ef","system_id":"levelo_inurba_marseille","lat":43.32104,"lon":5.36771,"is_reserved":false,"is_disabled":false,"rental_uris":{"android":"levelo://app?vid=cce7d4cb-815a-43e8-a8ce-f16da69b88ef","ios":"levelo://app?vid=cce7d4cb-815a-43e8-a8ce-f16da69b88ef"},"vehicle_type_id":"4","last_reported":1746094251,"current_range_meters":22800,"station_id":"ce4bhrh2rcd13ifvqhug","pricing_plan_id":"cebpf4jnsgd1na2vs0mg"},{"bike_id":"94d4e8fc-3b03-43a2-b507-1893cb883275","system_id":"levelo_inurba_marseille","lat":43.32101,"lon":5.3674,"is_reserved":false,"is_disabled":false,"rental_uris":{"android":"levelo://app?vid=94d4e8fc-3b03-43a2-b507-1893cb883275","ios":"levelo://app?vid=94d4e8fc-3b03-43a2-b507-1893cb883275"},"vehicle_type_id":"4","last_reported":1746094251,"current_range_meters":22800,"station_id":"ce4bhrh2rcd13ifvqhug","pricing_plan_id":"cebpf4jnsgd1na2vs0mg"},{"bike_id":"fa8d916d-24a1-4861-a60c-6a63aa6ebbf1","system_id":"levelo_inurba_marseille","lat":43.21748,"lon":5.34606,"is_reserved":false,"is_disabled":false,"rental_uris":{"android":"levelo://app?vid=fa8d916d-24a1-4861-a60c-6a63aa6ebbf1","ios":"levelo://app?vid=fa8d916d-24a1-4861-a60c-6a63aa6ebbf1"},"vehicle_type_id":"4","last_reported":1746094251,"current_range_meters":22800,"station_id":"st_cvj6r9ubvosntc0bgbag","pricing_plan_id":"cebpf4jnsgd1na2vs0mg"},{"bike_id":"76c28269-e882-46f1-8608-bc6bf889e648","system_id":"levelo_inurba_marseille","lat":43.21187,"lon":5.35074,"is_reserved":false,"is_disabled":false,"rental_uris":{"android":"levelo://app?vid=76c28269-e882-46f1-8608-bc6bf889e648","ios":"levelo://app?vid=76c28269-e882-46f1-8608-bc6bf889e648"},"vehicle_type_id":"4","last_reported":1746094251,"current_range_meters":22800,"station_id":"st_cvj6sg6p6f1abm77japg","pricing_plan_id":"cebpf4jnsgd1na2vs0mg"},{"bike_id":"b02bda75-a93c-4e1c-af6f-c4f2859c07de","system_id":"levelo_inurba_marseille","lat":43.28413,"lon":5.34979,"is_reserved":false,"is_disabled":false,"rental_uris":{"android":"levelo://app?vid=b02bda75-a93c-4e1c-af6f-c4f2859c07de","ios":"levelo://app?vid=b02bda75-a93c-4e1c-af6f-c4f2859c07de"},"vehicle_type_id":"4","last_reported":1746094251,"current_range_meters":23200,"station_id":"ce4bhbh2rcd13ifvqepg","pricing_plan_id":"cebpf4jnsgd1na2vs0mg"},{"bike_id":"a9441566-6e57-40c4-bee2-096f49b6c57c","system_id":"levelo_inurba_marseille","lat":43.28275,"lon":5.3507,"is_reserved":false,"is_disabled":false,"rental_uris":{"android":"levelo://app?vid=a9441566-6e57-40c4-bee2-096f49b6c57c","ios":"levelo://app?vid=a9441566-6e57-40c4-bee2-096f49b6c57c"},"vehicle_type_id":"4","last_reported":1746094251,"current_range_meters":23200,"station_id":"ce4bhbp2rcd13ifvqerg","pricing_plan_id":"cebpf4jnsgd1na2vs0mg"},{"bike_id":"3c462008-3d06-4d97-a417-de654c9308be","system_id":"levelo_inurba_marseille","lat":43.26024,"lon":5.41728,"is_reserved":false,"is_disabled":false,"rental_uris":{"android":"levelo://app?vid=3c462008-3d06-4d97-a417-de654c9308be","ios":"levelo://app?vid=3c462008-3d06-4d97-a417-de654c9308be"},"vehicle_type_id":"4","last_reported":1746094251,"current_range_meters":24000,"station_id":"","pricing_plan_id":"cebpf4jnsgd1na2vs0mg"},{"bike_id":"de21e26b-7bb1-4725-8f81-bd0f74c2453d","system_id":"levelo_inurba_marseille","lat":43.2783,"lon":5.35406,"is_reserved":false,"is_disabled":false,"rental_uris":{"android":"levelo://app?vid=de21e26b-7bb1-4725-8f81-bd0f74c2453d","ios":"levelo://app?vid=de21e26b-7bb1-4725-8f81-bd0f74c2453d"},"vehicle_type_id":"4","last_reported":1746094251,"current_range_meters":24000,"station_id":"","pricing_plan_id":"cebpf4jnsgd1na2vs0mg"},{"bike_id":"d11887fd-e2eb-469a-9f77-d8dc8e04d10a","system_id":"levelo_inurba_marseille","lat":43.29619,"lon":5.37153,"is_reserved":false,"is_disabled":false,"rental_uris":{"android":"levelo://app?vid=d11887fd-e2eb-469a-9f77-d8dc8e04d10a","ios":"levelo://app?vid=d11887fd-e2eb-469a-9f77-d8dc8e04d10a"},"vehicle_type_id":"4","last_reported":1746094251,"current_range_meters":24000,"station_id":"ce4bgnh2rcd13ifvqc0g","pricing_plan_id":"cebpf4jnsgd1na2vs0mg"},{"bike_id":"15499e7c-6971-43e2-9a1e-d2fee61673f2","system_id":"levelo_inurba_marseille","lat":43.309329,"lon":5.40137,"is_reserved":false,"is_disabled":false,"rental_uris":{"android":"levelo://app?vid=15499e7c-6971-43e2-9a1e-d2fee61673f2","ios":"levelo://app?vid=15499e7c-6971-43e2-9a1e-d2fee61673f2"},"vehicle_type_id":"4","last_reported":1746094251,"current_range_meters":24000,"station_id":"ce4bgvp2rcd13ifvqct0","pricing_plan_id":"cebpf4jnsgd1na2vs0mg"},{"bike_id":"80f37b6a-0501-4a49-868b-b115cc593366","system_id":"levelo_inurba_marseille","lat":43.27372,"lon":5.36256,"is_reserved":false,"is_disabled":false,"rental_uris":{"android":"levelo://app?vid=80f37b6a-0501-4a49-868b-b115cc593366","ios":"levelo://app?vid=80f37b6a-0501-4a49-868b-b115cc593366"},"vehicle_type_id":"4","last_reported":1746094251,"current_range_meters":24000,"station_id":"ce4bhbh2rcd13ifvqeo0","pricing_plan_id":"cebpf4jnsgd1na2vs0mg"},{"bike_id":"f393f2f1-21a1-4d02-b75a-a12da881278c","system_id":"levelo_inurba_marseille","lat":43.28409,"lon":5.34978,"is_reserved":false,"is_disabled":false,"rental_uris":{"android":"levelo://app?vid=f393f2f1-21a1-4d02-b75a-a12da881278c","ios":"levelo://app?vid=f393f2f1-21a1-4d02-b75a-a12da881278c"},"vehicle_type_id":"4","last_reported":1746094251,"current_range_meters":24000,"station_id":"ce4bhbh2rcd13ifvqepg","pricing_plan_id":"cebpf4jnsgd1na2vs0mg"},