{"last_updated":1729094987,"ttl":60,"version":"2.2","data":{"bikes":[{"bike_id":"62bf1a5e-4781-451a-897d-4ecd9373c644","system_id":"levelo_inurba_marseille","lat":43.25014,"lon":5.38921,"is_reserved":false,"is_disabled":false,"rental_uris":{"android":"levelo://app?vid=62bf1a5e-4781-451a-897d-4ecd9373c644","ios":"levelo://app?vid=62bf1a5e-4781-451a-897d-4ecd9373c644"},"vehicle_type_id":"4","last_reported":1729094987,"current_range_meters":18000,"station_id":"ce4bhgp2rcd13ifvqfd0","pricing_plan_id":"cebpf4jnsgd1na2vs0mg"},{"bike_id":"da5d701e-6a49-4049-8151-da209926de8c","system_id":"levelo_inurba_marseille","lat":43.28939,"lon":5.39629,"is_reserved":false,"is_disabled":false,"rental_uris":{"android":"levelo://app?vid=da5d701e-6a49-4049-8151-da209926de8c","ios":"levelo://app?vid=da5d701e-6a49-4049-8151-da209926de8c"},"vehicle_type_id":"4","last_reported":1729094987,"current_range_meters":8400,"station_id":"ce4bh3h2rcd13ifvqdn0","pricing_plan_id":"cebpf4jnsgd1na2vs0mg"},{"bike_id":"29bc921a-ecfd-4077-b293-de8cef8125a9","system_id":"levelo_inurba_marseille","lat":43.29594,"lon":5.38098,"is_reserved":false,"is_disabled":false,"rental_uris":{"android":"levelo://app?vid=29bc921a-ecfd-4077-b293-de8cef8125a9","ios":"levelo://app?vid=29bc921a-ecfd-4077-b293-de8cef8125a9"},"vehicle_type_id":"4","last_reported":1729094987,"current_range_meters":12000,"station_id":"ce4bgl12rcd13ifvqbo0","pricing_plan_id":"cebpf4jnsgd1na2vs0mg"},{"bike_id":"676ec6c4-6b42-43e0-81fe-327782965da5","system_id":"levelo_inurba_marseille","lat":43.337444,"lon":5.374475,"is_reserved":false,"is_disabled":false,"rental_uris":{"android":"levelo://app?vid=676ec6c4-6b42-43e0-81fe-327782965da5","ios":"levelo://app?vid=676ec6c4-6b42-43e0-81fe-327782965da5"},"vehicle_type_id":"4","last_reported":1729094987,"current_range_meters":20400,"station_id":"","pricing_plan_id":"cebpf4jnsgd1na2vs0mg"},{"bike_id":"6c702cdd-a4d9-4132-8283-8ebe0876643d","system_id":"levelo_inurba_marseille","lat":43.29519,"lon":5.39043,"is_reserved":false,"is_disabled":false,"rental_uris":{"android":"levelo://app?vid=6c702cdd-a4d9-4132-8283-8ebe0876643d","ios":"levelo://app?vid=6c702cdd-a4d9-4132-8283-8ebe0876643d"},"vehicle_type_id":"4","last_reported":1729094987,"current_range_meters":24400,"station_id":"ce4bh3p2rcd13ifvqdp0","pricing_plan_id":"cebpf4jnsgd1na2vs0mg"},{"bike_id":"a6e03432-7298-4fd5-af27-f2f9b72dc9cd","system_id":"levelo_inurba_marseille","lat":43.32051,"lon":5.41552,"is_reserved":false,"is_disabled":false,"rental_uris":{"android":"levelo://app?vid=a6e03432-7298-4fd5-af27-f2f9b72dc9cd","ios":"levelo://app?vid=a6e03432-7298-4fd5-af27-f2f9b72dc9cd"},"vehicle_type_id":"4","last_reported":1729094987,"current_range_meters":3200,"station_id":"ce4bhq92rcd13ifvqhkg","pricing_plan_id":"cebpf4jnsgd1na2vs0mg"},{"bike_id":"a6c9b109-0fb7-4a21-8f17-7bd55cbcba08","system_id":"levelo_inurba_marseille","lat":43.27917,"lon":5.39591,"is_reserved":false,"is_disabled":false,"rental_uris":{"android":"levelo://app?vid=a6c9b109-0fb7-4a21-8f17-7bd55cbcba08","ios":"levelo://app?vid=a6c9b109-0fb7-4a21-8f17-7bd55cbcba08"},"vehicle_type_id":"4","last_reported":1729094987,"current_range_meters":3600,"station_id":"ce4bhf92rcd13ifvqf40","pricing_plan_id":"cebpf4jnsgd1na2vs0mg"},{"bike_id":"f753014a-e02a-4cf3-9817-33330c7ddf67","system_id":"levelo_inurba_marseille","lat":43.27813,"lon":5.40707,"is_reserved":false,"is_disabled":false,"rental_uris":{"android":"levelo://app?vid=f753014a-e02a-4cf3-9817-33330c7ddf67","ios":"levelo://app?vid=f753014a-e02a-4cf3-9817-33330c7ddf67"},"vehicle_type_id":"4","last_reported":1729094987,"current_range_meters":37600,"station_id":"ce4bhnh2rcd13ifvqgtg","pricing_plan_id":"cebpf4jnsgd1na2vs0mg"},{"bike_id":"042e5b40-9e97-45f4-843e-ff54af18e3a3","system_id":"levelo_inurba_marseille","lat":43.337444,"lon":5.374475,"is_reserved":false,"is_disabled":false,"rental_uris":{"android":"levelo://app?vid=042e5b40-9e97-45f4-843e-ff54af18e3a3","ios":"levelo://app?vid=042e5b40-9e97-45f4-843e-ff54af18e3a3"},"vehicle_type_id":"4","last_reported":1729094987,"current_range_meters":35600,"station_id":"","pricing_plan_id":"cebpf4jnsgd1na2vs0mg"},{"bike_id":"d25e3192-c141-44fa-83a9-f7ae7b4adfc7","system_id":"levelo_inurba_marseille","lat":43.23177,"lon":5.39994,"is_reserved":false,"is_disabled":false,"rental_uris":{"android":"levelo://app?vid=d25e3192-c141-44fa-83a9-f7ae7b4adfc7","ios":"levelo://app?vid=d25e3192-c141-44fa-83a9-f7ae7b4adfc7"},"vehicle_type_id":"4","last_reported":1729094987,"current_range_meters":6400,"station_id":"ce4bhn12rcd13ifvqgqg","pricing_plan_id":"cebpf4jnsgd1na2vs0mg"},{"bike_id":"d342b7fd-927d-47c6-bc17-6766c9696902","system_id":"levelo_inurba_marseille","lat":43.297817,"lon":5.393446,"is_reserved":false,"is_disabled":false,"rental_uris":{"android":"levelo://app?vid=d342b7fd-927d-47c6-bc17-6766c9696902","ios":"levelo://app?vid=d342b7fd-927d-47c6-bc17-6766c9696902"},"vehicle_type_id":"4","last_reported":1729094987,"current_range_meters":16400,"station_id":"chh1huq6cuj3fo74tm60","pricing_plan_id":"cebpf4jnsgd1na2vs0mg"},{"bike_id":"8bc37b02-26f7-4159-9abd-810480094a3d","system_id":"levelo_inurba_marseille","lat":43.33027,"lon":5.39044,"is_reserved":false,"is_disabled":false,"rental_uris":{"android":"levelo://app?vid=8bc37b02-26f7-4159-9abd-810480094a3d","ios":"levelo://app?vid=8bc37b02-26f7-4159-9abd-810480094a3d"},"vehicle_type_id":"4","last_reported":1729094987,"current_range_meters":34800,"station_id":"ce4bhr92rcd13ifvqhrg","pricing_plan_id":"cebpf4jnsgd1na2vs0mg"},{"bike_id":"068d31f0-68a7-48f8-b60c-ba30218a18b4","system_id":"levelo_inurba_marseille","lat":43.3054,"lon":5.36557,"is_reserved":false,"is_disabled":false,"rental_uris":{"android":"levelo://app?vid=068d31f0-68a7-48f8-b60c-ba30218a18b4","ios":"levelo://app?vid=068d31f0-68a7-48f8-b60c-ba30218a18b4"},"vehicle_type_id":"4","last_reported":1729094987,"current_range_meters":37600,"station_id":"ce4bgs12rcd13ifvqcag","pricing_plan_id":"cebpf4jnsgd1na2vs0mg"},{"bike_id":"c8fdfee4-d3ac-4742-a5aa-435dec59b7fb","system_id":"levelo_inurba_marseille","lat":43.24515,"lon":5.42841,"is_reserved":false,"is_disabled":false,"rental_uris":{"android":"levelo://app?vid=c8fdfee4-d3ac-4742-a5aa-435dec59b7fb","ios":"levelo://app?vid=c8fdfee4-d3ac-4742-a5aa-435dec59b7fb"},"vehicle_type_id":"4","last_reported":1729094987,"current_range_meters":38800,"station_id":"","pricing_plan_id":"cebpf4jnsgd1na2vs0mg"},{"bike_id":"ed9ceac0-2b18-458b-85bc-6d91de099f81","system_id":"levelo_inurba_marseille","lat":43.32367,"lon":5.38886,"is_reserved":false,"is_disabled":false,"rental_uris":{"android":"levelo://app?vid=ed9ceac0-2b18-458b-85bc-6d91de099f81","ios":"levelo://app?vid=ed9ceac0-2b18-458b-85bc-6d91de099f81"},"vehicle_type_id":"4","last_reported":1729094987,"current_range_meters":29600,"station_id":"ce4bhqp2rcd13ifvqhog","pricing_plan_id":"cebpf4jnsgd1na2vs0mg"},{"bike_id":"fa5ce8e6-70ad-4d7b-b906-966444e2d39f","system_id":"levelo_inurba_marseille","lat":43.28276,"lon":5.35096,"is_reserved":false,"is_disabled":false,"rental_uris":{"android":"levelo://app?vid=fa5ce8e6-70ad-4d7b-b906-966444e2d39f","ios":"levelo://app?vid=fa5ce8e6-70ad-4d7b-b906-966444e2d39f"},"vehicle_type_id":"4","last_reported":1729094987,"current_range_meters":38800,"station_id":"ce4bhbp2rcd13ifvqerg","pricing_plan_id":"cebpf4jnsgd1na2vs0mg"},{"bike_id":"92c2fa0e-e981-46b0-a1ad-a60ae656b7c8","system_id":"levelo_inurba_marseille","lat":43.29738,"lon":5.37691,"is_reserved":false,"is_disabled":false,"rental_uris":{"android":"levelo://app?vid=92c2fa0e-e981-46b0-a1ad-a60ae656b7c8","ios":"levelo://app?vid=92c2fa0e-e981-46b0-a1ad-a60ae656b7c8"},"vehicle_type_id":"4","last_reported":1729094987,"current_range_meters":6400,"station_id":"ce4bgkh2rcd13ifvqbl0","pricing_plan_id":"cebpf4jnsgd1na2vs0mg"},{"bike_id":"b01d8174-a72f-462e-b021-b338c64609c4","system_id":"levelo_inurba_marseille","lat":43.28935,"lon":5.36643,"is_reserved":false,"is_disabled":false,"rental_uris":{"android":"levelo://app?vid=b01d8174-a72f-462e-b021-b338c64609c4","ios":"levelo://app?vid=b01d8174-a72f-462e-b021-b338c64609c4"},"vehicle_type_id":"4","last_reported":1729094987,"current_range_meters":24000,"station_id":"ce4bhap2rcd13ifvqek0","pricing_plan_id":"cebpf4jnsgd1na2vs0mg"},{"bike_id":"a6b4578e-3cab-4bcb-ae84-333753b03084","system_id":"levelo_inurba_marseille","lat":43.23177,"lon":5.39985,"is_reserved":false,"is_disabled":false,"rental_uris":{"android":"levelo://app?vid=a6b4578e-3cab-4bcb-ae84-333753b03084","ios":"levelo://app?vid=a6b4578e-3cab-4bcb-ae84-333753b03084"},"vehicle_type_id":"4","last_reported":1729094987,"current_range_meters":27600,"station_id":"ce4bhn12rcd13ifvqgqg","pricing_plan_id":"cebpf4jnsgd1na2vs0mg"},{"bike_id":"7557b186-858a-4493-ad07-036d60298d26","system_id":"levelo_inurba_marseille","lat":43.30885,"lon":5.39661,"is_reserved":false,"is_disabled":false,"rental_uris":{"android":"levelo://app?vid=7557b186-858a-4493-ad07-036d60298d26","ios":"levelo://app?vid=7557b186-858a-4493-ad07-036d60298d26"},"vehicle_type_id":"4","last_reported":1729094987,"current_range_meters":1600,"station_id":"ce4bh012rcd13ifvqcv0","pricing_plan_id":"cebpf4jnsgd1na2vs0mg"},{"bike_id":"8b5d7414-2b08-4e30-b677-b339f42b4115","system_id":"levelo_inurba_marseille","lat":43.2922,"lon":5.36052,"is_reserved":false,"is_disabled":false,"rental_uris":{"android":"levelo://app?vid=8b5d7414-2b08-4e30-b677-b339f42b4115","ios":"levelo://app?vid=8b5d7414-2b08-4e30-b677-b339f42b4115"},"vehicle_type_id":"4","last_reported":1729094987,"current_range_meters":33600,"station_id":"ce4bhbh2rcd13ifvqeqg","pricing_plan_id":"cebpf4jnsgd1na2vs0mg"},{"bike_id":"8876daca-cf53-4f19-9cca-834befd4da89","system_id":"levelo_inurba_marseille","lat":43.27185,"lon":5.39203,"is_reserved":false,"is_disabled":false,"rental_uris":{"android":"levelo://app?vid=8876daca-cf53-4f19-9cca-834befd4da89","ios":"levelo://app?vid=8876daca-cf53-4f19-9cca-834befd4da89"},"vehicle_type_id":"4","last_reported":1729094987,"current_range_meters":5600,"station_id":"ce4bhhp2rcd13ifvqfm0","pricing_plan_id":"cebpf4jnsgd1na2vs0mg"},{"bike_id":"7c3e7380-db2e-47cc-9ee3-e21fbbd8b6ea","system_id":"levelo_inurba_marseille","lat":43.31361,"lon":5.38495,"is_reserved":false,"is_disabled":false,"rental_uris":{"android":"levelo://app?vid=7c3e7380-db2e-47cc-9ee3-e21fbbd8b6ea","ios":"levelo://app?vid=7c3e7380-db2e-47cc-9ee3-e21fbbd8b6ea"},"vehicle_type_id":"4","last_reported":1729094987,"current_range_meters":39200,"station_id":"ce4bgt92rcd13ifvqcf0","pricing_plan_id":"cebpf4jnsgd1na2vs0mg"},{"bike_id":"618d65c9-6a2f-489c-ad61-aa0ed2341c78","system_id":"levelo_inurba_marseille","lat":43.29173,"lon":5.3716,"is_reserved":false,"is_disabled":false,"rental_uris":{"android":"levelo://app?vid=618d65c9-6a2f-489c-ad61-aa0ed2341c78","ios":"levelo://app?vid=618d65c9-6a2f-489c-ad61-aa0ed2341c78"},"vehicle_type_id":"4","last_reported":1729094987,"current_range_meters":22000,"station_id":"ce4bha92rcd13ifvqeh0","pricing_plan_id":"cebpf4jnsgd1na2vs0mg"},{"bike_id":"7360af15-2747-4d70-9c86-2c8b22e3b285","system_id":"levelo_inurba_marseille","lat":43.25086,"lon":5.39522,"is_reserved":false,"is_disabled":false,"rental_uris":{"android":"levelo://app?vid=7360af15-2747-4d70-9c86-2c8b22e3b285","ios":"levelo://app?vid=7360af15-2747-4d70-9c86-2c8b22e3b285"},"vehicle_type_id":"4","last_reported":1729094987,"current_range_meters":24000,"station_id":"ce4bhm12rcd13ifvqgkg","pricing_plan_id":"cebpf4jnsgd1na2vs0mg"},{"bike_id":"e37d0614-3813-4066-a287-f5a1ec5f62ae","system_id":"levelo_inurba_marseille","lat":43.30767,"lon":5.37652,"is_reserved":false,"is_disabled":false,"rental_uris":{"android":"levelo://app?vid=e37d0614-3813-4066-a287-f5a1ec5f62ae","ios":"levelo://app?vid=e37d0614-3813-4066-a287-f5a1ec5f62ae"},"vehicle_type_id":"4","last_reported":1729094987,"current_range_meters":38800,"station_id":"ce4bgv92rcd13ifvqcq0","pricing_plan_id":"cebpf4jnsgd1na2vs0mg"},{"bike_id":"90263e99-d5aa-44b8-a4c8-0353aa3b308c","system_id":"levelo_inurba_marseille","lat":43.23066,"lon":5.35495,"is_reserved":false,"is_disabled":false,"rental_uris":{"android":"levelo://app?vid=90263e99-d5aa-44b8-a4c8-0353aa3b308c","ios":"levelo://app?vid=90263e99-d5aa-44b8-a4c8-0353aa3b308c"},"vehicle_type_id":"4","last_reported":1729094987,"current_range_meters":14400,"station_id":"cpo3342slgdg3j2ifvpg","pricing_plan_id":"cebpf4jnsgd1na2vs0mg"},{"bike_id":"a1d498a1-baa1-4946-bb15-64653c4175fe","system_id":"levelo_inurba_marseille","lat":43.29524,"lon":5.39408,"is_reserved":false,"is_disabled":false,"rental_uris":{"android":"levelo://app?vid=a1d498a1-baa1-4946-bb15-64653c4175fe","ios":"levelo://app?vid=a1d498a1-baa1-4946-bb15-64653c4175fe"},"vehicle_type_id":"4","last_reported":1729094987,"current_range_meters":24800,"station_id":"ce4bh292rcd13ifvqdf0","pricing_plan_id":"cebpf4jnsgd1na2vs0mg"},{"bike_id":"e30a168b-2edd-4761-a3c1-6ad30b6f6eee","system_id":"levelo_inurba_marseille","lat":43.295205,"lon":5.39043,"is_reserved":false,"is_disabled":false,"rental_uris":{"android":"levelo://app?vid=e30a168b-2edd-4761-a3c1-6ad30b6f6eee","ios":"levelo://app?vid=e30a168b-2edd-4761-a3c1-6ad30b6f6eee"},"vehicle_type_id":"4","last_reported":1729094987,"current_range_meters":9600,"station_id":"ce4bh3p2rcd13ifvqdp0","pricing_plan_id":"cebpf4jnsgd1na2vs0mg"},{"bike_id":"7cdbd728-8b04-47a0-bba7-1317cf236f96","system_id":"levelo_inurba_marseille","lat":43.293,"lon":5.37462,"is_reserved":false,"is_disabled":false,"rental_uris":{"android":"levelo://app?vid=7cdbd728-8b04-47a0-bba7-1317cf236f96","ios":"levelo://app?vid=7cdbd728-8b04-47a0-bba7-1317cf236f96"},"vehicle_type_id":"4","last_reported":1729094987,"current_range_meters":17600,"station_id":"ce4bgi12rcd13ifvqb70","pricing_plan_id":"cebpf4jnsgd1na2vs0mg"},{"bike_id":"8af24ca8-e6d4-46c7-ab6f-a1a7b842ddb0","system_id":"levelo_inurba_marseille","lat":43.25084,"lon":5.39517,"is_reserved":false,"is_disabled":false,"rental_uris":{"android":"levelo://app?vid=8af24ca8-e6d4-46c7-ab6f-a1a7b842ddb0","ios":"levelo://app?vid=8af24ca8-e6d4-46c7-ab6f-a1a7b842ddb0"},"vehicle_type_id":"4","last_reported":1729094987,"current_range_meters":20000,"station_id":"ce4bhm12rcd13ifvqgkg","pricing_plan_id":"cebpf4jnsgd1na2vs0mg"},{"bike_id":"fa7bbdc9-afbe-404d-8676-647037cc76a9","system_id":"levelo_inurba_marseille","lat":43.23192,"lon":5.35552,"is_reserved":false,"is_disabled":false,"rental_uris":{"android":"levelo://app?vid=fa7bbdc9-afbe-404d-8676-647037cc76a9","ios":"levelo://app?vid=fa7bbdc9-afbe-404d-8676-647037cc76a9"},"vehicle_type_id":"4","last_reported":1729094987,"current_range_meters":37600,"station_id":"ce4bhu92rcd13ifvqi70","pricing_plan_id":"cebpf4jnsgd1na2vs0mg"},{"bike_id":"931ad2f4-35ea-42b5-bc1a-1fdec477398a","system_id":"levelo_inurba_marseille","lat":43.337444,"lon":5.374475,"is_reserved":false,"is_disabled":false,"rental_uris":{"android":"levelo://app?vid=931ad2f4-35ea-42b5-bc1a-1fdec477398a","ios":"levelo://app?vid=931ad2f4-35ea-42b5-bc1a-1fdec477398a"},"vehicle_type_id":"4","last_reported":1729094987,"current_range_meters":38000,"station_id":"","pricing_plan_id":"cebpf4jnsgd1na2vs0mg"},{"bike_id":"a933cad2-55d7-4e50-a4d1-f0aaa8a74562","system_id":"levelo_inurba_marseille","lat":43.30605,"lon":5.37228,"is_reserved":false,"is_disabled":false,"rental_uris":{"android":"levelo://app?vid=a933cad2-55d7-4e50-a4d1-f0aaa8a74562","ios":"levelo://app?vid=a933cad2-55d7-4e50-a4d1-f0aaa8a74562"},"vehicle_type_id":"4","last_reported":1729094987,"current_range_meters":36800,"station_id":"ce4bgqh2rcd13ifvqc4g","pricing_plan_id":"cebpf4jnsgd1na2vs0mg"},{"bike_id":"8001948e-9634-418b-a801-000037361ff8","system_id":"levelo_inurba_marseille","lat":43.29965,"lon":5.41322,"is_reserved":false,"is_disabled":false,"rental_uris":{"android":"levelo://app?vid=8001948e-9634-418b-a801-000037361ff8","ios":"levelo://app?vid=8001948e-9634-418b-a801-000037361ff8"},"vehicle_type_id":"4","last_reported":1729094987,"current_range_meters":38800,"station_id":"ce4bhp12rcd13ifvqh9g","pricing_plan_id":"cebpf4jnsgd1na2vs0mg"},{"bike_id":"81e32d4e-df25-4349-90c7-1831752870c9","system_id":"levelo_inurba_marseille","lat":43.27946,"lon":5.41052,"is_reserved":false,"is_disabled":false,"rental_uris":{"android":"levelo://app?vid=81e32d4e-df25-4349-90c7-1831752870c9","ios":"levelo://app?vid=81e32d4e-df25-4349-90c7-1831752870c9"},"vehicle_type_id":"4","last_reported":1729094987,"current_range_meters":34000,"station_id":"ce4bhnp2rcd13ifvqh0g","pricing_plan_id":"cebpf4jnsgd1na2vs0mg"},{"bike_id":"8c1ec6cb-2291-4814-837b-be8625c706f3","system_id":"levelo_inurba_marseille","lat":43.23197,"lon":5.3555,"is_reserved":false,"is_disabled":false,"rental_uris":{"android":"levelo://app?vid=8c1ec6cb-2291-4814-837b-be8625c706f3","ios":"levelo://app?vid=8c1ec6cb-2291-4814-837b-be8625c706f3"},"vehicle_type_id":"4","last_reported":1729094987,"current_range_meters":38800,"station_id":"ce4bhu92rcd13ifvqi70","pricing_plan_id":"cebpf4jnsgd1na2vs0mg"},{"bike_id":"01308c0c-4960-4164-be56-8f191e3c88c9","system_id":"levelo_inurba_marseille","lat":43.28089,"lon":5.39666,"is_reserved":false,"is_disabled":false,"rental_uris":{"android":"levelo://app?vid=01308c0c-4960-4164-be56-8f191e3c88c9","ios":"levelo://app?vid=01308c0c-4960-4164-be56-8f191e3c88c9"},"vehicle_type_id":"4","last_reported":1729094987,"current_range_meters":9600,"station_id":"ce4bho12rcd13ifvqh2g","pricing_plan_id":"cebpf4jnsgd1na2vs0mg"},{"bike_id":"8cd9a0be-5e98-4d55-a4ec-d164ab97f55f","system_id":"levelo_inurba_marseille","lat":43.29211,"lon":5.35836,"is_reserved":false,"is_disabled":false,"rental_uris":{"android":"levelo://app?vid=8cd9a0be-5e98-4d55-a4ec-d164ab97f55f","ios":"levelo://app?vid=8cd9a0be-5e98-4d55-a4ec-d164ab97f55f"},"vehicle_type_id":"4","last_reported":1729094987,"current_range_meters":25200,"station_id":"ce4bhr12rcd13ifvqhpg","pricing_plan_id":"cebpf4jnsgd1na2vs0mg"},{"bike_id":"f0043568-aefd-42f3-aa54-6ce791a3b531","system_id":"levelo_inurba_marseille","lat":43.283548,"lon":5.381011,"is_reserved":false,"is_disabled":false,"rental_uris":{"android":"levelo://app?vid=f0043568-aefd-42f3-aa54-6ce791a3b531","ios":"levelo://app?vid=f0043568-aefd-42f3-aa54-6ce791a3b531"},"vehicle_type_id":"4","last_reported":1729094987,"current_range_meters":36800,"station_id":"ce4bh412rcd13ifvqdr0","pricing_plan_id":"cebpf4jnsgd1na2vs0mg"},{"bike_id":"fc585efe-2af4-4e02-b9aa-db69aa369136","system_id":"levelo_inurba_marseille","lat":43.2694,"lon":5.40249,"is_reserved":false,"is_disabled":false,"rental_uris":{"android":"levelo://app?vid=fc585efe-2af4-4e02-b9aa-db69aa369136","ios":"levelo://app?vid=fc585efe-2af4-4e02-b9aa-db69aa369136"},"vehicle_type_id":"4","last_reported":1729094987,"current_range_meters":8000,"station_id":"cjm6bp8fraef2m0cb0m0","pricing_plan_id":"cebpf4jnsgd1na2vs0mg"},{"bike_id":"a05defca-fd86-439a-a5fc-3fffef38c78e","system_id":"levelo_inurba_marseille","lat":43.29198,"lon":5.35806,"is_reserved":false,"is_disabled":false,"rental_uris":{"android":"levelo://app?vid=a05defca-fd86-439a-a5fc-3fffef38c78e","ios":"levelo://app?vid=a05defca-fd86-439a-a5fc-3fffef38c78e"},"vehicle_type_id":"4","last_reported":1729094987,"current_range_meters":38800,"station_id":"ce4bhb12rcd13ifvqel0","pricing_plan_id":"cebpf4jnsgd1na2vs0mg"},{"bike_id":"6ea413be-bdcf-4ae4-a9d3-710e3d0bf84b","system_id":"levelo_inurba_marseille","lat":43.27811,"lon":5.40721,"is_reserved":false,"is_disabled":false,"rental_uris":{"android":"levelo://app?vid=6ea413be-bdcf-4ae4-a9d3-710e3d0bf84b","ios":"levelo://app?vid=6ea413be-bdcf-4ae4-a9d3-710e3d0bf84b"},"vehicle_type_id":"4","last_reported":1729094987,"current_range_meters":24800,"station_id":"ce4bhnh2rcd13ifvqgtg","pricing_plan_id":"cebpf4jnsgd1na2vs0mg"},{"bike_id":"ec5d5977-b874-4f40-87fc-636836359d0a","system_id":"levelo_inurba_marseille","lat":43.31358,"lon":5.385,"is_reserved":false,"is_disabled":false,"rental_uris":{"android":"levelo://app?vid=ec5d5977-b874-4f40-87fc-636836359d0a","ios":"levelo://app?vid=ec5d5977-b874-4f40-87fc-636836359d0a"},"vehicle_type_id":"4","last_reported":1729094987,"current_range_meters":9600,"station_id":"ce4bgt92rcd13ifvqcf0","pricing_plan_id":"cebpf4jnsgd1na2vs0mg"},{"bike_id":"7aeedbb6-c461-409e-9005-1c9f7062d2f5","system_id":"levelo_inurba_marseille","lat":43.2987,"lon":5.39733,"is_reserved":false,"is_disabled":false,"rental_uris":{"android":"levelo://app?vid=7aeedbb6-c461-409e-9005-1c9f7062d2f5","ios":"levelo://app?vid=7aeedbb6-c461-409e-9005-1c9f7062d2f5"},"vehicle_type_id":"4","last_reported":1729094987,"current_range_meters":2000,"station_id":"ce4bh0h2rcd13ifvqd50","pricing_plan_id":"cebpf4jnsgd1na2vs0mg"},{"bike_id":"8f740f50-5b31-4269-a128-619dab94106c","system_id":"levelo_inurba_marseille","lat":43.305924,"lon":5.393596,"is_reserved":false,"is_disabled":false,"rental_uris":{"android":"levelo://app?vid=8f740f50-5b31-4269-a128-619dab94106c","ios":"levelo://app?vid=8f740f50-5b31-4269-a128-619dab94106c"},"vehicle_type_id":"4","last_reported":1729094987,"current_range_meters":10800,"station_id":"ce4bh0p2rcd13ifvqd80","pricing_plan_id":"cebpf4jnsgd1na2vs0mg"},{"bike_id":"66ce4199-8b01-46e1-b770-6bacffc0ae20","system_id":"levelo_inurba_marseille","lat":43.29683,"lon":5.37882,"is_reserved":false,"is_disabled":false,"rental_uris":{"android":"levelo://app?vid=66ce4199-8b01-46e1-b770-6bacffc0ae20","ios":"levelo://app?vid=66ce4199-8b01-46e1-b770-6bacffc0ae20"},"vehicle_type_id":"4","last_reported":1729094987,"current_range_meters":16800,"station_id":"ce4bgpp2rcd13ifvqc3g","pricing_plan_id":"cebpf4jnsgd1na2vs0mg"},{"bike_id":"7dd5694d-19c5-4b39-928d-c19e6e365f2e","system_id":"levelo_inurba_marseille","lat":43.29257,"lon":5.40911,"is_reserved":false,"is_disabled":false,"rental_uris":{"android":"levelo://app?vid=7dd5694d-19c5-4b39-928d-c19e6e365f2e","ios":"levelo://app?vid=7dd5694d-19c5-4b39-928d-c19e6e365f2e"},"vehicle_type_id":"4","last_reported":1729094987,"current_range_meters":14400,"station_id":"ce4bh192rcd13ifvqdc0","pricing_plan_id":"cebpf4jnsgd1na2vs0mg"},{"bike_id":"0994d7f0-fa2e-480f-b967-2b1e1b476b78","system_id":"levelo_inurba_marseille","lat":43.23183,"lon":5.35566,"is_reserved":false,"is_disabled":false,"rental_uris":{"android":"levelo://app?vid=0994d7f0-fa2e-480f-b967-2b1e1b476b78","ios":"levelo://app?vid=0994d7f0-fa2e-480f-b967-2b1e1b476b78"},"vehicle_type_id":"4","last_reported":1729094987,"current_range_meters":20000,"station_id":"ce4bhu92rcd13ifvqi70","pricing_plan_id":"cebpf4jnsgd1na2vs0mg"},{"bike_id":"f6af6a6e-0c43-43ba-9e4a-2a70b3681fbb","system_id":"levelo_inurba_marseille","lat":43.31427,"lon":5.39375,"is_reserved":false,"is_disabled":false,"rental_uris":{"android":"levelo://app?vid=f6af6a6e-0c43-43ba-9e4a-2a70b3681fbb","ios":"levelo://app?vid=f6af6a6e-0c43-43ba-9e4a-2a70b3681fbb"},"vehicle_type_id":"4","last_reported":1729094987,"current_range_meters":22800,"station_id":"","pricing_plan_id":"cebpf4jnsgd1na2vs0mg"},{"bike_id":"9bf89721-6698-415b-a69b-a93114df62c9","system_id":"levelo_inurba_marseille","lat":43.295246,"lon":5.390422,"is_reserved":false,"is_disabled":false,"rental_uris":{"android":"levelo://app?vid=9bf89721-6698-415b-a69b-a93114df62c9","ios":"levelo://app?vid=9bf89721-6698-415b-a69b-a93114df62c9"},"vehicle_type_id":"4","last_reported":1729094987,"current_range_meters":3200,"station_id":"ce4bh3p2rcd13ifvqdp0","pricing_plan_id":"cebpf4jnsgd1na2vs0mg"},{"bike_id":"66ccc46d-618e-4760-b09c-27382152bdab","system_id":"levelo_inurba_marseille","lat":43.232,"lon":5.35544,"is_reserved":false,"is_disabled":false,"rental_uris":{"android":"levelo://app?vid=66ccc46d-618e-4760-b09c-27382152bdab","ios":"levelo://app?vid=66ccc46d-618e-4760-b09c-27382152bdab"},"vehicle_type_id":"4","last_reported":1729094987,"current_range_meters":36800,"station_id":"ce4bhu92rcd13ifvqi70","pricing_plan_id":"cebpf4jnsgd1na2vs0mg"},{"bike_id":"b1e65134-dbc7-4afb-a221-8cbc4c1769ae","system_id":"levelo_inurba_marseille","lat":43.27997,"lon":5.40015,"is_reserved":false,"is_disabled":false,"rental_uris":{"android":"levelo://app?vid=b1e65134-dbc7-4afb-a221-8cbc4c1769ae","ios":"levelo://app?vid=b1e65134-dbc7-4afb-a221-8cbc4c1769ae"},"vehicle_type_id":"4","last_reported":1729094987,"current_range_meters":24400,"station_id":"ce4bho92rcd13ifvqh4g","pricing_plan_id":"cebpf4jnsgd1na2vs0mg"},{"bike_id":"ce0672c0-b389-46ca-9ed1-56c6721e359b","system_id":"levelo_inurba_marseille","lat":43.32292,"lon":5.38271,"is_reserved":false,"is_disabled":false,"rental_uris":{"android":"levelo://app?vid=ce0672c0-b389-46ca-9ed1-56c6721e359b","ios":"levelo://app?vid=ce0672c0-b389-46ca-9ed1-56c6721e359b"},"vehicle_type_id":"4","last_reported":1729094987,"current_range_meters":9200,"station_id":"ce4bhr12rcd13ifvqhqg","pricing_plan_id":"cebpf4jnsgd1na2vs0mg"},{"bike_id":"105d57c5-8b33-4380-9d47-2c15b3e0102c","system_id":"levelo_inurba_marseille","lat":43.26937,"lon":5.40254,"is_reserved":false,"is_disabled":false,"rental_uris":{"android":"levelo://app?vid=105d57c5-8b33-4380-9d47-2c15b3e0102c","ios":"levelo://app?vid=105d57c5-8b33-4380-9d47-2c15b3e0102c"},"vehicle_type_id":"4","last_reported":1729094987,"current_range_meters":31200,"station_id":"cjm6bp8fraef2m0cb0m0","pricing_plan_id":"cebpf4jnsgd1na2vs0mg"},{"bike_id":"ce89b567-4e70-4d4a-85d0-55c0b98df728","system_id":"levelo_inurba_marseille","lat":43.28153,"lon":5.42643,"is_reserved":false,"is_disabled":false,"rental_uris":{"android":"levelo://app?vid=ce89b567-4e70-4d4a-85d0-55c0b98df728","ios":"levelo://app?vid=ce89b567-4e70-4d4a-85d0-55c0b98df728"},"vehicle_type_id":"4","last_reported":1729094987,"current_range_meters":3200,"station_id":"ce4bhnh2rcd13ifvqgug","pricing_plan_id":"cebpf4jnsgd1na2vs0mg"},{"bike_id":"6300df2c-b9fe-4275-916d-dd75e59140c9","system_id":"levelo_inurba_marseille","lat":43.23197,"lon":5.35548,"is_reserved":false,"is_disabled":false,"rental_uris":{"android":"levelo://app?vid=6300df2c-b9fe-4275-916d-dd75e59140c9","ios":"levelo://app?vid=6300df2c-b9fe-4275-916d-dd75e59140c9"},"vehicle_type_id":"4","last_reported":1729094987,"current_range_meters":37600,"station_id":"ce4bhu92rcd13ifvqi70","pricing_plan_id":"cebpf4jnsgd1na2vs0mg"},{"bike_id":"6d56330f-5e73-42d5-b4b2-2b0523e4e635","system_id":"levelo_inurba_marseille","lat":43.27948,"lon":5.41051,"is_reserved":false,"is_disabled":false,"rental_uris":{"android":"levelo://app?vid=6d56330f-5e73-42d5-b4b2-2b0523e4e635","ios":"levelo://app?vid=6d56330f-5e73-42d5-b4b2-2b0523e4e635"},"vehicle_type_id":"4","last_reported":1729094987,"current_range_meters":22400,"station_id":"ce4bhnp2rcd13ifvqh0g","pricing_plan_id":"cebpf4jnsgd1na2vs0mg"},{"bike_id":"9edc1cc9-c336-4ca1-a4ca-7ef1c938b7ba","system_id":"levelo_inurba_marseille","lat":43.26495,"lon":5.39546,"is_reserved":false,"is_disabled":false,"rental_uris":{"android":"levelo://app?vid=9edc1cc9-c336-4ca1-a4ca-7ef1c938b7ba","ios":"levelo://app?vid=9edc1cc9-c336-4ca1-a4ca-7ef1c938b7ba"},"vehicle_type_id":"4","last_reported":1729094987,"current_range_meters":26000,"station_id":"ce4bhi12rcd13ifvqfq0","pricing_plan_id":"cebpf4jnsgd1na2vs0mg"},{"bike_id":"64dddbe7-6a6e-429f-9b34-c061c3bc5b2b","system_id":"levelo_inurba_marseille","lat":43.2808,"lon":5.39665,"is_reserved":false,"is_disabled":false,"rental_uris":{"android":"levelo://app?vid=64dddbe7-6a6e-429f-9b34-c061c3bc5b2b","ios":"levelo://app?vid=64dddbe7-6a6e-429f-9b34-c061c3bc5b2b"},"vehicle_type_id":"4","last_reported":1729094987,"current_range_meters":14400,"station_id":"ce4bho12rcd13ifvqh2g","pricing_plan_id":"cebpf4jnsgd1na2vs0mg"},{"bike_id":"0f2a719f-e589-4824-8b91-a5fb8bb5736d","system_id":"levelo_inurba_marseille","lat":43.32362,"lon":5.38892,"is_reserved":false,"is_disabled":false,"rental_uris":{"android":"levelo://app?vid=0f2a719f-e589-4824-8b91-a5fb8bb5736d","ios":"levelo://app?vid=0f2a719f-e589-4824-8b91-a5fb8bb5736d"},"vehicle_type_id":"4","last_reported":1729094987,"current_range_meters":38800,"station_id":"ce4bhqp2rcd13ifvqhog","pricing_plan_id":"cebpf4jnsgd1na2vs0mg"},{"bike_id":"d090182f-0dfa-4f4b-b3f1-686f44469930","system_id":"levelo_inurba_marseille","lat":43.29924,"lon":5.37406,"is_reserved":false,"is_disabled":false,"rental_uris":{"android":"levelo://app?vid=d090182f-0dfa-4f4b-b3f1-686f44469930","ios":"levelo://app?vid=d090182f-0dfa-4f4b-b3f1-686f44469930"},"vehicle_type_id":"4","last_reported":1729094987,"current_range_meters":3200,"station_id":"ce4bgn92rcd13ifvqbvg","pricing_plan_id":"cebpf4jnsgd1na2vs0mg"},{"bike_id":"06c93731-721e-4ecf-82b2-83f7624677ba","system_id":"levelo_inurba_marseille","lat":43.29256,"lon":5.4091,"is_reserved":false,"is_disabled":false,"rental_uris":{"android":"levelo://app?vid=06c93731-721e-4ecf-82b2-83f7624677ba","ios":"levelo://app?vid=06c93731-721e-4ecf-82b2-83f7624677ba"},"vehicle_type_id":"4","last_reported":1729094987,"current_range_meters":38800,"station_id":"ce4bh192rcd13ifvqdc0","pricing_plan_id":"cebpf4jnsgd1na2vs0mg"},{"bike_id":"2249e553-decd-40f9-a895-6971480d49c8","system_id":"levelo_inurba_marseille","lat":43.24071,"lon":5.37761,"is_reserved":false,"is_disabled":false,"rental_uris":{"android":"levelo://app?vid=2249e553-decd-40f9-a895-6971480d49c8","ios":"levelo://app?vid=2249e553-decd-40f9-a895-6971480d49c8"},"vehicle_type_id":"4","last_reported":1729094987,"current_range_meters":3200,"station_id":"ce4bhnp2rcd13ifvqgvg","pricing_plan_id":"cebpf4jnsgd1na2vs0mg"},{"bike_id":"c77cb483-5349-4491-826f-bb378f2fdbd3","system_id":"levelo_inurba_marseille","lat":43.27938,"lon":5.41047,"is_reserved":false,"is_disabled":false,"rental_uris":{"android":"levelo://app?vid=c77cb483-5349-4491-826f-bb378f2fdbd3","ios":"levelo://app?vid=c77cb483-5349-4491-826f-bb378f2fdbd3"},"vehicle_type_id":"4","last_reported":1729094987,"current_range_meters":9600,"station_id":"ce4bhnp2rcd13ifvqh0g","pricing_plan_id":"cebpf4jnsgd1na2vs0mg"},{"bike_id":"2140b6a3-5118-4150-823e-9225aeb56201","system_id":"levelo_inurba_marseille","lat":43.23193,"lon":5.35546,"is_reserved":false,"is_disabled":false,"rental_uris":{"android":"levelo://app?vid=2140b6a3-5118-4150-823e-9225aeb56201","ios":"levelo://app?vid=2140b6a3-5118-4150-823e-9225aeb56201"},"vehicle_type_id":"4","last_reported":1729094987,"current_range_meters":38800,"station_id":"ce4bhu92rcd13ifvqi70","pricing_plan_id":"cebpf4jnsgd1na2vs0mg"},{"bike_id":"c9588904-f98c-4e5c-a9cd-9a3653dd5b20","system_id":"levelo_inurba_marseille","lat":43.301025,"lon":5.388033,"is_reserved":false,"is_disabled":false,"rental_uris":{"android":"levelo://app?vid=c9588904-f98c-4e5c-a9cd-9a3653dd5b20","ios":"levelo://app?vid=c9588904-f98c-4e5c-a9cd-9a3653dd5b20"},"vehicle_type_id":"4","last_reported":1729094987,"current_range_meters":19600,"station_id":"ce4bghh2rcd13ifvqb60","pricing_plan_id":"cebpf4jnsgd1na2vs0mg"},{"bike_id":"ea5e655f-17be-40c7-9228-17d3eab622b7","system_id":"levelo_inurba_marseille","lat":43.2318,"lon":5.39995,"is_reserved":false,"is_disabled":false,"rental_uris":{"android":"levelo://app?vid=ea5e655f-17be-40c7-9228-17d3eab622b7","ios":"levelo://app?vid=ea5e655f-17be-40c7-9228-17d3eab622b7"},"vehicle_type_id":"4","last_reported":1729094987,"current_range_meters":4000,"station_id":"ce4bhn12rcd13ifvqgqg","pricing_plan_id":"cebpf4jnsgd1na2vs0mg"},{"bike_id":"54e006db-73dc-4c84-939d-54dcfce75cde","system_id":"levelo_inurba_marseille","lat":43.2971,"lon":5.37691,"is_reserved":false,"is_disabled":false,"rental_uris":{"android":"levelo://app?vid=54e006db-73dc-4c84-939d-54dcfce75cde","ios":"levelo://app?vid=54e006db-73dc-4c84-939d-54dcfce75cde"},"vehicle_type_id":"4","last_reported":1729094987,"current_range_meters":37600,"station_id":"ce4bgkh2rcd13ifvqbl0","pricing_plan_id":"cebpf4jnsgd1na2vs0mg"},{"bike_id":"95ac6e77-a1d8-4cd9-94b6-41fabe63c326","system_id":"levelo_inurba_marseille","lat":43.28036,"lon":5.36952,"is_reserved":false,"is_disabled":false,"rental_uris":{"android":"levelo://app?vid=95ac6e77-a1d8-4cd9-94b6-41fabe63c326","ios":"levelo://app?vid=95ac6e77-a1d8-4cd9-94b6-41fabe63c326"},"vehicle_type_id":"4","last_reported":1729094987,"current_range_meters":11600,"station_id":"ce4bha12rcd13ifvqef0","pricing_plan_id":"cebpf4jnsgd1na2vs0mg"},{"bike_id":"f97635a1-87a5-44d1-a490-398cc07631fe","system_id":"levelo_inurba_marseille","lat":43.269024,"lon":5.40275,"is_reserved":false,"is_disabled":false,"rental_uris":{"android":"levelo://app?vid=f97635a1-87a5-44d1-a490-398cc07631fe","ios":"levelo://app?vid=f97635a1-87a5-44d1-a490-398cc07631fe"},"vehicle_type_id":"4","last_reported":1729094987,"current_range_meters":13600,"station_id":"cjm6bp8fraef2m0cb0m0","pricing_plan_id":"cebpf4jnsgd1na2vs0mg"},{"bike_id":"3a3dbe1e-79a4-4704-8a64-e3e910aba3d1","system_id":"levelo_inurba_marseille","lat":43.28447,"lon":5.39205,"is_reserved":false,"is_disabled":false,"rental_uris":{"android":"levelo://app?vid=3a3dbe1e-79a4-4704-8a64-e3e910aba3d1","ios":"levelo://app?vid=3a3dbe1e-79a4-4704-8a64-e3e910aba3d1"},"vehicle_type_id":"4","last_reported":1729094987,"current_range_meters":28400,"station_id":"ce4bhoh2rcd13ifvqh5g","pricing_plan_id":"cebpf4jnsgd1na2vs0mg"},{"bike_id":"2f1784ba-4b66-488b-8e65-738be23845c6","system_id":"levelo_inurba_marseille","lat":43.28924,"lon":5.38401,"is_reserved":false,"is_disabled":false,"rental_uris":{"android":"levelo://app?vid=2f1784ba-4b66-488b-8e65-738be23845c6","ios":"levelo://app?vid=2f1784ba-4b66-488b-8e65-738be23845c6"},"vehicle_type_id":"4","last_reported":1729094987,"current_range_meters":37600,"station_id":"ce4bh612rcd13ifvqe6g","pricing_plan_id":"cebpf4jnsgd1na2vs0mg"},{"bike_id":"3213665e-989c-4d22-9f5a-31c8522597dd","system_id":"levelo_inurba_marseille","lat":43.296,"lon":5.36142,"is_reserved":false,"is_disabled":false,"rental_uris":{"android":"levelo://app?vid=3213665e-989c-4d22-9f5a-31c8522597dd","ios":"levelo://app?vid=3213665e-989c-4d22-9f5a-31c8522597dd"},"vehicle_type_id":"4","last_reported":1729094987,"current_range_meters":32400,"station_id":"","pricing_plan_id":"cebpf4jnsgd1na2vs0mg"},{"bike_id":"24e2ac23-c484-4abf-b8ca-13798b7cc291","system_id":"levelo_inurba_marseille","lat":43.29865,"lon":5.39714,"is_reserved":false,"is_disabled":false,"rental_uris":{"android":"levelo://app?vid=24e2ac23-c484-4abf-b8ca-13798b7cc291","ios":"levelo://app?vid=24e2ac23-c484-4abf-b8ca-13798b7cc291"},"vehicle_type_id":"4","last_reported":1729094987,"current_range_meters":24400,"station_id":"ce4bh0h2rcd13ifvqd50","pricing_plan_id":"cebpf4jnsgd1na2vs0mg"},{"bike_id":"8fd455a8-c67f-4778-a9f3-82819770d68b","system_id":"levelo_inurba_marseille","lat":43.31758,"lon":5.39019,"is_reserved":false,"is_disabled":false,"rental_uris":{"android":"levelo://app?vid=8fd455a8-c67f-4778-a9f3-82819770d68b","ios":"levelo://app?vid=8fd455a8-c67f-4778-a9f3-82819770d68b"},"vehicle_type_id":"4","last_reported":1729094987,"current_range_meters":38000,"station_id":"ce4bhqp2rcd13ifvqhng","pricing_plan_id":"cebpf4jnsgd1na2vs0mg"},{"bike_id":"1641b826-604a-4181-8231-dca386f637a6","system_id":"levelo_inurba_marseille","lat":43.23195,"lon":5.35559,"is_reserved":false,"is_disabled":false,"rental_uris":{"android":"levelo://app?vid=1641b826-604a-4181-8231-dca386f637a6","ios":"levelo://app?vid=1641b826-604a-4181-8231-dca386f637a6"},"vehicle_type_id":"4","last_reported":1729094987,"current_range_meters":37600,"station_id":"ce4bhu92rcd13ifvqi70","pricing_plan_id":"cebpf4jnsgd1na2vs0mg"},{"bike_id":"89211ee2-076f-4df3-92bd-cd8885f2e76d","system_id":"levelo_inurba_marseille","lat":43.23193,"lon":5.35556,"is_reserved":false,"is_disabled":false,"rental_uris":{"android":"levelo://app?vid=89211ee2-076f-4df3-92bd-cd8885f2e76d","ios":"levelo://app?vid=89211ee2-076f-4df3-92bd-cd8885f2e76d"},"vehicle_type_id":"4","last_reported":1729094987,"current_range_meters":37600,"station_id":"ce4bhu92rcd13ifvqi70","pricing_plan_id":"cebpf4jnsgd1na2vs0mg"},{"bike_id":"f9083d7b-5eee-4aa6-a829-42bf31ce1433","system_id":"levelo_inurba_marseille","lat":43.2781,"lon":5.40715,"is_reserved":false,"is_disabled":false,"rental_uris":{"android":"levelo://app?vid=f9083d7b-5eee-4aa6-a829-42bf31ce1433","ios":"levelo://app?vid=f9083d7b-5eee-4aa6-a829-42bf31ce1433"},"vehicle_type_id":"4","last_reported":1729094987,"current_range_meters":14400,"station_id":"ce4bhnh2rcd13ifvqgtg","pricing_plan_id":"cebpf4jnsgd1na2vs0mg"},{"bike_id":"975adece-daeb-433e-b5fe-8997a00f0604","system_id":"levelo_inurba_marseille","lat":43.33025,"lon":5.39039,"is_reserved":false,"is_disabled":false,"rental_uris":{"android":"levelo://app?vid=975adece-daeb-433e-b5fe-8997a00f0604","ios":"levelo://app?vid=975adece-daeb-433e-b5fe-8997a00f0604"},"vehicle_type_id":"4","last_reported":1729094987,"current_range_meters":30400,"station_id":"ce4bhr92rcd13ifvqhrg","pricing_plan_id":"cebpf4jnsgd1na2vs0mg"},{"bike_id":"02af67c6-7c68-4559-a056-7404a067af01","system_id":"levelo_inurba_marseille","lat":43.33026,"lon":5.39054,"is_reserved":false,"is_disabled":false,"rental_uris":{"android":"levelo://app?vid=02af67c6-7c68-4559-a056-7404a067af01","ios":"levelo://app?vid=02af67c6-7c68-4559-a056-7404a067af01"},"vehicle_type_id":"4","last_reported":1729094987,"current_range_meters":38800,"station_id":"ce4bhr92rcd13ifvqhrg","pricing_plan_id":"cebpf4jnsgd1na2vs0mg"},{"bike_id":"981182a8-3f1e-4b54-b777-3c598a56d611","system_id":"levelo_inurba_marseille","lat":43.231769,"lon":5.399952,"is_reserved":false,"is_disabled":false,"rental_uris":{"android":"levelo://app?vid=981182a8-3f1e-4b54-b777-3c598a56d611","ios":"levelo://app?vid=981182a8-3f1e-4b54-b777-3c598a56d611"},"vehicle_type_id":"4","last_reported":1729094987,"current_range_meters":15200,"station_id":"ce4bhn12rcd13ifvqgqg","pricing_plan_id":"cebpf4jnsgd1na2vs0mg"},{"bike_id":"b5026461-2ffc-41d5-b4e1-9fa8632fe4da","system_id":"levelo_inurba_marseille","lat":43.26516,"lon":5.40373,"is_reserved":false,"is_disabled":false,"rental_uris":{"android":"levelo://app?vid=b5026461-2ffc-41d5-b4e1-9fa8632fe4da","ios":"levelo://app?vid=b5026461-2ffc-41d5-b4e1-9fa8632fe4da"},"vehicle_type_id":"4","last_reported":1729094987,"current_range_meters":37600,"station_id":"","pricing_plan_id":"cebpf4jnsgd1na2vs0mg"},{"bike_id":"24f85f72-dee6-41bb-bdb8-974ca7c83215","system_id":"levelo_inurba_marseille","lat":43.33019,"lon":5.39049,"is_reserved":false,"is_disabled":false,"rental_uris":{"android":"levelo://app?vid=24f85f72-dee6-41bb-bdb8-974ca7c83215","ios":"levelo://app?vid=24f85f72-dee6-41bb-bdb8-974ca7c83215"},"vehicle_type_id":"4","last_reported":1729094987,"current_range_meters":23200,"station_id":"ce4bhr92rcd13ifvqhrg","pricing_plan_id":"cebpf4jnsgd1na2vs0mg"},{"bike_id":"0292b19a-4713-48f2-9280-e6f3e25dced5","system_id":"levelo_inurba_marseille","lat":43.28463,"lon":5.35889,"is_reserved":false,"is_disabled":false,"rental_uris":{"android":"levelo://app?vid=0292b19a-4713-48f2-9280-e6f3e25dced5","ios":"levelo://app?vid=0292b19a-4713-48f2-9280-e6f3e25dced5"},"vehicle_type_id":"4","last_reported":1729094987,"current_range_meters":34800,"station_id":"ce4bhah2rcd13ifvqei0","pricing_plan_id":"cebpf4jnsgd1na2vs0mg"},{"bike_id":"87440bd7-4730-412f-b52f-03b263c3d6ba","system_id":"levelo_inurba_marseille","lat":43.23191,"lon":5.35557,"is_reserved":false,"is_disabled":false,"rental_uris":{"android":"levelo://app?vid=87440bd7-4730-412f-b52f-03b263c3d6ba","ios":"levelo://app?vid=87440bd7-4730-412f-b52f-03b263c3d6ba"},"vehicle_type_id":"4","last_reported":1729094987,"current_range_meters":24400,"station_id":"ce4bhu92rcd13ifvqi70","pricing_plan_id":"cebpf4jnsgd1na2vs0mg"},{"bike_id":"84d9d777-1fb0-4247-842b-a97cf2bdff9a","system_id":"levelo_inurba_marseille","lat":43.27896,"lon":5.38013,"is_reserved":false,"is_disabled":false,"rental_uris":{"android":"levelo://app?vid=84d9d777-1fb0-4247-842b-a97cf2bdff9a","ios":"levelo://app?vid=84d9d777-1fb0-4247-842b-a97cf2bdff9a"},"vehicle_type_id":"4","last_reported":1729094987,"current_range_meters":11600,"station_id":"ce4bhf92rcd13ifvqf50","pricing_plan_id":"cebpf4jnsgd1na2vs0mg"},{"bike_id":"ff96eee3-1ac8-4888-9ae7-e4b6cc8154af","system_id":"levelo_inurba_marseille","lat":43.33739,"lon":5.3746,"is_reserved":false,"is_disabled":false,"rental_uris":{"android":"levelo://app?vid=ff96eee3-1ac8-4888-9ae7-e4b6cc8154af","ios":"levelo://app?vid=ff96eee3-1ac8-4888-9ae7-e4b6cc8154af"},"vehicle_type_id":"4","last_reported":1729094987,"current_range_meters":28400,"station_id":"","pricing_plan_id":"cebpf4jnsgd1na2vs0mg"},{"bike_id":"0f645b5a-31af-4bea-a09b-47c8007918a0","system_id":"levelo_inurba_marseille","lat":43.28401,"lon":5.37519,"is_reserved":false,"is_disabled":false,"rental_uris":{"android":"levelo://app?vid=0f645b5a-31af-4bea-a09b-47c8007918a0","ios":"levelo://app?vid=0f645b5a-31af-4bea-a09b-47c8007918a0"},"vehicle_type_id":"4","last_reported":1729094987,"current_range_meters":18000,"station_id":"ce4bh412rcd13ifvqds0","pricing_plan_id":"cebpf4jnsgd1na2vs0mg"},{"bike_id":"c75fdd13-06a6-4635-adc1-f8972daf3850","system_id":"levelo_inurba_marseille","lat":43.33026,"lon":5.3904,"is_reserved":false,"is_disabled":false,"rental_uris":{"android":"levelo://app?vid=c75fdd13-06a6-4635-adc1-f8972daf3850","ios":"levelo://app?vid=c75fdd13-06a6-4635-adc1-f8972daf3850"},"vehicle_type_id":"4","last_reported":1729094987,"current_range_meters":24400,"station_id":"ce4bhr92rcd13ifvqhrg","pricing_plan_id":"cebpf4jnsgd1na2vs0mg"},{"bike_id":"26d17570-63d4-4a8b-8b2d-7dc7e4291683","system_id":"levelo_inurba_marseille","lat":43.29619,"lon":5.37727,"is_reserved":false,"is_disabled":false,"rental_uris":{"android":"levelo://app?vid=26d17570-63d4-4a8b-8b2d-7dc7e4291683","ios":"levelo://app?vid=26d17570-63d4-4a8b-8b2d-7dc7e4291683"},"vehicle_type_id":"4","last_reported":1729094987,"current_range_meters":4800,"station_id":"ce4bgi92rcd13ifvqb90","pricing_plan_id":"cebpf4jnsgd1na2vs0mg"},{"bike_id":"c6d935e8-dcc8-4a10-b115-0272d3ad6dd5","system_id":"levelo_inurba_marseille","lat":43.29514,"lon":5.39406,"is_reserved":false,"is_disabled":false,"rental_uris":{"android":"levelo://app?vid=c6d935e8-dcc8-4a10-b115-0272d3ad6dd5","ios":"levelo://app?vid=c6d935e8-dcc8-4a10-b115-0272d3ad6dd5"},"vehicle_type_id":"4","last_reported":1729094987,"current_range_meters":2800,"station_id":"ce4bh292rcd13ifvqdf0","pricing_plan_id":"cebpf4jnsgd1na2vs0mg"},{"bike_id":"292b9425-1372-40d4-bf0a-fe57aa779a41","system_id":"levelo_inurba_marseille","lat":43.23061,"lon":5.35499,"is_reserved":false,"is_disabled":false,"rental_uris":{"android":"levelo://app?vid=292b9425-1372-40d4-bf0a-fe57aa779a41","ios":"levelo://app?vid=292b9425-1372-40d4-bf0a-fe57aa779a41"},"vehicle_type_id":"4","last_reported":1729094987,"current_range_meters":28000,"station_id":"cpo3342slgdg3j2ifvpg","pricing_plan_id":"cebpf4jnsgd1na2vs0mg"},{"bike_id":"79a1e3db-2eba-4b7c-abe5-110b86911026","system_id":"levelo_inurba_marseille","lat":43.240776,"lon":5.377314,"is_reserved":false,"is_disabled":false,"rental_uris":{"android":"levelo://app?vid=79a1e3db-2eba-4b7c-abe5-110b86911026","ios":"levelo://app?vid=79a1e3db-2eba-4b7c-abe5-110b86911026"},"vehicle_type_id":"4","last_reported":1729094987,"current_range_meters":8400,"station_id":"ce4bhnp2rcd13ifvqgvg","pricing_plan_id":"cebpf4jnsgd1na2vs0mg"},{"bike_id":"e11dbe0b-ecc6-4cbb-8947-77ce332604ae","system_id":"levelo_inurba_marseille","lat":43.30143,"lon":5.39863,"is_reserved":false,"is_disabled":false,"rental_uris":{"android":"levelo://app?vid=e11dbe0b-ecc6-4cbb-8947-77ce332604ae","ios":"levelo://app?vid=e11dbe0b-ecc6-4cbb-8947-77ce332604ae"},"vehicle_type_id":"4","last_reported":1729094987,"current_range_meters":4000,"station_id":"ce4bh0h2rcd13ifvqd40","pricing_plan_id":"cebpf4jnsgd1na2vs0mg"},{"bike_id":"9705a270-0513-4704-9d59-cd8ca0c600b9","system_id":"levelo_inurba_marseille","lat":43.25588,"lon":5.3824,"is_reserved":false,"is_disabled":false,"rental_uris":{"android":"levelo://app?vid=9705a270-0513-4704-9d59-cd8ca0c600b9","ios":"levelo://app?vid=9705a270-0513-4704-9d59-cd8ca0c600b9"},"vehicle_type_id":"4","last_reported":1729094987,"current_range_meters":36400,"station_id":"ce4bhih2rcd13ifvqfs0","pricing_plan_id":"cebpf4jnsgd1na2vs0mg"},{"bike_id":"65406e49-8594-4cfa-8223-dde29203d51c","system_id":"levelo_inurba_marseille","lat":43.27383,"lon":5.36253,"is_reserved":false,"is_disabled":false,"rental_uris":{"android":"levelo://app?vid=65406e49-8594-4cfa-8223-dde29203d51c","ios":"levelo://app?vid=65406e49-8594-4cfa-8223-dde29203d51c"},"vehicle_type_id":"4","last_reported":1729094987,"current_range_meters":8400,"station_id":"ce4bhbh2rcd13ifvqeo0","pricing_plan_id":"cebpf4jnsgd1na2vs0mg"},{"bike_id":"c74de1d2-5647-4b13-abe5-560de6a38b14","system_id":"levelo_inurba_marseille","lat":43.29597,"lon":5.38099,"is_reserved":false,"is_disabled":false,"rental_uris":{"android":"levelo://app?vid=c74de1d2-5647-4b13-abe5-560de6a38b14","ios":"levelo://app?vid=c74de1d2-5647-4b13-abe5-560de6a38b14"},"vehicle_type_id":"4","last_reported":1729094987,"current_range_meters":20000,"station_id":"ce4bgl12rcd13ifvqbo0","pricing_plan_id":"cebpf4jnsgd1na2vs0mg"},{"bike_id":"0dac7d90-cbb3-4b48-8da0-4bec34567053","system_id":"levelo_inurba_marseille","lat":43.26938,"lon":5.4025,"is_reserved":false,"is_disabled":false,"rental_uris":{"android":"levelo://app?vid=0dac7d90-cbb3-4b48-8da0-4bec34567053","ios":"levelo://app?vid=0dac7d90-cbb3-4b48-8da0-4bec34567053"},"vehicle_type_id":"4","last_reported":1729094987,"current_range_meters":32800,"station_id":"cjm6bp8fraef2m0cb0m0","pricing_plan_id":"cebpf4jnsgd1na2vs0mg"},{"bike_id":"a344cb19-426d-4f12-a0ad-699ef0c37fa2","system_id":"levelo_inurba_marseille","lat":43.31992,"lon":5.38166,"is_reserved":false,"is_disabled":false,"rental_uris":{"android":"levelo://app?vid=a344cb19-426d-4f12-a0ad-699ef0c37fa2","ios":"levelo://app?vid=a344cb19-426d-4f12-a0ad-699ef0c37fa2"},"vehicle_type_id":"4","last_reported":1729094987,"current_range_meters":30400,"station_id":"ce4bhr12rcd13ifvqhpg","pricing_plan_id":"cebpf4jnsgd1na2vs0mg"},{"bike_id":"4b39118f-bb62-406b-9203-0b8ddf9c99cc","system_id":"levelo_inurba_marseille","lat":43.22934,"lon":5.35378,"is_reserved":false,"is_disabled":false,"rental_uris":{"android":"levelo://app?vid=4b39118f-bb62-406b-9203-0b8ddf9c99cc","ios":"levelo://app?vid=4b39118f-bb62-406b-9203-0b8ddf9c99cc"},"vehicle_type_id":"4","last_reported":1729094987,"current_range_meters":16800,"station_id":"cpo3532slgdg3j2ikp40","pricing_plan_id":"cebpf4jnsgd1na2vs0mg"},{"bike_id":"b0661774-f1c0-448d-b5f0-db267dedb5a2","system_id":"levelo_inurba_marseille","lat":43.32292,"lon":5.38288,"is_reserved":false,"is_disabled":false,"rental_uris":{"android":"levelo://app?vid=b0661774-f1c0-448d-b5f0-db267dedb5a2","ios":"levelo://app?vid=b0661774-f1c0-448d-b5f0-db267dedb5a2"},"vehicle_type_id":"4","last_reported":1729094987,"current_range_meters":24400,"station_id":"ce4bhr12rcd13ifvqhqg","pricing_plan_id":"cebpf4jnsgd1na2vs0mg"},{"bike_id":"e5dae36f-f5eb-4dbc-a9c6-979d58c0c29f","system_id":"levelo_inurba_marseille","lat":43.29374,"lon":5.37861,"is_reserved":false,"is_disabled":false,"rental_uris":{"android":"levelo://app?vid=e5dae36f-f5eb-4dbc-a9c6-979d58c0c29f","ios":"levelo://app?vid=e5dae36f-f5eb-4dbc-a9c6-979d58c0c29f"},"vehicle_type_id":"4","last_reported":1729094987,"current_range_meters":36400,"station_id":"ce4bgjh2rcd13ifvqbf0","pricing_plan_id":"cebpf4jnsgd1na2vs0mg"},{"bike_id":"a9d80141-cb04-4f88-bcc5-9763572e3517","system_id":"levelo_inurba_marseille","lat":43.23194,"lon":5.35548,"is_reserved":false,"is_disabled":false,"rental_uris":{"android":"levelo://app?vid=a9d80141-cb04-4f88-bcc5-9763572e3517","ios":"levelo://app?vid=a9d80141-cb04-4f88-bcc5-9763572e3517"},"vehicle_type_id":"4","last_reported":1729094987,"current_range_meters":36800,"station_id":"ce4bhu92rcd13ifvqi70","pricing_plan_id":"cebpf4jnsgd1na2vs0mg"},{"bike_id":"58fc0300-f080-417b-95f8-1703c9f98f7e","system_id":"levelo_inurba_marseille","lat":43.2962,"lon":5.37145,"is_reserved":false,"is_disabled":false,"rental_uris":{"android":"levelo://app?vid=58fc0300-f080-417b-95f8-1703c9f98f7e","ios":"levelo://app?vid=58fc0300-f080-417b-95f8-1703c9f98f7e"},"vehicle_type_id":"4","last_reported":1729094987,"current_range_meters":18000,"station_id":"ce4bgnh2rcd13ifvqc0g","pricing_plan_id":"cebpf4jnsgd1na2vs0mg"},{"bike_id":"4f00c2b5-5278-421c-be9b-8b7ab009d1bf","system_id":"levelo_inurba_marseille","lat":43.287933,"lon":5.378372,"is_reserved":false,"is_disabled":false,"rental_uris":{"android":"levelo://app?vid=4f00c2b5-5278-421c-be9b-8b7ab009d1bf","ios":"levelo://app?vid=4f00c2b5-5278-421c-be9b-8b7ab009d1bf"},"vehicle_type_id":"4","last_reported":1729094987,"current_range_meters":4400,"station_id":"","pricing_plan_id":"cebpf4jnsgd1na2vs0mg"},{"bike_id":"c834d31d-df46-4136-b00f-2788b617c81e","system_id":"levelo_inurba_marseille","lat":43.33732,"lon":5.39184,"is_reserved":false,"is_disabled":false,"rental_uris":{"android":"levelo://app?vid=c834d31d-df46-4136-b00f-2788b617c81e","ios":"levelo://app?vid=c834d31d-df46-4136-b00f-2788b617c81e"},"vehicle_type_id":"4","last_reported":1729094987,"current_range_meters":18800,"station_id":"ce4bhr92rcd13ifvqhsg","pricing_plan_id":"cebpf4jnsgd1na2vs0mg"},{"bike_id":"bf9587a5-1b66-4347-ad3c-51e698e6b839","system_id":"levelo_inurba_marseille","lat":43.28462,"lon":5.35889,"is_reserved":false,"is_disabled":false,"rental_uris":{"android":"levelo://app?vid=bf9587a5-1b66-4347-ad3c-51e698e6b839","ios":"levelo://app?vid=bf9587a5-1b66-4347-ad3c-51e698e6b839"},"vehicle_type_id":"4","last_reported":1729094987,"current_range_meters":26800,"station_id":"ce4bhah2rcd13ifvqei0","pricing_plan_id":"cebpf4jnsgd1na2vs0mg"},{"bike_id":"45b8367c-278c-42f8-947a-aa210d8c1300","system_id":"levelo_inurba_marseille","lat":43.28463,"lon":5.35883,"is_reserved":false,"is_disabled":false,"rental_uris":{"android":"levelo://app?vid=45b8367c-278c-42f8-947a-aa210d8c1300","ios":"levelo://app?vid=45b8367c-278c-42f8-947a-aa210d8c1300"},"vehicle_type_id":"4","last_reported":1729094987,"current_range_meters":36400,"station_id":"ce4bhah2rcd13ifvqei0","pricing_plan_id":"cebpf4jnsgd1na2vs0mg"},{"bike_id":"d41309ab-1a1f-4395-acaa-455483c3f8e1","system_id":"levelo_inurba_marseille","lat":43.23193,"lon":5.3556,"is_reserved":false,"is_disabled":false,"rental_uris":{"android":"levelo://app?vid=d41309ab-1a1f-4395-acaa-455483c3f8e1","ios":"levelo://app?vid=d41309ab-1a1f-4395-acaa-455483c3f8e1"},"vehicle_type_id":"4","last_reported":1729094987,"current_range_meters":38800,"station_id":"ce4bhu92rcd13ifvqi70","pricing_plan_id":"cebpf4jnsgd1na2vs0mg"},{"bike_id":"94902fb1-a766-4d90-8978-e732725ca583","system_id":"levelo_inurba_marseille","lat":43.23193,"lon":5.39987,"is_reserved":false,"is_disabled":false,"rental_uris":{"android":"levelo://app?vid=94902fb1-a766-4d90-8978-e732725ca583","ios":"levelo://app?vid=94902fb1-a766-4d90-8978-e732725ca583"},"vehicle_type_id":"4","last_reported":1729094987,"current_range_meters":39200,"station_id":"ce4bhn12rcd13ifvqgqg","pricing_plan_id":"cebpf4jnsgd1na2vs0mg"},{"bike_id":"b6ba18ac-f9f7-47ce-97ee-a57309932db4","system_id":"levelo_inurba_marseille","lat":43.2781,"lon":5.40709,"is_reserved":false,"is_disabled":false,"rental_uris":{"android":"levelo://app?vid=b6ba18ac-f9f7-47ce-97ee-a57309932db4","ios":"levelo://app?vid=b6ba18ac-f9f7-47ce-97ee-a57309932db4"},"vehicle_type_id":"4","last_reported":1729094987,"current_range_meters":38400,"station_id":"ce4bhnh2rcd13ifvqgtg","pricing_plan_id":"cebpf4jnsgd1na2vs0mg"},{"bike_id":"f09da1bb-45c8-44de-9ff9-5c0e00d8016c","system_id":"levelo_inurba_marseille","lat":43.29165,"lon":5.37157,"is_reserved":false,"is_disabled":false,"rental_uris":{"android":"levelo://app?vid=f09da1bb-45c8-44de-9ff9-5c0e00d8016c","ios":"levelo://app?vid=f09da1bb-45c8-44de-9ff9-5c0e00d8016c"},"vehicle_type_id":"4","last_reported":1729094987,"current_range_meters":11200,"station_id":"ce4bha92rcd13ifvqeh0","pricing_plan_id":"cebpf4jnsgd1na2vs0mg"},{"bike_id":"035ac709-38cb-4341-be63-8eda62c75f58","system_id":"levelo_inurba_marseille","lat":43.25004,"lon":5.3892,"is_reserved":false,"is_disabled":false,"rental_uris":{"android":"levelo://app?vid=035ac709-38cb-4341-be63-8eda62c75f58","ios":"levelo://app?vid=035ac709-38cb-4341-be63-8eda62c75f58"},"vehicle_type_id":"4","last_reported":1729094987,"current_range_meters":28400,"station_id":"ce4bhgp2rcd13ifvqfd0","pricing_plan_id":"cebpf4jnsgd1na2vs0mg"},{"bike_id":"665c3f8e-8be5-4d80-a8dc-dbb11d59399c","system_id":"levelo_inurba_marseille","lat":43.33032,"lon":5.39044,"is_reserved":false,"is_disabled":false,"rental_uris":{"android":"levelo://app?vid=665c3f8e-8be5-4d80-a8dc-dbb11d59399c","ios":"levelo://app?vid=665c3f8e-8be5-4d80-a8dc-dbb11d59399c"},"vehicle_type_id":"4","last_reported":1729094987,"current_range_meters":39200,"station_id":"ce4bhr92rcd13ifvqhrg","pricing_plan_id":"cebpf4jnsgd1na2vs0mg"},{"bike_id":"0221a083-8af1-456f-a592-5c0d99a4f036","system_id":"levelo_inurba_marseille","lat":43.29418,"lon":5.38621,"is_reserved":false,"is_disabled":false,"rental_uris":{"android":"levelo://app?vid=0221a083-8af1-456f-a592-5c0d99a4f036","ios":"levelo://app?vid=0221a083-8af1-456f-a592-5c0d99a4f036"},"vehicle_type_id":"4","last_reported":1729094987,"current_range_meters":16400,"station_id":"ce4bh2h2rcd13ifvqdh0","pricing_plan_id":"cebpf4jnsgd1na2vs0mg"},{"bike_id":"033a7f68-f273-426e-84a9-8a3b2c56f6f5","system_id":"levelo_inurba_marseille","lat":43.35099,"lon":5.36819,"is_reserved":false,"is_disabled":false,"rental_uris":{"android":"levelo://app?vid=033a7f68-f273-426e-84a9-8a3b2c56f6f5","ios":"levelo://app?vid=033a7f68-f273-426e-84a9-8a3b2c56f6f5"},"vehicle_type_id":"4","last_reported":1729094987,"current_range_meters":10800,"station_id":"","pricing_plan_id":"cebpf4jnsgd1na2vs0mg"},{"bike_id":"9c799607-680c-4c91-8b3f-7bd15705b330","system_id":"levelo_inurba_marseille","lat":43.30534,"lon":5.36546,"is_reserved":false,"is_disabled":false,"rental_uris":{"android":"levelo://app?vid=9c799607-680c-4c91-8b3f-7bd15705b330","ios":"levelo://app?vid=9c799607-680c-4c91-8b3f-7bd15705b330"},"vehicle_type_id":"4","last_reported":1729094987,"current_range_meters":4000,"station_id":"ce4bgs12rcd13ifvqcag","pricing_plan_id":"cebpf4jnsgd1na2vs0mg"},{"bike_id":"1af2813b-98a0-4b62-aaf8-89652b30f639","system_id":"levelo_inurba_marseille","lat":43.22941,"lon":5.35383,"is_reserved":false,"is_disabled":false,"rental_uris":{"android":"levelo://app?vid=1af2813b-98a0-4b62-aaf8-89652b30f639","ios":"levelo://app?vid=1af2813b-98a0-4b62-aaf8-89652b30f639"},"vehicle_type_id":"4","last_reported":1729094987,"current_range_meters":24800,"station_id":"cpo3532slgdg3j2ikp40","pricing_plan_id":"cebpf4jnsgd1na2vs0mg"},{"bike_id":"48bd62e7-3677-4db6-a76a-42c180b70305","system_id":"levelo_inurba_marseille","lat":43.26207,"lon":5.37931,"is_reserved":false,"is_disabled":false,"rental_uris":{"android":"levelo://app?vid=48bd62e7-3677-4db6-a76a-42c180b70305","ios":"levelo://app?vid=48bd62e7-3677-4db6-a76a-42c180b70305"},"vehicle_type_id":"4","last_reported":1729094987,"current_range_meters":2800,"station_id":"ce4bhjp2rcd13ifvqg90","pricing_plan_id":"cebpf4jnsgd1na2vs0mg"},{"bike_id":"f93454e1-a669-4c63-a4ca-b572042c7971","system_id":"levelo_inurba_marseille","lat":43.23195,"lon":5.35552,"is_reserved":false,"is_disabled":false,"rental_uris":{"android":"levelo://app?vid=f93454e1-a669-4c63-a4ca-b572042c7971","ios":"levelo://app?vid=f93454e1-a669-4c63-a4ca-b572042c7971"},"vehicle_type_id":"4","last_reported":1729094987,"current_range_meters":19200,"station_id":"ce4bhu92rcd13ifvqi70","pricing_plan_id":"cebpf4jnsgd1na2vs0mg"},{"bike_id":"5991a3d2-0cb9-494d-b3ed-321a28cd7251","system_id":"levelo_inurba_marseille","lat":43.22933,"lon":5.35383,"is_reserved":false,"is_disabled":false,"rental_uris":{"android":"levelo://app?vid=5991a3d2-0cb9-494d-b3ed-321a28cd7251","ios":"levelo://app?vid=5991a3d2-0cb9-494d-b3ed-321a28cd7251"},"vehicle_type_id":"4","last_reported":1729094987,"current_range_meters":38800,"station_id":"cpo3532slgdg3j2ikp40","pricing_plan_id":"cebpf4jnsgd1na2vs0mg"},{"bike_id":"c31052ed-b696-4a32-b7a8-f914bc14eb63","system_id":"levelo_inurba_marseille","lat":43.30804,"lon":5.43524,"is_reserved":false,"is_disabled":false,"rental_uris":{"android":"levelo://app?vid=c31052ed-b696-4a32-b7a8-f914bc14eb63","ios":"levelo://app?vid=c31052ed-b696-4a32-b7a8-f914bc14eb63"},"vehicle_type_id":"4","last_reported":1729094987,"current_range_meters":16800,"station_id":"ce4bhph2rcd13ifvqheg","pricing_plan_id":"cebpf4jnsgd1na2vs0mg"},{"bike_id":"6472f35a-587d-4002-9fda-9dbf3c16007d","system_id":"levelo_inurba_marseille","lat":43.298,"lon":5.38098,"is_reserved":false,"is_disabled":false,"rental_uris":{"android":"levelo://app?vid=6472f35a-587d-4002-9fda-9dbf3c16007d","ios":"levelo://app?vid=6472f35a-587d-4002-9fda-9dbf3c16007d"},"vehicle_type_id":"4","last_reported":1729094987,"current_range_meters":1200,"station_id":"ce4bgip2rcd13ifvqbb0","pricing_plan_id":"cebpf4jnsgd1na2vs0mg"},{"bike_id":"16760f56-d4fe-4035-8388-cc1f3d1376b7","system_id":"levelo_inurba_marseille","lat":43.29416,"lon":5.38624,"is_reserved":false,"is_disabled":false,"rental_uris":{"android":"levelo://app?vid=16760f56-d4fe-4035-8388-cc1f3d1376b7","ios":"levelo://app?vid=16760f56-d4fe-4035-8388-cc1f3d1376b7"},"vehicle_type_id":"4","last_reported":1729094987,"current_range_meters":6400,"station_id":"ce4bh2h2rcd13ifvqdh0","pricing_plan_id":"cebpf4jnsgd1na2vs0mg"},{"bike_id":"3ece4d15-37c4-4363-af1b-a68532930905","system_id":"levelo_inurba_marseille","lat":43.23191,"lon":5.39984,"is_reserved":false,"is_disabled":false,"rental_uris":{"android":"levelo://app?vid=3ece4d15-37c4-4363-af1b-a68532930905","ios":"levelo://app?vid=3ece4d15-37c4-4363-af1b-a68532930905"},"vehicle_type_id":"4","last_reported":1729094987,"current_range_meters":13600,"station_id":"ce4bhn12rcd13ifvqgqg","pricing_plan_id":"cebpf4jnsgd1na2vs0mg"},{"bike_id":"cc85962f-2424-4de7-837e-cc311911c414","system_id":"levelo_inurba_marseille","lat":43.2465,"lon":5.38903,"is_reserved":false,"is_disabled":false,"rental_uris":{"android":"levelo://app?vid=cc85962f-2424-4de7-837e-cc311911c414","ios":"levelo://app?vid=cc85962f-2424-4de7-837e-cc311911c414"},"vehicle_type_id":"4","last_reported":1729094987,"current_range_meters":38000,"station_id":"ce4bhg12rcd13ifvqf60","pricing_plan_id":"cebpf4jnsgd1na2vs0mg"},{"bike_id":"7597b0f2-2b7f-4031-9cae-dd5ce5fa91c2","system_id":"levelo_inurba_marseille","lat":43.28457,"lon":5.3589,"is_reserved":false,"is_disabled":false,"rental_uris":{"android":"levelo://app?vid=7597b0f2-2b7f-4031-9cae-dd5ce5fa91c2","ios":"levelo://app?vid=7597b0f2-2b7f-4031-9cae-dd5ce5fa91c2"},"vehicle_type_id":"4","last_reported":1729094987,"current_range_meters":27600,"station_id":"ce4bhah2rcd13ifvqei0","pricing_plan_id":"cebpf4jnsgd1na2vs0mg"},{"bike_id":"b004fe31-c888-4eeb-86e6-70500ca53aef","system_id":"levelo_inurba_marseille","lat":43.303101,"lon":5.400534,"is_reserved":false,"is_disabled":false,"rental_uris":{"android":"levelo://app?vid=b004fe31-c888-4eeb-86e6-70500ca53aef","ios":"levelo://app?vid=b004fe31-c888-4eeb-86e6-70500ca53aef"},"vehicle_type_id":"4","last_reported":1729094987,"current_range_meters":25600,"station_id":"ce4bgvh2rcd13ifvqcs0","pricing_plan_id":"cebpf4jnsgd1na2vs0mg"},{"bike_id":"ceaea5ee-dd41-48e4-814a-8b7b7ef4061a","system_id":"levelo_inurba_marseille","lat":43.32367,"lon":5.38891,"is_reserved":false,"is_disabled":false,"rental_uris":{"android":"levelo://app?vid=ceaea5ee-dd41-48e4-814a-8b7b7ef4061a","ios":"levelo://app?vid=ceaea5ee-dd41-48e4-814a-8b7b7ef4061a"},"vehicle_type_id":"4","last_reported":1729094987,"current_range_meters":17600,"station_id":"ce4bhqp2rcd13ifvqhog","pricing_plan_id":"cebpf4jnsgd1na2vs0mg"},{"bike_id":"a4d7c32e-71e7-469b-844f-576b53eacdf7","system_id":"levelo_inurba_marseille","lat":43.28729,"lon":5.36089,"is_reserved":false,"is_disabled":false,"rental_uris":{"android":"levelo://app?vid=a4d7c32e-71e7-469b-844f-576b53eacdf7","ios":"levelo://app?vid=a4d7c32e-71e7-469b-844f-576b53eacdf7"},"vehicle_type_id":"4","last_reported":1729094987,"current_range_meters":38800,"station_id":"cki0cbj6b192h4jlfktg","pricing_plan_id":"cebpf4jnsgd1na2vs0mg"},{"bike_id":"a76a8fb2-ff10-4a27-9628-50f19b78fd2c","system_id":"levelo_inurba_marseille","lat":43.29636,"lon":5.40602,"is_reserved":false,"is_disabled":false,"rental_uris":{"android":"levelo://app?vid=a76a8fb2-ff10-4a27-9628-50f19b78fd2c","ios":"levelo://app?vid=a76a8fb2-ff10-4a27-9628-50f19b78fd2c"},"vehicle_type_id":"4","last_reported":1729094987,"current_range_meters":26000,"station_id":"ce4bh0h2rcd13ifvqd60","pricing_plan_id":"cebpf4jnsgd1na2vs0mg"},{"bike_id":"956dedd0-9e6b-44ea-8344-c7d6340a666d","system_id":"levelo_inurba_marseille","lat":43.27496,"lon":5.4245,"is_reserved":false,"is_disabled":false,"rental_uris":{"android":"levelo://app?vid=956dedd0-9e6b-44ea-8344-c7d6340a666d","ios":"levelo://app?vid=956dedd0-9e6b-44ea-8344-c7d6340a666d"},"vehicle_type_id":"4","last_reported":1729094987,"current_range_meters":11600,"station_id":"ce4bhn92rcd13ifvqgrg","pricing_plan_id":"cebpf4jnsgd1na2vs0mg"},{"bike_id":"f94da947-b1a0-40ed-8143-ed5ebffc5c44","system_id":"levelo_inurba_marseille","lat":43.27957,"lon":5.41055,"is_reserved":false,"is_disabled":false,"rental_uris":{"android":"levelo://app?vid=f94da947-b1a0-40ed-8143-ed5ebffc5c44","ios":"levelo://app?vid=f94da947-b1a0-40ed-8143-ed5ebffc5c44"},"vehicle_type_id":"4","last_reported":1729094987,"current_range_meters":35200,"station_id":"ce4bhnp2rcd13ifvqh0g","pricing_plan_id":"cebpf4jnsgd1na2vs0mg"},{"bike_id":"4e03df77-35cb-430d-8fcd-f2b2c2cb2749","system_id":"levelo_inurba_marseille","lat":43.28867,"lon":5.35968,"is_reserved":false,"is_disabled":false,"rental_uris":{"android":"levelo://app?vid=4e03df77-35cb-430d-8fcd-f2b2c2cb2749","ios":"levelo://app?vid=4e03df77-35cb-430d-8fcd-f2b2c2cb2749"},"vehicle_type_id":"4","last_reported":1729094987,"current_range_meters":7200,"station_id":"ce4bhb12rcd13ifvqem0","pricing_plan_id":"cebpf4jnsgd1na2vs0mg"},{"bike_id":"4fca9070-5a32-4d27-98ee-a1400d33bedc","system_id":"levelo_inurba_marseille","lat":43.29033,"lon":5.37561,"is_reserved":false,"is_disabled":false,"rental_uris":{"android":"levelo://app?vid=4fca9070-5a32-4d27-98ee-a1400d33bedc","ios":"levelo://app?vid=4fca9070-5a32-4d27-98ee-a1400d33bedc"},"vehicle_type_id":"4","last_reported":1729094987,"current_range_meters":35200,"station_id":"ce4bh692rcd13ifvqe90","pricing_plan_id":"cebpf4jnsgd1na2vs0mg"},{"bike_id":"17a3e415-b2ec-4151-a077-173593f0cea8","system_id":"levelo_inurba_marseille","lat":43.291992,"lon":5.358003,"is_reserved":false,"is_disabled":false,"rental_uris":{"android":"levelo://app?vid=17a3e415-b2ec-4151-a077-173593f0cea8","ios":"levelo://app?vid=17a3e415-b2ec-4151-a077-173593f0cea8"},"vehicle_type_id":"4","last_reported":1729094987,"current_range_meters":37600,"station_id":"ce4bhb12rcd13ifvqel0","pricing_plan_id":"cebpf4jnsgd1na2vs0mg"},{"bike_id":"ecea5373-73aa-47a0-b41d-f69c32da8ec2","system_id":"levelo_inurba_marseille","lat":43.23061,"lon":5.35518,"is_reserved":false,"is_disabled":false,"rental_uris":{"android":"levelo://app?vid=ecea5373-73aa-47a0-b41d-f69c32da8ec2","ios":"levelo://app?vid=ecea5373-73aa-47a0-b41d-f69c32da8ec2"},"vehicle_type_id":"4","last_reported":1729094987,"current_range_meters":10800,"station_id":"cpo3342slgdg3j2ifvpg","pricing_plan_id":"cebpf4jnsgd1na2vs0mg"},{"bike_id":"95cf7d5e-c016-484e-968d-618ef24921cc","system_id":"levelo_inurba_marseille","lat":43.31084,"lon":5.42435,"is_reserved":false,"is_disabled":false,"rental_uris":{"android":"levelo://app?vid=95cf7d5e-c016-484e-968d-618ef24921cc","ios":"levelo://app?vid=95cf7d5e-c016-484e-968d-618ef24921cc"},"vehicle_type_id":"4","last_reported":1729094987,"current_range_meters":19600,"station_id":"ce4bhp92rcd13ifvqhag","pricing_plan_id":"cebpf4jnsgd1na2vs0mg"},{"bike_id":"6d1c13b5-425d-4bf2-bcaa-a778bd536a0b","system_id":"levelo_inurba_marseille","lat":43.28458,"lon":5.35888,"is_reserved":false,"is_disabled":false,"rental_uris":{"android":"levelo://app?vid=6d1c13b5-425d-4bf2-bcaa-a778bd536a0b","ios":"levelo://app?vid=6d1c13b5-425d-4bf2-bcaa-a778bd536a0b"},"vehicle_type_id":"4","last_reported":1729094987,"current_range_meters":14800,"station_id":"ce4bhah2rcd13ifvqei0","pricing_plan_id":"cebpf4jnsgd1na2vs0mg"},{"bike_id":"0cffd889-924d-4c28-b028-d421b32978db","system_id":"levelo_inurba_marseille","lat":43.28411,"lon":5.34985,"is_reserved":false,"is_disabled":false,"rental_uris":{"android":"levelo://app?vid=0cffd889-924d-4c28-b028-d421b32978db","ios":"levelo://app?vid=0cffd889-924d-4c28-b028-d421b32978db"},"vehicle_type_id":"4","last_reported":1729094987,"current_range_meters":37600,"station_id":"ce4bhbh2rcd13ifvqepg","pricing_plan_id":"cebpf4jnsgd1na2vs0mg"},{"bike_id":"1351b4a6-f87c-4441-a55d-324dd7e2e55c","system_id":"levelo_inurba_marseille","lat":43.29875,"lon":5.39751,"is_reserved":false,"is_disabled":false,"rental_uris":{"android":"levelo://app?vid=1351b4a6-f87c-4441-a55d-324dd7e2e55c","ios":"levelo://app?vid=1351b4a6-f87c-4441-a55d-324dd7e2e55c"},"vehicle_type_id":"4","last_reported":1729094987,"current_range_meters":22800,"station_id":"ce4bh0h2rcd13ifvqd50","pricing_plan_id":"cebpf4jnsgd1na2vs0mg"},{"bike_id":"f269126c-1b0b-4a1a-a1d6-f8c3716f5336","system_id":"levelo_inurba_marseille","lat":43.23202,"lon":5.35554,"is_reserved":false,"is_disabled":false,"rental_uris":{"android":"levelo://app?vid=f269126c-1b0b-4a1a-a1d6-f8c3716f5336","ios":"levelo://app?vid=f269126c-1b0b-4a1a-a1d6-f8c3716f5336"},"vehicle_type_id":"4","last_reported":1729094987,"current_range_meters":27600,"station_id":"ce4bhu92rcd13ifvqi70","pricing_plan_id":"cebpf4jnsgd1na2vs0mg"},{"bike_id":"85109d7a-ef98-4eec-9600-00f580894505","system_id":"levelo_inurba_marseille","lat":43.30649,"lon":5.40086,"is_reserved":false,"is_disabled":false,"rental_uris":{"android":"levelo://app?vid=85109d7a-ef98-4eec-9600-00f580894505","ios":"levelo://app?vid=85109d7a-ef98-4eec-9600-00f580894505"},"vehicle_type_id":"4","last_reported":1729094987,"current_range_meters":13600,"station_id":"ce4bh112rcd13ifvqda0","pricing_plan_id":"cebpf4jnsgd1na2vs0mg"},{"bike_id":"11bb8d2b-c4c2-4634-9caa-28a0bda8ce71","system_id":"levelo_inurba_marseille","lat":43.3373,"lon":5.39178,"is_reserved":false,"is_disabled":false,"rental_uris":{"android":"levelo://app?vid=11bb8d2b-c4c2-4634-9caa-28a0bda8ce71","ios":"levelo://app?vid=11bb8d2b-c4c2-4634-9caa-28a0bda8ce71"},"vehicle_type_id":"4","last_reported":1729094987,"current_range_meters":20000,"station_id":"ce4bhr92rcd13ifvqhsg","pricing_plan_id":"cebpf4jnsgd1na2vs0mg"},{"bike_id":"d4651ce1-ac9e-4310-b48d-bee7490baa18","system_id":"levelo_inurba_marseille","lat":43.28081,"lon":5.39661,"is_reserved":false,"is_disabled":false,"rental_uris":{"android":"levelo://app?vid=d4651ce1-ac9e-4310-b48d-bee7490baa18","ios":"levelo://app?vid=d4651ce1-ac9e-4310-b48d-bee7490baa18"},"vehicle_type_id":"4","last_reported":1729094987,"current_range_meters":22000,"station_id":"ce4bho12rcd13ifvqh2g","pricing_plan_id":"cebpf4jnsgd1na2vs0mg"},{"bike_id":"1af7728f-b7bf-4e89-98d0-dbbf9e27fd1b","system_id":"levelo_inurba_marseille","lat":43.26025,"lon":5.37552,"is_reserved":false,"is_disabled":false,"rental_uris":{"android":"levelo://app?vid=1af7728f-b7bf-4e89-98d0-dbbf9e27fd1b","ios":"levelo://app?vid=1af7728f-b7bf-4e89-98d0-dbbf9e27fd1b"},"vehicle_type_id":"4","last_reported":1729094987,"current_range_meters":38800,"station_id":"ce4bhgh2rcd13ifvqfa0","pricing_plan_id":"cebpf4jnsgd1na2vs0mg"},{"bike_id":"0fa9f093-91ec-4f85-a169-e145958cac9c","system_id":"levelo_inurba_marseille","lat":43.29308,"lon":5.37176,"is_reserved":false,"is_disabled":false,"rental_uris":{"android":"levelo://app?vid=0fa9f093-91ec-4f85-a169-e145958cac9c","ios":"levelo://app?vid=0fa9f093-91ec-4f85-a169-e145958cac9c"},"vehicle_type_id":"4","last_reported":1729094987,"current_range_meters":33600,"station_id":"ce4bgh92rcd13ifvqb40","pricing_plan_id":"cebpf4jnsgd1na2vs0mg"},{"bike_id":"205437dd-eddf-437a-8720-1eece481d687","system_id":"levelo_inurba_marseille","lat":43.29915,"lon":5.37474,"is_reserved":false,"is_disabled":false,"rental_uris":{"android":"levelo://app?vid=205437dd-eddf-437a-8720-1eece481d687","ios":"levelo://app?vid=205437dd-eddf-437a-8720-1eece481d687"},"vehicle_type_id":"4","last_reported":1729094987,"current_range_meters":22800,"station_id":"ce4bgjh2rcd13ifvqbg0","pricing_plan_id":"cebpf4jnsgd1na2vs0mg"},{"bike_id":"94d48054-be54-488d-a425-2deb433f452c","system_id":"levelo_inurba_marseille","lat":43.29813,"lon":5.36438,"is_reserved":false,"is_disabled":false,"rental_uris":{"android":"levelo://app?vid=94d48054-be54-488d-a425-2deb433f452c","ios":"levelo://app?vid=94d48054-be54-488d-a425-2deb433f452c"},"vehicle_type_id":"4","last_reported":1729094987,"current_range_meters":18000,"station_id":"ce4bgnh2rcd13ifvqc0g","pricing_plan_id":"cebpf4jnsgd1na2vs0mg"},{"bike_id":"ab5a4cbc-2628-44a6-ac0f-61fda3cd4c59","system_id":"levelo_inurba_marseille","lat":43.303,"lon":5.39222,"is_reserved":false,"is_disabled":false,"rental_uris":{"android":"levelo://app?vid=ab5a4cbc-2628-44a6-ac0f-61fda3cd4c59","ios":"levelo://app?vid=ab5a4cbc-2628-44a6-ac0f-61fda3cd4c59"},"vehicle_type_id":"4","last_reported":1729094987,"current_range_meters":8400,"station_id":"ce4bgkh2rcd13ifvqbk0","pricing_plan_id":"cebpf4jnsgd1na2vs0mg"},{"bike_id":"68be0208-2961-4c33-bb3e-b04420bf326b","system_id":"levelo_inurba_marseille","lat":43.30794,"lon":5.38164,"is_reserved":false,"is_disabled":false,"rental_uris":{"android":"levelo://app?vid=68be0208-2961-4c33-bb3e-b04420bf326b","ios":"levelo://app?vid=68be0208-2961-4c33-bb3e-b04420bf326b"},"vehicle_type_id":"4","last_reported":1729094987,"current_range_meters":6400,"station_id":"ce4bgt12rcd13ifvqce0","pricing_plan_id":"cebpf4jnsgd1na2vs0mg"},{"bike_id":"495595cc-1ab2-4af7-8aa7-1dbc92014841","system_id":"levelo_inurba_marseille","lat":43.29219,"lon":5.36055,"is_reserved":false,"is_disabled":false,"rental_uris":{"android":"levelo://app?vid=495595cc-1ab2-4af7-8aa7-1dbc92014841","ios":"levelo://app?vid=495595cc-1ab2-4af7-8aa7-1dbc92014841"},"vehicle_type_id":"4","last_reported":1729094987,"current_range_meters":36000,"station_id":"ce4bhbh2rcd13ifvqeqg","pricing_plan_id":"cebpf4jnsgd1na2vs0mg"},{"bike_id":"70b096d8-6a93-4281-b2bb-f41f94d979fc","system_id":"levelo_inurba_marseille","lat":43.2318,"lon":5.39985,"is_reserved":false,"is_disabled":false,"rental_uris":{"android":"levelo://app?vid=70b096d8-6a93-4281-b2bb-f41f94d979fc","ios":"levelo://app?vid=70b096d8-6a93-4281-b2bb-f41f94d979fc"},"vehicle_type_id":"4","last_reported":1729094987,"current_range_meters":23200,"station_id":"ce4bhn12rcd13ifvqgqg","pricing_plan_id":"cebpf4jnsgd1na2vs0mg"},{"bike_id":"0bdeb09c-2556-4539-9581-947d30a2bff0","system_id":"levelo_inurba_marseille","lat":43.26782,"lon":5.39426,"is_reserved":false,"is_disabled":false,"rental_uris":{"android":"levelo://app?vid=0bdeb09c-2556-4539-9581-947d30a2bff0","ios":"levelo://app?vid=0bdeb09c-2556-4539-9581-947d30a2bff0"},"vehicle_type_id":"4","last_reported":1729094987,"current_range_meters":4400,"station_id":"ce4bhh12rcd13ifvqfg0","pricing_plan_id":"cebpf4jnsgd1na2vs0mg"},{"bike_id":"d3e74852-5000-479b-8506-614392b8068c","system_id":"levelo_inurba_marseille","lat":43.23198,"lon":5.35548,"is_reserved":false,"is_disabled":false,"rental_uris":{"android":"levelo://app?vid=d3e74852-5000-479b-8506-614392b8068c","ios":"levelo://app?vid=d3e74852-5000-479b-8506-614392b8068c"},"vehicle_type_id":"4","last_reported":1729094987,"current_range_meters":19200,"station_id":"ce4bhu92rcd13ifvqi70","pricing_plan_id":"cebpf4jnsgd1na2vs0mg"},{"bike_id":"fdfc9c2a-1e91-4a53-8899-81e06f52ad31","system_id":"levelo_inurba_marseille","lat":43.257137,"lon":5.411134,"is_reserved":false,"is_disabled":false,"rental_uris":{"android":"levelo://app?vid=fdfc9c2a-1e91-4a53-8899-81e06f52ad31","ios":"levelo://app?vid=fdfc9c2a-1e91-4a53-8899-81e06f52ad31"},"vehicle_type_id":"4","last_reported":1729094987,"current_range_meters":31200,"station_id":"ce4bhkp2rcd13ifvqgd0","pricing_plan_id":"cebpf4jnsgd1na2vs0mg"},{"bike_id":"78edfcf8-71ff-40ca-96e0-80eb9529e10b","system_id":"levelo_inurba_marseille","lat":43.26942,"lon":5.40269,"is_reserved":false,"is_disabled":false,"rental_uris":{"android":"levelo://app?vid=78edfcf8-71ff-40ca-96e0-80eb9529e10b","ios":"levelo://app?vid=78edfcf8-71ff-40ca-96e0-80eb9529e10b"},"vehicle_type_id":"4","last_reported":1729094987,"current_range_meters":8800,"station_id":"cjm6bp8fraef2m0cb0m0","pricing_plan_id":"cebpf4jnsgd1na2vs0mg"},{"bike_id":"c731be96-ba3e-4633-a108-81d0a9fb426b","system_id":"levelo_inurba_marseille","lat":43.24815,"lon":5.37472,"is_reserved":false,"is_disabled":false,"rental_uris":{"android":"levelo://app?vid=c731be96-ba3e-4633-a108-81d0a9fb426b","ios":"levelo://app?vid=c731be96-ba3e-4633-a108-81d0a9fb426b"},"vehicle_type_id":"4","last_reported":1729094987,"current_range_meters":20800,"station_id":"ce4bhgh2rcd13ifvqfb0","pricing_plan_id":"cebpf4jnsgd1na2vs0mg"},{"bike_id":"bab246f7-d1ae-4ffc-8df2-0cc24cd3923c","system_id":"levelo_inurba_marseille","lat":43.23199,"lon":5.35552,"is_reserved":false,"is_disabled":false,"rental_uris":{"android":"levelo://app?vid=bab246f7-d1ae-4ffc-8df2-0cc24cd3923c","ios":"levelo://app?vid=bab246f7-d1ae-4ffc-8df2-0cc24cd3923c"},"vehicle_type_id":"4","last_reported":1729094987,"current_range_meters":35200,"station_id":"ce4bhu92rcd13ifvqi70","pricing_plan_id":"cebpf4jnsgd1na2vs0mg"},{"bike_id":"c7d93c11-0ee4-431b-b74d-71765c44b40e","system_id":"levelo_inurba_marseille","lat":43.278097,"lon":5.407071,"is_reserved":false,"is_disabled":false,"rental_uris":{"android":"levelo://app?vid=c7d93c11-0ee4-431b-b74d-71765c44b40e","ios":"levelo://app?vid=c7d93c11-0ee4-431b-b74d-71765c44b40e"},"vehicle_type_id":"4","last_reported":1729094987,"current_range_meters":33600,"station_id":"ce4bhnh2rcd13ifvqgtg","pricing_plan_id":"cebpf4jnsgd1na2vs0mg"},{"bike_id":"b3083826-b845-4a36-9cbc-2903531a1a50","system_id":"levelo_inurba_marseille","lat":43.28701,"lon":5.37393,"is_reserved":false,"is_disabled":false,"rental_uris":{"android":"levelo://app?vid=b3083826-b845-4a36-9cbc-2903531a1a50","ios":"levelo://app?vid=b3083826-b845-4a36-9cbc-2903531a1a50"},"vehicle_type_id":"4","last_reported":1729094987,"current_range_meters":18800,"station_id":"ce4bh3p2rcd13ifvqdq0","pricing_plan_id":"cebpf4jnsgd1na2vs0mg"},{"bike_id":"bba1e690-8e66-4e07-b6f1-2cb977d9709c","system_id":"levelo_inurba_marseille","lat":43.28003,"lon":5.4001,"is_reserved":false,"is_disabled":false,"rental_uris":{"android":"levelo://app?vid=bba1e690-8e66-4e07-b6f1-2cb977d9709c","ios":"levelo://app?vid=bba1e690-8e66-4e07-b6f1-2cb977d9709c"},"vehicle_type_id":"4","last_reported":1729094987,"current_range_meters":18800,"station_id":"ce4bho92rcd13ifvqh4g","pricing_plan_id":"cebpf4jnsgd1na2vs0mg"},{"bike_id":"47807b7f-d091-412e-a021-4226a1cb9c99","system_id":"levelo_inurba_marseille","lat":43.26557,"lon":5.37286,"is_reserved":false,"is_disabled":false,"rental_uris":{"android":"levelo://app?vid=47807b7f-d091-412e-a021-4226a1cb9c99","ios":"levelo://app?vid=47807b7f-d091-412e-a021-4226a1cb9c99"},"vehicle_type_id":"4","last_reported":1729094987,"current_range_meters":38800,"station_id":"ce4bhg12rcd13ifvqf70","pricing_plan_id":"cebpf4jnsgd1na2vs0mg"},{"bike_id":"68d4c5b1-9dd7-40b8-95ce-ccda46c890bb","system_id":"levelo_inurba_marseille","lat":43.30803,"lon":5.43521,"is_reserved":false,"is_disabled":false,"rental_uris":{"android":"levelo://app?vid=68d4c5b1-9dd7-40b8-95ce-ccda46c890bb","ios":"levelo://app?vid=68d4c5b1-9dd7-40b8-95ce-ccda46c890bb"},"vehicle_type_id":"4","last_reported":1729094987,"current_range_meters":36400,"station_id":"ce4bhph2rcd13ifvqheg","pricing_plan_id":"cebpf4jnsgd1na2vs0mg"},{"bike_id":"c2f7d42c-aa04-4730-a414-1c5788b3dba9","system_id":"levelo_inurba_marseille","lat":43.31761,"lon":5.39019,"is_reserved":false,"is_disabled":false,"rental_uris":{"android":"levelo://app?vid=c2f7d42c-aa04-4730-a414-1c5788b3dba9","ios":"levelo://app?vid=c2f7d42c-aa04-4730-a414-1c5788b3dba9"},"vehicle_type_id":"4","last_reported":1729094987,"current_range_meters":29600,"station_id":"ce4bhqp2rcd13ifvqhng","pricing_plan_id":"cebpf4jnsgd1na2vs0mg"},{"bike_id":"d89c8396-bc86-4cad-92b7-679b3a3e6e80","system_id":"levelo_inurba_marseille","lat":43.29034,"lon":5.37567,"is_reserved":false,"is_disabled":false,"rental_uris":{"android":"levelo://app?vid=d89c8396-bc86-4cad-92b7-679b3a3e6e80","ios":"levelo://app?vid=d89c8396-bc86-4cad-92b7-679b3a3e6e80"},"vehicle_type_id":"4","last_reported":1729094987,"current_range_meters":3600,"station_id":"ce4bh692rcd13ifvqe90","pricing_plan_id":"cebpf4jnsgd1na2vs0mg"},{"bike_id":"2b74ceba-3227-4b20-ad4f-4ff9496c872b","system_id":"levelo_inurba_marseille","lat":43.24079,"lon":5.37754,"is_reserved":false,"is_disabled":false,"rental_uris":{"android":"levelo://app?vid=2b74ceba-3227-4b20-ad4f-4ff9496c872b","ios":"levelo://app?vid=2b74ceba-3227-4b20-ad4f-4ff9496c872b"},"vehicle_type_id":"4","last_reported":1729094987,"current_range_meters":35200,"station_id":"ce4bhnp2rcd13ifvqgvg","pricing_plan_id":"cebpf4jnsgd1na2vs0mg"},{"bike_id":"f73a2b0c-bfe4-4408-942f-d609a849b982","system_id":"levelo_inurba_marseille","lat":43.3033,"lon":5.40437,"is_reserved":false,"is_disabled":false,"rental_uris":{"android":"levelo://app?vid=f73a2b0c-bfe4-4408-942f-d609a849b982","ios":"levelo://app?vid=f73a2b0c-bfe4-4408-942f-d609a849b982"},"vehicle_type_id":"4","last_reported":1729094987,"current_range_meters":19600,"station_id":"ce4bh012rcd13ifvqd10","pricing_plan_id":"cebpf4jnsgd1na2vs0mg"},{"bike_id":"984174a1-e2f9-49aa-941f-1e1e4e6b11b5","system_id":"levelo_inurba_marseille","lat":43.26792,"lon":5.39412,"is_reserved":false,"is_disabled":false,"rental_uris":{"android":"levelo://app?vid=984174a1-e2f9-49aa-941f-1e1e4e6b11b5","ios":"levelo://app?vid=984174a1-e2f9-49aa-941f-1e1e4e6b11b5"},"vehicle_type_id":"4","last_reported":1729094987,"current_range_meters":20000,"station_id":"ce4bhh12rcd13ifvqfg0","pricing_plan_id":"cebpf4jnsgd1na2vs0mg"},{"bike_id":"ac85bd1a-c363-474f-b16d-a823655c1c69","system_id":"levelo_inurba_marseille","lat":43.26199,"lon":5.37937,"is_reserved":false,"is_disabled":false,"rental_uris":{"android":"levelo://app?vid=ac85bd1a-c363-474f-b16d-a823655c1c69","ios":"levelo://app?vid=ac85bd1a-c363-474f-b16d-a823655c1c69"},"vehicle_type_id":"4","last_reported":1729094987,"current_range_meters":27600,"station_id":"ce4bhjp2rcd13ifvqg90","pricing_plan_id":"cebpf4jnsgd1na2vs0mg"},{"bike_id":"a1e0278e-920e-4eea-a381-891331e8e403","system_id":"levelo_inurba_marseille","lat":43.23195,"lon":5.35546,"is_reserved":false,"is_disabled":false,"rental_uris":{"android":"levelo://app?vid=a1e0278e-920e-4eea-a381-891331e8e403","ios":"levelo://app?vid=a1e0278e-920e-4eea-a381-891331e8e403"},"vehicle_type_id":"4","last_reported":1729094987,"current_range_meters":36400,"station_id":"ce4bhu92rcd13ifvqi70","pricing_plan_id":"cebpf4jnsgd1na2vs0mg"},{"bike_id":"ed12737e-150f-4be3-8463-b3aa6d96740f","system_id":"levelo_inurba_marseille","lat":43.29024,"lon":5.38647,"is_reserved":false,"is_disabled":false,"rental_uris":{"android":"levelo://app?vid=ed12737e-150f-4be3-8463-b3aa6d96740f","ios":"levelo://app?vid=ed12737e-150f-4be3-8463-b3aa6d96740f"},"vehicle_type_id":"4","last_reported":1729094987,"current_range_meters":3200,"station_id":"ce4bh4p2rcd13ifvqe0g","pricing_plan_id":"cebpf4jnsgd1na2vs0mg"},{"bike_id":"5f234519-d5aa-470c-8026-befa87af7ea0","system_id":"levelo_inurba_marseille","lat":43.27626,"lon":5.361,"is_reserved":false,"is_disabled":false,"rental_uris":{"android":"levelo://app?vid=5f234519-d5aa-470c-8026-befa87af7ea0","ios":"levelo://app?vid=5f234519-d5aa-470c-8026-befa87af7ea0"},"vehicle_type_id":"4","last_reported":1729094987,"current_range_meters":38800,"station_id":"ce4bgj92rcd13ifvqbe0","pricing_plan_id":"cebpf4jnsgd1na2vs0mg"},{"bike_id":"c40ea89d-8c8c-435b-b921-87dde2981d9f","system_id":"levelo_inurba_marseille","lat":43.31715,"lon":5.42396,"is_reserved":false,"is_disabled":false,"rental_uris":{"android":"levelo://app?vid=c40ea89d-8c8c-435b-b921-87dde2981d9f","ios":"levelo://app?vid=c40ea89d-8c8c-435b-b921-87dde2981d9f"},"vehicle_type_id":"4","last_reported":1729094987,"current_range_meters":23200,"station_id":"ce4bhp92rcd13ifvqhbg","pricing_plan_id":"cebpf4jnsgd1na2vs0mg"},{"bike_id":"75bf50c3-a1ef-4503-85d8-6e682768708b","system_id":"levelo_inurba_marseille","lat":43.33028,"lon":5.39039,"is_reserved":false,"is_disabled":false,"rental_uris":{"android":"levelo://app?vid=75bf50c3-a1ef-4503-85d8-6e682768708b","ios":"levelo://app?vid=75bf50c3-a1ef-4503-85d8-6e682768708b"},"vehicle_type_id":"4","last_reported":1729094987,"current_range_meters":8800,"station_id":"ce4bhr92rcd13ifvqhrg","pricing_plan_id":"cebpf4jnsgd1na2vs0mg"},{"bike_id":"24a72d42-d0cb-4daa-a5f8-183077849978","system_id":"levelo_inurba_marseille","lat":43.258214,"lon":5.394332,"is_reserved":false,"is_disabled":false,"rental_uris":{"android":"levelo://app?vid=24a72d42-d0cb-4daa-a5f8-183077849978","ios":"levelo://app?vid=24a72d42-d0cb-4daa-a5f8-183077849978"},"vehicle_type_id":"4","last_reported":1729094987,"current_range_meters":10800,"station_id":"ce4bhip2rcd13ifvqft0","pricing_plan_id":"cebpf4jnsgd1na2vs0mg"},{"bike_id":"94c1037a-4aef-4a37-8888-5f43154413f4","system_id":"levelo_inurba_marseille","lat":43.32663,"lon":5.40994,"is_reserved":false,"is_disabled":false,"rental_uris":{"android":"levelo://app?vid=94c1037a-4aef-4a37-8888-5f43154413f4","ios":"levelo://app?vid=94c1037a-4aef-4a37-8888-5f43154413f4"},"vehicle_type_id":"4","last_reported":1729094987,"current_range_meters":16400,"station_id":"ce4bhpp2rcd13ifvqhgg","pricing_plan_id":"cebpf4jnsgd1na2vs0mg"},{"bike_id":"aa93ae9d-e68b-4a05-b7e2-daeabc87ed1e","system_id":"levelo_inurba_marseille","lat":43.23191,"lon":5.35552,"is_reserved":false,"is_disabled":false,"rental_uris":{"android":"levelo://app?vid=aa93ae9d-e68b-4a05-b7e2-daeabc87ed1e","ios":"levelo://app?vid=aa93ae9d-e68b-4a05-b7e2-daeabc87ed1e"},"vehicle_type_id":"4","last_reported":1729094987,"current_range_meters":33600,"station_id":"ce4bhu92rcd13ifvqi70","pricing_plan_id":"cebpf4jnsgd1na2vs0mg"},{"bike_id":"75f0773a-6f15-448d-a8aa-2cb37fea4bfd","system_id":"levelo_inurba_marseille","lat":43.30798,"lon":5.43525,"is_reserved":false,"is_disabled":false,"rental_uris":{"android":"levelo://app?vid=75f0773a-6f15-448d-a8aa-2cb37fea4bfd","ios":"levelo://app?vid=75f0773a-6f15-448d-a8aa-2cb37fea4bfd"},"vehicle_type_id":"4","last_reported":1729094987,"current_range_meters":29600,"station_id":"ce4bhph2rcd13ifvqheg","pricing_plan_id":"cebpf4jnsgd1na2vs0mg"},{"bike_id":"dd18af1f-7703-4c32-99f0-ae3288b9b94f","system_id":"levelo_inurba_marseille","lat":43.29221,"lon":5.36052,"is_reserved":false,"is_disabled":false,"rental_uris":{"android":"levelo://app?vid=dd18af1f-7703-4c32-99f0-ae3288b9b94f","ios":"levelo://app?vid=dd18af1f-7703-4c32-99f0-ae3288b9b94f"},"vehicle_type_id":"4","last_reported":1729094987,"current_range_meters":19600,"station_id":"ce4bhbh2rcd13ifvqeqg","pricing_plan_id":"cebpf4jnsgd1na2vs0mg"},{"bike_id":"45c1f865-5acf-457d-b820-59564426be21","system_id":"levelo_inurba_marseille","lat":43.23066,"lon":5.35494,"is_reserved":false,"is_disabled":false,"rental_uris":{"android":"levelo://app?vid=45c1f865-5acf-457d-b820-59564426be21","ios":"levelo://app?vid=45c1f865-5acf-457d-b820-59564426be21"},"vehicle_type_id":"4","last_reported":1729094987,"current_range_meters":10800,"station_id":"cpo3342slgdg3j2ifvpg","pricing_plan_id":"cebpf4jnsgd1na2vs0mg"},{"bike_id":"683e1fb0-473f-459a-8421-fc2f7e262cdf","system_id":"levelo_inurba_marseille","lat":43.284795,"lon":5.384173,"is_reserved":false,"is_disabled":false,"rental_uris":{"android":"levelo://app?vid=683e1fb0-473f-459a-8421-fc2f7e262cdf","ios":"levelo://app?vid=683e1fb0-473f-459a-8421-fc2f7e262cdf"},"vehicle_type_id":"4","last_reported":1729094987,"current_range_meters":6800,"station_id":"ce4bh512rcd13ifvqe3g","pricing_plan_id":"cebpf4jnsgd1na2vs0mg"},{"bike_id":"a6269777-839c-44e0-abd3-812a8d2a8063","system_id":"levelo_inurba_marseille","lat":43.29445,"lon":5.39751,"is_reserved":false,"is_disabled":false,"rental_uris":{"android":"levelo://app?vid=a6269777-839c-44e0-abd3-812a8d2a8063","ios":"levelo://app?vid=a6269777-839c-44e0-abd3-812a8d2a8063"},"vehicle_type_id":"4","last_reported":1729094987,"current_range_meters":4400,"station_id":"ce4bh3h2rcd13ifvqdo0","pricing_plan_id":"cebpf4jnsgd1na2vs0mg"},{"bike_id":"e7306dab-06ce-4072-9c06-792c8b5a977e","system_id":"levelo_inurba_marseille","lat":43.2695,"lon":5.38625,"is_reserved":false,"is_disabled":false,"rental_uris":{"android":"levelo://app?vid=e7306dab-06ce-4072-9c06-792c8b5a977e","ios":"levelo://app?vid=e7306dab-06ce-4072-9c06-792c8b5a977e"},"vehicle_type_id":"4","last_reported":1729094987,"current_range_meters":36800,"station_id":"ce4bhh92rcd13ifvqfh0","pricing_plan_id":"cebpf4jnsgd1na2vs0mg"},{"bike_id":"4eefa1ec-0d89-406a-9ba6-ab04341864b0","system_id":"levelo_inurba_marseille","lat":43.23201,"lon":5.35547,"is_reserved":false,"is_disabled":false,"rental_uris":{"android":"levelo://app?vid=4eefa1ec-0d89-406a-9ba6-ab04341864b0","ios":"levelo://app?vid=4eefa1ec-0d89-406a-9ba6-ab04341864b0"},"vehicle_type_id":"4","last_reported":1729094987,"current_range_meters":38800,"station_id":"ce4bhu92rcd13ifvqi70","pricing_plan_id":"cebpf4jnsgd1na2vs0mg"},{"bike_id":"9277531d-dfd2-44cd-a688-ca3f7088f9d0","system_id":"levelo_inurba_marseille","lat":43.22937,"lon":5.35382,"is_reserved":false,"is_disabled":false,"rental_uris":{"android":"levelo://app?vid=9277531d-dfd2-44cd-a688-ca3f7088f9d0","ios":"levelo://app?vid=9277531d-dfd2-44cd-a688-ca3f7088f9d0"},"vehicle_type_id":"4","last_reported":1729094987,"current_range_meters":38800,"station_id":"cpo3532slgdg3j2ikp40","pricing_plan_id":"cebpf4jnsgd1na2vs0mg"},{"bike_id":"46af72d6-73dd-414c-835b-df98f9cd3ba9","system_id":"levelo_inurba_marseille","lat":43.2509,"lon":5.39518,"is_reserved":false,"is_disabled":false,"rental_uris":{"android":"levelo://app?vid=46af72d6-73dd-414c-835b-df98f9cd3ba9","ios":"levelo://app?vid=46af72d6-73dd-414c-835b-df98f9cd3ba9"},"vehicle_type_id":"4","last_reported":1729094987,"current_range_meters":29600,"station_id":"ce4bhm12rcd13ifvqgkg","pricing_plan_id":"cebpf4jnsgd1na2vs0mg"},{"bike_id":"982b41d1-a7dc-4869-a033-1b195f270c86","system_id":"levelo_inurba_marseille","lat":43.29777,"lon":5.37119,"is_reserved":false,"is_disabled":false,"rental_uris":{"android":"levelo://app?vid=982b41d1-a7dc-4869-a033-1b195f270c86","ios":"levelo://app?vid=982b41d1-a7dc-4869-a033-1b195f270c86"},"vehicle_type_id":"4","last_reported":1729094987,"current_range_meters":17200,"station_id":"ce4bgop2rcd13ifvqc1g","pricing_plan_id":"cebpf4jnsgd1na2vs0mg"},{"bike_id":"d5791696-d8b6-4f74-b0b9-12f8f154dcb1","system_id":"levelo_inurba_marseille","lat":43.32362,"lon":5.38882,"is_reserved":false,"is_disabled":false,"rental_uris":{"android":"levelo://app?vid=d5791696-d8b6-4f74-b0b9-12f8f154dcb1","ios":"levelo://app?vid=d5791696-d8b6-4f74-b0b9-12f8f154dcb1"},"vehicle_type_id":"4","last_reported":1729094987,"current_range_meters":28000,"station_id":"ce4bhqp2rcd13ifvqhog","pricing_plan_id":"cebpf4jnsgd1na2vs0mg"},{"bike_id":"0b2cb814-94fa-49c0-b65f-cfcf3cbe5eca","system_id":"levelo_inurba_marseille","lat":43.23196,"lon":5.35558,"is_reserved":false,"is_disabled":false,"rental_uris":{"android":"levelo://app?vid=0b2cb814-94fa-49c0-b65f-cfcf3cbe5eca","ios":"levelo://app?vid=0b2cb814-94fa-49c0-b65f-cfcf3cbe5eca"},"vehicle_type_id":"4","last_reported":1729094987,"current_range_meters":36800,"station_id":"ce4bhu92rcd13ifvqi70","pricing_plan_id":"cebpf4jnsgd1na2vs0mg"},{"bike_id":"17d164bd-22ca-4929-836f-5b1e0c17a92d","system_id":"levelo_inurba_marseille","lat":43.29532,"lon":5.38548,"is_reserved":false,"is_disabled":false,"rental_uris":{"android":"levelo://app?vid=17d164bd-22ca-4929-836f-5b1e0c17a92d","ios":"levelo://app?vid=17d164bd-22ca-4929-836f-5b1e0c17a92d"},"vehicle_type_id":"4","last_reported":1729094987,"current_range_meters":14000,"station_id":"ce4bgih2rcd13ifvqba0","pricing_plan_id":"cebpf4jnsgd1na2vs0mg"},{"bike_id":"01037f54-bc58-43c3-91ed-848cb60d18d9","system_id":"levelo_inurba_marseille","lat":43.28616,"lon":5.35104,"is_reserved":false,"is_disabled":false,"rental_uris":{"android":"levelo://app?vid=01037f54-bc58-43c3-91ed-848cb60d18d9","ios":"levelo://app?vid=01037f54-bc58-43c3-91ed-848cb60d18d9"},"vehicle_type_id":"4","last_reported":1729094987,"current_range_meters":31200,"station_id":"ce4bhch2rcd13ifvqeug","pricing_plan_id":"cebpf4jnsgd1na2vs0mg"},{"bike_id":"8fa17eba-7247-4a61-b21d-85ba45125ff4","system_id":"levelo_inurba_marseille","lat":43.32341,"lon":5.40622,"is_reserved":false,"is_disabled":false,"rental_uris":{"android":"levelo://app?vid=8fa17eba-7247-4a61-b21d-85ba45125ff4","ios":"levelo://app?vid=8fa17eba-7247-4a61-b21d-85ba45125ff4"},"vehicle_type_id":"4","last_reported":1729094987,"current_range_meters":18800,"station_id":"ce4bhq92rcd13ifvqhjg","pricing_plan_id":"cebpf4jnsgd1na2vs0mg"},{"bike_id":"137da38e-80d4-4745-b41e-198078fae9f6","system_id":"levelo_inurba_marseille","lat":43.30528,"lon":5.36712,"is_reserved":false,"is_disabled":false,"rental_uris":{"android":"levelo://app?vid=137da38e-80d4-4745-b41e-198078fae9f6","ios":"levelo://app?vid=137da38e-80d4-4745-b41e-198078fae9f6"},"vehicle_type_id":"4","last_reported":1729094987,"current_range_meters":20800,"station_id":"ce4bgrp2rcd13ifvqc9g","pricing_plan_id":"cebpf4jnsgd1na2vs0mg"},{"bike_id":"4439468d-0433-4a44-bc5f-b7c436083a22","system_id":"levelo_inurba_marseille","lat":43.290039,"lon":5.356151,"is_reserved":false,"is_disabled":false,"rental_uris":{"android":"levelo://app?vid=4439468d-0433-4a44-bc5f-b7c436083a22","ios":"levelo://app?vid=4439468d-0433-4a44-bc5f-b7c436083a22"},"vehicle_type_id":"4","last_reported":1729094987,"current_range_meters":22000,"station_id":"ce4bhb92rcd13ifvqen0","pricing_plan_id":"cebpf4jnsgd1na2vs0mg"},{"bike_id":"7a36a4d4-d83f-4680-8149-8b645d4b5076","system_id":"levelo_inurba_marseille","lat":43.28455,"lon":5.35885,"is_reserved":false,"is_disabled":false,"rental_uris":{"android":"levelo://app?vid=7a36a4d4-d83f-4680-8149-8b645d4b5076","ios":"levelo://app?vid=7a36a4d4-d83f-4680-8149-8b645d4b5076"},"vehicle_type_id":"4","last_reported":1729094987,"current_range_meters":26000,"station_id":"ce4bhah2rcd13ifvqei0","pricing_plan_id":"cebpf4jnsgd1na2vs0mg"},{"bike_id":"3e1dbe2a-7d46-413b-a49d-d7eba89bfc47","system_id":"levelo_inurba_marseille","lat":43.2737,"lon":5.36263,"is_reserved":false,"is_disabled":false,"rental_uris":{"android":"levelo://app?vid=3e1dbe2a-7d46-413b-a49d-d7eba89bfc47","ios":"levelo://app?vid=3e1dbe2a-7d46-413b-a49d-d7eba89bfc47"},"vehicle_type_id":"4","last_reported":1729094987,"current_range_meters":16400,"station_id":"ce4bhbh2rcd13ifvqeo0","pricing_plan_id":"cebpf4jnsgd1na2vs0mg"},{"bike_id":"049e751b-7f66-46a6-9f51-c228a0a51e98","system_id":"levelo_inurba_marseille","lat":43.295074,"lon":5.394186,"is_reserved":false,"is_disabled":false,"rental_uris":{"android":"levelo://app?vid=049e751b-7f66-46a6-9f51-c228a0a51e98","ios":"levelo://app?vid=049e751b-7f66-46a6-9f51-c228a0a51e98"},"vehicle_type_id":"4","last_reported":1729094987,"current_range_meters":12800,"station_id":"ce4bgj12rcd13ifvqbc0","pricing_plan_id":"cebpf4jnsgd1na2vs0mg"},{"bike_id":"48491123-34da-4c4f-87ed-a194a2f086b0","system_id":"levelo_inurba_marseille","lat":43.28263,"lon":5.35061,"is_reserved":false,"is_disabled":false,"rental_uris":{"android":"levelo://app?vid=48491123-34da-4c4f-87ed-a194a2f086b0","ios":"levelo://app?vid=48491123-34da-4c4f-87ed-a194a2f086b0"},"vehicle_type_id":"4","last_reported":1729094987,"current_range_meters":38000,"station_id":"ce4bhbp2rcd13ifvqerg","pricing_plan_id":"cebpf4jnsgd1na2vs0mg"},{"bike_id":"40a24b76-c2cd-4674-a387-0fb0b0a4b424","system_id":"levelo_inurba_marseille","lat":43.28276,"lon":5.40232,"is_reserved":false,"is_disabled":false,"rental_uris":{"android":"levelo://app?vid=40a24b76-c2cd-4674-a387-0fb0b0a4b424","ios":"levelo://app?vid=40a24b76-c2cd-4674-a387-0fb0b0a4b424"},"vehicle_type_id":"4","last_reported":1729094987,"current_range_meters":6400,"station_id":"ce4bho92rcd13ifvqh4g","pricing_plan_id":"cebpf4jnsgd1na2vs0mg"},{"bike_id":"6adedfa4-61fb-416c-99fc-8ceea1f966a9","system_id":"levelo_inurba_marseille","lat":43.32368,"lon":5.3889,"is_reserved":false,"is_disabled":false,"rental_uris":{"android":"levelo://app?vid=6adedfa4-61fb-416c-99fc-8ceea1f966a9","ios":"levelo://app?vid=6adedfa4-61fb-416c-99fc-8ceea1f966a9"},"vehicle_type_id":"4","last_reported":1729094987,"current_range_meters":19600,"station_id":"ce4bhqp2rcd13ifvqhog","pricing_plan_id":"cebpf4jnsgd1na2vs0mg"},{"bike_id":"574968d4-9a26-4d76-89a4-087b44a9463f","system_id":"levelo_inurba_marseille","lat":43.2762,"lon":5.36121,"is_reserved":false,"is_disabled":false,"rental_uris":{"android":"levelo://app?vid=574968d4-9a26-4d76-89a4-087b44a9463f","ios":"levelo://app?vid=574968d4-9a26-4d76-89a4-087b44a9463f"},"vehicle_type_id":"4","last_reported":1729094987,"current_range_meters":24000,"station_id":"ce4bgj92rcd13ifvqbe0","pricing_plan_id":"cebpf4jnsgd1na2vs0mg"},{"bike_id":"eebb36d5-1a60-426b-a22b-7761247dd189","system_id":"levelo_inurba_marseille","lat":43.33033,"lon":5.3905,"is_reserved":false,"is_disabled":false,"rental_uris":{"android":"levelo://app?vid=eebb36d5-1a60-426b-a22b-7761247dd189","ios":"levelo://app?vid=eebb36d5-1a60-426b-a22b-7761247dd189"},"vehicle_type_id":"4","last_reported":1729094987,"current_range_meters":8000,"station_id":"ce4bhr92rcd13ifvqhrg","pricing_plan_id":"cebpf4jnsgd1na2vs0mg"},{"bike_id":"43e251e9-2f0e-45b0-90f4-3a2e4034fe01","system_id":"levelo_inurba_marseille","lat":43.2417,"lon":5.36402,"is_reserved":false,"is_disabled":false,"rental_uris":{"android":"levelo://app?vid=43e251e9-2f0e-45b0-90f4-3a2e4034fe01","ios":"levelo://app?vid=43e251e9-2f0e-45b0-90f4-3a2e4034fe01"},"vehicle_type_id":"4","last_reported":1729094987,"current_range_meters":16400,"station_id":"cpo36qri1sfpv3e86is0","pricing_plan_id":"cebpf4jnsgd1na2vs0mg"},{"bike_id":"4c188c07-e0fb-44b6-933b-c2d22b7311fb","system_id":"levelo_inurba_marseille","lat":43.31757,"lon":5.39016,"is_reserved":false,"is_disabled":false,"rental_uris":{"android":"levelo://app?vid=4c188c07-e0fb-44b6-933b-c2d22b7311fb","ios":"levelo://app?vid=4c188c07-e0fb-44b6-933b-c2d22b7311fb"},"vehicle_type_id":"4","last_reported":1729094987,"current_range_meters":33200,"station_id":"ce4bhqp2rcd13ifvqhng","pricing_plan_id":"cebpf4jnsgd1na2vs0mg"},{"bike_id":"f2c04960-0948-46a3-a61b-878a8249d588","system_id":"levelo_inurba_marseille","lat":43.29605,"lon":5.37718,"is_reserved":false,"is_disabled":false,"rental_uris":{"android":"levelo://app?vid=f2c04960-0948-46a3-a61b-878a8249d588","ios":"levelo://app?vid=f2c04960-0948-46a3-a61b-878a8249d588"},"vehicle_type_id":"4","last_reported":1729094987,"current_range_meters":36000,"station_id":"ce4bgi92rcd13ifvqb90","pricing_plan_id":"cebpf4jnsgd1na2vs0mg"},{"bike_id":"d900a5a2-f5fb-4e98-a6e6-9c81f354555c","system_id":"levelo_inurba_marseille","lat":43.23063,"lon":5.35501,"is_reserved":false,"is_disabled":false,"rental_uris":{"android":"levelo://app?vid=d900a5a2-f5fb-4e98-a6e6-9c81f354555c","ios":"levelo://app?vid=d900a5a2-f5fb-4e98-a6e6-9c81f354555c"},"vehicle_type_id":"4","last_reported":1729094987,"current_range_meters":12000,"station_id":"cpo3342slgdg3j2ifvpg","pricing_plan_id":"cebpf4jnsgd1na2vs0mg"},{"bike_id":"eefaf340-edfb-4a91-8937-0bdd0a083d93","system_id":"levelo_inurba_marseille","lat":43.31111,"lon":5.37773,"is_reserved":false,"is_disabled":false,"rental_uris":{"android":"levelo://app?vid=eefaf340-edfb-4a91-8937-0bdd0a083d93","ios":"levelo://app?vid=eefaf340-edfb-4a91-8937-0bdd0a083d93"},"vehicle_type_id":"4","last_reported":1729094987,"current_range_meters":38800,"station_id":"ce4bgt92rcd13ifvqcg0","pricing_plan_id":"cebpf4jnsgd1na2vs0mg"},{"bike_id":"8fce4d7c-a22c-47cc-9211-c2a8d6bbe28c","system_id":"levelo_inurba_marseille","lat":43.31757,"lon":5.39021,"is_reserved":false,"is_disabled":false,"rental_uris":{"android":"levelo://app?vid=8fce4d7c-a22c-47cc-9211-c2a8d6bbe28c","ios":"levelo://app?vid=8fce4d7c-a22c-47cc-9211-c2a8d6bbe28c"},"vehicle_type_id":"4","last_reported":1729094987,"current_range_meters":29600,"station_id":"ce4bhqp2rcd13ifvqhng","pricing_plan_id":"cebpf4jnsgd1na2vs0mg"},{"bike_id":"59d0097f-0ec6-4b8b-9028-582b8bf6c261","system_id":"levelo_inurba_marseille","lat":43.22927,"lon":5.35381,"is_reserved":false,"is_disabled":false,"rental_uris":{"android":"levelo://app?vid=59d0097f-0ec6-4b8b-9028-582b8bf6c261","ios":"levelo://app?vid=59d0097f-0ec6-4b8b-9028-582b8bf6c261"},"vehicle_type_id":"4","last_reported":1729094987,"current_range_meters":28000,"station_id":"cpo3532slgdg3j2ikp40","pricing_plan_id":"cebpf4jnsgd1na2vs0mg"},{"bike_id":"5d381b9f-c38b-47fb-b4d8-e31ffff102fb","system_id":"levelo_inurba_marseille","lat":43.26991,"lon":5.39091,"is_reserved":false,"is_disabled":false,"rental_uris":{"android":"levelo://app?vid=5d381b9f-c38b-47fb-b4d8-e31ffff102fb","ios":"levelo://app?vid=5d381b9f-c38b-47fb-b4d8-e31ffff102fb"},"vehicle_type_id":"4","last_reported":1729094987,"current_range_meters":29600,"station_id":"ce4bhhh2rcd13ifvqfl0","pricing_plan_id":"cebpf4jnsgd1na2vs0mg"},{"bike_id":"43a953b2-2f05-446c-86b7-ca05c5592229","system_id":"levelo_inurba_marseille","lat":43.27939,"lon":5.41057,"is_reserved":false,"is_disabled":false,"rental_uris":{"android":"levelo://app?vid=43a953b2-2f05-446c-86b7-ca05c5592229","ios":"levelo://app?vid=43a953b2-2f05-446c-86b7-ca05c5592229"},"vehicle_type_id":"4","last_reported":1729094987,"current_range_meters":34800,"station_id":"ce4bhnp2rcd13ifvqh0g","pricing_plan_id":"cebpf4jnsgd1na2vs0mg"},{"bike_id":"5d6b21f8-64be-4f79-8034-9863f1af44fe","system_id":"levelo_inurba_marseille","lat":43.29271,"lon":5.36851,"is_reserved":false,"is_disabled":false,"rental_uris":{"android":"levelo://app?vid=5d6b21f8-64be-4f79-8034-9863f1af44fe","ios":"levelo://app?vid=5d6b21f8-64be-4f79-8034-9863f1af44fe"},"vehicle_type_id":"4","last_reported":1729094987,"current_range_meters":38000,"station_id":"ce4bhbp2rcd13ifvqesg","pricing_plan_id":"cebpf4jnsgd1na2vs0mg"},{"bike_id":"0ddcefdb-7a1c-4101-a2e7-926d040a34a3","system_id":"levelo_inurba_marseille","lat":43.33023,"lon":5.39041,"is_reserved":false,"is_disabled":false,"rental_uris":{"android":"levelo://app?vid=0ddcefdb-7a1c-4101-a2e7-926d040a34a3","ios":"levelo://app?vid=0ddcefdb-7a1c-4101-a2e7-926d040a34a3"},"vehicle_type_id":"4","last_reported":1729094987,"current_range_meters":36800,"station_id":"ce4bhr92rcd13ifvqhrg","pricing_plan_id":"cebpf4jnsgd1na2vs0mg"},{"bike_id":"eb96d53b-4d0d-47af-818a-057342768353","system_id":"levelo_inurba_marseille","lat":43.2762,"lon":5.36106,"is_reserved":false,"is_disabled":false,"rental_uris":{"android":"levelo://app?vid=eb96d53b-4d0d-47af-818a-057342768353","ios":"levelo://app?vid=eb96d53b-4d0d-47af-818a-057342768353"},"vehicle_type_id":"4","last_reported":1729094987,"current_range_meters":30800,"station_id":"ce4bgj92rcd13ifvqbe0","pricing_plan_id":"cebpf4jnsgd1na2vs0mg"},{"bike_id":"81f285e0-18e5-46c3-ad27-14b436592906","system_id":"levelo_inurba_marseille","lat":43.27943,"lon":5.41049,"is_reserved":false,"is_disabled":false,"rental_uris":{"android":"levelo://app?vid=81f285e0-18e5-46c3-ad27-14b436592906","ios":"levelo://app?vid=81f285e0-18e5-46c3-ad27-14b436592906"},"vehicle_type_id":"4","last_reported":1729094987,"current_range_meters":28400,"station_id":"ce4bhnp2rcd13ifvqh0g","pricing_plan_id":"cebpf4jnsgd1na2vs0mg"},{"bike_id":"dbd6bde9-fc6f-4bf9-b9de-e42f851e2b22","system_id":"levelo_inurba_marseille","lat":43.2926,"lon":5.40894,"is_reserved":false,"is_disabled":false,"rental_uris":{"android":"levelo://app?vid=dbd6bde9-fc6f-4bf9-b9de-e42f851e2b22","ios":"levelo://app?vid=dbd6bde9-fc6f-4bf9-b9de-e42f851e2b22"},"vehicle_type_id":"4","last_reported":1729094987,"current_range_meters":4000,"station_id":"ce4bh192rcd13ifvqdc0","pricing_plan_id":"cebpf4jnsgd1na2vs0mg"},{"bike_id":"3cffd310-808b-4009-be8a-3169b1d62df5","system_id":"levelo_inurba_marseille","lat":43.26943,"lon":5.40247,"is_reserved":false,"is_disabled":false,"rental_uris":{"android":"levelo://app?vid=3cffd310-808b-4009-be8a-3169b1d62df5","ios":"levelo://app?vid=3cffd310-808b-4009-be8a-3169b1d62df5"},"vehicle_type_id":"4","last_reported":1729094987,"current_range_meters":24800,"station_id":"cjm6bp8fraef2m0cb0m0","pricing_plan_id":"cebpf4jnsgd1na2vs0mg"},