{"last_updated":1732277907,"ttl":60,"version":"2.2","data":{"bikes":[{"bike_id":"42ae4d1d-cf4c-4058-859f-b66173c77d19","system_id":"levelo_inurba_marseille","lat":43.29276,"lon":5.40129,"is_reserved":false,"is_disabled":false,"rental_uris":{"android":"levelo://app?vid=42ae4d1d-cf4c-4058-859f-b66173c77d19","ios":"levelo://app?vid=42ae4d1d-cf4c-4058-859f-b66173c77d19"},"vehicle_type_id":"4","last_reported":1732277907,"current_range_meters":9600,"station_id":"ce4bh312rcd13ifvqdk0","pricing_plan_id":"cebpf4jnsgd1na2vs0mg"},{"bike_id":"8527133f-e94b-41ef-9b16-c99901d73e95","system_id":"levelo_inurba_marseille","lat":43.25575,"lon":5.38237,"is_reserved":false,"is_disabled":false,"rental_uris":{"android":"levelo://app?vid=8527133f-e94b-41ef-9b16-c99901d73e95","ios":"levelo://app?vid=8527133f-e94b-41ef-9b16-c99901d73e95"},"vehicle_type_id":"4","last_reported":1732277907,"current_range_meters":34000,"station_id":"ce4bhih2rcd13ifvqfs0","pricing_plan_id":"cebpf4jnsgd1na2vs0mg"},{"bike_id":"1a5a3b08-fc55-4b17-adaf-98ac64bb4ae6","system_id":"levelo_inurba_marseille","lat":43.29921,"lon":5.37471,"is_reserved":false,"is_disabled":false,"rental_uris":{"android":"levelo://app?vid=1a5a3b08-fc55-4b17-adaf-98ac64bb4ae6","ios":"levelo://app?vid=1a5a3b08-fc55-4b17-adaf-98ac64bb4ae6"},"vehicle_type_id":"4","last_reported":1732277907,"current_range_meters":25200,"station_id":"ce4bgjh2rcd13ifvqbg0","pricing_plan_id":"cebpf4jnsgd1na2vs0mg"},{"bike_id":"7ade2142-eca0-47c9-a1cc-6b8d37bae659","system_id":"levelo_inurba_marseille","lat":43.23149,"lon":5.4372,"is_reserved":false,"is_disabled":false,"rental_uris":{"android":"levelo://app?vid=7ade2142-eca0-47c9-a1cc-6b8d37bae659","ios":"levelo://app?vid=7ade2142-eca0-47c9-a1cc-6b8d37bae659"},"vehicle_type_id":"4","last_reported":1732277907,"current_range_meters":25200,"station_id":"ce4bhmp2rcd13ifvqgog","pricing_plan_id":"cebpf4jnsgd1na2vs0mg"},{"bike_id":"6b7d9cf8-4f90-4fd0-8cad-8f4b70f87015","system_id":"levelo_inurba_marseille","lat":43.30188,"lon":5.36616,"is_reserved":false,"is_disabled":false,"rental_uris":{"android":"levelo://app?vid=6b7d9cf8-4f90-4fd0-8cad-8f4b70f87015","ios":"levelo://app?vid=6b7d9cf8-4f90-4fd0-8cad-8f4b70f87015"},"vehicle_type_id":"4","last_reported":1732277907,"current_range_meters":38000,"station_id":"ce4bgrh2rcd13ifvqc8g","pricing_plan_id":"cebpf4jnsgd1na2vs0mg"},{"bike_id":"896b2297-b84a-495d-8ee8-43f2deca1b53","system_id":"levelo_inurba_marseille","lat":43.2695,"lon":5.3862,"is_reserved":false,"is_disabled":false,"rental_uris":{"android":"levelo://app?vid=896b2297-b84a-495d-8ee8-43f2deca1b53","ios":"levelo://app?vid=896b2297-b84a-495d-8ee8-43f2deca1b53"},"vehicle_type_id":"4","last_reported":1732277907,"current_range_meters":26000,"station_id":"ce4bhh92rcd13ifvqfh0","pricing_plan_id":"cebpf4jnsgd1na2vs0mg"},{"bike_id":"0814db76-5030-46a1-b8bb-fcc29fb82c70","system_id":"levelo_inurba_marseille","lat":43.32487,"lon":5.36574,"is_reserved":false,"is_disabled":false,"rental_uris":{"android":"levelo://app?vid=0814db76-5030-46a1-b8bb-fcc29fb82c70","ios":"levelo://app?vid=0814db76-5030-46a1-b8bb-fcc29fb82c70"},"vehicle_type_id":"4","last_reported":1732277907,"current_range_meters":32800,"station_id":"ce4bhs12rcd13ifvqhvg","pricing_plan_id":"cebpf4jnsgd1na2vs0mg"},{"bike_id":"8471c761-4bcd-4b56-96d8-ddfab4d6be83","system_id":"levelo_inurba_marseille","lat":43.2695,"lon":5.38636,"is_reserved":false,"is_disabled":true,"rental_uris":{"android":"levelo://app?vid=8471c761-4bcd-4b56-96d8-ddfab4d6be83","ios":"levelo://app?vid=8471c761-4bcd-4b56-96d8-ddfab4d6be83"},"vehicle_type_id":"4","last_reported":1732277907,"current_range_meters":0,"station_id":"ce4bhh92rcd13ifvqfh0","pricing_plan_id":"cebpf4jnsgd1na2vs0mg"},{"bike_id":"6dd72399-4c36-4f79-acf1-4c5ee36d28ce","system_id":"levelo_inurba_marseille","lat":43.26064,"lon":5.39395,"is_reserved":false,"is_disabled":false,"rental_uris":{"android":"levelo://app?vid=6dd72399-4c36-4f79-acf1-4c5ee36d28ce","ios":"levelo://app?vid=6dd72399-4c36-4f79-acf1-4c5ee36d28ce"},"vehicle_type_id":"4","last_reported":1732277907,"current_range_meters":36000,"station_id":"ce4bhh92rcd13ifvqfj0","pricing_plan_id":"cebpf4jnsgd1na2vs0mg"},{"bike_id":"b5e48a31-a971-48a2-9221-3678ead6f6c8","system_id":"levelo_inurba_marseille","lat":43.30141,"lon":5.38782,"is_reserved":false,"is_disabled":false,"rental_uris":{"android":"levelo://app?vid=b5e48a31-a971-48a2-9221-3678ead6f6c8","ios":"levelo://app?vid=b5e48a31-a971-48a2-9221-3678ead6f6c8"},"vehicle_type_id":"4","last_reported":1732277907,"current_range_meters":20400,"station_id":"ce4bghh2rcd13ifvqb60","pricing_plan_id":"cebpf4jnsgd1na2vs0mg"},{"bike_id":"15a61a6c-40ba-40d9-9754-85b1e40e6e21","system_id":"levelo_inurba_marseille","lat":43.3014,"lon":5.37418,"is_reserved":false,"is_disabled":false,"rental_uris":{"android":"levelo://app?vid=15a61a6c-40ba-40d9-9754-85b1e40e6e21","ios":"levelo://app?vid=15a61a6c-40ba-40d9-9754-85b1e40e6e21"},"vehicle_type_id":"4","last_reported":1732277907,"current_range_meters":30800,"station_id":"ce4bgs92rcd13ifvqcc0","pricing_plan_id":"cebpf4jnsgd1na2vs0mg"},{"bike_id":"cc45001e-86ba-42cc-9993-ed5261abbfe0","system_id":"levelo_inurba_marseille","lat":43.32367,"lon":5.38878,"is_reserved":false,"is_disabled":false,"rental_uris":{"android":"levelo://app?vid=cc45001e-86ba-42cc-9993-ed5261abbfe0","ios":"levelo://app?vid=cc45001e-86ba-42cc-9993-ed5261abbfe0"},"vehicle_type_id":"4","last_reported":1732277907,"current_range_meters":14400,"station_id":"ce4bhqp2rcd13ifvqhog","pricing_plan_id":"cebpf4jnsgd1na2vs0mg"},{"bike_id":"5e274fa5-32d0-47d6-bae9-d75344cedd2c","system_id":"levelo_inurba_marseille","lat":43.30293,"lon":5.37702,"is_reserved":false,"is_disabled":true,"rental_uris":{"android":"levelo://app?vid=5e274fa5-32d0-47d6-bae9-d75344cedd2c","ios":"levelo://app?vid=5e274fa5-32d0-47d6-bae9-d75344cedd2c"},"vehicle_type_id":"4","last_reported":1732277907,"current_range_meters":28400,"station_id":"ce4bguh2rcd13ifvqcj0","pricing_plan_id":"cebpf4jnsgd1na2vs0mg"},{"bike_id":"75acd4bf-0b28-4c3f-b69c-8eeb6f2a31bc","system_id":"levelo_inurba_marseille","lat":43.23151,"lon":5.43713,"is_reserved":false,"is_disabled":false,"rental_uris":{"android":"levelo://app?vid=75acd4bf-0b28-4c3f-b69c-8eeb6f2a31bc","ios":"levelo://app?vid=75acd4bf-0b28-4c3f-b69c-8eeb6f2a31bc"},"vehicle_type_id":"4","last_reported":1732277907,"current_range_meters":15200,"station_id":"ce4bhmp2rcd13ifvqgog","pricing_plan_id":"cebpf4jnsgd1na2vs0mg"},{"bike_id":"c0755ad7-8353-40d1-98a4-bba43ca0e3ab","system_id":"levelo_inurba_marseille","lat":43.33722,"lon":5.39194,"is_reserved":false,"is_disabled":false,"rental_uris":{"android":"levelo://app?vid=c0755ad7-8353-40d1-98a4-bba43ca0e3ab","ios":"levelo://app?vid=c0755ad7-8353-40d1-98a4-bba43ca0e3ab"},"vehicle_type_id":"4","last_reported":1732277907,"current_range_meters":12400,"station_id":"ce4bhr92rcd13ifvqhsg","pricing_plan_id":"cebpf4jnsgd1na2vs0mg"},{"bike_id":"07fd5919-1a9c-444e-a3a2-b95a6abf69e9","system_id":"levelo_inurba_marseille","lat":43.3013,"lon":5.38791,"is_reserved":false,"is_disabled":false,"rental_uris":{"android":"levelo://app?vid=07fd5919-1a9c-444e-a3a2-b95a6abf69e9","ios":"levelo://app?vid=07fd5919-1a9c-444e-a3a2-b95a6abf69e9"},"vehicle_type_id":"4","last_reported":1732277907,"current_range_meters":28000,"station_id":"ce4bghh2rcd13ifvqb60","pricing_plan_id":"cebpf4jnsgd1na2vs0mg"},{"bike_id":"9c5e82a0-bfb2-40f8-a7fd-0723a214db18","system_id":"levelo_inurba_marseille","lat":43.29257,"lon":5.40935,"is_reserved":false,"is_disabled":true,"rental_uris":{"android":"levelo://app?vid=9c5e82a0-bfb2-40f8-a7fd-0723a214db18","ios":"levelo://app?vid=9c5e82a0-bfb2-40f8-a7fd-0723a214db18"},"vehicle_type_id":"4","last_reported":1732277907,"current_range_meters":38000,"station_id":"ce4bh192rcd13ifvqdc0","pricing_plan_id":"cebpf4jnsgd1na2vs0mg"},{"bike_id":"87a9ebd6-d6ed-49af-a788-edfa2bcf3f87","system_id":"levelo_inurba_marseille","lat":43.25579,"lon":5.38232,"is_reserved":false,"is_disabled":false,"rental_uris":{"android":"levelo://app?vid=87a9ebd6-d6ed-49af-a788-edfa2bcf3f87","ios":"levelo://app?vid=87a9ebd6-d6ed-49af-a788-edfa2bcf3f87"},"vehicle_type_id":"4","last_reported":1732277907,"current_range_meters":16800,"station_id":"ce4bhih2rcd13ifvqfs0","pricing_plan_id":"cebpf4jnsgd1na2vs0mg"},{"bike_id":"4c6b6d4f-50d0-4489-b59f-5c1ee904c99e","system_id":"levelo_inurba_marseille","lat":43.27953,"lon":5.4104,"is_reserved":false,"is_disabled":false,"rental_uris":{"android":"levelo://app?vid=4c6b6d4f-50d0-4489-b59f-5c1ee904c99e","ios":"levelo://app?vid=4c6b6d4f-50d0-4489-b59f-5c1ee904c99e"},"vehicle_type_id":"4","last_reported":1732277907,"current_range_meters":3200,"station_id":"ce4bhnp2rcd13ifvqh0g","pricing_plan_id":"cebpf4jnsgd1na2vs0mg"},{"bike_id":"a3dfa29f-d880-4cbe-b909-b4e217158e03","system_id":"levelo_inurba_marseille","lat":43.27178,"lon":5.40994,"is_reserved":false,"is_disabled":true,"rental_uris":{"android":"levelo://app?vid=a3dfa29f-d880-4cbe-b909-b4e217158e03","ios":"levelo://app?vid=a3dfa29f-d880-4cbe-b909-b4e217158e03"},"vehicle_type_id":"4","last_reported":1732277907,"current_range_meters":36000,"station_id":"ce4bhl12rcd13ifvqgf0","pricing_plan_id":"cebpf4jnsgd1na2vs0mg"},{"bike_id":"d2321b4c-ae3a-4b43-8bcd-12cb7984481d","system_id":"levelo_inurba_marseille","lat":43.3076,"lon":5.37024,"is_reserved":false,"is_disabled":true,"rental_uris":{"android":"levelo://app?vid=d2321b4c-ae3a-4b43-8bcd-12cb7984481d","ios":"levelo://app?vid=d2321b4c-ae3a-4b43-8bcd-12cb7984481d"},"vehicle_type_id":"4","last_reported":1732277907,"current_range_meters":17200,"station_id":"","pricing_plan_id":"cebpf4jnsgd1na2vs0mg"},{"bike_id":"5fd5f2d0-b73e-4c73-a4e1-4da7220ec74c","system_id":"levelo_inurba_marseille","lat":43.30296,"lon":5.39209,"is_reserved":false,"is_disabled":false,"rental_uris":{"android":"levelo://app?vid=5fd5f2d0-b73e-4c73-a4e1-4da7220ec74c","ios":"levelo://app?vid=5fd5f2d0-b73e-4c73-a4e1-4da7220ec74c"},"vehicle_type_id":"4","last_reported":1732277907,"current_range_meters":39200,"station_id":"ce4bgkh2rcd13ifvqbk0","pricing_plan_id":"cebpf4jnsgd1na2vs0mg"},{"bike_id":"9be72814-f80c-46a7-b916-ab8ba52deb9f","system_id":"levelo_inurba_marseille","lat":43.26806,"lon":5.4027,"is_reserved":false,"is_disabled":false,"rental_uris":{"android":"levelo://app?vid=9be72814-f80c-46a7-b916-ab8ba52deb9f","ios":"levelo://app?vid=9be72814-f80c-46a7-b916-ab8ba52deb9f"},"vehicle_type_id":"4","last_reported":1732277907,"current_range_meters":30400,"station_id":"ce501612rcd8frsf0b60","pricing_plan_id":"cebpf4jnsgd1na2vs0mg"},{"bike_id":"5c3000a0-a190-4007-a723-aa2707fd1ce3","system_id":"levelo_inurba_marseille","lat":43.22943,"lon":5.35366,"is_reserved":false,"is_disabled":false,"rental_uris":{"android":"levelo://app?vid=5c3000a0-a190-4007-a723-aa2707fd1ce3","ios":"levelo://app?vid=5c3000a0-a190-4007-a723-aa2707fd1ce3"},"vehicle_type_id":"4","last_reported":1732277907,"current_range_meters":38800,"station_id":"cpo3532slgdg3j2ikp40","pricing_plan_id":"cebpf4jnsgd1na2vs0mg"},{"bike_id":"37a2d867-4f44-4aa0-977f-15109b8ecb37","system_id":"levelo_inurba_marseille","lat":43.3123,"lon":5.36852,"is_reserved":false,"is_disabled":false,"rental_uris":{"android":"levelo://app?vid=37a2d867-4f44-4aa0-977f-15109b8ecb37","ios":"levelo://app?vid=37a2d867-4f44-4aa0-977f-15109b8ecb37"},"vehicle_type_id":"4","last_reported":1732277907,"current_range_meters":10000,"station_id":"ce4bgl92rcd13ifvqbq0","pricing_plan_id":"cebpf4jnsgd1na2vs0mg"},{"bike_id":"158df77e-2ea0-4787-ac7e-e8812e0498ad","system_id":"levelo_inurba_marseille","lat":43.25106,"lon":5.40323,"is_reserved":false,"is_disabled":false,"rental_uris":{"android":"levelo://app?vid=158df77e-2ea0-4787-ac7e-e8812e0498ad","ios":"levelo://app?vid=158df77e-2ea0-4787-ac7e-e8812e0498ad"},"vehicle_type_id":"4","last_reported":1732277907,"current_range_meters":6800,"station_id":"ce4bhlh2rcd13ifvqgig","pricing_plan_id":"cebpf4jnsgd1na2vs0mg"},{"bike_id":"9bf00278-281e-45df-b9cb-0f55e5af1df2","system_id":"levelo_inurba_marseille","lat":43.25581,"lon":5.38232,"is_reserved":false,"is_disabled":false,"rental_uris":{"android":"levelo://app?vid=9bf00278-281e-45df-b9cb-0f55e5af1df2","ios":"levelo://app?vid=9bf00278-281e-45df-b9cb-0f55e5af1df2"},"vehicle_type_id":"4","last_reported":1732277907,"current_range_meters":36400,"station_id":"ce4bhih2rcd13ifvqfs0","pricing_plan_id":"cebpf4jnsgd1na2vs0mg"},{"bike_id":"4e945ae0-d6ee-4575-a0fe-1d4e3c15c37b","system_id":"levelo_inurba_marseille","lat":43.310685,"lon":5.383465,"is_reserved":false,"is_disabled":false,"rental_uris":{"android":"levelo://app?vid=4e945ae0-d6ee-4575-a0fe-1d4e3c15c37b","ios":"levelo://app?vid=4e945ae0-d6ee-4575-a0fe-1d4e3c15c37b"},"vehicle_type_id":"4","last_reported":1732277907,"current_range_meters":38800,"station_id":"ce4bgv92rcd13ifvqcr0","pricing_plan_id":"cebpf4jnsgd1na2vs0mg"},{"bike_id":"ca2a2226-0125-4c3e-aea8-d9ca4588fcfd","system_id":"levelo_inurba_marseille","lat":43.29033,"lon":5.38617,"is_reserved":false,"is_disabled":false,"rental_uris":{"android":"levelo://app?vid=ca2a2226-0125-4c3e-aea8-d9ca4588fcfd","ios":"levelo://app?vid=ca2a2226-0125-4c3e-aea8-d9ca4588fcfd"},"vehicle_type_id":"4","last_reported":1732277907,"current_range_meters":30400,"station_id":"ce4bh4p2rcd13ifvqe0g","pricing_plan_id":"cebpf4jnsgd1na2vs0mg"},{"bike_id":"f5b9fd11-a7a1-4daa-b4dc-f5e52a9e70a7","system_id":"levelo_inurba_marseille","lat":43.29301,"lon":5.3746,"is_reserved":false,"is_disabled":true,"rental_uris":{"android":"levelo://app?vid=f5b9fd11-a7a1-4daa-b4dc-f5e52a9e70a7","ios":"levelo://app?vid=f5b9fd11-a7a1-4daa-b4dc-f5e52a9e70a7"},"vehicle_type_id":"4","last_reported":1732277907,"current_range_meters":1600,"station_id":"ce4bgi12rcd13ifvqb70","pricing_plan_id":"cebpf4jnsgd1na2vs0mg"},{"bike_id":"f7911ba1-f247-4ef6-81ed-7e873ef569c6","system_id":"levelo_inurba_marseille","lat":43.27562,"lon":5.38433,"is_reserved":false,"is_disabled":true,"rental_uris":{"android":"levelo://app?vid=f7911ba1-f247-4ef6-81ed-7e873ef569c6","ios":"levelo://app?vid=f7911ba1-f247-4ef6-81ed-7e873ef569c6"},"vehicle_type_id":"4","last_reported":1732277907,"current_range_meters":38800,"station_id":"ce4bhh92rcd13ifvqfi0","pricing_plan_id":"cebpf4jnsgd1na2vs0mg"},{"bike_id":"1cd0daee-d68a-4e66-9883-fbe67fd8260f","system_id":"levelo_inurba_marseille","lat":43.305794,"lon":5.370686,"is_reserved":false,"is_disabled":true,"rental_uris":{"android":"levelo://app?vid=1cd0daee-d68a-4e66-9883-fbe67fd8260f","ios":"levelo://app?vid=1cd0daee-d68a-4e66-9883-fbe67fd8260f"},"vehicle_type_id":"4","last_reported":1732277907,"current_range_meters":0,"station_id":"","pricing_plan_id":"cebpf4jnsgd1na2vs0mg"},{"bike_id":"3ecd968f-1f7e-4bd4-968d-4e3b4005d51b","system_id":"levelo_inurba_marseille","lat":43.31053,"lon":5.37895,"is_reserved":false,"is_disabled":true,"rental_uris":{"android":"levelo://app?vid=3ecd968f-1f7e-4bd4-968d-4e3b4005d51b","ios":"levelo://app?vid=3ecd968f-1f7e-4bd4-968d-4e3b4005d51b"},"vehicle_type_id":"4","last_reported":1732277907,"current_range_meters":4800,"station_id":"","pricing_plan_id":"cebpf4jnsgd1na2vs0mg"},{"bike_id":"8049dfa2-ab84-4979-a750-4db119a39bb9","system_id":"levelo_inurba_marseille","lat":43.26033,"lon":5.37545,"is_reserved":false,"is_disabled":false,"rental_uris":{"android":"levelo://app?vid=8049dfa2-ab84-4979-a750-4db119a39bb9","ios":"levelo://app?vid=8049dfa2-ab84-4979-a750-4db119a39bb9"},"vehicle_type_id":"4","last_reported":1732277907,"current_range_meters":22000,"station_id":"ce4bhgh2rcd13ifvqfa0","pricing_plan_id":"cebpf4jnsgd1na2vs0mg"},{"bike_id":"e25bd807-1e58-4745-9ca8-696991c16380","system_id":"levelo_inurba_marseille","lat":43.29312,"lon":5.3718,"is_reserved":false,"is_disabled":false,"rental_uris":{"android":"levelo://app?vid=e25bd807-1e58-4745-9ca8-696991c16380","ios":"levelo://app?vid=e25bd807-1e58-4745-9ca8-696991c16380"},"vehicle_type_id":"4","last_reported":1732277907,"current_range_meters":36000,"station_id":"ce4bgh92rcd13ifvqb40","pricing_plan_id":"cebpf4jnsgd1na2vs0mg"},{"bike_id":"0357a561-56d6-4846-b11d-a03c1167541e","system_id":"levelo_inurba_marseille","lat":43.262,"lon":5.37958,"is_reserved":false,"is_disabled":false,"rental_uris":{"android":"levelo://app?vid=0357a561-56d6-4846-b11d-a03c1167541e","ios":"levelo://app?vid=0357a561-56d6-4846-b11d-a03c1167541e"},"vehicle_type_id":"4","last_reported":1732277907,"current_range_meters":11200,"station_id":"ce4bhjp2rcd13ifvqg90","pricing_plan_id":"cebpf4jnsgd1na2vs0mg"},{"bike_id":"c3215e31-8e2b-4e51-9c7c-1f1af8d6acc6","system_id":"levelo_inurba_marseille","lat":43.3089,"lon":5.37191,"is_reserved":false,"is_disabled":false,"rental_uris":{"android":"levelo://app?vid=c3215e31-8e2b-4e51-9c7c-1f1af8d6acc6","ios":"levelo://app?vid=c3215e31-8e2b-4e51-9c7c-1f1af8d6acc6"},"vehicle_type_id":"4","last_reported":1732277907,"current_range_meters":12000,"station_id":"ce4bguh2rcd13ifvqckg","pricing_plan_id":"cebpf4jnsgd1na2vs0mg"},{"bike_id":"23b1a64c-bc4e-4c6d-94ac-5c0d995d1504","system_id":"levelo_inurba_marseille","lat":43.27312,"lon":5.39075,"is_reserved":false,"is_disabled":false,"rental_uris":{"android":"levelo://app?vid=23b1a64c-bc4e-4c6d-94ac-5c0d995d1504","ios":"levelo://app?vid=23b1a64c-bc4e-4c6d-94ac-5c0d995d1504"},"vehicle_type_id":"4","last_reported":1732277907,"current_range_meters":32400,"station_id":"ce4bhgp2rcd13ifvqfe0","pricing_plan_id":"cebpf4jnsgd1na2vs0mg"},{"bike_id":"f1ad9ce2-123c-4935-bc55-a0d4b05ba4de","system_id":"levelo_inurba_marseille","lat":43.32046,"lon":5.41578,"is_reserved":false,"is_disabled":false,"rental_uris":{"android":"levelo://app?vid=f1ad9ce2-123c-4935-bc55-a0d4b05ba4de","ios":"levelo://app?vid=f1ad9ce2-123c-4935-bc55-a0d4b05ba4de"},"vehicle_type_id":"4","last_reported":1732277907,"current_range_meters":38800,"station_id":"ce4bhq92rcd13ifvqhkg","pricing_plan_id":"cebpf4jnsgd1na2vs0mg"},{"bike_id":"bdac8ff3-e713-4a02-9f76-78fc6782aa52","system_id":"levelo_inurba_marseille","lat":43.2314,"lon":5.43738,"is_reserved":false,"is_disabled":false,"rental_uris":{"android":"levelo://app?vid=bdac8ff3-e713-4a02-9f76-78fc6782aa52","ios":"levelo://app?vid=bdac8ff3-e713-4a02-9f76-78fc6782aa52"},"vehicle_type_id":"4","last_reported":1732277907,"current_range_meters":24000,"station_id":"ce4bhmp2rcd13ifvqgog","pricing_plan_id":"cebpf4jnsgd1na2vs0mg"},{"bike_id":"c8c71d6a-3155-4ee9-ba4f-a4d0d36b4405","system_id":"levelo_inurba_marseille","lat":43.26681,"lon":5.38267,"is_reserved":false,"is_disabled":false,"rental_uris":{"android":"levelo://app?vid=c8c71d6a-3155-4ee9-ba4f-a4d0d36b4405","ios":"levelo://app?vid=c8c71d6a-3155-4ee9-ba4f-a4d0d36b4405"},"vehicle_type_id":"4","last_reported":1732277907,"current_range_meters":39200,"station_id":"ce4bhg92rcd13ifvqf90","pricing_plan_id":"cebpf4jnsgd1na2vs0mg"},{"bike_id":"7a8db3dc-7ed9-4c06-814c-f1b4ad393ca2","system_id":"levelo_inurba_marseille","lat":43.31753,"lon":5.39011,"is_reserved":false,"is_disabled":false,"rental_uris":{"android":"levelo://app?vid=7a8db3dc-7ed9-4c06-814c-f1b4ad393ca2","ios":"levelo://app?vid=7a8db3dc-7ed9-4c06-814c-f1b4ad393ca2"},"vehicle_type_id":"4","last_reported":1732277907,"current_range_meters":34000,"station_id":"ce4bhqp2rcd13ifvqhng","pricing_plan_id":"cebpf4jnsgd1na2vs0mg"},{"bike_id":"f0dafd02-272c-4d36-bf84-67f2343ac382","system_id":"levelo_inurba_marseille","lat":43.29037,"lon":5.37552,"is_reserved":false,"is_disabled":false,"rental_uris":{"android":"levelo://app?vid=f0dafd02-272c-4d36-bf84-67f2343ac382","ios":"levelo://app?vid=f0dafd02-272c-4d36-bf84-67f2343ac382"},"vehicle_type_id":"4","last_reported":1732277907,"current_range_meters":17200,"station_id":"ce4bh692rcd13ifvqe90","pricing_plan_id":"cebpf4jnsgd1na2vs0mg"},{"bike_id":"105aa1ef-9ae9-4531-9c38-45991c4e5c62","system_id":"levelo_inurba_marseille","lat":43.3079,"lon":5.37652,"is_reserved":false,"is_disabled":false,"rental_uris":{"android":"levelo://app?vid=105aa1ef-9ae9-4531-9c38-45991c4e5c62","ios":"levelo://app?vid=105aa1ef-9ae9-4531-9c38-45991c4e5c62"},"vehicle_type_id":"4","last_reported":1732277907,"current_range_meters":38000,"station_id":"ce4bgv92rcd13ifvqcq0","pricing_plan_id":"cebpf4jnsgd1na2vs0mg"},{"bike_id":"25c1e65b-83ae-4fec-9c1c-f8308c082ae7","system_id":"levelo_inurba_marseille","lat":43.32108,"lon":5.36773,"is_reserved":false,"is_disabled":false,"rental_uris":{"android":"levelo://app?vid=25c1e65b-83ae-4fec-9c1c-f8308c082ae7","ios":"levelo://app?vid=25c1e65b-83ae-4fec-9c1c-f8308c082ae7"},"vehicle_type_id":"4","last_reported":1732277907,"current_range_meters":25600,"station_id":"ce4bhrh2rcd13ifvqhug","pricing_plan_id":"cebpf4jnsgd1na2vs0mg"},{"bike_id":"ebe2b43b-e5bb-4158-835b-e46b2ce0d167","system_id":"levelo_inurba_marseille","lat":43.22928,"lon":5.35372,"is_reserved":false,"is_disabled":false,"rental_uris":{"android":"levelo://app?vid=ebe2b43b-e5bb-4158-835b-e46b2ce0d167","ios":"levelo://app?vid=ebe2b43b-e5bb-4158-835b-e46b2ce0d167"},"vehicle_type_id":"4","last_reported":1732277907,"current_range_meters":34800,"station_id":"cpo3532slgdg3j2ikp40","pricing_plan_id":"cebpf4jnsgd1na2vs0mg"},{"bike_id":"d5ff41e5-32d3-4667-a882-75cc423bb169","system_id":"levelo_inurba_marseille","lat":43.25583,"lon":5.38226,"is_reserved":false,"is_disabled":false,"rental_uris":{"android":"levelo://app?vid=d5ff41e5-32d3-4667-a882-75cc423bb169","ios":"levelo://app?vid=d5ff41e5-32d3-4667-a882-75cc423bb169"},"vehicle_type_id":"4","last_reported":1732277907,"current_range_meters":24400,"station_id":"ce4bhih2rcd13ifvqfs0","pricing_plan_id":"cebpf4jnsgd1na2vs0mg"},{"bike_id":"d3f88ac1-af0e-4fe3-957f-9fb722f55ef1","system_id":"levelo_inurba_marseille","lat":43.3248,"lon":5.36553,"is_reserved":false,"is_disabled":false,"rental_uris":{"android":"levelo://app?vid=d3f88ac1-af0e-4fe3-957f-9fb722f55ef1","ios":"levelo://app?vid=d3f88ac1-af0e-4fe3-957f-9fb722f55ef1"},"vehicle_type_id":"4","last_reported":1732277907,"current_range_meters":36400,"station_id":"ce4bhs12rcd13ifvqhvg","pricing_plan_id":"cebpf4jnsgd1na2vs0mg"},{"bike_id":"54c941fb-b114-418e-bf6b-63c539598484","system_id":"levelo_inurba_marseille","lat":43.31495,"lon":5.37308,"is_reserved":false,"is_disabled":true,"rental_uris":{"android":"levelo://app?vid=54c941fb-b114-418e-bf6b-63c539598484","ios":"levelo://app?vid=54c941fb-b114-418e-bf6b-63c539598484"},"vehicle_type_id":"4","last_reported":1732277907,"current_range_meters":0,"station_id":"ce4bgt12rcd13ifvqcd0","pricing_plan_id":"cebpf4jnsgd1na2vs0mg"},{"bike_id":"7bc1d03b-5ab1-4115-b190-752654f92abb","system_id":"levelo_inurba_marseille","lat":43.30157,"lon":5.38076,"is_reserved":false,"is_disabled":false,"rental_uris":{"android":"levelo://app?vid=7bc1d03b-5ab1-4115-b190-752654f92abb","ios":"levelo://app?vid=7bc1d03b-5ab1-4115-b190-752654f92abb"},"vehicle_type_id":"4","last_reported":1732277907,"current_range_meters":35200,"station_id":"ce4bgjp2rcd13ifvqbh0","pricing_plan_id":"cebpf4jnsgd1na2vs0mg"},{"bike_id":"ade4274d-83d6-40b2-97b6-eccd3e033d27","system_id":"levelo_inurba_marseille","lat":43.28618,"lon":5.35105,"is_reserved":false,"is_disabled":false,"rental_uris":{"android":"levelo://app?vid=ade4274d-83d6-40b2-97b6-eccd3e033d27","ios":"levelo://app?vid=ade4274d-83d6-40b2-97b6-eccd3e033d27"},"vehicle_type_id":"4","last_reported":1732277907,"current_range_meters":25200,"station_id":"ce4bhch2rcd13ifvqeug","pricing_plan_id":"cebpf4jnsgd1na2vs0mg"},{"bike_id":"8e343052-c78e-4266-8644-2f52116198e0","system_id":"levelo_inurba_marseille","lat":43.32346,"lon":5.40622,"is_reserved":false,"is_disabled":true,"rental_uris":{"android":"levelo://app?vid=8e343052-c78e-4266-8644-2f52116198e0","ios":"levelo://app?vid=8e343052-c78e-4266-8644-2f52116198e0"},"vehicle_type_id":"4","last_reported":1732277907,"current_range_meters":34800,"station_id":"ce4bhq92rcd13ifvqhjg","pricing_plan_id":"cebpf4jnsgd1na2vs0mg"},{"bike_id":"5688861f-1d4e-4eca-a9db-279b7306a492","system_id":"levelo_inurba_marseille","lat":43.30126,"lon":5.39845,"is_reserved":false,"is_disabled":false,"rental_uris":{"android":"levelo://app?vid=5688861f-1d4e-4eca-a9db-279b7306a492","ios":"levelo://app?vid=5688861f-1d4e-4eca-a9db-279b7306a492"},"vehicle_type_id":"4","last_reported":1732277907,"current_range_meters":30400,"station_id":"ce4bh0h2rcd13ifvqd40","pricing_plan_id":"cebpf4jnsgd1na2vs0mg"},{"bike_id":"a17ed82b-77e3-4738-80e5-9e5f030bec65","system_id":"levelo_inurba_marseille","lat":43.29269,"lon":5.3844,"is_reserved":false,"is_disabled":false,"rental_uris":{"android":"levelo://app?vid=a17ed82b-77e3-4738-80e5-9e5f030bec65","ios":"levelo://app?vid=a17ed82b-77e3-4738-80e5-9e5f030bec65"},"vehicle_type_id":"4","last_reported":1732277907,"current_range_meters":26800,"station_id":"ce4bh692rcd13ifvqea0","pricing_plan_id":"cebpf4jnsgd1na2vs0mg"},{"bike_id":"567b5bec-6f69-4097-9d92-252add5a5c8a","system_id":"levelo_inurba_marseille","lat":43.25578,"lon":5.3823,"is_reserved":false,"is_disabled":false,"rental_uris":{"android":"levelo://app?vid=567b5bec-6f69-4097-9d92-252add5a5c8a","ios":"levelo://app?vid=567b5bec-6f69-4097-9d92-252add5a5c8a"},"vehicle_type_id":"4","last_reported":1732277907,"current_range_meters":36400,"station_id":"ce4bhih2rcd13ifvqfs0","pricing_plan_id":"cebpf4jnsgd1na2vs0mg"},{"bike_id":"fb0e7305-4388-4c1e-aa9c-b5955479df12","system_id":"levelo_inurba_marseille","lat":43.2606,"lon":5.39396,"is_reserved":false,"is_disabled":false,"rental_uris":{"android":"levelo://app?vid=fb0e7305-4388-4c1e-aa9c-b5955479df12","ios":"levelo://app?vid=fb0e7305-4388-4c1e-aa9c-b5955479df12"},"vehicle_type_id":"4","last_reported":1732277907,"current_range_meters":35200,"station_id":"ce4bhh92rcd13ifvqfj0","pricing_plan_id":"cebpf4jnsgd1na2vs0mg"},{"bike_id":"7af6e4ae-29a1-49bb-b758-aa8d027aedd8","system_id":"levelo_inurba_marseille","lat":43.31711,"lon":5.37748,"is_reserved":false,"is_disabled":false,"rental_uris":{"android":"levelo://app?vid=7af6e4ae-29a1-49bb-b758-aa8d027aedd8","ios":"levelo://app?vid=7af6e4ae-29a1-49bb-b758-aa8d027aedd8"},"vehicle_type_id":"4","last_reported":1732277907,"current_range_meters":24800,"station_id":"ce4bgth2rcd13ifvqch0","pricing_plan_id":"cebpf4jnsgd1na2vs0mg"},{"bike_id":"d32cbea2-b91b-4283-b98f-94a9d78db3ae","system_id":"levelo_inurba_marseille","lat":43.29284,"lon":5.40121,"is_reserved":false,"is_disabled":false,"rental_uris":{"android":"levelo://app?vid=d32cbea2-b91b-4283-b98f-94a9d78db3ae","ios":"levelo://app?vid=d32cbea2-b91b-4283-b98f-94a9d78db3ae"},"vehicle_type_id":"4","last_reported":1732277907,"current_range_meters":28000,"station_id":"ce4bh312rcd13ifvqdk0","pricing_plan_id":"cebpf4jnsgd1na2vs0mg"},{"bike_id":"9c37a5af-6b01-4e75-9657-7ef6bddc1bc6","system_id":"levelo_inurba_marseille","lat":43.33022,"lon":5.39043,"is_reserved":false,"is_disabled":false,"rental_uris":{"android":"levelo://app?vid=9c37a5af-6b01-4e75-9657-7ef6bddc1bc6","ios":"levelo://app?vid=9c37a5af-6b01-4e75-9657-7ef6bddc1bc6"},"vehicle_type_id":"4","last_reported":1732277907,"current_range_meters":24000,"station_id":"ce4bhr92rcd13ifvqhrg","pricing_plan_id":"cebpf4jnsgd1na2vs0mg"},{"bike_id":"7c508058-a4dd-4d85-b9a5-dae840b2411b","system_id":"levelo_inurba_marseille","lat":43.31487,"lon":5.37306,"is_reserved":false,"is_disabled":false,"rental_uris":{"android":"levelo://app?vid=7c508058-a4dd-4d85-b9a5-dae840b2411b","ios":"levelo://app?vid=7c508058-a4dd-4d85-b9a5-dae840b2411b"},"vehicle_type_id":"4","last_reported":1732277907,"current_range_meters":28000,"station_id":"ce4bgt12rcd13ifvqcd0","pricing_plan_id":"cebpf4jnsgd1na2vs0mg"},{"bike_id":"ee0bb0d8-1a66-408e-a023-20270e4a60e6","system_id":"levelo_inurba_marseille","lat":43.29872,"lon":5.39723,"is_reserved":false,"is_disabled":false,"rental_uris":{"android":"levelo://app?vid=ee0bb0d8-1a66-408e-a023-20270e4a60e6","ios":"levelo://app?vid=ee0bb0d8-1a66-408e-a023-20270e4a60e6"},"vehicle_type_id":"4","last_reported":1732277907,"current_range_meters":39200,"station_id":"ce4bh0h2rcd13ifvqd50","pricing_plan_id":"cebpf4jnsgd1na2vs0mg"},{"bike_id":"f9e35db8-2f7a-4f43-8c70-83778761d42d","system_id":"levelo_inurba_marseille","lat":43.23192,"lon":5.3556,"is_reserved":false,"is_disabled":true,"rental_uris":{"android":"levelo://app?vid=f9e35db8-2f7a-4f43-8c70-83778761d42d","ios":"levelo://app?vid=f9e35db8-2f7a-4f43-8c70-83778761d42d"},"vehicle_type_id":"4","last_reported":1732277907,"current_range_meters":37600,"station_id":"ce4bhu92rcd13ifvqi70","pricing_plan_id":"cebpf4jnsgd1na2vs0mg"},{"bike_id":"4b806ff7-a744-48e4-84ed-32d979ac5992","system_id":"levelo_inurba_marseille","lat":43.29908,"lon":5.38148,"is_reserved":false,"is_disabled":false,"rental_uris":{"android":"levelo://app?vid=4b806ff7-a744-48e4-84ed-32d979ac5992","ios":"levelo://app?vid=4b806ff7-a744-48e4-84ed-32d979ac5992"},"vehicle_type_id":"4","last_reported":1732277907,"current_range_meters":38000,"station_id":"ce4bgj12rcd13ifvqbc0","pricing_plan_id":"cebpf4jnsgd1na2vs0mg"},{"bike_id":"4a4e7ea6-c127-4dbf-8cfe-a3b745fbfbf6","system_id":"levelo_inurba_marseille","lat":43.30307,"lon":5.39209,"is_reserved":false,"is_disabled":false,"rental_uris":{"android":"levelo://app?vid=4a4e7ea6-c127-4dbf-8cfe-a3b745fbfbf6","ios":"levelo://app?vid=4a4e7ea6-c127-4dbf-8cfe-a3b745fbfbf6"},"vehicle_type_id":"4","last_reported":1732277907,"current_range_meters":28000,"station_id":"ce4bgkh2rcd13ifvqbk0","pricing_plan_id":"cebpf4jnsgd1na2vs0mg"},{"bike_id":"d979d12e-0952-4b0d-a112-f005022fbbe4","system_id":"levelo_inurba_marseille","lat":43.26201,"lon":5.37919,"is_reserved":false,"is_disabled":false,"rental_uris":{"android":"levelo://app?vid=d979d12e-0952-4b0d-a112-f005022fbbe4","ios":"levelo://app?vid=d979d12e-0952-4b0d-a112-f005022fbbe4"},"vehicle_type_id":"4","last_reported":1732277907,"current_range_meters":39200,"station_id":"ce4bhjp2rcd13ifvqg90","pricing_plan_id":"cebpf4jnsgd1na2vs0mg"},{"bike_id":"17b263e7-11a4-4e49-99f1-347989185c5a","system_id":"levelo_inurba_marseille","lat":43.27191,"lon":5.40989,"is_reserved":false,"is_disabled":false,"rental_uris":{"android":"levelo://app?vid=17b263e7-11a4-4e49-99f1-347989185c5a","ios":"levelo://app?vid=17b263e7-11a4-4e49-99f1-347989185c5a"},"vehicle_type_id":"4","last_reported":1732277907,"current_range_meters":38800,"station_id":"ce4bhl12rcd13ifvqgf0","pricing_plan_id":"cebpf4jnsgd1na2vs0mg"},{"bike_id":"ac894d2b-d4fc-430d-9b98-f63b338519b2","system_id":"levelo_inurba_marseille","lat":43.2594,"lon":5.40906,"is_reserved":false,"is_disabled":false,"rental_uris":{"android":"levelo://app?vid=ac894d2b-d4fc-430d-9b98-f63b338519b2","ios":"levelo://app?vid=ac894d2b-d4fc-430d-9b98-f63b338519b2"},"vehicle_type_id":"4","last_reported":1732277907,"current_range_meters":27600,"station_id":"ce4bhm92rcd13ifvqglg","pricing_plan_id":"cebpf4jnsgd1na2vs0mg"},{"bike_id":"c1ac9fb7-c612-4f89-b5b3-5f82988928ba","system_id":"levelo_inurba_marseille","lat":43.29418,"lon":5.38619,"is_reserved":false,"is_disabled":true,"rental_uris":{"android":"levelo://app?vid=c1ac9fb7-c612-4f89-b5b3-5f82988928ba","ios":"levelo://app?vid=c1ac9fb7-c612-4f89-b5b3-5f82988928ba"},"vehicle_type_id":"4","last_reported":1732277907,"current_range_meters":0,"station_id":"ce4bh2h2rcd13ifvqdh0","pricing_plan_id":"cebpf4jnsgd1na2vs0mg"},{"bike_id":"c23ac10b-d0a0-4bb5-a176-f2c9e707ee98","system_id":"levelo_inurba_marseille","lat":43.29519,"lon":5.37504,"is_reserved":false,"is_disabled":false,"rental_uris":{"android":"levelo://app?vid=c23ac10b-d0a0-4bb5-a176-f2c9e707ee98","ios":"levelo://app?vid=c23ac10b-d0a0-4bb5-a176-f2c9e707ee98"},"vehicle_type_id":"4","last_reported":1732277907,"current_range_meters":7200,"station_id":"ce4bgkp2rcd13ifvqbmg","pricing_plan_id":"cebpf4jnsgd1na2vs0mg"},{"bike_id":"35005469-a36f-4579-b926-2bbc2fea0fa4","system_id":"levelo_inurba_marseille","lat":43.31364,"lon":5.36712,"is_reserved":false,"is_disabled":false,"rental_uris":{"android":"levelo://app?vid=35005469-a36f-4579-b926-2bbc2fea0fa4","ios":"levelo://app?vid=35005469-a36f-4579-b926-2bbc2fea0fa4"},"vehicle_type_id":"4","last_reported":1732277907,"current_range_meters":9600,"station_id":"ce4bgr92rcd13ifvqc6g","pricing_plan_id":"cebpf4jnsgd1na2vs0mg"},{"bike_id":"e6f269d5-78f6-4043-917f-52913283f83c","system_id":"levelo_inurba_marseille","lat":43.23151,"lon":5.43718,"is_reserved":false,"is_disabled":false,"rental_uris":{"android":"levelo://app?vid=e6f269d5-78f6-4043-917f-52913283f83c","ios":"levelo://app?vid=e6f269d5-78f6-4043-917f-52913283f83c"},"vehicle_type_id":"4","last_reported":1732277907,"current_range_meters":26800,"station_id":"ce4bhmp2rcd13ifvqgog","pricing_plan_id":"cebpf4jnsgd1na2vs0mg"},{"bike_id":"844cb461-f780-45f5-88b2-3951b51e6462","system_id":"levelo_inurba_marseille","lat":43.30116,"lon":5.37791,"is_reserved":false,"is_disabled":true,"rental_uris":{"android":"levelo://app?vid=844cb461-f780-45f5-88b2-3951b51e6462","ios":"levelo://app?vid=844cb461-f780-45f5-88b2-3951b51e6462"},"vehicle_type_id":"4","last_reported":1732277907,"current_range_meters":0,"station_id":"","pricing_plan_id":"cebpf4jnsgd1na2vs0mg"},{"bike_id":"09f2f1c0-0e8d-4f9d-9cc6-6e47432c4671","system_id":"levelo_inurba_marseille","lat":43.2919,"lon":5.39318,"is_reserved":false,"is_disabled":false,"rental_uris":{"android":"levelo://app?vid=09f2f1c0-0e8d-4f9d-9cc6-6e47432c4671","ios":"levelo://app?vid=09f2f1c0-0e8d-4f9d-9cc6-6e47432c4671"},"vehicle_type_id":"4","last_reported":1732277907,"current_range_meters":17200,"station_id":"ce4bh192rcd13ifvqdd0","pricing_plan_id":"cebpf4jnsgd1na2vs0mg"},{"bike_id":"1e8c2233-2991-4df4-bec5-3b057c9b11ed","system_id":"levelo_inurba_marseille","lat":43.30145,"lon":5.37419,"is_reserved":false,"is_disabled":true,"rental_uris":{"android":"levelo://app?vid=1e8c2233-2991-4df4-bec5-3b057c9b11ed","ios":"levelo://app?vid=1e8c2233-2991-4df4-bec5-3b057c9b11ed"},"vehicle_type_id":"4","last_reported":1732277907,"current_range_meters":37600,"station_id":"ce4bgs92rcd13ifvqcc0","pricing_plan_id":"cebpf4jnsgd1na2vs0mg"},{"bike_id":"786329d4-a364-4aee-bb86-124298f7a780","system_id":"levelo_inurba_marseille","lat":43.25822,"lon":5.39434,"is_reserved":false,"is_disabled":false,"rental_uris":{"android":"levelo://app?vid=786329d4-a364-4aee-bb86-124298f7a780","ios":"levelo://app?vid=786329d4-a364-4aee-bb86-124298f7a780"},"vehicle_type_id":"4","last_reported":1732277907,"current_range_meters":22400,"station_id":"ce4bhip2rcd13ifvqft0","pricing_plan_id":"cebpf4jnsgd1na2vs0mg"},{"bike_id":"16628da1-47db-4d04-b602-21cb64733c44","system_id":"levelo_inurba_marseille","lat":43.27816,"lon":5.40719,"is_reserved":false,"is_disabled":false,"rental_uris":{"android":"levelo://app?vid=16628da1-47db-4d04-b602-21cb64733c44","ios":"levelo://app?vid=16628da1-47db-4d04-b602-21cb64733c44"},"vehicle_type_id":"4","last_reported":1732277907,"current_range_meters":18000,"station_id":"ce4bhnh2rcd13ifvqgtg","pricing_plan_id":"cebpf4jnsgd1na2vs0mg"},{"bike_id":"cdaafd2d-0da1-4fac-9881-15c66a7cd7c0","system_id":"levelo_inurba_marseille","lat":43.23153,"lon":5.43705,"is_reserved":false,"is_disabled":false,"rental_uris":{"android":"levelo://app?vid=cdaafd2d-0da1-4fac-9881-15c66a7cd7c0","ios":"levelo://app?vid=cdaafd2d-0da1-4fac-9881-15c66a7cd7c0"},"vehicle_type_id":"4","last_reported":1732277907,"current_range_meters":38800,"station_id":"ce4bhmp2rcd13ifvqgog","pricing_plan_id":"cebpf4jnsgd1na2vs0mg"},{"bike_id":"c1024338-3a35-4c5d-8621-6f53a0a7a406","system_id":"levelo_inurba_marseille","lat":43.336669,"lon":5.39812,"is_reserved":false,"is_disabled":true,"rental_uris":{"android":"levelo://app?vid=c1024338-3a35-4c5d-8621-6f53a0a7a406","ios":"levelo://app?vid=c1024338-3a35-4c5d-8621-6f53a0a7a406"},"vehicle_type_id":"4","last_reported":1732277907,"current_range_meters":33600,"station_id":"","pricing_plan_id":"cebpf4jnsgd1na2vs0mg"},{"bike_id":"b03f69f7-b71a-4f20-b004-cac08d3d55e5","system_id":"levelo_inurba_marseille","lat":43.32362,"lon":5.38883,"is_reserved":false,"is_disabled":false,"rental_uris":{"android":"levelo://app?vid=b03f69f7-b71a-4f20-b004-cac08d3d55e5","ios":"levelo://app?vid=b03f69f7-b71a-4f20-b004-cac08d3d55e5"},"vehicle_type_id":"4","last_reported":1732277907,"current_range_meters":30000,"station_id":"ce4bhqp2rcd13ifvqhog","pricing_plan_id":"cebpf4jnsgd1na2vs0mg"},{"bike_id":"8d5ad0a8-268e-4afd-be61-7919f93826c7","system_id":"levelo_inurba_marseille","lat":43.29926,"lon":5.37472,"is_reserved":false,"is_disabled":false,"rental_uris":{"android":"levelo://app?vid=8d5ad0a8-268e-4afd-be61-7919f93826c7","ios":"levelo://app?vid=8d5ad0a8-268e-4afd-be61-7919f93826c7"},"vehicle_type_id":"4","last_reported":1732277907,"current_range_meters":38800,"station_id":"ce4bgjh2rcd13ifvqbg0","pricing_plan_id":"cebpf4jnsgd1na2vs0mg"},{"bike_id":"3e51505c-66c2-4920-b827-cea103a2ac7b","system_id":"levelo_inurba_marseille","lat":43.32364,"lon":5.38881,"is_reserved":false,"is_disabled":false,"rental_uris":{"android":"levelo://app?vid=3e51505c-66c2-4920-b827-cea103a2ac7b","ios":"levelo://app?vid=3e51505c-66c2-4920-b827-cea103a2ac7b"},"vehicle_type_id":"4","last_reported":1732277907,"current_range_meters":38800,"station_id":"ce4bhqp2rcd13ifvqhog","pricing_plan_id":"cebpf4jnsgd1na2vs0mg"},{"bike_id":"ebdc9c49-063b-430c-9f78-3f77e2d85322","system_id":"levelo_inurba_marseille","lat":43.29609,"lon":5.37717,"is_reserved":false,"is_disabled":false,"rental_uris":{"android":"levelo://app?vid=ebdc9c49-063b-430c-9f78-3f77e2d85322","ios":"levelo://app?vid=ebdc9c49-063b-430c-9f78-3f77e2d85322"},"vehicle_type_id":"4","last_reported":1732277907,"current_range_meters":39200,"station_id":"ce4bgi92rcd13ifvqb90","pricing_plan_id":"cebpf4jnsgd1na2vs0mg"},{"bike_id":"1ef17f0c-9df8-40aa-bad8-8fe504107889","system_id":"levelo_inurba_marseille","lat":43.31765,"lon":5.39005,"is_reserved":false,"is_disabled":false,"rental_uris":{"android":"levelo://app?vid=1ef17f0c-9df8-40aa-bad8-8fe504107889","ios":"levelo://app?vid=1ef17f0c-9df8-40aa-bad8-8fe504107889"},"vehicle_type_id":"4","last_reported":1732277907,"current_range_meters":39200,"station_id":"ce4bhqp2rcd13ifvqhng","pricing_plan_id":"cebpf4jnsgd1na2vs0mg"},{"bike_id":"97255b4b-0ec3-47eb-8f50-eb53ac1e28f5","system_id":"levelo_inurba_marseille","lat":43.27173,"lon":5.40991,"is_reserved":false,"is_disabled":false,"rental_uris":{"android":"levelo://app?vid=97255b4b-0ec3-47eb-8f50-eb53ac1e28f5","ios":"levelo://app?vid=97255b4b-0ec3-47eb-8f50-eb53ac1e28f5"},"vehicle_type_id":"4","last_reported":1732277907,"current_range_meters":32000,"station_id":"ce4bhl12rcd13ifvqgf0","pricing_plan_id":"cebpf4jnsgd1na2vs0mg"},{"bike_id":"079f3699-b1ef-4c18-b504-2e02d2270464","system_id":"levelo_inurba_marseille","lat":43.28417,"lon":5.34974,"is_reserved":false,"is_disabled":false,"rental_uris":{"android":"levelo://app?vid=079f3699-b1ef-4c18-b504-2e02d2270464","ios":"levelo://app?vid=079f3699-b1ef-4c18-b504-2e02d2270464"},"vehicle_type_id":"4","last_reported":1732277907,"current_range_meters":2800,"station_id":"ce4bhbh2rcd13ifvqepg","pricing_plan_id":"cebpf4jnsgd1na2vs0mg"},{"bike_id":"6d57628b-e1ae-4c98-bba4-2587bebaeb57","system_id":"levelo_inurba_marseille","lat":43.29192,"lon":5.3932,"is_reserved":false,"is_disabled":false,"rental_uris":{"android":"levelo://app?vid=6d57628b-e1ae-4c98-bba4-2587bebaeb57","ios":"levelo://app?vid=6d57628b-e1ae-4c98-bba4-2587bebaeb57"},"vehicle_type_id":"4","last_reported":1732277907,"current_range_meters":35200,"station_id":"ce4bh192rcd13ifvqdd0","pricing_plan_id":"cebpf4jnsgd1na2vs0mg"},{"bike_id":"02a49d50-9437-41e2-b12e-3080393295a0","system_id":"levelo_inurba_marseille","lat":43.29621,"lon":5.37727,"is_reserved":false,"is_disabled":false,"rental_uris":{"android":"levelo://app?vid=02a49d50-9437-41e2-b12e-3080393295a0","ios":"levelo://app?vid=02a49d50-9437-41e2-b12e-3080393295a0"},"vehicle_type_id":"4","last_reported":1732277907,"current_range_meters":25600,"station_id":"ce4bgi92rcd13ifvqb90","pricing_plan_id":"cebpf4jnsgd1na2vs0mg"},{"bike_id":"8eba556a-42bc-442f-9770-40b08bfa9ac9","system_id":"levelo_inurba_marseille","lat":43.28435,"lon":5.3918,"is_reserved":false,"is_disabled":true,"rental_uris":{"android":"levelo://app?vid=8eba556a-42bc-442f-9770-40b08bfa9ac9","ios":"levelo://app?vid=8eba556a-42bc-442f-9770-40b08bfa9ac9"},"vehicle_type_id":"4","last_reported":1732277907,"current_range_meters":0,"station_id":"ce4bhoh2rcd13ifvqh5g","pricing_plan_id":"cebpf4jnsgd1na2vs0mg"},{"bike_id":"90feb255-197f-4765-a839-6d52754f7004","system_id":"levelo_inurba_marseille","lat":43.26564,"lon":5.39028,"is_reserved":false,"is_disabled":false,"rental_uris":{"android":"levelo://app?vid=90feb255-197f-4765-a839-6d52754f7004","ios":"levelo://app?vid=90feb255-197f-4765-a839-6d52754f7004"},"vehicle_type_id":"4","last_reported":1732277907,"current_range_meters":26000,"station_id":"ce4bhe12rcd13ifvqf30","pricing_plan_id":"cebpf4jnsgd1na2vs0mg"},{"bike_id":"26dbb135-9d0a-46f2-8550-e99fb4c2e042","system_id":"levelo_inurba_marseille","lat":43.27215,"lon":5.3918,"is_reserved":false,"is_disabled":true,"rental_uris":{"android":"levelo://app?vid=26dbb135-9d0a-46f2-8550-e99fb4c2e042","ios":"levelo://app?vid=26dbb135-9d0a-46f2-8550-e99fb4c2e042"},"vehicle_type_id":"4","last_reported":1732277907,"current_range_meters":1600,"station_id":"ce4bhhp2rcd13ifvqfm0","pricing_plan_id":"cebpf4jnsgd1na2vs0mg"},{"bike_id":"11c5ed7c-dad2-4605-8db8-4918d0818190","system_id":"levelo_inurba_marseille","lat":43.31726,"lon":5.42395,"is_reserved":false,"is_disabled":false,"rental_uris":{"android":"levelo://app?vid=11c5ed7c-dad2-4605-8db8-4918d0818190","ios":"levelo://app?vid=11c5ed7c-dad2-4605-8db8-4918d0818190"},"vehicle_type_id":"4","last_reported":1732277907,"current_range_meters":38800,"station_id":"ce4bhp92rcd13ifvqhbg","pricing_plan_id":"cebpf4jnsgd1na2vs0mg"},{"bike_id":"e24fd391-a1f3-4666-829d-87b9b33b42ba","system_id":"levelo_inurba_marseille","lat":43.25117,"lon":5.40318,"is_reserved":false,"is_disabled":false,"rental_uris":{"android":"levelo://app?vid=e24fd391-a1f3-4666-829d-87b9b33b42ba","ios":"levelo://app?vid=e24fd391-a1f3-4666-829d-87b9b33b42ba"},"vehicle_type_id":"4","last_reported":1732277907,"current_range_meters":8800,"station_id":"ce4bhlh2rcd13ifvqgig","pricing_plan_id":"cebpf4jnsgd1na2vs0mg"},{"bike_id":"59666a50-d819-4e73-89b6-52e58951b69b","system_id":"levelo_inurba_marseille","lat":43.3153,"lon":5.38036,"is_reserved":false,"is_disabled":false,"rental_uris":{"android":"levelo://app?vid=59666a50-d819-4e73-89b6-52e58951b69b","ios":"levelo://app?vid=59666a50-d819-4e73-89b6-52e58951b69b"},"vehicle_type_id":"4","last_reported":1732277907,"current_range_meters":11200,"station_id":"ce4bhsp2rcd13ifvqi50","pricing_plan_id":"cebpf4jnsgd1na2vs0mg"},{"bike_id":"5e93a4d8-541b-4f98-ab2c-cca50507e7cf","system_id":"levelo_inurba_marseille","lat":43.2657,"lon":5.39003,"is_reserved":false,"is_disabled":false,"rental_uris":{"android":"levelo://app?vid=5e93a4d8-541b-4f98-ab2c-cca50507e7cf","ios":"levelo://app?vid=5e93a4d8-541b-4f98-ab2c-cca50507e7cf"},"vehicle_type_id":"4","last_reported":1732277907,"current_range_meters":33200,"station_id":"ce4bhe12rcd13ifvqf30","pricing_plan_id":"cebpf4jnsgd1na2vs0mg"},{"bike_id":"a80949db-b017-4762-ad8f-619c35468b47","system_id":"levelo_inurba_marseille","lat":43.30598,"lon":5.39357,"is_reserved":false,"is_disabled":false,"rental_uris":{"android":"levelo://app?vid=a80949db-b017-4762-ad8f-619c35468b47","ios":"levelo://app?vid=a80949db-b017-4762-ad8f-619c35468b47"},"vehicle_type_id":"4","last_reported":1732277907,"current_range_meters":17600,"station_id":"ce4bh0p2rcd13ifvqd80","pricing_plan_id":"cebpf4jnsgd1na2vs0mg"},{"bike_id":"2dceefe8-4f5a-4bfa-abc3-e9142325c581","system_id":"levelo_inurba_marseille","lat":43.28349,"lon":5.38105,"is_reserved":false,"is_disabled":true,"rental_uris":{"android":"levelo://app?vid=2dceefe8-4f5a-4bfa-abc3-e9142325c581","ios":"levelo://app?vid=2dceefe8-4f5a-4bfa-abc3-e9142325c581"},"vehicle_type_id":"4","last_reported":1732277907,"current_range_meters":0,"station_id":"ce4bh412rcd13ifvqdr0","pricing_plan_id":"cebpf4jnsgd1na2vs0mg"},{"bike_id":"3193222d-584b-4642-a1d8-0c04b2309736","system_id":"levelo_inurba_marseille","lat":43.3372,"lon":5.39182,"is_reserved":false,"is_disabled":false,"rental_uris":{"android":"levelo://app?vid=3193222d-584b-4642-a1d8-0c04b2309736","ios":"levelo://app?vid=3193222d-584b-4642-a1d8-0c04b2309736"},"vehicle_type_id":"4","last_reported":1732277907,"current_range_meters":36800,"station_id":"ce4bhr92rcd13ifvqhsg","pricing_plan_id":"cebpf4jnsgd1na2vs0mg"},{"bike_id":"ff913505-ef09-401c-a3e2-72e72522bdc4","system_id":"levelo_inurba_marseille","lat":43.27553,"lon":5.38423,"is_reserved":false,"is_disabled":true,"rental_uris":{"android":"levelo://app?vid=ff913505-ef09-401c-a3e2-72e72522bdc4","ios":"levelo://app?vid=ff913505-ef09-401c-a3e2-72e72522bdc4"},"vehicle_type_id":"4","last_reported":1732277907,"current_range_meters":20000,"station_id":"ce4bhh92rcd13ifvqfi0","pricing_plan_id":"cebpf4jnsgd1na2vs0mg"},{"bike_id":"581d2ef0-341e-4d2e-aa56-04a8ac8af4f6","system_id":"levelo_inurba_marseille","lat":43.33022,"lon":5.39045,"is_reserved":false,"is_disabled":false,"rental_uris":{"android":"levelo://app?vid=581d2ef0-341e-4d2e-aa56-04a8ac8af4f6","ios":"levelo://app?vid=581d2ef0-341e-4d2e-aa56-04a8ac8af4f6"},"vehicle_type_id":"4","last_reported":1732277907,"current_range_meters":38800,"station_id":"ce4bhr92rcd13ifvqhrg","pricing_plan_id":"cebpf4jnsgd1na2vs0mg"},{"bike_id":"43defcad-8b03-4c0e-921a-e822a61aadd6","system_id":"levelo_inurba_marseille","lat":43.29975,"lon":5.37181,"is_reserved":false,"is_disabled":false,"rental_uris":{"android":"levelo://app?vid=43defcad-8b03-4c0e-921a-e822a61aadd6","ios":"levelo://app?vid=43defcad-8b03-4c0e-921a-e822a61aadd6"},"vehicle_type_id":"4","last_reported":1732277907,"current_range_meters":20400,"station_id":"ce4bgr92rcd13ifvqc7g","pricing_plan_id":"cebpf4jnsgd1na2vs0mg"},{"bike_id":"1fe36207-a189-42b7-a2ae-a1bed57e3dd0","system_id":"levelo_inurba_marseille","lat":43.2603,"lon":5.37543,"is_reserved":false,"is_disabled":false,"rental_uris":{"android":"levelo://app?vid=1fe36207-a189-42b7-a2ae-a1bed57e3dd0","ios":"levelo://app?vid=1fe36207-a189-42b7-a2ae-a1bed57e3dd0"},"vehicle_type_id":"4","last_reported":1732277907,"current_range_meters":19600,"station_id":"ce4bhgh2rcd13ifvqfa0","pricing_plan_id":"cebpf4jnsgd1na2vs0mg"},{"bike_id":"4ecdaf55-87e7-42ea-ac0e-a41de2a6b49d","system_id":"levelo_inurba_marseille","lat":43.31995,"lon":5.3815,"is_reserved":false,"is_disabled":false,"rental_uris":{"android":"levelo://app?vid=4ecdaf55-87e7-42ea-ac0e-a41de2a6b49d","ios":"levelo://app?vid=4ecdaf55-87e7-42ea-ac0e-a41de2a6b49d"},"vehicle_type_id":"4","last_reported":1732277907,"current_range_meters":28000,"station_id":"ce4bhr12rcd13ifvqhpg","pricing_plan_id":"cebpf4jnsgd1na2vs0mg"},{"bike_id":"51ce6112-ca51-4a26-8335-063dea88ee84","system_id":"levelo_inurba_marseille","lat":43.26061,"lon":5.39398,"is_reserved":false,"is_disabled":false,"rental_uris":{"android":"levelo://app?vid=51ce6112-ca51-4a26-8335-063dea88ee84","ios":"levelo://app?vid=51ce6112-ca51-4a26-8335-063dea88ee84"},"vehicle_type_id":"4","last_reported":1732277907,"current_range_meters":11600,"station_id":"ce4bhh92rcd13ifvqfj0","pricing_plan_id":"cebpf4jnsgd1na2vs0mg"},{"bike_id":"473a1fa1-9b9a-4542-94f3-41f27e754933","system_id":"levelo_inurba_marseille","lat":43.30598,"lon":5.39358,"is_reserved":false,"is_disabled":false,"rental_uris":{"android":"levelo://app?vid=473a1fa1-9b9a-4542-94f3-41f27e754933","ios":"levelo://app?vid=473a1fa1-9b9a-4542-94f3-41f27e754933"},"vehicle_type_id":"4","last_reported":1732277907,"current_range_meters":11600,"station_id":"ce4bh0p2rcd13ifvqd80","pricing_plan_id":"cebpf4jnsgd1na2vs0mg"},{"bike_id":"17495583-77b8-41b7-bda7-ef2eff5b59b6","system_id":"levelo_inurba_marseille","lat":43.29029,"lon":5.38636,"is_reserved":false,"is_disabled":false,"rental_uris":{"android":"levelo://app?vid=17495583-77b8-41b7-bda7-ef2eff5b59b6","ios":"levelo://app?vid=17495583-77b8-41b7-bda7-ef2eff5b59b6"},"vehicle_type_id":"4","last_reported":1732277907,"current_range_meters":24800,"station_id":"ce4bh4p2rcd13ifvqe0g","pricing_plan_id":"cebpf4jnsgd1na2vs0mg"},{"bike_id":"fc0b1b0c-9a21-495d-be52-0d91f5503bfa","system_id":"levelo_inurba_marseille","lat":43.22933,"lon":5.35376,"is_reserved":false,"is_disabled":false,"rental_uris":{"android":"levelo://app?vid=fc0b1b0c-9a21-495d-be52-0d91f5503bfa","ios":"levelo://app?vid=fc0b1b0c-9a21-495d-be52-0d91f5503bfa"},"vehicle_type_id":"4","last_reported":1732277907,"current_range_meters":26000,"station_id":"cpo3532slgdg3j2ikp40","pricing_plan_id":"cebpf4jnsgd1na2vs0mg"},{"bike_id":"5439bca4-9080-45d4-b1b7-14cc2552b2d2","system_id":"levelo_inurba_marseille","lat":43.26555,"lon":5.37282,"is_reserved":false,"is_disabled":false,"rental_uris":{"android":"levelo://app?vid=5439bca4-9080-45d4-b1b7-14cc2552b2d2","ios":"levelo://app?vid=5439bca4-9080-45d4-b1b7-14cc2552b2d2"},"vehicle_type_id":"4","last_reported":1732277907,"current_range_meters":17200,"station_id":"ce4bhg12rcd13ifvqf70","pricing_plan_id":"cebpf4jnsgd1na2vs0mg"},{"bike_id":"97c3ed94-a963-4085-980d-59f8f7086d8b","system_id":"levelo_inurba_marseille","lat":43.29316,"lon":5.37158,"is_reserved":false,"is_disabled":false,"rental_uris":{"android":"levelo://app?vid=97c3ed94-a963-4085-980d-59f8f7086d8b","ios":"levelo://app?vid=97c3ed94-a963-4085-980d-59f8f7086d8b"},"vehicle_type_id":"4","last_reported":1732277907,"current_range_meters":37600,"station_id":"ce4bgh92rcd13ifvqb40","pricing_plan_id":"cebpf4jnsgd1na2vs0mg"},{"bike_id":"3b1e8ea7-6120-47df-96c3-795cb367684b","system_id":"levelo_inurba_marseille","lat":43.3064,"lon":5.37379,"is_reserved":false,"is_disabled":false,"rental_uris":{"android":"levelo://app?vid=3b1e8ea7-6120-47df-96c3-795cb367684b","ios":"levelo://app?vid=3b1e8ea7-6120-47df-96c3-795cb367684b"},"vehicle_type_id":"4","last_reported":1732277907,"current_range_meters":20800,"station_id":"ce4bhc92rcd13ifvqetg","pricing_plan_id":"cebpf4jnsgd1na2vs0mg"},{"bike_id":"d59ed790-ad26-46a6-90e4-2ceae616502f","system_id":"levelo_inurba_marseille","lat":43.29539,"lon":5.37516,"is_reserved":false,"is_disabled":false,"rental_uris":{"android":"levelo://app?vid=d59ed790-ad26-46a6-90e4-2ceae616502f","ios":"levelo://app?vid=d59ed790-ad26-46a6-90e4-2ceae616502f"},"vehicle_type_id":"4","last_reported":1732277907,"current_range_meters":32800,"station_id":"ce4bgh92rcd13ifvqb50","pricing_plan_id":"cebpf4jnsgd1na2vs0mg"},{"bike_id":"24618c6c-9f3e-4480-ac3f-3dfa9b93dc99","system_id":"levelo_inurba_marseille","lat":43.27949,"lon":5.41037,"is_reserved":false,"is_disabled":false,"rental_uris":{"android":"levelo://app?vid=24618c6c-9f3e-4480-ac3f-3dfa9b93dc99","ios":"levelo://app?vid=24618c6c-9f3e-4480-ac3f-3dfa9b93dc99"},"vehicle_type_id":"4","last_reported":1732277907,"current_range_meters":37600,"station_id":"ce4bhnp2rcd13ifvqh0g","pricing_plan_id":"cebpf4jnsgd1na2vs0mg"},{"bike_id":"aa9a1be4-e8e7-4015-8629-486dc8c78297","system_id":"levelo_inurba_marseille","lat":43.30302,"lon":5.39222,"is_reserved":false,"is_disabled":false,"rental_uris":{"android":"levelo://app?vid=aa9a1be4-e8e7-4015-8629-486dc8c78297","ios":"levelo://app?vid=aa9a1be4-e8e7-4015-8629-486dc8c78297"},"vehicle_type_id":"4","last_reported":1732277907,"current_range_meters":20800,"station_id":"ce4bgkh2rcd13ifvqbk0","pricing_plan_id":"cebpf4jnsgd1na2vs0mg"},{"bike_id":"35799ffd-e120-47ae-ba81-5038ad1d78ad","system_id":"levelo_inurba_marseille","lat":43.26686,"lon":5.38262,"is_reserved":false,"is_disabled":false,"rental_uris":{"android":"levelo://app?vid=35799ffd-e120-47ae-ba81-5038ad1d78ad","ios":"levelo://app?vid=35799ffd-e120-47ae-ba81-5038ad1d78ad"},"vehicle_type_id":"4","last_reported":1732277907,"current_range_meters":39200,"station_id":"ce4bhg92rcd13ifvqf90","pricing_plan_id":"cebpf4jnsgd1na2vs0mg"},{"bike_id":"a51e82b7-997c-467d-8058-02f504d77c87","system_id":"levelo_inurba_marseille","lat":43.25,"lon":5.38934,"is_reserved":false,"is_disabled":false,"rental_uris":{"android":"levelo://app?vid=a51e82b7-997c-467d-8058-02f504d77c87","ios":"levelo://app?vid=a51e82b7-997c-467d-8058-02f504d77c87"},"vehicle_type_id":"4","last_reported":1732277907,"current_range_meters":18000,"station_id":"ce4bhgp2rcd13ifvqfd0","pricing_plan_id":"cebpf4jnsgd1na2vs0mg"},{"bike_id":"7251622e-73a9-419f-947b-70fd7086d2b8","system_id":"levelo_inurba_marseille","lat":43.29843,"lon":5.36274,"is_reserved":false,"is_disabled":true,"rental_uris":{"android":"levelo://app?vid=7251622e-73a9-419f-947b-70fd7086d2b8","ios":"levelo://app?vid=7251622e-73a9-419f-947b-70fd7086d2b8"},"vehicle_type_id":"4","last_reported":1732277907,"current_range_meters":24000,"station_id":"ce4bgpp2rcd13ifvqc3g","pricing_plan_id":"cebpf4jnsgd1na2vs0mg"},{"bike_id":"9d76029c-8202-41ad-a5e8-699cb6009143","system_id":"levelo_inurba_marseille","lat":43.23144,"lon":5.43723,"is_reserved":false,"is_disabled":false,"rental_uris":{"android":"levelo://app?vid=9d76029c-8202-41ad-a5e8-699cb6009143","ios":"levelo://app?vid=9d76029c-8202-41ad-a5e8-699cb6009143"},"vehicle_type_id":"4","last_reported":1732277907,"current_range_meters":32800,"station_id":"ce4bhmp2rcd13ifvqgog","pricing_plan_id":"cebpf4jnsgd1na2vs0mg"},{"bike_id":"9f5455c0-c1a4-4bcb-b9dd-7c70d3daab83","system_id":"levelo_inurba_marseille","lat":43.31228,"lon":5.3687,"is_reserved":false,"is_disabled":false,"rental_uris":{"android":"levelo://app?vid=9f5455c0-c1a4-4bcb-b9dd-7c70d3daab83","ios":"levelo://app?vid=9f5455c0-c1a4-4bcb-b9dd-7c70d3daab83"},"vehicle_type_id":"4","last_reported":1732277907,"current_range_meters":16000,"station_id":"ce4bgl92rcd13ifvqbq0","pricing_plan_id":"cebpf4jnsgd1na2vs0mg"},{"bike_id":"77f2021a-85ed-413a-9b77-258a646f78d8","system_id":"levelo_inurba_marseille","lat":43.27817,"lon":5.4071,"is_reserved":false,"is_disabled":false,"rental_uris":{"android":"levelo://app?vid=77f2021a-85ed-413a-9b77-258a646f78d8","ios":"levelo://app?vid=77f2021a-85ed-413a-9b77-258a646f78d8"},"vehicle_type_id":"4","last_reported":1732277907,"current_range_meters":34800,"station_id":"ce4bhnh2rcd13ifvqgtg","pricing_plan_id":"cebpf4jnsgd1na2vs0mg"},{"bike_id":"39f23ee6-adb5-44a3-ac63-a9369e373bc7","system_id":"levelo_inurba_marseille","lat":43.26932,"lon":5.38917,"is_reserved":false,"is_disabled":false,"rental_uris":{"android":"levelo://app?vid=39f23ee6-adb5-44a3-ac63-a9369e373bc7","ios":"levelo://app?vid=39f23ee6-adb5-44a3-ac63-a9369e373bc7"},"vehicle_type_id":"4","last_reported":1732277907,"current_range_meters":24800,"station_id":"ce4bhhh2rcd13ifvqfl0","pricing_plan_id":"cebpf4jnsgd1na2vs0mg"},{"bike_id":"2ce56eac-607f-4aee-97f1-1efe9a148076","system_id":"levelo_inurba_marseille","lat":43.22929,"lon":5.35373,"is_reserved":false,"is_disabled":false,"rental_uris":{"android":"levelo://app?vid=2ce56eac-607f-4aee-97f1-1efe9a148076","ios":"levelo://app?vid=2ce56eac-607f-4aee-97f1-1efe9a148076"},"vehicle_type_id":"4","last_reported":1732277907,"current_range_meters":16000,"station_id":"cpo3532slgdg3j2ikp40","pricing_plan_id":"cebpf4jnsgd1na2vs0mg"},{"bike_id":"c0b31b04-1e8e-4f25-9a03-9ef0c3be9e96","system_id":"levelo_inurba_marseille","lat":43.26202,"lon":5.37927,"is_reserved":false,"is_disabled":false,"rental_uris":{"android":"levelo://app?vid=c0b31b04-1e8e-4f25-9a03-9ef0c3be9e96","ios":"levelo://app?vid=c0b31b04-1e8e-4f25-9a03-9ef0c3be9e96"},"vehicle_type_id":"4","last_reported":1732277907,"current_range_meters":38800,"station_id":"ce4bhjp2rcd13ifvqg90","pricing_plan_id":"cebpf4jnsgd1na2vs0mg"},{"bike_id":"596ac66f-0a5a-4a8a-a464-f602f8d9f366","system_id":"levelo_inurba_marseille","lat":43.32665,"lon":5.40987,"is_reserved":false,"is_disabled":true,"rental_uris":{"android":"levelo://app?vid=596ac66f-0a5a-4a8a-a464-f602f8d9f366","ios":"levelo://app?vid=596ac66f-0a5a-4a8a-a464-f602f8d9f366"},"vehicle_type_id":"4","last_reported":1732277907,"current_range_meters":0,"station_id":"ce4bhpp2rcd13ifvqhgg","pricing_plan_id":"cebpf4jnsgd1na2vs0mg"},{"bike_id":"faaad382-3400-4ce8-9a74-6bac7f7b3489","system_id":"levelo_inurba_marseille","lat":43.25932,"lon":5.4091,"is_reserved":false,"is_disabled":false,"rental_uris":{"android":"levelo://app?vid=faaad382-3400-4ce8-9a74-6bac7f7b3489","ios":"levelo://app?vid=faaad382-3400-4ce8-9a74-6bac7f7b3489"},"vehicle_type_id":"4","last_reported":1732277907,"current_range_meters":18800,"station_id":"ce4bhm92rcd13ifvqglg","pricing_plan_id":"cebpf4jnsgd1na2vs0mg"},{"bike_id":"2dfad253-32b6-47af-be05-9d6053a684d1","system_id":"levelo_inurba_marseille","lat":43.23965,"lon":5.36631,"is_reserved":false,"is_disabled":false,"rental_uris":{"android":"levelo://app?vid=2dfad253-32b6-47af-be05-9d6053a684d1","ios":"levelo://app?vid=2dfad253-32b6-47af-be05-9d6053a684d1"},"vehicle_type_id":"4","last_reported":1732277907,"current_range_meters":36400,"station_id":"ce4bhi12rcd13ifvqfp0","pricing_plan_id":"cebpf4jnsgd1na2vs0mg"},{"bike_id":"1904e4d6-e1e0-456f-9800-8b0e0e7107b4","system_id":"levelo_inurba_marseille","lat":43.23152,"lon":5.43705,"is_reserved":false,"is_disabled":false,"rental_uris":{"android":"levelo://app?vid=1904e4d6-e1e0-456f-9800-8b0e0e7107b4","ios":"levelo://app?vid=1904e4d6-e1e0-456f-9800-8b0e0e7107b4"},"vehicle_type_id":"4","last_reported":1732277907,"current_range_meters":38800,"station_id":"ce4bhmp2rcd13ifvqgog","pricing_plan_id":"cebpf4jnsgd1na2vs0mg"},{"bike_id":"51654fed-9c06-4ccc-8baa-01fb71e67e1e","system_id":"levelo_inurba_marseille","lat":43.23183,"lon":5.39989,"is_reserved":false,"is_disabled":false,"rental_uris":{"android":"levelo://app?vid=51654fed-9c06-4ccc-8baa-01fb71e67e1e","ios":"levelo://app?vid=51654fed-9c06-4ccc-8baa-01fb71e67e1e"},"vehicle_type_id":"4","last_reported":1732277907,"current_range_meters":22400,"station_id":"ce4bhn12rcd13ifvqgqg","pricing_plan_id":"cebpf4jnsgd1na2vs0mg"},{"bike_id":"309367b1-502d-4a72-a511-556aa80f8a91","system_id":"levelo_inurba_marseille","lat":43.30154,"lon":5.38084,"is_reserved":false,"is_disabled":false,"rental_uris":{"android":"levelo://app?vid=309367b1-502d-4a72-a511-556aa80f8a91","ios":"levelo://app?vid=309367b1-502d-4a72-a511-556aa80f8a91"},"vehicle_type_id":"4","last_reported":1732277907,"current_range_meters":28000,"station_id":"ce4bgjp2rcd13ifvqbh0","pricing_plan_id":"cebpf4jnsgd1na2vs0mg"},{"bike_id":"1b03edb7-6333-43b3-8384-c82ad072baa1","system_id":"levelo_inurba_marseille","lat":43.31236,"lon":5.36814,"is_reserved":false,"is_disabled":false,"rental_uris":{"android":"levelo://app?vid=1b03edb7-6333-43b3-8384-c82ad072baa1","ios":"levelo://app?vid=1b03edb7-6333-43b3-8384-c82ad072baa1"},"vehicle_type_id":"4","last_reported":1732277907,"current_range_meters":28000,"station_id":"ce4bgth2rcd13ifvqch0","pricing_plan_id":"cebpf4jnsgd1na2vs0mg"},{"bike_id":"1eff5ce5-2d56-4465-a12c-60db9ec2175a","system_id":"levelo_inurba_marseille","lat":43.22926,"lon":5.35375,"is_reserved":false,"is_disabled":false,"rental_uris":{"android":"levelo://app?vid=1eff5ce5-2d56-4465-a12c-60db9ec2175a","ios":"levelo://app?vid=1eff5ce5-2d56-4465-a12c-60db9ec2175a"},"vehicle_type_id":"4","last_reported":1732277907,"current_range_meters":5600,"station_id":"cpo3532slgdg3j2ikp40","pricing_plan_id":"cebpf4jnsgd1na2vs0mg"},{"bike_id":"ce6d46e5-4223-4bce-a0db-85f63ca84039","system_id":"levelo_inurba_marseille","lat":43.30148,"lon":5.40053,"is_reserved":false,"is_disabled":true,"rental_uris":{"android":"levelo://app?vid=ce6d46e5-4223-4bce-a0db-85f63ca84039","ios":"levelo://app?vid=ce6d46e5-4223-4bce-a0db-85f63ca84039"},"vehicle_type_id":"4","last_reported":1732277907,"current_range_meters":0,"station_id":"","pricing_plan_id":"cebpf4jnsgd1na2vs0mg"},{"bike_id":"dc815649-e3e3-48aa-b0fd-022cdb8ac58a","system_id":"levelo_inurba_marseille","lat":43.32368,"lon":5.38882,"is_reserved":false,"is_disabled":false,"rental_uris":{"android":"levelo://app?vid=dc815649-e3e3-48aa-b0fd-022cdb8ac58a","ios":"levelo://app?vid=dc815649-e3e3-48aa-b0fd-022cdb8ac58a"},"vehicle_type_id":"4","last_reported":1732277907,"current_range_meters":36800,"station_id":"ce4bhqp2rcd13ifvqhog","pricing_plan_id":"cebpf4jnsgd1na2vs0mg"},{"bike_id":"eaa1c63b-61e0-4a3a-b02d-9d58781cf978","system_id":"levelo_inurba_marseille","lat":43.305872,"lon":5.372177,"is_reserved":false,"is_disabled":false,"rental_uris":{"android":"levelo://app?vid=eaa1c63b-61e0-4a3a-b02d-9d58781cf978","ios":"levelo://app?vid=eaa1c63b-61e0-4a3a-b02d-9d58781cf978"},"vehicle_type_id":"4","last_reported":1732277907,"current_range_meters":18800,"station_id":"ce4bgqh2rcd13ifvqc4g","pricing_plan_id":"cebpf4jnsgd1na2vs0mg"},{"bike_id":"22bf3d87-dbb2-41f0-ae52-3719720b6a9d","system_id":"levelo_inurba_marseille","lat":43.26953,"lon":5.38633,"is_reserved":false,"is_disabled":false,"rental_uris":{"android":"levelo://app?vid=22bf3d87-dbb2-41f0-ae52-3719720b6a9d","ios":"levelo://app?vid=22bf3d87-dbb2-41f0-ae52-3719720b6a9d"},"vehicle_type_id":"4","last_reported":1732277907,"current_range_meters":24400,"station_id":"ce4bhh92rcd13ifvqfh0","pricing_plan_id":"cebpf4jnsgd1na2vs0mg"},{"bike_id":"179b6b8c-dfe5-4458-a8e3-72e91a43174e","system_id":"levelo_inurba_marseille","lat":43.23188,"lon":5.40002,"is_reserved":false,"is_disabled":false,"rental_uris":{"android":"levelo://app?vid=179b6b8c-dfe5-4458-a8e3-72e91a43174e","ios":"levelo://app?vid=179b6b8c-dfe5-4458-a8e3-72e91a43174e"},"vehicle_type_id":"4","last_reported":1732277907,"current_range_meters":38000,"station_id":"ce4bhn12rcd13ifvqgqg","pricing_plan_id":"cebpf4jnsgd1na2vs0mg"},{"bike_id":"bcaa1961-2416-4b8b-a6f9-a9ecaccc4f07","system_id":"levelo_inurba_marseille","lat":43.30139,"lon":5.38777,"is_reserved":false,"is_disabled":false,"rental_uris":{"android":"levelo://app?vid=bcaa1961-2416-4b8b-a6f9-a9ecaccc4f07","ios":"levelo://app?vid=bcaa1961-2416-4b8b-a6f9-a9ecaccc4f07"},"vehicle_type_id":"4","last_reported":1732277907,"current_range_meters":38800,"station_id":"ce4bghh2rcd13ifvqb60","pricing_plan_id":"cebpf4jnsgd1na2vs0mg"},{"bike_id":"09ee12a7-2e68-4267-aa97-5877a160df71","system_id":"levelo_inurba_marseille","lat":43.2781,"lon":5.40706,"is_reserved":false,"is_disabled":false,"rental_uris":{"android":"levelo://app?vid=09ee12a7-2e68-4267-aa97-5877a160df71","ios":"levelo://app?vid=09ee12a7-2e68-4267-aa97-5877a160df71"},"vehicle_type_id":"4","last_reported":1732277907,"current_range_meters":39200,"station_id":"ce4bhnh2rcd13ifvqgtg","pricing_plan_id":"cebpf4jnsgd1na2vs0mg"},{"bike_id":"9f665eb1-fea2-4670-9b58-bdfb0a6ae168","system_id":"levelo_inurba_marseille","lat":43.25118,"lon":5.40318,"is_reserved":false,"is_disabled":false,"rental_uris":{"android":"levelo://app?vid=9f665eb1-fea2-4670-9b58-bdfb0a6ae168","ios":"levelo://app?vid=9f665eb1-fea2-4670-9b58-bdfb0a6ae168"},"vehicle_type_id":"4","last_reported":1732277907,"current_range_meters":8000,"station_id":"ce4bhlh2rcd13ifvqgig","pricing_plan_id":"cebpf4jnsgd1na2vs0mg"},{"bike_id":"cead98ce-e9d9-44ca-8173-41234fc4c76c","system_id":"levelo_inurba_marseille","lat":43.29621,"lon":5.37162,"is_reserved":false,"is_disabled":false,"rental_uris":{"android":"levelo://app?vid=cead98ce-e9d9-44ca-8173-41234fc4c76c","ios":"levelo://app?vid=cead98ce-e9d9-44ca-8173-41234fc4c76c"},"vehicle_type_id":"4","last_reported":1732277907,"current_range_meters":28400,"station_id":"ce4bgnh2rcd13ifvqc0g","pricing_plan_id":"cebpf4jnsgd1na2vs0mg"},{"bike_id":"aa4a9166-73af-4b94-abd7-2c7b4547bfc9","system_id":"levelo_inurba_marseille","lat":43.26937,"lon":5.4026,"is_reserved":false,"is_disabled":false,"rental_uris":{"android":"levelo://app?vid=aa4a9166-73af-4b94-abd7-2c7b4547bfc9","ios":"levelo://app?vid=aa4a9166-73af-4b94-abd7-2c7b4547bfc9"},"vehicle_type_id":"4","last_reported":1732277907,"current_range_meters":38800,"station_id":"cjm6bp8fraef2m0cb0m0","pricing_plan_id":"cebpf4jnsgd1na2vs0mg"},{"bike_id":"53209ac8-eb4c-44ea-965c-d8ad7615d812","system_id":"levelo_inurba_marseille","lat":43.29722,"lon":5.37693,"is_reserved":false,"is_disabled":false,"rental_uris":{"android":"levelo://app?vid=53209ac8-eb4c-44ea-965c-d8ad7615d812","ios":"levelo://app?vid=53209ac8-eb4c-44ea-965c-d8ad7615d812"},"vehicle_type_id":"4","last_reported":1732277907,"current_range_meters":21600,"station_id":"ce4bgkh2rcd13ifvqbl0","pricing_plan_id":"cebpf4jnsgd1na2vs0mg"},{"bike_id":"c6f8c5af-9d98-423b-912d-bb5ff4ac7064","system_id":"levelo_inurba_marseille","lat":43.25086,"lon":5.39522,"is_reserved":false,"is_disabled":false,"rental_uris":{"android":"levelo://app?vid=c6f8c5af-9d98-423b-912d-bb5ff4ac7064","ios":"levelo://app?vid=c6f8c5af-9d98-423b-912d-bb5ff4ac7064"},"vehicle_type_id":"4","last_reported":1732277907,"current_range_meters":39200,"station_id":"ce4bhm12rcd13ifvqgkg","pricing_plan_id":"cebpf4jnsgd1na2vs0mg"},{"bike_id":"8e5f7d32-6613-4d7e-b53d-b5ddff5cb6c6","system_id":"levelo_inurba_marseille","lat":43.23957,"lon":5.36641,"is_reserved":false,"is_disabled":false,"rental_uris":{"android":"levelo://app?vid=8e5f7d32-6613-4d7e-b53d-b5ddff5cb6c6","ios":"levelo://app?vid=8e5f7d32-6613-4d7e-b53d-b5ddff5cb6c6"},"vehicle_type_id":"4","last_reported":1732277907,"current_range_meters":39200,"station_id":"ce4bhi12rcd13ifvqfp0","pricing_plan_id":"cebpf4jnsgd1na2vs0mg"},{"bike_id":"8bd7943a-d6e3-4b69-8209-bb9f99b76dde","system_id":"levelo_inurba_marseille","lat":43.28853,"lon":5.40003,"is_reserved":false,"is_disabled":true,"rental_uris":{"android":"levelo://app?vid=8bd7943a-d6e3-4b69-8209-bb9f99b76dde","ios":"levelo://app?vid=8bd7943a-d6e3-4b69-8209-bb9f99b76dde"},"vehicle_type_id":"4","last_reported":1732277907,"current_range_meters":13600,"station_id":"","pricing_plan_id":"cebpf4jnsgd1na2vs0mg"},{"bike_id":"4d618b7a-54c1-4a87-9f12-c005a3c512a5","system_id":"levelo_inurba_marseille","lat":43.31116,"lon":5.37772,"is_reserved":false,"is_disabled":false,"rental_uris":{"android":"levelo://app?vid=4d618b7a-54c1-4a87-9f12-c005a3c512a5","ios":"levelo://app?vid=4d618b7a-54c1-4a87-9f12-c005a3c512a5"},"vehicle_type_id":"4","last_reported":1732277907,"current_range_meters":33200,"station_id":"ce4bgt92rcd13ifvqcg0","pricing_plan_id":"cebpf4jnsgd1na2vs0mg"},{"bike_id":"448b4be7-3dfe-40e5-b9e4-04aad95d4610","system_id":"levelo_inurba_marseille","lat":43.30142,"lon":5.37396,"is_reserved":false,"is_disabled":false,"rental_uris":{"android":"levelo://app?vid=448b4be7-3dfe-40e5-b9e4-04aad95d4610","ios":"levelo://app?vid=448b4be7-3dfe-40e5-b9e4-04aad95d4610"},"vehicle_type_id":"4","last_reported":1732277907,"current_range_meters":27600,"station_id":"ce4bgs92rcd13ifvqcc0","pricing_plan_id":"cebpf4jnsgd1na2vs0mg"},{"bike_id":"9164788e-a103-4f61-b452-5ed79711e0e5","system_id":"levelo_inurba_marseille","lat":43.336073,"lon":5.410329,"is_reserved":false,"is_disabled":false,"rental_uris":{"android":"levelo://app?vid=9164788e-a103-4f61-b452-5ed79711e0e5","ios":"levelo://app?vid=9164788e-a103-4f61-b452-5ed79711e0e5"},"vehicle_type_id":"4","last_reported":1732277907,"current_range_meters":12800,"station_id":"ce4bhq12rcd13ifvqhig","pricing_plan_id":"cebpf4jnsgd1na2vs0mg"},{"bike_id":"277b71be-67e2-4918-b058-c20313be331a","system_id":"levelo_inurba_marseille","lat":43.29241,"lon":5.40899,"is_reserved":false,"is_disabled":true,"rental_uris":{"android":"levelo://app?vid=277b71be-67e2-4918-b058-c20313be331a","ios":"levelo://app?vid=277b71be-67e2-4918-b058-c20313be331a"},"vehicle_type_id":"4","last_reported":1732277907,"current_range_meters":38000,"station_id":"ce4bh192rcd13ifvqdc0","pricing_plan_id":"cebpf4jnsgd1na2vs0mg"},{"bike_id":"e9cbd8c0-8bbe-4019-bbd9-2f8b6b0c7bf1","system_id":"levelo_inurba_marseille","lat":43.29703,"lon":5.36619,"is_reserved":false,"is_disabled":false,"rental_uris":{"android":"levelo://app?vid=e9cbd8c0-8bbe-4019-bbd9-2f8b6b0c7bf1","ios":"levelo://app?vid=e9cbd8c0-8bbe-4019-bbd9-2f8b6b0c7bf1"},"vehicle_type_id":"4","last_reported":1732277907,"current_range_meters":29600,"station_id":"ce4bgn12rcd13ifvqbt0","pricing_plan_id":"cebpf4jnsgd1na2vs0mg"},{"bike_id":"d50fae79-a23b-4b26-bc0c-86364a6bce7e","system_id":"levelo_inurba_marseille","lat":43.31988,"lon":5.38146,"is_reserved":false,"is_disabled":false,"rental_uris":{"android":"levelo://app?vid=d50fae79-a23b-4b26-bc0c-86364a6bce7e","ios":"levelo://app?vid=d50fae79-a23b-4b26-bc0c-86364a6bce7e"},"vehicle_type_id":"4","last_reported":1732277907,"current_range_meters":38800,"station_id":"ce4bhr12rcd13ifvqhpg","pricing_plan_id":"cebpf4jnsgd1na2vs0mg"},{"bike_id":"92bce331-a4a9-4457-9997-db968e3cca40","system_id":"levelo_inurba_marseille","lat":43.28615,"lon":5.35104,"is_reserved":false,"is_disabled":false,"rental_uris":{"android":"levelo://app?vid=92bce331-a4a9-4457-9997-db968e3cca40","ios":"levelo://app?vid=92bce331-a4a9-4457-9997-db968e3cca40"},"vehicle_type_id":"4","last_reported":1732277907,"current_range_meters":8000,"station_id":"ce4bhch2rcd13ifvqeug","pricing_plan_id":"cebpf4jnsgd1na2vs0mg"},{"bike_id":"f689ab61-e526-43ba-b443-410e33c02d9e","system_id":"levelo_inurba_marseille","lat":43.25497,"lon":5.37655,"is_reserved":false,"is_disabled":true,"rental_uris":{"android":"levelo://app?vid=f689ab61-e526-43ba-b443-410e33c02d9e","ios":"levelo://app?vid=f689ab61-e526-43ba-b443-410e33c02d9e"},"vehicle_type_id":"4","last_reported":1732277907,"current_range_meters":800,"station_id":"ce4bhh12rcd13ifvqff0","pricing_plan_id":"cebpf4jnsgd1na2vs0mg"},{"bike_id":"88654d2b-d25b-497d-8635-ee7c5053b718","system_id":"levelo_inurba_marseille","lat":43.27802,"lon":5.40733,"is_reserved":false,"is_disabled":false,"rental_uris":{"android":"levelo://app?vid=88654d2b-d25b-497d-8635-ee7c5053b718","ios":"levelo://app?vid=88654d2b-d25b-497d-8635-ee7c5053b718"},"vehicle_type_id":"4","last_reported":1732277907,"current_range_meters":33600,"station_id":"ce4bhnh2rcd13ifvqgtg","pricing_plan_id":"cebpf4jnsgd1na2vs0mg"},{"bike_id":"ec95fae9-c779-45c1-a8f1-6cf3039743d3","system_id":"levelo_inurba_marseille","lat":43.27942,"lon":5.4104,"is_reserved":false,"is_disabled":false,"rental_uris":{"android":"levelo://app?vid=ec95fae9-c779-45c1-a8f1-6cf3039743d3","ios":"levelo://app?vid=ec95fae9-c779-45c1-a8f1-6cf3039743d3"},"vehicle_type_id":"4","last_reported":1732277907,"current_range_meters":25200,"station_id":"ce4bhnp2rcd13ifvqh0g","pricing_plan_id":"cebpf4jnsgd1na2vs0mg"},{"bike_id":"ce9fb9d4-5647-49dc-ab9f-a1547699654d","system_id":"levelo_inurba_marseille","lat":43.30137,"lon":5.3741,"is_reserved":false,"is_disabled":false,"rental_uris":{"android":"levelo://app?vid=ce9fb9d4-5647-49dc-ab9f-a1547699654d","ios":"levelo://app?vid=ce9fb9d4-5647-49dc-ab9f-a1547699654d"},"vehicle_type_id":"4","last_reported":1732277907,"current_range_meters":12000,"station_id":"ce4bgs92rcd13ifvqcc0","pricing_plan_id":"cebpf4jnsgd1na2vs0mg"},{"bike_id":"552ae1f9-34eb-4d70-a19b-3616d3661778","system_id":"levelo_inurba_marseille","lat":43.33721,"lon":5.39181,"is_reserved":false,"is_disabled":false,"rental_uris":{"android":"levelo://app?vid=552ae1f9-34eb-4d70-a19b-3616d3661778","ios":"levelo://app?vid=552ae1f9-34eb-4d70-a19b-3616d3661778"},"vehicle_type_id":"4","last_reported":1732277907,"current_range_meters":25200,"station_id":"ce4bhr92rcd13ifvqhsg","pricing_plan_id":"cebpf4jnsgd1na2vs0mg"},{"bike_id":"4ec8e2f3-1f2f-422c-a926-e1a3bcd04c85","system_id":"levelo_inurba_marseille","lat":43.296173,"lon":5.377199,"is_reserved":false,"is_disabled":false,"rental_uris":{"android":"levelo://app?vid=4ec8e2f3-1f2f-422c-a926-e1a3bcd04c85","ios":"levelo://app?vid=4ec8e2f3-1f2f-422c-a926-e1a3bcd04c85"},"vehicle_type_id":"4","last_reported":1732277907,"current_range_meters":38800,"station_id":"ce4bgi92rcd13ifvqb90","pricing_plan_id":"cebpf4jnsgd1na2vs0mg"},{"bike_id":"f7f3756c-1ec7-4782-9c87-6273f87b6774","system_id":"levelo_inurba_marseille","lat":43.337444,"lon":5.374475,"is_reserved":false,"is_disabled":false,"rental_uris":{"android":"levelo://app?vid=f7f3756c-1ec7-4782-9c87-6273f87b6774","ios":"levelo://app?vid=f7f3756c-1ec7-4782-9c87-6273f87b6774"},"vehicle_type_id":"4","last_reported":1732277907,"current_range_meters":37600,"station_id":"","pricing_plan_id":"cebpf4jnsgd1na2vs0mg"},{"bike_id":"7511195d-8826-4960-a89f-c5ab13e35235","system_id":"levelo_inurba_marseille","lat":43.26936,"lon":5.38633,"is_reserved":false,"is_disabled":true,"rental_uris":{"android":"levelo://app?vid=7511195d-8826-4960-a89f-c5ab13e35235","ios":"levelo://app?vid=7511195d-8826-4960-a89f-c5ab13e35235"},"vehicle_type_id":"4","last_reported":1732277907,"current_range_meters":0,"station_id":"ce4bhh92rcd13ifvqfh0","pricing_plan_id":"cebpf4jnsgd1na2vs0mg"},{"bike_id":"028e5427-36e2-49e1-b3db-260058fffb58","system_id":"levelo_inurba_marseille","lat":43.25574,"lon":5.38228,"is_reserved":false,"is_disabled":false,"rental_uris":{"android":"levelo://app?vid=028e5427-36e2-49e1-b3db-260058fffb58","ios":"levelo://app?vid=028e5427-36e2-49e1-b3db-260058fffb58"},"vehicle_type_id":"4","last_reported":1732277907,"current_range_meters":17200,"station_id":"ce4bhih2rcd13ifvqfs0","pricing_plan_id":"cebpf4jnsgd1na2vs0mg"},{"bike_id":"0f34c480-84cb-4b12-9072-a6f844830c03","system_id":"levelo_inurba_marseille","lat":43.23193,"lon":5.3556,"is_reserved":false,"is_disabled":false,"rental_uris":{"android":"levelo://app?vid=0f34c480-84cb-4b12-9072-a6f844830c03","ios":"levelo://app?vid=0f34c480-84cb-4b12-9072-a6f844830c03"},"vehicle_type_id":"4","last_reported":1732277907,"current_range_meters":37600,"station_id":"ce4bhu92rcd13ifvqi70","pricing_plan_id":"cebpf4jnsgd1na2vs0mg"},{"bike_id":"1453fddf-c64f-4c02-ace1-55caffeaf55e","system_id":"levelo_inurba_marseille","lat":43.32291,"lon":5.3826,"is_reserved":false,"is_disabled":false,"rental_uris":{"android":"levelo://app?vid=1453fddf-c64f-4c02-ace1-55caffeaf55e","ios":"levelo://app?vid=1453fddf-c64f-4c02-ace1-55caffeaf55e"},"vehicle_type_id":"4","last_reported":1732277907,"current_range_meters":33600,"station_id":"ce4bhr12rcd13ifvqhqg","pricing_plan_id":"cebpf4jnsgd1na2vs0mg"},{"bike_id":"0d5efe48-32bd-461f-be09-c1d5e2d6ef37","system_id":"levelo_inurba_marseille","lat":43.3237,"lon":5.38887,"is_reserved":false,"is_disabled":false,"rental_uris":{"android":"levelo://app?vid=0d5efe48-32bd-461f-be09-c1d5e2d6ef37","ios":"levelo://app?vid=0d5efe48-32bd-461f-be09-c1d5e2d6ef37"},"vehicle_type_id":"4","last_reported":1732277907,"current_range_meters":33200,"station_id":"ce4bhqp2rcd13ifvqhog","pricing_plan_id":"cebpf4jnsgd1na2vs0mg"},{"bike_id":"f4982d44-4eca-408d-a3c7-400db931c8fa","system_id":"levelo_inurba_marseille","lat":43.28441,"lon":5.39187,"is_reserved":false,"is_disabled":false,"rental_uris":{"android":"levelo://app?vid=f4982d44-4eca-408d-a3c7-400db931c8fa","ios":"levelo://app?vid=f4982d44-4eca-408d-a3c7-400db931c8fa"},"vehicle_type_id":"4","last_reported":1732277907,"current_range_meters":26000,"station_id":"ce4bhoh2rcd13ifvqh5g","pricing_plan_id":"cebpf4jnsgd1na2vs0mg"},{"bike_id":"87ca93ae-8c2c-4bde-868e-3578b3e812ca","system_id":"levelo_inurba_marseille","lat":43.27427,"lon":5.39422,"is_reserved":false,"is_disabled":false,"rental_uris":{"android":"levelo://app?vid=87ca93ae-8c2c-4bde-868e-3578b3e812ca","ios":"levelo://app?vid=87ca93ae-8c2c-4bde-868e-3578b3e812ca"},"vehicle_type_id":"4","last_reported":1732277907,"current_range_meters":36800,"station_id":"ce4bhdp2rcd13ifvqf20","pricing_plan_id":"cebpf4jnsgd1na2vs0mg"},{"bike_id":"f95b0644-7919-41e0-912b-6c69439f106a","system_id":"levelo_inurba_marseille","lat":43.30095,"lon":5.39093,"is_reserved":false,"is_disabled":false,"rental_uris":{"android":"levelo://app?vid=f95b0644-7919-41e0-912b-6c69439f106a","ios":"levelo://app?vid=f95b0644-7919-41e0-912b-6c69439f106a"},"vehicle_type_id":"4","last_reported":1732277907,"current_range_meters":34000,"station_id":"ce4bh192rcd13ifvqdb0","pricing_plan_id":"cebpf4jnsgd1na2vs0mg"},{"bike_id":"c2a59ab3-d6b8-4918-82c9-bfcce921601e","system_id":"levelo_inurba_marseille","lat":43.32477,"lon":5.36563,"is_reserved":false,"is_disabled":false,"rental_uris":{"android":"levelo://app?vid=c2a59ab3-d6b8-4918-82c9-bfcce921601e","ios":"levelo://app?vid=c2a59ab3-d6b8-4918-82c9-bfcce921601e"},"vehicle_type_id":"4","last_reported":1732277907,"current_range_meters":18000,"station_id":"ce4bhs12rcd13ifvqhvg","pricing_plan_id":"cebpf4jnsgd1na2vs0mg"},{"bike_id":"3814d5d3-9e1a-4999-b1c9-82bf61d0e64f","system_id":"levelo_inurba_marseille","lat":43.29552,"lon":5.42282,"is_reserved":false,"is_disabled":true,"rental_uris":{"android":"levelo://app?vid=3814d5d3-9e1a-4999-b1c9-82bf61d0e64f","ios":"levelo://app?vid=3814d5d3-9e1a-4999-b1c9-82bf61d0e64f"},"vehicle_type_id":"4","last_reported":1732277907,"current_range_meters":0,"station_id":"ce4bhph2rcd13ifvqhdg","pricing_plan_id":"cebpf4jnsgd1na2vs0mg"},{"bike_id":"4fe80ffc-4df8-4ae3-aa53-bb17cdd54e27","system_id":"levelo_inurba_marseille","lat":43.30142,"lon":5.37419,"is_reserved":false,"is_disabled":false,"rental_uris":{"android":"levelo://app?vid=4fe80ffc-4df8-4ae3-aa53-bb17cdd54e27","ios":"levelo://app?vid=4fe80ffc-4df8-4ae3-aa53-bb17cdd54e27"},"vehicle_type_id":"4","last_reported":1732277907,"current_range_meters":17200,"station_id":"ce4bgs92rcd13ifvqcc0","pricing_plan_id":"cebpf4jnsgd1na2vs0mg"},{"bike_id":"5240181a-9be5-4e5b-a6f1-00d4d469d483","system_id":"levelo_inurba_marseille","lat":43.31233,"lon":5.3685,"is_reserved":false,"is_disabled":false,"rental_uris":{"android":"levelo://app?vid=5240181a-9be5-4e5b-a6f1-00d4d469d483","ios":"levelo://app?vid=5240181a-9be5-4e5b-a6f1-00d4d469d483"},"vehicle_type_id":"4","last_reported":1732277907,"current_range_meters":24800,"station_id":"ce4bgl92rcd13ifvqbq0","pricing_plan_id":"cebpf4jnsgd1na2vs0mg"},{"bike_id":"6b2e8969-1042-401a-b53b-d0bc7d01ad81","system_id":"levelo_inurba_marseille","lat":43.30586,"lon":5.37222,"is_reserved":false,"is_disabled":false,"rental_uris":{"android":"levelo://app?vid=6b2e8969-1042-401a-b53b-d0bc7d01ad81","ios":"levelo://app?vid=6b2e8969-1042-401a-b53b-d0bc7d01ad81"},"vehicle_type_id":"4","last_reported":1732277907,"current_range_meters":37600,"station_id":"ce4bgqh2rcd13ifvqc4g","pricing_plan_id":"cebpf4jnsgd1na2vs0mg"},{"bike_id":"7ce84f26-2814-4e91-aa59-8e417c3f639c","system_id":"levelo_inurba_marseille","lat":43.25577,"lon":5.38234,"is_reserved":false,"is_disabled":false,"rental_uris":{"android":"levelo://app?vid=7ce84f26-2814-4e91-aa59-8e417c3f639c","ios":"levelo://app?vid=7ce84f26-2814-4e91-aa59-8e417c3f639c"},"vehicle_type_id":"4","last_reported":1732277907,"current_range_meters":38000,"station_id":"ce4bhih2rcd13ifvqfs0","pricing_plan_id":"cebpf4jnsgd1na2vs0mg"},{"bike_id":"93632465-b062-40a8-b2b9-0dad6e04db5e","system_id":"levelo_inurba_marseille","lat":43.32543,"lon":5.41451,"is_reserved":false,"is_disabled":false,"rental_uris":{"android":"levelo://app?vid=93632465-b062-40a8-b2b9-0dad6e04db5e","ios":"levelo://app?vid=93632465-b062-40a8-b2b9-0dad6e04db5e"},"vehicle_type_id":"4","last_reported":1732277907,"current_range_meters":14400,"station_id":"ce4bhq12rcd13ifvqhhg","pricing_plan_id":"cebpf4jnsgd1na2vs0mg"},{"bike_id":"fd499ad1-bfa4-45dd-8213-195929cc95fe","system_id":"levelo_inurba_marseille","lat":43.30591,"lon":5.39362,"is_reserved":false,"is_disabled":false,"rental_uris":{"android":"levelo://app?vid=fd499ad1-bfa4-45dd-8213-195929cc95fe","ios":"levelo://app?vid=fd499ad1-bfa4-45dd-8213-195929cc95fe"},"vehicle_type_id":"4","last_reported":1732277907,"current_range_meters":10000,"station_id":"ce4bh0p2rcd13ifvqd80","pricing_plan_id":"cebpf4jnsgd1na2vs0mg"},{"bike_id":"88599735-1498-4193-81aa-d866a2e19f12","system_id":"levelo_inurba_marseille","lat":43.28365,"lon":5.38638,"is_reserved":false,"is_disabled":false,"rental_uris":{"android":"levelo://app?vid=88599735-1498-4193-81aa-d866a2e19f12","ios":"levelo://app?vid=88599735-1498-4193-81aa-d866a2e19f12"},"vehicle_type_id":"4","last_reported":1732277907,"current_range_meters":38800,"station_id":"ce4bh492rcd13ifvqdvg","pricing_plan_id":"cebpf4jnsgd1na2vs0mg"},{"bike_id":"e5951ee3-4a5a-4ebb-b469-096c5188dfa3","system_id":"levelo_inurba_marseille","lat":43.23187,"lon":5.35555,"is_reserved":false,"is_disabled":false,"rental_uris":{"android":"levelo://app?vid=e5951ee3-4a5a-4ebb-b469-096c5188dfa3","ios":"levelo://app?vid=e5951ee3-4a5a-4ebb-b469-096c5188dfa3"},"vehicle_type_id":"4","last_reported":1732277907,"current_range_meters":28800,"station_id":"ce4bhu92rcd13ifvqi70","pricing_plan_id":"cebpf4jnsgd1na2vs0mg"},{"bike_id":"aa504069-81dd-4b94-821f-6e11da8cbfe0","system_id":"levelo_inurba_marseille","lat":43.26552,"lon":5.37286,"is_reserved":false,"is_disabled":false,"rental_uris":{"android":"levelo://app?vid=aa504069-81dd-4b94-821f-6e11da8cbfe0","ios":"levelo://app?vid=aa504069-81dd-4b94-821f-6e11da8cbfe0"},"vehicle_type_id":"4","last_reported":1732277907,"current_range_meters":24000,"station_id":"ce4bhg12rcd13ifvqf70","pricing_plan_id":"cebpf4jnsgd1na2vs0mg"},{"bike_id":"8d13985d-3bdf-49ab-9373-fe6216716dff","system_id":"levelo_inurba_marseille","lat":43.2746,"lon":5.39015,"is_reserved":false,"is_disabled":false,"rental_uris":{"android":"levelo://app?vid=8d13985d-3bdf-49ab-9373-fe6216716dff","ios":"levelo://app?vid=8d13985d-3bdf-49ab-9373-fe6216716dff"},"vehicle_type_id":"4","last_reported":1732277907,"current_range_meters":30400,"station_id":"","pricing_plan_id":"cebpf4jnsgd1na2vs0mg"},{"bike_id":"598543c3-4504-4ea3-976e-b45e767de5ed","system_id":"levelo_inurba_marseille","lat":43.32367,"lon":5.38878,"is_reserved":false,"is_disabled":false,"rental_uris":{"android":"levelo://app?vid=598543c3-4504-4ea3-976e-b45e767de5ed","ios":"levelo://app?vid=598543c3-4504-4ea3-976e-b45e767de5ed"},"vehicle_type_id":"4","last_reported":1732277907,"current_range_meters":36400,"station_id":"ce4bhqp2rcd13ifvqhog","pricing_plan_id":"cebpf4jnsgd1na2vs0mg"},{"bike_id":"c2c6c44c-0f9d-4f2b-8377-054d29571be0","system_id":"levelo_inurba_marseille","lat":43.32663,"lon":5.40987,"is_reserved":false,"is_disabled":false,"rental_uris":{"android":"levelo://app?vid=c2c6c44c-0f9d-4f2b-8377-054d29571be0","ios":"levelo://app?vid=c2c6c44c-0f9d-4f2b-8377-054d29571be0"},"vehicle_type_id":"4","last_reported":1732277907,"current_range_meters":38000,"station_id":"ce4bhpp2rcd13ifvqhgg","pricing_plan_id":"cebpf4jnsgd1na2vs0mg"},{"bike_id":"44abef4f-7bb3-417f-9f17-632a234b6e5d","system_id":"levelo_inurba_marseille","lat":43.32102,"lon":5.36772,"is_reserved":false,"is_disabled":false,"rental_uris":{"android":"levelo://app?vid=44abef4f-7bb3-417f-9f17-632a234b6e5d","ios":"levelo://app?vid=44abef4f-7bb3-417f-9f17-632a234b6e5d"},"vehicle_type_id":"4","last_reported":1732277907,"current_range_meters":23200,"station_id":"ce4bhrh2rcd13ifvqhug","pricing_plan_id":"cebpf4jnsgd1na2vs0mg"},{"bike_id":"830ab6f1-9f97-4b81-a374-96032fba99d2","system_id":"levelo_inurba_marseille","lat":43.24478,"lon":5.3692,"is_reserved":false,"is_disabled":true,"rental_uris":{"android":"levelo://app?vid=830ab6f1-9f97-4b81-a374-96032fba99d2","ios":"levelo://app?vid=830ab6f1-9f97-4b81-a374-96032fba99d2"},"vehicle_type_id":"4","last_reported":1732277907,"current_range_meters":26800,"station_id":"","pricing_plan_id":"cebpf4jnsgd1na2vs0mg"},{"bike_id":"6c948e9c-d5b3-4fe5-a918-1bd2f7c83b02","system_id":"levelo_inurba_marseille","lat":43.3211,"lon":5.36773,"is_reserved":false,"is_disabled":false,"rental_uris":{"android":"levelo://app?vid=6c948e9c-d5b3-4fe5-a918-1bd2f7c83b02","ios":"levelo://app?vid=6c948e9c-d5b3-4fe5-a918-1bd2f7c83b02"},"vehicle_type_id":"4","last_reported":1732277907,"current_range_meters":37600,"station_id":"ce4bhrh2rcd13ifvqhug","pricing_plan_id":"cebpf4jnsgd1na2vs0mg"},{"bike_id":"9e620abf-d324-4f99-84fc-d67e71109f2a","system_id":"levelo_inurba_marseille","lat":43.31078,"lon":5.42428,"is_reserved":false,"is_disabled":true,"rental_uris":{"android":"levelo://app?vid=9e620abf-d324-4f99-84fc-d67e71109f2a","ios":"levelo://app?vid=9e620abf-d324-4f99-84fc-d67e71109f2a"},"vehicle_type_id":"4","last_reported":1732277907,"current_range_meters":5600,"station_id":"ce4bhp92rcd13ifvqhag","pricing_plan_id":"cebpf4jnsgd1na2vs0mg"},{"bike_id":"b299f027-89de-4c2a-8dc3-a6213bfec1ab","system_id":"levelo_inurba_marseille","lat":43.3414,"lon":5.40912,"is_reserved":false,"is_disabled":false,"rental_uris":{"android":"levelo://app?vid=b299f027-89de-4c2a-8dc3-a6213bfec1ab","ios":"levelo://app?vid=b299f027-89de-4c2a-8dc3-a6213bfec1ab"},"vehicle_type_id":"4","last_reported":1732277907,"current_range_meters":18000,"station_id":"ce4bhqh2rcd13ifvqhlg","pricing_plan_id":"cebpf4jnsgd1na2vs0mg"},{"bike_id":"9f1a6fc0-500d-4d6c-8b23-95f788123526","system_id":"levelo_inurba_marseille","lat":43.29574,"lon":5.37503,"is_reserved":false,"is_disabled":false,"rental_uris":{"android":"levelo://app?vid=9f1a6fc0-500d-4d6c-8b23-95f788123526","ios":"levelo://app?vid=9f1a6fc0-500d-4d6c-8b23-95f788123526"},"vehicle_type_id":"4","last_reported":1732277907,"current_range_meters":40000,"station_id":"ce4bgh92rcd13ifvqb50","pricing_plan_id":"cebpf4jnsgd1na2vs0mg"},{"bike_id":"d6fc6fce-c2c4-49d7-b003-ce1d1b0fbe0e","system_id":"levelo_inurba_marseille","lat":43.25117,"lon":5.40316,"is_reserved":false,"is_disabled":false,"rental_uris":{"android":"levelo://app?vid=d6fc6fce-c2c4-49d7-b003-ce1d1b0fbe0e","ios":"levelo://app?vid=d6fc6fce-c2c4-49d7-b003-ce1d1b0fbe0e"},"vehicle_type_id":"4","last_reported":1732277907,"current_range_meters":12400,"station_id":"ce4bhlh2rcd13ifvqgig","pricing_plan_id":"cebpf4jnsgd1na2vs0mg"},{"bike_id":"37b6d4f4-662d-4bc2-957b-f7d669af0480","system_id":"levelo_inurba_marseille","lat":43.29579,"lon":5.36732,"is_reserved":false,"is_disabled":false,"rental_uris":{"android":"levelo://app?vid=37b6d4f4-662d-4bc2-957b-f7d669af0480","ios":"levelo://app?vid=37b6d4f4-662d-4bc2-957b-f7d669af0480"},"vehicle_type_id":"4","last_reported":1732277907,"current_range_meters":29600,"station_id":"ce4bgph2rcd13ifvqc2g","pricing_plan_id":"cebpf4jnsgd1na2vs0mg"},{"bike_id":"786a4bdb-f84d-48f1-b324-d446110c012a","system_id":"levelo_inurba_marseille","lat":43.3059,"lon":5.37233,"is_reserved":false,"is_disabled":false,"rental_uris":{"android":"levelo://app?vid=786a4bdb-f84d-48f1-b324-d446110c012a","ios":"levelo://app?vid=786a4bdb-f84d-48f1-b324-d446110c012a"},"vehicle_type_id":"4","last_reported":1732277907,"current_range_meters":9200,"station_id":"ce4bgqh2rcd13ifvqc4g","pricing_plan_id":"cebpf4jnsgd1na2vs0mg"},{"bike_id":"5c53cfbd-2547-413a-b79a-f8cc3b1ca992","system_id":"levelo_inurba_marseille","lat":43.3211,"lon":5.36781,"is_reserved":false,"is_disabled":false,"rental_uris":{"android":"levelo://app?vid=5c53cfbd-2547-413a-b79a-f8cc3b1ca992","ios":"levelo://app?vid=5c53cfbd-2547-413a-b79a-f8cc3b1ca992"},"vehicle_type_id":"4","last_reported":1732277907,"current_range_meters":16800,"station_id":"ce4bhrh2rcd13ifvqhug","pricing_plan_id":"cebpf4jnsgd1na2vs0mg"},{"bike_id":"5f4ac3cc-bda5-44b5-92f4-d0063a57d339","system_id":"levelo_inurba_marseille","lat":43.26224,"lon":5.37446,"is_reserved":false,"is_disabled":false,"rental_uris":{"android":"levelo://app?vid=5f4ac3cc-bda5-44b5-92f4-d0063a57d339","ios":"levelo://app?vid=5f4ac3cc-bda5-44b5-92f4-d0063a57d339"},"vehicle_type_id":"4","last_reported":1732277907,"current_range_meters":38000,"station_id":"ce4bhgp2rcd13ifvqfc0","pricing_plan_id":"cebpf4jnsgd1na2vs0mg"},{"bike_id":"b5db3694-78cb-43d7-88d8-c6d9e5b1eca1","system_id":"levelo_inurba_marseille","lat":43.27815,"lon":5.40709,"is_reserved":false,"is_disabled":false,"rental_uris":{"android":"levelo://app?vid=b5db3694-78cb-43d7-88d8-c6d9e5b1eca1","ios":"levelo://app?vid=b5db3694-78cb-43d7-88d8-c6d9e5b1eca1"},"vehicle_type_id":"4","last_reported":1732277907,"current_range_meters":20400,"station_id":"ce4bhnh2rcd13ifvqgtg","pricing_plan_id":"cebpf4jnsgd1na2vs0mg"},{"bike_id":"ced939b2-a2ab-40e5-b140-575509bab6d1","system_id":"levelo_inurba_marseille","lat":43.33023,"lon":5.39028,"is_reserved":false,"is_disabled":false,"rental_uris":{"android":"levelo://app?vid=ced939b2-a2ab-40e5-b140-575509bab6d1","ios":"levelo://app?vid=ced939b2-a2ab-40e5-b140-575509bab6d1"},"vehicle_type_id":"4","last_reported":1732277907,"current_range_meters":16400,"station_id":"ce4bhr92rcd13ifvqhrg","pricing_plan_id":"cebpf4jnsgd1na2vs0mg"},{"bike_id":"8d21c79a-76f4-4d7f-a61f-7bf72b7875a6","system_id":"levelo_inurba_marseille","lat":43.31526,"lon":5.38039,"is_reserved":false,"is_disabled":false,"rental_uris":{"android":"levelo://app?vid=8d21c79a-76f4-4d7f-a61f-7bf72b7875a6","ios":"levelo://app?vid=8d21c79a-76f4-4d7f-a61f-7bf72b7875a6"},"vehicle_type_id":"4","last_reported":1732277907,"current_range_meters":22400,"station_id":"ce4bhsp2rcd13ifvqi50","pricing_plan_id":"cebpf4jnsgd1na2vs0mg"},{"bike_id":"c39d2a6b-971a-4102-af38-404b98ad453d","system_id":"levelo_inurba_marseille","lat":43.29302,"lon":5.37178,"is_reserved":false,"is_disabled":false,"rental_uris":{"android":"levelo://app?vid=c39d2a6b-971a-4102-af38-404b98ad453d","ios":"levelo://app?vid=c39d2a6b-971a-4102-af38-404b98ad453d"},"vehicle_type_id":"4","last_reported":1732277907,"current_range_meters":24000,"station_id":"ce4bgh92rcd13ifvqb40","pricing_plan_id":"cebpf4jnsgd1na2vs0mg"},{"bike_id":"4024c177-e689-450a-884b-5392fcf58a24","system_id":"levelo_inurba_marseille","lat":43.32287,"lon":5.38256,"is_reserved":false,"is_disabled":false,"rental_uris":{"android":"levelo://app?vid=4024c177-e689-450a-884b-5392fcf58a24","ios":"levelo://app?vid=4024c177-e689-450a-884b-5392fcf58a24"},"vehicle_type_id":"4","last_reported":1732277907,"current_range_meters":38800,"station_id":"ce4bhr12rcd13ifvqhqg","pricing_plan_id":"cebpf4jnsgd1na2vs0mg"},{"bike_id":"b5f1e1e2-bbf2-43c1-aa6b-c0a3c849a5ec","system_id":"levelo_inurba_marseille","lat":43.30472,"lon":5.37906,"is_reserved":false,"is_disabled":false,"rental_uris":{"android":"levelo://app?vid=b5f1e1e2-bbf2-43c1-aa6b-c0a3c849a5ec","ios":"levelo://app?vid=b5f1e1e2-bbf2-43c1-aa6b-c0a3c849a5ec"},"vehicle_type_id":"4","last_reported":1732277907,"current_range_meters":38800,"station_id":"ce4bgup2rcd13ifvqcn0","pricing_plan_id":"cebpf4jnsgd1na2vs0mg"},{"bike_id":"5a47a1f0-8e68-42d5-826c-8622b7bbc8c0","system_id":"levelo_inurba_marseille","lat":43.27808,"lon":5.40712,"is_reserved":false,"is_disabled":true,"rental_uris":{"android":"levelo://app?vid=5a47a1f0-8e68-42d5-826c-8622b7bbc8c0","ios":"levelo://app?vid=5a47a1f0-8e68-42d5-826c-8622b7bbc8c0"},"vehicle_type_id":"4","last_reported":1732277907,"current_range_meters":18800,"station_id":"ce4bhnh2rcd13ifvqgtg","pricing_plan_id":"cebpf4jnsgd1na2vs0mg"},{"bike_id":"5b2db61c-5426-4154-b5b4-b345f779cabe","system_id":"levelo_inurba_marseille","lat":43.269745,"lon":5.386737,"is_reserved":false,"is_disabled":false,"rental_uris":{"android":"levelo://app?vid=5b2db61c-5426-4154-b5b4-b345f779cabe","ios":"levelo://app?vid=5b2db61c-5426-4154-b5b4-b345f779cabe"},"vehicle_type_id":"4","last_reported":1732277907,"current_range_meters":36400,"station_id":"","pricing_plan_id":"cebpf4jnsgd1na2vs0mg"},{"bike_id":"d00ecf84-bb74-4a20-946e-9b530a4c6433","system_id":"levelo_inurba_marseille","lat":43.26932,"lon":5.3891,"is_reserved":false,"is_disabled":false,"rental_uris":{"android":"levelo://app?vid=d00ecf84-bb74-4a20-946e-9b530a4c6433","ios":"levelo://app?vid=d00ecf84-bb74-4a20-946e-9b530a4c6433"},"vehicle_type_id":"4","last_reported":1732277907,"current_range_meters":38800,"station_id":"ce4bhhh2rcd13ifvqfl0","pricing_plan_id":"cebpf4jnsgd1na2vs0mg"},{"bike_id":"db68c632-864f-4816-a385-7b854b4a7b78","system_id":"levelo_inurba_marseille","lat":43.25935,"lon":5.40909,"is_reserved":false,"is_disabled":false,"rental_uris":{"android":"levelo://app?vid=db68c632-864f-4816-a385-7b854b4a7b78","ios":"levelo://app?vid=db68c632-864f-4816-a385-7b854b4a7b78"},"vehicle_type_id":"4","last_reported":1732277907,"current_range_meters":38400,"station_id":"ce4bhm92rcd13ifvqglg","pricing_plan_id":"cebpf4jnsgd1na2vs0mg"},{"bike_id":"85b8d2a4-97cc-437b-a96b-ad659622997f","system_id":"levelo_inurba_marseille","lat":43.30593,"lon":5.39356,"is_reserved":false,"is_disabled":false,"rental_uris":{"android":"levelo://app?vid=85b8d2a4-97cc-437b-a96b-ad659622997f","ios":"levelo://app?vid=85b8d2a4-97cc-437b-a96b-ad659622997f"},"vehicle_type_id":"4","last_reported":1732277907,"current_range_meters":39200,"station_id":"ce4bh0p2rcd13ifvqd80","pricing_plan_id":"cebpf4jnsgd1na2vs0mg"},{"bike_id":"89429ed2-f839-4749-bcb9-3e5230fe3bfb","system_id":"levelo_inurba_marseille","lat":43.33723,"lon":5.39177,"is_reserved":false,"is_disabled":false,"rental_uris":{"android":"levelo://app?vid=89429ed2-f839-4749-bcb9-3e5230fe3bfb","ios":"levelo://app?vid=89429ed2-f839-4749-bcb9-3e5230fe3bfb"},"vehicle_type_id":"4","last_reported":1732277907,"current_range_meters":38000,"station_id":"ce4bhr92rcd13ifvqhsg","pricing_plan_id":"cebpf4jnsgd1na2vs0mg"},{"bike_id":"c8db655f-b3df-4bb3-b835-fb06b95a1b22","system_id":"levelo_inurba_marseille","lat":43.29616,"lon":5.40134,"is_reserved":false,"is_disabled":false,"rental_uris":{"android":"levelo://app?vid=c8db655f-b3df-4bb3-b835-fb06b95a1b22","ios":"levelo://app?vid=c8db655f-b3df-4bb3-b835-fb06b95a1b22"},"vehicle_type_id":"4","last_reported":1732277907,"current_range_meters":10000,"station_id":"","pricing_plan_id":"cebpf4jnsgd1na2vs0mg"},{"bike_id":"b4fe0755-10ca-4bb9-a6cc-b9e17c5383a3","system_id":"levelo_inurba_marseille","lat":43.336047,"lon":5.410376,"is_reserved":false,"is_disabled":false,"rental_uris":{"android":"levelo://app?vid=b4fe0755-10ca-4bb9-a6cc-b9e17c5383a3","ios":"levelo://app?vid=b4fe0755-10ca-4bb9-a6cc-b9e17c5383a3"},"vehicle_type_id":"4","last_reported":1732277907,"current_range_meters":38800,"station_id":"ce4bhqh2rcd13ifvqhmg","pricing_plan_id":"cebpf4jnsgd1na2vs0mg"},{"bike_id":"239b092c-2b98-4a58-8cbf-7fb27a995939","system_id":"levelo_inurba_marseille","lat":43.28676,"lon":5.36351,"is_reserved":false,"is_disabled":false,"rental_uris":{"android":"levelo://app?vid=239b092c-2b98-4a58-8cbf-7fb27a995939","ios":"levelo://app?vid=239b092c-2b98-4a58-8cbf-7fb27a995939"},"vehicle_type_id":"4","last_reported":1732277907,"current_range_meters":19200,"station_id":"ce4bhah2rcd13ifvqej0","pricing_plan_id":"cebpf4jnsgd1na2vs0mg"},{"bike_id":"6965c515-9b58-41fc-be4e-6e6a11fe13d3","system_id":"levelo_inurba_marseille","lat":43.30894,"lon":5.36848,"is_reserved":false,"is_disabled":false,"rental_uris":{"android":"levelo://app?vid=6965c515-9b58-41fc-be4e-6e6a11fe13d3","ios":"levelo://app?vid=6965c515-9b58-41fc-be4e-6e6a11fe13d3"},"vehicle_type_id":"4","last_reported":1732277907,"current_range_meters":24400,"station_id":"ce4bgn92rcd13ifvqbvg","pricing_plan_id":"cebpf4jnsgd1na2vs0mg"},{"bike_id":"304ef428-9450-440f-a8db-1138e82ecbd5","system_id":"levelo_inurba_marseille","lat":43.25939,"lon":5.40906,"is_reserved":false,"is_disabled":false,"rental_uris":{"android":"levelo://app?vid=304ef428-9450-440f-a8db-1138e82ecbd5","ios":"levelo://app?vid=304ef428-9450-440f-a8db-1138e82ecbd5"},"vehicle_type_id":"4","last_reported":1732277907,"current_range_meters":36000,"station_id":"ce4bhm92rcd13ifvqglg","pricing_plan_id":"cebpf4jnsgd1na2vs0mg"},{"bike_id":"86569c6c-8d4d-4ab6-bb4f-6a83aeeb3ca5","system_id":"levelo_inurba_marseille","lat":43.28724,"lon":5.36081,"is_reserved":false,"is_disabled":false,"rental_uris":{"android":"levelo://app?vid=86569c6c-8d4d-4ab6-bb4f-6a83aeeb3ca5","ios":"levelo://app?vid=86569c6c-8d4d-4ab6-bb4f-6a83aeeb3ca5"},"vehicle_type_id":"4","last_reported":1732277907,"current_range_meters":28000,"station_id":"cki0cbj6b192h4jlfktg","pricing_plan_id":"cebpf4jnsgd1na2vs0mg"},{"bike_id":"552cb5da-ef70-4b28-b6ea-98400527c222","system_id":"levelo_inurba_marseille","lat":43.26057,"lon":5.394,"is_reserved":false,"is_disabled":false,"rental_uris":{"android":"levelo://app?vid=552cb5da-ef70-4b28-b6ea-98400527c222","ios":"levelo://app?vid=552cb5da-ef70-4b28-b6ea-98400527c222"},"vehicle_type_id":"4","last_reported":1732277907,"current_range_meters":38800,"station_id":"ce4bhh92rcd13ifvqfj0","pricing_plan_id":"cebpf4jnsgd1na2vs0mg"},{"bike_id":"2aae44db-3739-4b6b-bf4c-a956733e3a88","system_id":"levelo_inurba_marseille","lat":43.28617,"lon":5.35099,"is_reserved":false,"is_disabled":false,"rental_uris":{"android":"levelo://app?vid=2aae44db-3739-4b6b-bf4c-a956733e3a88","ios":"levelo://app?vid=2aae44db-3739-4b6b-bf4c-a956733e3a88"},"vehicle_type_id":"4","last_reported":1732277907,"current_range_meters":36400,"station_id":"ce4bhch2rcd13ifvqeug","pricing_plan_id":"cebpf4jnsgd1na2vs0mg"},{"bike_id":"55591ab3-1ca4-4172-9acd-f32f39bf6fe6","system_id":"levelo_inurba_marseille","lat":43.28456,"lon":5.35895,"is_reserved":false,"is_disabled":false,"rental_uris":{"android":"levelo://app?vid=55591ab3-1ca4-4172-9acd-f32f39bf6fe6","ios":"levelo://app?vid=55591ab3-1ca4-4172-9acd-f32f39bf6fe6"},"vehicle_type_id":"4","last_reported":1732277907,"current_range_meters":27200,"station_id":"ce4bhah2rcd13ifvqei0","pricing_plan_id":"cebpf4jnsgd1na2vs0mg"},{"bike_id":"40191457-cce3-490d-a141-5a0449d2f1c2","system_id":"levelo_inurba_marseille","lat":43.30043,"lon":5.37445,"is_reserved":false,"is_disabled":false,"rental_uris":{"android":"levelo://app?vid=40191457-cce3-490d-a141-5a0449d2f1c2","ios":"levelo://app?vid=40191457-cce3-490d-a141-5a0449d2f1c2"},"vehicle_type_id":"4","last_reported":1732277907,"current_range_meters":22800,"station_id":"","pricing_plan_id":"cebpf4jnsgd1na2vs0mg"},{"bike_id":"7770b1cc-2a54-4d08-8255-6bed2fc397aa","system_id":"levelo_inurba_marseille","lat":43.23201,"lon":5.35555,"is_reserved":false,"is_disabled":false,"rental_uris":{"android":"levelo://app?vid=7770b1cc-2a54-4d08-8255-6bed2fc397aa","ios":"levelo://app?vid=7770b1cc-2a54-4d08-8255-6bed2fc397aa"},"vehicle_type_id":"4","last_reported":1732277907,"current_range_meters":10800,"station_id":"ce4bhu92rcd13ifvqi70","pricing_plan_id":"cebpf4jnsgd1na2vs0mg"},{"bike_id":"e397b035-09df-4dd9-869c-705b86271e7b","system_id":"levelo_inurba_marseille","lat":43.30557,"lon":5.36528,"is_reserved":false,"is_disabled":false,"rental_uris":{"android":"levelo://app?vid=e397b035-09df-4dd9-869c-705b86271e7b","ios":"levelo://app?vid=e397b035-09df-4dd9-869c-705b86271e7b"},"vehicle_type_id":"4","last_reported":1732277907,"current_range_meters":25200,"station_id":"ce4bgs12rcd13ifvqcag","pricing_plan_id":"cebpf4jnsgd1na2vs0mg"},{"bike_id":"8432466c-e37d-417c-a08e-8665ec8053f3","system_id":"levelo_inurba_marseille","lat":43.27975,"lon":5.38751,"is_reserved":false,"is_disabled":false,"rental_uris":{"android":"levelo://app?vid=8432466c-e37d-417c-a08e-8665ec8053f3","ios":"levelo://app?vid=8432466c-e37d-417c-a08e-8665ec8053f3"},"vehicle_type_id":"4","last_reported":1732277907,"current_range_meters":6800,"station_id":"ce4bhg12rcd13ifvqf80","pricing_plan_id":"cebpf4jnsgd1na2vs0mg"},{"bike_id":"1d61d0a6-071f-4b25-b174-a96d213646c9","system_id":"levelo_inurba_marseille","lat":43.27374,"lon":5.36253,"is_reserved":false,"is_disabled":false,"rental_uris":{"android":"levelo://app?vid=1d61d0a6-071f-4b25-b174-a96d213646c9","ios":"levelo://app?vid=1d61d0a6-071f-4b25-b174-a96d213646c9"},"vehicle_type_id":"4","last_reported":1732277907,"current_range_meters":2800,"station_id":"ce4bhbh2rcd13ifvqeo0","pricing_plan_id":"cebpf4jnsgd1na2vs0mg"},{"bike_id":"fdaf890b-328d-4c6c-b370-bc14721c2873","system_id":"levelo_inurba_marseille","lat":43.25818,"lon":5.39435,"is_reserved":false,"is_disabled":true,"rental_uris":{"android":"levelo://app?vid=fdaf890b-328d-4c6c-b370-bc14721c2873","ios":"levelo://app?vid=fdaf890b-328d-4c6c-b370-bc14721c2873"},"vehicle_type_id":"4","last_reported":1732277907,"current_range_meters":0,"station_id":"ce4bhip2rcd13ifvqft0","pricing_plan_id":"cebpf4jnsgd1na2vs0mg"},{"bike_id":"1ab4519b-c1c8-47d5-bca5-e407b78cd414","system_id":"levelo_inurba_marseille","lat":43.31998,"lon":5.38163,"is_reserved":false,"is_disabled":false,"rental_uris":{"android":"levelo://app?vid=1ab4519b-c1c8-47d5-bca5-e407b78cd414","ios":"levelo://app?vid=1ab4519b-c1c8-47d5-bca5-e407b78cd414"},"vehicle_type_id":"4","last_reported":1732277907,"current_range_meters":30000,"station_id":"ce4bhr12rcd13ifvqhpg","pricing_plan_id":"cebpf4jnsgd1na2vs0mg"},{"bike_id":"4c63049a-3544-4c1c-b1a4-2cab585825a7","system_id":"levelo_inurba_marseille","lat":43.29611,"lon":5.37727,"is_reserved":false,"is_disabled":false,"rental_uris":{"android":"levelo://app?vid=4c63049a-3544-4c1c-b1a4-2cab585825a7","ios":"levelo://app?vid=4c63049a-3544-4c1c-b1a4-2cab585825a7"},"vehicle_type_id":"4","last_reported":1732277907,"current_range_meters":38400,"station_id":"ce4bgi92rcd13ifvqb90","pricing_plan_id":"cebpf4jnsgd1na2vs0mg"},