{"last_updated":1751437044,"ttl":60,"version":"2.2","data":{"bikes":[{"bike_id":"3da29fb8-fc97-44c6-b9ac-31dd456b2fd4","system_id":"levelo_inurba_marseille","lat":43.33771,"lon":5.37424,"is_reserved":false,"is_disabled":true,"rental_uris":{"android":"levelo://app?vid=3da29fb8-fc97-44c6-b9ac-31dd456b2fd4","ios":"levelo://app?vid=3da29fb8-fc97-44c6-b9ac-31dd456b2fd4"},"vehicle_type_id":"4","last_reported":1751437045,"current_range_meters":0,"station_id":"","pricing_plan_id":"cebpf4jnsgd1na2vs0mg"},{"bike_id":"01861ad8-a8d7-4be6-816e-651927c87584","system_id":"levelo_inurba_marseille","lat":43.33751,"lon":5.37456,"is_reserved":false,"is_disabled":true,"rental_uris":{"android":"levelo://app?vid=01861ad8-a8d7-4be6-816e-651927c87584","ios":"levelo://app?vid=01861ad8-a8d7-4be6-816e-651927c87584"},"vehicle_type_id":"4","last_reported":1751437045,"current_range_meters":0,"station_id":"","pricing_plan_id":"cebpf4jnsgd1na2vs0mg"},{"bike_id":"3168b9fb-97d2-4a0e-b7ee-673bb8cf7525","system_id":"levelo_inurba_marseille","lat":43.277663,"lon":5.355756,"is_reserved":false,"is_disabled":true,"rental_uris":{"android":"levelo://app?vid=3168b9fb-97d2-4a0e-b7ee-673bb8cf7525","ios":"levelo://app?vid=3168b9fb-97d2-4a0e-b7ee-673bb8cf7525"},"vehicle_type_id":"4","last_reported":1751437045,"current_range_meters":0,"station_id":"","pricing_plan_id":"cebpf4jnsgd1na2vs0mg"},{"bike_id":"a0c739b7-33d0-407a-9ce5-2e701bb7e0fe","system_id":"levelo_inurba_marseille","lat":43.269908,"lon":5.431515,"is_reserved":false,"is_disabled":true,"rental_uris":{"android":"levelo://app?vid=a0c739b7-33d0-407a-9ce5-2e701bb7e0fe","ios":"levelo://app?vid=a0c739b7-33d0-407a-9ce5-2e701bb7e0fe"},"vehicle_type_id":"4","last_reported":1751437045,"current_range_meters":0,"station_id":"","pricing_plan_id":"cebpf4jnsgd1na2vs0mg"},{"bike_id":"3378c13c-e4e0-45be-9bfe-f3a4bc2c600e","system_id":"levelo_inurba_marseille","lat":43.297795,"lon":5.460167,"is_reserved":false,"is_disabled":true,"rental_uris":{"android":"levelo://app?vid=3378c13c-e4e0-45be-9bfe-f3a4bc2c600e","ios":"levelo://app?vid=3378c13c-e4e0-45be-9bfe-f3a4bc2c600e"},"vehicle_type_id":"4","last_reported":1751437045,"current_range_meters":0,"station_id":"","pricing_plan_id":"cebpf4jnsgd1na2vs0mg"},{"bike_id":"2ccccc82-c8a9-4c3b-909d-52c0bf697aa3","system_id":"levelo_inurba_marseille","lat":43.27603,"lon":5.35867,"is_reserved":false,"is_disabled":true,"rental_uris":{"android":"levelo://app?vid=2ccccc82-c8a9-4c3b-909d-52c0bf697aa3","ios":"levelo://app?vid=2ccccc82-c8a9-4c3b-909d-52c0bf697aa3"},"vehicle_type_id":"4","last_reported":1751437045,"current_range_meters":0,"station_id":"","pricing_plan_id":"cebpf4jnsgd1na2vs0mg"},{"bike_id":"f4c3bf38-9763-45a3-be90-5e6bfe303582","system_id":"levelo_inurba_marseille","lat":43.32733,"lon":5.36657,"is_reserved":false,"is_disabled":true,"rental_uris":{"android":"levelo://app?vid=f4c3bf38-9763-45a3-be90-5e6bfe303582","ios":"levelo://app?vid=f4c3bf38-9763-45a3-be90-5e6bfe303582"},"vehicle_type_id":"4","last_reported":1751437045,"current_range_meters":0,"station_id":"","pricing_plan_id":"cebpf4jnsgd1na2vs0mg"},{"bike_id":"7547e1e4-2d85-4907-971d-6c8e5c4cb529","system_id":"levelo_inurba_marseille","lat":43.25364,"lon":5.37499,"is_reserved":false,"is_disabled":true,"rental_uris":{"android":"levelo://app?vid=7547e1e4-2d85-4907-971d-6c8e5c4cb529","ios":"levelo://app?vid=7547e1e4-2d85-4907-971d-6c8e5c4cb529"},"vehicle_type_id":"4","last_reported":1751437045,"current_range_meters":0,"station_id":"","pricing_plan_id":"cebpf4jnsgd1na2vs0mg"},{"bike_id":"2b79eac2-8d7f-455a-ab7b-57d1965acf5f","system_id":"levelo_inurba_marseille","lat":43.31986,"lon":5.38113,"is_reserved":false,"is_disabled":true,"rental_uris":{"android":"levelo://app?vid=2b79eac2-8d7f-455a-ab7b-57d1965acf5f","ios":"levelo://app?vid=2b79eac2-8d7f-455a-ab7b-57d1965acf5f"},"vehicle_type_id":"4","last_reported":1751437045,"current_range_meters":800,"station_id":"ce4bhr12rcd13ifvqhpg","pricing_plan_id":"cebpf4jnsgd1na2vs0mg"},{"bike_id":"d54d20e4-11f0-4db8-825e-01cd594caa7e","system_id":"levelo_inurba_marseille","lat":43.21749,"lon":5.34603,"is_reserved":false,"is_disabled":true,"rental_uris":{"android":"levelo://app?vid=d54d20e4-11f0-4db8-825e-01cd594caa7e","ios":"levelo://app?vid=d54d20e4-11f0-4db8-825e-01cd594caa7e"},"vehicle_type_id":"4","last_reported":1751437045,"current_range_meters":2000,"station_id":"","pricing_plan_id":"cebpf4jnsgd1na2vs0mg"},{"bike_id":"162af4e6-d224-4240-aeac-6cb0ae06de53","system_id":"levelo_inurba_marseille","lat":43.29909,"lon":5.37816,"is_reserved":false,"is_disabled":true,"rental_uris":{"android":"levelo://app?vid=162af4e6-d224-4240-aeac-6cb0ae06de53","ios":"levelo://app?vid=162af4e6-d224-4240-aeac-6cb0ae06de53"},"vehicle_type_id":"4","last_reported":1751437045,"current_range_meters":2000,"station_id":"","pricing_plan_id":"cebpf4jnsgd1na2vs0mg"},{"bike_id":"754343a6-eb52-4c16-91cb-4c257cf9bb72","system_id":"levelo_inurba_marseille","lat":43.31484,"lon":5.3731,"is_reserved":false,"is_disabled":true,"rental_uris":{"android":"levelo://app?vid=754343a6-eb52-4c16-91cb-4c257cf9bb72","ios":"levelo://app?vid=754343a6-eb52-4c16-91cb-4c257cf9bb72"},"vehicle_type_id":"4","last_reported":1751437045,"current_range_meters":2800,"station_id":"ce4bgt12rcd13ifvqcd0","pricing_plan_id":"cebpf4jnsgd1na2vs0mg"},{"bike_id":"21e2c51d-4563-4efd-afbf-0ddeff93c862","system_id":"levelo_inurba_marseille","lat":43.21761,"lon":5.34601,"is_reserved":false,"is_disabled":false,"rental_uris":{"android":"levelo://app?vid=21e2c51d-4563-4efd-afbf-0ddeff93c862","ios":"levelo://app?vid=21e2c51d-4563-4efd-afbf-0ddeff93c862"},"vehicle_type_id":"4","last_reported":1751437045,"current_range_meters":3200,"station_id":"st_cvj6r9ubvosntc0bgbag","pricing_plan_id":"cebpf4jnsgd1na2vs0mg"},{"bike_id":"9c17b5e7-ce14-4f93-aecc-823f855a019f","system_id":"levelo_inurba_marseille","lat":43.290487,"lon":5.405248,"is_reserved":false,"is_disabled":false,"rental_uris":{"android":"levelo://app?vid=9c17b5e7-ce14-4f93-aecc-823f855a019f","ios":"levelo://app?vid=9c17b5e7-ce14-4f93-aecc-823f855a019f"},"vehicle_type_id":"4","last_reported":1751437045,"current_range_meters":3600,"station_id":"","pricing_plan_id":"cebpf4jnsgd1na2vs0mg"},{"bike_id":"13624bb3-72a8-4556-9dfe-f9b87c8c465f","system_id":"levelo_inurba_marseille","lat":43.287122,"lon":5.389118,"is_reserved":false,"is_disabled":false,"rental_uris":{"android":"levelo://app?vid=13624bb3-72a8-4556-9dfe-f9b87c8c465f","ios":"levelo://app?vid=13624bb3-72a8-4556-9dfe-f9b87c8c465f"},"vehicle_type_id":"4","last_reported":1751437045,"current_range_meters":3600,"station_id":"","pricing_plan_id":"cebpf4jnsgd1na2vs0mg"},{"bike_id":"9e82f988-cbe8-4f4e-9b7b-c796647707c4","system_id":"levelo_inurba_marseille","lat":43.30281,"lon":5.37715,"is_reserved":false,"is_disabled":false,"rental_uris":{"android":"levelo://app?vid=9e82f988-cbe8-4f4e-9b7b-c796647707c4","ios":"levelo://app?vid=9e82f988-cbe8-4f4e-9b7b-c796647707c4"},"vehicle_type_id":"4","last_reported":1751437045,"current_range_meters":3600,"station_id":"ce4bguh2rcd13ifvqcj0","pricing_plan_id":"cebpf4jnsgd1na2vs0mg"},{"bike_id":"a2017121-8342-439c-9853-789b6ff0806f","system_id":"levelo_inurba_marseille","lat":43.211898,"lon":5.350678,"is_reserved":false,"is_disabled":false,"rental_uris":{"android":"levelo://app?vid=a2017121-8342-439c-9853-789b6ff0806f","ios":"levelo://app?vid=a2017121-8342-439c-9853-789b6ff0806f"},"vehicle_type_id":"4","last_reported":1751437045,"current_range_meters":4000,"station_id":"st_cvj6sg6p6f1abm77japg","pricing_plan_id":"cebpf4jnsgd1na2vs0mg"},{"bike_id":"43fcb430-53f7-4349-b49c-62f8e6ea8db4","system_id":"levelo_inurba_marseille","lat":43.28467,"lon":5.43707,"is_reserved":false,"is_disabled":false,"rental_uris":{"android":"levelo://app?vid=43fcb430-53f7-4349-b49c-62f8e6ea8db4","ios":"levelo://app?vid=43fcb430-53f7-4349-b49c-62f8e6ea8db4"},"vehicle_type_id":"4","last_reported":1751437045,"current_range_meters":4400,"station_id":"","pricing_plan_id":"cebpf4jnsgd1na2vs0mg"},{"bike_id":"a0cb861f-0701-4721-b694-8c9b01f40319","system_id":"levelo_inurba_marseille","lat":43.30466,"lon":5.37914,"is_reserved":false,"is_disabled":false,"rental_uris":{"android":"levelo://app?vid=a0cb861f-0701-4721-b694-8c9b01f40319","ios":"levelo://app?vid=a0cb861f-0701-4721-b694-8c9b01f40319"},"vehicle_type_id":"4","last_reported":1751437045,"current_range_meters":4800,"station_id":"ce4bgup2rcd13ifvqcn0","pricing_plan_id":"cebpf4jnsgd1na2vs0mg"},{"bike_id":"86c8e1a5-b5c2-42b1-99f8-14e6e2096d9b","system_id":"levelo_inurba_marseille","lat":43.31334,"lon":5.36711,"is_reserved":false,"is_disabled":false,"rental_uris":{"android":"levelo://app?vid=86c8e1a5-b5c2-42b1-99f8-14e6e2096d9b","ios":"levelo://app?vid=86c8e1a5-b5c2-42b1-99f8-14e6e2096d9b"},"vehicle_type_id":"4","last_reported":1751437045,"current_range_meters":5600,"station_id":"ce4bgr92rcd13ifvqc6g","pricing_plan_id":"cebpf4jnsgd1na2vs0mg"},{"bike_id":"5683d2b4-d960-4ce6-8162-df1a4f7e1426","system_id":"levelo_inurba_marseille","lat":43.310586,"lon":5.383499,"is_reserved":false,"is_disabled":false,"rental_uris":{"android":"levelo://app?vid=5683d2b4-d960-4ce6-8162-df1a4f7e1426","ios":"levelo://app?vid=5683d2b4-d960-4ce6-8162-df1a4f7e1426"},"vehicle_type_id":"4","last_reported":1751437045,"current_range_meters":5600,"station_id":"ce4bgv92rcd13ifvqcr0","pricing_plan_id":"cebpf4jnsgd1na2vs0mg"},{"bike_id":"e9497a27-6e1d-4fe1-b21d-2c97e21c8559","system_id":"levelo_inurba_marseille","lat":43.32059,"lon":5.41564,"is_reserved":false,"is_disabled":false,"rental_uris":{"android":"levelo://app?vid=e9497a27-6e1d-4fe1-b21d-2c97e21c8559","ios":"levelo://app?vid=e9497a27-6e1d-4fe1-b21d-2c97e21c8559"},"vehicle_type_id":"4","last_reported":1751437045,"current_range_meters":6000,"station_id":"ce4bhq92rcd13ifvqhkg","pricing_plan_id":"cebpf4jnsgd1na2vs0mg"},{"bike_id":"c37ea1d2-e116-4a5e-b3db-a06cc699c41d","system_id":"levelo_inurba_marseille","lat":43.30951,"lon":5.39038,"is_reserved":false,"is_disabled":false,"rental_uris":{"android":"levelo://app?vid=c37ea1d2-e116-4a5e-b3db-a06cc699c41d","ios":"levelo://app?vid=c37ea1d2-e116-4a5e-b3db-a06cc699c41d"},"vehicle_type_id":"4","last_reported":1751437045,"current_range_meters":6400,"station_id":"ce4bgup2rcd13ifvqco0","pricing_plan_id":"cebpf4jnsgd1na2vs0mg"},{"bike_id":"f6b1743e-c1bf-4c03-bce0-97ab9daf8280","system_id":"levelo_inurba_marseille","lat":43.24814,"lon":5.37455,"is_reserved":false,"is_disabled":false,"rental_uris":{"android":"levelo://app?vid=f6b1743e-c1bf-4c03-bce0-97ab9daf8280","ios":"levelo://app?vid=f6b1743e-c1bf-4c03-bce0-97ab9daf8280"},"vehicle_type_id":"4","last_reported":1751437045,"current_range_meters":6400,"station_id":"ce4bhgh2rcd13ifvqfb0","pricing_plan_id":"cebpf4jnsgd1na2vs0mg"},{"bike_id":"58e8b1e0-da6c-4e3d-a9b0-d1e850a6b512","system_id":"levelo_inurba_marseille","lat":43.32388,"lon":5.38881,"is_reserved":false,"is_disabled":false,"rental_uris":{"android":"levelo://app?vid=58e8b1e0-da6c-4e3d-a9b0-d1e850a6b512","ios":"levelo://app?vid=58e8b1e0-da6c-4e3d-a9b0-d1e850a6b512"},"vehicle_type_id":"4","last_reported":1751437045,"current_range_meters":6400,"station_id":"ce4bhqp2rcd13ifvqhog","pricing_plan_id":"cebpf4jnsgd1na2vs0mg"},{"bike_id":"8252b44a-d048-4379-9209-2efa2e627825","system_id":"levelo_inurba_marseille","lat":43.292266,"lon":5.405682,"is_reserved":false,"is_disabled":false,"rental_uris":{"android":"levelo://app?vid=8252b44a-d048-4379-9209-2efa2e627825","ios":"levelo://app?vid=8252b44a-d048-4379-9209-2efa2e627825"},"vehicle_type_id":"4","last_reported":1751437045,"current_range_meters":6800,"station_id":"","pricing_plan_id":"cebpf4jnsgd1na2vs0mg"},{"bike_id":"e9c52a79-aa16-4299-951c-5baf2536f930","system_id":"levelo_inurba_marseille","lat":43.30155,"lon":5.38079,"is_reserved":false,"is_disabled":false,"rental_uris":{"android":"levelo://app?vid=e9c52a79-aa16-4299-951c-5baf2536f930","ios":"levelo://app?vid=e9c52a79-aa16-4299-951c-5baf2536f930"},"vehicle_type_id":"4","last_reported":1751437045,"current_range_meters":6800,"station_id":"ce4bgjp2rcd13ifvqbh0","pricing_plan_id":"cebpf4jnsgd1na2vs0mg"},{"bike_id":"e10f8c65-dc6d-4061-b24e-b72ace6ed43b","system_id":"levelo_inurba_marseille","lat":43.31713,"lon":5.43701,"is_reserved":false,"is_disabled":false,"rental_uris":{"android":"levelo://app?vid=e10f8c65-dc6d-4061-b24e-b72ace6ed43b","ios":"levelo://app?vid=e10f8c65-dc6d-4061-b24e-b72ace6ed43b"},"vehicle_type_id":"4","last_reported":1751437045,"current_range_meters":6800,"station_id":"ce4bhp92rcd13ifvqhcg","pricing_plan_id":"cebpf4jnsgd1na2vs0mg"},{"bike_id":"e3ff2741-2c53-4741-96b7-d2ff3c39c0e2","system_id":"levelo_inurba_marseille","lat":43.30777,"lon":5.37584,"is_reserved":false,"is_disabled":false,"rental_uris":{"android":"levelo://app?vid=e3ff2741-2c53-4741-96b7-d2ff3c39c0e2","ios":"levelo://app?vid=e3ff2741-2c53-4741-96b7-d2ff3c39c0e2"},"vehicle_type_id":"4","last_reported":1751437045,"current_range_meters":7200,"station_id":"","pricing_plan_id":"cebpf4jnsgd1na2vs0mg"},{"bike_id":"83015633-1b29-4bf9-9024-4fe2ee97954a","system_id":"levelo_inurba_marseille","lat":43.323595,"lon":5.38882,"is_reserved":false,"is_disabled":false,"rental_uris":{"android":"levelo://app?vid=83015633-1b29-4bf9-9024-4fe2ee97954a","ios":"levelo://app?vid=83015633-1b29-4bf9-9024-4fe2ee97954a"},"vehicle_type_id":"4","last_reported":1751437045,"current_range_meters":8000,"station_id":"ce4bhqp2rcd13ifvqhog","pricing_plan_id":"cebpf4jnsgd1na2vs0mg"},{"bike_id":"ffe5e5ee-9f6b-497d-ac36-802d5b7fe686","system_id":"levelo_inurba_marseille","lat":43.30184,"lon":5.3808,"is_reserved":false,"is_disabled":false,"rental_uris":{"android":"levelo://app?vid=ffe5e5ee-9f6b-497d-ac36-802d5b7fe686","ios":"levelo://app?vid=ffe5e5ee-9f6b-497d-ac36-802d5b7fe686"},"vehicle_type_id":"4","last_reported":1751437045,"current_range_meters":8400,"station_id":"ce4bgjp2rcd13ifvqbh0","pricing_plan_id":"cebpf4jnsgd1na2vs0mg"},{"bike_id":"3f51ceec-447c-4a8a-af78-5029e9c36989","system_id":"levelo_inurba_marseille","lat":43.30889,"lon":5.37196,"is_reserved":false,"is_disabled":false,"rental_uris":{"android":"levelo://app?vid=3f51ceec-447c-4a8a-af78-5029e9c36989","ios":"levelo://app?vid=3f51ceec-447c-4a8a-af78-5029e9c36989"},"vehicle_type_id":"4","last_reported":1751437045,"current_range_meters":8400,"station_id":"ce4bguh2rcd13ifvqckg","pricing_plan_id":"cebpf4jnsgd1na2vs0mg"},{"bike_id":"8dfc132a-bfbb-4fbb-b5b8-4d96075bdda9","system_id":"levelo_inurba_marseille","lat":43.31081,"lon":5.38345,"is_reserved":false,"is_disabled":false,"rental_uris":{"android":"levelo://app?vid=8dfc132a-bfbb-4fbb-b5b8-4d96075bdda9","ios":"levelo://app?vid=8dfc132a-bfbb-4fbb-b5b8-4d96075bdda9"},"vehicle_type_id":"4","last_reported":1751437045,"current_range_meters":8400,"station_id":"ce4bgv92rcd13ifvqcr0","pricing_plan_id":"cebpf4jnsgd1na2vs0mg"},{"bike_id":"b2ec7371-4e1a-4f7b-ae6c-60c5a54c237b","system_id":"levelo_inurba_marseille","lat":43.211958,"lon":5.350696,"is_reserved":false,"is_disabled":false,"rental_uris":{"android":"levelo://app?vid=b2ec7371-4e1a-4f7b-ae6c-60c5a54c237b","ios":"levelo://app?vid=b2ec7371-4e1a-4f7b-ae6c-60c5a54c237b"},"vehicle_type_id":"4","last_reported":1751437045,"current_range_meters":8400,"station_id":"st_cvj6sg6p6f1abm77japg","pricing_plan_id":"cebpf4jnsgd1na2vs0mg"},{"bike_id":"282852d0-af67-46a4-a478-b04fb0fa04a4","system_id":"levelo_inurba_marseille","lat":43.31313,"lon":5.36713,"is_reserved":false,"is_disabled":false,"rental_uris":{"android":"levelo://app?vid=282852d0-af67-46a4-a478-b04fb0fa04a4","ios":"levelo://app?vid=282852d0-af67-46a4-a478-b04fb0fa04a4"},"vehicle_type_id":"4","last_reported":1751437045,"current_range_meters":8800,"station_id":"ce4bgr92rcd13ifvqc6g","pricing_plan_id":"cebpf4jnsgd1na2vs0mg"},{"bike_id":"2726f14f-8d32-4e17-9b3e-62cc809675e1","system_id":"levelo_inurba_marseille","lat":43.32116,"lon":5.367647,"is_reserved":false,"is_disabled":false,"rental_uris":{"android":"levelo://app?vid=2726f14f-8d32-4e17-9b3e-62cc809675e1","ios":"levelo://app?vid=2726f14f-8d32-4e17-9b3e-62cc809675e1"},"vehicle_type_id":"4","last_reported":1751437045,"current_range_meters":8800,"station_id":"ce4bhrh2rcd13ifvqhug","pricing_plan_id":"cebpf4jnsgd1na2vs0mg"},{"bike_id":"85e05c9b-8217-412c-8c1e-e29ce9018034","system_id":"levelo_inurba_marseille","lat":43.31066,"lon":5.38341,"is_reserved":false,"is_disabled":false,"rental_uris":{"android":"levelo://app?vid=85e05c9b-8217-412c-8c1e-e29ce9018034","ios":"levelo://app?vid=85e05c9b-8217-412c-8c1e-e29ce9018034"},"vehicle_type_id":"4","last_reported":1751437045,"current_range_meters":9200,"station_id":"ce4bgv92rcd13ifvqcr0","pricing_plan_id":"cebpf4jnsgd1na2vs0mg"},{"bike_id":"3b96e17f-ffc3-420b-b29c-f5e29ec6a474","system_id":"levelo_inurba_marseille","lat":43.306372,"lon":5.400801,"is_reserved":false,"is_disabled":false,"rental_uris":{"android":"levelo://app?vid=3b96e17f-ffc3-420b-b29c-f5e29ec6a474","ios":"levelo://app?vid=3b96e17f-ffc3-420b-b29c-f5e29ec6a474"},"vehicle_type_id":"4","last_reported":1751437045,"current_range_meters":9200,"station_id":"ce4bh112rcd13ifvqda0","pricing_plan_id":"cebpf4jnsgd1na2vs0mg"},{"bike_id":"68dd4e09-533f-4a33-af06-1c3830142cb9","system_id":"levelo_inurba_marseille","lat":43.29256,"lon":5.40907,"is_reserved":false,"is_disabled":false,"rental_uris":{"android":"levelo://app?vid=68dd4e09-533f-4a33-af06-1c3830142cb9","ios":"levelo://app?vid=68dd4e09-533f-4a33-af06-1c3830142cb9"},"vehicle_type_id":"4","last_reported":1751437045,"current_range_meters":9200,"station_id":"ce4bh192rcd13ifvqdc0","pricing_plan_id":"cebpf4jnsgd1na2vs0mg"},{"bike_id":"b28aa0a0-791c-4a08-9a16-c7bf6ea0ed5a","system_id":"levelo_inurba_marseille","lat":43.22517,"lon":5.34768,"is_reserved":false,"is_disabled":false,"rental_uris":{"android":"levelo://app?vid=b28aa0a0-791c-4a08-9a16-c7bf6ea0ed5a","ios":"levelo://app?vid=b28aa0a0-791c-4a08-9a16-c7bf6ea0ed5a"},"vehicle_type_id":"4","last_reported":1751437045,"current_range_meters":9200,"station_id":"st_cvj5dfep6f1abm77gieg","pricing_plan_id":"cebpf4jnsgd1na2vs0mg"},{"bike_id":"8f10a9ab-b2d1-48a1-84c5-75424f1b18f7","system_id":"levelo_inurba_marseille","lat":43.211875,"lon":5.350719,"is_reserved":false,"is_disabled":false,"rental_uris":{"android":"levelo://app?vid=8f10a9ab-b2d1-48a1-84c5-75424f1b18f7","ios":"levelo://app?vid=8f10a9ab-b2d1-48a1-84c5-75424f1b18f7"},"vehicle_type_id":"4","last_reported":1751437045,"current_range_meters":9200,"station_id":"st_cvj6sg6p6f1abm77japg","pricing_plan_id":"cebpf4jnsgd1na2vs0mg"},{"bike_id":"c2b72fe0-bae6-4c7b-ad48-9e771b203dc8","system_id":"levelo_inurba_marseille","lat":43.31349,"lon":5.38454,"is_reserved":false,"is_disabled":false,"rental_uris":{"android":"levelo://app?vid=c2b72fe0-bae6-4c7b-ad48-9e771b203dc8","ios":"levelo://app?vid=c2b72fe0-bae6-4c7b-ad48-9e771b203dc8"},"vehicle_type_id":"4","last_reported":1751437045,"current_range_meters":9600,"station_id":"ce4bgt92rcd13ifvqcf0","pricing_plan_id":"cebpf4jnsgd1na2vs0mg"},{"bike_id":"3d64f2b6-68f4-4b5e-b336-121bc5116e11","system_id":"levelo_inurba_marseille","lat":43.309344,"lon":5.401578,"is_reserved":false,"is_disabled":false,"rental_uris":{"android":"levelo://app?vid=3d64f2b6-68f4-4b5e-b336-121bc5116e11","ios":"levelo://app?vid=3d64f2b6-68f4-4b5e-b336-121bc5116e11"},"vehicle_type_id":"4","last_reported":1751437045,"current_range_meters":9600,"station_id":"ce4bgvp2rcd13ifvqct0","pricing_plan_id":"cebpf4jnsgd1na2vs0mg"},{"bike_id":"49b13fb7-0887-42c0-8363-9d1d97c3416a","system_id":"levelo_inurba_marseille","lat":43.3021,"lon":5.39465,"is_reserved":false,"is_disabled":false,"rental_uris":{"android":"levelo://app?vid=49b13fb7-0887-42c0-8363-9d1d97c3416a","ios":"levelo://app?vid=49b13fb7-0887-42c0-8363-9d1d97c3416a"},"vehicle_type_id":"4","last_reported":1751437045,"current_range_meters":9600,"station_id":"ce4bh0p2rcd13ifvqd70","pricing_plan_id":"cebpf4jnsgd1na2vs0mg"},{"bike_id":"1bf55e84-ea98-40db-bdcd-49fd06c95f55","system_id":"levelo_inurba_marseille","lat":43.29047,"lon":5.39941,"is_reserved":false,"is_disabled":false,"rental_uris":{"android":"levelo://app?vid=1bf55e84-ea98-40db-bdcd-49fd06c95f55","ios":"levelo://app?vid=1bf55e84-ea98-40db-bdcd-49fd06c95f55"},"vehicle_type_id":"4","last_reported":1751437045,"current_range_meters":9600,"station_id":"ce4bh392rcd13ifvqdm0","pricing_plan_id":"cebpf4jnsgd1na2vs0mg"},{"bike_id":"34ef8d19-abd3-418b-af23-9942dadb071a","system_id":"levelo_inurba_marseille","lat":43.211891,"lon":5.350848,"is_reserved":false,"is_disabled":false,"rental_uris":{"android":"levelo://app?vid=34ef8d19-abd3-418b-af23-9942dadb071a","ios":"levelo://app?vid=34ef8d19-abd3-418b-af23-9942dadb071a"},"vehicle_type_id":"4","last_reported":1751437045,"current_range_meters":10000,"station_id":"st_cvj6sg6p6f1abm77japg","pricing_plan_id":"cebpf4jnsgd1na2vs0mg"},{"bike_id":"c0228700-5312-4a39-89af-ec53a5d729c5","system_id":"levelo_inurba_marseille","lat":43.28335,"lon":5.43258,"is_reserved":false,"is_disabled":false,"rental_uris":{"android":"levelo://app?vid=c0228700-5312-4a39-89af-ec53a5d729c5","ios":"levelo://app?vid=c0228700-5312-4a39-89af-ec53a5d729c5"},"vehicle_type_id":"4","last_reported":1751437045,"current_range_meters":10800,"station_id":"","pricing_plan_id":"cebpf4jnsgd1na2vs0mg"},{"bike_id":"d0dd9b85-f548-4b11-ac90-350c70bccad4","system_id":"levelo_inurba_marseille","lat":43.293,"lon":5.37452,"is_reserved":false,"is_disabled":false,"rental_uris":{"android":"levelo://app?vid=d0dd9b85-f548-4b11-ac90-350c70bccad4","ios":"levelo://app?vid=d0dd9b85-f548-4b11-ac90-350c70bccad4"},"vehicle_type_id":"4","last_reported":1751437045,"current_range_meters":10800,"station_id":"ce4bgi12rcd13ifvqb70","pricing_plan_id":"cebpf4jnsgd1na2vs0mg"},{"bike_id":"fd184da2-6e98-4cd2-9722-284f0b76177a","system_id":"levelo_inurba_marseille","lat":43.30147,"lon":5.37414,"is_reserved":false,"is_disabled":false,"rental_uris":{"android":"levelo://app?vid=fd184da2-6e98-4cd2-9722-284f0b76177a","ios":"levelo://app?vid=fd184da2-6e98-4cd2-9722-284f0b76177a"},"vehicle_type_id":"4","last_reported":1751437045,"current_range_meters":10800,"station_id":"ce4bgs92rcd13ifvqcc0","pricing_plan_id":"cebpf4jnsgd1na2vs0mg"},{"bike_id":"a0ffdf28-d659-45dc-b870-b2d591eeef83","system_id":"levelo_inurba_marseille","lat":43.25728,"lon":5.4111,"is_reserved":false,"is_disabled":false,"rental_uris":{"android":"levelo://app?vid=a0ffdf28-d659-45dc-b870-b2d591eeef83","ios":"levelo://app?vid=a0ffdf28-d659-45dc-b870-b2d591eeef83"},"vehicle_type_id":"4","last_reported":1751437045,"current_range_meters":10800,"station_id":"ce4bhkp2rcd13ifvqgd0","pricing_plan_id":"cebpf4jnsgd1na2vs0mg"},{"bike_id":"ddf528b1-4427-4205-b74c-58daba4bcb9d","system_id":"levelo_inurba_marseille","lat":43.325449,"lon":5.414539,"is_reserved":false,"is_disabled":false,"rental_uris":{"android":"levelo://app?vid=ddf528b1-4427-4205-b74c-58daba4bcb9d","ios":"levelo://app?vid=ddf528b1-4427-4205-b74c-58daba4bcb9d"},"vehicle_type_id":"4","last_reported":1751437045,"current_range_meters":10800,"station_id":"ce4bhq12rcd13ifvqhhg","pricing_plan_id":"cebpf4jnsgd1na2vs0mg"},{"bike_id":"c61036a9-1a66-4480-8bd4-cd2fb585b287","system_id":"levelo_inurba_marseille","lat":43.269837,"lon":5.40553,"is_reserved":false,"is_disabled":false,"rental_uris":{"android":"levelo://app?vid=c61036a9-1a66-4480-8bd4-cd2fb585b287","ios":"levelo://app?vid=c61036a9-1a66-4480-8bd4-cd2fb585b287"},"vehicle_type_id":"4","last_reported":1751437045,"current_range_meters":11200,"station_id":"","pricing_plan_id":"cebpf4jnsgd1na2vs0mg"},{"bike_id":"12c8f0e5-0eb8-4779-b094-556c6faf06b5","system_id":"levelo_inurba_marseille","lat":43.310654,"lon":5.383641,"is_reserved":false,"is_disabled":false,"rental_uris":{"android":"levelo://app?vid=12c8f0e5-0eb8-4779-b094-556c6faf06b5","ios":"levelo://app?vid=12c8f0e5-0eb8-4779-b094-556c6faf06b5"},"vehicle_type_id":"4","last_reported":1751437045,"current_range_meters":11200,"station_id":"ce4bgv92rcd13ifvqcr0","pricing_plan_id":"cebpf4jnsgd1na2vs0mg"},{"bike_id":"14a8345c-1a0a-4f1d-bc10-2f4e01109d1c","system_id":"levelo_inurba_marseille","lat":43.306397,"lon":5.401091,"is_reserved":false,"is_disabled":false,"rental_uris":{"android":"levelo://app?vid=14a8345c-1a0a-4f1d-bc10-2f4e01109d1c","ios":"levelo://app?vid=14a8345c-1a0a-4f1d-bc10-2f4e01109d1c"},"vehicle_type_id":"4","last_reported":1751437045,"current_range_meters":11600,"station_id":"ce4bh112rcd13ifvqda0","pricing_plan_id":"cebpf4jnsgd1na2vs0mg"},{"bike_id":"86fa6ce7-8cbe-47ff-b5d3-c2b4938fd05c","system_id":"levelo_inurba_marseille","lat":43.212062,"lon":5.35068,"is_reserved":false,"is_disabled":false,"rental_uris":{"android":"levelo://app?vid=86fa6ce7-8cbe-47ff-b5d3-c2b4938fd05c","ios":"levelo://app?vid=86fa6ce7-8cbe-47ff-b5d3-c2b4938fd05c"},"vehicle_type_id":"4","last_reported":1751437045,"current_range_meters":11600,"station_id":"st_cvj6sg6p6f1abm77japg","pricing_plan_id":"cebpf4jnsgd1na2vs0mg"},{"bike_id":"96b6b043-817e-45a0-a067-97c1bfcd6862","system_id":"levelo_inurba_marseille","lat":43.27506,"lon":5.42452,"is_reserved":false,"is_disabled":false,"rental_uris":{"android":"levelo://app?vid=96b6b043-817e-45a0-a067-97c1bfcd6862","ios":"levelo://app?vid=96b6b043-817e-45a0-a067-97c1bfcd6862"},"vehicle_type_id":"4","last_reported":1751437045,"current_range_meters":12000,"station_id":"ce4bhn92rcd13ifvqgrg","pricing_plan_id":"cebpf4jnsgd1na2vs0mg"},{"bike_id":"55220b67-6560-409d-83d2-c55ebead3256","system_id":"levelo_inurba_marseille","lat":43.323384,"lon":5.406231,"is_reserved":false,"is_disabled":false,"rental_uris":{"android":"levelo://app?vid=55220b67-6560-409d-83d2-c55ebead3256","ios":"levelo://app?vid=55220b67-6560-409d-83d2-c55ebead3256"},"vehicle_type_id":"4","last_reported":1751437045,"current_range_meters":12000,"station_id":"ce4bhq92rcd13ifvqhjg","pricing_plan_id":"cebpf4jnsgd1na2vs0mg"},{"bike_id":"6335e18e-9829-4571-82f7-23b6ce10fe5e","system_id":"levelo_inurba_marseille","lat":43.2417,"lon":5.36393,"is_reserved":false,"is_disabled":false,"rental_uris":{"android":"levelo://app?vid=6335e18e-9829-4571-82f7-23b6ce10fe5e","ios":"levelo://app?vid=6335e18e-9829-4571-82f7-23b6ce10fe5e"},"vehicle_type_id":"4","last_reported":1751437045,"current_range_meters":12000,"station_id":"cpo36qri1sfpv3e86is0","pricing_plan_id":"cebpf4jnsgd1na2vs0mg"},{"bike_id":"e8dcaf5a-2986-4229-85a0-8f4c91243db8","system_id":"levelo_inurba_marseille","lat":43.337444,"lon":5.374475,"is_reserved":false,"is_disabled":false,"rental_uris":{"android":"levelo://app?vid=e8dcaf5a-2986-4229-85a0-8f4c91243db8","ios":"levelo://app?vid=e8dcaf5a-2986-4229-85a0-8f4c91243db8"},"vehicle_type_id":"4","last_reported":1751437045,"current_range_meters":12400,"station_id":"","pricing_plan_id":"cebpf4jnsgd1na2vs0mg"},{"bike_id":"ef523680-e695-47b2-b663-9d1681d0a96f","system_id":"levelo_inurba_marseille","lat":43.30642,"lon":5.4005,"is_reserved":false,"is_disabled":false,"rental_uris":{"android":"levelo://app?vid=ef523680-e695-47b2-b663-9d1681d0a96f","ios":"levelo://app?vid=ef523680-e695-47b2-b663-9d1681d0a96f"},"vehicle_type_id":"4","last_reported":1751437045,"current_range_meters":12400,"station_id":"ce4bh112rcd13ifvqda0","pricing_plan_id":"cebpf4jnsgd1na2vs0mg"},{"bike_id":"17055011-2081-4508-95c8-9f2b81b8671c","system_id":"levelo_inurba_marseille","lat":43.29268,"lon":5.38449,"is_reserved":false,"is_disabled":false,"rental_uris":{"android":"levelo://app?vid=17055011-2081-4508-95c8-9f2b81b8671c","ios":"levelo://app?vid=17055011-2081-4508-95c8-9f2b81b8671c"},"vehicle_type_id":"4","last_reported":1751437045,"current_range_meters":12400,"station_id":"ce4bh692rcd13ifvqea0","pricing_plan_id":"cebpf4jnsgd1na2vs0mg"},{"bike_id":"617abdb6-0a3b-41f0-8138-2b6bd92183fe","system_id":"levelo_inurba_marseille","lat":43.25909,"lon":5.4088,"is_reserved":false,"is_disabled":false,"rental_uris":{"android":"levelo://app?vid=617abdb6-0a3b-41f0-8138-2b6bd92183fe","ios":"levelo://app?vid=617abdb6-0a3b-41f0-8138-2b6bd92183fe"},"vehicle_type_id":"4","last_reported":1751437045,"current_range_meters":12400,"station_id":"ce4bhm92rcd13ifvqglg","pricing_plan_id":"cebpf4jnsgd1na2vs0mg"},{"bike_id":"5ea1dd93-3c49-4f8f-bb7f-00d3c982b0ae","system_id":"levelo_inurba_marseille","lat":43.2293,"lon":5.353686,"is_reserved":false,"is_disabled":false,"rental_uris":{"android":"levelo://app?vid=5ea1dd93-3c49-4f8f-bb7f-00d3c982b0ae","ios":"levelo://app?vid=5ea1dd93-3c49-4f8f-bb7f-00d3c982b0ae"},"vehicle_type_id":"4","last_reported":1751437045,"current_range_meters":12400,"station_id":"cpo3532slgdg3j2ikp40","pricing_plan_id":"cebpf4jnsgd1na2vs0mg"},{"bike_id":"bf9a42f0-3236-41b2-aead-463e94f79ff6","system_id":"levelo_inurba_marseille","lat":43.2328,"lon":5.35398,"is_reserved":false,"is_disabled":false,"rental_uris":{"android":"levelo://app?vid=bf9a42f0-3236-41b2-aead-463e94f79ff6","ios":"levelo://app?vid=bf9a42f0-3236-41b2-aead-463e94f79ff6"},"vehicle_type_id":"4","last_reported":1751437045,"current_range_meters":12800,"station_id":"","pricing_plan_id":"cebpf4jnsgd1na2vs0mg"},{"bike_id":"029e4147-2204-4c49-b08e-0c3a4685a2a3","system_id":"levelo_inurba_marseille","lat":43.30465,"lon":5.37913,"is_reserved":false,"is_disabled":false,"rental_uris":{"android":"levelo://app?vid=029e4147-2204-4c49-b08e-0c3a4685a2a3","ios":"levelo://app?vid=029e4147-2204-4c49-b08e-0c3a4685a2a3"},"vehicle_type_id":"4","last_reported":1751437045,"current_range_meters":12800,"station_id":"ce4bgup2rcd13ifvqcn0","pricing_plan_id":"cebpf4jnsgd1na2vs0mg"},{"bike_id":"4bcd58de-55d3-4f1d-9ef8-d5bbc3dc11d2","system_id":"levelo_inurba_marseille","lat":43.25575,"lon":5.3824,"is_reserved":false,"is_disabled":false,"rental_uris":{"android":"levelo://app?vid=4bcd58de-55d3-4f1d-9ef8-d5bbc3dc11d2","ios":"levelo://app?vid=4bcd58de-55d3-4f1d-9ef8-d5bbc3dc11d2"},"vehicle_type_id":"4","last_reported":1751437045,"current_range_meters":12800,"station_id":"ce4bhih2rcd13ifvqfs0","pricing_plan_id":"cebpf4jnsgd1na2vs0mg"},{"bike_id":"4810f33f-d5e0-4478-89ab-5e50f6676b57","system_id":"levelo_inurba_marseille","lat":43.25718,"lon":5.41098,"is_reserved":false,"is_disabled":false,"rental_uris":{"android":"levelo://app?vid=4810f33f-d5e0-4478-89ab-5e50f6676b57","ios":"levelo://app?vid=4810f33f-d5e0-4478-89ab-5e50f6676b57"},"vehicle_type_id":"4","last_reported":1751437045,"current_range_meters":13600,"station_id":"ce4bhkp2rcd13ifvqgd0","pricing_plan_id":"cebpf4jnsgd1na2vs0mg"},{"bike_id":"d4c73a67-6ae9-4da7-86b1-c540a417377a","system_id":"levelo_inurba_marseille","lat":43.32346,"lon":5.40608,"is_reserved":false,"is_disabled":false,"rental_uris":{"android":"levelo://app?vid=d4c73a67-6ae9-4da7-86b1-c540a417377a","ios":"levelo://app?vid=d4c73a67-6ae9-4da7-86b1-c540a417377a"},"vehicle_type_id":"4","last_reported":1751437045,"current_range_meters":13600,"station_id":"ce4bhq92rcd13ifvqhjg","pricing_plan_id":"cebpf4jnsgd1na2vs0mg"},{"bike_id":"0c1b4f74-5294-4b59-932d-b742ce647d9e","system_id":"levelo_inurba_marseille","lat":43.211905,"lon":5.350764,"is_reserved":false,"is_disabled":false,"rental_uris":{"android":"levelo://app?vid=0c1b4f74-5294-4b59-932d-b742ce647d9e","ios":"levelo://app?vid=0c1b4f74-5294-4b59-932d-b742ce647d9e"},"vehicle_type_id":"4","last_reported":1751437045,"current_range_meters":13600,"station_id":"st_cvj6sg6p6f1abm77japg","pricing_plan_id":"cebpf4jnsgd1na2vs0mg"},{"bike_id":"8a74f5cd-9efa-4362-bea7-a32db4dcc85c","system_id":"levelo_inurba_marseille","lat":43.21212,"lon":5.35087,"is_reserved":false,"is_disabled":false,"rental_uris":{"android":"levelo://app?vid=8a74f5cd-9efa-4362-bea7-a32db4dcc85c","ios":"levelo://app?vid=8a74f5cd-9efa-4362-bea7-a32db4dcc85c"},"vehicle_type_id":"4","last_reported":1751437045,"current_range_meters":13600,"station_id":"st_cvj6sg6p6f1abm77japg","pricing_plan_id":"cebpf4jnsgd1na2vs0mg"},{"bike_id":"539ed013-9e80-448a-999f-a7819f54786a","system_id":"levelo_inurba_marseille","lat":43.26205,"lon":5.37921,"is_reserved":false,"is_disabled":true,"rental_uris":{"android":"levelo://app?vid=539ed013-9e80-448a-999f-a7819f54786a","ios":"levelo://app?vid=539ed013-9e80-448a-999f-a7819f54786a"},"vehicle_type_id":"4","last_reported":1751437045,"current_range_meters":14000,"station_id":"ce4bhjp2rcd13ifvqg90","pricing_plan_id":"cebpf4jnsgd1na2vs0mg"},{"bike_id":"b91f0c35-1074-4055-9ea4-8bce700995fc","system_id":"levelo_inurba_marseille","lat":43.25934,"lon":5.40913,"is_reserved":false,"is_disabled":false,"rental_uris":{"android":"levelo://app?vid=b91f0c35-1074-4055-9ea4-8bce700995fc","ios":"levelo://app?vid=b91f0c35-1074-4055-9ea4-8bce700995fc"},"vehicle_type_id":"4","last_reported":1751437045,"current_range_meters":14000,"station_id":"ce4bhm92rcd13ifvqglg","pricing_plan_id":"cebpf4jnsgd1na2vs0mg"},{"bike_id":"16fe4b8f-aa54-4e34-9437-7dd47aac9baf","system_id":"levelo_inurba_marseille","lat":43.29043,"lon":5.39945,"is_reserved":false,"is_disabled":false,"rental_uris":{"android":"levelo://app?vid=16fe4b8f-aa54-4e34-9437-7dd47aac9baf","ios":"levelo://app?vid=16fe4b8f-aa54-4e34-9437-7dd47aac9baf"},"vehicle_type_id":"4","last_reported":1751437045,"current_range_meters":14400,"station_id":"ce4bh392rcd13ifvqdm0","pricing_plan_id":"cebpf4jnsgd1na2vs0mg"},{"bike_id":"c2cc3873-3136-4ba7-984d-6514f2a6bcc2","system_id":"levelo_inurba_marseille","lat":43.26692,"lon":5.3827,"is_reserved":false,"is_disabled":false,"rental_uris":{"android":"levelo://app?vid=c2cc3873-3136-4ba7-984d-6514f2a6bcc2","ios":"levelo://app?vid=c2cc3873-3136-4ba7-984d-6514f2a6bcc2"},"vehicle_type_id":"4","last_reported":1751437045,"current_range_meters":14400,"station_id":"ce4bhg92rcd13ifvqf90","pricing_plan_id":"cebpf4jnsgd1na2vs0mg"},{"bike_id":"ee0317a9-0b3d-4631-9294-b4dddc155611","system_id":"levelo_inurba_marseille","lat":43.32346,"lon":5.36722,"is_reserved":false,"is_disabled":false,"rental_uris":{"android":"levelo://app?vid=ee0317a9-0b3d-4631-9294-b4dddc155611","ios":"levelo://app?vid=ee0317a9-0b3d-4631-9294-b4dddc155611"},"vehicle_type_id":"4","last_reported":1751437045,"current_range_meters":14400,"station_id":"ce4bhsh2rcd13ifvqi2g","pricing_plan_id":"cebpf4jnsgd1na2vs0mg"},{"bike_id":"6af361a7-70f3-4bfb-b5bc-c9db1fc615be","system_id":"levelo_inurba_marseille","lat":43.30896,"lon":5.37193,"is_reserved":false,"is_disabled":false,"rental_uris":{"android":"levelo://app?vid=6af361a7-70f3-4bfb-b5bc-c9db1fc615be","ios":"levelo://app?vid=6af361a7-70f3-4bfb-b5bc-c9db1fc615be"},"vehicle_type_id":"4","last_reported":1751437045,"current_range_meters":14800,"station_id":"ce4bguh2rcd13ifvqckg","pricing_plan_id":"cebpf4jnsgd1na2vs0mg"},{"bike_id":"8b44a078-25b6-4fc7-a0ee-3b325d289415","system_id":"levelo_inurba_marseille","lat":43.30929,"lon":5.40143,"is_reserved":false,"is_disabled":false,"rental_uris":{"android":"levelo://app?vid=8b44a078-25b6-4fc7-a0ee-3b325d289415","ios":"levelo://app?vid=8b44a078-25b6-4fc7-a0ee-3b325d289415"},"vehicle_type_id":"4","last_reported":1751437045,"current_range_meters":14800,"station_id":"ce4bgvp2rcd13ifvqct0","pricing_plan_id":"cebpf4jnsgd1na2vs0mg"},{"bike_id":"483ba61c-e9d3-4100-9ca2-9f76b3853385","system_id":"levelo_inurba_marseille","lat":43.31273,"lon":5.40164,"is_reserved":false,"is_disabled":false,"rental_uris":{"android":"levelo://app?vid=483ba61c-e9d3-4100-9ca2-9f76b3853385","ios":"levelo://app?vid=483ba61c-e9d3-4100-9ca2-9f76b3853385"},"vehicle_type_id":"4","last_reported":1751437045,"current_range_meters":14800,"station_id":"ce4bh092rcd13ifvqd30","pricing_plan_id":"cebpf4jnsgd1na2vs0mg"},{"bike_id":"53c8e5da-f5e3-4b38-adc1-6a8af76880b0","system_id":"levelo_inurba_marseille","lat":43.25123,"lon":5.40356,"is_reserved":false,"is_disabled":false,"rental_uris":{"android":"levelo://app?vid=53c8e5da-f5e3-4b38-adc1-6a8af76880b0","ios":"levelo://app?vid=53c8e5da-f5e3-4b38-adc1-6a8af76880b0"},"vehicle_type_id":"4","last_reported":1751437045,"current_range_meters":14800,"station_id":"ce4bhlh2rcd13ifvqgig","pricing_plan_id":"cebpf4jnsgd1na2vs0mg"},{"bike_id":"d2686da2-7f93-400e-86d4-66c3d4b5f6bc","system_id":"levelo_inurba_marseille","lat":43.279456,"lon":5.410459,"is_reserved":false,"is_disabled":false,"rental_uris":{"android":"levelo://app?vid=d2686da2-7f93-400e-86d4-66c3d4b5f6bc","ios":"levelo://app?vid=d2686da2-7f93-400e-86d4-66c3d4b5f6bc"},"vehicle_type_id":"4","last_reported":1751437045,"current_range_meters":14800,"station_id":"ce4bhnp2rcd13ifvqh0g","pricing_plan_id":"cebpf4jnsgd1na2vs0mg"},{"bike_id":"5997c5e8-8baf-47dc-9b7d-363cf42a1d08","system_id":"levelo_inurba_marseille","lat":43.32358,"lon":5.36759,"is_reserved":false,"is_disabled":false,"rental_uris":{"android":"levelo://app?vid=5997c5e8-8baf-47dc-9b7d-363cf42a1d08","ios":"levelo://app?vid=5997c5e8-8baf-47dc-9b7d-363cf42a1d08"},"vehicle_type_id":"4","last_reported":1751437045,"current_range_meters":14800,"station_id":"ce4bhsh2rcd13ifvqi2g","pricing_plan_id":"cebpf4jnsgd1na2vs0mg"},{"bike_id":"f00e3044-9bd1-48b5-b342-151af21b34fa","system_id":"levelo_inurba_marseille","lat":43.29986,"lon":5.37412,"is_reserved":false,"is_disabled":false,"rental_uris":{"android":"levelo://app?vid=f00e3044-9bd1-48b5-b342-151af21b34fa","ios":"levelo://app?vid=f00e3044-9bd1-48b5-b342-151af21b34fa"},"vehicle_type_id":"4","last_reported":1751437045,"current_range_meters":15200,"station_id":"","pricing_plan_id":"cebpf4jnsgd1na2vs0mg"},{"bike_id":"dc52b775-d3be-4286-bd97-95527fce5883","system_id":"levelo_inurba_marseille","lat":43.309497,"lon":5.390364,"is_reserved":false,"is_disabled":false,"rental_uris":{"android":"levelo://app?vid=dc52b775-d3be-4286-bd97-95527fce5883","ios":"levelo://app?vid=dc52b775-d3be-4286-bd97-95527fce5883"},"vehicle_type_id":"4","last_reported":1751437045,"current_range_meters":15200,"station_id":"ce4bgup2rcd13ifvqco0","pricing_plan_id":"cebpf4jnsgd1na2vs0mg"},{"bike_id":"178baff3-6691-4cdb-b8bb-aaa2c3e835ad","system_id":"levelo_inurba_marseille","lat":43.2439,"lon":5.37062,"is_reserved":false,"is_disabled":false,"rental_uris":{"android":"levelo://app?vid=178baff3-6691-4cdb-b8bb-aaa2c3e835ad","ios":"levelo://app?vid=178baff3-6691-4cdb-b8bb-aaa2c3e835ad"},"vehicle_type_id":"4","last_reported":1751437045,"current_range_meters":15200,"station_id":"ce4bhhh2rcd13ifvqfk0","pricing_plan_id":"cebpf4jnsgd1na2vs0mg"},{"bike_id":"d93223c2-1172-4f23-ac4a-b49a0ad5ccee","system_id":"levelo_inurba_marseille","lat":43.25108,"lon":5.40323,"is_reserved":false,"is_disabled":false,"rental_uris":{"android":"levelo://app?vid=d93223c2-1172-4f23-ac4a-b49a0ad5ccee","ios":"levelo://app?vid=d93223c2-1172-4f23-ac4a-b49a0ad5ccee"},"vehicle_type_id":"4","last_reported":1751437045,"current_range_meters":15200,"station_id":"ce4bhlh2rcd13ifvqgig","pricing_plan_id":"cebpf4jnsgd1na2vs0mg"},{"bike_id":"d0f90c24-dd03-411b-9731-55305f76b7c8","system_id":"levelo_inurba_marseille","lat":43.21192,"lon":5.35071,"is_reserved":false,"is_disabled":false,"rental_uris":{"android":"levelo://app?vid=d0f90c24-dd03-411b-9731-55305f76b7c8","ios":"levelo://app?vid=d0f90c24-dd03-411b-9731-55305f76b7c8"},"vehicle_type_id":"4","last_reported":1751437045,"current_range_meters":15200,"station_id":"st_cvj6sg6p6f1abm77japg","pricing_plan_id":"cebpf4jnsgd1na2vs0mg"},{"bike_id":"fdcc33b3-b27b-4fd9-90cb-c9421efe9db6","system_id":"levelo_inurba_marseille","lat":43.2782,"lon":5.41433,"is_reserved":false,"is_disabled":false,"rental_uris":{"android":"levelo://app?vid=fdcc33b3-b27b-4fd9-90cb-c9421efe9db6","ios":"levelo://app?vid=fdcc33b3-b27b-4fd9-90cb-c9421efe9db6"},"vehicle_type_id":"4","last_reported":1751437045,"current_range_meters":16000,"station_id":"","pricing_plan_id":"cebpf4jnsgd1na2vs0mg"},{"bike_id":"dabc2a87-1222-4722-9ce4-89fc55abe20c","system_id":"levelo_inurba_marseille","lat":43.2904,"lon":5.3999,"is_reserved":false,"is_disabled":false,"rental_uris":{"android":"levelo://app?vid=dabc2a87-1222-4722-9ce4-89fc55abe20c","ios":"levelo://app?vid=dabc2a87-1222-4722-9ce4-89fc55abe20c"},"vehicle_type_id":"4","last_reported":1751437045,"current_range_meters":16000,"station_id":"ce4bh392rcd13ifvqdm0","pricing_plan_id":"cebpf4jnsgd1na2vs0mg"},{"bike_id":"744555e3-e1e5-4997-9892-e31ca61448ff","system_id":"levelo_inurba_marseille","lat":43.28942,"lon":5.39631,"is_reserved":false,"is_disabled":false,"rental_uris":{"android":"levelo://app?vid=744555e3-e1e5-4997-9892-e31ca61448ff","ios":"levelo://app?vid=744555e3-e1e5-4997-9892-e31ca61448ff"},"vehicle_type_id":"4","last_reported":1751437045,"current_range_meters":16000,"station_id":"ce4bh3h2rcd13ifvqdn0","pricing_plan_id":"cebpf4jnsgd1na2vs0mg"},{"bike_id":"e180bf12-60b5-4a25-a67d-fd52fb510ca3","system_id":"levelo_inurba_marseille","lat":43.32542,"lon":5.41426,"is_reserved":false,"is_disabled":false,"rental_uris":{"android":"levelo://app?vid=e180bf12-60b5-4a25-a67d-fd52fb510ca3","ios":"levelo://app?vid=e180bf12-60b5-4a25-a67d-fd52fb510ca3"},"vehicle_type_id":"4","last_reported":1751437045,"current_range_meters":16000,"station_id":"ce4bhq12rcd13ifvqhhg","pricing_plan_id":"cebpf4jnsgd1na2vs0mg"},{"bike_id":"cfc0aa67-590a-4038-b894-cb7b8f074cc7","system_id":"levelo_inurba_marseille","lat":43.217524,"lon":5.346095,"is_reserved":false,"is_disabled":false,"rental_uris":{"android":"levelo://app?vid=cfc0aa67-590a-4038-b894-cb7b8f074cc7","ios":"levelo://app?vid=cfc0aa67-590a-4038-b894-cb7b8f074cc7"},"vehicle_type_id":"4","last_reported":1751437045,"current_range_meters":16000,"station_id":"st_cvj6r9ubvosntc0bgbag","pricing_plan_id":"cebpf4jnsgd1na2vs0mg"},{"bike_id":"dbe6a7d8-6edc-4015-8658-f68eeb46a661","system_id":"levelo_inurba_marseille","lat":43.33581,"lon":5.39874,"is_reserved":false,"is_disabled":false,"rental_uris":{"android":"levelo://app?vid=dbe6a7d8-6edc-4015-8658-f68eeb46a661","ios":"levelo://app?vid=dbe6a7d8-6edc-4015-8658-f68eeb46a661"},"vehicle_type_id":"4","last_reported":1751437045,"current_range_meters":16400,"station_id":"","pricing_plan_id":"cebpf4jnsgd1na2vs0mg"},{"bike_id":"7e62b058-a7ed-4634-80f1-04d3de596de7","system_id":"levelo_inurba_marseille","lat":43.29848,"lon":5.36813,"is_reserved":false,"is_disabled":false,"rental_uris":{"android":"levelo://app?vid=7e62b058-a7ed-4634-80f1-04d3de596de7","ios":"levelo://app?vid=7e62b058-a7ed-4634-80f1-04d3de596de7"},"vehicle_type_id":"4","last_reported":1751437045,"current_range_meters":16400,"station_id":"","pricing_plan_id":"cebpf4jnsgd1na2vs0mg"},{"bike_id":"60aed5b4-04a7-4930-a9c4-5540cdbcfb8b","system_id":"levelo_inurba_marseille","lat":43.33794,"lon":5.37479,"is_reserved":false,"is_disabled":false,"rental_uris":{"android":"levelo://app?vid=60aed5b4-04a7-4930-a9c4-5540cdbcfb8b","ios":"levelo://app?vid=60aed5b4-04a7-4930-a9c4-5540cdbcfb8b"},"vehicle_type_id":"4","last_reported":1751437045,"current_range_meters":16400,"station_id":"","pricing_plan_id":"cebpf4jnsgd1na2vs0mg"},{"bike_id":"8549f943-d232-483c-aa51-d2e2952cc7c6","system_id":"levelo_inurba_marseille","lat":43.29049,"lon":5.39962,"is_reserved":false,"is_disabled":false,"rental_uris":{"android":"levelo://app?vid=8549f943-d232-483c-aa51-d2e2952cc7c6","ios":"levelo://app?vid=8549f943-d232-483c-aa51-d2e2952cc7c6"},"vehicle_type_id":"4","last_reported":1751437045,"current_range_meters":16400,"station_id":"ce4bh392rcd13ifvqdm0","pricing_plan_id":"cebpf4jnsgd1na2vs0mg"},{"bike_id":"d68dacc3-2ebb-4596-94df-9035662fd853","system_id":"levelo_inurba_marseille","lat":43.25717,"lon":5.41111,"is_reserved":false,"is_disabled":false,"rental_uris":{"android":"levelo://app?vid=d68dacc3-2ebb-4596-94df-9035662fd853","ios":"levelo://app?vid=d68dacc3-2ebb-4596-94df-9035662fd853"},"vehicle_type_id":"4","last_reported":1751437045,"current_range_meters":16400,"station_id":"ce4bhkp2rcd13ifvqgd0","pricing_plan_id":"cebpf4jnsgd1na2vs0mg"},{"bike_id":"d8af6ef5-58d4-4b61-9114-5f069fadff17","system_id":"levelo_inurba_marseille","lat":43.27948,"lon":5.41043,"is_reserved":false,"is_disabled":false,"rental_uris":{"android":"levelo://app?vid=d8af6ef5-58d4-4b61-9114-5f069fadff17","ios":"levelo://app?vid=d8af6ef5-58d4-4b61-9114-5f069fadff17"},"vehicle_type_id":"4","last_reported":1751437045,"current_range_meters":16400,"station_id":"ce4bhnp2rcd13ifvqh0g","pricing_plan_id":"cebpf4jnsgd1na2vs0mg"},{"bike_id":"4fd602b9-b9fc-471c-b938-5990c9f13902","system_id":"levelo_inurba_marseille","lat":43.323678,"lon":5.388821,"is_reserved":false,"is_disabled":false,"rental_uris":{"android":"levelo://app?vid=4fd602b9-b9fc-471c-b938-5990c9f13902","ios":"levelo://app?vid=4fd602b9-b9fc-471c-b938-5990c9f13902"},"vehicle_type_id":"4","last_reported":1751437045,"current_range_meters":16400,"station_id":"ce4bhqp2rcd13ifvqhog","pricing_plan_id":"cebpf4jnsgd1na2vs0mg"},{"bike_id":"c2f01fb1-132d-45a4-a7bc-c28f7a300f91","system_id":"levelo_inurba_marseille","lat":43.2843,"lon":5.34988,"is_reserved":false,"is_disabled":false,"rental_uris":{"android":"levelo://app?vid=c2f01fb1-132d-45a4-a7bc-c28f7a300f91","ios":"levelo://app?vid=c2f01fb1-132d-45a4-a7bc-c28f7a300f91"},"vehicle_type_id":"4","last_reported":1751437045,"current_range_meters":16800,"station_id":"","pricing_plan_id":"cebpf4jnsgd1na2vs0mg"},{"bike_id":"71180211-8226-465e-8b90-82fbcd048afd","system_id":"levelo_inurba_marseille","lat":43.3016,"lon":5.38079,"is_reserved":false,"is_disabled":false,"rental_uris":{"android":"levelo://app?vid=71180211-8226-465e-8b90-82fbcd048afd","ios":"levelo://app?vid=71180211-8226-465e-8b90-82fbcd048afd"},"vehicle_type_id":"4","last_reported":1751437045,"current_range_meters":16800,"station_id":"ce4bgjp2rcd13ifvqbh0","pricing_plan_id":"cebpf4jnsgd1na2vs0mg"},{"bike_id":"65e670df-bc16-4358-880f-dba8f8cbd1c8","system_id":"levelo_inurba_marseille","lat":43.31276,"lon":5.40159,"is_reserved":false,"is_disabled":false,"rental_uris":{"android":"levelo://app?vid=65e670df-bc16-4358-880f-dba8f8cbd1c8","ios":"levelo://app?vid=65e670df-bc16-4358-880f-dba8f8cbd1c8"},"vehicle_type_id":"4","last_reported":1751437045,"current_range_meters":16800,"station_id":"ce4bh092rcd13ifvqd30","pricing_plan_id":"cebpf4jnsgd1na2vs0mg"},{"bike_id":"0b952b41-063f-44fd-8039-09856d22ee45","system_id":"levelo_inurba_marseille","lat":43.248031,"lon":5.374554,"is_reserved":false,"is_disabled":false,"rental_uris":{"android":"levelo://app?vid=0b952b41-063f-44fd-8039-09856d22ee45","ios":"levelo://app?vid=0b952b41-063f-44fd-8039-09856d22ee45"},"vehicle_type_id":"4","last_reported":1751437045,"current_range_meters":16800,"station_id":"ce4bhgh2rcd13ifvqfb0","pricing_plan_id":"cebpf4jnsgd1na2vs0mg"},{"bike_id":"4bf5a83c-b571-43a9-9ea3-4b1576d89995","system_id":"levelo_inurba_marseille","lat":43.28078,"lon":5.39646,"is_reserved":false,"is_disabled":false,"rental_uris":{"android":"levelo://app?vid=4bf5a83c-b571-43a9-9ea3-4b1576d89995","ios":"levelo://app?vid=4bf5a83c-b571-43a9-9ea3-4b1576d89995"},"vehicle_type_id":"4","last_reported":1751437045,"current_range_meters":16800,"station_id":"ce4bho12rcd13ifvqh2g","pricing_plan_id":"cebpf4jnsgd1na2vs0mg"},{"bike_id":"072ce126-17ba-4d6a-833e-b467b7c6da3f","system_id":"levelo_inurba_marseille","lat":43.30414,"lon":5.41265,"is_reserved":false,"is_disabled":false,"rental_uris":{"android":"levelo://app?vid=072ce126-17ba-4d6a-833e-b467b7c6da3f","ios":"levelo://app?vid=072ce126-17ba-4d6a-833e-b467b7c6da3f"},"vehicle_type_id":"4","last_reported":1751437045,"current_range_meters":16800,"station_id":"ce4bhop2rcd13ifvqh8g","pricing_plan_id":"cebpf4jnsgd1na2vs0mg"},{"bike_id":"8c9371b2-692d-48da-b841-7893055c2b2f","system_id":"levelo_inurba_marseille","lat":43.30548,"lon":5.36554,"is_reserved":false,"is_disabled":false,"rental_uris":{"android":"levelo://app?vid=8c9371b2-692d-48da-b841-7893055c2b2f","ios":"levelo://app?vid=8c9371b2-692d-48da-b841-7893055c2b2f"},"vehicle_type_id":"4","last_reported":1751437045,"current_range_meters":17200,"station_id":"ce4bgs12rcd13ifvqcag","pricing_plan_id":"cebpf4jnsgd1na2vs0mg"},{"bike_id":"7440a83d-d2eb-4aec-843d-e9a2bc12e9e7","system_id":"levelo_inurba_marseille","lat":43.241661,"lon":5.39721,"is_reserved":false,"is_disabled":false,"rental_uris":{"android":"levelo://app?vid=7440a83d-d2eb-4aec-843d-e9a2bc12e9e7","ios":"levelo://app?vid=7440a83d-d2eb-4aec-843d-e9a2bc12e9e7"},"vehicle_type_id":"4","last_reported":1751437045,"current_range_meters":17200,"station_id":"ce4bhn12rcd13ifvqgpg","pricing_plan_id":"cebpf4jnsgd1na2vs0mg"},{"bike_id":"16a8afe6-e43e-4d1b-a7bd-ed83d113735a","system_id":"levelo_inurba_marseille","lat":43.32436,"lon":5.41185,"is_reserved":false,"is_disabled":false,"rental_uris":{"android":"levelo://app?vid=16a8afe6-e43e-4d1b-a7bd-ed83d113735a","ios":"levelo://app?vid=16a8afe6-e43e-4d1b-a7bd-ed83d113735a"},"vehicle_type_id":"4","last_reported":1751437045,"current_range_meters":17600,"station_id":"","pricing_plan_id":"cebpf4jnsgd1na2vs0mg"},{"bike_id":"a0cef316-ad95-4855-8f78-a31341a2b90e","system_id":"levelo_inurba_marseille","lat":43.31274,"lon":5.37798,"is_reserved":false,"is_disabled":false,"rental_uris":{"android":"levelo://app?vid=a0cef316-ad95-4855-8f78-a31341a2b90e","ios":"levelo://app?vid=a0cef316-ad95-4855-8f78-a31341a2b90e"},"vehicle_type_id":"4","last_reported":1751437045,"current_range_meters":17600,"station_id":"","pricing_plan_id":"cebpf4jnsgd1na2vs0mg"},{"bike_id":"0e030323-4386-4e72-9a0d-0f6a2ff539de","system_id":"levelo_inurba_marseille","lat":43.296249,"lon":5.405585,"is_reserved":false,"is_disabled":false,"rental_uris":{"android":"levelo://app?vid=0e030323-4386-4e72-9a0d-0f6a2ff539de","ios":"levelo://app?vid=0e030323-4386-4e72-9a0d-0f6a2ff539de"},"vehicle_type_id":"4","last_reported":1751437045,"current_range_meters":17600,"station_id":"ce4bh0h2rcd13ifvqd60","pricing_plan_id":"cebpf4jnsgd1na2vs0mg"},{"bike_id":"d98b4152-dc5c-4709-836d-736229e21c44","system_id":"levelo_inurba_marseille","lat":43.306429,"lon":5.400756,"is_reserved":false,"is_disabled":false,"rental_uris":{"android":"levelo://app?vid=d98b4152-dc5c-4709-836d-736229e21c44","ios":"levelo://app?vid=d98b4152-dc5c-4709-836d-736229e21c44"},"vehicle_type_id":"4","last_reported":1751437045,"current_range_meters":17600,"station_id":"ce4bh112rcd13ifvqda0","pricing_plan_id":"cebpf4jnsgd1na2vs0mg"},{"bike_id":"110be0f7-19b6-4419-935c-8afdb1f29359","system_id":"levelo_inurba_marseille","lat":43.212056,"lon":5.350688,"is_reserved":false,"is_disabled":false,"rental_uris":{"android":"levelo://app?vid=110be0f7-19b6-4419-935c-8afdb1f29359","ios":"levelo://app?vid=110be0f7-19b6-4419-935c-8afdb1f29359"},"vehicle_type_id":"4","last_reported":1751437045,"current_range_meters":17600,"station_id":"st_cvj6sg6p6f1abm77japg","pricing_plan_id":"cebpf4jnsgd1na2vs0mg"},{"bike_id":"bcfd0eda-b9ab-4bec-9ca3-3f2b86617415","system_id":"levelo_inurba_marseille","lat":43.211896,"lon":5.350737,"is_reserved":false,"is_disabled":false,"rental_uris":{"android":"levelo://app?vid=bcfd0eda-b9ab-4bec-9ca3-3f2b86617415","ios":"levelo://app?vid=bcfd0eda-b9ab-4bec-9ca3-3f2b86617415"},"vehicle_type_id":"4","last_reported":1751437045,"current_range_meters":17600,"station_id":"st_cvj6sg6p6f1abm77japg","pricing_plan_id":"cebpf4jnsgd1na2vs0mg"},{"bike_id":"959e6f20-8ed0-4d36-bc1d-3efb82d6190b","system_id":"levelo_inurba_marseille","lat":43.211905,"lon":5.350806,"is_reserved":false,"is_disabled":false,"rental_uris":{"android":"levelo://app?vid=959e6f20-8ed0-4d36-bc1d-3efb82d6190b","ios":"levelo://app?vid=959e6f20-8ed0-4d36-bc1d-3efb82d6190b"},"vehicle_type_id":"4","last_reported":1751437045,"current_range_meters":17600,"station_id":"st_cvj6sg6p6f1abm77japg","pricing_plan_id":"cebpf4jnsgd1na2vs0mg"},{"bike_id":"4b562cb0-c122-4632-8a38-46fe43b726da","system_id":"levelo_inurba_marseille","lat":43.231537,"lon":5.437034,"is_reserved":false,"is_disabled":false,"rental_uris":{"android":"levelo://app?vid=4b562cb0-c122-4632-8a38-46fe43b726da","ios":"levelo://app?vid=4b562cb0-c122-4632-8a38-46fe43b726da"},"vehicle_type_id":"4","last_reported":1751437045,"current_range_meters":18000,"station_id":"ce4bhmp2rcd13ifvqgog","pricing_plan_id":"cebpf4jnsgd1na2vs0mg"},{"bike_id":"09a94feb-8911-4d3d-9f22-a7f611710ea1","system_id":"levelo_inurba_marseille","lat":43.211901,"lon":5.350734,"is_reserved":false,"is_disabled":false,"rental_uris":{"android":"levelo://app?vid=09a94feb-8911-4d3d-9f22-a7f611710ea1","ios":"levelo://app?vid=09a94feb-8911-4d3d-9f22-a7f611710ea1"},"vehicle_type_id":"4","last_reported":1751437045,"current_range_meters":18000,"station_id":"st_cvj6sg6p6f1abm77japg","pricing_plan_id":"cebpf4jnsgd1na2vs0mg"},{"bike_id":"8bf0d992-d2a0-428e-940a-091ee9b7c2a4","system_id":"levelo_inurba_marseille","lat":43.212065,"lon":5.350619,"is_reserved":false,"is_disabled":false,"rental_uris":{"android":"levelo://app?vid=8bf0d992-d2a0-428e-940a-091ee9b7c2a4","ios":"levelo://app?vid=8bf0d992-d2a0-428e-940a-091ee9b7c2a4"},"vehicle_type_id":"4","last_reported":1751437045,"current_range_meters":18000,"station_id":"st_cvj6sg6p6f1abm77japg","pricing_plan_id":"cebpf4jnsgd1na2vs0mg"},{"bike_id":"6eae5fbb-bc4f-401a-9bd0-3a8cb4df325d","system_id":"levelo_inurba_marseille","lat":43.296114,"lon":5.396989,"is_reserved":false,"is_disabled":false,"rental_uris":{"android":"levelo://app?vid=6eae5fbb-bc4f-401a-9bd0-3a8cb4df325d","ios":"levelo://app?vid=6eae5fbb-bc4f-401a-9bd0-3a8cb4df325d"},"vehicle_type_id":"4","last_reported":1751437045,"current_range_meters":18800,"station_id":"","pricing_plan_id":"cebpf4jnsgd1na2vs0mg"},{"bike_id":"8205db97-4fed-4735-9592-ef4d35fb7483","system_id":"levelo_inurba_marseille","lat":43.27912,"lon":5.38008,"is_reserved":false,"is_disabled":false,"rental_uris":{"android":"levelo://app?vid=8205db97-4fed-4735-9592-ef4d35fb7483","ios":"levelo://app?vid=8205db97-4fed-4735-9592-ef4d35fb7483"},"vehicle_type_id":"4","last_reported":1751437045,"current_range_meters":18800,"station_id":"ce4bhf92rcd13ifvqf50","pricing_plan_id":"cebpf4jnsgd1na2vs0mg"},{"bike_id":"c10a4283-320d-4e64-8d75-ff83e94026ba","system_id":"levelo_inurba_marseille","lat":43.211954,"lon":5.350796,"is_reserved":false,"is_disabled":false,"rental_uris":{"android":"levelo://app?vid=c10a4283-320d-4e64-8d75-ff83e94026ba","ios":"levelo://app?vid=c10a4283-320d-4e64-8d75-ff83e94026ba"},"vehicle_type_id":"4","last_reported":1751437045,"current_range_meters":18800,"station_id":"st_cvj6sg6p6f1abm77japg","pricing_plan_id":"cebpf4jnsgd1na2vs0mg"},{"bike_id":"6d2da863-a742-45db-855b-55a94467cfa4","system_id":"levelo_inurba_marseille","lat":43.325957,"lon":5.427504,"is_reserved":false,"is_disabled":false,"rental_uris":{"android":"levelo://app?vid=6d2da863-a742-45db-855b-55a94467cfa4","ios":"levelo://app?vid=6d2da863-a742-45db-855b-55a94467cfa4"},"vehicle_type_id":"4","last_reported":1751437045,"current_range_meters":19200,"station_id":"","pricing_plan_id":"cebpf4jnsgd1na2vs0mg"},{"bike_id":"7174916b-0499-426e-9e61-5d29ef6ba4ec","system_id":"levelo_inurba_marseille","lat":43.29014,"lon":5.35615,"is_reserved":false,"is_disabled":false,"rental_uris":{"android":"levelo://app?vid=7174916b-0499-426e-9e61-5d29ef6ba4ec","ios":"levelo://app?vid=7174916b-0499-426e-9e61-5d29ef6ba4ec"},"vehicle_type_id":"4","last_reported":1751437045,"current_range_meters":19200,"station_id":"ce4bhb92rcd13ifvqen0","pricing_plan_id":"cebpf4jnsgd1na2vs0mg"},{"bike_id":"92e0bf89-cb11-486a-ae64-82fa530049ef","system_id":"levelo_inurba_marseille","lat":43.30533,"lon":5.38426,"is_reserved":false,"is_disabled":false,"rental_uris":{"android":"levelo://app?vid=92e0bf89-cb11-486a-ae64-82fa530049ef","ios":"levelo://app?vid=92e0bf89-cb11-486a-ae64-82fa530049ef"},"vehicle_type_id":"4","last_reported":1751437045,"current_range_meters":19600,"station_id":"ce4bgg92rcd13ifvqb30","pricing_plan_id":"cebpf4jnsgd1na2vs0mg"},{"bike_id":"0f1ad247-ba2f-4a7c-8933-f7432279af1a","system_id":"levelo_inurba_marseille","lat":43.29273,"lon":5.40125,"is_reserved":false,"is_disabled":false,"rental_uris":{"android":"levelo://app?vid=0f1ad247-ba2f-4a7c-8933-f7432279af1a","ios":"levelo://app?vid=0f1ad247-ba2f-4a7c-8933-f7432279af1a"},"vehicle_type_id":"4","last_reported":1751437045,"current_range_meters":19600,"station_id":"ce4bh312rcd13ifvqdk0","pricing_plan_id":"cebpf4jnsgd1na2vs0mg"},{"bike_id":"bfa88f67-5f5b-49db-81cc-e4921c6889b1","system_id":"levelo_inurba_marseille","lat":43.321066,"lon":5.36769,"is_reserved":false,"is_disabled":false,"rental_uris":{"android":"levelo://app?vid=bfa88f67-5f5b-49db-81cc-e4921c6889b1","ios":"levelo://app?vid=bfa88f67-5f5b-49db-81cc-e4921c6889b1"},"vehicle_type_id":"4","last_reported":1751437045,"current_range_meters":19600,"station_id":"ce4bhrh2rcd13ifvqhug","pricing_plan_id":"cebpf4jnsgd1na2vs0mg"},{"bike_id":"6c7c1d32-0ac9-4a15-af93-f80da591f143","system_id":"levelo_inurba_marseille","lat":43.325,"lon":5.36582,"is_reserved":false,"is_disabled":false,"rental_uris":{"android":"levelo://app?vid=6c7c1d32-0ac9-4a15-af93-f80da591f143","ios":"levelo://app?vid=6c7c1d32-0ac9-4a15-af93-f80da591f143"},"vehicle_type_id":"4","last_reported":1751437045,"current_range_meters":19600,"station_id":"ce4bhs12rcd13ifvqhvg","pricing_plan_id":"cebpf4jnsgd1na2vs0mg"},{"bike_id":"d393009a-4549-46b8-9394-75871ff606d4","system_id":"levelo_inurba_marseille","lat":43.32337,"lon":5.3671,"is_reserved":false,"is_disabled":false,"rental_uris":{"android":"levelo://app?vid=d393009a-4549-46b8-9394-75871ff606d4","ios":"levelo://app?vid=d393009a-4549-46b8-9394-75871ff606d4"},"vehicle_type_id":"4","last_reported":1751437045,"current_range_meters":19600,"station_id":"ce4bhsh2rcd13ifvqi2g","pricing_plan_id":"cebpf4jnsgd1na2vs0mg"},{"bike_id":"78811adb-f50c-4bb7-82e3-1b69d586dfc1","system_id":"levelo_inurba_marseille","lat":43.293111,"lon":5.374691,"is_reserved":false,"is_disabled":false,"rental_uris":{"android":"levelo://app?vid=78811adb-f50c-4bb7-82e3-1b69d586dfc1","ios":"levelo://app?vid=78811adb-f50c-4bb7-82e3-1b69d586dfc1"},"vehicle_type_id":"4","last_reported":1751437045,"current_range_meters":20000,"station_id":"","pricing_plan_id":"cebpf4jnsgd1na2vs0mg"},{"bike_id":"1c85175b-3cdf-4570-954b-2d220e24b51a","system_id":"levelo_inurba_marseille","lat":43.30467,"lon":5.37884,"is_reserved":false,"is_disabled":false,"rental_uris":{"android":"levelo://app?vid=1c85175b-3cdf-4570-954b-2d220e24b51a","ios":"levelo://app?vid=1c85175b-3cdf-4570-954b-2d220e24b51a"},"vehicle_type_id":"4","last_reported":1751437045,"current_range_meters":20000,"station_id":"ce4bgup2rcd13ifvqcn0","pricing_plan_id":"cebpf4jnsgd1na2vs0mg"},{"bike_id":"cc2be97d-82a8-4a78-9730-d33423a2abfa","system_id":"levelo_inurba_marseille","lat":43.29279,"lon":5.40117,"is_reserved":false,"is_disabled":false,"rental_uris":{"android":"levelo://app?vid=cc2be97d-82a8-4a78-9730-d33423a2abfa","ios":"levelo://app?vid=cc2be97d-82a8-4a78-9730-d33423a2abfa"},"vehicle_type_id":"4","last_reported":1751437045,"current_range_meters":20000,"station_id":"ce4bh312rcd13ifvqdk0","pricing_plan_id":"cebpf4jnsgd1na2vs0mg"},{"bike_id":"0f590c2a-c81e-469d-a7d1-2741de3642a2","system_id":"levelo_inurba_marseille","lat":43.21199,"lon":5.35064,"is_reserved":false,"is_disabled":false,"rental_uris":{"android":"levelo://app?vid=0f590c2a-c81e-469d-a7d1-2741de3642a2","ios":"levelo://app?vid=0f590c2a-c81e-469d-a7d1-2741de3642a2"},"vehicle_type_id":"4","last_reported":1751437045,"current_range_meters":20000,"station_id":"st_cvj6sg6p6f1abm77japg","pricing_plan_id":"cebpf4jnsgd1na2vs0mg"},{"bike_id":"b2325bea-9a74-459a-a713-509c2ba84f3e","system_id":"levelo_inurba_marseille","lat":43.28322,"lon":5.41313,"is_reserved":false,"is_disabled":false,"rental_uris":{"android":"levelo://app?vid=b2325bea-9a74-459a-a713-509c2ba84f3e","ios":"levelo://app?vid=b2325bea-9a74-459a-a713-509c2ba84f3e"},"vehicle_type_id":"4","last_reported":1751437045,"current_range_meters":20400,"station_id":"","pricing_plan_id":"cebpf4jnsgd1na2vs0mg"},{"bike_id":"79a3aeb2-a2b2-4cad-9b86-ba6ca4824427","system_id":"levelo_inurba_marseille","lat":43.30156,"lon":5.38097,"is_reserved":false,"is_disabled":false,"rental_uris":{"android":"levelo://app?vid=79a3aeb2-a2b2-4cad-9b86-ba6ca4824427","ios":"levelo://app?vid=79a3aeb2-a2b2-4cad-9b86-ba6ca4824427"},"vehicle_type_id":"4","last_reported":1751437045,"current_range_meters":20400,"station_id":"ce4bgjp2rcd13ifvqbh0","pricing_plan_id":"cebpf4jnsgd1na2vs0mg"},{"bike_id":"5876cf28-1028-4353-be4c-f89a2001fc36","system_id":"levelo_inurba_marseille","lat":43.30645,"lon":5.40099,"is_reserved":false,"is_disabled":false,"rental_uris":{"android":"levelo://app?vid=5876cf28-1028-4353-be4c-f89a2001fc36","ios":"levelo://app?vid=5876cf28-1028-4353-be4c-f89a2001fc36"},"vehicle_type_id":"4","last_reported":1751437045,"current_range_meters":20400,"station_id":"ce4bh112rcd13ifvqda0","pricing_plan_id":"cebpf4jnsgd1na2vs0mg"},{"bike_id":"fd639549-cff6-4e2a-99dd-179281b981f7","system_id":"levelo_inurba_marseille","lat":43.29064,"lon":5.39974,"is_reserved":false,"is_disabled":false,"rental_uris":{"android":"levelo://app?vid=fd639549-cff6-4e2a-99dd-179281b981f7","ios":"levelo://app?vid=fd639549-cff6-4e2a-99dd-179281b981f7"},"vehicle_type_id":"4","last_reported":1751437045,"current_range_meters":20400,"station_id":"ce4bh392rcd13ifvqdm0","pricing_plan_id":"cebpf4jnsgd1na2vs0mg"},{"bike_id":"d23b80f5-f82b-4fc7-b1db-4261c9e8ee00","system_id":"levelo_inurba_marseille","lat":43.32494,"lon":5.36568,"is_reserved":false,"is_disabled":false,"rental_uris":{"android":"levelo://app?vid=d23b80f5-f82b-4fc7-b1db-4261c9e8ee00","ios":"levelo://app?vid=d23b80f5-f82b-4fc7-b1db-4261c9e8ee00"},"vehicle_type_id":"4","last_reported":1751437045,"current_range_meters":20400,"station_id":"ce4bhs12rcd13ifvqhvg","pricing_plan_id":"cebpf4jnsgd1na2vs0mg"},{"bike_id":"b7c4f4e7-ddbb-4243-982d-1ca4f75e59a6","system_id":"levelo_inurba_marseille","lat":43.32257,"lon":5.36725,"is_reserved":false,"is_disabled":false,"rental_uris":{"android":"levelo://app?vid=b7c4f4e7-ddbb-4243-982d-1ca4f75e59a6","ios":"levelo://app?vid=b7c4f4e7-ddbb-4243-982d-1ca4f75e59a6"},"vehicle_type_id":"4","last_reported":1751437045,"current_range_meters":20800,"station_id":"","pricing_plan_id":"cebpf4jnsgd1na2vs0mg"},{"bike_id":"595fc72e-949b-4711-a34d-213ed6b9d8a1","system_id":"levelo_inurba_marseille","lat":43.31352,"lon":5.36733,"is_reserved":false,"is_disabled":false,"rental_uris":{"android":"levelo://app?vid=595fc72e-949b-4711-a34d-213ed6b9d8a1","ios":"levelo://app?vid=595fc72e-949b-4711-a34d-213ed6b9d8a1"},"vehicle_type_id":"4","last_reported":1751437045,"current_range_meters":20800,"station_id":"ce4bgr92rcd13ifvqc6g","pricing_plan_id":"cebpf4jnsgd1na2vs0mg"},{"bike_id":"48a8b866-9a64-4b58-8b3a-d988de0d4af0","system_id":"levelo_inurba_marseille","lat":43.24164,"lon":5.36395,"is_reserved":false,"is_disabled":false,"rental_uris":{"android":"levelo://app?vid=48a8b866-9a64-4b58-8b3a-d988de0d4af0","ios":"levelo://app?vid=48a8b866-9a64-4b58-8b3a-d988de0d4af0"},"vehicle_type_id":"4","last_reported":1751437045,"current_range_meters":20800,"station_id":"cpo36qri1sfpv3e86is0","pricing_plan_id":"cebpf4jnsgd1na2vs0mg"},{"bike_id":"515ec3ca-f5c6-46fa-a700-b09851f49068","system_id":"levelo_inurba_marseille","lat":43.21203,"lon":5.35068,"is_reserved":false,"is_disabled":false,"rental_uris":{"android":"levelo://app?vid=515ec3ca-f5c6-46fa-a700-b09851f49068","ios":"levelo://app?vid=515ec3ca-f5c6-46fa-a700-b09851f49068"},"vehicle_type_id":"4","last_reported":1751437045,"current_range_meters":20800,"station_id":"st_cvj6sg6p6f1abm77japg","pricing_plan_id":"cebpf4jnsgd1na2vs0mg"},{"bike_id":"37b84a38-055a-4a6e-a56a-8ff3d0c1b2ec","system_id":"levelo_inurba_marseille","lat":43.21193,"lon":5.35068,"is_reserved":false,"is_disabled":false,"rental_uris":{"android":"levelo://app?vid=37b84a38-055a-4a6e-a56a-8ff3d0c1b2ec","ios":"levelo://app?vid=37b84a38-055a-4a6e-a56a-8ff3d0c1b2ec"},"vehicle_type_id":"4","last_reported":1751437045,"current_range_meters":20800,"station_id":"st_cvj6sg6p6f1abm77japg","pricing_plan_id":"cebpf4jnsgd1na2vs0mg"},{"bike_id":"1d9494a0-61d3-42e4-bc69-94f36bcc415d","system_id":"levelo_inurba_marseille","lat":43.29571,"lon":5.37517,"is_reserved":false,"is_disabled":false,"rental_uris":{"android":"levelo://app?vid=1d9494a0-61d3-42e4-bc69-94f36bcc415d","ios":"levelo://app?vid=1d9494a0-61d3-42e4-bc69-94f36bcc415d"},"vehicle_type_id":"4","last_reported":1751437045,"current_range_meters":21600,"station_id":"ce4bgh92rcd13ifvqb50","pricing_plan_id":"cebpf4jnsgd1na2vs0mg"},{"bike_id":"18500928-d06b-4286-9d8a-5a3c515b3db1","system_id":"levelo_inurba_marseille","lat":43.29306,"lon":5.37454,"is_reserved":false,"is_disabled":false,"rental_uris":{"android":"levelo://app?vid=18500928-d06b-4286-9d8a-5a3c515b3db1","ios":"levelo://app?vid=18500928-d06b-4286-9d8a-5a3c515b3db1"},"vehicle_type_id":"4","last_reported":1751437045,"current_range_meters":21600,"station_id":"ce4bgi12rcd13ifvqb70","pricing_plan_id":"cebpf4jnsgd1na2vs0mg"},{"bike_id":"e1e7c15b-5724-49e7-b0fb-d736d8c51249","system_id":"levelo_inurba_marseille","lat":43.24176,"lon":5.39718,"is_reserved":false,"is_disabled":false,"rental_uris":{"android":"levelo://app?vid=e1e7c15b-5724-49e7-b0fb-d736d8c51249","ios":"levelo://app?vid=e1e7c15b-5724-49e7-b0fb-d736d8c51249"},"vehicle_type_id":"4","last_reported":1751437045,"current_range_meters":21600,"station_id":"ce4bhn12rcd13ifvqgpg","pricing_plan_id":"cebpf4jnsgd1na2vs0mg"},{"bike_id":"35a38d9f-af4d-4a62-9e6c-8bfc8cca2d52","system_id":"levelo_inurba_marseille","lat":43.22933,"lon":5.3538,"is_reserved":false,"is_disabled":false,"rental_uris":{"android":"levelo://app?vid=35a38d9f-af4d-4a62-9e6c-8bfc8cca2d52","ios":"levelo://app?vid=35a38d9f-af4d-4a62-9e6c-8bfc8cca2d52"},"vehicle_type_id":"4","last_reported":1751437045,"current_range_meters":21600,"station_id":"cpo3532slgdg3j2ikp40","pricing_plan_id":"cebpf4jnsgd1na2vs0mg"},{"bike_id":"94014a9a-1f0e-44b6-a7eb-3f6ac81c0e15","system_id":"levelo_inurba_marseille","lat":43.256878,"lon":5.410638,"is_reserved":false,"is_disabled":false,"rental_uris":{"android":"levelo://app?vid=94014a9a-1f0e-44b6-a7eb-3f6ac81c0e15","ios":"levelo://app?vid=94014a9a-1f0e-44b6-a7eb-3f6ac81c0e15"},"vehicle_type_id":"4","last_reported":1751437045,"current_range_meters":22000,"station_id":"ce4bhm12rcd13ifvqgkg","pricing_plan_id":"cebpf4jnsgd1na2vs0mg"},{"bike_id":"4d4995e7-0bba-4ac2-a238-afd84a5e99b5","system_id":"levelo_inurba_marseille","lat":43.304848,"lon":5.398345,"is_reserved":false,"is_disabled":false,"rental_uris":{"android":"levelo://app?vid=4d4995e7-0bba-4ac2-a238-afd84a5e99b5","ios":"levelo://app?vid=4d4995e7-0bba-4ac2-a238-afd84a5e99b5"},"vehicle_type_id":"4","last_reported":1751437045,"current_range_meters":22400,"station_id":"","pricing_plan_id":"cebpf4jnsgd1na2vs0mg"},{"bike_id":"2d7ab8c9-ccb6-4168-91f8-ffbbd54cc09d","system_id":"levelo_inurba_marseille","lat":43.29747,"lon":5.369786,"is_reserved":false,"is_disabled":false,"rental_uris":{"android":"levelo://app?vid=2d7ab8c9-ccb6-4168-91f8-ffbbd54cc09d","ios":"levelo://app?vid=2d7ab8c9-ccb6-4168-91f8-ffbbd54cc09d"},"vehicle_type_id":"4","last_reported":1751437045,"current_range_meters":22400,"station_id":"","pricing_plan_id":"cebpf4jnsgd1na2vs0mg"},{"bike_id":"50bb0fdb-2cc1-4d8d-af26-b7febba54985","system_id":"levelo_inurba_marseille","lat":43.274139,"lon":5.39007,"is_reserved":false,"is_disabled":false,"rental_uris":{"android":"levelo://app?vid=50bb0fdb-2cc1-4d8d-af26-b7febba54985","ios":"levelo://app?vid=50bb0fdb-2cc1-4d8d-af26-b7febba54985"},"vehicle_type_id":"4","last_reported":1751437045,"current_range_meters":22400,"station_id":"","pricing_plan_id":"cebpf4jnsgd1na2vs0mg"},{"bike_id":"26e1cd53-ce80-4f26-8f93-18bdcecac2a5","system_id":"levelo_inurba_marseille","lat":43.30542,"lon":5.36556,"is_reserved":false,"is_disabled":false,"rental_uris":{"android":"levelo://app?vid=26e1cd53-ce80-4f26-8f93-18bdcecac2a5","ios":"levelo://app?vid=26e1cd53-ce80-4f26-8f93-18bdcecac2a5"},"vehicle_type_id":"4","last_reported":1751437045,"current_range_meters":22400,"station_id":"ce4bgs12rcd13ifvqcag","pricing_plan_id":"cebpf4jnsgd1na2vs0mg"},{"bike_id":"925f495f-4339-4d1c-8895-5fe178a84e91","system_id":"levelo_inurba_marseille","lat":43.292543,"lon":5.40912,"is_reserved":false,"is_disabled":false,"rental_uris":{"android":"levelo://app?vid=925f495f-4339-4d1c-8895-5fe178a84e91","ios":"levelo://app?vid=925f495f-4339-4d1c-8895-5fe178a84e91"},"vehicle_type_id":"4","last_reported":1751437045,"current_range_meters":22400,"station_id":"ce4bh192rcd13ifvqdc0","pricing_plan_id":"cebpf4jnsgd1na2vs0mg"},{"bike_id":"9483e92f-3be9-4c2c-b307-80df77bc6327","system_id":"levelo_inurba_marseille","lat":43.28719,"lon":5.39999,"is_reserved":false,"is_disabled":false,"rental_uris":{"android":"levelo://app?vid=9483e92f-3be9-4c2c-b307-80df77bc6327","ios":"levelo://app?vid=9483e92f-3be9-4c2c-b307-80df77bc6327"},"vehicle_type_id":"4","last_reported":1751437045,"current_range_meters":22400,"station_id":"ce4bho92rcd13ifvqh3g","pricing_plan_id":"cebpf4jnsgd1na2vs0mg"},{"bike_id":"0a5722fe-c4ed-40a0-b5e2-51d1add23a84","system_id":"levelo_inurba_marseille","lat":43.31079,"lon":5.38348,"is_reserved":false,"is_disabled":false,"rental_uris":{"android":"levelo://app?vid=0a5722fe-c4ed-40a0-b5e2-51d1add23a84","ios":"levelo://app?vid=0a5722fe-c4ed-40a0-b5e2-51d1add23a84"},"vehicle_type_id":"4","last_reported":1751437045,"current_range_meters":23200,"station_id":"ce4bgv92rcd13ifvqcr0","pricing_plan_id":"cebpf4jnsgd1na2vs0mg"},{"bike_id":"da77a745-1c65-4d54-93f1-cf7c91061294","system_id":"levelo_inurba_marseille","lat":43.290885,"lon":5.399823,"is_reserved":false,"is_disabled":false,"rental_uris":{"android":"levelo://app?vid=da77a745-1c65-4d54-93f1-cf7c91061294","ios":"levelo://app?vid=da77a745-1c65-4d54-93f1-cf7c91061294"},"vehicle_type_id":"4","last_reported":1751437045,"current_range_meters":23200,"station_id":"ce4bh392rcd13ifvqdm0","pricing_plan_id":"cebpf4jnsgd1na2vs0mg"},{"bike_id":"6cd556c5-3a94-4a23-99f2-2c8763a060fa","system_id":"levelo_inurba_marseille","lat":43.28371,"lon":5.38651,"is_reserved":false,"is_disabled":false,"rental_uris":{"android":"levelo://app?vid=6cd556c5-3a94-4a23-99f2-2c8763a060fa","ios":"levelo://app?vid=6cd556c5-3a94-4a23-99f2-2c8763a060fa"},"vehicle_type_id":"4","last_reported":1751437045,"current_range_meters":23200,"station_id":"ce4bh492rcd13ifvqdvg","pricing_plan_id":"cebpf4jnsgd1na2vs0mg"},{"bike_id":"3f73951b-9d3c-4ab8-968d-5b3aa41b7273","system_id":"levelo_inurba_marseille","lat":43.26211,"lon":5.37444,"is_reserved":false,"is_disabled":false,"rental_uris":{"android":"levelo://app?vid=3f73951b-9d3c-4ab8-968d-5b3aa41b7273","ios":"levelo://app?vid=3f73951b-9d3c-4ab8-968d-5b3aa41b7273"},"vehicle_type_id":"4","last_reported":1751437045,"current_range_meters":23200,"station_id":"ce4bhgp2rcd13ifvqfc0","pricing_plan_id":"cebpf4jnsgd1na2vs0mg"},{"bike_id":"1c8ab180-05fd-405f-9922-b2b2c2d5142f","system_id":"levelo_inurba_marseille","lat":43.337876,"lon":5.381174,"is_reserved":false,"is_disabled":false,"rental_uris":{"android":"levelo://app?vid=1c8ab180-05fd-405f-9922-b2b2c2d5142f","ios":"levelo://app?vid=1c8ab180-05fd-405f-9922-b2b2c2d5142f"},"vehicle_type_id":"4","last_reported":1751437045,"current_range_meters":24000,"station_id":"","pricing_plan_id":"cebpf4jnsgd1na2vs0mg"},{"bike_id":"c83cdff9-0942-489f-8778-d902264436d0","system_id":"levelo_inurba_marseille","lat":43.301512,"lon":5.38088,"is_reserved":false,"is_disabled":false,"rental_uris":{"android":"levelo://app?vid=c83cdff9-0942-489f-8778-d902264436d0","ios":"levelo://app?vid=c83cdff9-0942-489f-8778-d902264436d0"},"vehicle_type_id":"4","last_reported":1751437045,"current_range_meters":24000,"station_id":"ce4bgjp2rcd13ifvqbh0","pricing_plan_id":"cebpf4jnsgd1na2vs0mg"},{"bike_id":"e4c35fdd-9aa2-4910-8ccc-3ca19c13d48b","system_id":"levelo_inurba_marseille","lat":43.31369,"lon":5.385,"is_reserved":false,"is_disabled":false,"rental_uris":{"android":"levelo://app?vid=e4c35fdd-9aa2-4910-8ccc-3ca19c13d48b","ios":"levelo://app?vid=e4c35fdd-9aa2-4910-8ccc-3ca19c13d48b"},"vehicle_type_id":"4","last_reported":1751437045,"current_range_meters":24000,"station_id":"ce4bgt92rcd13ifvqcf0","pricing_plan_id":"cebpf4jnsgd1na2vs0mg"},{"bike_id":"3ec99d04-d051-490c-8ea5-7d6d4a1e51be","system_id":"levelo_inurba_marseille","lat":43.309369,"lon":5.401513,"is_reserved":false,"is_disabled":false,"rental_uris":{"android":"levelo://app?vid=3ec99d04-d051-490c-8ea5-7d6d4a1e51be","ios":"levelo://app?vid=3ec99d04-d051-490c-8ea5-7d6d4a1e51be"},"vehicle_type_id":"4","last_reported":1751437045,"current_range_meters":24000,"station_id":"ce4bgvp2rcd13ifvqct0","pricing_plan_id":"cebpf4jnsgd1na2vs0mg"},{"bike_id":"d554e6c9-574f-412e-844b-144385904547","system_id":"levelo_inurba_marseille","lat":43.28485,"lon":5.3842,"is_reserved":false,"is_disabled":false,"rental_uris":{"android":"levelo://app?vid=d554e6c9-574f-412e-844b-144385904547","ios":"levelo://app?vid=d554e6c9-574f-412e-844b-144385904547"},"vehicle_type_id":"4","last_reported":1751437045,"current_range_meters":24000,"station_id":"ce4bh512rcd13ifvqe3g","pricing_plan_id":"cebpf4jnsgd1na2vs0mg"},{"bike_id":"24976bf2-1b37-4dfa-a4ce-25f3cdf556d1","system_id":"levelo_inurba_marseille","lat":43.32336,"lon":5.40613,"is_reserved":false,"is_disabled":false,"rental_uris":{"android":"levelo://app?vid=24976bf2-1b37-4dfa-a4ce-25f3cdf556d1","ios":"levelo://app?vid=24976bf2-1b37-4dfa-a4ce-25f3cdf556d1"},"vehicle_type_id":"4","last_reported":1751437045,"current_range_meters":24000,"station_id":"ce4bhq92rcd13ifvqhjg","pricing_plan_id":"cebpf4jnsgd1na2vs0mg"},{"bike_id":"cc04118e-9312-4bf8-9106-d64e829afbaa","system_id":"levelo_inurba_marseille","lat":43.211991,"lon":5.350681,"is_reserved":false,"is_disabled":false,"rental_uris":{"android":"levelo://app?vid=cc04118e-9312-4bf8-9106-d64e829afbaa","ios":"levelo://app?vid=cc04118e-9312-4bf8-9106-d64e829afbaa"},"vehicle_type_id":"4","last_reported":1751437045,"current_range_meters":24000,"station_id":"st_cvj6sg6p6f1abm77japg","pricing_plan_id":"cebpf4jnsgd1na2vs0mg"},{"bike_id":"303331ef-1c75-45a0-ad87-c7d556b084c4","system_id":"levelo_inurba_marseille","lat":43.30641,"lon":5.401001,"is_reserved":false,"is_disabled":false,"rental_uris":{"android":"levelo://app?vid=303331ef-1c75-45a0-ad87-c7d556b084c4","ios":"levelo://app?vid=303331ef-1c75-45a0-ad87-c7d556b084c4"},"vehicle_type_id":"4","last_reported":1751437045,"current_range_meters":24400,"station_id":"ce4bh112rcd13ifvqda0","pricing_plan_id":"cebpf4jnsgd1na2vs0mg"},{"bike_id":"bc81df0c-67b6-4f01-bb9d-0c22dae07232","system_id":"levelo_inurba_marseille","lat":43.29256,"lon":5.40936,"is_reserved":false,"is_disabled":false,"rental_uris":{"android":"levelo://app?vid=bc81df0c-67b6-4f01-bb9d-0c22dae07232","ios":"levelo://app?vid=bc81df0c-67b6-4f01-bb9d-0c22dae07232"},"vehicle_type_id":"4","last_reported":1751437045,"current_range_meters":24400,"station_id":"ce4bh192rcd13ifvqdc0","pricing_plan_id":"cebpf4jnsgd1na2vs0mg"},{"bike_id":"17ac7197-6b46-4ef2-9d3c-c6f266d9cca1","system_id":"levelo_inurba_marseille","lat":43.29057,"lon":5.40006,"is_reserved":false,"is_disabled":false,"rental_uris":{"android":"levelo://app?vid=17ac7197-6b46-4ef2-9d3c-c6f266d9cca1","ios":"levelo://app?vid=17ac7197-6b46-4ef2-9d3c-c6f266d9cca1"},"vehicle_type_id":"4","last_reported":1751437045,"current_range_meters":24400,"station_id":"ce4bh392rcd13ifvqdm0","pricing_plan_id":"cebpf4jnsgd1na2vs0mg"},{"bike_id":"dcb3e861-e2ed-4995-9c0f-d7a1d42f021d","system_id":"levelo_inurba_marseille","lat":43.290468,"lon":5.399515,"is_reserved":false,"is_disabled":false,"rental_uris":{"android":"levelo://app?vid=dcb3e861-e2ed-4995-9c0f-d7a1d42f021d","ios":"levelo://app?vid=dcb3e861-e2ed-4995-9c0f-d7a1d42f021d"},"vehicle_type_id":"4","last_reported":1751437045,"current_range_meters":24400,"station_id":"ce4bh392rcd13ifvqdm0","pricing_plan_id":"cebpf4jnsgd1na2vs0mg"},{"bike_id":"28604891-9f61-4b43-bd27-62b5082f0166","system_id":"levelo_inurba_marseille","lat":43.27901,"lon":5.37972,"is_reserved":false,"is_disabled":false,"rental_uris":{"android":"levelo://app?vid=28604891-9f61-4b43-bd27-62b5082f0166","ios":"levelo://app?vid=28604891-9f61-4b43-bd27-62b5082f0166"},"vehicle_type_id":"4","last_reported":1751437045,"current_range_meters":24400,"station_id":"ce4bhf92rcd13ifvqf50","pricing_plan_id":"cebpf4jnsgd1na2vs0mg"},{"bike_id":"bf3a7ea3-39df-418d-9fc6-ab3d5bc1a92b","system_id":"levelo_inurba_marseille","lat":43.25722,"lon":5.41111,"is_reserved":false,"is_disabled":false,"rental_uris":{"android":"levelo://app?vid=bf3a7ea3-39df-418d-9fc6-ab3d5bc1a92b","ios":"levelo://app?vid=bf3a7ea3-39df-418d-9fc6-ab3d5bc1a92b"},"vehicle_type_id":"4","last_reported":1751437045,"current_range_meters":24400,"station_id":"ce4bhkp2rcd13ifvqgd0","pricing_plan_id":"cebpf4jnsgd1na2vs0mg"},{"bike_id":"3eabe1e2-f9f5-41cb-a4ed-73ca7f909c5c","system_id":"levelo_inurba_marseille","lat":43.21228,"lon":5.3503,"is_reserved":false,"is_disabled":false,"rental_uris":{"android":"levelo://app?vid=3eabe1e2-f9f5-41cb-a4ed-73ca7f909c5c","ios":"levelo://app?vid=3eabe1e2-f9f5-41cb-a4ed-73ca7f909c5c"},"vehicle_type_id":"4","last_reported":1751437045,"current_range_meters":24800,"station_id":"","pricing_plan_id":"cebpf4jnsgd1na2vs0mg"},{"bike_id":"302a7acd-1d74-45fd-a3db-8dc3ba1258a1","system_id":"levelo_inurba_marseille","lat":43.29977,"lon":5.38505,"is_reserved":false,"is_disabled":false,"rental_uris":{"android":"levelo://app?vid=302a7acd-1d74-45fd-a3db-8dc3ba1258a1","ios":"levelo://app?vid=302a7acd-1d74-45fd-a3db-8dc3ba1258a1"},"vehicle_type_id":"4","last_reported":1751437045,"current_range_meters":24800,"station_id":"ce4bgj92rcd13ifvqbd0","pricing_plan_id":"cebpf4jnsgd1na2vs0mg"},{"bike_id":"8dcbd70c-d9da-48c4-b21d-3510ccca8727","system_id":"levelo_inurba_marseille","lat":43.313507,"lon":5.368244,"is_reserved":false,"is_disabled":false,"rental_uris":{"android":"levelo://app?vid=8dcbd70c-d9da-48c4-b21d-3510ccca8727","ios":"levelo://app?vid=8dcbd70c-d9da-48c4-b21d-3510ccca8727"},"vehicle_type_id":"4","last_reported":1751437045,"current_range_meters":24800,"station_id":"ce4bgr92rcd13ifvqc6g","pricing_plan_id":"cebpf4jnsgd1na2vs0mg"},{"bike_id":"408993a5-8e8c-4ef3-9781-ae03e546b816","system_id":"levelo_inurba_marseille","lat":43.313293,"lon":5.396918,"is_reserved":false,"is_disabled":false,"rental_uris":{"android":"levelo://app?vid=408993a5-8e8c-4ef3-9781-ae03e546b816","ios":"levelo://app?vid=408993a5-8e8c-4ef3-9781-ae03e546b816"},"vehicle_type_id":"4","last_reported":1751437045,"current_range_meters":24800,"station_id":"ce4bgvp2rcd13ifvqcu0","pricing_plan_id":"cebpf4jnsgd1na2vs0mg"},{"bike_id":"8b363085-4d4c-4b50-8762-189afb6b83dc","system_id":"levelo_inurba_marseille","lat":43.306448,"lon":5.400834,"is_reserved":false,"is_disabled":false,"rental_uris":{"android":"levelo://app?vid=8b363085-4d4c-4b50-8762-189afb6b83dc","ios":"levelo://app?vid=8b363085-4d4c-4b50-8762-189afb6b83dc"},"vehicle_type_id":"4","last_reported":1751437045,"current_range_meters":24800,"station_id":"ce4bh112rcd13ifvqda0","pricing_plan_id":"cebpf4jnsgd1na2vs0mg"},{"bike_id":"ee6fa19d-9b47-4e3c-b221-318bd93aec76","system_id":"levelo_inurba_marseille","lat":43.24176,"lon":5.39725,"is_reserved":false,"is_disabled":false,"rental_uris":{"android":"levelo://app?vid=ee6fa19d-9b47-4e3c-b221-318bd93aec76","ios":"levelo://app?vid=ee6fa19d-9b47-4e3c-b221-318bd93aec76"},"vehicle_type_id":"4","last_reported":1751437045,"current_range_meters":24800,"station_id":"ce4bhn12rcd13ifvqgpg","pricing_plan_id":"cebpf4jnsgd1na2vs0mg"},{"bike_id":"5f1e5526-9ff8-4075-8194-48a897f058b4","system_id":"levelo_inurba_marseille","lat":43.21203,"lon":5.35067,"is_reserved":false,"is_disabled":false,"rental_uris":{"android":"levelo://app?vid=5f1e5526-9ff8-4075-8194-48a897f058b4","ios":"levelo://app?vid=5f1e5526-9ff8-4075-8194-48a897f058b4"},"vehicle_type_id":"4","last_reported":1751437045,"current_range_meters":24800,"station_id":"st_cvj6sg6p6f1abm77japg","pricing_plan_id":"cebpf4jnsgd1na2vs0mg"},{"bike_id":"7712491c-e18b-4b09-bb79-30880b357c07","system_id":"levelo_inurba_marseille","lat":43.211991,"lon":5.35083,"is_reserved":false,"is_disabled":false,"rental_uris":{"android":"levelo://app?vid=7712491c-e18b-4b09-bb79-30880b357c07","ios":"levelo://app?vid=7712491c-e18b-4b09-bb79-30880b357c07"},"vehicle_type_id":"4","last_reported":1751437045,"current_range_meters":25200,"station_id":"","pricing_plan_id":"cebpf4jnsgd1na2vs0mg"},{"bike_id":"ff258679-780d-487f-8cfc-baaa8ecea544","system_id":"levelo_inurba_marseille","lat":43.313303,"lon":5.397024,"is_reserved":false,"is_disabled":false,"rental_uris":{"android":"levelo://app?vid=ff258679-780d-487f-8cfc-baaa8ecea544","ios":"levelo://app?vid=ff258679-780d-487f-8cfc-baaa8ecea544"},"vehicle_type_id":"4","last_reported":1751437045,"current_range_meters":25200,"station_id":"ce4bgvp2rcd13ifvqcu0","pricing_plan_id":"cebpf4jnsgd1na2vs0mg"},{"bike_id":"f89c4b4e-8496-4009-a879-494292d7747b","system_id":"levelo_inurba_marseille","lat":43.24575,"lon":5.39469,"is_reserved":false,"is_disabled":false,"rental_uris":{"android":"levelo://app?vid=f89c4b4e-8496-4009-a879-494292d7747b","ios":"levelo://app?vid=f89c4b4e-8496-4009-a879-494292d7747b"},"vehicle_type_id":"4","last_reported":1751437045,"current_range_meters":25200,"station_id":"ce4bhlp2rcd13ifvqgjg","pricing_plan_id":"cebpf4jnsgd1na2vs0mg"},{"bike_id":"31fab6ac-cee8-4404-87e8-15e94cf1944e","system_id":"levelo_inurba_marseille","lat":43.24169,"lon":5.36397,"is_reserved":false,"is_disabled":false,"rental_uris":{"android":"levelo://app?vid=31fab6ac-cee8-4404-87e8-15e94cf1944e","ios":"levelo://app?vid=31fab6ac-cee8-4404-87e8-15e94cf1944e"},"vehicle_type_id":"4","last_reported":1751437045,"current_range_meters":25200,"station_id":"cpo36qri1sfpv3e86is0","pricing_plan_id":"cebpf4jnsgd1na2vs0mg"},{"bike_id":"ba926bfc-9632-4680-b0ed-32a040d6fb83","system_id":"levelo_inurba_marseille","lat":43.211879,"lon":5.350738,"is_reserved":false,"is_disabled":false,"rental_uris":{"android":"levelo://app?vid=ba926bfc-9632-4680-b0ed-32a040d6fb83","ios":"levelo://app?vid=ba926bfc-9632-4680-b0ed-32a040d6fb83"},"vehicle_type_id":"4","last_reported":1751437045,"current_range_meters":25200,"station_id":"st_cvj6sg6p6f1abm77japg","pricing_plan_id":"cebpf4jnsgd1na2vs0mg"},{"bike_id":"b13877a6-4825-4d82-b46b-67fa8ad66c5d","system_id":"levelo_inurba_marseille","lat":43.21197,"lon":5.35068,"is_reserved":false,"is_disabled":false,"rental_uris":{"android":"levelo://app?vid=b13877a6-4825-4d82-b46b-67fa8ad66c5d","ios":"levelo://app?vid=b13877a6-4825-4d82-b46b-67fa8ad66c5d"},"vehicle_type_id":"4","last_reported":1751437045,"current_range_meters":25200,"station_id":"st_cvj6sg6p6f1abm77japg","pricing_plan_id":"cebpf4jnsgd1na2vs0mg"},{"bike_id":"71ffcb62-3b9b-4669-b441-6eb31eb3ca72","system_id":"levelo_inurba_marseille","lat":43.30537,"lon":5.36715,"is_reserved":false,"is_disabled":false,"rental_uris":{"android":"levelo://app?vid=71ffcb62-3b9b-4669-b441-6eb31eb3ca72","ios":"levelo://app?vid=71ffcb62-3b9b-4669-b441-6eb31eb3ca72"},"vehicle_type_id":"4","last_reported":1751437045,"current_range_meters":25600,"station_id":"ce4bgrp2rcd13ifvqc9g","pricing_plan_id":"cebpf4jnsgd1na2vs0mg"},{"bike_id":"ce5d4f22-1174-4a1d-aaba-44bf500559f2","system_id":"levelo_inurba_marseille","lat":43.31485,"lon":5.37318,"is_reserved":false,"is_disabled":false,"rental_uris":{"android":"levelo://app?vid=ce5d4f22-1174-4a1d-aaba-44bf500559f2","ios":"levelo://app?vid=ce5d4f22-1174-4a1d-aaba-44bf500559f2"},"vehicle_type_id":"4","last_reported":1751437045,"current_range_meters":25600,"station_id":"ce4bgt12rcd13ifvqcd0","pricing_plan_id":"cebpf4jnsgd1na2vs0mg"},{"bike_id":"fbf9fe99-919e-4339-bad2-b3d595c6fbc5","system_id":"levelo_inurba_marseille","lat":43.3127,"lon":5.40174,"is_reserved":false,"is_disabled":false,"rental_uris":{"android":"levelo://app?vid=fbf9fe99-919e-4339-bad2-b3d595c6fbc5","ios":"levelo://app?vid=fbf9fe99-919e-4339-bad2-b3d595c6fbc5"},"vehicle_type_id":"4","last_reported":1751437045,"current_range_meters":25600,"station_id":"ce4bh092rcd13ifvqd30","pricing_plan_id":"cebpf4jnsgd1na2vs0mg"},{"bike_id":"43831cd0-714e-4395-8b12-16bdff27da35","system_id":"levelo_inurba_marseille","lat":43.23967,"lon":5.36629,"is_reserved":false,"is_disabled":false,"rental_uris":{"android":"levelo://app?vid=43831cd0-714e-4395-8b12-16bdff27da35","ios":"levelo://app?vid=43831cd0-714e-4395-8b12-16bdff27da35"},"vehicle_type_id":"4","last_reported":1751437045,"current_range_meters":25600,"station_id":"ce4bhi12rcd13ifvqfp0","pricing_plan_id":"cebpf4jnsgd1na2vs0mg"},{"bike_id":"45ced9af-06b9-41df-bacb-644359277690","system_id":"levelo_inurba_marseille","lat":43.24659,"lon":5.38166,"is_reserved":false,"is_disabled":false,"rental_uris":{"android":"levelo://app?vid=45ced9af-06b9-41df-bacb-644359277690","ios":"levelo://app?vid=45ced9af-06b9-41df-bacb-644359277690"},"vehicle_type_id":"4","last_reported":1751437045,"current_range_meters":25600,"station_id":"ce4bhih2rcd13ifvqfr0","pricing_plan_id":"cebpf4jnsgd1na2vs0mg"},{"bike_id":"56f9447b-46d8-46fb-bfdf-540e987f0e69","system_id":"levelo_inurba_marseille","lat":43.23195,"lon":5.35549,"is_reserved":false,"is_disabled":false,"rental_uris":{"android":"levelo://app?vid=56f9447b-46d8-46fb-bfdf-540e987f0e69","ios":"levelo://app?vid=56f9447b-46d8-46fb-bfdf-540e987f0e69"},"vehicle_type_id":"4","last_reported":1751437045,"current_range_meters":25600,"station_id":"ce4bhu92rcd13ifvqi70","pricing_plan_id":"cebpf4jnsgd1na2vs0mg"},{"bike_id":"7c476c81-6ea0-4032-92c2-e49b15ada154","system_id":"levelo_inurba_marseille","lat":43.21759,"lon":5.34601,"is_reserved":false,"is_disabled":false,"rental_uris":{"android":"levelo://app?vid=7c476c81-6ea0-4032-92c2-e49b15ada154","ios":"levelo://app?vid=7c476c81-6ea0-4032-92c2-e49b15ada154"},"vehicle_type_id":"4","last_reported":1751437045,"current_range_meters":26000,"station_id":"","pricing_plan_id":"cebpf4jnsgd1na2vs0mg"},{"bike_id":"3ebb4c90-7e5d-43b8-97d5-135bbb7011f8","system_id":"levelo_inurba_marseille","lat":43.30929,"lon":5.40151,"is_reserved":false,"is_disabled":false,"rental_uris":{"android":"levelo://app?vid=3ebb4c90-7e5d-43b8-97d5-135bbb7011f8","ios":"levelo://app?vid=3ebb4c90-7e5d-43b8-97d5-135bbb7011f8"},"vehicle_type_id":"4","last_reported":1751437045,"current_range_meters":26000,"station_id":"ce4bgvp2rcd13ifvqct0","pricing_plan_id":"cebpf4jnsgd1na2vs0mg"},{"bike_id":"ea7dd68f-bcd1-4d09-9212-3e01a22587c7","system_id":"levelo_inurba_marseille","lat":43.26558,"lon":5.37284,"is_reserved":false,"is_disabled":false,"rental_uris":{"android":"levelo://app?vid=ea7dd68f-bcd1-4d09-9212-3e01a22587c7","ios":"levelo://app?vid=ea7dd68f-bcd1-4d09-9212-3e01a22587c7"},"vehicle_type_id":"4","last_reported":1751437045,"current_range_meters":26000,"station_id":"ce4bhg12rcd13ifvqf70","pricing_plan_id":"cebpf4jnsgd1na2vs0mg"},{"bike_id":"9c5f6f2b-b4fe-4abd-90e1-346377586e8a","system_id":"levelo_inurba_marseille","lat":43.23952,"lon":5.36627,"is_reserved":false,"is_disabled":false,"rental_uris":{"android":"levelo://app?vid=9c5f6f2b-b4fe-4abd-90e1-346377586e8a","ios":"levelo://app?vid=9c5f6f2b-b4fe-4abd-90e1-346377586e8a"},"vehicle_type_id":"4","last_reported":1751437045,"current_range_meters":26000,"station_id":"ce4bhi12rcd13ifvqfp0","pricing_plan_id":"cebpf4jnsgd1na2vs0mg"},{"bike_id":"33c1ebf0-c66f-4cd4-8abb-d66a699330a3","system_id":"levelo_inurba_marseille","lat":43.24546,"lon":5.39526,"is_reserved":false,"is_disabled":false,"rental_uris":{"android":"levelo://app?vid=33c1ebf0-c66f-4cd4-8abb-d66a699330a3","ios":"levelo://app?vid=33c1ebf0-c66f-4cd4-8abb-d66a699330a3"},"vehicle_type_id":"4","last_reported":1751437045,"current_range_meters":26000,"station_id":"ce4bhlp2rcd13ifvqgjg","pricing_plan_id":"cebpf4jnsgd1na2vs0mg"},{"bike_id":"b3600546-fbf4-44fd-8c58-b7ac18d66423","system_id":"levelo_inurba_marseille","lat":43.28156,"lon":5.42642,"is_reserved":false,"is_disabled":false,"rental_uris":{"android":"levelo://app?vid=b3600546-fbf4-44fd-8c58-b7ac18d66423","ios":"levelo://app?vid=b3600546-fbf4-44fd-8c58-b7ac18d66423"},"vehicle_type_id":"4","last_reported":1751437045,"current_range_meters":26000,"station_id":"ce4bhnh2rcd13ifvqgug","pricing_plan_id":"cebpf4jnsgd1na2vs0mg"},{"bike_id":"559ed6ee-7ed1-41b8-a7b9-94151f20221c","system_id":"levelo_inurba_marseille","lat":43.321091,"lon":5.367724,"is_reserved":false,"is_disabled":false,"rental_uris":{"android":"levelo://app?vid=559ed6ee-7ed1-41b8-a7b9-94151f20221c","ios":"levelo://app?vid=559ed6ee-7ed1-41b8-a7b9-94151f20221c"},"vehicle_type_id":"4","last_reported":1751437045,"current_range_meters":26000,"station_id":"ce4bhrh2rcd13ifvqhug","pricing_plan_id":"cebpf4jnsgd1na2vs0mg"},{"bike_id":"abd1416b-81f1-4449-a615-560af9c0d4f4","system_id":"levelo_inurba_marseille","lat":43.323631,"lon":5.367624,"is_reserved":false,"is_disabled":false,"rental_uris":{"android":"levelo://app?vid=abd1416b-81f1-4449-a615-560af9c0d4f4","ios":"levelo://app?vid=abd1416b-81f1-4449-a615-560af9c0d4f4"},"vehicle_type_id":"4","last_reported":1751437045,"current_range_meters":26000,"station_id":"ce4bhsh2rcd13ifvqi2g","pricing_plan_id":"cebpf4jnsgd1na2vs0mg"},{"bike_id":"b3d7a6ac-4ad8-404e-91ae-53d96dbbd9fb","system_id":"levelo_inurba_marseille","lat":43.21208,"lon":5.35051,"is_reserved":false,"is_disabled":false,"rental_uris":{"android":"levelo://app?vid=b3d7a6ac-4ad8-404e-91ae-53d96dbbd9fb","ios":"levelo://app?vid=b3d7a6ac-4ad8-404e-91ae-53d96dbbd9fb"},"vehicle_type_id":"4","last_reported":1751437045,"current_range_meters":26000,"station_id":"st_cvj6sg6p6f1abm77japg","pricing_plan_id":"cebpf4jnsgd1na2vs0mg"},{"bike_id":"c9cd1ed4-febf-4f0f-8537-8f86861c9beb","system_id":"levelo_inurba_marseille","lat":43.211938,"lon":5.350685,"is_reserved":false,"is_disabled":false,"rental_uris":{"android":"levelo://app?vid=c9cd1ed4-febf-4f0f-8537-8f86861c9beb","ios":"levelo://app?vid=c9cd1ed4-febf-4f0f-8537-8f86861c9beb"},"vehicle_type_id":"4","last_reported":1751437045,"current_range_meters":26000,"station_id":"st_cvj6sg6p6f1abm77japg","pricing_plan_id":"cebpf4jnsgd1na2vs0mg"},{"bike_id":"4b8da722-ee9e-48a4-a5e5-3a8a10364708","system_id":"levelo_inurba_marseille","lat":43.312292,"lon":5.37821,"is_reserved":false,"is_disabled":false,"rental_uris":{"android":"levelo://app?vid=4b8da722-ee9e-48a4-a5e5-3a8a10364708","ios":"levelo://app?vid=4b8da722-ee9e-48a4-a5e5-3a8a10364708"},"vehicle_type_id":"4","last_reported":1751437045,"current_range_meters":26800,"station_id":"","pricing_plan_id":"cebpf4jnsgd1na2vs0mg"},{"bike_id":"148a0851-7c6f-4f25-beb9-5049a6813623","system_id":"levelo_inurba_marseille","lat":43.306016,"lon":5.372149,"is_reserved":false,"is_disabled":false,"rental_uris":{"android":"levelo://app?vid=148a0851-7c6f-4f25-beb9-5049a6813623","ios":"levelo://app?vid=148a0851-7c6f-4f25-beb9-5049a6813623"},"vehicle_type_id":"4","last_reported":1751437045,"current_range_meters":26800,"station_id":"ce4bgqh2rcd13ifvqc4g","pricing_plan_id":"cebpf4jnsgd1na2vs0mg"},{"bike_id":"21ff08df-88cb-4897-ae4b-3ad25dd3ed55","system_id":"levelo_inurba_marseille","lat":43.31714,"lon":5.37779,"is_reserved":false,"is_disabled":false,"rental_uris":{"android":"levelo://app?vid=21ff08df-88cb-4897-ae4b-3ad25dd3ed55","ios":"levelo://app?vid=21ff08df-88cb-4897-ae4b-3ad25dd3ed55"},"vehicle_type_id":"4","last_reported":1751437045,"current_range_meters":26800,"station_id":"ce4bgth2rcd13ifvqch0","pricing_plan_id":"cebpf4jnsgd1na2vs0mg"},{"bike_id":"a386e0b4-7bfd-4edc-a8b3-6ae437d2e705","system_id":"levelo_inurba_marseille","lat":43.31275,"lon":5.4016,"is_reserved":false,"is_disabled":false,"rental_uris":{"android":"levelo://app?vid=a386e0b4-7bfd-4edc-a8b3-6ae437d2e705","ios":"levelo://app?vid=a386e0b4-7bfd-4edc-a8b3-6ae437d2e705"},"vehicle_type_id":"4","last_reported":1751437045,"current_range_meters":26800,"station_id":"ce4bh092rcd13ifvqd30","pricing_plan_id":"cebpf4jnsgd1na2vs0mg"},{"bike_id":"402c1fca-19b5-49d0-9d71-38a4c8b963b7","system_id":"levelo_inurba_marseille","lat":43.306426,"lon":5.400805,"is_reserved":false,"is_disabled":false,"rental_uris":{"android":"levelo://app?vid=402c1fca-19b5-49d0-9d71-38a4c8b963b7","ios":"levelo://app?vid=402c1fca-19b5-49d0-9d71-38a4c8b963b7"},"vehicle_type_id":"4","last_reported":1751437045,"current_range_meters":26800,"station_id":"ce4bh112rcd13ifvqda0","pricing_plan_id":"cebpf4jnsgd1na2vs0mg"},{"bike_id":"f0d2c995-9dcd-4d64-925b-dd3c51795311","system_id":"levelo_inurba_marseille","lat":43.28276,"lon":5.35061,"is_reserved":false,"is_disabled":false,"rental_uris":{"android":"levelo://app?vid=f0d2c995-9dcd-4d64-925b-dd3c51795311","ios":"levelo://app?vid=f0d2c995-9dcd-4d64-925b-dd3c51795311"},"vehicle_type_id":"4","last_reported":1751437045,"current_range_meters":26800,"station_id":"ce4bhbp2rcd13ifvqerg","pricing_plan_id":"cebpf4jnsgd1na2vs0mg"},{"bike_id":"ede49dd2-230c-4f84-93ca-fd1a6c49257c","system_id":"levelo_inurba_marseille","lat":43.26793,"lon":5.3941,"is_reserved":false,"is_disabled":false,"rental_uris":{"android":"levelo://app?vid=ede49dd2-230c-4f84-93ca-fd1a6c49257c","ios":"levelo://app?vid=ede49dd2-230c-4f84-93ca-fd1a6c49257c"},"vehicle_type_id":"4","last_reported":1751437045,"current_range_meters":26800,"station_id":"ce4bhh12rcd13ifvqfg0","pricing_plan_id":"cebpf4jnsgd1na2vs0mg"},{"bike_id":"2c27e379-c3f4-4cb9-a803-1da3ae08643e","system_id":"levelo_inurba_marseille","lat":43.23967,"lon":5.36637,"is_reserved":false,"is_disabled":false,"rental_uris":{"android":"levelo://app?vid=2c27e379-c3f4-4cb9-a803-1da3ae08643e","ios":"levelo://app?vid=2c27e379-c3f4-4cb9-a803-1da3ae08643e"},"vehicle_type_id":"4","last_reported":1751437045,"current_range_meters":26800,"station_id":"ce4bhi12rcd13ifvqfp0","pricing_plan_id":"cebpf4jnsgd1na2vs0mg"},{"bike_id":"82e73369-54e6-4029-82a0-27f3e36f93b3","system_id":"levelo_inurba_marseille","lat":43.211871,"lon":5.350693,"is_reserved":false,"is_disabled":false,"rental_uris":{"android":"levelo://app?vid=82e73369-54e6-4029-82a0-27f3e36f93b3","ios":"levelo://app?vid=82e73369-54e6-4029-82a0-27f3e36f93b3"},"vehicle_type_id":"4","last_reported":1751437045,"current_range_meters":26800,"station_id":"st_cvj6sg6p6f1abm77japg","pricing_plan_id":"cebpf4jnsgd1na2vs0mg"},{"bike_id":"c13c93ac-6b62-443c-9e36-caf61b27325a","system_id":"levelo_inurba_marseille","lat":43.21221,"lon":5.35063,"is_reserved":false,"is_disabled":false,"rental_uris":{"android":"levelo://app?vid=c13c93ac-6b62-443c-9e36-caf61b27325a","ios":"levelo://app?vid=c13c93ac-6b62-443c-9e36-caf61b27325a"},"vehicle_type_id":"4","last_reported":1751437045,"current_range_meters":26800,"station_id":"st_cvj6sg6p6f1abm77japg","pricing_plan_id":"cebpf4jnsgd1na2vs0mg"},{"bike_id":"32c9d660-f0d5-4a7f-82cb-d3f8fdb41d95","system_id":"levelo_inurba_marseille","lat":43.292644,"lon":5.384239,"is_reserved":false,"is_disabled":false,"rental_uris":{"android":"levelo://app?vid=32c9d660-f0d5-4a7f-82cb-d3f8fdb41d95","ios":"levelo://app?vid=32c9d660-f0d5-4a7f-82cb-d3f8fdb41d95"},"vehicle_type_id":"4","last_reported":1751437045,"current_range_meters":27200,"station_id":"","pricing_plan_id":"cebpf4jnsgd1na2vs0mg"},{"bike_id":"9168be45-e93d-4377-93c2-b1a96fba7e52","system_id":"levelo_inurba_marseille","lat":43.25117,"lon":5.4031,"is_reserved":false,"is_disabled":false,"rental_uris":{"android":"levelo://app?vid=9168be45-e93d-4377-93c2-b1a96fba7e52","ios":"levelo://app?vid=9168be45-e93d-4377-93c2-b1a96fba7e52"},"vehicle_type_id":"4","last_reported":1751437045,"current_range_meters":27200,"station_id":"ce4bhlh2rcd13ifvqgig","pricing_plan_id":"cebpf4jnsgd1na2vs0mg"},{"bike_id":"5319a7b5-bbb1-413f-b2f3-950d9628274d","system_id":"levelo_inurba_marseille","lat":43.28429,"lon":5.39163,"is_reserved":false,"is_disabled":false,"rental_uris":{"android":"levelo://app?vid=5319a7b5-bbb1-413f-b2f3-950d9628274d","ios":"levelo://app?vid=5319a7b5-bbb1-413f-b2f3-950d9628274d"},"vehicle_type_id":"4","last_reported":1751437045,"current_range_meters":27200,"station_id":"ce4bhoh2rcd13ifvqh5g","pricing_plan_id":"cebpf4jnsgd1na2vs0mg"},{"bike_id":"d2817fce-8cbb-480f-9d87-77f086317334","system_id":"levelo_inurba_marseille","lat":43.33025,"lon":5.39039,"is_reserved":false,"is_disabled":false,"rental_uris":{"android":"levelo://app?vid=d2817fce-8cbb-480f-9d87-77f086317334","ios":"levelo://app?vid=d2817fce-8cbb-480f-9d87-77f086317334"},"vehicle_type_id":"4","last_reported":1751437045,"current_range_meters":27200,"station_id":"ce4bhr92rcd13ifvqhrg","pricing_plan_id":"cebpf4jnsgd1na2vs0mg"},{"bike_id":"f078bf08-9bba-4507-a23c-18da4d89050c","system_id":"levelo_inurba_marseille","lat":43.32369,"lon":5.36778,"is_reserved":false,"is_disabled":false,"rental_uris":{"android":"levelo://app?vid=f078bf08-9bba-4507-a23c-18da4d89050c","ios":"levelo://app?vid=f078bf08-9bba-4507-a23c-18da4d89050c"},"vehicle_type_id":"4","last_reported":1751437045,"current_range_meters":27200,"station_id":"ce4bhsh2rcd13ifvqi2g","pricing_plan_id":"cebpf4jnsgd1na2vs0mg"},{"bike_id":"291e5934-81b4-4c89-8a08-f7e0206e1975","system_id":"levelo_inurba_marseille","lat":43.305464,"lon":5.365521,"is_reserved":false,"is_disabled":false,"rental_uris":{"android":"levelo://app?vid=291e5934-81b4-4c89-8a08-f7e0206e1975","ios":"levelo://app?vid=291e5934-81b4-4c89-8a08-f7e0206e1975"},"vehicle_type_id":"4","last_reported":1751437045,"current_range_meters":27600,"station_id":"","pricing_plan_id":"cebpf4jnsgd1na2vs0mg"},{"bike_id":"f66e743d-3641-499e-bb77-db025ceb9fff","system_id":"levelo_inurba_marseille","lat":43.30159,"lon":5.38084,"is_reserved":false,"is_disabled":false,"rental_uris":{"android":"levelo://app?vid=f66e743d-3641-499e-bb77-db025ceb9fff","ios":"levelo://app?vid=f66e743d-3641-499e-bb77-db025ceb9fff"},"vehicle_type_id":"4","last_reported":1751437045,"current_range_meters":27600,"station_id":"ce4bgjp2rcd13ifvqbh0","pricing_plan_id":"cebpf4jnsgd1na2vs0mg"},{"bike_id":"02811f96-b39e-4ffa-b485-0f483a114cb3","system_id":"levelo_inurba_marseille","lat":43.30458,"lon":5.37901,"is_reserved":false,"is_disabled":false,"rental_uris":{"android":"levelo://app?vid=02811f96-b39e-4ffa-b485-0f483a114cb3","ios":"levelo://app?vid=02811f96-b39e-4ffa-b485-0f483a114cb3"},"vehicle_type_id":"4","last_reported":1751437045,"current_range_meters":27600,"station_id":"ce4bgup2rcd13ifvqcn0","pricing_plan_id":"cebpf4jnsgd1na2vs0mg"},{"bike_id":"4360efad-d6cd-4383-aed1-794f5dd02664","system_id":"levelo_inurba_marseille","lat":43.31068,"lon":5.38348,"is_reserved":false,"is_disabled":false,"rental_uris":{"android":"levelo://app?vid=4360efad-d6cd-4383-aed1-794f5dd02664","ios":"levelo://app?vid=4360efad-d6cd-4383-aed1-794f5dd02664"},"vehicle_type_id":"4","last_reported":1751437045,"current_range_meters":27600,"station_id":"ce4bgv92rcd13ifvqcr0","pricing_plan_id":"cebpf4jnsgd1na2vs0mg"},{"bike_id":"d87f9639-5425-4173-a8ad-694574dba6dd","system_id":"levelo_inurba_marseille","lat":43.28489,"lon":5.38561,"is_reserved":false,"is_disabled":false,"rental_uris":{"android":"levelo://app?vid=d87f9639-5425-4173-a8ad-694574dba6dd","ios":"levelo://app?vid=d87f9639-5425-4173-a8ad-694574dba6dd"},"vehicle_type_id":"4","last_reported":1751437045,"current_range_meters":27600,"station_id":"ce4bh8p2rcd13ifvqeb0","pricing_plan_id":"cebpf4jnsgd1na2vs0mg"},{"bike_id":"010e8e5a-f24a-4d79-bade-ddeac1063192","system_id":"levelo_inurba_marseille","lat":43.28154,"lon":5.42647,"is_reserved":false,"is_disabled":false,"rental_uris":{"android":"levelo://app?vid=010e8e5a-f24a-4d79-bade-ddeac1063192","ios":"levelo://app?vid=010e8e5a-f24a-4d79-bade-ddeac1063192"},"vehicle_type_id":"4","last_reported":1751437045,"current_range_meters":27600,"station_id":"ce4bhnh2rcd13ifvqgug","pricing_plan_id":"cebpf4jnsgd1na2vs0mg"},{"bike_id":"b1caba92-0223-497c-8e99-86acae42894a","system_id":"levelo_inurba_marseille","lat":43.32362,"lon":5.38885,"is_reserved":false,"is_disabled":false,"rental_uris":{"android":"levelo://app?vid=b1caba92-0223-497c-8e99-86acae42894a","ios":"levelo://app?vid=b1caba92-0223-497c-8e99-86acae42894a"},"vehicle_type_id":"4","last_reported":1751437045,"current_range_meters":27600,"station_id":"ce4bhqp2rcd13ifvqhog","pricing_plan_id":"cebpf4jnsgd1na2vs0mg"},{"bike_id":"b3b9c9ac-17b9-4972-bb27-0639798d2a01","system_id":"levelo_inurba_marseille","lat":43.211887,"lon":5.350738,"is_reserved":false,"is_disabled":false,"rental_uris":{"android":"levelo://app?vid=b3b9c9ac-17b9-4972-bb27-0639798d2a01","ios":"levelo://app?vid=b3b9c9ac-17b9-4972-bb27-0639798d2a01"},"vehicle_type_id":"4","last_reported":1751437045,"current_range_meters":27600,"station_id":"st_cvj6sg6p6f1abm77japg","pricing_plan_id":"cebpf4jnsgd1na2vs0mg"},