{"last_updated":1726045789,"ttl":30,"version":"2.2","data":{"bikes":[{"bike_id":"61ec69dc-0887-45a0-9a18-564e7d706b0b","system_id":"levelo_inurba_marseille","lat":43.24079,"lon":5.37738,"is_reserved":false,"is_disabled":false,"rental_uris":{"android":"levelo://app?vid=61ec69dc-0887-45a0-9a18-564e7d706b0b","ios":"levelo://app?vid=61ec69dc-0887-45a0-9a18-564e7d706b0b"},"vehicle_type_id":"4","last_reported":1726045789,"current_range_meters":28800,"station_id":"ce4bhnp2rcd13ifvqgvg","pricing_plan_id":"cebpf4jnsgd1na2vs0mg"},{"bike_id":"f56f0c93-bf77-4e54-9e0a-65b6b35b836b","system_id":"levelo_inurba_marseille","lat":43.25938,"lon":5.40906,"is_reserved":false,"is_disabled":false,"rental_uris":{"android":"levelo://app?vid=f56f0c93-bf77-4e54-9e0a-65b6b35b836b","ios":"levelo://app?vid=f56f0c93-bf77-4e54-9e0a-65b6b35b836b"},"vehicle_type_id":"4","last_reported":1726045789,"current_range_meters":12000,"station_id":"ce4bhm92rcd13ifvqglg","pricing_plan_id":"cebpf4jnsgd1na2vs0mg"},{"bike_id":"7acec152-70c9-405a-9331-95dbfededd69","system_id":"levelo_inurba_marseille","lat":43.26784,"lon":5.39421,"is_reserved":false,"is_disabled":false,"rental_uris":{"android":"levelo://app?vid=7acec152-70c9-405a-9331-95dbfededd69","ios":"levelo://app?vid=7acec152-70c9-405a-9331-95dbfededd69"},"vehicle_type_id":"4","last_reported":1726045789,"current_range_meters":6000,"station_id":"ce4bhh12rcd13ifvqfg0","pricing_plan_id":"cebpf4jnsgd1na2vs0mg"},{"bike_id":"4318ab11-4d98-4e68-b0b7-4220886c86cc","system_id":"levelo_inurba_marseille","lat":43.33748,"lon":5.37457,"is_reserved":false,"is_disabled":false,"rental_uris":{"android":"levelo://app?vid=4318ab11-4d98-4e68-b0b7-4220886c86cc","ios":"levelo://app?vid=4318ab11-4d98-4e68-b0b7-4220886c86cc"},"vehicle_type_id":"4","last_reported":1726045789,"current_range_meters":36800,"station_id":"","pricing_plan_id":"cebpf4jnsgd1na2vs0mg"},{"bike_id":"348f3afa-b544-412a-92a9-5547b08a990c","system_id":"levelo_inurba_marseille","lat":43.31351,"lon":5.36711,"is_reserved":false,"is_disabled":false,"rental_uris":{"android":"levelo://app?vid=348f3afa-b544-412a-92a9-5547b08a990c","ios":"levelo://app?vid=348f3afa-b544-412a-92a9-5547b08a990c"},"vehicle_type_id":"4","last_reported":1726045789,"current_range_meters":30000,"station_id":"ce4bgr92rcd13ifvqc6g","pricing_plan_id":"cebpf4jnsgd1na2vs0mg"},{"bike_id":"768e249c-ebb4-488f-9888-122fac8be4f9","system_id":"levelo_inurba_marseille","lat":43.29305,"lon":5.37173,"is_reserved":false,"is_disabled":false,"rental_uris":{"android":"levelo://app?vid=768e249c-ebb4-488f-9888-122fac8be4f9","ios":"levelo://app?vid=768e249c-ebb4-488f-9888-122fac8be4f9"},"vehicle_type_id":"4","last_reported":1726045789,"current_range_meters":34000,"station_id":"ce4bgh92rcd13ifvqb40","pricing_plan_id":"cebpf4jnsgd1na2vs0mg"},{"bike_id":"37f94764-d192-424c-880b-2abdc7836c82","system_id":"levelo_inurba_marseille","lat":43.29514,"lon":5.39397,"is_reserved":false,"is_disabled":false,"rental_uris":{"android":"levelo://app?vid=37f94764-d192-424c-880b-2abdc7836c82","ios":"levelo://app?vid=37f94764-d192-424c-880b-2abdc7836c82"},"vehicle_type_id":"4","last_reported":1726045789,"current_range_meters":23200,"station_id":"ce4bh292rcd13ifvqdf0","pricing_plan_id":"cebpf4jnsgd1na2vs0mg"},{"bike_id":"d1fe7f58-ca92-486e-9f07-67f3f914bb7e","system_id":"levelo_inurba_marseille","lat":43.27676,"lon":5.38886,"is_reserved":false,"is_disabled":false,"rental_uris":{"android":"levelo://app?vid=d1fe7f58-ca92-486e-9f07-67f3f914bb7e","ios":"levelo://app?vid=d1fe7f58-ca92-486e-9f07-67f3f914bb7e"},"vehicle_type_id":"4","last_reported":1726045789,"current_range_meters":17600,"station_id":"ce4bhi12rcd13ifvqfo0","pricing_plan_id":"cebpf4jnsgd1na2vs0mg"},{"bike_id":"2fd862b8-b2e1-47f9-bebb-44e9e3518085","system_id":"levelo_inurba_marseille","lat":43.337444,"lon":5.374475,"is_reserved":false,"is_disabled":false,"rental_uris":{"android":"levelo://app?vid=2fd862b8-b2e1-47f9-bebb-44e9e3518085","ios":"levelo://app?vid=2fd862b8-b2e1-47f9-bebb-44e9e3518085"},"vehicle_type_id":"4","last_reported":1726045789,"current_range_meters":34000,"station_id":"","pricing_plan_id":"cebpf4jnsgd1na2vs0mg"},{"bike_id":"b8ada792-75a7-4bd2-a45b-0503cca8388f","system_id":"levelo_inurba_marseille","lat":43.27491,"lon":5.42463,"is_reserved":false,"is_disabled":false,"rental_uris":{"android":"levelo://app?vid=b8ada792-75a7-4bd2-a45b-0503cca8388f","ios":"levelo://app?vid=b8ada792-75a7-4bd2-a45b-0503cca8388f"},"vehicle_type_id":"4","last_reported":1726045789,"current_range_meters":32000,"station_id":"ce4bhn92rcd13ifvqgrg","pricing_plan_id":"cebpf4jnsgd1na2vs0mg"},{"bike_id":"9197cc2f-e540-4acf-94c3-d2bc11595335","system_id":"levelo_inurba_marseille","lat":43.30539,"lon":5.38429,"is_reserved":false,"is_disabled":false,"rental_uris":{"android":"levelo://app?vid=9197cc2f-e540-4acf-94c3-d2bc11595335","ios":"levelo://app?vid=9197cc2f-e540-4acf-94c3-d2bc11595335"},"vehicle_type_id":"4","last_reported":1726045789,"current_range_meters":38800,"station_id":"ce4bgg92rcd13ifvqb30","pricing_plan_id":"cebpf4jnsgd1na2vs0mg"},{"bike_id":"74df2840-b8f2-454e-b98d-f9de8a15646c","system_id":"levelo_inurba_marseille","lat":43.24073,"lon":5.3776,"is_reserved":false,"is_disabled":false,"rental_uris":{"android":"levelo://app?vid=74df2840-b8f2-454e-b98d-f9de8a15646c","ios":"levelo://app?vid=74df2840-b8f2-454e-b98d-f9de8a15646c"},"vehicle_type_id":"4","last_reported":1726045789,"current_range_meters":32400,"station_id":"ce4bhnp2rcd13ifvqgvg","pricing_plan_id":"cebpf4jnsgd1na2vs0mg"},{"bike_id":"606812b3-e237-4313-961b-176e8196af47","system_id":"levelo_inurba_marseille","lat":43.30944,"lon":5.3903,"is_reserved":false,"is_disabled":false,"rental_uris":{"android":"levelo://app?vid=606812b3-e237-4313-961b-176e8196af47","ios":"levelo://app?vid=606812b3-e237-4313-961b-176e8196af47"},"vehicle_type_id":"4","last_reported":1726045789,"current_range_meters":12800,"station_id":"ce4bgup2rcd13ifvqco0","pricing_plan_id":"cebpf4jnsgd1na2vs0mg"},{"bike_id":"343f8a7b-c84d-46f3-98b4-8253eb0833f1","system_id":"levelo_inurba_marseille","lat":43.29548,"lon":5.42278,"is_reserved":false,"is_disabled":false,"rental_uris":{"android":"levelo://app?vid=343f8a7b-c84d-46f3-98b4-8253eb0833f1","ios":"levelo://app?vid=343f8a7b-c84d-46f3-98b4-8253eb0833f1"},"vehicle_type_id":"4","last_reported":1726045789,"current_range_meters":7200,"station_id":"ce4bhph2rcd13ifvqhdg","pricing_plan_id":"cebpf4jnsgd1na2vs0mg"},{"bike_id":"de4808b8-d2d5-4967-a7a2-7114e2e0cd28","system_id":"levelo_inurba_marseille","lat":43.27071,"lon":5.42274,"is_reserved":false,"is_disabled":false,"rental_uris":{"android":"levelo://app?vid=de4808b8-d2d5-4967-a7a2-7114e2e0cd28","ios":"levelo://app?vid=de4808b8-d2d5-4967-a7a2-7114e2e0cd28"},"vehicle_type_id":"4","last_reported":1726045789,"current_range_meters":40000,"station_id":"ce4bhk92rcd13ifvqgb0","pricing_plan_id":"cebpf4jnsgd1na2vs0mg"},{"bike_id":"17aead3c-833f-49ed-a31d-2f30fd517c4a","system_id":"levelo_inurba_marseille","lat":43.27314,"lon":5.39076,"is_reserved":false,"is_disabled":false,"rental_uris":{"android":"levelo://app?vid=17aead3c-833f-49ed-a31d-2f30fd517c4a","ios":"levelo://app?vid=17aead3c-833f-49ed-a31d-2f30fd517c4a"},"vehicle_type_id":"4","last_reported":1726045789,"current_range_meters":3200,"station_id":"ce4bhgp2rcd13ifvqfe0","pricing_plan_id":"cebpf4jnsgd1na2vs0mg"},{"bike_id":"1cb960ff-e13b-4967-96c3-9bb678092963","system_id":"levelo_inurba_marseille","lat":43.297168,"lon":5.377081,"is_reserved":false,"is_disabled":false,"rental_uris":{"android":"levelo://app?vid=1cb960ff-e13b-4967-96c3-9bb678092963","ios":"levelo://app?vid=1cb960ff-e13b-4967-96c3-9bb678092963"},"vehicle_type_id":"4","last_reported":1726045789,"current_range_meters":28800,"station_id":"ce4bgkh2rcd13ifvqbl0","pricing_plan_id":"cebpf4jnsgd1na2vs0mg"},{"bike_id":"f9e09b67-3554-4f00-8f5e-43815f704dda","system_id":"levelo_inurba_marseille","lat":43.31342,"lon":5.36732,"is_reserved":false,"is_disabled":false,"rental_uris":{"android":"levelo://app?vid=f9e09b67-3554-4f00-8f5e-43815f704dda","ios":"levelo://app?vid=f9e09b67-3554-4f00-8f5e-43815f704dda"},"vehicle_type_id":"4","last_reported":1726045789,"current_range_meters":28800,"station_id":"ce4bgr92rcd13ifvqc6g","pricing_plan_id":"cebpf4jnsgd1na2vs0mg"},{"bike_id":"99d633d7-3557-42a6-a763-a214f5851f3a","system_id":"levelo_inurba_marseille","lat":43.32364,"lon":5.38891,"is_reserved":false,"is_disabled":false,"rental_uris":{"android":"levelo://app?vid=99d633d7-3557-42a6-a763-a214f5851f3a","ios":"levelo://app?vid=99d633d7-3557-42a6-a763-a214f5851f3a"},"vehicle_type_id":"4","last_reported":1726045789,"current_range_meters":38800,"station_id":"ce4bhqp2rcd13ifvqhog","pricing_plan_id":"cebpf4jnsgd1na2vs0mg"},{"bike_id":"d02d6740-b6de-4487-a048-a0fcd35b8dee","system_id":"levelo_inurba_marseille","lat":43.23144,"lon":5.43712,"is_reserved":false,"is_disabled":false,"rental_uris":{"android":"levelo://app?vid=d02d6740-b6de-4487-a048-a0fcd35b8dee","ios":"levelo://app?vid=d02d6740-b6de-4487-a048-a0fcd35b8dee"},"vehicle_type_id":"4","last_reported":1726045789,"current_range_meters":36800,"station_id":"ce4bhmp2rcd13ifvqgog","pricing_plan_id":"cebpf4jnsgd1na2vs0mg"},{"bike_id":"52b6f664-ae9c-4a55-ab6e-a9d066fb0413","system_id":"levelo_inurba_marseille","lat":43.29027,"lon":5.3864,"is_reserved":false,"is_disabled":false,"rental_uris":{"android":"levelo://app?vid=52b6f664-ae9c-4a55-ab6e-a9d066fb0413","ios":"levelo://app?vid=52b6f664-ae9c-4a55-ab6e-a9d066fb0413"},"vehicle_type_id":"4","last_reported":1726045789,"current_range_meters":16800,"station_id":"ce4bh4p2rcd13ifvqe0g","pricing_plan_id":"cebpf4jnsgd1na2vs0mg"},{"bike_id":"b0c418e3-7076-4b48-86c9-8b078567e702","system_id":"levelo_inurba_marseille","lat":43.24084,"lon":5.37741,"is_reserved":false,"is_disabled":false,"rental_uris":{"android":"levelo://app?vid=b0c418e3-7076-4b48-86c9-8b078567e702","ios":"levelo://app?vid=b0c418e3-7076-4b48-86c9-8b078567e702"},"vehicle_type_id":"4","last_reported":1726045789,"current_range_meters":25600,"station_id":"ce4bhnp2rcd13ifvqgvg","pricing_plan_id":"cebpf4jnsgd1na2vs0mg"},{"bike_id":"538d6d1e-2c31-4236-90e6-dde876c1684c","system_id":"levelo_inurba_marseille","lat":43.23963,"lon":5.36634,"is_reserved":false,"is_disabled":false,"rental_uris":{"android":"levelo://app?vid=538d6d1e-2c31-4236-90e6-dde876c1684c","ios":"levelo://app?vid=538d6d1e-2c31-4236-90e6-dde876c1684c"},"vehicle_type_id":"4","last_reported":1726045789,"current_range_meters":26000,"station_id":"ce4bhi12rcd13ifvqfp0","pricing_plan_id":"cebpf4jnsgd1na2vs0mg"},{"bike_id":"d1321249-2a3a-4948-8d9a-c4334a161631","system_id":"levelo_inurba_marseille","lat":43.26941,"lon":5.38632,"is_reserved":false,"is_disabled":false,"rental_uris":{"android":"levelo://app?vid=d1321249-2a3a-4948-8d9a-c4334a161631","ios":"levelo://app?vid=d1321249-2a3a-4948-8d9a-c4334a161631"},"vehicle_type_id":"4","last_reported":1726045789,"current_range_meters":21600,"station_id":"ce4bhh92rcd13ifvqfh0","pricing_plan_id":"cebpf4jnsgd1na2vs0mg"},{"bike_id":"e705d9fb-2171-4281-8e32-77a497e36ec3","system_id":"levelo_inurba_marseille","lat":43.26936,"lon":5.4024,"is_reserved":false,"is_disabled":false,"rental_uris":{"android":"levelo://app?vid=e705d9fb-2171-4281-8e32-77a497e36ec3","ios":"levelo://app?vid=e705d9fb-2171-4281-8e32-77a497e36ec3"},"vehicle_type_id":"4","last_reported":1726045789,"current_range_meters":22000,"station_id":"cjm6bp8fraef2m0cb0m0","pricing_plan_id":"cebpf4jnsgd1na2vs0mg"},{"bike_id":"41fc4b78-f7f9-4fec-be8f-e46760e47264","system_id":"levelo_inurba_marseille","lat":43.26941,"lon":5.38637,"is_reserved":false,"is_disabled":false,"rental_uris":{"android":"levelo://app?vid=41fc4b78-f7f9-4fec-be8f-e46760e47264","ios":"levelo://app?vid=41fc4b78-f7f9-4fec-be8f-e46760e47264"},"vehicle_type_id":"4","last_reported":1726045789,"current_range_meters":13600,"station_id":"ce4bhh92rcd13ifvqfh0","pricing_plan_id":"cebpf4jnsgd1na2vs0mg"},{"bike_id":"713f036d-c204-48bb-a84e-ce520244ef7d","system_id":"levelo_inurba_marseille","lat":43.30135,"lon":5.37416,"is_reserved":false,"is_disabled":false,"rental_uris":{"android":"levelo://app?vid=713f036d-c204-48bb-a84e-ce520244ef7d","ios":"levelo://app?vid=713f036d-c204-48bb-a84e-ce520244ef7d"},"vehicle_type_id":"4","last_reported":1726045789,"current_range_meters":9200,"station_id":"ce4bgs92rcd13ifvqcc0","pricing_plan_id":"cebpf4jnsgd1na2vs0mg"},{"bike_id":"5523ca1f-962f-464a-ac70-1f7d6b702d26","system_id":"levelo_inurba_marseille","lat":43.27211,"lon":5.39177,"is_reserved":false,"is_disabled":false,"rental_uris":{"android":"levelo://app?vid=5523ca1f-962f-464a-ac70-1f7d6b702d26","ios":"levelo://app?vid=5523ca1f-962f-464a-ac70-1f7d6b702d26"},"vehicle_type_id":"4","last_reported":1726045789,"current_range_meters":20800,"station_id":"ce4bhhp2rcd13ifvqfm0","pricing_plan_id":"cebpf4jnsgd1na2vs0mg"},{"bike_id":"b166395c-e06a-4677-bd0f-6e12c9de7c37","system_id":"levelo_inurba_marseille","lat":43.25103,"lon":5.4033,"is_reserved":false,"is_disabled":false,"rental_uris":{"android":"levelo://app?vid=b166395c-e06a-4677-bd0f-6e12c9de7c37","ios":"levelo://app?vid=b166395c-e06a-4677-bd0f-6e12c9de7c37"},"vehicle_type_id":"4","last_reported":1726045789,"current_range_meters":30400,"station_id":"ce4bhlh2rcd13ifvqgig","pricing_plan_id":"cebpf4jnsgd1na2vs0mg"},{"bike_id":"e06026df-eb9b-438c-b639-ce57cdbcdc2a","system_id":"levelo_inurba_marseille","lat":43.31339,"lon":5.36749,"is_reserved":false,"is_disabled":false,"rental_uris":{"android":"levelo://app?vid=e06026df-eb9b-438c-b639-ce57cdbcdc2a","ios":"levelo://app?vid=e06026df-eb9b-438c-b639-ce57cdbcdc2a"},"vehicle_type_id":"4","last_reported":1726045789,"current_range_meters":29600,"station_id":"ce4bgr92rcd13ifvqc6g","pricing_plan_id":"cebpf4jnsgd1na2vs0mg"},{"bike_id":"2413a8c5-3673-44da-a30b-07a1465e7a31","system_id":"levelo_inurba_marseille","lat":43.24179,"lon":5.39721,"is_reserved":false,"is_disabled":false,"rental_uris":{"android":"levelo://app?vid=2413a8c5-3673-44da-a30b-07a1465e7a31","ios":"levelo://app?vid=2413a8c5-3673-44da-a30b-07a1465e7a31"},"vehicle_type_id":"4","last_reported":1726045789,"current_range_meters":4400,"station_id":"ce4bhn12rcd13ifvqgpg","pricing_plan_id":"cebpf4jnsgd1na2vs0mg"},{"bike_id":"36b476ff-1eb7-400a-b3c7-043570dc2d0d","system_id":"levelo_inurba_marseille","lat":43.2606,"lon":5.39392,"is_reserved":false,"is_disabled":false,"rental_uris":{"android":"levelo://app?vid=36b476ff-1eb7-400a-b3c7-043570dc2d0d","ios":"levelo://app?vid=36b476ff-1eb7-400a-b3c7-043570dc2d0d"},"vehicle_type_id":"4","last_reported":1726045789,"current_range_meters":38800,"station_id":"ce4bhh92rcd13ifvqfj0","pricing_plan_id":"cebpf4jnsgd1na2vs0mg"},{"bike_id":"3fe08eb9-4527-4b5a-a243-92108b77b044","system_id":"levelo_inurba_marseille","lat":43.30255,"lon":5.40077,"is_reserved":false,"is_disabled":false,"rental_uris":{"android":"levelo://app?vid=3fe08eb9-4527-4b5a-a243-92108b77b044","ios":"levelo://app?vid=3fe08eb9-4527-4b5a-a243-92108b77b044"},"vehicle_type_id":"4","last_reported":1726045789,"current_range_meters":8400,"station_id":"ce4bgvh2rcd13ifvqcs0","pricing_plan_id":"cebpf4jnsgd1na2vs0mg"},{"bike_id":"98f8975b-1652-45a9-a84f-e0f8cf84af34","system_id":"levelo_inurba_marseille","lat":43.23153,"lon":5.4372,"is_reserved":false,"is_disabled":false,"rental_uris":{"android":"levelo://app?vid=98f8975b-1652-45a9-a84f-e0f8cf84af34","ios":"levelo://app?vid=98f8975b-1652-45a9-a84f-e0f8cf84af34"},"vehicle_type_id":"4","last_reported":1726045789,"current_range_meters":16400,"station_id":"ce4bhmp2rcd13ifvqgog","pricing_plan_id":"cebpf4jnsgd1na2vs0mg"},{"bike_id":"79c048a7-5de8-4f6b-a4ee-caa7e8248925","system_id":"levelo_inurba_marseille","lat":43.24066,"lon":5.37754,"is_reserved":false,"is_disabled":false,"rental_uris":{"android":"levelo://app?vid=79c048a7-5de8-4f6b-a4ee-caa7e8248925","ios":"levelo://app?vid=79c048a7-5de8-4f6b-a4ee-caa7e8248925"},"vehicle_type_id":"4","last_reported":1726045789,"current_range_meters":21600,"station_id":"ce4bhnp2rcd13ifvqgvg","pricing_plan_id":"cebpf4jnsgd1na2vs0mg"},{"bike_id":"c418a0a3-69bc-4a59-97fd-7bc4eeb30394","system_id":"levelo_inurba_marseille","lat":43.30521,"lon":5.36537,"is_reserved":false,"is_disabled":false,"rental_uris":{"android":"levelo://app?vid=c418a0a3-69bc-4a59-97fd-7bc4eeb30394","ios":"levelo://app?vid=c418a0a3-69bc-4a59-97fd-7bc4eeb30394"},"vehicle_type_id":"4","last_reported":1726045789,"current_range_meters":40000,"station_id":"ce4bgs12rcd13ifvqcag","pricing_plan_id":"cebpf4jnsgd1na2vs0mg"},{"bike_id":"a4b6f6c8-c1fd-4611-b4cd-50165fc92afe","system_id":"levelo_inurba_marseille","lat":43.27951,"lon":5.41053,"is_reserved":false,"is_disabled":false,"rental_uris":{"android":"levelo://app?vid=a4b6f6c8-c1fd-4611-b4cd-50165fc92afe","ios":"levelo://app?vid=a4b6f6c8-c1fd-4611-b4cd-50165fc92afe"},"vehicle_type_id":"4","last_reported":1726045789,"current_range_meters":32400,"station_id":"ce4bhnp2rcd13ifvqh0g","pricing_plan_id":"cebpf4jnsgd1na2vs0mg"},{"bike_id":"20b6c1e3-352e-4d2d-a6cb-1be93c03020d","system_id":"levelo_inurba_marseille","lat":43.283525,"lon":5.381034,"is_reserved":false,"is_disabled":false,"rental_uris":{"android":"levelo://app?vid=20b6c1e3-352e-4d2d-a6cb-1be93c03020d","ios":"levelo://app?vid=20b6c1e3-352e-4d2d-a6cb-1be93c03020d"},"vehicle_type_id":"4","last_reported":1726045789,"current_range_meters":18800,"station_id":"ce4bh412rcd13ifvqdr0","pricing_plan_id":"cebpf4jnsgd1na2vs0mg"},{"bike_id":"17192454-d19a-45de-ab35-dd086d3e77de","system_id":"levelo_inurba_marseille","lat":43.2439,"lon":5.37054,"is_reserved":false,"is_disabled":false,"rental_uris":{"android":"levelo://app?vid=17192454-d19a-45de-ab35-dd086d3e77de","ios":"levelo://app?vid=17192454-d19a-45de-ab35-dd086d3e77de"},"vehicle_type_id":"4","last_reported":1726045789,"current_range_meters":26800,"station_id":"ce4bhhh2rcd13ifvqfk0","pricing_plan_id":"cebpf4jnsgd1na2vs0mg"},{"bike_id":"8d7f248b-6c0b-4995-9e4c-debf95ec370d","system_id":"levelo_inurba_marseille","lat":43.26055,"lon":5.39394,"is_reserved":false,"is_disabled":false,"rental_uris":{"android":"levelo://app?vid=8d7f248b-6c0b-4995-9e4c-debf95ec370d","ios":"levelo://app?vid=8d7f248b-6c0b-4995-9e4c-debf95ec370d"},"vehicle_type_id":"4","last_reported":1726045789,"current_range_meters":6800,"station_id":"ce4bhh92rcd13ifvqfj0","pricing_plan_id":"cebpf4jnsgd1na2vs0mg"},{"bike_id":"fd3354de-68f6-4b98-9a94-9e79e9064e9b","system_id":"levelo_inurba_marseille","lat":43.26577,"lon":5.39008,"is_reserved":false,"is_disabled":false,"rental_uris":{"android":"levelo://app?vid=fd3354de-68f6-4b98-9a94-9e79e9064e9b","ios":"levelo://app?vid=fd3354de-68f6-4b98-9a94-9e79e9064e9b"},"vehicle_type_id":"4","last_reported":1726045789,"current_range_meters":19200,"station_id":"ce4bhe12rcd13ifvqf30","pricing_plan_id":"cebpf4jnsgd1na2vs0mg"},{"bike_id":"77dfebe9-72cd-4c09-9417-499e190dd071","system_id":"levelo_inurba_marseille","lat":43.30526,"lon":5.36707,"is_reserved":false,"is_disabled":false,"rental_uris":{"android":"levelo://app?vid=77dfebe9-72cd-4c09-9417-499e190dd071","ios":"levelo://app?vid=77dfebe9-72cd-4c09-9417-499e190dd071"},"vehicle_type_id":"4","last_reported":1726045789,"current_range_meters":39200,"station_id":"ce4bgrp2rcd13ifvqc9g","pricing_plan_id":"cebpf4jnsgd1na2vs0mg"},{"bike_id":"e0077200-515e-4641-b14d-5db5b7362c97","system_id":"levelo_inurba_marseille","lat":43.29913,"lon":5.37482,"is_reserved":false,"is_disabled":false,"rental_uris":{"android":"levelo://app?vid=e0077200-515e-4641-b14d-5db5b7362c97","ios":"levelo://app?vid=e0077200-515e-4641-b14d-5db5b7362c97"},"vehicle_type_id":"4","last_reported":1726045789,"current_range_meters":38800,"station_id":"ce4bgjh2rcd13ifvqbg0","pricing_plan_id":"cebpf4jnsgd1na2vs0mg"},{"bike_id":"b75a39c8-a36f-45e0-879f-5989f5af4897","system_id":"levelo_inurba_marseille","lat":43.30472,"lon":5.37906,"is_reserved":false,"is_disabled":false,"rental_uris":{"android":"levelo://app?vid=b75a39c8-a36f-45e0-879f-5989f5af4897","ios":"levelo://app?vid=b75a39c8-a36f-45e0-879f-5989f5af4897"},"vehicle_type_id":"4","last_reported":1726045789,"current_range_meters":25200,"station_id":"ce4bgup2rcd13ifvqcn0","pricing_plan_id":"cebpf4jnsgd1na2vs0mg"},{"bike_id":"218f8861-3f84-4ab8-921c-09db0498ca49","system_id":"levelo_inurba_marseille","lat":43.29568,"lon":5.3751,"is_reserved":false,"is_disabled":false,"rental_uris":{"android":"levelo://app?vid=218f8861-3f84-4ab8-921c-09db0498ca49","ios":"levelo://app?vid=218f8861-3f84-4ab8-921c-09db0498ca49"},"vehicle_type_id":"4","last_reported":1726045789,"current_range_meters":6400,"station_id":"ce4bgh92rcd13ifvqb50","pricing_plan_id":"cebpf4jnsgd1na2vs0mg"},{"bike_id":"00115f0a-ac26-4e9a-986d-383b5654c372","system_id":"levelo_inurba_marseille","lat":43.26679,"lon":5.38266,"is_reserved":false,"is_disabled":false,"rental_uris":{"android":"levelo://app?vid=00115f0a-ac26-4e9a-986d-383b5654c372","ios":"levelo://app?vid=00115f0a-ac26-4e9a-986d-383b5654c372"},"vehicle_type_id":"4","last_reported":1726045789,"current_range_meters":24800,"station_id":"ce4bhg92rcd13ifvqf90","pricing_plan_id":"cebpf4jnsgd1na2vs0mg"},{"bike_id":"9e2936e6-d85e-4992-8db2-515e06384a3f","system_id":"levelo_inurba_marseille","lat":43.2581,"lon":5.39419,"is_reserved":false,"is_disabled":false,"rental_uris":{"android":"levelo://app?vid=9e2936e6-d85e-4992-8db2-515e06384a3f","ios":"levelo://app?vid=9e2936e6-d85e-4992-8db2-515e06384a3f"},"vehicle_type_id":"4","last_reported":1726045789,"current_range_meters":16800,"station_id":"ce4bhip2rcd13ifvqft0","pricing_plan_id":"cebpf4jnsgd1na2vs0mg"},{"bike_id":"8448f02d-fc0d-4b12-b64e-f1c9c4b5973f","system_id":"levelo_inurba_marseille","lat":43.33765,"lon":5.37464,"is_reserved":false,"is_disabled":false,"rental_uris":{"android":"levelo://app?vid=8448f02d-fc0d-4b12-b64e-f1c9c4b5973f","ios":"levelo://app?vid=8448f02d-fc0d-4b12-b64e-f1c9c4b5973f"},"vehicle_type_id":"4","last_reported":1726045789,"current_range_meters":27600,"station_id":"","pricing_plan_id":"cebpf4jnsgd1na2vs0mg"},{"bike_id":"7727b811-eb5e-4439-b991-7555b4fa4a0e","system_id":"levelo_inurba_marseille","lat":43.30272,"lon":5.37689,"is_reserved":false,"is_disabled":false,"rental_uris":{"android":"levelo://app?vid=7727b811-eb5e-4439-b991-7555b4fa4a0e","ios":"levelo://app?vid=7727b811-eb5e-4439-b991-7555b4fa4a0e"},"vehicle_type_id":"4","last_reported":1726045789,"current_range_meters":40000,"station_id":"ce4bguh2rcd13ifvqcj0","pricing_plan_id":"cebpf4jnsgd1na2vs0mg"},{"bike_id":"785ac45d-d690-41d5-be8e-009e6aba526d","system_id":"levelo_inurba_marseille","lat":43.26945,"lon":5.38637,"is_reserved":false,"is_disabled":false,"rental_uris":{"android":"levelo://app?vid=785ac45d-d690-41d5-be8e-009e6aba526d","ios":"levelo://app?vid=785ac45d-d690-41d5-be8e-009e6aba526d"},"vehicle_type_id":"4","last_reported":1726045789,"current_range_meters":8400,"station_id":"ce4bhh92rcd13ifvqfh0","pricing_plan_id":"cebpf4jnsgd1na2vs0mg"},{"bike_id":"c021264d-958d-4ce8-995b-734b556b460b","system_id":"levelo_inurba_marseille","lat":43.28262,"lon":5.35071,"is_reserved":false,"is_disabled":false,"rental_uris":{"android":"levelo://app?vid=c021264d-958d-4ce8-995b-734b556b460b","ios":"levelo://app?vid=c021264d-958d-4ce8-995b-734b556b460b"},"vehicle_type_id":"4","last_reported":1726045789,"current_range_meters":25600,"station_id":"ce4bhbp2rcd13ifvqerg","pricing_plan_id":"cebpf4jnsgd1na2vs0mg"},{"bike_id":"b6b39233-539e-43ba-bb0c-a24a0c8fbc7e","system_id":"levelo_inurba_marseille","lat":43.24075,"lon":5.37749,"is_reserved":false,"is_disabled":false,"rental_uris":{"android":"levelo://app?vid=b6b39233-539e-43ba-bb0c-a24a0c8fbc7e","ios":"levelo://app?vid=b6b39233-539e-43ba-bb0c-a24a0c8fbc7e"},"vehicle_type_id":"4","last_reported":1726045789,"current_range_meters":9600,"station_id":"ce4bhnp2rcd13ifvqgvg","pricing_plan_id":"cebpf4jnsgd1na2vs0mg"},{"bike_id":"9ca64e78-b032-4256-943d-90e6025a91e1","system_id":"levelo_inurba_marseille","lat":43.308174,"lon":5.381389,"is_reserved":false,"is_disabled":false,"rental_uris":{"android":"levelo://app?vid=9ca64e78-b032-4256-943d-90e6025a91e1","ios":"levelo://app?vid=9ca64e78-b032-4256-943d-90e6025a91e1"},"vehicle_type_id":"4","last_reported":1726045789,"current_range_meters":36400,"station_id":"ce4bgt12rcd13ifvqce0","pricing_plan_id":"cebpf4jnsgd1na2vs0mg"},{"bike_id":"4882e822-aaac-47bb-ab4f-63733ce98107","system_id":"levelo_inurba_marseille","lat":43.301538,"lon":5.380883,"is_reserved":false,"is_disabled":false,"rental_uris":{"android":"levelo://app?vid=4882e822-aaac-47bb-ab4f-63733ce98107","ios":"levelo://app?vid=4882e822-aaac-47bb-ab4f-63733ce98107"},"vehicle_type_id":"4","last_reported":1726045789,"current_range_meters":12800,"station_id":"ce4bgpp2rcd13ifvqc3g","pricing_plan_id":"cebpf4jnsgd1na2vs0mg"},{"bike_id":"6839c3f0-8bb3-44c9-973f-ebcaf3bef86e","system_id":"levelo_inurba_marseille","lat":43.29609,"lon":5.37743,"is_reserved":false,"is_disabled":false,"rental_uris":{"android":"levelo://app?vid=6839c3f0-8bb3-44c9-973f-ebcaf3bef86e","ios":"levelo://app?vid=6839c3f0-8bb3-44c9-973f-ebcaf3bef86e"},"vehicle_type_id":"4","last_reported":1726045789,"current_range_meters":24400,"station_id":"ce4bgi92rcd13ifvqb90","pricing_plan_id":"cebpf4jnsgd1na2vs0mg"},{"bike_id":"c08efa58-6e8e-4014-9dbe-8a714d83abfc","system_id":"levelo_inurba_marseille","lat":43.3048,"lon":5.37915,"is_reserved":false,"is_disabled":false,"rental_uris":{"android":"levelo://app?vid=c08efa58-6e8e-4014-9dbe-8a714d83abfc","ios":"levelo://app?vid=c08efa58-6e8e-4014-9dbe-8a714d83abfc"},"vehicle_type_id":"4","last_reported":1726045789,"current_range_meters":38400,"station_id":"ce4bgup2rcd13ifvqcn0","pricing_plan_id":"cebpf4jnsgd1na2vs0mg"},{"bike_id":"9dbf4882-289e-4171-bdea-bbea2cd2aa4a","system_id":"levelo_inurba_marseille","lat":43.25925,"lon":5.40905,"is_reserved":false,"is_disabled":false,"rental_uris":{"android":"levelo://app?vid=9dbf4882-289e-4171-bdea-bbea2cd2aa4a","ios":"levelo://app?vid=9dbf4882-289e-4171-bdea-bbea2cd2aa4a"},"vehicle_type_id":"4","last_reported":1726045789,"current_range_meters":20000,"station_id":"ce4bhm92rcd13ifvqglg","pricing_plan_id":"cebpf4jnsgd1na2vs0mg"},{"bike_id":"00ca710c-aa25-453d-b5eb-9286e939dc6d","system_id":"levelo_inurba_marseille","lat":43.29549,"lon":5.42275,"is_reserved":false,"is_disabled":false,"rental_uris":{"android":"levelo://app?vid=00ca710c-aa25-453d-b5eb-9286e939dc6d","ios":"levelo://app?vid=00ca710c-aa25-453d-b5eb-9286e939dc6d"},"vehicle_type_id":"4","last_reported":1726045789,"current_range_meters":40000,"station_id":"ce4bhph2rcd13ifvqhdg","pricing_plan_id":"cebpf4jnsgd1na2vs0mg"},{"bike_id":"b63cd219-a325-46a7-b551-57983cf6a940","system_id":"levelo_inurba_marseille","lat":43.26025,"lon":5.37552,"is_reserved":false,"is_disabled":false,"rental_uris":{"android":"levelo://app?vid=b63cd219-a325-46a7-b551-57983cf6a940","ios":"levelo://app?vid=b63cd219-a325-46a7-b551-57983cf6a940"},"vehicle_type_id":"4","last_reported":1726045789,"current_range_meters":20400,"station_id":"ce4bhgh2rcd13ifvqfa0","pricing_plan_id":"cebpf4jnsgd1na2vs0mg"},{"bike_id":"a36a6131-7175-4d21-afcf-16a3b952996a","system_id":"levelo_inurba_marseille","lat":43.30821,"lon":5.37658,"is_reserved":false,"is_disabled":false,"rental_uris":{"android":"levelo://app?vid=a36a6131-7175-4d21-afcf-16a3b952996a","ios":"levelo://app?vid=a36a6131-7175-4d21-afcf-16a3b952996a"},"vehicle_type_id":"4","last_reported":1726045789,"current_range_meters":10000,"station_id":"ce4bgv92rcd13ifvqcq0","pricing_plan_id":"cebpf4jnsgd1na2vs0mg"},{"bike_id":"d2e1452f-7561-4ea6-92c1-c4f68b7a80ac","system_id":"levelo_inurba_marseille","lat":43.2827,"lon":5.35059,"is_reserved":false,"is_disabled":false,"rental_uris":{"android":"levelo://app?vid=d2e1452f-7561-4ea6-92c1-c4f68b7a80ac","ios":"levelo://app?vid=d2e1452f-7561-4ea6-92c1-c4f68b7a80ac"},"vehicle_type_id":"4","last_reported":1726045789,"current_range_meters":2000,"station_id":"ce4bhbp2rcd13ifvqerg","pricing_plan_id":"cebpf4jnsgd1na2vs0mg"},{"bike_id":"cf6e904a-7783-4909-991b-2b518cfd395d","system_id":"levelo_inurba_marseille","lat":43.29915,"lon":5.3748,"is_reserved":false,"is_disabled":false,"rental_uris":{"android":"levelo://app?vid=cf6e904a-7783-4909-991b-2b518cfd395d","ios":"levelo://app?vid=cf6e904a-7783-4909-991b-2b518cfd395d"},"vehicle_type_id":"4","last_reported":1726045789,"current_range_meters":38800,"station_id":"ce4bgjh2rcd13ifvqbg0","pricing_plan_id":"cebpf4jnsgd1na2vs0mg"},{"bike_id":"928a5d3e-209f-4162-8230-412be2f1bd6c","system_id":"levelo_inurba_marseille","lat":43.28706,"lon":5.37933,"is_reserved":false,"is_disabled":false,"rental_uris":{"android":"levelo://app?vid=928a5d3e-209f-4162-8230-412be2f1bd6c","ios":"levelo://app?vid=928a5d3e-209f-4162-8230-412be2f1bd6c"},"vehicle_type_id":"4","last_reported":1726045789,"current_range_meters":35200,"station_id":"ce4bh9p2rcd13ifvqec0","pricing_plan_id":"cebpf4jnsgd1na2vs0mg"},{"bike_id":"f1ef4b76-ed08-4fb6-8cd5-704cc83fa10f","system_id":"levelo_inurba_marseille","lat":43.262113,"lon":5.374366,"is_reserved":false,"is_disabled":false,"rental_uris":{"android":"levelo://app?vid=f1ef4b76-ed08-4fb6-8cd5-704cc83fa10f","ios":"levelo://app?vid=f1ef4b76-ed08-4fb6-8cd5-704cc83fa10f"},"vehicle_type_id":"4","last_reported":1726045789,"current_range_meters":27200,"station_id":"ce4bhgp2rcd13ifvqfc0","pricing_plan_id":"cebpf4jnsgd1na2vs0mg"},{"bike_id":"7d379912-5512-4136-825f-f149378c51b0","system_id":"levelo_inurba_marseille","lat":43.27831,"lon":5.3849,"is_reserved":false,"is_disabled":false,"rental_uris":{"android":"levelo://app?vid=7d379912-5512-4136-825f-f149378c51b0","ios":"levelo://app?vid=7d379912-5512-4136-825f-f149378c51b0"},"vehicle_type_id":"4","last_reported":1726045789,"current_range_meters":32000,"station_id":"","pricing_plan_id":"cebpf4jnsgd1na2vs0mg"},{"bike_id":"fd085921-e1d7-4c89-a66d-87af421fb9d3","system_id":"levelo_inurba_marseille","lat":43.26948,"lon":5.38633,"is_reserved":false,"is_disabled":false,"rental_uris":{"android":"levelo://app?vid=fd085921-e1d7-4c89-a66d-87af421fb9d3","ios":"levelo://app?vid=fd085921-e1d7-4c89-a66d-87af421fb9d3"},"vehicle_type_id":"4","last_reported":1726045789,"current_range_meters":40000,"station_id":"ce4bhh92rcd13ifvqfh0","pricing_plan_id":"cebpf4jnsgd1na2vs0mg"},{"bike_id":"3e71dd62-37f9-4fdf-b475-7d894230e08d","system_id":"levelo_inurba_marseille","lat":43.2315,"lon":5.43719,"is_reserved":false,"is_disabled":false,"rental_uris":{"android":"levelo://app?vid=3e71dd62-37f9-4fdf-b475-7d894230e08d","ios":"levelo://app?vid=3e71dd62-37f9-4fdf-b475-7d894230e08d"},"vehicle_type_id":"4","last_reported":1726045789,"current_range_meters":17200,"station_id":"ce4bhmp2rcd13ifvqgog","pricing_plan_id":"cebpf4jnsgd1na2vs0mg"},{"bike_id":"6c56c2b8-8d02-4b85-82fc-3ccb866e081c","system_id":"levelo_inurba_marseille","lat":43.31349,"lon":5.36716,"is_reserved":false,"is_disabled":false,"rental_uris":{"android":"levelo://app?vid=6c56c2b8-8d02-4b85-82fc-3ccb866e081c","ios":"levelo://app?vid=6c56c2b8-8d02-4b85-82fc-3ccb866e081c"},"vehicle_type_id":"4","last_reported":1726045789,"current_range_meters":16800,"station_id":"ce4bgr92rcd13ifvqc6g","pricing_plan_id":"cebpf4jnsgd1na2vs0mg"},{"bike_id":"8bfb1f0d-2633-40db-8a6a-d4a15f301a55","system_id":"levelo_inurba_marseille","lat":43.30144,"lon":5.38074,"is_reserved":false,"is_disabled":false,"rental_uris":{"android":"levelo://app?vid=8bfb1f0d-2633-40db-8a6a-d4a15f301a55","ios":"levelo://app?vid=8bfb1f0d-2633-40db-8a6a-d4a15f301a55"},"vehicle_type_id":"4","last_reported":1726045789,"current_range_meters":36800,"station_id":"ce4bgjp2rcd13ifvqbh0","pricing_plan_id":"cebpf4jnsgd1na2vs0mg"},{"bike_id":"bc0265dd-1895-4f6f-a47e-f73ff5761453","system_id":"levelo_inurba_marseille","lat":43.30596,"lon":5.37226,"is_reserved":false,"is_disabled":false,"rental_uris":{"android":"levelo://app?vid=bc0265dd-1895-4f6f-a47e-f73ff5761453","ios":"levelo://app?vid=bc0265dd-1895-4f6f-a47e-f73ff5761453"},"vehicle_type_id":"4","last_reported":1726045789,"current_range_meters":32800,"station_id":"ce4bgqh2rcd13ifvqc4g","pricing_plan_id":"cebpf4jnsgd1na2vs0mg"},{"bike_id":"a45ad146-5c0e-4306-a1b0-086675f45507","system_id":"levelo_inurba_marseille","lat":43.309387,"lon":5.368602,"is_reserved":false,"is_disabled":false,"rental_uris":{"android":"levelo://app?vid=a45ad146-5c0e-4306-a1b0-086675f45507","ios":"levelo://app?vid=a45ad146-5c0e-4306-a1b0-086675f45507"},"vehicle_type_id":"4","last_reported":1726045789,"current_range_meters":6000,"station_id":"ce4bgn92rcd13ifvqbvg","pricing_plan_id":"cebpf4jnsgd1na2vs0mg"},{"bike_id":"df39fde2-a287-4456-a132-a4b491dedb28","system_id":"levelo_inurba_marseille","lat":43.29628,"lon":5.37733,"is_reserved":false,"is_disabled":false,"rental_uris":{"android":"levelo://app?vid=df39fde2-a287-4456-a132-a4b491dedb28","ios":"levelo://app?vid=df39fde2-a287-4456-a132-a4b491dedb28"},"vehicle_type_id":"4","last_reported":1726045789,"current_range_meters":33600,"station_id":"ce4bgi92rcd13ifvqb90","pricing_plan_id":"cebpf4jnsgd1na2vs0mg"},{"bike_id":"c546d7fc-88c2-4d5b-ac99-205fd9edd073","system_id":"levelo_inurba_marseille","lat":43.29267,"lon":5.36847,"is_reserved":false,"is_disabled":false,"rental_uris":{"android":"levelo://app?vid=c546d7fc-88c2-4d5b-ac99-205fd9edd073","ios":"levelo://app?vid=c546d7fc-88c2-4d5b-ac99-205fd9edd073"},"vehicle_type_id":"4","last_reported":1726045789,"current_range_meters":12000,"station_id":"ce4bhbp2rcd13ifvqesg","pricing_plan_id":"cebpf4jnsgd1na2vs0mg"},{"bike_id":"b57b7c50-b45e-48bf-80f1-5809fd7245ab","system_id":"levelo_inurba_marseille","lat":43.2668,"lon":5.38266,"is_reserved":false,"is_disabled":false,"rental_uris":{"android":"levelo://app?vid=b57b7c50-b45e-48bf-80f1-5809fd7245ab","ios":"levelo://app?vid=b57b7c50-b45e-48bf-80f1-5809fd7245ab"},"vehicle_type_id":"4","last_reported":1726045789,"current_range_meters":33600,"station_id":"ce4bhg92rcd13ifvqf90","pricing_plan_id":"cebpf4jnsgd1na2vs0mg"},{"bike_id":"f1ea8c6f-65c6-4c34-b89c-98dd712d80c3","system_id":"levelo_inurba_marseille","lat":43.24073,"lon":5.37754,"is_reserved":false,"is_disabled":false,"rental_uris":{"android":"levelo://app?vid=f1ea8c6f-65c6-4c34-b89c-98dd712d80c3","ios":"levelo://app?vid=f1ea8c6f-65c6-4c34-b89c-98dd712d80c3"},"vehicle_type_id":"4","last_reported":1726045789,"current_range_meters":19600,"station_id":"ce4bhnp2rcd13ifvqgvg","pricing_plan_id":"cebpf4jnsgd1na2vs0mg"},{"bike_id":"9734d854-1bee-4703-b105-c182cf679f1a","system_id":"levelo_inurba_marseille","lat":43.25925,"lon":5.40906,"is_reserved":false,"is_disabled":false,"rental_uris":{"android":"levelo://app?vid=9734d854-1bee-4703-b105-c182cf679f1a","ios":"levelo://app?vid=9734d854-1bee-4703-b105-c182cf679f1a"},"vehicle_type_id":"4","last_reported":1726045789,"current_range_meters":19600,"station_id":"ce4bhm92rcd13ifvqglg","pricing_plan_id":"cebpf4jnsgd1na2vs0mg"},{"bike_id":"1b8e2124-c9b2-450b-8e12-e90ed145db35","system_id":"levelo_inurba_marseille","lat":43.29842,"lon":5.36259,"is_reserved":false,"is_disabled":false,"rental_uris":{"android":"levelo://app?vid=1b8e2124-c9b2-450b-8e12-e90ed145db35","ios":"levelo://app?vid=1b8e2124-c9b2-450b-8e12-e90ed145db35"},"vehicle_type_id":"4","last_reported":1726045789,"current_range_meters":32800,"station_id":"ce4bgpp2rcd13ifvqc3g","pricing_plan_id":"cebpf4jnsgd1na2vs0mg"},{"bike_id":"f3648195-fabb-4f81-b65b-de33b734c612","system_id":"levelo_inurba_marseille","lat":43.27065,"lon":5.42269,"is_reserved":false,"is_disabled":false,"rental_uris":{"android":"levelo://app?vid=f3648195-fabb-4f81-b65b-de33b734c612","ios":"levelo://app?vid=f3648195-fabb-4f81-b65b-de33b734c612"},"vehicle_type_id":"4","last_reported":1726045789,"current_range_meters":3200,"station_id":"ce4bhk92rcd13ifvqgb0","pricing_plan_id":"cebpf4jnsgd1na2vs0mg"},{"bike_id":"931314e8-e917-4027-9ca3-2e3a96f72682","system_id":"levelo_inurba_marseille","lat":43.27564,"lon":5.38419,"is_reserved":false,"is_disabled":false,"rental_uris":{"android":"levelo://app?vid=931314e8-e917-4027-9ca3-2e3a96f72682","ios":"levelo://app?vid=931314e8-e917-4027-9ca3-2e3a96f72682"},"vehicle_type_id":"4","last_reported":1726045789,"current_range_meters":35200,"station_id":"ce4bhh92rcd13ifvqfi0","pricing_plan_id":"cebpf4jnsgd1na2vs0mg"},{"bike_id":"c5b15709-55a3-440a-87a8-04a12fb5823d","system_id":"levelo_inurba_marseille","lat":43.25816,"lon":5.39421,"is_reserved":false,"is_disabled":false,"rental_uris":{"android":"levelo://app?vid=c5b15709-55a3-440a-87a8-04a12fb5823d","ios":"levelo://app?vid=c5b15709-55a3-440a-87a8-04a12fb5823d"},"vehicle_type_id":"4","last_reported":1726045789,"current_range_meters":25200,"station_id":"ce4bhip2rcd13ifvqft0","pricing_plan_id":"cebpf4jnsgd1na2vs0mg"},{"bike_id":"674b629f-6d03-4858-a30d-148109f6c88f","system_id":"levelo_inurba_marseille","lat":43.27203,"lon":5.39183,"is_reserved":false,"is_disabled":false,"rental_uris":{"android":"levelo://app?vid=674b629f-6d03-4858-a30d-148109f6c88f","ios":"levelo://app?vid=674b629f-6d03-4858-a30d-148109f6c88f"},"vehicle_type_id":"4","last_reported":1726045789,"current_range_meters":36800,"station_id":"ce4bhhp2rcd13ifvqfm0","pricing_plan_id":"cebpf4jnsgd1na2vs0mg"},{"bike_id":"37ac93d4-587f-40b5-8bd7-fbf2e5dbd72a","system_id":"levelo_inurba_marseille","lat":43.2755,"lon":5.38444,"is_reserved":false,"is_disabled":false,"rental_uris":{"android":"levelo://app?vid=37ac93d4-587f-40b5-8bd7-fbf2e5dbd72a","ios":"levelo://app?vid=37ac93d4-587f-40b5-8bd7-fbf2e5dbd72a"},"vehicle_type_id":"4","last_reported":1726045789,"current_range_meters":11600,"station_id":"ce4bhh92rcd13ifvqfi0","pricing_plan_id":"cebpf4jnsgd1na2vs0mg"},{"bike_id":"3ef2b0c4-5484-482d-a3ce-ed4118993ce2","system_id":"levelo_inurba_marseille","lat":43.29527,"lon":5.394,"is_reserved":false,"is_disabled":false,"rental_uris":{"android":"levelo://app?vid=3ef2b0c4-5484-482d-a3ce-ed4118993ce2","ios":"levelo://app?vid=3ef2b0c4-5484-482d-a3ce-ed4118993ce2"},"vehicle_type_id":"4","last_reported":1726045789,"current_range_meters":17200,"station_id":"ce4bh292rcd13ifvqdf0","pricing_plan_id":"cebpf4jnsgd1na2vs0mg"},{"bike_id":"b5ac7898-41e8-4b8c-94dd-526f08c99340","system_id":"levelo_inurba_marseille","lat":43.24176,"lon":5.39731,"is_reserved":false,"is_disabled":false,"rental_uris":{"android":"levelo://app?vid=b5ac7898-41e8-4b8c-94dd-526f08c99340","ios":"levelo://app?vid=b5ac7898-41e8-4b8c-94dd-526f08c99340"},"vehicle_type_id":"4","last_reported":1726045789,"current_range_meters":29600,"station_id":"ce4bhn12rcd13ifvqgpg","pricing_plan_id":"cebpf4jnsgd1na2vs0mg"},{"bike_id":"aaf6dc9c-0f49-4cfb-8053-0ab150017608","system_id":"levelo_inurba_marseille","lat":43.25939,"lon":5.40899,"is_reserved":false,"is_disabled":false,"rental_uris":{"android":"levelo://app?vid=aaf6dc9c-0f49-4cfb-8053-0ab150017608","ios":"levelo://app?vid=aaf6dc9c-0f49-4cfb-8053-0ab150017608"},"vehicle_type_id":"4","last_reported":1726045789,"current_range_meters":33200,"station_id":"ce4bhm92rcd13ifvqglg","pricing_plan_id":"cebpf4jnsgd1na2vs0mg"},{"bike_id":"c22bf776-82f1-423d-83f3-ab20051eb388","system_id":"levelo_inurba_marseille","lat":43.33605,"lon":5.4102,"is_reserved":false,"is_disabled":false,"rental_uris":{"android":"levelo://app?vid=c22bf776-82f1-423d-83f3-ab20051eb388","ios":"levelo://app?vid=c22bf776-82f1-423d-83f3-ab20051eb388"},"vehicle_type_id":"4","last_reported":1726045789,"current_range_meters":6000,"station_id":"ce4bhqh2rcd13ifvqhmg","pricing_plan_id":"cebpf4jnsgd1na2vs0mg"},{"bike_id":"276aff80-6d5b-448f-be07-ae40ba73dbc2","system_id":"levelo_inurba_marseille","lat":43.2408,"lon":5.37752,"is_reserved":false,"is_disabled":false,"rental_uris":{"android":"levelo://app?vid=276aff80-6d5b-448f-be07-ae40ba73dbc2","ios":"levelo://app?vid=276aff80-6d5b-448f-be07-ae40ba73dbc2"},"vehicle_type_id":"4","last_reported":1726045789,"current_range_meters":16000,"station_id":"ce4bhnp2rcd13ifvqgvg","pricing_plan_id":"cebpf4jnsgd1na2vs0mg"},{"bike_id":"762255b4-be86-449c-b578-087b32aadd3a","system_id":"levelo_inurba_marseille","lat":43.30887,"lon":5.36852,"is_reserved":false,"is_disabled":false,"rental_uris":{"android":"levelo://app?vid=762255b4-be86-449c-b578-087b32aadd3a","ios":"levelo://app?vid=762255b4-be86-449c-b578-087b32aadd3a"},"vehicle_type_id":"4","last_reported":1726045789,"current_range_meters":17200,"station_id":"ce4bgn92rcd13ifvqbvg","pricing_plan_id":"cebpf4jnsgd1na2vs0mg"},{"bike_id":"5711be28-cbc0-4fc6-bfe8-04573769105c","system_id":"levelo_inurba_marseille","lat":43.30792,"lon":5.43526,"is_reserved":false,"is_disabled":false,"rental_uris":{"android":"levelo://app?vid=5711be28-cbc0-4fc6-bfe8-04573769105c","ios":"levelo://app?vid=5711be28-cbc0-4fc6-bfe8-04573769105c"},"vehicle_type_id":"4","last_reported":1726045789,"current_range_meters":36000,"station_id":"ce4bhph2rcd13ifvqheg","pricing_plan_id":"cebpf4jnsgd1na2vs0mg"},{"bike_id":"c7d6d06e-c6b6-456a-8174-515e62d4bdb2","system_id":"levelo_inurba_marseille","lat":43.33605,"lon":5.4102,"is_reserved":false,"is_disabled":false,"rental_uris":{"android":"levelo://app?vid=c7d6d06e-c6b6-456a-8174-515e62d4bdb2","ios":"levelo://app?vid=c7d6d06e-c6b6-456a-8174-515e62d4bdb2"},"vehicle_type_id":"4","last_reported":1726045789,"current_range_meters":15200,"station_id":"ce4bhqh2rcd13ifvqhmg","pricing_plan_id":"cebpf4jnsgd1na2vs0mg"},{"bike_id":"9b9547b7-77e2-4c32-9975-f0a65876f133","system_id":"levelo_inurba_marseille","lat":43.28031,"lon":5.3694,"is_reserved":false,"is_disabled":false,"rental_uris":{"android":"levelo://app?vid=9b9547b7-77e2-4c32-9975-f0a65876f133","ios":"levelo://app?vid=9b9547b7-77e2-4c32-9975-f0a65876f133"},"vehicle_type_id":"4","last_reported":1726045789,"current_range_meters":35600,"station_id":"ce4bha12rcd13ifvqef0","pricing_plan_id":"cebpf4jnsgd1na2vs0mg"},{"bike_id":"719bc6c4-8a33-4716-9972-890608eab4a8","system_id":"levelo_inurba_marseille","lat":43.28034,"lon":5.36938,"is_reserved":false,"is_disabled":false,"rental_uris":{"android":"levelo://app?vid=719bc6c4-8a33-4716-9972-890608eab4a8","ios":"levelo://app?vid=719bc6c4-8a33-4716-9972-890608eab4a8"},"vehicle_type_id":"4","last_reported":1726045789,"current_range_meters":20000,"station_id":"ce4bha12rcd13ifvqef0","pricing_plan_id":"cebpf4jnsgd1na2vs0mg"},{"bike_id":"2c34edcb-72c7-439a-a9a8-efb295e9b4a9","system_id":"levelo_inurba_marseille","lat":43.24379,"lon":5.37054,"is_reserved":false,"is_disabled":false,"rental_uris":{"android":"levelo://app?vid=2c34edcb-72c7-439a-a9a8-efb295e9b4a9","ios":"levelo://app?vid=2c34edcb-72c7-439a-a9a8-efb295e9b4a9"},"vehicle_type_id":"4","last_reported":1726045789,"current_range_meters":36400,"station_id":"ce4bhhh2rcd13ifvqfk0","pricing_plan_id":"cebpf4jnsgd1na2vs0mg"},{"bike_id":"3ca161b1-fb03-46e1-bc58-270f4d2ef071","system_id":"levelo_inurba_marseille","lat":43.30463,"lon":5.379,"is_reserved":false,"is_disabled":false,"rental_uris":{"android":"levelo://app?vid=3ca161b1-fb03-46e1-bc58-270f4d2ef071","ios":"levelo://app?vid=3ca161b1-fb03-46e1-bc58-270f4d2ef071"},"vehicle_type_id":"4","last_reported":1726045789,"current_range_meters":28400,"station_id":"ce4bgup2rcd13ifvqcn0","pricing_plan_id":"cebpf4jnsgd1na2vs0mg"},{"bike_id":"723c073e-5c6a-4fb9-a382-e8ea44a73076","system_id":"levelo_inurba_marseille","lat":43.29555,"lon":5.42276,"is_reserved":false,"is_disabled":false,"rental_uris":{"android":"levelo://app?vid=723c073e-5c6a-4fb9-a382-e8ea44a73076","ios":"levelo://app?vid=723c073e-5c6a-4fb9-a382-e8ea44a73076"},"vehicle_type_id":"4","last_reported":1726045789,"current_range_meters":33600,"station_id":"ce4bhph2rcd13ifvqhdg","pricing_plan_id":"cebpf4jnsgd1na2vs0mg"},{"bike_id":"2aad4b02-945c-4d35-b3a5-85b3d17dc503","system_id":"levelo_inurba_marseille","lat":43.32272,"lon":5.38265,"is_reserved":false,"is_disabled":false,"rental_uris":{"android":"levelo://app?vid=2aad4b02-945c-4d35-b3a5-85b3d17dc503","ios":"levelo://app?vid=2aad4b02-945c-4d35-b3a5-85b3d17dc503"},"vehicle_type_id":"4","last_reported":1726045789,"current_range_meters":3600,"station_id":"ce4bhr12rcd13ifvqhqg","pricing_plan_id":"cebpf4jnsgd1na2vs0mg"},{"bike_id":"ca83b445-f9b8-4c3b-8fbf-9f0e930b1f13","system_id":"levelo_inurba_marseille","lat":43.29847,"lon":5.36278,"is_reserved":false,"is_disabled":false,"rental_uris":{"android":"levelo://app?vid=ca83b445-f9b8-4c3b-8fbf-9f0e930b1f13","ios":"levelo://app?vid=ca83b445-f9b8-4c3b-8fbf-9f0e930b1f13"},"vehicle_type_id":"4","last_reported":1726045789,"current_range_meters":4000,"station_id":"ce4bgpp2rcd13ifvqc3g","pricing_plan_id":"cebpf4jnsgd1na2vs0mg"},{"bike_id":"768b1f2c-b248-4984-9c10-6133acf2615b","system_id":"levelo_inurba_marseille","lat":43.26947,"lon":5.38627,"is_reserved":false,"is_disabled":false,"rental_uris":{"android":"levelo://app?vid=768b1f2c-b248-4984-9c10-6133acf2615b","ios":"levelo://app?vid=768b1f2c-b248-4984-9c10-6133acf2615b"},"vehicle_type_id":"4","last_reported":1726045789,"current_range_meters":9200,"station_id":"ce4bhh92rcd13ifvqfh0","pricing_plan_id":"cebpf4jnsgd1na2vs0mg"},{"bike_id":"66e358bd-19a5-4e74-aa7e-cf6893432a52","system_id":"levelo_inurba_marseille","lat":43.25573,"lon":5.38235,"is_reserved":false,"is_disabled":false,"rental_uris":{"android":"levelo://app?vid=66e358bd-19a5-4e74-aa7e-cf6893432a52","ios":"levelo://app?vid=66e358bd-19a5-4e74-aa7e-cf6893432a52"},"vehicle_type_id":"4","last_reported":1726045789,"current_range_meters":32800,"station_id":"ce4bhih2rcd13ifvqfs0","pricing_plan_id":"cebpf4jnsgd1na2vs0mg"},{"bike_id":"dd4c77a3-8f2f-4327-86e0-d9668552430d","system_id":"levelo_inurba_marseille","lat":43.272,"lon":5.39182,"is_reserved":false,"is_disabled":false,"rental_uris":{"android":"levelo://app?vid=dd4c77a3-8f2f-4327-86e0-d9668552430d","ios":"levelo://app?vid=dd4c77a3-8f2f-4327-86e0-d9668552430d"},"vehicle_type_id":"4","last_reported":1726045789,"current_range_meters":36400,"station_id":"ce4bhhp2rcd13ifvqfm0","pricing_plan_id":"cebpf4jnsgd1na2vs0mg"},{"bike_id":"fc19c059-0eb5-4fc6-8478-12e937316a9c","system_id":"levelo_inurba_marseille","lat":43.24073,"lon":5.37759,"is_reserved":false,"is_disabled":false,"rental_uris":{"android":"levelo://app?vid=fc19c059-0eb5-4fc6-8478-12e937316a9c","ios":"levelo://app?vid=fc19c059-0eb5-4fc6-8478-12e937316a9c"},"vehicle_type_id":"4","last_reported":1726045789,"current_range_meters":12400,"station_id":"ce4bhnp2rcd13ifvqgvg","pricing_plan_id":"cebpf4jnsgd1na2vs0mg"},{"bike_id":"211b5142-9ff2-4985-b66d-e93c99bdd248","system_id":"levelo_inurba_marseille","lat":43.24383,"lon":5.37054,"is_reserved":false,"is_disabled":false,"rental_uris":{"android":"levelo://app?vid=211b5142-9ff2-4985-b66d-e93c99bdd248","ios":"levelo://app?vid=211b5142-9ff2-4985-b66d-e93c99bdd248"},"vehicle_type_id":"4","last_reported":1726045789,"current_range_meters":23200,"station_id":"ce4bhhh2rcd13ifvqfk0","pricing_plan_id":"cebpf4jnsgd1na2vs0mg"},{"bike_id":"18780dda-cbbc-4bd5-baa0-750c2954890a","system_id":"levelo_inurba_marseille","lat":43.2668,"lon":5.3827,"is_reserved":false,"is_disabled":false,"rental_uris":{"android":"levelo://app?vid=18780dda-cbbc-4bd5-baa0-750c2954890a","ios":"levelo://app?vid=18780dda-cbbc-4bd5-baa0-750c2954890a"},"vehicle_type_id":"4","last_reported":1726045789,"current_range_meters":13600,"station_id":"ce4bhg92rcd13ifvqf90","pricing_plan_id":"cebpf4jnsgd1na2vs0mg"},{"bike_id":"ba029e3c-a52b-4614-b297-934f2a650282","system_id":"levelo_inurba_marseille","lat":43.30485,"lon":5.3791,"is_reserved":false,"is_disabled":false,"rental_uris":{"android":"levelo://app?vid=ba029e3c-a52b-4614-b297-934f2a650282","ios":"levelo://app?vid=ba029e3c-a52b-4614-b297-934f2a650282"},"vehicle_type_id":"4","last_reported":1726045789,"current_range_meters":28000,"station_id":"ce4bgup2rcd13ifvqcn0","pricing_plan_id":"cebpf4jnsgd1na2vs0mg"},{"bike_id":"e6828e12-0061-450d-ad88-18f4a74cfa9b","system_id":"levelo_inurba_marseille","lat":43.29977,"lon":5.37179,"is_reserved":false,"is_disabled":false,"rental_uris":{"android":"levelo://app?vid=e6828e12-0061-450d-ad88-18f4a74cfa9b","ios":"levelo://app?vid=e6828e12-0061-450d-ad88-18f4a74cfa9b"},"vehicle_type_id":"4","last_reported":1726045789,"current_range_meters":33200,"station_id":"ce4bgr92rcd13ifvqc7g","pricing_plan_id":"cebpf4jnsgd1na2vs0mg"},{"bike_id":"df5bd83d-06d4-432f-83c4-381810e7a4a9","system_id":"levelo_inurba_marseille","lat":43.25934,"lon":5.40907,"is_reserved":false,"is_disabled":false,"rental_uris":{"android":"levelo://app?vid=df5bd83d-06d4-432f-83c4-381810e7a4a9","ios":"levelo://app?vid=df5bd83d-06d4-432f-83c4-381810e7a4a9"},"vehicle_type_id":"4","last_reported":1726045789,"current_range_meters":28800,"station_id":"ce4bhm92rcd13ifvqglg","pricing_plan_id":"cebpf4jnsgd1na2vs0mg"},{"bike_id":"a648c9a6-2f31-4ca8-8c04-3d326d8687cc","system_id":"levelo_inurba_marseille","lat":43.30946,"lon":5.39021,"is_reserved":false,"is_disabled":false,"rental_uris":{"android":"levelo://app?vid=a648c9a6-2f31-4ca8-8c04-3d326d8687cc","ios":"levelo://app?vid=a648c9a6-2f31-4ca8-8c04-3d326d8687cc"},"vehicle_type_id":"4","last_reported":1726045789,"current_range_meters":14800,"station_id":"ce4bgup2rcd13ifvqco0","pricing_plan_id":"cebpf4jnsgd1na2vs0mg"},{"bike_id":"4dbcd33b-3e37-484f-ac23-530da96758ac","system_id":"levelo_inurba_marseille","lat":43.33602,"lon":5.41038,"is_reserved":false,"is_disabled":false,"rental_uris":{"android":"levelo://app?vid=4dbcd33b-3e37-484f-ac23-530da96758ac","ios":"levelo://app?vid=4dbcd33b-3e37-484f-ac23-530da96758ac"},"vehicle_type_id":"4","last_reported":1726045789,"current_range_meters":18000,"station_id":"ce4bhqh2rcd13ifvqhmg","pricing_plan_id":"cebpf4jnsgd1na2vs0mg"},{"bike_id":"ae5848c5-f1d3-4343-ae2e-d78a2d5b0242","system_id":"levelo_inurba_marseille","lat":43.30149,"lon":5.37425,"is_reserved":false,"is_disabled":false,"rental_uris":{"android":"levelo://app?vid=ae5848c5-f1d3-4343-ae2e-d78a2d5b0242","ios":"levelo://app?vid=ae5848c5-f1d3-4343-ae2e-d78a2d5b0242"},"vehicle_type_id":"4","last_reported":1726045789,"current_range_meters":39200,"station_id":"ce4bgs92rcd13ifvqcc0","pricing_plan_id":"cebpf4jnsgd1na2vs0mg"},{"bike_id":"97646c03-5263-486b-92a1-fa7bd5f31f73","system_id":"levelo_inurba_marseille","lat":43.30525,"lon":5.3843,"is_reserved":false,"is_disabled":false,"rental_uris":{"android":"levelo://app?vid=97646c03-5263-486b-92a1-fa7bd5f31f73","ios":"levelo://app?vid=97646c03-5263-486b-92a1-fa7bd5f31f73"},"vehicle_type_id":"4","last_reported":1726045789,"current_range_meters":38800,"station_id":"ce4bgg92rcd13ifvqb30","pricing_plan_id":"cebpf4jnsgd1na2vs0mg"},{"bike_id":"74d7f432-f596-45ae-b14d-0ddc7f8a62f6","system_id":"levelo_inurba_marseille","lat":43.23147,"lon":5.43715,"is_reserved":false,"is_disabled":false,"rental_uris":{"android":"levelo://app?vid=74d7f432-f596-45ae-b14d-0ddc7f8a62f6","ios":"levelo://app?vid=74d7f432-f596-45ae-b14d-0ddc7f8a62f6"},"vehicle_type_id":"4","last_reported":1726045789,"current_range_meters":8800,"station_id":"ce4bhmp2rcd13ifvqgog","pricing_plan_id":"cebpf4jnsgd1na2vs0mg"},{"bike_id":"145df20c-dcd6-4546-8dc7-49aa5dc0c190","system_id":"levelo_inurba_marseille","lat":43.30475,"lon":5.37908,"is_reserved":false,"is_disabled":false,"rental_uris":{"android":"levelo://app?vid=145df20c-dcd6-4546-8dc7-49aa5dc0c190","ios":"levelo://app?vid=145df20c-dcd6-4546-8dc7-49aa5dc0c190"},"vehicle_type_id":"4","last_reported":1726045789,"current_range_meters":31200,"station_id":"ce4bgup2rcd13ifvqcn0","pricing_plan_id":"cebpf4jnsgd1na2vs0mg"},{"bike_id":"13d810db-8ea3-44ea-ac0c-516776fcde15","system_id":"levelo_inurba_marseille","lat":43.29503,"lon":5.37501,"is_reserved":false,"is_disabled":false,"rental_uris":{"android":"levelo://app?vid=13d810db-8ea3-44ea-ac0c-516776fcde15","ios":"levelo://app?vid=13d810db-8ea3-44ea-ac0c-516776fcde15"},"vehicle_type_id":"4","last_reported":1726045789,"current_range_meters":36000,"station_id":"ce4bgkp2rcd13ifvqbmg","pricing_plan_id":"cebpf4jnsgd1na2vs0mg"},{"bike_id":"1722f39b-97a1-4090-ba57-5f5be3e5195b","system_id":"levelo_inurba_marseille","lat":43.23147,"lon":5.43709,"is_reserved":false,"is_disabled":false,"rental_uris":{"android":"levelo://app?vid=1722f39b-97a1-4090-ba57-5f5be3e5195b","ios":"levelo://app?vid=1722f39b-97a1-4090-ba57-5f5be3e5195b"},"vehicle_type_id":"4","last_reported":1726045789,"current_range_meters":14400,"station_id":"ce4bhmp2rcd13ifvqgog","pricing_plan_id":"cebpf4jnsgd1na2vs0mg"},{"bike_id":"883adf4f-9822-48e8-9c16-82ae0dbc702a","system_id":"levelo_inurba_marseille","lat":43.2315,"lon":5.43702,"is_reserved":false,"is_disabled":false,"rental_uris":{"android":"levelo://app?vid=883adf4f-9822-48e8-9c16-82ae0dbc702a","ios":"levelo://app?vid=883adf4f-9822-48e8-9c16-82ae0dbc702a"},"vehicle_type_id":"4","last_reported":1726045789,"current_range_meters":9200,"station_id":"ce4bhmp2rcd13ifvqgog","pricing_plan_id":"cebpf4jnsgd1na2vs0mg"},{"bike_id":"e242f724-ca77-4c69-9eb3-2e2ce50a513b","system_id":"levelo_inurba_marseille","lat":43.33768,"lon":5.37441,"is_reserved":false,"is_disabled":false,"rental_uris":{"android":"levelo://app?vid=e242f724-ca77-4c69-9eb3-2e2ce50a513b","ios":"levelo://app?vid=e242f724-ca77-4c69-9eb3-2e2ce50a513b"},"vehicle_type_id":"4","last_reported":1726045789,"current_range_meters":24400,"station_id":"","pricing_plan_id":"cebpf4jnsgd1na2vs0mg"},{"bike_id":"f0e99be7-fa8d-40f3-8114-23052f3845e3","system_id":"levelo_inurba_marseille","lat":43.33756,"lon":5.37428,"is_reserved":false,"is_disabled":false,"rental_uris":{"android":"levelo://app?vid=f0e99be7-fa8d-40f3-8114-23052f3845e3","ios":"levelo://app?vid=f0e99be7-fa8d-40f3-8114-23052f3845e3"},"vehicle_type_id":"4","last_reported":1726045789,"current_range_meters":34000,"station_id":"","pricing_plan_id":"cebpf4jnsgd1na2vs0mg"},{"bike_id":"ace855bd-8617-474b-9ebc-09305bfffaf5","system_id":"levelo_inurba_marseille","lat":43.25927,"lon":5.40909,"is_reserved":false,"is_disabled":false,"rental_uris":{"android":"levelo://app?vid=ace855bd-8617-474b-9ebc-09305bfffaf5","ios":"levelo://app?vid=ace855bd-8617-474b-9ebc-09305bfffaf5"},"vehicle_type_id":"4","last_reported":1726045789,"current_range_meters":24000,"station_id":"ce4bhm92rcd13ifvqglg","pricing_plan_id":"cebpf4jnsgd1na2vs0mg"},{"bike_id":"638343ce-15e7-4192-b8b3-9dbbe2d9e121","system_id":"levelo_inurba_marseille","lat":43.27175,"lon":5.40998,"is_reserved":false,"is_disabled":false,"rental_uris":{"android":"levelo://app?vid=638343ce-15e7-4192-b8b3-9dbbe2d9e121","ios":"levelo://app?vid=638343ce-15e7-4192-b8b3-9dbbe2d9e121"},"vehicle_type_id":"4","last_reported":1726045789,"current_range_meters":36800,"station_id":"ce4bhl12rcd13ifvqgf0","pricing_plan_id":"cebpf4jnsgd1na2vs0mg"},{"bike_id":"7f4ea667-56df-4b26-bd46-3e71bc3cc245","system_id":"levelo_inurba_marseille","lat":43.29304,"lon":5.35569,"is_reserved":false,"is_disabled":false,"rental_uris":{"android":"levelo://app?vid=7f4ea667-56df-4b26-bd46-3e71bc3cc245","ios":"levelo://app?vid=7f4ea667-56df-4b26-bd46-3e71bc3cc245"},"vehicle_type_id":"4","last_reported":1726045789,"current_range_meters":2800,"station_id":"","pricing_plan_id":"cebpf4jnsgd1na2vs0mg"},{"bike_id":"ca736aa2-9ae6-4cb8-b0fe-510d91a35421","system_id":"levelo_inurba_marseille","lat":43.30551,"lon":5.36538,"is_reserved":false,"is_disabled":false,"rental_uris":{"android":"levelo://app?vid=ca736aa2-9ae6-4cb8-b0fe-510d91a35421","ios":"levelo://app?vid=ca736aa2-9ae6-4cb8-b0fe-510d91a35421"},"vehicle_type_id":"4","last_reported":1726045789,"current_range_meters":19200,"station_id":"ce4bgs12rcd13ifvqcag","pricing_plan_id":"cebpf4jnsgd1na2vs0mg"},{"bike_id":"3b163329-75e0-42ce-a395-e2936b5dfbec","system_id":"levelo_inurba_marseille","lat":43.29565,"lon":5.42306,"is_reserved":false,"is_disabled":false,"rental_uris":{"android":"levelo://app?vid=3b163329-75e0-42ce-a395-e2936b5dfbec","ios":"levelo://app?vid=3b163329-75e0-42ce-a395-e2936b5dfbec"},"vehicle_type_id":"4","last_reported":1726045789,"current_range_meters":30000,"station_id":"ce4bhph2rcd13ifvqhdg","pricing_plan_id":"cebpf4jnsgd1na2vs0mg"},{"bike_id":"f0974e9a-31a3-4c17-841c-57224836aa7a","system_id":"levelo_inurba_marseille","lat":43.24181,"lon":5.39732,"is_reserved":false,"is_disabled":false,"rental_uris":{"android":"levelo://app?vid=f0974e9a-31a3-4c17-841c-57224836aa7a","ios":"levelo://app?vid=f0974e9a-31a3-4c17-841c-57224836aa7a"},"vehicle_type_id":"4","last_reported":1726045789,"current_range_meters":24000,"station_id":"ce4bhn12rcd13ifvqgpg","pricing_plan_id":"cebpf4jnsgd1na2vs0mg"},{"bike_id":"d3c8ea6e-d01d-4d9e-9557-beffc1884ace","system_id":"levelo_inurba_marseille","lat":43.32286,"lon":5.38278,"is_reserved":false,"is_disabled":false,"rental_uris":{"android":"levelo://app?vid=d3c8ea6e-d01d-4d9e-9557-beffc1884ace","ios":"levelo://app?vid=d3c8ea6e-d01d-4d9e-9557-beffc1884ace"},"vehicle_type_id":"4","last_reported":1726045789,"current_range_meters":38800,"station_id":"ce4bhr12rcd13ifvqhqg","pricing_plan_id":"cebpf4jnsgd1na2vs0mg"},{"bike_id":"f15bca33-ca42-4ea6-bc31-fed7cee1209b","system_id":"levelo_inurba_marseille","lat":43.26025,"lon":5.37547,"is_reserved":false,"is_disabled":false,"rental_uris":{"android":"levelo://app?vid=f15bca33-ca42-4ea6-bc31-fed7cee1209b","ios":"levelo://app?vid=f15bca33-ca42-4ea6-bc31-fed7cee1209b"},"vehicle_type_id":"4","last_reported":1726045789,"current_range_meters":22800,"station_id":"ce4bhgh2rcd13ifvqfa0","pricing_plan_id":"cebpf4jnsgd1na2vs0mg"},{"bike_id":"2f886a15-37e4-4dad-86c7-a7a6746278bd","system_id":"levelo_inurba_marseille","lat":43.25933,"lon":5.40905,"is_reserved":false,"is_disabled":false,"rental_uris":{"android":"levelo://app?vid=2f886a15-37e4-4dad-86c7-a7a6746278bd","ios":"levelo://app?vid=2f886a15-37e4-4dad-86c7-a7a6746278bd"},"vehicle_type_id":"4","last_reported":1726045789,"current_range_meters":33600,"station_id":"ce4bhm92rcd13ifvqglg","pricing_plan_id":"cebpf4jnsgd1na2vs0mg"},{"bike_id":"c51c8f7e-bcf2-42f2-94c6-3e415993eea6","system_id":"levelo_inurba_marseille","lat":43.30137,"lon":5.37415,"is_reserved":false,"is_disabled":false,"rental_uris":{"android":"levelo://app?vid=c51c8f7e-bcf2-42f2-94c6-3e415993eea6","ios":"levelo://app?vid=c51c8f7e-bcf2-42f2-94c6-3e415993eea6"},"vehicle_type_id":"4","last_reported":1726045789,"current_range_meters":24800,"station_id":"ce4bgs92rcd13ifvqcc0","pricing_plan_id":"cebpf4jnsgd1na2vs0mg"},{"bike_id":"c2f4a5b2-e0fb-4e67-b15a-a8255d890ecf","system_id":"levelo_inurba_marseille","lat":43.25581,"lon":5.38238,"is_reserved":false,"is_disabled":false,"rental_uris":{"android":"levelo://app?vid=c2f4a5b2-e0fb-4e67-b15a-a8255d890ecf","ios":"levelo://app?vid=c2f4a5b2-e0fb-4e67-b15a-a8255d890ecf"},"vehicle_type_id":"4","last_reported":1726045789,"current_range_meters":24800,"station_id":"ce4bhih2rcd13ifvqfs0","pricing_plan_id":"cebpf4jnsgd1na2vs0mg"},{"bike_id":"532d53c7-e79f-4f48-a531-5cde729796db","system_id":"levelo_inurba_marseille","lat":43.26946,"lon":5.38633,"is_reserved":false,"is_disabled":false,"rental_uris":{"android":"levelo://app?vid=532d53c7-e79f-4f48-a531-5cde729796db","ios":"levelo://app?vid=532d53c7-e79f-4f48-a531-5cde729796db"},"vehicle_type_id":"4","last_reported":1726045789,"current_range_meters":22800,"station_id":"ce4bhh92rcd13ifvqfh0","pricing_plan_id":"cebpf4jnsgd1na2vs0mg"},{"bike_id":"0448784d-8951-4909-9e09-bdcca9f85683","system_id":"levelo_inurba_marseille","lat":43.29609,"lon":5.37722,"is_reserved":false,"is_disabled":false,"rental_uris":{"android":"levelo://app?vid=0448784d-8951-4909-9e09-bdcca9f85683","ios":"levelo://app?vid=0448784d-8951-4909-9e09-bdcca9f85683"},"vehicle_type_id":"4","last_reported":1726045789,"current_range_meters":10000,"station_id":"ce4bgi92rcd13ifvqb90","pricing_plan_id":"cebpf4jnsgd1na2vs0mg"},{"bike_id":"0d78d25f-2501-4ffb-b495-6cd64f4c7d8f","system_id":"levelo_inurba_marseille","lat":43.2418,"lon":5.39724,"is_reserved":false,"is_disabled":false,"rental_uris":{"android":"levelo://app?vid=0d78d25f-2501-4ffb-b495-6cd64f4c7d8f","ios":"levelo://app?vid=0d78d25f-2501-4ffb-b495-6cd64f4c7d8f"},"vehicle_type_id":"4","last_reported":1726045789,"current_range_meters":20000,"station_id":"ce4bhn12rcd13ifvqgpg","pricing_plan_id":"cebpf4jnsgd1na2vs0mg"},{"bike_id":"f8ba6a1d-21ee-4815-ba94-d6f403b23bd0","system_id":"levelo_inurba_marseille","lat":43.30908,"lon":5.36848,"is_reserved":false,"is_disabled":false,"rental_uris":{"android":"levelo://app?vid=f8ba6a1d-21ee-4815-ba94-d6f403b23bd0","ios":"levelo://app?vid=f8ba6a1d-21ee-4815-ba94-d6f403b23bd0"},"vehicle_type_id":"4","last_reported":1726045789,"current_range_meters":2800,"station_id":"ce4bgn92rcd13ifvqbvg","pricing_plan_id":"cebpf4jnsgd1na2vs0mg"},{"bike_id":"f8f0494b-a5ab-450f-baef-07f279927934","system_id":"levelo_inurba_marseille","lat":43.33761,"lon":5.37441,"is_reserved":false,"is_disabled":false,"rental_uris":{"android":"levelo://app?vid=f8f0494b-a5ab-450f-baef-07f279927934","ios":"levelo://app?vid=f8f0494b-a5ab-450f-baef-07f279927934"},"vehicle_type_id":"4","last_reported":1726045789,"current_range_meters":30400,"station_id":"","pricing_plan_id":"cebpf4jnsgd1na2vs0mg"},{"bike_id":"1a989014-3905-4a7d-990b-efb4f295f79a","system_id":"levelo_inurba_marseille","lat":43.28683,"lon":5.38664,"is_reserved":false,"is_disabled":false,"rental_uris":{"android":"levelo://app?vid=1a989014-3905-4a7d-990b-efb4f295f79a","ios":"levelo://app?vid=1a989014-3905-4a7d-990b-efb4f295f79a"},"vehicle_type_id":"4","last_reported":1726045789,"current_range_meters":32400,"station_id":"ce4bh492rcd13ifvqdug","pricing_plan_id":"cebpf4jnsgd1na2vs0mg"},{"bike_id":"b28a5ccd-a007-4e36-9dac-6251dabefb91","system_id":"levelo_inurba_marseille","lat":43.33607,"lon":5.41031,"is_reserved":false,"is_disabled":false,"rental_uris":{"android":"levelo://app?vid=b28a5ccd-a007-4e36-9dac-6251dabefb91","ios":"levelo://app?vid=b28a5ccd-a007-4e36-9dac-6251dabefb91"},"vehicle_type_id":"4","last_reported":1726045789,"current_range_meters":30000,"station_id":"ce4bhqh2rcd13ifvqhmg","pricing_plan_id":"cebpf4jnsgd1na2vs0mg"},{"bike_id":"8cab31b6-dec0-4f1e-ac80-1514478b44e5","system_id":"levelo_inurba_marseille","lat":43.2657,"lon":5.39016,"is_reserved":false,"is_disabled":false,"rental_uris":{"android":"levelo://app?vid=8cab31b6-dec0-4f1e-ac80-1514478b44e5","ios":"levelo://app?vid=8cab31b6-dec0-4f1e-ac80-1514478b44e5"},"vehicle_type_id":"4","last_reported":1726045789,"current_range_meters":2000,"station_id":"ce4bhe12rcd13ifvqf30","pricing_plan_id":"cebpf4jnsgd1na2vs0mg"},{"bike_id":"37d8c39f-1cdd-4f24-9274-2d093441df6e","system_id":"levelo_inurba_marseille","lat":43.31216,"lon":5.36873,"is_reserved":false,"is_disabled":false,"rental_uris":{"android":"levelo://app?vid=37d8c39f-1cdd-4f24-9274-2d093441df6e","ios":"levelo://app?vid=37d8c39f-1cdd-4f24-9274-2d093441df6e"},"vehicle_type_id":"4","last_reported":1726045789,"current_range_meters":30800,"station_id":"","pricing_plan_id":"cebpf4jnsgd1na2vs0mg"},{"bike_id":"08ccdf55-d2f4-4005-846f-72a69494905d","system_id":"levelo_inurba_marseille","lat":43.33609,"lon":5.41027,"is_reserved":false,"is_disabled":false,"rental_uris":{"android":"levelo://app?vid=08ccdf55-d2f4-4005-846f-72a69494905d","ios":"levelo://app?vid=08ccdf55-d2f4-4005-846f-72a69494905d"},"vehicle_type_id":"4","last_reported":1726045789,"current_range_meters":20800,"station_id":"ce4bhqh2rcd13ifvqhmg","pricing_plan_id":"cebpf4jnsgd1na2vs0mg"},{"bike_id":"ba7ededa-e78d-4500-9282-cfbae8d9b971","system_id":"levelo_inurba_marseille","lat":43.30137,"lon":5.37405,"is_reserved":false,"is_disabled":false,"rental_uris":{"android":"levelo://app?vid=ba7ededa-e78d-4500-9282-cfbae8d9b971","ios":"levelo://app?vid=ba7ededa-e78d-4500-9282-cfbae8d9b971"},"vehicle_type_id":"4","last_reported":1726045789,"current_range_meters":9200,"station_id":"ce4bgs92rcd13ifvqcc0","pricing_plan_id":"cebpf4jnsgd1na2vs0mg"},{"bike_id":"cd32fde7-7c25-4371-9806-719a8d16e179","system_id":"levelo_inurba_marseille","lat":43.27051,"lon":5.40263,"is_reserved":false,"is_disabled":false,"rental_uris":{"android":"levelo://app?vid=cd32fde7-7c25-4371-9806-719a8d16e179","ios":"levelo://app?vid=cd32fde7-7c25-4371-9806-719a8d16e179"},"vehicle_type_id":"4","last_reported":1726045789,"current_range_meters":30000,"station_id":"ce4bhk92rcd13ifvqgc0","pricing_plan_id":"cebpf4jnsgd1na2vs0mg"},{"bike_id":"6b513f60-f718-4e14-bf1b-7b7c3103266b","system_id":"levelo_inurba_marseille","lat":43.27977,"lon":5.38755,"is_reserved":false,"is_disabled":false,"rental_uris":{"android":"levelo://app?vid=6b513f60-f718-4e14-bf1b-7b7c3103266b","ios":"levelo://app?vid=6b513f60-f718-4e14-bf1b-7b7c3103266b"},"vehicle_type_id":"4","last_reported":1726045789,"current_range_meters":6400,"station_id":"ce4bhg12rcd13ifvqf80","pricing_plan_id":"cebpf4jnsgd1na2vs0mg"},{"bike_id":"3ad1c0b7-cf14-40ac-a119-2362e08acbad","system_id":"levelo_inurba_marseille","lat":43.30471,"lon":5.37896,"is_reserved":false,"is_disabled":false,"rental_uris":{"android":"levelo://app?vid=3ad1c0b7-cf14-40ac-a119-2362e08acbad","ios":"levelo://app?vid=3ad1c0b7-cf14-40ac-a119-2362e08acbad"},"vehicle_type_id":"4","last_reported":1726045789,"current_range_meters":36800,"station_id":"ce4bgup2rcd13ifvqcn0","pricing_plan_id":"cebpf4jnsgd1na2vs0mg"},{"bike_id":"3774f0da-cfcc-41cf-9ab6-9acf83169616","system_id":"levelo_inurba_marseille","lat":43.29855,"lon":5.36284,"is_reserved":false,"is_disabled":false,"rental_uris":{"android":"levelo://app?vid=3774f0da-cfcc-41cf-9ab6-9acf83169616","ios":"levelo://app?vid=3774f0da-cfcc-41cf-9ab6-9acf83169616"},"vehicle_type_id":"4","last_reported":1726045789,"current_range_meters":25200,"station_id":"ce4bgpp2rcd13ifvqc3g","pricing_plan_id":"cebpf4jnsgd1na2vs0mg"},{"bike_id":"1a203d64-964e-4524-9cba-3a4c0bbeb626","system_id":"levelo_inurba_marseille","lat":43.30946,"lon":5.3904,"is_reserved":false,"is_disabled":false,"rental_uris":{"android":"levelo://app?vid=1a203d64-964e-4524-9cba-3a4c0bbeb626","ios":"levelo://app?vid=1a203d64-964e-4524-9cba-3a4c0bbeb626"},"vehicle_type_id":"4","last_reported":1726045789,"current_range_meters":29600,"station_id":"ce4bgup2rcd13ifvqco0","pricing_plan_id":"cebpf4jnsgd1na2vs0mg"},{"bike_id":"8ff4c7eb-2a55-4a0a-8b71-3b2764c8c07e","system_id":"levelo_inurba_marseille","lat":43.30137,"lon":5.3987,"is_reserved":false,"is_disabled":false,"rental_uris":{"android":"levelo://app?vid=8ff4c7eb-2a55-4a0a-8b71-3b2764c8c07e","ios":"levelo://app?vid=8ff4c7eb-2a55-4a0a-8b71-3b2764c8c07e"},"vehicle_type_id":"4","last_reported":1726045789,"current_range_meters":33600,"station_id":"ce4bh0h2rcd13ifvqd40","pricing_plan_id":"cebpf4jnsgd1na2vs0mg"},{"bike_id":"5a3fd4a6-1755-465c-8d8f-1a84ddce9916","system_id":"levelo_inurba_marseille","lat":43.25005,"lon":5.38909,"is_reserved":false,"is_disabled":false,"rental_uris":{"android":"levelo://app?vid=5a3fd4a6-1755-465c-8d8f-1a84ddce9916","ios":"levelo://app?vid=5a3fd4a6-1755-465c-8d8f-1a84ddce9916"},"vehicle_type_id":"4","last_reported":1726045789,"current_range_meters":26000,"station_id":"ce4bhgp2rcd13ifvqfd0","pricing_plan_id":"cebpf4jnsgd1na2vs0mg"},{"bike_id":"da13a46c-41f2-424e-b687-72ec7560f69d","system_id":"levelo_inurba_marseille","lat":43.26193,"lon":5.37921,"is_reserved":false,"is_disabled":false,"rental_uris":{"android":"levelo://app?vid=da13a46c-41f2-424e-b687-72ec7560f69d","ios":"levelo://app?vid=da13a46c-41f2-424e-b687-72ec7560f69d"},"vehicle_type_id":"4","last_reported":1726045789,"current_range_meters":38800,"station_id":"ce4bhjp2rcd13ifvqg90","pricing_plan_id":"cebpf4jnsgd1na2vs0mg"},{"bike_id":"d5857567-e062-4ec2-b65b-5f36e66c17d8","system_id":"levelo_inurba_marseille","lat":43.24648,"lon":5.38893,"is_reserved":false,"is_disabled":false,"rental_uris":{"android":"levelo://app?vid=d5857567-e062-4ec2-b65b-5f36e66c17d8","ios":"levelo://app?vid=d5857567-e062-4ec2-b65b-5f36e66c17d8"},"vehicle_type_id":"4","last_reported":1726045789,"current_range_meters":12000,"station_id":"ce4bhg12rcd13ifvqf60","pricing_plan_id":"cebpf4jnsgd1na2vs0mg"},{"bike_id":"d5c92765-a644-453e-87c5-cad020da627e","system_id":"levelo_inurba_marseille","lat":43.30464,"lon":5.37903,"is_reserved":false,"is_disabled":false,"rental_uris":{"android":"levelo://app?vid=d5c92765-a644-453e-87c5-cad020da627e","ios":"levelo://app?vid=d5c92765-a644-453e-87c5-cad020da627e"},"vehicle_type_id":"4","last_reported":1726045789,"current_range_meters":38800,"station_id":"ce4bgup2rcd13ifvqcn0","pricing_plan_id":"cebpf4jnsgd1na2vs0mg"},{"bike_id":"27efc926-9b6c-4c19-b2f7-7af9733f59fb","system_id":"levelo_inurba_marseille","lat":43.24083,"lon":5.37744,"is_reserved":false,"is_disabled":false,"rental_uris":{"android":"levelo://app?vid=27efc926-9b6c-4c19-b2f7-7af9733f59fb","ios":"levelo://app?vid=27efc926-9b6c-4c19-b2f7-7af9733f59fb"},"vehicle_type_id":"4","last_reported":1726045789,"current_range_meters":30000,"station_id":"ce4bhnp2rcd13ifvqgvg","pricing_plan_id":"cebpf4jnsgd1na2vs0mg"},{"bike_id":"8dd94a15-6aef-434c-bf21-cc4c448ef3c7","system_id":"levelo_inurba_marseille","lat":43.24651,"lon":5.38896,"is_reserved":false,"is_disabled":false,"rental_uris":{"android":"levelo://app?vid=8dd94a15-6aef-434c-bf21-cc4c448ef3c7","ios":"levelo://app?vid=8dd94a15-6aef-434c-bf21-cc4c448ef3c7"},"vehicle_type_id":"4","last_reported":1726045789,"current_range_meters":20400,"station_id":"ce4bhg12rcd13ifvqf60","pricing_plan_id":"cebpf4jnsgd1na2vs0mg"},{"bike_id":"cc1035a2-8cd2-42dd-8f79-ec1dfabf0b07","system_id":"levelo_inurba_marseille","lat":43.28718,"lon":5.39986,"is_reserved":false,"is_disabled":false,"rental_uris":{"android":"levelo://app?vid=cc1035a2-8cd2-42dd-8f79-ec1dfabf0b07","ios":"levelo://app?vid=cc1035a2-8cd2-42dd-8f79-ec1dfabf0b07"},"vehicle_type_id":"4","last_reported":1726045789,"current_range_meters":38400,"station_id":"ce4bho92rcd13ifvqh3g","pricing_plan_id":"cebpf4jnsgd1na2vs0mg"},{"bike_id":"edb1fb8b-cbba-4c78-be48-67d587948082","system_id":"levelo_inurba_marseille","lat":43.28978,"lon":5.3784,"is_reserved":false,"is_disabled":false,"rental_uris":{"android":"levelo://app?vid=edb1fb8b-cbba-4c78-be48-67d587948082","ios":"levelo://app?vid=edb1fb8b-cbba-4c78-be48-67d587948082"},"vehicle_type_id":"4","last_reported":1726045789,"current_range_meters":14800,"station_id":"ce4bh9p2rcd13ifvqed0","pricing_plan_id":"cebpf4jnsgd1na2vs0mg"},{"bike_id":"5876c5ef-9fac-478d-bd3c-ea1780c21005","system_id":"levelo_inurba_marseille","lat":43.33755,"lon":5.37446,"is_reserved":false,"is_disabled":false,"rental_uris":{"android":"levelo://app?vid=5876c5ef-9fac-478d-bd3c-ea1780c21005","ios":"levelo://app?vid=5876c5ef-9fac-478d-bd3c-ea1780c21005"},"vehicle_type_id":"4","last_reported":1726045789,"current_range_meters":38800,"station_id":"","pricing_plan_id":"cebpf4jnsgd1na2vs0mg"},{"bike_id":"3ef293cb-6b10-47c2-a61b-1c747b67c2aa","system_id":"levelo_inurba_marseille","lat":43.22929,"lon":5.35378,"is_reserved":false,"is_disabled":false,"rental_uris":{"android":"levelo://app?vid=3ef293cb-6b10-47c2-a61b-1c747b67c2aa","ios":"levelo://app?vid=3ef293cb-6b10-47c2-a61b-1c747b67c2aa"},"vehicle_type_id":"4","last_reported":1726045789,"current_range_meters":36000,"station_id":"cpo3532slgdg3j2ikp40","pricing_plan_id":"cebpf4jnsgd1na2vs0mg"},{"bike_id":"9658173f-729f-44c0-b272-df35fcc2e649","system_id":"levelo_inurba_marseille","lat":43.34143,"lon":5.40911,"is_reserved":false,"is_disabled":false,"rental_uris":{"android":"levelo://app?vid=9658173f-729f-44c0-b272-df35fcc2e649","ios":"levelo://app?vid=9658173f-729f-44c0-b272-df35fcc2e649"},"vehicle_type_id":"4","last_reported":1726045789,"current_range_meters":30800,"station_id":"ce4bhqh2rcd13ifvqhlg","pricing_plan_id":"cebpf4jnsgd1na2vs0mg"},{"bike_id":"9d97c6b7-d5ff-4ca7-999e-9c4395e89c55","system_id":"levelo_inurba_marseille","lat":43.24071,"lon":5.37762,"is_reserved":false,"is_disabled":false,"rental_uris":{"android":"levelo://app?vid=9d97c6b7-d5ff-4ca7-999e-9c4395e89c55","ios":"levelo://app?vid=9d97c6b7-d5ff-4ca7-999e-9c4395e89c55"},"vehicle_type_id":"4","last_reported":1726045789,"current_range_meters":36800,"station_id":"ce4bhnp2rcd13ifvqgvg","pricing_plan_id":"cebpf4jnsgd1na2vs0mg"},{"bike_id":"d30c0660-787a-4f4f-b4b0-e0cbcc67c31d","system_id":"levelo_inurba_marseille","lat":43.33771,"lon":5.37443,"is_reserved":false,"is_disabled":false,"rental_uris":{"android":"levelo://app?vid=d30c0660-787a-4f4f-b4b0-e0cbcc67c31d","ios":"levelo://app?vid=d30c0660-787a-4f4f-b4b0-e0cbcc67c31d"},"vehicle_type_id":"4","last_reported":1726045789,"current_range_meters":13600,"station_id":"","pricing_plan_id":"cebpf4jnsgd1na2vs0mg"},{"bike_id":"fc83f8ea-e35a-4cad-88e7-aff7758ef0c9","system_id":"levelo_inurba_marseille","lat":43.25104,"lon":5.40325,"is_reserved":false,"is_disabled":false,"rental_uris":{"android":"levelo://app?vid=fc83f8ea-e35a-4cad-88e7-aff7758ef0c9","ios":"levelo://app?vid=fc83f8ea-e35a-4cad-88e7-aff7758ef0c9"},"vehicle_type_id":"4","last_reported":1726045789,"current_range_meters":3200,"station_id":"ce4bhlh2rcd13ifvqgig","pricing_plan_id":"cebpf4jnsgd1na2vs0mg"},{"bike_id":"de997810-7554-46cd-8ba3-7bf0bb9bdff4","system_id":"levelo_inurba_marseille","lat":43.25924,"lon":5.40906,"is_reserved":false,"is_disabled":false,"rental_uris":{"android":"levelo://app?vid=de997810-7554-46cd-8ba3-7bf0bb9bdff4","ios":"levelo://app?vid=de997810-7554-46cd-8ba3-7bf0bb9bdff4"},"vehicle_type_id":"4","last_reported":1726045789,"current_range_meters":28000,"station_id":"ce4bhm92rcd13ifvqglg","pricing_plan_id":"cebpf4jnsgd1na2vs0mg"},{"bike_id":"b0275aa5-5a60-47e5-b417-e66c5c398811","system_id":"levelo_inurba_marseille","lat":43.32477,"lon":5.36572,"is_reserved":false,"is_disabled":false,"rental_uris":{"android":"levelo://app?vid=b0275aa5-5a60-47e5-b417-e66c5c398811","ios":"levelo://app?vid=b0275aa5-5a60-47e5-b417-e66c5c398811"},"vehicle_type_id":"4","last_reported":1726045789,"current_range_meters":17200,"station_id":"ce4bhs12rcd13ifvqhvg","pricing_plan_id":"cebpf4jnsgd1na2vs0mg"},{"bike_id":"49bc212b-7e1a-46c5-acc7-cf861ed81b1e","system_id":"levelo_inurba_marseille","lat":43.337444,"lon":5.374475,"is_reserved":false,"is_disabled":false,"rental_uris":{"android":"levelo://app?vid=49bc212b-7e1a-46c5-acc7-cf861ed81b1e","ios":"levelo://app?vid=49bc212b-7e1a-46c5-acc7-cf861ed81b1e"},"vehicle_type_id":"4","last_reported":1726045789,"current_range_meters":38000,"station_id":"ce4bgqh2rcd13ifvqc5g","pricing_plan_id":"cebpf4jnsgd1na2vs0mg"},{"bike_id":"9e625c4a-2f61-4ebc-be50-04f2d83ca316","system_id":"levelo_inurba_marseille","lat":43.2917,"lon":5.37161,"is_reserved":false,"is_disabled":false,"rental_uris":{"android":"levelo://app?vid=9e625c4a-2f61-4ebc-be50-04f2d83ca316","ios":"levelo://app?vid=9e625c4a-2f61-4ebc-be50-04f2d83ca316"},"vehicle_type_id":"4","last_reported":1726045789,"current_range_meters":30400,"station_id":"ce4bha92rcd13ifvqeh0","pricing_plan_id":"cebpf4jnsgd1na2vs0mg"},{"bike_id":"28235940-2146-4db5-bc6c-5d2a78d60976","system_id":"levelo_inurba_marseille","lat":43.23958,"lon":5.36628,"is_reserved":false,"is_disabled":false,"rental_uris":{"android":"levelo://app?vid=28235940-2146-4db5-bc6c-5d2a78d60976","ios":"levelo://app?vid=28235940-2146-4db5-bc6c-5d2a78d60976"},"vehicle_type_id":"4","last_reported":1726045789,"current_range_meters":10000,"station_id":"ce4bhi12rcd13ifvqfp0","pricing_plan_id":"cebpf4jnsgd1na2vs0mg"},{"bike_id":"c47378c2-908b-4070-b7e7-a62a289e32ee","system_id":"levelo_inurba_marseille","lat":43.29009,"lon":5.35619,"is_reserved":false,"is_disabled":false,"rental_uris":{"android":"levelo://app?vid=c47378c2-908b-4070-b7e7-a62a289e32ee","ios":"levelo://app?vid=c47378c2-908b-4070-b7e7-a62a289e32ee"},"vehicle_type_id":"4","last_reported":1726045789,"current_range_meters":33600,"station_id":"ce4bhb92rcd13ifvqen0","pricing_plan_id":"cebpf4jnsgd1na2vs0mg"},{"bike_id":"dcc333a8-22fc-4a1e-9050-3a9a5d415b81","system_id":"levelo_inurba_marseille","lat":43.301359,"lon":5.38778,"is_reserved":false,"is_disabled":false,"rental_uris":{"android":"levelo://app?vid=dcc333a8-22fc-4a1e-9050-3a9a5d415b81","ios":"levelo://app?vid=dcc333a8-22fc-4a1e-9050-3a9a5d415b81"},"vehicle_type_id":"4","last_reported":1726045789,"current_range_meters":36000,"station_id":"ce4bghh2rcd13ifvqb60","pricing_plan_id":"cebpf4jnsgd1na2vs0mg"},{"bike_id":"1cb59988-24f3-4e62-8a6a-c8059f2b29dd","system_id":"levelo_inurba_marseille","lat":43.30532,"lon":5.38427,"is_reserved":false,"is_disabled":false,"rental_uris":{"android":"levelo://app?vid=1cb59988-24f3-4e62-8a6a-c8059f2b29dd","ios":"levelo://app?vid=1cb59988-24f3-4e62-8a6a-c8059f2b29dd"},"vehicle_type_id":"4","last_reported":1726045789,"current_range_meters":21600,"station_id":"ce4bgg92rcd13ifvqb30","pricing_plan_id":"cebpf4jnsgd1na2vs0mg"},{"bike_id":"74153a2f-5c36-4b79-8bfb-5ed19dd22f51","system_id":"levelo_inurba_marseille","lat":43.31351,"lon":5.36728,"is_reserved":false,"is_disabled":false,"rental_uris":{"android":"levelo://app?vid=74153a2f-5c36-4b79-8bfb-5ed19dd22f51","ios":"levelo://app?vid=74153a2f-5c36-4b79-8bfb-5ed19dd22f51"},"vehicle_type_id":"4","last_reported":1726045789,"current_range_meters":35200,"station_id":"ce4bgr92rcd13ifvqc6g","pricing_plan_id":"cebpf4jnsgd1na2vs0mg"},{"bike_id":"ea819ce7-e7bf-48a2-ac96-42c69241eb83","system_id":"levelo_inurba_marseille","lat":43.29615,"lon":5.37166,"is_reserved":false,"is_disabled":false,"rental_uris":{"android":"levelo://app?vid=ea819ce7-e7bf-48a2-ac96-42c69241eb83","ios":"levelo://app?vid=ea819ce7-e7bf-48a2-ac96-42c69241eb83"},"vehicle_type_id":"4","last_reported":1726045789,"current_range_meters":38800,"station_id":"ce4bgnh2rcd13ifvqc0g","pricing_plan_id":"cebpf4jnsgd1na2vs0mg"},{"bike_id":"505a6495-e54b-4eed-9465-06f834d57901","system_id":"levelo_inurba_marseille","lat":43.30944,"lon":5.39041,"is_reserved":false,"is_disabled":false,"rental_uris":{"android":"levelo://app?vid=505a6495-e54b-4eed-9465-06f834d57901","ios":"levelo://app?vid=505a6495-e54b-4eed-9465-06f834d57901"},"vehicle_type_id":"4","last_reported":1726045789,"current_range_meters":16800,"station_id":"ce4bgup2rcd13ifvqco0","pricing_plan_id":"cebpf4jnsgd1na2vs0mg"},{"bike_id":"5722f385-0124-4bed-a8de-85c0d18d21ac","system_id":"levelo_inurba_marseille","lat":43.25941,"lon":5.40899,"is_reserved":false,"is_disabled":false,"rental_uris":{"android":"levelo://app?vid=5722f385-0124-4bed-a8de-85c0d18d21ac","ios":"levelo://app?vid=5722f385-0124-4bed-a8de-85c0d18d21ac"},"vehicle_type_id":"4","last_reported":1726045789,"current_range_meters":29600,"station_id":"ce4bhm92rcd13ifvqglg","pricing_plan_id":"cebpf4jnsgd1na2vs0mg"},{"bike_id":"cd82fa41-b636-4841-a4ad-36cab80eb359","system_id":"levelo_inurba_marseille","lat":43.24072,"lon":5.37754,"is_reserved":false,"is_disabled":false,"rental_uris":{"android":"levelo://app?vid=cd82fa41-b636-4841-a4ad-36cab80eb359","ios":"levelo://app?vid=cd82fa41-b636-4841-a4ad-36cab80eb359"},"vehicle_type_id":"4","last_reported":1726045789,"current_range_meters":23200,"station_id":"ce4bhnp2rcd13ifvqgvg","pricing_plan_id":"cebpf4jnsgd1na2vs0mg"},{"bike_id":"a96b35a2-6539-4ad3-a385-682114851a42","system_id":"levelo_inurba_marseille","lat":43.25932,"lon":5.40912,"is_reserved":false,"is_disabled":false,"rental_uris":{"android":"levelo://app?vid=a96b35a2-6539-4ad3-a385-682114851a42","ios":"levelo://app?vid=a96b35a2-6539-4ad3-a385-682114851a42"},"vehicle_type_id":"4","last_reported":1726045789,"current_range_meters":30400,"station_id":"ce4bhm92rcd13ifvqglg","pricing_plan_id":"cebpf4jnsgd1na2vs0mg"},{"bike_id":"216f1cc1-4817-47db-becb-6d05f8bb4877","system_id":"levelo_inurba_marseille","lat":43.24077,"lon":5.3775,"is_reserved":false,"is_disabled":false,"rental_uris":{"android":"levelo://app?vid=216f1cc1-4817-47db-becb-6d05f8bb4877","ios":"levelo://app?vid=216f1cc1-4817-47db-becb-6d05f8bb4877"},"vehicle_type_id":"4","last_reported":1726045789,"current_range_meters":24800,"station_id":"ce4bhnp2rcd13ifvqgvg","pricing_plan_id":"cebpf4jnsgd1na2vs0mg"},{"bike_id":"b90216dc-50a9-45f1-a9c4-3fcc8ec94ff5","system_id":"levelo_inurba_marseille","lat":43.311663,"lon":5.393401,"is_reserved":false,"is_disabled":false,"rental_uris":{"android":"levelo://app?vid=b90216dc-50a9-45f1-a9c4-3fcc8ec94ff5","ios":"levelo://app?vid=b90216dc-50a9-45f1-a9c4-3fcc8ec94ff5"},"vehicle_type_id":"4","last_reported":1726045789,"current_range_meters":8000,"station_id":"","pricing_plan_id":"cebpf4jnsgd1na2vs0mg"},{"bike_id":"d5b556f9-7894-4958-be4d-3a1142e0906e","system_id":"levelo_inurba_marseille","lat":43.30137,"lon":5.37407,"is_reserved":false,"is_disabled":false,"rental_uris":{"android":"levelo://app?vid=d5b556f9-7894-4958-be4d-3a1142e0906e","ios":"levelo://app?vid=d5b556f9-7894-4958-be4d-3a1142e0906e"},"vehicle_type_id":"4","last_reported":1726045789,"current_range_meters":25200,"station_id":"ce4bgs92rcd13ifvqcc0","pricing_plan_id":"cebpf4jnsgd1na2vs0mg"},{"bike_id":"f3e09029-e952-48e6-8aff-b1e72566ae98","system_id":"levelo_inurba_marseille","lat":43.32535,"lon":5.4145,"is_reserved":false,"is_disabled":false,"rental_uris":{"android":"levelo://app?vid=f3e09029-e952-48e6-8aff-b1e72566ae98","ios":"levelo://app?vid=f3e09029-e952-48e6-8aff-b1e72566ae98"},"vehicle_type_id":"4","last_reported":1726045789,"current_range_meters":7200,"station_id":"ce4bhq12rcd13ifvqhhg","pricing_plan_id":"cebpf4jnsgd1na2vs0mg"},{"bike_id":"96e84ee2-e326-4374-b171-a5ccba70a2c5","system_id":"levelo_inurba_marseille","lat":43.32472,"lon":5.36565,"is_reserved":false,"is_disabled":false,"rental_uris":{"android":"levelo://app?vid=96e84ee2-e326-4374-b171-a5ccba70a2c5","ios":"levelo://app?vid=96e84ee2-e326-4374-b171-a5ccba70a2c5"},"vehicle_type_id":"4","last_reported":1726045789,"current_range_meters":36800,"station_id":"ce4bhs12rcd13ifvqhvg","pricing_plan_id":"cebpf4jnsgd1na2vs0mg"},{"bike_id":"3915a49b-b51f-4e11-892c-7592b67bc445","system_id":"levelo_inurba_marseille","lat":43.301269,"lon":5.387807,"is_reserved":false,"is_disabled":false,"rental_uris":{"android":"levelo://app?vid=3915a49b-b51f-4e11-892c-7592b67bc445","ios":"levelo://app?vid=3915a49b-b51f-4e11-892c-7592b67bc445"},"vehicle_type_id":"4","last_reported":1726045789,"current_range_meters":34800,"station_id":"ce4bghh2rcd13ifvqb60","pricing_plan_id":"cebpf4jnsgd1na2vs0mg"},{"bike_id":"c8e0fcb6-1d3f-4d83-b861-1f56e6b3ab2c","system_id":"levelo_inurba_marseille","lat":43.32289,"lon":5.38257,"is_reserved":false,"is_disabled":false,"rental_uris":{"android":"levelo://app?vid=c8e0fcb6-1d3f-4d83-b861-1f56e6b3ab2c","ios":"levelo://app?vid=c8e0fcb6-1d3f-4d83-b861-1f56e6b3ab2c"},"vehicle_type_id":"4","last_reported":1726045789,"current_range_meters":32400,"station_id":"ce4bhr12rcd13ifvqhqg","pricing_plan_id":"cebpf4jnsgd1na2vs0mg"},{"bike_id":"a0501e47-d497-4564-9059-69b945e106bd","system_id":"levelo_inurba_marseille","lat":43.29005,"lon":5.35615,"is_reserved":false,"is_disabled":false,"rental_uris":{"android":"levelo://app?vid=a0501e47-d497-4564-9059-69b945e106bd","ios":"levelo://app?vid=a0501e47-d497-4564-9059-69b945e106bd"},"vehicle_type_id":"4","last_reported":1726045789,"current_range_meters":33200,"station_id":"ce4bhb92rcd13ifvqen0","pricing_plan_id":"cebpf4jnsgd1na2vs0mg"},{"bike_id":"f8f6cfc1-dcc0-4116-a9c1-25e11afa8dcc","system_id":"levelo_inurba_marseille","lat":43.31348,"lon":5.36729,"is_reserved":false,"is_disabled":false,"rental_uris":{"android":"levelo://app?vid=f8f6cfc1-dcc0-4116-a9c1-25e11afa8dcc","ios":"levelo://app?vid=f8f6cfc1-dcc0-4116-a9c1-25e11afa8dcc"},"vehicle_type_id":"4","last_reported":1726045789,"current_range_meters":13600,"station_id":"ce4bgr92rcd13ifvqc6g","pricing_plan_id":"cebpf4jnsgd1na2vs0mg"},{"bike_id":"394ba6fe-4a64-44af-8ad8-9ff0cdf59d14","system_id":"levelo_inurba_marseille","lat":43.30542,"lon":5.36532,"is_reserved":false,"is_disabled":false,"rental_uris":{"android":"levelo://app?vid=394ba6fe-4a64-44af-8ad8-9ff0cdf59d14","ios":"levelo://app?vid=394ba6fe-4a64-44af-8ad8-9ff0cdf59d14"},"vehicle_type_id":"4","last_reported":1726045789,"current_range_meters":18800,"station_id":"ce4bgs12rcd13ifvqcag","pricing_plan_id":"cebpf4jnsgd1na2vs0mg"},{"bike_id":"1afc7eb9-df98-4f41-8969-b4d1ae2aad01","system_id":"levelo_inurba_marseille","lat":43.29847,"lon":5.36268,"is_reserved":false,"is_disabled":false,"rental_uris":{"android":"levelo://app?vid=1afc7eb9-df98-4f41-8969-b4d1ae2aad01","ios":"levelo://app?vid=1afc7eb9-df98-4f41-8969-b4d1ae2aad01"},"vehicle_type_id":"4","last_reported":1726045789,"current_range_meters":9200,"station_id":"ce4bgpp2rcd13ifvqc3g","pricing_plan_id":"cebpf4jnsgd1na2vs0mg"},{"bike_id":"33c39d1d-7dae-4444-8c41-c5ed72e67378","system_id":"levelo_inurba_marseille","lat":43.30465,"lon":5.37908,"is_reserved":false,"is_disabled":false,"rental_uris":{"android":"levelo://app?vid=33c39d1d-7dae-4444-8c41-c5ed72e67378","ios":"levelo://app?vid=33c39d1d-7dae-4444-8c41-c5ed72e67378"},"vehicle_type_id":"4","last_reported":1726045789,"current_range_meters":40000,"station_id":"ce4bgup2rcd13ifvqcn0","pricing_plan_id":"cebpf4jnsgd1na2vs0mg"},{"bike_id":"5458883e-48f6-4f3e-8dcf-785f087183e9","system_id":"levelo_inurba_marseille","lat":43.24071,"lon":5.37758,"is_reserved":false,"is_disabled":false,"rental_uris":{"android":"levelo://app?vid=5458883e-48f6-4f3e-8dcf-785f087183e9","ios":"levelo://app?vid=5458883e-48f6-4f3e-8dcf-785f087183e9"},"vehicle_type_id":"4","last_reported":1726045789,"current_range_meters":16400,"station_id":"ce4bhnp2rcd13ifvqgvg","pricing_plan_id":"cebpf4jnsgd1na2vs0mg"},{"bike_id":"74e737b5-82b3-4055-9407-d70bde56ceed","system_id":"levelo_inurba_marseille","lat":43.313945,"lon":5.374128,"is_reserved":false,"is_disabled":false,"rental_uris":{"android":"levelo://app?vid=74e737b5-82b3-4055-9407-d70bde56ceed","ios":"levelo://app?vid=74e737b5-82b3-4055-9407-d70bde56ceed"},"vehicle_type_id":"4","last_reported":1726045789,"current_range_meters":33600,"station_id":"","pricing_plan_id":"cebpf4jnsgd1na2vs0mg"},{"bike_id":"4708e94f-cb9a-4c26-b4ae-eff973aec9da","system_id":"levelo_inurba_marseille","lat":43.30476,"lon":5.37916,"is_reserved":false,"is_disabled":false,"rental_uris":{"android":"levelo://app?vid=4708e94f-cb9a-4c26-b4ae-eff973aec9da","ios":"levelo://app?vid=4708e94f-cb9a-4c26-b4ae-eff973aec9da"},"vehicle_type_id":"4","last_reported":1726045789,"current_range_meters":12400,"station_id":"ce4bgup2rcd13ifvqcn0","pricing_plan_id":"cebpf4jnsgd1na2vs0mg"},{"bike_id":"9610f388-60c6-49bb-84bb-4ea91a1f925b","system_id":"levelo_inurba_marseille","lat":43.29551,"lon":5.42278,"is_reserved":false,"is_disabled":false,"rental_uris":{"android":"levelo://app?vid=9610f388-60c6-49bb-84bb-4ea91a1f925b","ios":"levelo://app?vid=9610f388-60c6-49bb-84bb-4ea91a1f925b"},"vehicle_type_id":"4","last_reported":1726045789,"current_range_meters":6000,"station_id":"ce4bhph2rcd13ifvqhdg","pricing_plan_id":"cebpf4jnsgd1na2vs0mg"},{"bike_id":"b979827e-ffa2-4465-8490-36166590de00","system_id":"levelo_inurba_marseille","lat":43.24069,"lon":5.37758,"is_reserved":false,"is_disabled":false,"rental_uris":{"android":"levelo://app?vid=b979827e-ffa2-4465-8490-36166590de00","ios":"levelo://app?vid=b979827e-ffa2-4465-8490-36166590de00"},"vehicle_type_id":"4","last_reported":1726045789,"current_range_meters":35600,"station_id":"ce4bhnp2rcd13ifvqgvg","pricing_plan_id":"cebpf4jnsgd1na2vs0mg"},{"bike_id":"cbd47430-6678-4dfb-8022-31198711ea30","system_id":"levelo_inurba_marseille","lat":43.27489,"lon":5.42459,"is_reserved":false,"is_disabled":false,"rental_uris":{"android":"levelo://app?vid=cbd47430-6678-4dfb-8022-31198711ea30","ios":"levelo://app?vid=cbd47430-6678-4dfb-8022-31198711ea30"},"vehicle_type_id":"4","last_reported":1726045789,"current_range_meters":30400,"station_id":"ce4bhn92rcd13ifvqgrg","pricing_plan_id":"cebpf4jnsgd1na2vs0mg"},{"bike_id":"3e7d6579-011c-4e59-83ea-dab4e297703e","system_id":"levelo_inurba_marseille","lat":43.27492,"lon":5.42456,"is_reserved":false,"is_disabled":false,"rental_uris":{"android":"levelo://app?vid=3e7d6579-011c-4e59-83ea-dab4e297703e","ios":"levelo://app?vid=3e7d6579-011c-4e59-83ea-dab4e297703e"},"vehicle_type_id":"4","last_reported":1726045789,"current_range_meters":19200,"station_id":"ce4bhn92rcd13ifvqgrg","pricing_plan_id":"cebpf4jnsgd1na2vs0mg"},{"bike_id":"686200cf-ae29-4aac-802a-2e115e5925d1","system_id":"levelo_inurba_marseille","lat":43.2781,"lon":5.40714,"is_reserved":false,"is_disabled":false,"rental_uris":{"android":"levelo://app?vid=686200cf-ae29-4aac-802a-2e115e5925d1","ios":"levelo://app?vid=686200cf-ae29-4aac-802a-2e115e5925d1"},"vehicle_type_id":"4","last_reported":1726045789,"current_range_meters":3600,"station_id":"ce4bhnh2rcd13ifvqgtg","pricing_plan_id":"cebpf4jnsgd1na2vs0mg"},{"bike_id":"79c554e0-a5b3-40e4-a76f-e5d5a68a6672","system_id":"levelo_inurba_marseille","lat":43.30534,"lon":5.3843,"is_reserved":false,"is_disabled":false,"rental_uris":{"android":"levelo://app?vid=79c554e0-a5b3-40e4-a76f-e5d5a68a6672","ios":"levelo://app?vid=79c554e0-a5b3-40e4-a76f-e5d5a68a6672"},"vehicle_type_id":"4","last_reported":1726045789,"current_range_meters":35200,"station_id":"ce4bgg92rcd13ifvqb30","pricing_plan_id":"cebpf4jnsgd1na2vs0mg"},{"bike_id":"aa9c2c5d-9213-49c0-84f0-e2f7706bf7e0","system_id":"levelo_inurba_marseille","lat":43.30903,"lon":5.36848,"is_reserved":false,"is_disabled":false,"rental_uris":{"android":"levelo://app?vid=aa9c2c5d-9213-49c0-84f0-e2f7706bf7e0","ios":"levelo://app?vid=aa9c2c5d-9213-49c0-84f0-e2f7706bf7e0"},"vehicle_type_id":"4","last_reported":1726045789,"current_range_meters":24000,"station_id":"ce4bgn92rcd13ifvqbvg","pricing_plan_id":"cebpf4jnsgd1na2vs0mg"},{"bike_id":"51e13f07-3491-4911-be5b-b4c992f74f41","system_id":"levelo_inurba_marseille","lat":43.27809,"lon":5.40711,"is_reserved":false,"is_disabled":false,"rental_uris":{"android":"levelo://app?vid=51e13f07-3491-4911-be5b-b4c992f74f41","ios":"levelo://app?vid=51e13f07-3491-4911-be5b-b4c992f74f41"},"vehicle_type_id":"4","last_reported":1726045789,"current_range_meters":26800,"station_id":"ce4bhnh2rcd13ifvqgtg","pricing_plan_id":"cebpf4jnsgd1na2vs0mg"},{"bike_id":"95f898e9-721b-48b2-851f-bef15c678821","system_id":"levelo_inurba_marseille","lat":43.309,"lon":5.3685,"is_reserved":false,"is_disabled":false,"rental_uris":{"android":"levelo://app?vid=95f898e9-721b-48b2-851f-bef15c678821","ios":"levelo://app?vid=95f898e9-721b-48b2-851f-bef15c678821"},"vehicle_type_id":"4","last_reported":1726045789,"current_range_meters":18800,"station_id":"ce4bgn92rcd13ifvqbvg","pricing_plan_id":"cebpf4jnsgd1na2vs0mg"},{"bike_id":"5828ca84-6055-4b4f-b6cc-9dcb2c01f1b4","system_id":"levelo_inurba_marseille","lat":43.34133,"lon":5.40897,"is_reserved":false,"is_disabled":false,"rental_uris":{"android":"levelo://app?vid=5828ca84-6055-4b4f-b6cc-9dcb2c01f1b4","ios":"levelo://app?vid=5828ca84-6055-4b4f-b6cc-9dcb2c01f1b4"},"vehicle_type_id":"4","last_reported":1726045789,"current_range_meters":28000,"station_id":"ce4bhqh2rcd13ifvqhlg","pricing_plan_id":"cebpf4jnsgd1na2vs0mg"},{"bike_id":"2da0ab36-3bfe-457f-8947-45f5336e4460","system_id":"levelo_inurba_marseille","lat":43.23957,"lon":5.36652,"is_reserved":false,"is_disabled":false,"rental_uris":{"android":"levelo://app?vid=2da0ab36-3bfe-457f-8947-45f5336e4460","ios":"levelo://app?vid=2da0ab36-3bfe-457f-8947-45f5336e4460"},"vehicle_type_id":"4","last_reported":1726045789,"current_range_meters":31200,"station_id":"ce4bhi12rcd13ifvqfp0","pricing_plan_id":"cebpf4jnsgd1na2vs0mg"},{"bike_id":"4dfaeb16-4ad1-4c9d-bc8d-824173f80fbc","system_id":"levelo_inurba_marseille","lat":43.2407,"lon":5.3776,"is_reserved":false,"is_disabled":false,"rental_uris":{"android":"levelo://app?vid=4dfaeb16-4ad1-4c9d-bc8d-824173f80fbc","ios":"levelo://app?vid=4dfaeb16-4ad1-4c9d-bc8d-824173f80fbc"},"vehicle_type_id":"4","last_reported":1726045789,"current_range_meters":12800,"station_id":"ce4bhnp2rcd13ifvqgvg","pricing_plan_id":"cebpf4jnsgd1na2vs0mg"},{"bike_id":"f400d370-a20e-4ced-86f0-64f62510749c","system_id":"levelo_inurba_marseille","lat":43.3237,"lon":5.38926,"is_reserved":false,"is_disabled":false,"rental_uris":{"android":"levelo://app?vid=f400d370-a20e-4ced-86f0-64f62510749c","ios":"levelo://app?vid=f400d370-a20e-4ced-86f0-64f62510749c"},"vehicle_type_id":"4","last_reported":1726045789,"current_range_meters":14400,"station_id":"","pricing_plan_id":"cebpf4jnsgd1na2vs0mg"},{"bike_id":"e5177d4b-5b91-4907-9678-2abef584035e","system_id":"levelo_inurba_marseille","lat":43.25932,"lon":5.40913,"is_reserved":false,"is_disabled":false,"rental_uris":{"android":"levelo://app?vid=e5177d4b-5b91-4907-9678-2abef584035e","ios":"levelo://app?vid=e5177d4b-5b91-4907-9678-2abef584035e"},"vehicle_type_id":"4","last_reported":1726045789,"current_range_meters":26800,"station_id":"ce4bhm92rcd13ifvqglg","pricing_plan_id":"cebpf4jnsgd1na2vs0mg"},{"bike_id":"65c5f794-7f50-4cfb-9498-42ec222f456f","system_id":"levelo_inurba_marseille","lat":43.30553,"lon":5.36532,"is_reserved":false,"is_disabled":false,"rental_uris":{"android":"levelo://app?vid=65c5f794-7f50-4cfb-9498-42ec222f456f","ios":"levelo://app?vid=65c5f794-7f50-4cfb-9498-42ec222f456f"},"vehicle_type_id":"4","last_reported":1726045789,"current_range_meters":10800,"station_id":"ce4bgs12rcd13ifvqcag","pricing_plan_id":"cebpf4jnsgd1na2vs0mg"},{"bike_id":"6d1610a7-bf16-432e-aca6-b6390a94fa17","system_id":"levelo_inurba_marseille","lat":43.26199,"lon":5.37926,"is_reserved":false,"is_disabled":false,"rental_uris":{"android":"levelo://app?vid=6d1610a7-bf16-432e-aca6-b6390a94fa17","ios":"levelo://app?vid=6d1610a7-bf16-432e-aca6-b6390a94fa17"},"vehicle_type_id":"4","last_reported":1726045789,"current_range_meters":23200,"station_id":"ce4bhjp2rcd13ifvqg90","pricing_plan_id":"cebpf4jnsgd1na2vs0mg"},{"bike_id":"d279e2c0-a281-4e56-9525-ebc041d5c60f","system_id":"levelo_inurba_marseille","lat":43.26948,"lon":5.38636,"is_reserved":false,"is_disabled":false,"rental_uris":{"android":"levelo://app?vid=d279e2c0-a281-4e56-9525-ebc041d5c60f","ios":"levelo://app?vid=d279e2c0-a281-4e56-9525-ebc041d5c60f"},"vehicle_type_id":"4","last_reported":1726045789,"current_range_meters":12000,"station_id":"ce4bhh92rcd13ifvqfh0","pricing_plan_id":"cebpf4jnsgd1na2vs0mg"},{"bike_id":"143049cf-4830-4219-a121-2a60df83aa5d","system_id":"levelo_inurba_marseille","lat":43.337444,"lon":5.374475,"is_reserved":false,"is_disabled":false,"rental_uris":{"android":"levelo://app?vid=143049cf-4830-4219-a121-2a60df83aa5d","ios":"levelo://app?vid=143049cf-4830-4219-a121-2a60df83aa5d"},"vehicle_type_id":"4","last_reported":1726045789,"current_range_meters":38000,"station_id":"","pricing_plan_id":"cebpf4jnsgd1na2vs0mg"},{"bike_id":"7e9a963d-e38b-4309-9da9-6ffb6f337b1b","system_id":"levelo_inurba_marseille","lat":43.337444,"lon":5.374475,"is_reserved":false,"is_disabled":false,"rental_uris":{"android":"levelo://app?vid=7e9a963d-e38b-4309-9da9-6ffb6f337b1b","ios":"levelo://app?vid=7e9a963d-e38b-4309-9da9-6ffb6f337b1b"},"vehicle_type_id":"4","last_reported":1726045789,"current_range_meters":35200,"station_id":"ce4bgqh2rcd13ifvqc5g","pricing_plan_id":"cebpf4jnsgd1na2vs0mg"},{"bike_id":"662f53c6-3511-4d32-a325-7f7f91a5144b","system_id":"levelo_inurba_marseille","lat":43.30545,"lon":5.36526,"is_reserved":false,"is_disabled":false,"rental_uris":{"android":"levelo://app?vid=662f53c6-3511-4d32-a325-7f7f91a5144b","ios":"levelo://app?vid=662f53c6-3511-4d32-a325-7f7f91a5144b"},"vehicle_type_id":"4","last_reported":1726045789,"current_range_meters":28000,"station_id":"ce4bgs12rcd13ifvqcag","pricing_plan_id":"cebpf4jnsgd1na2vs0mg"},{"bike_id":"d91f40bd-2003-4728-be0f-42ff0a3814b1","system_id":"levelo_inurba_marseille","lat":43.26051,"lon":5.39389,"is_reserved":false,"is_disabled":false,"rental_uris":{"android":"levelo://app?vid=d91f40bd-2003-4728-be0f-42ff0a3814b1","ios":"levelo://app?vid=d91f40bd-2003-4728-be0f-42ff0a3814b1"},"vehicle_type_id":"4","last_reported":1726045789,"current_range_meters":35200,"station_id":"ce4bhh92rcd13ifvqfj0","pricing_plan_id":"cebpf4jnsgd1na2vs0mg"},{"bike_id":"1691584f-beb8-4434-8ffd-c9bd6def8432","system_id":"levelo_inurba_marseille","lat":43.295135,"lon":5.375152,"is_reserved":false,"is_disabled":false,"rental_uris":{"android":"levelo://app?vid=1691584f-beb8-4434-8ffd-c9bd6def8432","ios":"levelo://app?vid=1691584f-beb8-4434-8ffd-c9bd6def8432"},"vehicle_type_id":"4","last_reported":1726045789,"current_range_meters":14800,"station_id":"ce4bgkp2rcd13ifvqbmg","pricing_plan_id":"cebpf4jnsgd1na2vs0mg"},{"bike_id":"46dc14bd-df80-47c3-ac3e-0381c677089a","system_id":"levelo_inurba_marseille","lat":43.309654,"lon":5.379241,"is_reserved":false,"is_disabled":false,"rental_uris":{"android":"levelo://app?vid=46dc14bd-df80-47c3-ac3e-0381c677089a","ios":"levelo://app?vid=46dc14bd-df80-47c3-ac3e-0381c677089a"},"vehicle_type_id":"4","last_reported":1726045789,"current_range_meters":38800,"station_id":"ce4bgv12rcd13ifvqcp0","pricing_plan_id":"cebpf4jnsgd1na2vs0mg"},{"bike_id":"87665354-7bda-4012-9c04-760f7be02f22","system_id":"levelo_inurba_marseille","lat":43.30465,"lon":5.379,"is_reserved":false,"is_disabled":false,"rental_uris":{"android":"levelo://app?vid=87665354-7bda-4012-9c04-760f7be02f22","ios":"levelo://app?vid=87665354-7bda-4012-9c04-760f7be02f22"},"vehicle_type_id":"4","last_reported":1726045789,"current_range_meters":36800,"station_id":"ce4bgup2rcd13ifvqcn0","pricing_plan_id":"cebpf4jnsgd1na2vs0mg"},{"bike_id":"e5ed0075-14c4-4d1d-a9af-a1ffecf526a7","system_id":"levelo_inurba_marseille","lat":43.29834,"lon":5.36261,"is_reserved":false,"is_disabled":false,"rental_uris":{"android":"levelo://app?vid=e5ed0075-14c4-4d1d-a9af-a1ffecf526a7","ios":"levelo://app?vid=e5ed0075-14c4-4d1d-a9af-a1ffecf526a7"},"vehicle_type_id":"4","last_reported":1726045789,"current_range_meters":33200,"station_id":"ce4bgpp2rcd13ifvqc3g","pricing_plan_id":"cebpf4jnsgd1na2vs0mg"},{"bike_id":"38b29daa-05a9-4468-b855-697ff9da1a2e","system_id":"levelo_inurba_marseille","lat":43.26947,"lon":5.38637,"is_reserved":false,"is_disabled":false,"rental_uris":{"android":"levelo://app?vid=38b29daa-05a9-4468-b855-697ff9da1a2e","ios":"levelo://app?vid=38b29daa-05a9-4468-b855-697ff9da1a2e"},"vehicle_type_id":"4","last_reported":1726045789,"current_range_meters":13600,"station_id":"ce4bhh92rcd13ifvqfh0","pricing_plan_id":"cebpf4jnsgd1na2vs0mg"},{"bike_id":"10f335ff-179b-49fd-9a9b-6667c4673661","system_id":"levelo_inurba_marseille","lat":43.30795,"lon":5.43521,"is_reserved":false,"is_disabled":false,"rental_uris":{"android":"levelo://app?vid=10f335ff-179b-49fd-9a9b-6667c4673661","ios":"levelo://app?vid=10f335ff-179b-49fd-9a9b-6667c4673661"},"vehicle_type_id":"4","last_reported":1726045789,"current_range_meters":27600,"station_id":"ce4bhph2rcd13ifvqheg","pricing_plan_id":"cebpf4jnsgd1na2vs0mg"},{"bike_id":"efb90d7e-2c7c-486d-95ca-2cb71fb25773","system_id":"levelo_inurba_marseille","lat":43.27484,"lon":5.42457,"is_reserved":false,"is_disabled":false,"rental_uris":{"android":"levelo://app?vid=efb90d7e-2c7c-486d-95ca-2cb71fb25773","ios":"levelo://app?vid=efb90d7e-2c7c-486d-95ca-2cb71fb25773"},"vehicle_type_id":"4","last_reported":1726045789,"current_range_meters":16400,"station_id":"ce4bhn92rcd13ifvqgrg","pricing_plan_id":"cebpf4jnsgd1na2vs0mg"},{"bike_id":"cec131b6-6c84-4899-9723-159f4b060af5","system_id":"levelo_inurba_marseille","lat":43.31699,"lon":5.37764,"is_reserved":false,"is_disabled":false,"rental_uris":{"android":"levelo://app?vid=cec131b6-6c84-4899-9723-159f4b060af5","ios":"levelo://app?vid=cec131b6-6c84-4899-9723-159f4b060af5"},"vehicle_type_id":"4","last_reported":1726045789,"current_range_meters":8400,"station_id":"ce4bgth2rcd13ifvqch0","pricing_plan_id":"cebpf4jnsgd1na2vs0mg"},{"bike_id":"06546f5a-32e2-44f6-9109-ef698523fba5","system_id":"levelo_inurba_marseille","lat":43.26566,"lon":5.38997,"is_reserved":false,"is_disabled":false,"rental_uris":{"android":"levelo://app?vid=06546f5a-32e2-44f6-9109-ef698523fba5","ios":"levelo://app?vid=06546f5a-32e2-44f6-9109-ef698523fba5"},"vehicle_type_id":"4","last_reported":1726045789,"current_range_meters":35200,"station_id":"ce4bhe12rcd13ifvqf30","pricing_plan_id":"cebpf4jnsgd1na2vs0mg"},{"bike_id":"2cfe9cf9-8c5e-4154-acba-0a54170b6cb3","system_id":"levelo_inurba_marseille","lat":43.25932,"lon":5.4091,"is_reserved":false,"is_disabled":false,"rental_uris":{"android":"levelo://app?vid=2cfe9cf9-8c5e-4154-acba-0a54170b6cb3","ios":"levelo://app?vid=2cfe9cf9-8c5e-4154-acba-0a54170b6cb3"},"vehicle_type_id":"4","last_reported":1726045789,"current_range_meters":36800,"station_id":"ce4bhm92rcd13ifvqglg","pricing_plan_id":"cebpf4jnsgd1na2vs0mg"},