{"last_updated":1729030125,"ttl":60,"version":"2.2","data":{"bikes":[{"bike_id":"488cc52e-690c-4348-900f-2cee32ad7416","system_id":"levelo_inurba_marseille","lat":43.31721,"lon":5.42404,"is_reserved":false,"is_disabled":false,"rental_uris":{"android":"levelo://app?vid=488cc52e-690c-4348-900f-2cee32ad7416","ios":"levelo://app?vid=488cc52e-690c-4348-900f-2cee32ad7416"},"vehicle_type_id":"4","last_reported":1729030125,"current_range_meters":37600,"station_id":"ce4bhp92rcd13ifvqhbg","pricing_plan_id":"cebpf4jnsgd1na2vs0mg"},{"bike_id":"59277583-c6e6-42b2-9e1b-aa0815e80425","system_id":"levelo_inurba_marseille","lat":43.30284,"lon":5.37684,"is_reserved":false,"is_disabled":false,"rental_uris":{"android":"levelo://app?vid=59277583-c6e6-42b2-9e1b-aa0815e80425","ios":"levelo://app?vid=59277583-c6e6-42b2-9e1b-aa0815e80425"},"vehicle_type_id":"4","last_reported":1729030125,"current_range_meters":38800,"station_id":"ce4bguh2rcd13ifvqcj0","pricing_plan_id":"cebpf4jnsgd1na2vs0mg"},{"bike_id":"c97222c8-b037-4db7-9702-abb09f9e010e","system_id":"levelo_inurba_marseille","lat":43.30284,"lon":5.37684,"is_reserved":false,"is_disabled":false,"rental_uris":{"android":"levelo://app?vid=c97222c8-b037-4db7-9702-abb09f9e010e","ios":"levelo://app?vid=c97222c8-b037-4db7-9702-abb09f9e010e"},"vehicle_type_id":"4","last_reported":1729030125,"current_range_meters":35600,"station_id":"ce4bguh2rcd13ifvqcj0","pricing_plan_id":"cebpf4jnsgd1na2vs0mg"},{"bike_id":"805cf10d-9632-4f1a-9f3a-80b24a4fbac6","system_id":"levelo_inurba_marseille","lat":43.29803,"lon":5.41501,"is_reserved":false,"is_disabled":false,"rental_uris":{"android":"levelo://app?vid=805cf10d-9632-4f1a-9f3a-80b24a4fbac6","ios":"levelo://app?vid=805cf10d-9632-4f1a-9f3a-80b24a4fbac6"},"vehicle_type_id":"4","last_reported":1729030125,"current_range_meters":8800,"station_id":"","pricing_plan_id":"cebpf4jnsgd1na2vs0mg"},{"bike_id":"db95dd30-88ae-4985-9a96-ae5ac75e3266","system_id":"levelo_inurba_marseille","lat":43.27211,"lon":5.39185,"is_reserved":false,"is_disabled":false,"rental_uris":{"android":"levelo://app?vid=db95dd30-88ae-4985-9a96-ae5ac75e3266","ios":"levelo://app?vid=db95dd30-88ae-4985-9a96-ae5ac75e3266"},"vehicle_type_id":"4","last_reported":1729030125,"current_range_meters":19600,"station_id":"","pricing_plan_id":"cebpf4jnsgd1na2vs0mg"},{"bike_id":"cfe73e5c-7ebb-4210-90c2-561d224255b1","system_id":"levelo_inurba_marseille","lat":43.31077,"lon":5.3835,"is_reserved":false,"is_disabled":false,"rental_uris":{"android":"levelo://app?vid=cfe73e5c-7ebb-4210-90c2-561d224255b1","ios":"levelo://app?vid=cfe73e5c-7ebb-4210-90c2-561d224255b1"},"vehicle_type_id":"4","last_reported":1729030125,"current_range_meters":38800,"station_id":"ce4bgv92rcd13ifvqcr0","pricing_plan_id":"cebpf4jnsgd1na2vs0mg"},{"bike_id":"748da852-72f7-481c-94cb-3539f940a42c","system_id":"levelo_inurba_marseille","lat":43.299306,"lon":5.365344,"is_reserved":false,"is_disabled":false,"rental_uris":{"android":"levelo://app?vid=748da852-72f7-481c-94cb-3539f940a42c","ios":"levelo://app?vid=748da852-72f7-481c-94cb-3539f940a42c"},"vehicle_type_id":"4","last_reported":1729030125,"current_range_meters":38800,"station_id":"ce4bgm92rcd13ifvqbr0","pricing_plan_id":"cebpf4jnsgd1na2vs0mg"},{"bike_id":"421cf416-be25-4246-aaab-a83562d59f11","system_id":"levelo_inurba_marseille","lat":43.29041,"lon":5.39951,"is_reserved":false,"is_disabled":false,"rental_uris":{"android":"levelo://app?vid=421cf416-be25-4246-aaab-a83562d59f11","ios":"levelo://app?vid=421cf416-be25-4246-aaab-a83562d59f11"},"vehicle_type_id":"4","last_reported":1729030125,"current_range_meters":37600,"station_id":"ce4bh392rcd13ifvqdm0","pricing_plan_id":"cebpf4jnsgd1na2vs0mg"},{"bike_id":"f2fdf74f-5e15-4827-9d38-65a4050d017a","system_id":"levelo_inurba_marseille","lat":43.28079,"lon":5.39652,"is_reserved":false,"is_disabled":false,"rental_uris":{"android":"levelo://app?vid=f2fdf74f-5e15-4827-9d38-65a4050d017a","ios":"levelo://app?vid=f2fdf74f-5e15-4827-9d38-65a4050d017a"},"vehicle_type_id":"4","last_reported":1729030125,"current_range_meters":25200,"station_id":"ce4bho12rcd13ifvqh2g","pricing_plan_id":"cebpf4jnsgd1na2vs0mg"},{"bike_id":"8aca930d-2c77-435a-bbcd-cf4f4d726973","system_id":"levelo_inurba_marseille","lat":43.284065,"lon":5.375068,"is_reserved":false,"is_disabled":false,"rental_uris":{"android":"levelo://app?vid=8aca930d-2c77-435a-bbcd-cf4f4d726973","ios":"levelo://app?vid=8aca930d-2c77-435a-bbcd-cf4f4d726973"},"vehicle_type_id":"4","last_reported":1729030125,"current_range_meters":35600,"station_id":"ce4bh412rcd13ifvqds0","pricing_plan_id":"cebpf4jnsgd1na2vs0mg"},{"bike_id":"decf65b9-49aa-457a-b1da-f13e96b87098","system_id":"levelo_inurba_marseille","lat":43.27495,"lon":5.42451,"is_reserved":false,"is_disabled":false,"rental_uris":{"android":"levelo://app?vid=decf65b9-49aa-457a-b1da-f13e96b87098","ios":"levelo://app?vid=decf65b9-49aa-457a-b1da-f13e96b87098"},"vehicle_type_id":"4","last_reported":1729030125,"current_range_meters":28000,"station_id":"ce4bhn92rcd13ifvqgrg","pricing_plan_id":"cebpf4jnsgd1na2vs0mg"},{"bike_id":"2dc7e128-2e5e-485a-b104-d755553c9f68","system_id":"levelo_inurba_marseille","lat":43.284614,"lon":5.358819,"is_reserved":false,"is_disabled":false,"rental_uris":{"android":"levelo://app?vid=2dc7e128-2e5e-485a-b104-d755553c9f68","ios":"levelo://app?vid=2dc7e128-2e5e-485a-b104-d755553c9f68"},"vehicle_type_id":"4","last_reported":1729030125,"current_range_meters":31200,"station_id":"ce4bhah2rcd13ifvqei0","pricing_plan_id":"cebpf4jnsgd1na2vs0mg"},{"bike_id":"cb1a299a-fc3a-4ccb-92a0-fb2cc8240909","system_id":"levelo_inurba_marseille","lat":43.30932,"lon":5.40145,"is_reserved":false,"is_disabled":false,"rental_uris":{"android":"levelo://app?vid=cb1a299a-fc3a-4ccb-92a0-fb2cc8240909","ios":"levelo://app?vid=cb1a299a-fc3a-4ccb-92a0-fb2cc8240909"},"vehicle_type_id":"4","last_reported":1729030125,"current_range_meters":15200,"station_id":"ce4bgvp2rcd13ifvqct0","pricing_plan_id":"cebpf4jnsgd1na2vs0mg"},{"bike_id":"55f3ecd4-e215-4eab-a738-15141a2bdd81","system_id":"levelo_inurba_marseille","lat":43.30795,"lon":5.38152,"is_reserved":false,"is_disabled":false,"rental_uris":{"android":"levelo://app?vid=55f3ecd4-e215-4eab-a738-15141a2bdd81","ios":"levelo://app?vid=55f3ecd4-e215-4eab-a738-15141a2bdd81"},"vehicle_type_id":"4","last_reported":1729030125,"current_range_meters":6800,"station_id":"ce4bgt12rcd13ifvqce0","pricing_plan_id":"cebpf4jnsgd1na2vs0mg"},{"bike_id":"8dc88361-e5e8-4b7b-a8f8-5a05e108c642","system_id":"levelo_inurba_marseille","lat":43.30928,"lon":5.40142,"is_reserved":false,"is_disabled":false,"rental_uris":{"android":"levelo://app?vid=8dc88361-e5e8-4b7b-a8f8-5a05e108c642","ios":"levelo://app?vid=8dc88361-e5e8-4b7b-a8f8-5a05e108c642"},"vehicle_type_id":"4","last_reported":1729030125,"current_range_meters":39200,"station_id":"ce4bgvp2rcd13ifvqct0","pricing_plan_id":"cebpf4jnsgd1na2vs0mg"},{"bike_id":"4d0b1081-f67d-4ab4-aaa5-91ab11f1ee6d","system_id":"levelo_inurba_marseille","lat":43.28344,"lon":5.38099,"is_reserved":false,"is_disabled":false,"rental_uris":{"android":"levelo://app?vid=4d0b1081-f67d-4ab4-aaa5-91ab11f1ee6d","ios":"levelo://app?vid=4d0b1081-f67d-4ab4-aaa5-91ab11f1ee6d"},"vehicle_type_id":"4","last_reported":1729030125,"current_range_meters":38800,"station_id":"ce4bh412rcd13ifvqdr0","pricing_plan_id":"cebpf4jnsgd1na2vs0mg"},{"bike_id":"ab400425-760c-44ba-aaa3-e0960ca07f7c","system_id":"levelo_inurba_marseille","lat":43.30351,"lon":5.41875,"is_reserved":false,"is_disabled":false,"rental_uris":{"android":"levelo://app?vid=ab400425-760c-44ba-aaa3-e0960ca07f7c","ios":"levelo://app?vid=ab400425-760c-44ba-aaa3-e0960ca07f7c"},"vehicle_type_id":"4","last_reported":1729030125,"current_range_meters":38000,"station_id":"ce4bhop2rcd13ifvqh7g","pricing_plan_id":"cebpf4jnsgd1na2vs0mg"},{"bike_id":"9d0a8f78-029e-4443-87b4-4430d1f80208","system_id":"levelo_inurba_marseille","lat":43.31489,"lon":5.37294,"is_reserved":false,"is_disabled":false,"rental_uris":{"android":"levelo://app?vid=9d0a8f78-029e-4443-87b4-4430d1f80208","ios":"levelo://app?vid=9d0a8f78-029e-4443-87b4-4430d1f80208"},"vehicle_type_id":"4","last_reported":1729030125,"current_range_meters":14400,"station_id":"ce4bgt12rcd13ifvqcd0","pricing_plan_id":"cebpf4jnsgd1na2vs0mg"},{"bike_id":"36bd7680-edc0-410d-a703-0ec46770aeab","system_id":"levelo_inurba_marseille","lat":43.3074,"lon":5.38383,"is_reserved":false,"is_disabled":false,"rental_uris":{"android":"levelo://app?vid=36bd7680-edc0-410d-a703-0ec46770aeab","ios":"levelo://app?vid=36bd7680-edc0-410d-a703-0ec46770aeab"},"vehicle_type_id":"4","last_reported":1729030125,"current_range_meters":37600,"station_id":"","pricing_plan_id":"cebpf4jnsgd1na2vs0mg"},{"bike_id":"568ce9e5-db70-48c7-8491-aef68fc28c1b","system_id":"levelo_inurba_marseille","lat":43.27616,"lon":5.36105,"is_reserved":false,"is_disabled":false,"rental_uris":{"android":"levelo://app?vid=568ce9e5-db70-48c7-8491-aef68fc28c1b","ios":"levelo://app?vid=568ce9e5-db70-48c7-8491-aef68fc28c1b"},"vehicle_type_id":"4","last_reported":1729030125,"current_range_meters":38400,"station_id":"ce4bgj92rcd13ifvqbe0","pricing_plan_id":"cebpf4jnsgd1na2vs0mg"},{"bike_id":"5554a15a-3e77-4957-960a-9fd3bb5c6cef","system_id":"levelo_inurba_marseille","lat":43.31992,"lon":5.38146,"is_reserved":false,"is_disabled":false,"rental_uris":{"android":"levelo://app?vid=5554a15a-3e77-4957-960a-9fd3bb5c6cef","ios":"levelo://app?vid=5554a15a-3e77-4957-960a-9fd3bb5c6cef"},"vehicle_type_id":"4","last_reported":1729030125,"current_range_meters":33200,"station_id":"ce4bhr12rcd13ifvqhpg","pricing_plan_id":"cebpf4jnsgd1na2vs0mg"},{"bike_id":"2f093790-17f4-4fdc-988d-a2c63f58fc61","system_id":"levelo_inurba_marseille","lat":43.28427,"lon":5.34989,"is_reserved":false,"is_disabled":false,"rental_uris":{"android":"levelo://app?vid=2f093790-17f4-4fdc-988d-a2c63f58fc61","ios":"levelo://app?vid=2f093790-17f4-4fdc-988d-a2c63f58fc61"},"vehicle_type_id":"4","last_reported":1729030125,"current_range_meters":39200,"station_id":"ce4bhbh2rcd13ifvqepg","pricing_plan_id":"cebpf4jnsgd1na2vs0mg"},{"bike_id":"6ef5559b-4148-449b-8888-80cbc341fc1e","system_id":"levelo_inurba_marseille","lat":43.28472,"lon":5.38428,"is_reserved":false,"is_disabled":false,"rental_uris":{"android":"levelo://app?vid=6ef5559b-4148-449b-8888-80cbc341fc1e","ios":"levelo://app?vid=6ef5559b-4148-449b-8888-80cbc341fc1e"},"vehicle_type_id":"4","last_reported":1729030125,"current_range_meters":12400,"station_id":"ce4bh512rcd13ifvqe3g","pricing_plan_id":"cebpf4jnsgd1na2vs0mg"},{"bike_id":"e3326e25-5ffc-4823-b2f2-35a5725410f4","system_id":"levelo_inurba_marseille","lat":43.26199,"lon":5.37919,"is_reserved":false,"is_disabled":false,"rental_uris":{"android":"levelo://app?vid=e3326e25-5ffc-4823-b2f2-35a5725410f4","ios":"levelo://app?vid=e3326e25-5ffc-4823-b2f2-35a5725410f4"},"vehicle_type_id":"4","last_reported":1729030125,"current_range_meters":24000,"station_id":"ce4bhjp2rcd13ifvqg90","pricing_plan_id":"cebpf4jnsgd1na2vs0mg"},{"bike_id":"1c236658-de41-4bec-a45c-7c69171c8d8c","system_id":"levelo_inurba_marseille","lat":43.27319,"lon":5.39071,"is_reserved":false,"is_disabled":false,"rental_uris":{"android":"levelo://app?vid=1c236658-de41-4bec-a45c-7c69171c8d8c","ios":"levelo://app?vid=1c236658-de41-4bec-a45c-7c69171c8d8c"},"vehicle_type_id":"4","last_reported":1729030125,"current_range_meters":38000,"station_id":"ce4bhgp2rcd13ifvqfe0","pricing_plan_id":"cebpf4jnsgd1na2vs0mg"},{"bike_id":"61b661fe-85fb-427c-a32c-b9e78e89215d","system_id":"levelo_inurba_marseille","lat":43.28485,"lon":5.38423,"is_reserved":false,"is_disabled":false,"rental_uris":{"android":"levelo://app?vid=61b661fe-85fb-427c-a32c-b9e78e89215d","ios":"levelo://app?vid=61b661fe-85fb-427c-a32c-b9e78e89215d"},"vehicle_type_id":"4","last_reported":1729030125,"current_range_meters":38800,"station_id":"ce4bh512rcd13ifvqe3g","pricing_plan_id":"cebpf4jnsgd1na2vs0mg"},{"bike_id":"8feaa637-172b-453a-95bb-7a1810c0ac60","system_id":"levelo_inurba_marseille","lat":43.29022,"lon":5.38647,"is_reserved":false,"is_disabled":false,"rental_uris":{"android":"levelo://app?vid=8feaa637-172b-453a-95bb-7a1810c0ac60","ios":"levelo://app?vid=8feaa637-172b-453a-95bb-7a1810c0ac60"},"vehicle_type_id":"4","last_reported":1729030125,"current_range_meters":36400,"station_id":"ce4bh4p2rcd13ifvqe0g","pricing_plan_id":"cebpf4jnsgd1na2vs0mg"},{"bike_id":"5ce7e684-6080-4737-924f-bcde89aacdbc","system_id":"levelo_inurba_marseille","lat":43.33724,"lon":5.39182,"is_reserved":false,"is_disabled":false,"rental_uris":{"android":"levelo://app?vid=5ce7e684-6080-4737-924f-bcde89aacdbc","ios":"levelo://app?vid=5ce7e684-6080-4737-924f-bcde89aacdbc"},"vehicle_type_id":"4","last_reported":1729030125,"current_range_meters":38400,"station_id":"ce4bhr92rcd13ifvqhsg","pricing_plan_id":"cebpf4jnsgd1na2vs0mg"},{"bike_id":"2eb21c34-2201-4c7e-8964-700706d6f092","system_id":"levelo_inurba_marseille","lat":43.29282,"lon":5.40129,"is_reserved":false,"is_disabled":false,"rental_uris":{"android":"levelo://app?vid=2eb21c34-2201-4c7e-8964-700706d6f092","ios":"levelo://app?vid=2eb21c34-2201-4c7e-8964-700706d6f092"},"vehicle_type_id":"4","last_reported":1729030125,"current_range_meters":18000,"station_id":"ce4bh312rcd13ifvqdk0","pricing_plan_id":"cebpf4jnsgd1na2vs0mg"},{"bike_id":"8a56e0e6-f966-4459-b96f-170386ed8a7c","system_id":"levelo_inurba_marseille","lat":43.28696,"lon":5.37385,"is_reserved":false,"is_disabled":false,"rental_uris":{"android":"levelo://app?vid=8a56e0e6-f966-4459-b96f-170386ed8a7c","ios":"levelo://app?vid=8a56e0e6-f966-4459-b96f-170386ed8a7c"},"vehicle_type_id":"4","last_reported":1729030125,"current_range_meters":29600,"station_id":"ce4bh3p2rcd13ifvqdq0","pricing_plan_id":"cebpf4jnsgd1na2vs0mg"},{"bike_id":"c5f5cb1d-6115-4834-a655-3c011396eda6","system_id":"levelo_inurba_marseille","lat":43.23182,"lon":5.39976,"is_reserved":false,"is_disabled":false,"rental_uris":{"android":"levelo://app?vid=c5f5cb1d-6115-4834-a655-3c011396eda6","ios":"levelo://app?vid=c5f5cb1d-6115-4834-a655-3c011396eda6"},"vehicle_type_id":"4","last_reported":1729030125,"current_range_meters":24400,"station_id":"ce4bhn12rcd13ifvqgqg","pricing_plan_id":"cebpf4jnsgd1na2vs0mg"},{"bike_id":"1940278b-12b5-432a-b84d-6b8a75fa2fa2","system_id":"levelo_inurba_marseille","lat":43.28344,"lon":5.38104,"is_reserved":false,"is_disabled":false,"rental_uris":{"android":"levelo://app?vid=1940278b-12b5-432a-b84d-6b8a75fa2fa2","ios":"levelo://app?vid=1940278b-12b5-432a-b84d-6b8a75fa2fa2"},"vehicle_type_id":"4","last_reported":1729030125,"current_range_meters":38800,"station_id":"ce4bh412rcd13ifvqdr0","pricing_plan_id":"cebpf4jnsgd1na2vs0mg"},{"bike_id":"92205cba-a776-455b-b519-18ced88a912f","system_id":"levelo_inurba_marseille","lat":43.290533,"lon":5.359065,"is_reserved":false,"is_disabled":false,"rental_uris":{"android":"levelo://app?vid=92205cba-a776-455b-b519-18ced88a912f","ios":"levelo://app?vid=92205cba-a776-455b-b519-18ced88a912f"},"vehicle_type_id":"4","last_reported":1729030125,"current_range_meters":39200,"station_id":"ce4bha92rcd13ifvqeg0","pricing_plan_id":"cebpf4jnsgd1na2vs0mg"},{"bike_id":"4ead70cd-3c14-409b-af39-ca6bd7aeab16","system_id":"levelo_inurba_marseille","lat":43.29565,"lon":5.39966,"is_reserved":false,"is_disabled":false,"rental_uris":{"android":"levelo://app?vid=4ead70cd-3c14-409b-af39-ca6bd7aeab16","ios":"levelo://app?vid=4ead70cd-3c14-409b-af39-ca6bd7aeab16"},"vehicle_type_id":"4","last_reported":1729030125,"current_range_meters":38000,"station_id":"ce4bh312rcd13ifvqdj0","pricing_plan_id":"cebpf4jnsgd1na2vs0mg"},{"bike_id":"e1d58c43-4cbf-43b6-b30f-9ba3cf6d397e","system_id":"levelo_inurba_marseille","lat":43.27562,"lon":5.38412,"is_reserved":false,"is_disabled":false,"rental_uris":{"android":"levelo://app?vid=e1d58c43-4cbf-43b6-b30f-9ba3cf6d397e","ios":"levelo://app?vid=e1d58c43-4cbf-43b6-b30f-9ba3cf6d397e"},"vehicle_type_id":"4","last_reported":1729030125,"current_range_meters":36000,"station_id":"ce4bhh92rcd13ifvqfi0","pricing_plan_id":"cebpf4jnsgd1na2vs0mg"},{"bike_id":"c87ea7fc-8658-4fe5-9323-997ad23c2057","system_id":"levelo_inurba_marseille","lat":43.31164,"lon":5.38707,"is_reserved":false,"is_disabled":false,"rental_uris":{"android":"levelo://app?vid=c87ea7fc-8658-4fe5-9323-997ad23c2057","ios":"levelo://app?vid=c87ea7fc-8658-4fe5-9323-997ad23c2057"},"vehicle_type_id":"4","last_reported":1729030125,"current_range_meters":32400,"station_id":"ce4bgv12rcd13ifvqcp0","pricing_plan_id":"cebpf4jnsgd1na2vs0mg"},{"bike_id":"fd9677b4-cd69-4856-bbcf-3b6ab586726a","system_id":"levelo_inurba_marseille","lat":43.298043,"lon":5.37686,"is_reserved":false,"is_disabled":false,"rental_uris":{"android":"levelo://app?vid=fd9677b4-cd69-4856-bbcf-3b6ab586726a","ios":"levelo://app?vid=fd9677b4-cd69-4856-bbcf-3b6ab586726a"},"vehicle_type_id":"4","last_reported":1729030125,"current_range_meters":37600,"station_id":"","pricing_plan_id":"cebpf4jnsgd1na2vs0mg"},{"bike_id":"a303803f-aabf-4f43-95f1-5b32cb63b28c","system_id":"levelo_inurba_marseille","lat":43.32075,"lon":5.41541,"is_reserved":false,"is_disabled":false,"rental_uris":{"android":"levelo://app?vid=a303803f-aabf-4f43-95f1-5b32cb63b28c","ios":"levelo://app?vid=a303803f-aabf-4f43-95f1-5b32cb63b28c"},"vehicle_type_id":"4","last_reported":1729030125,"current_range_meters":35600,"station_id":"ce4bhq92rcd13ifvqhkg","pricing_plan_id":"cebpf4jnsgd1na2vs0mg"},{"bike_id":"a4e0ecf5-e792-4bd6-8132-6b62272b4e5d","system_id":"levelo_inurba_marseille","lat":43.31362,"lon":5.38491,"is_reserved":false,"is_disabled":false,"rental_uris":{"android":"levelo://app?vid=a4e0ecf5-e792-4bd6-8132-6b62272b4e5d","ios":"levelo://app?vid=a4e0ecf5-e792-4bd6-8132-6b62272b4e5d"},"vehicle_type_id":"4","last_reported":1729030125,"current_range_meters":38400,"station_id":"ce4bgt92rcd13ifvqcf0","pricing_plan_id":"cebpf4jnsgd1na2vs0mg"},{"bike_id":"a7ff9e42-e3e4-48e1-9d6a-70e06dd8acba","system_id":"levelo_inurba_marseille","lat":43.30428,"lon":5.39753,"is_reserved":false,"is_disabled":false,"rental_uris":{"android":"levelo://app?vid=a7ff9e42-e3e4-48e1-9d6a-70e06dd8acba","ios":"levelo://app?vid=a7ff9e42-e3e4-48e1-9d6a-70e06dd8acba"},"vehicle_type_id":"4","last_reported":1729030125,"current_range_meters":15200,"station_id":"ce4bh092rcd13ifvqd20","pricing_plan_id":"cebpf4jnsgd1na2vs0mg"},{"bike_id":"d6eb8cbc-ecfc-42ea-bb9b-e72d219e2333","system_id":"levelo_inurba_marseille","lat":43.31886,"lon":5.40723,"is_reserved":false,"is_disabled":false,"rental_uris":{"android":"levelo://app?vid=d6eb8cbc-ecfc-42ea-bb9b-e72d219e2333","ios":"levelo://app?vid=d6eb8cbc-ecfc-42ea-bb9b-e72d219e2333"},"vehicle_type_id":"4","last_reported":1729030125,"current_range_meters":28400,"station_id":"ce4bhq12rcd13ifvqhig","pricing_plan_id":"cebpf4jnsgd1na2vs0mg"},{"bike_id":"755a7622-70a2-4447-afe8-59317900f64c","system_id":"levelo_inurba_marseille","lat":43.28077,"lon":5.39648,"is_reserved":false,"is_disabled":false,"rental_uris":{"android":"levelo://app?vid=755a7622-70a2-4447-afe8-59317900f64c","ios":"levelo://app?vid=755a7622-70a2-4447-afe8-59317900f64c"},"vehicle_type_id":"4","last_reported":1729030125,"current_range_meters":27600,"station_id":"ce4bho12rcd13ifvqh2g","pricing_plan_id":"cebpf4jnsgd1na2vs0mg"},{"bike_id":"17eddf16-8fe7-49e7-9f43-aca3b8920a2e","system_id":"levelo_inurba_marseille","lat":43.3054,"lon":5.38431,"is_reserved":false,"is_disabled":false,"rental_uris":{"android":"levelo://app?vid=17eddf16-8fe7-49e7-9f43-aca3b8920a2e","ios":"levelo://app?vid=17eddf16-8fe7-49e7-9f43-aca3b8920a2e"},"vehicle_type_id":"4","last_reported":1729030125,"current_range_meters":12800,"station_id":"ce4bgg92rcd13ifvqb30","pricing_plan_id":"cebpf4jnsgd1na2vs0mg"},{"bike_id":"4e34f7a0-0183-4595-8abc-2eec977fe7a0","system_id":"levelo_inurba_marseille","lat":43.30952,"lon":5.39026,"is_reserved":false,"is_disabled":false,"rental_uris":{"android":"levelo://app?vid=4e34f7a0-0183-4595-8abc-2eec977fe7a0","ios":"levelo://app?vid=4e34f7a0-0183-4595-8abc-2eec977fe7a0"},"vehicle_type_id":"4","last_reported":1729030125,"current_range_meters":38800,"station_id":"ce4bgup2rcd13ifvqco0","pricing_plan_id":"cebpf4jnsgd1na2vs0mg"},{"bike_id":"4b91305b-5e4c-4504-90f1-18f7dd0c1fdd","system_id":"levelo_inurba_marseille","lat":43.23959,"lon":5.36615,"is_reserved":false,"is_disabled":false,"rental_uris":{"android":"levelo://app?vid=4b91305b-5e4c-4504-90f1-18f7dd0c1fdd","ios":"levelo://app?vid=4b91305b-5e4c-4504-90f1-18f7dd0c1fdd"},"vehicle_type_id":"4","last_reported":1729030125,"current_range_meters":11200,"station_id":"ce4bhi12rcd13ifvqfp0","pricing_plan_id":"cebpf4jnsgd1na2vs0mg"},{"bike_id":"024af8a9-895b-4c18-bfa1-97a4721540d4","system_id":"levelo_inurba_marseille","lat":43.28729,"lon":5.36074,"is_reserved":false,"is_disabled":false,"rental_uris":{"android":"levelo://app?vid=024af8a9-895b-4c18-bfa1-97a4721540d4","ios":"levelo://app?vid=024af8a9-895b-4c18-bfa1-97a4721540d4"},"vehicle_type_id":"4","last_reported":1729030125,"current_range_meters":17200,"station_id":"cki0cbj6b192h4jlfktg","pricing_plan_id":"cebpf4jnsgd1na2vs0mg"},{"bike_id":"b7b45f76-2766-4920-9541-dd0bb8320dd4","system_id":"levelo_inurba_marseille","lat":43.28852,"lon":5.35848,"is_reserved":false,"is_disabled":false,"rental_uris":{"android":"levelo://app?vid=b7b45f76-2766-4920-9541-dd0bb8320dd4","ios":"levelo://app?vid=b7b45f76-2766-4920-9541-dd0bb8320dd4"},"vehicle_type_id":"4","last_reported":1729030125,"current_range_meters":35200,"station_id":"ce4bhb12rcd13ifvqem0","pricing_plan_id":"cebpf4jnsgd1na2vs0mg"},{"bike_id":"6e7afd62-d736-4ed9-9248-f4f82a390064","system_id":"levelo_inurba_marseille","lat":43.336,"lon":5.41023,"is_reserved":false,"is_disabled":false,"rental_uris":{"android":"levelo://app?vid=6e7afd62-d736-4ed9-9248-f4f82a390064","ios":"levelo://app?vid=6e7afd62-d736-4ed9-9248-f4f82a390064"},"vehicle_type_id":"4","last_reported":1729030125,"current_range_meters":23200,"station_id":"ce4bhqh2rcd13ifvqhmg","pricing_plan_id":"cebpf4jnsgd1na2vs0mg"},{"bike_id":"73ef751c-1663-4138-9d82-e4aec617a886","system_id":"levelo_inurba_marseille","lat":43.23192,"lon":5.35543,"is_reserved":false,"is_disabled":false,"rental_uris":{"android":"levelo://app?vid=73ef751c-1663-4138-9d82-e4aec617a886","ios":"levelo://app?vid=73ef751c-1663-4138-9d82-e4aec617a886"},"vehicle_type_id":"4","last_reported":1729030125,"current_range_meters":38800,"station_id":"ce4bhu92rcd13ifvqi70","pricing_plan_id":"cebpf4jnsgd1na2vs0mg"},{"bike_id":"7669c1d8-f817-4081-9451-d5cb6b66a970","system_id":"levelo_inurba_marseille","lat":43.30939,"lon":5.37272,"is_reserved":false,"is_disabled":false,"rental_uris":{"android":"levelo://app?vid=7669c1d8-f817-4081-9451-d5cb6b66a970","ios":"levelo://app?vid=7669c1d8-f817-4081-9451-d5cb6b66a970"},"vehicle_type_id":"4","last_reported":1729030125,"current_range_meters":38800,"station_id":"","pricing_plan_id":"cebpf4jnsgd1na2vs0mg"},{"bike_id":"5f866cdd-5cee-442e-81d2-26f78a203ab9","system_id":"levelo_inurba_marseille","lat":43.31988,"lon":5.38141,"is_reserved":false,"is_disabled":false,"rental_uris":{"android":"levelo://app?vid=5f866cdd-5cee-442e-81d2-26f78a203ab9","ios":"levelo://app?vid=5f866cdd-5cee-442e-81d2-26f78a203ab9"},"vehicle_type_id":"4","last_reported":1729030125,"current_range_meters":30000,"station_id":"ce4bhr12rcd13ifvqhpg","pricing_plan_id":"cebpf4jnsgd1na2vs0mg"},{"bike_id":"c58611c9-5610-40ca-9dff-13b158d6d313","system_id":"levelo_inurba_marseille","lat":43.31699,"lon":5.37737,"is_reserved":false,"is_disabled":false,"rental_uris":{"android":"levelo://app?vid=c58611c9-5610-40ca-9dff-13b158d6d313","ios":"levelo://app?vid=c58611c9-5610-40ca-9dff-13b158d6d313"},"vehicle_type_id":"4","last_reported":1729030125,"current_range_meters":28400,"station_id":"ce4bgth2rcd13ifvqch0","pricing_plan_id":"cebpf4jnsgd1na2vs0mg"},{"bike_id":"eb646d5e-71f3-41a5-8f49-b168b4fba9d8","system_id":"levelo_inurba_marseille","lat":43.27816,"lon":5.40717,"is_reserved":false,"is_disabled":false,"rental_uris":{"android":"levelo://app?vid=eb646d5e-71f3-41a5-8f49-b168b4fba9d8","ios":"levelo://app?vid=eb646d5e-71f3-41a5-8f49-b168b4fba9d8"},"vehicle_type_id":"4","last_reported":1729030125,"current_range_meters":15200,"station_id":"ce4bhnh2rcd13ifvqgtg","pricing_plan_id":"cebpf4jnsgd1na2vs0mg"},{"bike_id":"9ffd4a2e-3ad6-4e77-ae33-71adde6d2802","system_id":"levelo_inurba_marseille","lat":43.24072,"lon":5.37766,"is_reserved":false,"is_disabled":false,"rental_uris":{"android":"levelo://app?vid=9ffd4a2e-3ad6-4e77-ae33-71adde6d2802","ios":"levelo://app?vid=9ffd4a2e-3ad6-4e77-ae33-71adde6d2802"},"vehicle_type_id":"4","last_reported":1729030125,"current_range_meters":4800,"station_id":"ce4bhnp2rcd13ifvqgvg","pricing_plan_id":"cebpf4jnsgd1na2vs0mg"},{"bike_id":"71481030-be7c-45ef-aec0-5d27a155d482","system_id":"levelo_inurba_marseille","lat":43.31708,"lon":5.37767,"is_reserved":false,"is_disabled":false,"rental_uris":{"android":"levelo://app?vid=71481030-be7c-45ef-aec0-5d27a155d482","ios":"levelo://app?vid=71481030-be7c-45ef-aec0-5d27a155d482"},"vehicle_type_id":"4","last_reported":1729030125,"current_range_meters":30000,"station_id":"ce4bgth2rcd13ifvqch0","pricing_plan_id":"cebpf4jnsgd1na2vs0mg"},{"bike_id":"ded83da2-ac47-4af4-99a1-215e896c1d92","system_id":"levelo_inurba_marseille","lat":43.28269,"lon":5.35072,"is_reserved":false,"is_disabled":false,"rental_uris":{"android":"levelo://app?vid=ded83da2-ac47-4af4-99a1-215e896c1d92","ios":"levelo://app?vid=ded83da2-ac47-4af4-99a1-215e896c1d92"},"vehicle_type_id":"4","last_reported":1729030125,"current_range_meters":38800,"station_id":"ce4bhbp2rcd13ifvqerg","pricing_plan_id":"cebpf4jnsgd1na2vs0mg"},{"bike_id":"36e636bd-0fd2-48f1-a8d4-289332b27237","system_id":"levelo_inurba_marseille","lat":43.31272,"lon":5.40163,"is_reserved":false,"is_disabled":false,"rental_uris":{"android":"levelo://app?vid=36e636bd-0fd2-48f1-a8d4-289332b27237","ios":"levelo://app?vid=36e636bd-0fd2-48f1-a8d4-289332b27237"},"vehicle_type_id":"4","last_reported":1729030125,"current_range_meters":2800,"station_id":"ce4bh092rcd13ifvqd30","pricing_plan_id":"cebpf4jnsgd1na2vs0mg"},{"bike_id":"9fb1f507-612b-4b5e-985f-2d0e79b5a5a6","system_id":"levelo_inurba_marseille","lat":43.30312,"lon":5.36888,"is_reserved":false,"is_disabled":false,"rental_uris":{"android":"levelo://app?vid=9fb1f507-612b-4b5e-985f-2d0e79b5a5a6","ios":"levelo://app?vid=9fb1f507-612b-4b5e-985f-2d0e79b5a5a6"},"vehicle_type_id":"4","last_reported":1729030125,"current_range_meters":10800,"station_id":"ce4bgqh2rcd13ifvqc5g","pricing_plan_id":"cebpf4jnsgd1na2vs0mg"},{"bike_id":"2df66286-b32f-4d1e-99f6-34c819e8c705","system_id":"levelo_inurba_marseille","lat":43.32361,"lon":5.38876,"is_reserved":false,"is_disabled":false,"rental_uris":{"android":"levelo://app?vid=2df66286-b32f-4d1e-99f6-34c819e8c705","ios":"levelo://app?vid=2df66286-b32f-4d1e-99f6-34c819e8c705"},"vehicle_type_id":"4","last_reported":1729030125,"current_range_meters":38800,"station_id":"ce4bhqp2rcd13ifvqhog","pricing_plan_id":"cebpf4jnsgd1na2vs0mg"},{"bike_id":"fa7bbdc9-afbe-404d-8676-647037cc76a9","system_id":"levelo_inurba_marseille","lat":43.23189,"lon":5.35541,"is_reserved":false,"is_disabled":false,"rental_uris":{"android":"levelo://app?vid=fa7bbdc9-afbe-404d-8676-647037cc76a9","ios":"levelo://app?vid=fa7bbdc9-afbe-404d-8676-647037cc76a9"},"vehicle_type_id":"4","last_reported":1729030125,"current_range_meters":38800,"station_id":"ce4bhu92rcd13ifvqi70","pricing_plan_id":"cebpf4jnsgd1na2vs0mg"},{"bike_id":"6226a3cc-3cfd-40e6-ac49-747b76fcc877","system_id":"levelo_inurba_marseille","lat":43.3236,"lon":5.38873,"is_reserved":false,"is_disabled":false,"rental_uris":{"android":"levelo://app?vid=6226a3cc-3cfd-40e6-ac49-747b76fcc877","ios":"levelo://app?vid=6226a3cc-3cfd-40e6-ac49-747b76fcc877"},"vehicle_type_id":"4","last_reported":1729030125,"current_range_meters":28800,"station_id":"ce4bhqp2rcd13ifvqhog","pricing_plan_id":"cebpf4jnsgd1na2vs0mg"},{"bike_id":"d2440947-8f6b-40bd-a810-5423b90ba87b","system_id":"levelo_inurba_marseille","lat":43.28109,"lon":5.37836,"is_reserved":false,"is_disabled":false,"rental_uris":{"android":"levelo://app?vid=d2440947-8f6b-40bd-a810-5423b90ba87b","ios":"levelo://app?vid=d2440947-8f6b-40bd-a810-5423b90ba87b"},"vehicle_type_id":"4","last_reported":1729030125,"current_range_meters":25600,"station_id":"ce4bha12rcd13ifvqee0","pricing_plan_id":"cebpf4jnsgd1na2vs0mg"},{"bike_id":"74b5d578-63f5-4236-b615-018ecd3609c1","system_id":"levelo_inurba_marseille","lat":43.30417,"lon":5.4128,"is_reserved":false,"is_disabled":false,"rental_uris":{"android":"levelo://app?vid=74b5d578-63f5-4236-b615-018ecd3609c1","ios":"levelo://app?vid=74b5d578-63f5-4236-b615-018ecd3609c1"},"vehicle_type_id":"4","last_reported":1729030125,"current_range_meters":33200,"station_id":"ce4bhop2rcd13ifvqh8g","pricing_plan_id":"cebpf4jnsgd1na2vs0mg"},{"bike_id":"e439f200-513f-4baf-a94e-9c58b6122e2f","system_id":"levelo_inurba_marseille","lat":43.27813,"lon":5.40711,"is_reserved":false,"is_disabled":false,"rental_uris":{"android":"levelo://app?vid=e439f200-513f-4baf-a94e-9c58b6122e2f","ios":"levelo://app?vid=e439f200-513f-4baf-a94e-9c58b6122e2f"},"vehicle_type_id":"4","last_reported":1729030125,"current_range_meters":39200,"station_id":"ce4bhnh2rcd13ifvqgtg","pricing_plan_id":"cebpf4jnsgd1na2vs0mg"},{"bike_id":"62c69491-a263-4782-8c41-06dc1e539132","system_id":"levelo_inurba_marseille","lat":43.31073,"lon":5.38356,"is_reserved":false,"is_disabled":false,"rental_uris":{"android":"levelo://app?vid=62c69491-a263-4782-8c41-06dc1e539132","ios":"levelo://app?vid=62c69491-a263-4782-8c41-06dc1e539132"},"vehicle_type_id":"4","last_reported":1729030125,"current_range_meters":16800,"station_id":"ce4bgv92rcd13ifvqcr0","pricing_plan_id":"cebpf4jnsgd1na2vs0mg"},{"bike_id":"afebca69-d99e-4e16-b749-e29d048e40ad","system_id":"levelo_inurba_marseille","lat":43.31264,"lon":5.40165,"is_reserved":false,"is_disabled":false,"rental_uris":{"android":"levelo://app?vid=afebca69-d99e-4e16-b749-e29d048e40ad","ios":"levelo://app?vid=afebca69-d99e-4e16-b749-e29d048e40ad"},"vehicle_type_id":"4","last_reported":1729030125,"current_range_meters":39200,"station_id":"ce4bh092rcd13ifvqd30","pricing_plan_id":"cebpf4jnsgd1na2vs0mg"},{"bike_id":"694d89bd-bac3-4c55-9600-80fe90f45ec4","system_id":"levelo_inurba_marseille","lat":43.33608,"lon":5.41018,"is_reserved":false,"is_disabled":false,"rental_uris":{"android":"levelo://app?vid=694d89bd-bac3-4c55-9600-80fe90f45ec4","ios":"levelo://app?vid=694d89bd-bac3-4c55-9600-80fe90f45ec4"},"vehicle_type_id":"4","last_reported":1729030125,"current_range_meters":30400,"station_id":"ce4bhqh2rcd13ifvqhmg","pricing_plan_id":"cebpf4jnsgd1na2vs0mg"},{"bike_id":"be3717e7-61b1-41a0-b1ad-41c04fa8efbf","system_id":"levelo_inurba_marseille","lat":43.29277,"lon":5.40134,"is_reserved":false,"is_disabled":false,"rental_uris":{"android":"levelo://app?vid=be3717e7-61b1-41a0-b1ad-41c04fa8efbf","ios":"levelo://app?vid=be3717e7-61b1-41a0-b1ad-41c04fa8efbf"},"vehicle_type_id":"4","last_reported":1729030125,"current_range_meters":36800,"station_id":"ce4bh312rcd13ifvqdk0","pricing_plan_id":"cebpf4jnsgd1na2vs0mg"},{"bike_id":"5bee4394-3c6f-4e0b-ae7f-af2244610f6e","system_id":"levelo_inurba_marseille","lat":43.31993,"lon":5.38149,"is_reserved":false,"is_disabled":false,"rental_uris":{"android":"levelo://app?vid=5bee4394-3c6f-4e0b-ae7f-af2244610f6e","ios":"levelo://app?vid=5bee4394-3c6f-4e0b-ae7f-af2244610f6e"},"vehicle_type_id":"4","last_reported":1729030125,"current_range_meters":31200,"station_id":"ce4bhr12rcd13ifvqhpg","pricing_plan_id":"cebpf4jnsgd1na2vs0mg"},{"bike_id":"c0670d96-b06e-446b-a07e-6b5eeebc59d7","system_id":"levelo_inurba_marseille","lat":43.274948,"lon":5.424466,"is_reserved":false,"is_disabled":false,"rental_uris":{"android":"levelo://app?vid=c0670d96-b06e-446b-a07e-6b5eeebc59d7","ios":"levelo://app?vid=c0670d96-b06e-446b-a07e-6b5eeebc59d7"},"vehicle_type_id":"4","last_reported":1729030125,"current_range_meters":10800,"station_id":"ce4bhn92rcd13ifvqgrg","pricing_plan_id":"cebpf4jnsgd1na2vs0mg"},{"bike_id":"f3c1853e-8b8e-47e4-8746-d00e45b18cdc","system_id":"levelo_inurba_marseille","lat":43.32478,"lon":5.3657,"is_reserved":false,"is_disabled":false,"rental_uris":{"android":"levelo://app?vid=f3c1853e-8b8e-47e4-8746-d00e45b18cdc","ios":"levelo://app?vid=f3c1853e-8b8e-47e4-8746-d00e45b18cdc"},"vehicle_type_id":"4","last_reported":1729030125,"current_range_meters":14000,"station_id":"ce4bhs12rcd13ifvqhvg","pricing_plan_id":"cebpf4jnsgd1na2vs0mg"},{"bike_id":"2a8affe0-228c-4605-a685-843108b49f79","system_id":"levelo_inurba_marseille","lat":43.31256,"lon":5.36864,"is_reserved":false,"is_disabled":false,"rental_uris":{"android":"levelo://app?vid=2a8affe0-228c-4605-a685-843108b49f79","ios":"levelo://app?vid=2a8affe0-228c-4605-a685-843108b49f79"},"vehicle_type_id":"4","last_reported":1729030125,"current_range_meters":37600,"station_id":"ce4bgl92rcd13ifvqbq0","pricing_plan_id":"cebpf4jnsgd1na2vs0mg"},{"bike_id":"a0d3d324-fa7e-4417-aee7-85012ecab44e","system_id":"levelo_inurba_marseille","lat":43.34184,"lon":5.44501,"is_reserved":false,"is_disabled":false,"rental_uris":{"android":"levelo://app?vid=a0d3d324-fa7e-4417-aee7-85012ecab44e","ios":"levelo://app?vid=a0d3d324-fa7e-4417-aee7-85012ecab44e"},"vehicle_type_id":"4","last_reported":1729030125,"current_range_meters":22400,"station_id":"","pricing_plan_id":"cebpf4jnsgd1na2vs0mg"},{"bike_id":"4468d376-e0df-4383-9961-4e841773cedf","system_id":"levelo_inurba_marseille","lat":43.27837,"lon":5.39211,"is_reserved":false,"is_disabled":false,"rental_uris":{"android":"levelo://app?vid=4468d376-e0df-4383-9961-4e841773cedf","ios":"levelo://app?vid=4468d376-e0df-4383-9961-4e841773cedf"},"vehicle_type_id":"4","last_reported":1729030125,"current_range_meters":10800,"station_id":"ce4bhjp2rcd13ifvqga0","pricing_plan_id":"cebpf4jnsgd1na2vs0mg"},{"bike_id":"320d6315-f515-4f15-ab19-89e2f03c7afc","system_id":"levelo_inurba_marseille","lat":43.284417,"lon":5.392037,"is_reserved":false,"is_disabled":false,"rental_uris":{"android":"levelo://app?vid=320d6315-f515-4f15-ab19-89e2f03c7afc","ios":"levelo://app?vid=320d6315-f515-4f15-ab19-89e2f03c7afc"},"vehicle_type_id":"4","last_reported":1729030125,"current_range_meters":28000,"station_id":"ce4bgjh2rcd13ifvqbf0","pricing_plan_id":"cebpf4jnsgd1na2vs0mg"},{"bike_id":"1dfcc51b-3ade-41cf-8d98-a84cc672bf59","system_id":"levelo_inurba_marseille","lat":43.30358,"lon":5.41883,"is_reserved":false,"is_disabled":false,"rental_uris":{"android":"levelo://app?vid=1dfcc51b-3ade-41cf-8d98-a84cc672bf59","ios":"levelo://app?vid=1dfcc51b-3ade-41cf-8d98-a84cc672bf59"},"vehicle_type_id":"4","last_reported":1729030125,"current_range_meters":17200,"station_id":"ce4bhop2rcd13ifvqh7g","pricing_plan_id":"cebpf4jnsgd1na2vs0mg"},{"bike_id":"304a2d48-cecb-41b4-9d5c-49528f04f880","system_id":"levelo_inurba_marseille","lat":43.32052,"lon":5.41542,"is_reserved":false,"is_disabled":false,"rental_uris":{"android":"levelo://app?vid=304a2d48-cecb-41b4-9d5c-49528f04f880","ios":"levelo://app?vid=304a2d48-cecb-41b4-9d5c-49528f04f880"},"vehicle_type_id":"4","last_reported":1729030125,"current_range_meters":38000,"station_id":"ce4bhq92rcd13ifvqhkg","pricing_plan_id":"cebpf4jnsgd1na2vs0mg"},{"bike_id":"0994d7f0-fa2e-480f-b967-2b1e1b476b78","system_id":"levelo_inurba_marseille","lat":43.23196,"lon":5.35543,"is_reserved":false,"is_disabled":false,"rental_uris":{"android":"levelo://app?vid=0994d7f0-fa2e-480f-b967-2b1e1b476b78","ios":"levelo://app?vid=0994d7f0-fa2e-480f-b967-2b1e1b476b78"},"vehicle_type_id":"4","last_reported":1729030125,"current_range_meters":24800,"station_id":"ce4bhu92rcd13ifvqi70","pricing_plan_id":"cebpf4jnsgd1na2vs0mg"},{"bike_id":"63c47bc5-f167-4a5a-a9c2-0376516d4eba","system_id":"levelo_inurba_marseille","lat":43.27904,"lon":5.38001,"is_reserved":false,"is_disabled":false,"rental_uris":{"android":"levelo://app?vid=63c47bc5-f167-4a5a-a9c2-0376516d4eba","ios":"levelo://app?vid=63c47bc5-f167-4a5a-a9c2-0376516d4eba"},"vehicle_type_id":"4","last_reported":1729030125,"current_range_meters":33200,"station_id":"ce4bhf92rcd13ifvqf50","pricing_plan_id":"cebpf4jnsgd1na2vs0mg"},{"bike_id":"4d423de8-5e22-441a-8848-ae5dc9d8eb39","system_id":"levelo_inurba_marseille","lat":43.33726,"lon":5.37455,"is_reserved":false,"is_disabled":false,"rental_uris":{"android":"levelo://app?vid=4d423de8-5e22-441a-8848-ae5dc9d8eb39","ios":"levelo://app?vid=4d423de8-5e22-441a-8848-ae5dc9d8eb39"},"vehicle_type_id":"4","last_reported":1729030125,"current_range_meters":8400,"station_id":"","pricing_plan_id":"cebpf4jnsgd1na2vs0mg"},{"bike_id":"580b1654-640b-4597-a067-3464faced946","system_id":"levelo_inurba_marseille","lat":43.31172,"lon":5.38711,"is_reserved":false,"is_disabled":false,"rental_uris":{"android":"levelo://app?vid=580b1654-640b-4597-a067-3464faced946","ios":"levelo://app?vid=580b1654-640b-4597-a067-3464faced946"},"vehicle_type_id":"4","last_reported":1729030125,"current_range_meters":38800,"station_id":"ce4bgv12rcd13ifvqcp0","pricing_plan_id":"cebpf4jnsgd1na2vs0mg"},{"bike_id":"66ccc46d-618e-4760-b09c-27382152bdab","system_id":"levelo_inurba_marseille","lat":43.232,"lon":5.35539,"is_reserved":false,"is_disabled":false,"rental_uris":{"android":"levelo://app?vid=66ccc46d-618e-4760-b09c-27382152bdab","ios":"levelo://app?vid=66ccc46d-618e-4760-b09c-27382152bdab"},"vehicle_type_id":"4","last_reported":1729030125,"current_range_meters":38800,"station_id":"ce4bhu92rcd13ifvqi70","pricing_plan_id":"cebpf4jnsgd1na2vs0mg"},{"bike_id":"e37fdd7e-9a7c-456d-9f9f-4bb1a00ecd06","system_id":"levelo_inurba_marseille","lat":43.26805,"lon":5.40271,"is_reserved":false,"is_disabled":false,"rental_uris":{"android":"levelo://app?vid=e37fdd7e-9a7c-456d-9f9f-4bb1a00ecd06","ios":"levelo://app?vid=e37fdd7e-9a7c-456d-9f9f-4bb1a00ecd06"},"vehicle_type_id":"4","last_reported":1729030125,"current_range_meters":38800,"station_id":"ce501612rcd8frsf0b60","pricing_plan_id":"cebpf4jnsgd1na2vs0mg"},{"bike_id":"b0f9f7f4-4a20-4cef-b6b9-110ee8ec950f","system_id":"levelo_inurba_marseille","lat":43.27969,"lon":5.38759,"is_reserved":false,"is_disabled":false,"rental_uris":{"android":"levelo://app?vid=b0f9f7f4-4a20-4cef-b6b9-110ee8ec950f","ios":"levelo://app?vid=b0f9f7f4-4a20-4cef-b6b9-110ee8ec950f"},"vehicle_type_id":"4","last_reported":1729030125,"current_range_meters":36000,"station_id":"ce4bhg12rcd13ifvqf80","pricing_plan_id":"cebpf4jnsgd1na2vs0mg"},{"bike_id":"e8baf4e3-5379-406d-9681-e6b3e328e1bd","system_id":"levelo_inurba_marseille","lat":43.30875,"lon":5.39635,"is_reserved":false,"is_disabled":false,"rental_uris":{"android":"levelo://app?vid=e8baf4e3-5379-406d-9681-e6b3e328e1bd","ios":"levelo://app?vid=e8baf4e3-5379-406d-9681-e6b3e328e1bd"},"vehicle_type_id":"4","last_reported":1729030125,"current_range_meters":39200,"station_id":"ce4bh012rcd13ifvqcv0","pricing_plan_id":"cebpf4jnsgd1na2vs0mg"},{"bike_id":"433f6513-bfc9-4015-8583-49fa8b9c7c86","system_id":"levelo_inurba_marseille","lat":43.26556,"lon":5.37285,"is_reserved":false,"is_disabled":false,"rental_uris":{"android":"levelo://app?vid=433f6513-bfc9-4015-8583-49fa8b9c7c86","ios":"levelo://app?vid=433f6513-bfc9-4015-8583-49fa8b9c7c86"},"vehicle_type_id":"4","last_reported":1729030125,"current_range_meters":30000,"station_id":"ce4bhg12rcd13ifvqf70","pricing_plan_id":"cebpf4jnsgd1na2vs0mg"},{"bike_id":"70a5b8c1-dbd9-45e4-ab48-8454c02b0822","system_id":"levelo_inurba_marseille","lat":43.29598,"lon":5.38095,"is_reserved":false,"is_disabled":false,"rental_uris":{"android":"levelo://app?vid=70a5b8c1-dbd9-45e4-ab48-8454c02b0822","ios":"levelo://app?vid=70a5b8c1-dbd9-45e4-ab48-8454c02b0822"},"vehicle_type_id":"4","last_reported":1729030125,"current_range_meters":38800,"station_id":"ce4bgl12rcd13ifvqbo0","pricing_plan_id":"cebpf4jnsgd1na2vs0mg"},{"bike_id":"8e08741b-2c89-4b9b-a445-450ad67c8860","system_id":"levelo_inurba_marseille","lat":43.30884,"lon":5.39646,"is_reserved":false,"is_disabled":false,"rental_uris":{"android":"levelo://app?vid=8e08741b-2c89-4b9b-a445-450ad67c8860","ios":"levelo://app?vid=8e08741b-2c89-4b9b-a445-450ad67c8860"},"vehicle_type_id":"4","last_reported":1729030125,"current_range_meters":34800,"station_id":"ce4bh012rcd13ifvqcv0","pricing_plan_id":"cebpf4jnsgd1na2vs0mg"},{"bike_id":"0e960bdf-86ad-4785-82f5-793ed149092d","system_id":"levelo_inurba_marseille","lat":43.28486,"lon":5.38426,"is_reserved":false,"is_disabled":false,"rental_uris":{"android":"levelo://app?vid=0e960bdf-86ad-4785-82f5-793ed149092d","ios":"levelo://app?vid=0e960bdf-86ad-4785-82f5-793ed149092d"},"vehicle_type_id":"4","last_reported":1729030125,"current_range_meters":38800,"station_id":"ce4bh512rcd13ifvqe3g","pricing_plan_id":"cebpf4jnsgd1na2vs0mg"},{"bike_id":"f0c42c0c-3c13-4116-a992-63984828a8d3","system_id":"levelo_inurba_marseille","lat":43.309008,"lon":5.396497,"is_reserved":false,"is_disabled":false,"rental_uris":{"android":"levelo://app?vid=f0c42c0c-3c13-4116-a992-63984828a8d3","ios":"levelo://app?vid=f0c42c0c-3c13-4116-a992-63984828a8d3"},"vehicle_type_id":"4","last_reported":1729030125,"current_range_meters":38800,"station_id":"ce4bh012rcd13ifvqcv0","pricing_plan_id":"cebpf4jnsgd1na2vs0mg"},{"bike_id":"57c2ae1c-702d-46ee-91c0-e13b2835bfc2","system_id":"levelo_inurba_marseille","lat":43.31163,"lon":5.38707,"is_reserved":false,"is_disabled":false,"rental_uris":{"android":"levelo://app?vid=57c2ae1c-702d-46ee-91c0-e13b2835bfc2","ios":"levelo://app?vid=57c2ae1c-702d-46ee-91c0-e13b2835bfc2"},"vehicle_type_id":"4","last_reported":1729030125,"current_range_meters":22800,"station_id":"ce4bgv12rcd13ifvqcp0","pricing_plan_id":"cebpf4jnsgd1na2vs0mg"},{"bike_id":"6300df2c-b9fe-4275-916d-dd75e59140c9","system_id":"levelo_inurba_marseille","lat":43.23192,"lon":5.35542,"is_reserved":false,"is_disabled":false,"rental_uris":{"android":"levelo://app?vid=6300df2c-b9fe-4275-916d-dd75e59140c9","ios":"levelo://app?vid=6300df2c-b9fe-4275-916d-dd75e59140c9"},"vehicle_type_id":"4","last_reported":1729030125,"current_range_meters":38800,"station_id":"ce4bhu92rcd13ifvqi70","pricing_plan_id":"cebpf4jnsgd1na2vs0mg"},{"bike_id":"375e74d6-344e-47f1-a12d-7c0762da3195","system_id":"levelo_inurba_marseille","lat":43.31109,"lon":5.37754,"is_reserved":false,"is_disabled":false,"rental_uris":{"android":"levelo://app?vid=375e74d6-344e-47f1-a12d-7c0762da3195","ios":"levelo://app?vid=375e74d6-344e-47f1-a12d-7c0762da3195"},"vehicle_type_id":"4","last_reported":1729030125,"current_range_meters":20800,"station_id":"ce4bgt92rcd13ifvqcg0","pricing_plan_id":"cebpf4jnsgd1na2vs0mg"},{"bike_id":"1514a7f4-e548-4f4f-ac2d-3c752abb45a9","system_id":"levelo_inurba_marseille","lat":43.31492,"lon":5.37291,"is_reserved":false,"is_disabled":false,"rental_uris":{"android":"levelo://app?vid=1514a7f4-e548-4f4f-ac2d-3c752abb45a9","ios":"levelo://app?vid=1514a7f4-e548-4f4f-ac2d-3c752abb45a9"},"vehicle_type_id":"4","last_reported":1729030125,"current_range_meters":39200,"station_id":"ce4bgt12rcd13ifvqcd0","pricing_plan_id":"cebpf4jnsgd1na2vs0mg"},{"bike_id":"f9bd20aa-623e-4ff4-975c-7d4cfab24d90","system_id":"levelo_inurba_marseille","lat":43.23182,"lon":5.39995,"is_reserved":false,"is_disabled":false,"rental_uris":{"android":"levelo://app?vid=f9bd20aa-623e-4ff4-975c-7d4cfab24d90","ios":"levelo://app?vid=f9bd20aa-623e-4ff4-975c-7d4cfab24d90"},"vehicle_type_id":"4","last_reported":1729030125,"current_range_meters":28000,"station_id":"ce4bhn12rcd13ifvqgqg","pricing_plan_id":"cebpf4jnsgd1na2vs0mg"},{"bike_id":"ead5edcf-cf42-440b-9ad1-fb158fecb6b8","system_id":"levelo_inurba_marseille","lat":43.28003,"lon":5.40012,"is_reserved":false,"is_disabled":false,"rental_uris":{"android":"levelo://app?vid=ead5edcf-cf42-440b-9ad1-fb158fecb6b8","ios":"levelo://app?vid=ead5edcf-cf42-440b-9ad1-fb158fecb6b8"},"vehicle_type_id":"4","last_reported":1729030125,"current_range_meters":14400,"station_id":"ce4bho92rcd13ifvqh4g","pricing_plan_id":"cebpf4jnsgd1na2vs0mg"},{"bike_id":"b610e656-6a01-4577-a7ec-ec48eef3ef80","system_id":"levelo_inurba_marseille","lat":43.30651,"lon":5.40089,"is_reserved":false,"is_disabled":false,"rental_uris":{"android":"levelo://app?vid=b610e656-6a01-4577-a7ec-ec48eef3ef80","ios":"levelo://app?vid=b610e656-6a01-4577-a7ec-ec48eef3ef80"},"vehicle_type_id":"4","last_reported":1729030125,"current_range_meters":8800,"station_id":"ce4bh112rcd13ifvqda0","pricing_plan_id":"cebpf4jnsgd1na2vs0mg"},{"bike_id":"3497e993-2df3-4c96-b915-96335762aa97","system_id":"levelo_inurba_marseille","lat":43.31499,"lon":5.37311,"is_reserved":false,"is_disabled":false,"rental_uris":{"android":"levelo://app?vid=3497e993-2df3-4c96-b915-96335762aa97","ios":"levelo://app?vid=3497e993-2df3-4c96-b915-96335762aa97"},"vehicle_type_id":"4","last_reported":1729030125,"current_range_meters":19200,"station_id":"ce4bgt12rcd13ifvqcd0","pricing_plan_id":"cebpf4jnsgd1na2vs0mg"},{"bike_id":"75ee2c98-9745-4c13-9bad-121108492cf6","system_id":"levelo_inurba_marseille","lat":43.2843,"lon":5.39188,"is_reserved":false,"is_disabled":false,"rental_uris":{"android":"levelo://app?vid=75ee2c98-9745-4c13-9bad-121108492cf6","ios":"levelo://app?vid=75ee2c98-9745-4c13-9bad-121108492cf6"},"vehicle_type_id":"4","last_reported":1729030125,"current_range_meters":10800,"station_id":"ce4bhoh2rcd13ifvqh5g","pricing_plan_id":"cebpf4jnsgd1na2vs0mg"},{"bike_id":"2e27b999-0e69-425d-9c42-718e8c04baec","system_id":"levelo_inurba_marseille","lat":43.28406,"lon":5.37522,"is_reserved":false,"is_disabled":false,"rental_uris":{"android":"levelo://app?vid=2e27b999-0e69-425d-9c42-718e8c04baec","ios":"levelo://app?vid=2e27b999-0e69-425d-9c42-718e8c04baec"},"vehicle_type_id":"4","last_reported":1729030125,"current_range_meters":26000,"station_id":"ce4bh412rcd13ifvqds0","pricing_plan_id":"cebpf4jnsgd1na2vs0mg"},{"bike_id":"1bae4104-feb2-4ff5-a21d-98e5f929332f","system_id":"levelo_inurba_marseille","lat":43.28026,"lon":5.36941,"is_reserved":false,"is_disabled":false,"rental_uris":{"android":"levelo://app?vid=1bae4104-feb2-4ff5-a21d-98e5f929332f","ios":"levelo://app?vid=1bae4104-feb2-4ff5-a21d-98e5f929332f"},"vehicle_type_id":"4","last_reported":1729030125,"current_range_meters":29600,"station_id":"ce4bha12rcd13ifvqef0","pricing_plan_id":"cebpf4jnsgd1na2vs0mg"},{"bike_id":"d176c809-5c30-4537-87c4-bd2f724d9b1b","system_id":"levelo_inurba_marseille","lat":43.29273,"lon":5.4011,"is_reserved":false,"is_disabled":false,"rental_uris":{"android":"levelo://app?vid=d176c809-5c30-4537-87c4-bd2f724d9b1b","ios":"levelo://app?vid=d176c809-5c30-4537-87c4-bd2f724d9b1b"},"vehicle_type_id":"4","last_reported":1729030125,"current_range_meters":3200,"station_id":"ce4bh312rcd13ifvqdk0","pricing_plan_id":"cebpf4jnsgd1na2vs0mg"},{"bike_id":"694c2298-ab83-4eb3-9546-0dc084870396","system_id":"levelo_inurba_marseille","lat":43.31231,"lon":5.36865,"is_reserved":false,"is_disabled":false,"rental_uris":{"android":"levelo://app?vid=694c2298-ab83-4eb3-9546-0dc084870396","ios":"levelo://app?vid=694c2298-ab83-4eb3-9546-0dc084870396"},"vehicle_type_id":"4","last_reported":1729030125,"current_range_meters":38800,"station_id":"ce4bgl92rcd13ifvqbq0","pricing_plan_id":"cebpf4jnsgd1na2vs0mg"},{"bike_id":"2140b6a3-5118-4150-823e-9225aeb56201","system_id":"levelo_inurba_marseille","lat":43.23195,"lon":5.35541,"is_reserved":false,"is_disabled":false,"rental_uris":{"android":"levelo://app?vid=2140b6a3-5118-4150-823e-9225aeb56201","ios":"levelo://app?vid=2140b6a3-5118-4150-823e-9225aeb56201"},"vehicle_type_id":"4","last_reported":1729030125,"current_range_meters":8800,"station_id":"ce4bhu92rcd13ifvqi70","pricing_plan_id":"cebpf4jnsgd1na2vs0mg"},{"bike_id":"e7aedd00-f53a-48fd-a6a9-30d36c872d2e","system_id":"levelo_inurba_marseille","lat":43.30265,"lon":5.37689,"is_reserved":false,"is_disabled":false,"rental_uris":{"android":"levelo://app?vid=e7aedd00-f53a-48fd-a6a9-30d36c872d2e","ios":"levelo://app?vid=e7aedd00-f53a-48fd-a6a9-30d36c872d2e"},"vehicle_type_id":"4","last_reported":1729030125,"current_range_meters":39200,"station_id":"ce4bguh2rcd13ifvqcj0","pricing_plan_id":"cebpf4jnsgd1na2vs0mg"},{"bike_id":"41ee8cd3-ec31-402b-ae74-8dbdc5fe2948","system_id":"levelo_inurba_marseille","lat":43.29041,"lon":5.39949,"is_reserved":false,"is_disabled":false,"rental_uris":{"android":"levelo://app?vid=41ee8cd3-ec31-402b-ae74-8dbdc5fe2948","ios":"levelo://app?vid=41ee8cd3-ec31-402b-ae74-8dbdc5fe2948"},"vehicle_type_id":"4","last_reported":1729030125,"current_range_meters":26800,"station_id":"ce4bh392rcd13ifvqdm0","pricing_plan_id":"cebpf4jnsgd1na2vs0mg"},{"bike_id":"3dc45dfa-d49b-419e-9fc5-b9fb5b4001c7","system_id":"levelo_inurba_marseille","lat":43.30298,"lon":5.39199,"is_reserved":false,"is_disabled":false,"rental_uris":{"android":"levelo://app?vid=3dc45dfa-d49b-419e-9fc5-b9fb5b4001c7","ios":"levelo://app?vid=3dc45dfa-d49b-419e-9fc5-b9fb5b4001c7"},"vehicle_type_id":"4","last_reported":1729030125,"current_range_meters":32800,"station_id":"ce4bgkh2rcd13ifvqbk0","pricing_plan_id":"cebpf4jnsgd1na2vs0mg"},{"bike_id":"52e37773-79c6-4443-94d6-5ed359faaaf0","system_id":"levelo_inurba_marseille","lat":43.3027,"lon":5.37687,"is_reserved":false,"is_disabled":false,"rental_uris":{"android":"levelo://app?vid=52e37773-79c6-4443-94d6-5ed359faaaf0","ios":"levelo://app?vid=52e37773-79c6-4443-94d6-5ed359faaaf0"},"vehicle_type_id":"4","last_reported":1729030125,"current_range_meters":10000,"station_id":"ce4bguh2rcd13ifvqcj0","pricing_plan_id":"cebpf4jnsgd1na2vs0mg"},{"bike_id":"2ef7640c-0ce7-4225-943a-0140a011a40d","system_id":"levelo_inurba_marseille","lat":43.2938,"lon":5.37242,"is_reserved":false,"is_disabled":false,"rental_uris":{"android":"levelo://app?vid=2ef7640c-0ce7-4225-943a-0140a011a40d","ios":"levelo://app?vid=2ef7640c-0ce7-4225-943a-0140a011a40d"},"vehicle_type_id":"4","last_reported":1729030125,"current_range_meters":36800,"station_id":"","pricing_plan_id":"cebpf4jnsgd1na2vs0mg"},{"bike_id":"b8895383-2bd4-4c9a-a2b5-80e706db80bd","system_id":"levelo_inurba_marseille","lat":43.31888,"lon":5.40716,"is_reserved":false,"is_disabled":false,"rental_uris":{"android":"levelo://app?vid=b8895383-2bd4-4c9a-a2b5-80e706db80bd","ios":"levelo://app?vid=b8895383-2bd4-4c9a-a2b5-80e706db80bd"},"vehicle_type_id":"4","last_reported":1729030125,"current_range_meters":12000,"station_id":"ce4bhq12rcd13ifvqhig","pricing_plan_id":"cebpf4jnsgd1na2vs0mg"},{"bike_id":"fe0ed97f-0597-4aef-86e2-d5d073ff43d3","system_id":"levelo_inurba_marseille","lat":43.29549,"lon":5.42279,"is_reserved":false,"is_disabled":false,"rental_uris":{"android":"levelo://app?vid=fe0ed97f-0597-4aef-86e2-d5d073ff43d3","ios":"levelo://app?vid=fe0ed97f-0597-4aef-86e2-d5d073ff43d3"},"vehicle_type_id":"4","last_reported":1729030125,"current_range_meters":0,"station_id":"ce4bhph2rcd13ifvqhdg","pricing_plan_id":"cebpf4jnsgd1na2vs0mg"},{"bike_id":"103f921b-c6d2-4b04-ba1a-06583d6d71c4","system_id":"levelo_inurba_marseille","lat":43.308857,"lon":5.396518,"is_reserved":false,"is_disabled":false,"rental_uris":{"android":"levelo://app?vid=103f921b-c6d2-4b04-ba1a-06583d6d71c4","ios":"levelo://app?vid=103f921b-c6d2-4b04-ba1a-06583d6d71c4"},"vehicle_type_id":"4","last_reported":1729030125,"current_range_meters":39200,"station_id":"ce4bh012rcd13ifvqcv0","pricing_plan_id":"cebpf4jnsgd1na2vs0mg"},{"bike_id":"e4d140f2-5c87-4612-a80f-3eff0f4e85a9","system_id":"levelo_inurba_marseille","lat":43.27175,"lon":5.40994,"is_reserved":false,"is_disabled":false,"rental_uris":{"android":"levelo://app?vid=e4d140f2-5c87-4612-a80f-3eff0f4e85a9","ios":"levelo://app?vid=e4d140f2-5c87-4612-a80f-3eff0f4e85a9"},"vehicle_type_id":"4","last_reported":1729030125,"current_range_meters":36400,"station_id":"ce4bhl12rcd13ifvqgf0","pricing_plan_id":"cebpf4jnsgd1na2vs0mg"},{"bike_id":"a2633ada-9a98-4125-b6e7-14adf81b357f","system_id":"levelo_inurba_marseille","lat":43.31886,"lon":5.40722,"is_reserved":false,"is_disabled":false,"rental_uris":{"android":"levelo://app?vid=a2633ada-9a98-4125-b6e7-14adf81b357f","ios":"levelo://app?vid=a2633ada-9a98-4125-b6e7-14adf81b357f"},"vehicle_type_id":"4","last_reported":1729030125,"current_range_meters":16800,"station_id":"ce4bhq12rcd13ifvqhig","pricing_plan_id":"cebpf4jnsgd1na2vs0mg"},{"bike_id":"a341a347-fa85-4757-a922-6b817c157d32","system_id":"levelo_inurba_marseille","lat":43.29601,"lon":5.38102,"is_reserved":false,"is_disabled":false,"rental_uris":{"android":"levelo://app?vid=a341a347-fa85-4757-a922-6b817c157d32","ios":"levelo://app?vid=a341a347-fa85-4757-a922-6b817c157d32"},"vehicle_type_id":"4","last_reported":1729030125,"current_range_meters":38800,"station_id":"ce4bgl12rcd13ifvqbo0","pricing_plan_id":"cebpf4jnsgd1na2vs0mg"},{"bike_id":"679f4f3c-0203-4f7d-9836-538010d8d024","system_id":"levelo_inurba_marseille","lat":43.28033,"lon":5.36935,"is_reserved":false,"is_disabled":false,"rental_uris":{"android":"levelo://app?vid=679f4f3c-0203-4f7d-9836-538010d8d024","ios":"levelo://app?vid=679f4f3c-0203-4f7d-9836-538010d8d024"},"vehicle_type_id":"4","last_reported":1729030125,"current_range_meters":38800,"station_id":"ce4bha12rcd13ifvqef0","pricing_plan_id":"cebpf4jnsgd1na2vs0mg"},{"bike_id":"b44ca85b-fffc-4654-8efe-b3d329e7c53e","system_id":"levelo_inurba_marseille","lat":43.28071,"lon":5.39654,"is_reserved":false,"is_disabled":false,"rental_uris":{"android":"levelo://app?vid=b44ca85b-fffc-4654-8efe-b3d329e7c53e","ios":"levelo://app?vid=b44ca85b-fffc-4654-8efe-b3d329e7c53e"},"vehicle_type_id":"4","last_reported":1729030125,"current_range_meters":39200,"station_id":"ce4bho12rcd13ifvqh2g","pricing_plan_id":"cebpf4jnsgd1na2vs0mg"},{"bike_id":"d089d4bd-ba4c-4843-966d-a02f53ca9726","system_id":"levelo_inurba_marseille","lat":43.311176,"lon":5.377646,"is_reserved":false,"is_disabled":false,"rental_uris":{"android":"levelo://app?vid=d089d4bd-ba4c-4843-966d-a02f53ca9726","ios":"levelo://app?vid=d089d4bd-ba4c-4843-966d-a02f53ca9726"},"vehicle_type_id":"4","last_reported":1729030125,"current_range_meters":39200,"station_id":"ce4bgt92rcd13ifvqcg0","pricing_plan_id":"cebpf4jnsgd1na2vs0mg"},{"bike_id":"8c18e7a3-256d-4a3b-b531-a11dc24afda6","system_id":"levelo_inurba_marseille","lat":43.31983,"lon":5.38137,"is_reserved":false,"is_disabled":false,"rental_uris":{"android":"levelo://app?vid=8c18e7a3-256d-4a3b-b531-a11dc24afda6","ios":"levelo://app?vid=8c18e7a3-256d-4a3b-b531-a11dc24afda6"},"vehicle_type_id":"4","last_reported":1729030125,"current_range_meters":24000,"station_id":"ce4bhr12rcd13ifvqhpg","pricing_plan_id":"cebpf4jnsgd1na2vs0mg"},{"bike_id":"dbcc3846-1dac-4b5f-971c-9598b2324d1f","system_id":"levelo_inurba_marseille","lat":43.31485,"lon":5.37312,"is_reserved":false,"is_disabled":false,"rental_uris":{"android":"levelo://app?vid=dbcc3846-1dac-4b5f-971c-9598b2324d1f","ios":"levelo://app?vid=dbcc3846-1dac-4b5f-971c-9598b2324d1f"},"vehicle_type_id":"4","last_reported":1729030125,"current_range_meters":18000,"station_id":"ce4bgt12rcd13ifvqcd0","pricing_plan_id":"cebpf4jnsgd1na2vs0mg"},{"bike_id":"37e1f7b9-12a7-444a-9ec8-690164efbd86","system_id":"levelo_inurba_marseille","lat":43.26556,"lon":5.37294,"is_reserved":false,"is_disabled":false,"rental_uris":{"android":"levelo://app?vid=37e1f7b9-12a7-444a-9ec8-690164efbd86","ios":"levelo://app?vid=37e1f7b9-12a7-444a-9ec8-690164efbd86"},"vehicle_type_id":"4","last_reported":1729030125,"current_range_meters":38800,"station_id":"ce4bhg12rcd13ifvqf70","pricing_plan_id":"cebpf4jnsgd1na2vs0mg"},{"bike_id":"1641b826-604a-4181-8231-dca386f637a6","system_id":"levelo_inurba_marseille","lat":43.23194,"lon":5.35531,"is_reserved":false,"is_disabled":false,"rental_uris":{"android":"levelo://app?vid=1641b826-604a-4181-8231-dca386f637a6","ios":"levelo://app?vid=1641b826-604a-4181-8231-dca386f637a6"},"vehicle_type_id":"4","last_reported":1729030125,"current_range_meters":38800,"station_id":"ce4bhu92rcd13ifvqi70","pricing_plan_id":"cebpf4jnsgd1na2vs0mg"},{"bike_id":"89211ee2-076f-4df3-92bd-cd8885f2e76d","system_id":"levelo_inurba_marseille","lat":43.23196,"lon":5.35545,"is_reserved":false,"is_disabled":false,"rental_uris":{"android":"levelo://app?vid=89211ee2-076f-4df3-92bd-cd8885f2e76d","ios":"levelo://app?vid=89211ee2-076f-4df3-92bd-cd8885f2e76d"},"vehicle_type_id":"4","last_reported":1729030125,"current_range_meters":38800,"station_id":"ce4bhu92rcd13ifvqi70","pricing_plan_id":"cebpf4jnsgd1na2vs0mg"},{"bike_id":"b78103bf-10d5-4183-9fe3-7cd61ce64a4f","system_id":"levelo_inurba_marseille","lat":43.24185,"lon":5.39734,"is_reserved":false,"is_disabled":false,"rental_uris":{"android":"levelo://app?vid=b78103bf-10d5-4183-9fe3-7cd61ce64a4f","ios":"levelo://app?vid=b78103bf-10d5-4183-9fe3-7cd61ce64a4f"},"vehicle_type_id":"4","last_reported":1729030125,"current_range_meters":4400,"station_id":"ce4bhn12rcd13ifvqgpg","pricing_plan_id":"cebpf4jnsgd1na2vs0mg"},{"bike_id":"9dabbb9f-2820-49db-acc7-73662a324005","system_id":"levelo_inurba_marseille","lat":43.33728,"lon":5.39186,"is_reserved":false,"is_disabled":false,"rental_uris":{"android":"levelo://app?vid=9dabbb9f-2820-49db-acc7-73662a324005","ios":"levelo://app?vid=9dabbb9f-2820-49db-acc7-73662a324005"},"vehicle_type_id":"4","last_reported":1729030125,"current_range_meters":36000,"station_id":"ce4bhr92rcd13ifvqhsg","pricing_plan_id":"cebpf4jnsgd1na2vs0mg"},{"bike_id":"19fbb809-a845-42e8-b4aa-3d7321cda6a7","system_id":"levelo_inurba_marseille","lat":43.31536,"lon":5.38016,"is_reserved":false,"is_disabled":false,"rental_uris":{"android":"levelo://app?vid=19fbb809-a845-42e8-b4aa-3d7321cda6a7","ios":"levelo://app?vid=19fbb809-a845-42e8-b4aa-3d7321cda6a7"},"vehicle_type_id":"4","last_reported":1729030125,"current_range_meters":38800,"station_id":"ce4bhsp2rcd13ifvqi50","pricing_plan_id":"cebpf4jnsgd1na2vs0mg"},{"bike_id":"55a3337e-c45f-4bce-93ec-a4b648c24a42","system_id":"levelo_inurba_marseille","lat":43.22934,"lon":5.3538,"is_reserved":false,"is_disabled":false,"rental_uris":{"android":"levelo://app?vid=55a3337e-c45f-4bce-93ec-a4b648c24a42","ios":"levelo://app?vid=55a3337e-c45f-4bce-93ec-a4b648c24a42"},"vehicle_type_id":"4","last_reported":1729030125,"current_range_meters":38800,"station_id":"cpo3532slgdg3j2ikp40","pricing_plan_id":"cebpf4jnsgd1na2vs0mg"},{"bike_id":"f8278ac5-d1d7-48a6-8828-cd0ddbd5e94e","system_id":"levelo_inurba_marseille","lat":43.30795,"lon":5.43521,"is_reserved":false,"is_disabled":false,"rental_uris":{"android":"levelo://app?vid=f8278ac5-d1d7-48a6-8828-cd0ddbd5e94e","ios":"levelo://app?vid=f8278ac5-d1d7-48a6-8828-cd0ddbd5e94e"},"vehicle_type_id":"4","last_reported":1729030125,"current_range_meters":11600,"station_id":"ce4bhph2rcd13ifvqheg","pricing_plan_id":"cebpf4jnsgd1na2vs0mg"},{"bike_id":"3c4bb0eb-c397-48b0-ab1d-3f0fd16840f9","system_id":"levelo_inurba_marseille","lat":43.31366,"lon":5.38489,"is_reserved":false,"is_disabled":false,"rental_uris":{"android":"levelo://app?vid=3c4bb0eb-c397-48b0-ab1d-3f0fd16840f9","ios":"levelo://app?vid=3c4bb0eb-c397-48b0-ab1d-3f0fd16840f9"},"vehicle_type_id":"4","last_reported":1729030125,"current_range_meters":28400,"station_id":"ce4bgt92rcd13ifvqcf0","pricing_plan_id":"cebpf4jnsgd1na2vs0mg"},{"bike_id":"b3471c26-ef33-481c-921b-652c140e359c","system_id":"levelo_inurba_marseille","lat":43.29036,"lon":5.39947,"is_reserved":false,"is_disabled":false,"rental_uris":{"android":"levelo://app?vid=b3471c26-ef33-481c-921b-652c140e359c","ios":"levelo://app?vid=b3471c26-ef33-481c-921b-652c140e359c"},"vehicle_type_id":"4","last_reported":1729030125,"current_range_meters":38400,"station_id":"ce4bh392rcd13ifvqdm0","pricing_plan_id":"cebpf4jnsgd1na2vs0mg"},{"bike_id":"2ea65bb2-7323-4b3a-b7ca-83d904989c73","system_id":"levelo_inurba_marseille","lat":43.28858,"lon":5.35845,"is_reserved":false,"is_disabled":false,"rental_uris":{"android":"levelo://app?vid=2ea65bb2-7323-4b3a-b7ca-83d904989c73","ios":"levelo://app?vid=2ea65bb2-7323-4b3a-b7ca-83d904989c73"},"vehicle_type_id":"4","last_reported":1729030125,"current_range_meters":7200,"station_id":"ce4bhb12rcd13ifvqem0","pricing_plan_id":"cebpf4jnsgd1na2vs0mg"},{"bike_id":"b910e234-8a0c-4b35-9056-d1ce1d7a98c2","system_id":"levelo_inurba_marseille","lat":43.301819,"lon":5.366352,"is_reserved":false,"is_disabled":false,"rental_uris":{"android":"levelo://app?vid=b910e234-8a0c-4b35-9056-d1ce1d7a98c2","ios":"levelo://app?vid=b910e234-8a0c-4b35-9056-d1ce1d7a98c2"},"vehicle_type_id":"4","last_reported":1729030125,"current_range_meters":38000,"station_id":"ce4bgl92rcd13ifvqbq0","pricing_plan_id":"cebpf4jnsgd1na2vs0mg"},{"bike_id":"b6d06cff-ac1e-4ccb-bb13-38d6bd7afddf","system_id":"levelo_inurba_marseille","lat":43.2811,"lon":5.37832,"is_reserved":false,"is_disabled":false,"rental_uris":{"android":"levelo://app?vid=b6d06cff-ac1e-4ccb-bb13-38d6bd7afddf","ios":"levelo://app?vid=b6d06cff-ac1e-4ccb-bb13-38d6bd7afddf"},"vehicle_type_id":"4","last_reported":1729030125,"current_range_meters":38000,"station_id":"ce4bha12rcd13ifvqee0","pricing_plan_id":"cebpf4jnsgd1na2vs0mg"},{"bike_id":"bfe6236b-33bf-4eaa-8a74-a6587f86e48e","system_id":"levelo_inurba_marseille","lat":43.25819,"lon":5.39421,"is_reserved":false,"is_disabled":false,"rental_uris":{"android":"levelo://app?vid=bfe6236b-33bf-4eaa-8a74-a6587f86e48e","ios":"levelo://app?vid=bfe6236b-33bf-4eaa-8a74-a6587f86e48e"},"vehicle_type_id":"4","last_reported":1729030125,"current_range_meters":28000,"station_id":"ce4bhip2rcd13ifvqft0","pricing_plan_id":"cebpf4jnsgd1na2vs0mg"},{"bike_id":"1643d94e-1263-4403-ae53-d258057220f2","system_id":"levelo_inurba_marseille","lat":43.3133,"lon":5.39695,"is_reserved":false,"is_disabled":false,"rental_uris":{"android":"levelo://app?vid=1643d94e-1263-4403-ae53-d258057220f2","ios":"levelo://app?vid=1643d94e-1263-4403-ae53-d258057220f2"},"vehicle_type_id":"4","last_reported":1729030125,"current_range_meters":40000,"station_id":"ce4bgvp2rcd13ifvqcu0","pricing_plan_id":"cebpf4jnsgd1na2vs0mg"},{"bike_id":"179aac4c-a9ce-457f-a4c7-c84120e9bc5f","system_id":"levelo_inurba_marseille","lat":43.28352,"lon":5.38096,"is_reserved":false,"is_disabled":false,"rental_uris":{"android":"levelo://app?vid=179aac4c-a9ce-457f-a4c7-c84120e9bc5f","ios":"levelo://app?vid=179aac4c-a9ce-457f-a4c7-c84120e9bc5f"},"vehicle_type_id":"4","last_reported":1729030125,"current_range_meters":38800,"station_id":"ce4bh412rcd13ifvqdr0","pricing_plan_id":"cebpf4jnsgd1na2vs0mg"},{"bike_id":"16e8569e-9f49-4b55-b1d2-cd42a0e72b85","system_id":"levelo_inurba_marseille","lat":43.30526,"lon":5.38425,"is_reserved":false,"is_disabled":false,"rental_uris":{"android":"levelo://app?vid=16e8569e-9f49-4b55-b1d2-cd42a0e72b85","ios":"levelo://app?vid=16e8569e-9f49-4b55-b1d2-cd42a0e72b85"},"vehicle_type_id":"4","last_reported":1729030125,"current_range_meters":27600,"station_id":"ce4bgg92rcd13ifvqb30","pricing_plan_id":"cebpf4jnsgd1na2vs0mg"},{"bike_id":"faa18d53-4135-4ac2-bc40-06c958fe3cb1","system_id":"levelo_inurba_marseille","lat":43.3024,"lon":5.40038,"is_reserved":false,"is_disabled":false,"rental_uris":{"android":"levelo://app?vid=faa18d53-4135-4ac2-bc40-06c958fe3cb1","ios":"levelo://app?vid=faa18d53-4135-4ac2-bc40-06c958fe3cb1"},"vehicle_type_id":"4","last_reported":1729030125,"current_range_meters":40000,"station_id":"ce4bgvh2rcd13ifvqcs0","pricing_plan_id":"cebpf4jnsgd1na2vs0mg"},{"bike_id":"ff96eee3-1ac8-4888-9ae7-e4b6cc8154af","system_id":"levelo_inurba_marseille","lat":43.33739,"lon":5.3746,"is_reserved":false,"is_disabled":false,"rental_uris":{"android":"levelo://app?vid=ff96eee3-1ac8-4888-9ae7-e4b6cc8154af","ios":"levelo://app?vid=ff96eee3-1ac8-4888-9ae7-e4b6cc8154af"},"vehicle_type_id":"4","last_reported":1729030125,"current_range_meters":32400,"station_id":"","pricing_plan_id":"cebpf4jnsgd1na2vs0mg"},{"bike_id":"95073d4b-9f20-4e79-b8a6-bff95d6698ab","system_id":"levelo_inurba_marseille","lat":43.27808,"lon":5.40718,"is_reserved":false,"is_disabled":false,"rental_uris":{"android":"levelo://app?vid=95073d4b-9f20-4e79-b8a6-bff95d6698ab","ios":"levelo://app?vid=95073d4b-9f20-4e79-b8a6-bff95d6698ab"},"vehicle_type_id":"4","last_reported":1729030125,"current_range_meters":9200,"station_id":"ce4bhnh2rcd13ifvqgtg","pricing_plan_id":"cebpf4jnsgd1na2vs0mg"},{"bike_id":"5d098c1b-4f61-4fa0-b5bf-29729894a9a0","system_id":"levelo_inurba_marseille","lat":43.31113,"lon":5.37761,"is_reserved":false,"is_disabled":false,"rental_uris":{"android":"levelo://app?vid=5d098c1b-4f61-4fa0-b5bf-29729894a9a0","ios":"levelo://app?vid=5d098c1b-4f61-4fa0-b5bf-29729894a9a0"},"vehicle_type_id":"4","last_reported":1729030125,"current_range_meters":39200,"station_id":"ce4bgt92rcd13ifvqcg0","pricing_plan_id":"cebpf4jnsgd1na2vs0mg"},{"bike_id":"2850f2f0-982c-4108-9513-cd0600f09bae","system_id":"levelo_inurba_marseille","lat":43.31121,"lon":5.37761,"is_reserved":false,"is_disabled":false,"rental_uris":{"android":"levelo://app?vid=2850f2f0-982c-4108-9513-cd0600f09bae","ios":"levelo://app?vid=2850f2f0-982c-4108-9513-cd0600f09bae"},"vehicle_type_id":"4","last_reported":1729030125,"current_range_meters":39200,"station_id":"ce4bgt92rcd13ifvqcg0","pricing_plan_id":"cebpf4jnsgd1na2vs0mg"},{"bike_id":"f3f37656-ce16-4bc7-9064-03bceaa8c0a7","system_id":"levelo_inurba_marseille","lat":43.30591,"lon":5.39359,"is_reserved":false,"is_disabled":false,"rental_uris":{"android":"levelo://app?vid=f3f37656-ce16-4bc7-9064-03bceaa8c0a7","ios":"levelo://app?vid=f3f37656-ce16-4bc7-9064-03bceaa8c0a7"},"vehicle_type_id":"4","last_reported":1729030125,"current_range_meters":28000,"station_id":"ce4bh0p2rcd13ifvqd80","pricing_plan_id":"cebpf4jnsgd1na2vs0mg"},{"bike_id":"9c72c06e-702c-4f98-91cc-a95427f6ff2f","system_id":"levelo_inurba_marseille","lat":43.30244,"lon":5.40054,"is_reserved":false,"is_disabled":false,"rental_uris":{"android":"levelo://app?vid=9c72c06e-702c-4f98-91cc-a95427f6ff2f","ios":"levelo://app?vid=9c72c06e-702c-4f98-91cc-a95427f6ff2f"},"vehicle_type_id":"4","last_reported":1729030125,"current_range_meters":38800,"station_id":"ce4bgvh2rcd13ifvqcs0","pricing_plan_id":"cebpf4jnsgd1na2vs0mg"},{"bike_id":"0c1c86c5-d5c9-4745-a3d1-52321812ff91","system_id":"levelo_inurba_marseille","lat":43.28697,"lon":5.3739,"is_reserved":false,"is_disabled":false,"rental_uris":{"android":"levelo://app?vid=0c1c86c5-d5c9-4745-a3d1-52321812ff91","ios":"levelo://app?vid=0c1c86c5-d5c9-4745-a3d1-52321812ff91"},"vehicle_type_id":"4","last_reported":1729030125,"current_range_meters":36400,"station_id":"ce4bh3p2rcd13ifvqdq0","pricing_plan_id":"cebpf4jnsgd1na2vs0mg"},{"bike_id":"518eae26-0512-481d-a6d0-d16cfd19fb16","system_id":"levelo_inurba_marseille","lat":43.27807,"lon":5.40715,"is_reserved":false,"is_disabled":false,"rental_uris":{"android":"levelo://app?vid=518eae26-0512-481d-a6d0-d16cfd19fb16","ios":"levelo://app?vid=518eae26-0512-481d-a6d0-d16cfd19fb16"},"vehicle_type_id":"4","last_reported":1729030125,"current_range_meters":11200,"station_id":"ce4bhnh2rcd13ifvqgtg","pricing_plan_id":"cebpf4jnsgd1na2vs0mg"},{"bike_id":"79991d3d-436d-404c-880e-51d74dc7bda4","system_id":"levelo_inurba_marseille","lat":43.25577,"lon":5.38233,"is_reserved":false,"is_disabled":false,"rental_uris":{"android":"levelo://app?vid=79991d3d-436d-404c-880e-51d74dc7bda4","ios":"levelo://app?vid=79991d3d-436d-404c-880e-51d74dc7bda4"},"vehicle_type_id":"4","last_reported":1729030125,"current_range_meters":38000,"station_id":"ce4bhih2rcd13ifvqfs0","pricing_plan_id":"cebpf4jnsgd1na2vs0mg"},{"bike_id":"3d2a3428-1782-4835-ae61-b4cc1330d3aa","system_id":"levelo_inurba_marseille","lat":43.31724,"lon":5.42398,"is_reserved":false,"is_disabled":false,"rental_uris":{"android":"levelo://app?vid=3d2a3428-1782-4835-ae61-b4cc1330d3aa","ios":"levelo://app?vid=3d2a3428-1782-4835-ae61-b4cc1330d3aa"},"vehicle_type_id":"4","last_reported":1729030125,"current_range_meters":24000,"station_id":"ce4bhp92rcd13ifvqhbg","pricing_plan_id":"cebpf4jnsgd1na2vs0mg"},{"bike_id":"923909c1-d0bc-48ba-b167-16ee903340bd","system_id":"levelo_inurba_marseille","lat":43.23964,"lon":5.36621,"is_reserved":false,"is_disabled":false,"rental_uris":{"android":"levelo://app?vid=923909c1-d0bc-48ba-b167-16ee903340bd","ios":"levelo://app?vid=923909c1-d0bc-48ba-b167-16ee903340bd"},"vehicle_type_id":"4","last_reported":1729030125,"current_range_meters":38800,"station_id":"ce4bhi12rcd13ifvqfp0","pricing_plan_id":"cebpf4jnsgd1na2vs0mg"},{"bike_id":"7c6ed32e-5dda-49b4-b013-073973248138","system_id":"levelo_inurba_marseille","lat":43.29268,"lon":5.36843,"is_reserved":false,"is_disabled":false,"rental_uris":{"android":"levelo://app?vid=7c6ed32e-5dda-49b4-b013-073973248138","ios":"levelo://app?vid=7c6ed32e-5dda-49b4-b013-073973248138"},"vehicle_type_id":"4","last_reported":1729030125,"current_range_meters":33600,"station_id":"ce4bhbp2rcd13ifvqesg","pricing_plan_id":"cebpf4jnsgd1na2vs0mg"},{"bike_id":"292b9425-1372-40d4-bf0a-fe57aa779a41","system_id":"levelo_inurba_marseille","lat":43.23063,"lon":5.35495,"is_reserved":false,"is_disabled":false,"rental_uris":{"android":"levelo://app?vid=292b9425-1372-40d4-bf0a-fe57aa779a41","ios":"levelo://app?vid=292b9425-1372-40d4-bf0a-fe57aa779a41"},"vehicle_type_id":"4","last_reported":1729030125,"current_range_meters":31200,"station_id":"cpo3342slgdg3j2ifvpg","pricing_plan_id":"cebpf4jnsgd1na2vs0mg"},{"bike_id":"62dcd66c-ac21-40ac-8398-53abfe185a2c","system_id":"levelo_inurba_marseille","lat":43.28713,"lon":5.37931,"is_reserved":false,"is_disabled":false,"rental_uris":{"android":"levelo://app?vid=62dcd66c-ac21-40ac-8398-53abfe185a2c","ios":"levelo://app?vid=62dcd66c-ac21-40ac-8398-53abfe185a2c"},"vehicle_type_id":"4","last_reported":1729030125,"current_range_meters":36800,"station_id":"ce4bh9p2rcd13ifvqec0","pricing_plan_id":"cebpf4jnsgd1na2vs0mg"},{"bike_id":"60c7ceff-fef3-4380-98cf-0ac594b84256","system_id":"levelo_inurba_marseille","lat":43.28707,"lon":5.3793,"is_reserved":false,"is_disabled":false,"rental_uris":{"android":"levelo://app?vid=60c7ceff-fef3-4380-98cf-0ac594b84256","ios":"levelo://app?vid=60c7ceff-fef3-4380-98cf-0ac594b84256"},"vehicle_type_id":"4","last_reported":1729030125,"current_range_meters":38800,"station_id":"ce4bh9p2rcd13ifvqec0","pricing_plan_id":"cebpf4jnsgd1na2vs0mg"},{"bike_id":"ef7335a5-6a77-4d1d-98af-246ccadc4b89","system_id":"levelo_inurba_marseille","lat":43.30767,"lon":5.37261,"is_reserved":false,"is_disabled":false,"rental_uris":{"android":"levelo://app?vid=ef7335a5-6a77-4d1d-98af-246ccadc4b89","ios":"levelo://app?vid=ef7335a5-6a77-4d1d-98af-246ccadc4b89"},"vehicle_type_id":"4","last_reported":1729030125,"current_range_meters":11600,"station_id":"ce4bgqh2rcd13ifvqc4g","pricing_plan_id":"cebpf4jnsgd1na2vs0mg"},{"bike_id":"a1636881-5425-4211-a193-ac69af1c8de1","system_id":"levelo_inurba_marseille","lat":43.28066,"lon":5.39644,"is_reserved":false,"is_disabled":false,"rental_uris":{"android":"levelo://app?vid=a1636881-5425-4211-a193-ac69af1c8de1","ios":"levelo://app?vid=a1636881-5425-4211-a193-ac69af1c8de1"},"vehicle_type_id":"4","last_reported":1729030125,"current_range_meters":28000,"station_id":"ce4bho12rcd13ifvqh2g","pricing_plan_id":"cebpf4jnsgd1na2vs0mg"},{"bike_id":"7db3671b-95d5-4e0a-970c-62aabaae9dc1","system_id":"levelo_inurba_marseille","lat":43.27967,"lon":5.38745,"is_reserved":false,"is_disabled":false,"rental_uris":{"android":"levelo://app?vid=7db3671b-95d5-4e0a-970c-62aabaae9dc1","ios":"levelo://app?vid=7db3671b-95d5-4e0a-970c-62aabaae9dc1"},"vehicle_type_id":"4","last_reported":1729030125,"current_range_meters":33200,"station_id":"ce4bhg12rcd13ifvqf80","pricing_plan_id":"cebpf4jnsgd1na2vs0mg"},{"bike_id":"0d667db3-7bae-49b4-90de-10e2b4c495f6","system_id":"levelo_inurba_marseille","lat":43.32367,"lon":5.38888,"is_reserved":false,"is_disabled":false,"rental_uris":{"android":"levelo://app?vid=0d667db3-7bae-49b4-90de-10e2b4c495f6","ios":"levelo://app?vid=0d667db3-7bae-49b4-90de-10e2b4c495f6"},"vehicle_type_id":"4","last_reported":1729030125,"current_range_meters":38800,"station_id":"ce4bhqp2rcd13ifvqhog","pricing_plan_id":"cebpf4jnsgd1na2vs0mg"},{"bike_id":"9e5c6458-de7e-45fb-88e0-38ed61c26e96","system_id":"levelo_inurba_marseille","lat":43.31118,"lon":5.37752,"is_reserved":false,"is_disabled":false,"rental_uris":{"android":"levelo://app?vid=9e5c6458-de7e-45fb-88e0-38ed61c26e96","ios":"levelo://app?vid=9e5c6458-de7e-45fb-88e0-38ed61c26e96"},"vehicle_type_id":"4","last_reported":1729030125,"current_range_meters":38800,"station_id":"ce4bgt92rcd13ifvqcg0","pricing_plan_id":"cebpf4jnsgd1na2vs0mg"},{"bike_id":"8e1d4e0d-5507-46d6-90b0-3fb646d87956","system_id":"levelo_inurba_marseille","lat":43.33602,"lon":5.41025,"is_reserved":false,"is_disabled":false,"rental_uris":{"android":"levelo://app?vid=8e1d4e0d-5507-46d6-90b0-3fb646d87956","ios":"levelo://app?vid=8e1d4e0d-5507-46d6-90b0-3fb646d87956"},"vehicle_type_id":"4","last_reported":1729030125,"current_range_meters":26800,"station_id":"ce4bhqh2rcd13ifvqhmg","pricing_plan_id":"cebpf4jnsgd1na2vs0mg"},{"bike_id":"b68c1f89-0804-4d6b-8148-c58b099db8c8","system_id":"levelo_inurba_marseille","lat":43.31482,"lon":5.37297,"is_reserved":false,"is_disabled":false,"rental_uris":{"android":"levelo://app?vid=b68c1f89-0804-4d6b-8148-c58b099db8c8","ios":"levelo://app?vid=b68c1f89-0804-4d6b-8148-c58b099db8c8"},"vehicle_type_id":"4","last_reported":1729030125,"current_range_meters":39200,"station_id":"ce4bgt12rcd13ifvqcd0","pricing_plan_id":"cebpf4jnsgd1na2vs0mg"},{"bike_id":"5b5c09b5-9f99-4809-9154-7593a013dcb6","system_id":"levelo_inurba_marseille","lat":43.29279,"lon":5.36851,"is_reserved":false,"is_disabled":false,"rental_uris":{"android":"levelo://app?vid=5b5c09b5-9f99-4809-9154-7593a013dcb6","ios":"levelo://app?vid=5b5c09b5-9f99-4809-9154-7593a013dcb6"},"vehicle_type_id":"4","last_reported":1729030125,"current_range_meters":38800,"station_id":"ce4bhbp2rcd13ifvqesg","pricing_plan_id":"cebpf4jnsgd1na2vs0mg"},{"bike_id":"c16b2465-23b0-4e05-a23b-1a81c701df3b","system_id":"levelo_inurba_marseille","lat":43.2955,"lon":5.42274,"is_reserved":false,"is_disabled":false,"rental_uris":{"android":"levelo://app?vid=c16b2465-23b0-4e05-a23b-1a81c701df3b","ios":"levelo://app?vid=c16b2465-23b0-4e05-a23b-1a81c701df3b"},"vehicle_type_id":"4","last_reported":1729030125,"current_range_meters":24000,"station_id":"ce4bhph2rcd13ifvqhdg","pricing_plan_id":"cebpf4jnsgd1na2vs0mg"},{"bike_id":"a5fb3947-14ea-4df3-b0e5-7147047e5a59","system_id":"levelo_inurba_marseille","lat":43.287,"lon":5.37398,"is_reserved":false,"is_disabled":false,"rental_uris":{"android":"levelo://app?vid=a5fb3947-14ea-4df3-b0e5-7147047e5a59","ios":"levelo://app?vid=a5fb3947-14ea-4df3-b0e5-7147047e5a59"},"vehicle_type_id":"4","last_reported":1729030125,"current_range_meters":39200,"station_id":"ce4bh3p2rcd13ifvqdq0","pricing_plan_id":"cebpf4jnsgd1na2vs0mg"},{"bike_id":"df7acb4d-6a30-48e5-9f4c-47c90a3a855e","system_id":"levelo_inurba_marseille","lat":43.2844,"lon":5.39181,"is_reserved":false,"is_disabled":false,"rental_uris":{"android":"levelo://app?vid=df7acb4d-6a30-48e5-9f4c-47c90a3a855e","ios":"levelo://app?vid=df7acb4d-6a30-48e5-9f4c-47c90a3a855e"},"vehicle_type_id":"4","last_reported":1729030125,"current_range_meters":36800,"station_id":"ce4bhoh2rcd13ifvqh5g","pricing_plan_id":"cebpf4jnsgd1na2vs0mg"},{"bike_id":"0648669d-f82d-4a29-99dc-57140eb55b69","system_id":"levelo_inurba_marseille","lat":43.27812,"lon":5.4071,"is_reserved":false,"is_disabled":false,"rental_uris":{"android":"levelo://app?vid=0648669d-f82d-4a29-99dc-57140eb55b69","ios":"levelo://app?vid=0648669d-f82d-4a29-99dc-57140eb55b69"},"vehicle_type_id":"4","last_reported":1729030125,"current_range_meters":32800,"station_id":"ce4bhnh2rcd13ifvqgtg","pricing_plan_id":"cebpf4jnsgd1na2vs0mg"},{"bike_id":"a9d80141-cb04-4f88-bcc5-9763572e3517","system_id":"levelo_inurba_marseille","lat":43.23194,"lon":5.35549,"is_reserved":false,"is_disabled":false,"rental_uris":{"android":"levelo://app?vid=a9d80141-cb04-4f88-bcc5-9763572e3517","ios":"levelo://app?vid=a9d80141-cb04-4f88-bcc5-9763572e3517"},"vehicle_type_id":"4","last_reported":1729030125,"current_range_meters":39200,"station_id":"ce4bhu92rcd13ifvqi70","pricing_plan_id":"cebpf4jnsgd1na2vs0mg"},{"bike_id":"e1e26b32-e0f7-4ea7-8874-c38e395b36e1","system_id":"levelo_inurba_marseille","lat":43.28696,"lon":5.39975,"is_reserved":false,"is_disabled":false,"rental_uris":{"android":"levelo://app?vid=e1e26b32-e0f7-4ea7-8874-c38e395b36e1","ios":"levelo://app?vid=e1e26b32-e0f7-4ea7-8874-c38e395b36e1"},"vehicle_type_id":"4","last_reported":1729030125,"current_range_meters":25200,"station_id":"ce4bho92rcd13ifvqh3g","pricing_plan_id":"cebpf4jnsgd1na2vs0mg"},{"bike_id":"d06f24f3-1961-4c39-8b26-c72733863fe9","system_id":"levelo_inurba_marseille","lat":43.33781,"lon":5.37443,"is_reserved":false,"is_disabled":false,"rental_uris":{"android":"levelo://app?vid=d06f24f3-1961-4c39-8b26-c72733863fe9","ios":"levelo://app?vid=d06f24f3-1961-4c39-8b26-c72733863fe9"},"vehicle_type_id":"4","last_reported":1729030125,"current_range_meters":22800,"station_id":"","pricing_plan_id":"cebpf4jnsgd1na2vs0mg"},{"bike_id":"c6fdf331-9c74-4a97-8d72-f054a727b453","system_id":"levelo_inurba_marseille","lat":43.29795,"lon":5.39335,"is_reserved":false,"is_disabled":false,"rental_uris":{"android":"levelo://app?vid=c6fdf331-9c74-4a97-8d72-f054a727b453","ios":"levelo://app?vid=c6fdf331-9c74-4a97-8d72-f054a727b453"},"vehicle_type_id":"4","last_reported":1729030125,"current_range_meters":39200,"station_id":"chh1huq6cuj3fo74tm60","pricing_plan_id":"cebpf4jnsgd1na2vs0mg"},{"bike_id":"5fcc9277-6082-429c-a40f-1a71556e394c","system_id":"levelo_inurba_marseille","lat":43.31118,"lon":5.3777,"is_reserved":false,"is_disabled":false,"rental_uris":{"android":"levelo://app?vid=5fcc9277-6082-429c-a40f-1a71556e394c","ios":"levelo://app?vid=5fcc9277-6082-429c-a40f-1a71556e394c"},"vehicle_type_id":"4","last_reported":1729030125,"current_range_meters":39200,"station_id":"ce4bgt92rcd13ifvqcg0","pricing_plan_id":"cebpf4jnsgd1na2vs0mg"},{"bike_id":"4f1712a5-53a6-4922-be42-d162dd37a0f1","system_id":"levelo_inurba_marseille","lat":43.29441,"lon":5.39761,"is_reserved":false,"is_disabled":false,"rental_uris":{"android":"levelo://app?vid=4f1712a5-53a6-4922-be42-d162dd37a0f1","ios":"levelo://app?vid=4f1712a5-53a6-4922-be42-d162dd37a0f1"},"vehicle_type_id":"4","last_reported":1729030125,"current_range_meters":20000,"station_id":"ce4bh3h2rcd13ifvqdo0","pricing_plan_id":"cebpf4jnsgd1na2vs0mg"},{"bike_id":"558f1d74-f6f0-4bd4-8403-458ac786e2ee","system_id":"levelo_inurba_marseille","lat":43.3127,"lon":5.40171,"is_reserved":false,"is_disabled":false,"rental_uris":{"android":"levelo://app?vid=558f1d74-f6f0-4bd4-8403-458ac786e2ee","ios":"levelo://app?vid=558f1d74-f6f0-4bd4-8403-458ac786e2ee"},"vehicle_type_id":"4","last_reported":1729030125,"current_range_meters":39200,"station_id":"ce4bh092rcd13ifvqd30","pricing_plan_id":"cebpf4jnsgd1na2vs0mg"},{"bike_id":"8b3decf7-2688-4c5e-b7f9-cf528467dc8d","system_id":"levelo_inurba_marseille","lat":43.29972,"lon":5.37173,"is_reserved":false,"is_disabled":false,"rental_uris":{"android":"levelo://app?vid=8b3decf7-2688-4c5e-b7f9-cf528467dc8d","ios":"levelo://app?vid=8b3decf7-2688-4c5e-b7f9-cf528467dc8d"},"vehicle_type_id":"4","last_reported":1729030125,"current_range_meters":22000,"station_id":"ce4bgr92rcd13ifvqc7g","pricing_plan_id":"cebpf4jnsgd1na2vs0mg"},{"bike_id":"d41309ab-1a1f-4395-acaa-455483c3f8e1","system_id":"levelo_inurba_marseille","lat":43.23194,"lon":5.35554,"is_reserved":false,"is_disabled":false,"rental_uris":{"android":"levelo://app?vid=d41309ab-1a1f-4395-acaa-455483c3f8e1","ios":"levelo://app?vid=d41309ab-1a1f-4395-acaa-455483c3f8e1"},"vehicle_type_id":"4","last_reported":1729030125,"current_range_meters":30400,"station_id":"ce4bhu92rcd13ifvqi70","pricing_plan_id":"cebpf4jnsgd1na2vs0mg"},{"bike_id":"f66bb608-2fde-4de2-9b8e-1584fe83bcf3","system_id":"levelo_inurba_marseille","lat":43.31489,"lon":5.373,"is_reserved":false,"is_disabled":false,"rental_uris":{"android":"levelo://app?vid=f66bb608-2fde-4de2-9b8e-1584fe83bcf3","ios":"levelo://app?vid=f66bb608-2fde-4de2-9b8e-1584fe83bcf3"},"vehicle_type_id":"4","last_reported":1729030125,"current_range_meters":39200,"station_id":"ce4bgt12rcd13ifvqcd0","pricing_plan_id":"cebpf4jnsgd1na2vs0mg"},{"bike_id":"bf5516cd-fa21-4eb4-8e8c-cee2db3420f9","system_id":"levelo_inurba_marseille","lat":43.29052,"lon":5.399705,"is_reserved":false,"is_disabled":false,"rental_uris":{"android":"levelo://app?vid=bf5516cd-fa21-4eb4-8e8c-cee2db3420f9","ios":"levelo://app?vid=bf5516cd-fa21-4eb4-8e8c-cee2db3420f9"},"vehicle_type_id":"4","last_reported":1729030125,"current_range_meters":36800,"station_id":"ce4bh392rcd13ifvqdm0","pricing_plan_id":"cebpf4jnsgd1na2vs0mg"},{"bike_id":"94394cd7-99e5-449b-b0ad-1aec31079806","system_id":"levelo_inurba_marseille","lat":43.30132,"lon":5.38767,"is_reserved":false,"is_disabled":false,"rental_uris":{"android":"levelo://app?vid=94394cd7-99e5-449b-b0ad-1aec31079806","ios":"levelo://app?vid=94394cd7-99e5-449b-b0ad-1aec31079806"},"vehicle_type_id":"4","last_reported":1729030125,"current_range_meters":36400,"station_id":"ce4bghh2rcd13ifvqb60","pricing_plan_id":"cebpf4jnsgd1na2vs0mg"},{"bike_id":"6ef911d3-712e-495c-8b16-a9d320855567","system_id":"levelo_inurba_marseille","lat":43.275112,"lon":5.424283,"is_reserved":false,"is_disabled":false,"rental_uris":{"android":"levelo://app?vid=6ef911d3-712e-495c-8b16-a9d320855567","ios":"levelo://app?vid=6ef911d3-712e-495c-8b16-a9d320855567"},"vehicle_type_id":"4","last_reported":1729030125,"current_range_meters":36400,"station_id":"ce4bhn92rcd13ifvqgrg","pricing_plan_id":"cebpf4jnsgd1na2vs0mg"},{"bike_id":"d4f5caad-33d7-43a3-8edd-3145745a627d","system_id":"levelo_inurba_marseille","lat":43.32066,"lon":5.415452,"is_reserved":false,"is_disabled":false,"rental_uris":{"android":"levelo://app?vid=d4f5caad-33d7-43a3-8edd-3145745a627d","ios":"levelo://app?vid=d4f5caad-33d7-43a3-8edd-3145745a627d"},"vehicle_type_id":"4","last_reported":1729030125,"current_range_meters":19600,"station_id":"ce4bhq92rcd13ifvqhkg","pricing_plan_id":"cebpf4jnsgd1na2vs0mg"},{"bike_id":"b3581752-b046-4ddf-abd7-7802a26b818e","system_id":"levelo_inurba_marseille","lat":43.30272,"lon":5.37706,"is_reserved":false,"is_disabled":false,"rental_uris":{"android":"levelo://app?vid=b3581752-b046-4ddf-abd7-7802a26b818e","ios":"levelo://app?vid=b3581752-b046-4ddf-abd7-7802a26b818e"},"vehicle_type_id":"4","last_reported":1729030125,"current_range_meters":20000,"station_id":"ce4bguh2rcd13ifvqcj0","pricing_plan_id":"cebpf4jnsgd1na2vs0mg"},{"bike_id":"f9090864-a36b-45b0-829c-85757d1c6432","system_id":"levelo_inurba_marseille","lat":43.24805,"lon":5.37458,"is_reserved":false,"is_disabled":false,"rental_uris":{"android":"levelo://app?vid=f9090864-a36b-45b0-829c-85757d1c6432","ios":"levelo://app?vid=f9090864-a36b-45b0-829c-85757d1c6432"},"vehicle_type_id":"4","last_reported":1729030125,"current_range_meters":16800,"station_id":"ce4bhgh2rcd13ifvqfb0","pricing_plan_id":"cebpf4jnsgd1na2vs0mg"},{"bike_id":"f9e6da2f-6416-4966-97f8-b407d1cfd273","system_id":"levelo_inurba_marseille","lat":43.28701,"lon":5.37398,"is_reserved":false,"is_disabled":false,"rental_uris":{"android":"levelo://app?vid=f9e6da2f-6416-4966-97f8-b407d1cfd273","ios":"levelo://app?vid=f9e6da2f-6416-4966-97f8-b407d1cfd273"},"vehicle_type_id":"4","last_reported":1729030125,"current_range_meters":39200,"station_id":"ce4bh3p2rcd13ifvqdq0","pricing_plan_id":"cebpf4jnsgd1na2vs0mg"},{"bike_id":"c88d0752-f685-4855-a1af-da309cb241f9","system_id":"levelo_inurba_marseille","lat":43.31331,"lon":5.39684,"is_reserved":false,"is_disabled":false,"rental_uris":{"android":"levelo://app?vid=c88d0752-f685-4855-a1af-da309cb241f9","ios":"levelo://app?vid=c88d0752-f685-4855-a1af-da309cb241f9"},"vehicle_type_id":"4","last_reported":1729030125,"current_range_meters":19200,"station_id":"ce4bgvp2rcd13ifvqcu0","pricing_plan_id":"cebpf4jnsgd1na2vs0mg"},{"bike_id":"1dd8350d-21d1-4ed7-b940-1729df17b899","system_id":"levelo_inurba_marseille","lat":43.27361,"lon":5.41006,"is_reserved":false,"is_disabled":false,"rental_uris":{"android":"levelo://app?vid=1dd8350d-21d1-4ed7-b940-1729df17b899","ios":"levelo://app?vid=1dd8350d-21d1-4ed7-b940-1729df17b899"},"vehicle_type_id":"4","last_reported":1729030125,"current_range_meters":32400,"station_id":"","pricing_plan_id":"cebpf4jnsgd1na2vs0mg"},{"bike_id":"5870ab5b-acdd-47e7-bfbe-8f5a771d88f4","system_id":"levelo_inurba_marseille","lat":43.308953,"lon":5.371877,"is_reserved":false,"is_disabled":false,"rental_uris":{"android":"levelo://app?vid=5870ab5b-acdd-47e7-bfbe-8f5a771d88f4","ios":"levelo://app?vid=5870ab5b-acdd-47e7-bfbe-8f5a771d88f4"},"vehicle_type_id":"4","last_reported":1729030125,"current_range_meters":8800,"station_id":"ce4bguh2rcd13ifvqckg","pricing_plan_id":"cebpf4jnsgd1na2vs0mg"},{"bike_id":"628a87b4-5b9e-41d0-8354-1dcc1962daeb","system_id":"levelo_inurba_marseille","lat":43.30801,"lon":5.38151,"is_reserved":false,"is_disabled":false,"rental_uris":{"android":"levelo://app?vid=628a87b4-5b9e-41d0-8354-1dcc1962daeb","ios":"levelo://app?vid=628a87b4-5b9e-41d0-8354-1dcc1962daeb"},"vehicle_type_id":"4","last_reported":1729030125,"current_range_meters":8400,"station_id":"ce4bgt12rcd13ifvqce0","pricing_plan_id":"cebpf4jnsgd1na2vs0mg"},{"bike_id":"d4d011f5-5135-47cc-bd52-a467c5e43d43","system_id":"levelo_inurba_marseille","lat":43.30781,"lon":5.37649,"is_reserved":false,"is_disabled":false,"rental_uris":{"android":"levelo://app?vid=d4d011f5-5135-47cc-bd52-a467c5e43d43","ios":"levelo://app?vid=d4d011f5-5135-47cc-bd52-a467c5e43d43"},"vehicle_type_id":"4","last_reported":1729030125,"current_range_meters":24400,"station_id":"ce4bgv92rcd13ifvqcq0","pricing_plan_id":"cebpf4jnsgd1na2vs0mg"},{"bike_id":"3949c3cb-9623-4dbe-9840-29c02318f1bc","system_id":"levelo_inurba_marseille","lat":43.23186,"lon":5.39979,"is_reserved":false,"is_disabled":false,"rental_uris":{"android":"levelo://app?vid=3949c3cb-9623-4dbe-9840-29c02318f1bc","ios":"levelo://app?vid=3949c3cb-9623-4dbe-9840-29c02318f1bc"},"vehicle_type_id":"4","last_reported":1729030125,"current_range_meters":22800,"station_id":"ce4bhn12rcd13ifvqgqg","pricing_plan_id":"cebpf4jnsgd1na2vs0mg"},{"bike_id":"1af2813b-98a0-4b62-aaf8-89652b30f639","system_id":"levelo_inurba_marseille","lat":43.22933,"lon":5.35381,"is_reserved":false,"is_disabled":false,"rental_uris":{"android":"levelo://app?vid=1af2813b-98a0-4b62-aaf8-89652b30f639","ios":"levelo://app?vid=1af2813b-98a0-4b62-aaf8-89652b30f639"},"vehicle_type_id":"4","last_reported":1729030125,"current_range_meters":28000,"station_id":"cpo3532slgdg3j2ikp40","pricing_plan_id":"cebpf4jnsgd1na2vs0mg"},{"bike_id":"8fd90c87-8e87-4af8-975f-33520dce9b3e","system_id":"levelo_inurba_marseille","lat":43.27896,"lon":5.38013,"is_reserved":false,"is_disabled":false,"rental_uris":{"android":"levelo://app?vid=8fd90c87-8e87-4af8-975f-33520dce9b3e","ios":"levelo://app?vid=8fd90c87-8e87-4af8-975f-33520dce9b3e"},"vehicle_type_id":"4","last_reported":1729030125,"current_range_meters":29600,"station_id":"ce4bhf92rcd13ifvqf50","pricing_plan_id":"cebpf4jnsgd1na2vs0mg"},{"bike_id":"c5af4ecd-4e19-4991-8d5d-6c1027d6164f","system_id":"levelo_inurba_marseille","lat":43.30797,"lon":5.43518,"is_reserved":false,"is_disabled":false,"rental_uris":{"android":"levelo://app?vid=c5af4ecd-4e19-4991-8d5d-6c1027d6164f","ios":"levelo://app?vid=c5af4ecd-4e19-4991-8d5d-6c1027d6164f"},"vehicle_type_id":"4","last_reported":1729030125,"current_range_meters":14000,"station_id":"ce4bhph2rcd13ifvqheg","pricing_plan_id":"cebpf4jnsgd1na2vs0mg"},{"bike_id":"f93454e1-a669-4c63-a4ca-b572042c7971","system_id":"levelo_inurba_marseille","lat":43.23192,"lon":5.35546,"is_reserved":false,"is_disabled":false,"rental_uris":{"android":"levelo://app?vid=f93454e1-a669-4c63-a4ca-b572042c7971","ios":"levelo://app?vid=f93454e1-a669-4c63-a4ca-b572042c7971"},"vehicle_type_id":"4","last_reported":1729030125,"current_range_meters":24000,"station_id":"ce4bhu92rcd13ifvqi70","pricing_plan_id":"cebpf4jnsgd1na2vs0mg"},{"bike_id":"33884dc5-0a79-40bd-96e2-5d6c1d19c5ca","system_id":"levelo_inurba_marseille","lat":43.22932,"lon":5.35375,"is_reserved":false,"is_disabled":false,"rental_uris":{"android":"levelo://app?vid=33884dc5-0a79-40bd-96e2-5d6c1d19c5ca","ios":"levelo://app?vid=33884dc5-0a79-40bd-96e2-5d6c1d19c5ca"},"vehicle_type_id":"4","last_reported":1729030125,"current_range_meters":5600,"station_id":"cpo3532slgdg3j2ikp40","pricing_plan_id":"cebpf4jnsgd1na2vs0mg"},{"bike_id":"80732912-37a2-49d4-9217-9fe018e8bd74","system_id":"levelo_inurba_marseille","lat":43.25107,"lon":5.40313,"is_reserved":false,"is_disabled":false,"rental_uris":{"android":"levelo://app?vid=80732912-37a2-49d4-9217-9fe018e8bd74","ios":"levelo://app?vid=80732912-37a2-49d4-9217-9fe018e8bd74"},"vehicle_type_id":"4","last_reported":1729030125,"current_range_meters":2800,"station_id":"ce4bhlh2rcd13ifvqgig","pricing_plan_id":"cebpf4jnsgd1na2vs0mg"},{"bike_id":"c7fe9f72-46fa-4809-82b0-be9205b47911","system_id":"levelo_inurba_marseille","lat":43.28434,"lon":5.39184,"is_reserved":false,"is_disabled":false,"rental_uris":{"android":"levelo://app?vid=c7fe9f72-46fa-4809-82b0-be9205b47911","ios":"levelo://app?vid=c7fe9f72-46fa-4809-82b0-be9205b47911"},"vehicle_type_id":"4","last_reported":1729030125,"current_range_meters":35600,"station_id":"ce4bhoh2rcd13ifvqh5g","pricing_plan_id":"cebpf4jnsgd1na2vs0mg"},{"bike_id":"e4871b44-e714-485e-94a9-9f225940e2dc","system_id":"levelo_inurba_marseille","lat":43.28038,"lon":5.3694,"is_reserved":false,"is_disabled":false,"rental_uris":{"android":"levelo://app?vid=e4871b44-e714-485e-94a9-9f225940e2dc","ios":"levelo://app?vid=e4871b44-e714-485e-94a9-9f225940e2dc"},"vehicle_type_id":"4","last_reported":1729030125,"current_range_meters":38800,"station_id":"ce4bha12rcd13ifvqef0","pricing_plan_id":"cebpf4jnsgd1na2vs0mg"},{"bike_id":"ae558d7b-e62f-43ff-b748-a8c79b0ae53b","system_id":"levelo_inurba_marseille","lat":43.308999,"lon":5.396598,"is_reserved":false,"is_disabled":false,"rental_uris":{"android":"levelo://app?vid=ae558d7b-e62f-43ff-b748-a8c79b0ae53b","ios":"levelo://app?vid=ae558d7b-e62f-43ff-b748-a8c79b0ae53b"},"vehicle_type_id":"4","last_reported":1729030125,"current_range_meters":39200,"station_id":"ce4bh012rcd13ifvqcv0","pricing_plan_id":"cebpf4jnsgd1na2vs0mg"},{"bike_id":"571ea329-32e9-4604-b87c-11d33dee6fac","system_id":"levelo_inurba_marseille","lat":43.31324,"lon":5.39693,"is_reserved":false,"is_disabled":false,"rental_uris":{"android":"levelo://app?vid=571ea329-32e9-4604-b87c-11d33dee6fac","ios":"levelo://app?vid=571ea329-32e9-4604-b87c-11d33dee6fac"},"vehicle_type_id":"4","last_reported":1729030125,"current_range_meters":27200,"station_id":"ce4bgvp2rcd13ifvqcu0","pricing_plan_id":"cebpf4jnsgd1na2vs0mg"},{"bike_id":"167a3dcd-afcd-457e-8998-67360ace43c0","system_id":"levelo_inurba_marseille","lat":43.3375,"lon":5.37436,"is_reserved":false,"is_disabled":false,"rental_uris":{"android":"levelo://app?vid=167a3dcd-afcd-457e-8998-67360ace43c0","ios":"levelo://app?vid=167a3dcd-afcd-457e-8998-67360ace43c0"},"vehicle_type_id":"4","last_reported":1729030125,"current_range_meters":32800,"station_id":"","pricing_plan_id":"cebpf4jnsgd1na2vs0mg"},{"bike_id":"64525a93-3365-4983-934d-4cad1f9c4c87","system_id":"levelo_inurba_marseille","lat":43.29049,"lon":5.35917,"is_reserved":false,"is_disabled":false,"rental_uris":{"android":"levelo://app?vid=64525a93-3365-4983-934d-4cad1f9c4c87","ios":"levelo://app?vid=64525a93-3365-4983-934d-4cad1f9c4c87"},"vehicle_type_id":"4","last_reported":1729030125,"current_range_meters":39200,"station_id":"ce4bha92rcd13ifvqeg0","pricing_plan_id":"cebpf4jnsgd1na2vs0mg"},{"bike_id":"fb4fc0cd-764d-4702-a1ff-b0ea5c4aa94e","system_id":"levelo_inurba_marseille","lat":43.27065,"lon":5.42276,"is_reserved":false,"is_disabled":false,"rental_uris":{"android":"levelo://app?vid=fb4fc0cd-764d-4702-a1ff-b0ea5c4aa94e","ios":"levelo://app?vid=fb4fc0cd-764d-4702-a1ff-b0ea5c4aa94e"},"vehicle_type_id":"4","last_reported":1729030125,"current_range_meters":12800,"station_id":"ce4bhk92rcd13ifvqgb0","pricing_plan_id":"cebpf4jnsgd1na2vs0mg"},{"bike_id":"0664df91-51fa-4dc5-b6a5-225e4a7a90d1","system_id":"levelo_inurba_marseille","lat":43.27813,"lon":5.40713,"is_reserved":false,"is_disabled":false,"rental_uris":{"android":"levelo://app?vid=0664df91-51fa-4dc5-b6a5-225e4a7a90d1","ios":"levelo://app?vid=0664df91-51fa-4dc5-b6a5-225e4a7a90d1"},"vehicle_type_id":"4","last_reported":1729030125,"current_range_meters":14800,"station_id":"ce4bhnh2rcd13ifvqgtg","pricing_plan_id":"cebpf4jnsgd1na2vs0mg"},{"bike_id":"1b246a74-3904-4e3a-ade3-027e7c44d83f","system_id":"levelo_inurba_marseille","lat":43.2481,"lon":5.37457,"is_reserved":false,"is_disabled":false,"rental_uris":{"android":"levelo://app?vid=1b246a74-3904-4e3a-ade3-027e7c44d83f","ios":"levelo://app?vid=1b246a74-3904-4e3a-ade3-027e7c44d83f"},"vehicle_type_id":"4","last_reported":1729030125,"current_range_meters":38800,"station_id":"ce4bhgh2rcd13ifvqfb0","pricing_plan_id":"cebpf4jnsgd1na2vs0mg"},{"bike_id":"e8790bfa-6a02-410a-a877-2d19fee0a1b0","system_id":"levelo_inurba_marseille","lat":43.30252,"lon":5.40069,"is_reserved":false,"is_disabled":false,"rental_uris":{"android":"levelo://app?vid=e8790bfa-6a02-410a-a877-2d19fee0a1b0","ios":"levelo://app?vid=e8790bfa-6a02-410a-a877-2d19fee0a1b0"},"vehicle_type_id":"4","last_reported":1729030125,"current_range_meters":39200,"station_id":"ce4bgvh2rcd13ifvqcs0","pricing_plan_id":"cebpf4jnsgd1na2vs0mg"},{"bike_id":"2ae7cb6e-e949-4f32-b410-0e62af4ecc02","system_id":"levelo_inurba_marseille","lat":43.23185,"lon":5.39971,"is_reserved":false,"is_disabled":false,"rental_uris":{"android":"levelo://app?vid=2ae7cb6e-e949-4f32-b410-0e62af4ecc02","ios":"levelo://app?vid=2ae7cb6e-e949-4f32-b410-0e62af4ecc02"},"vehicle_type_id":"4","last_reported":1729030125,"current_range_meters":39200,"station_id":"ce4bhn12rcd13ifvqgqg","pricing_plan_id":"cebpf4jnsgd1na2vs0mg"},{"bike_id":"15e3fb11-c387-465a-b6a8-f691229cdb6f","system_id":"levelo_inurba_marseille","lat":43.25119,"lon":5.40315,"is_reserved":false,"is_disabled":false,"rental_uris":{"android":"levelo://app?vid=15e3fb11-c387-465a-b6a8-f691229cdb6f","ios":"levelo://app?vid=15e3fb11-c387-465a-b6a8-f691229cdb6f"},"vehicle_type_id":"4","last_reported":1729030125,"current_range_meters":34800,"station_id":"ce4bhlh2rcd13ifvqgig","pricing_plan_id":"cebpf4jnsgd1na2vs0mg"},{"bike_id":"d0b06fe2-4e24-454b-8cab-da62e6dcc068","system_id":"levelo_inurba_marseille","lat":43.32287,"lon":5.3825,"is_reserved":false,"is_disabled":false,"rental_uris":{"android":"levelo://app?vid=d0b06fe2-4e24-454b-8cab-da62e6dcc068","ios":"levelo://app?vid=d0b06fe2-4e24-454b-8cab-da62e6dcc068"},"vehicle_type_id":"4","last_reported":1729030125,"current_range_meters":40000,"station_id":"ce4bhr12rcd13ifvqhqg","pricing_plan_id":"cebpf4jnsgd1na2vs0mg"},{"bike_id":"66e49dc0-3a3e-4c0c-bf8b-da161523671b","system_id":"levelo_inurba_marseille","lat":43.28731,"lon":5.36078,"is_reserved":false,"is_disabled":false,"rental_uris":{"android":"levelo://app?vid=66e49dc0-3a3e-4c0c-bf8b-da161523671b","ios":"levelo://app?vid=66e49dc0-3a3e-4c0c-bf8b-da161523671b"},"vehicle_type_id":"4","last_reported":1729030125,"current_range_meters":37600,"station_id":"cki0cbj6b192h4jlfktg","pricing_plan_id":"cebpf4jnsgd1na2vs0mg"},{"bike_id":"1b87c42d-7c50-4b92-8a66-53344aea6fcd","system_id":"levelo_inurba_marseille","lat":43.29893,"lon":5.43659,"is_reserved":false,"is_disabled":false,"rental_uris":{"android":"levelo://app?vid=1b87c42d-7c50-4b92-8a66-53344aea6fcd","ios":"levelo://app?vid=1b87c42d-7c50-4b92-8a66-53344aea6fcd"},"vehicle_type_id":"4","last_reported":1729030125,"current_range_meters":26000,"station_id":"ce4bhpp2rcd13ifvqhfg","pricing_plan_id":"cebpf4jnsgd1na2vs0mg"},{"bike_id":"9a852e4e-0457-4823-a127-11aa581add76","system_id":"levelo_inurba_marseille","lat":43.28365,"lon":5.40063,"is_reserved":false,"is_disabled":false,"rental_uris":{"android":"levelo://app?vid=9a852e4e-0457-4823-a127-11aa581add76","ios":"levelo://app?vid=9a852e4e-0457-4823-a127-11aa581add76"},"vehicle_type_id":"4","last_reported":1729030125,"current_range_meters":38800,"station_id":"","pricing_plan_id":"cebpf4jnsgd1na2vs0mg"},{"bike_id":"0e520a80-67e3-443c-b5a8-eb416db0d354","system_id":"levelo_inurba_marseille","lat":43.28711,"lon":5.37929,"is_reserved":false,"is_disabled":false,"rental_uris":{"android":"levelo://app?vid=0e520a80-67e3-443c-b5a8-eb416db0d354","ios":"levelo://app?vid=0e520a80-67e3-443c-b5a8-eb416db0d354"},"vehicle_type_id":"4","last_reported":1729030125,"current_range_meters":38800,"station_id":"ce4bh9p2rcd13ifvqec0","pricing_plan_id":"cebpf4jnsgd1na2vs0mg"},{"bike_id":"176c51f8-dbe6-4a14-9671-48f1da4ce89a","system_id":"levelo_inurba_marseille","lat":43.28032,"lon":5.36951,"is_reserved":false,"is_disabled":false,"rental_uris":{"android":"levelo://app?vid=176c51f8-dbe6-4a14-9671-48f1da4ce89a","ios":"levelo://app?vid=176c51f8-dbe6-4a14-9671-48f1da4ce89a"},"vehicle_type_id":"4","last_reported":1729030125,"current_range_meters":6800,"station_id":"ce4bha12rcd13ifvqef0","pricing_plan_id":"cebpf4jnsgd1na2vs0mg"},{"bike_id":"4451d1e2-5dd3-45d3-ab7e-2e9330f778cc","system_id":"levelo_inurba_marseille","lat":43.29274,"lon":5.40104,"is_reserved":false,"is_disabled":false,"rental_uris":{"android":"levelo://app?vid=4451d1e2-5dd3-45d3-ab7e-2e9330f778cc","ios":"levelo://app?vid=4451d1e2-5dd3-45d3-ab7e-2e9330f778cc"},"vehicle_type_id":"4","last_reported":1729030125,"current_range_meters":10000,"station_id":"ce4bh312rcd13ifvqdk0","pricing_plan_id":"cebpf4jnsgd1na2vs0mg"},{"bike_id":"24d35238-2fa7-4fd0-873f-edfdf1f33d95","system_id":"levelo_inurba_marseille","lat":43.31723,"lon":5.42364,"is_reserved":false,"is_disabled":false,"rental_uris":{"android":"levelo://app?vid=24d35238-2fa7-4fd0-873f-edfdf1f33d95","ios":"levelo://app?vid=24d35238-2fa7-4fd0-873f-edfdf1f33d95"},"vehicle_type_id":"4","last_reported":1729030125,"current_range_meters":40000,"station_id":"ce4bhp92rcd13ifvqhbg","pricing_plan_id":"cebpf4jnsgd1na2vs0mg"},{"bike_id":"018b3299-bac3-4e4f-8787-ed481b860dca","system_id":"levelo_inurba_marseille","lat":43.31172,"lon":5.38709,"is_reserved":false,"is_disabled":false,"rental_uris":{"android":"levelo://app?vid=018b3299-bac3-4e4f-8787-ed481b860dca","ios":"levelo://app?vid=018b3299-bac3-4e4f-8787-ed481b860dca"},"vehicle_type_id":"4","last_reported":1729030125,"current_range_meters":20000,"station_id":"ce4bgv12rcd13ifvqcp0","pricing_plan_id":"cebpf4jnsgd1na2vs0mg"},{"bike_id":"81377dd3-ebb4-48c5-8ba0-e485cc924052","system_id":"levelo_inurba_marseille","lat":43.27065,"lon":5.40259,"is_reserved":false,"is_disabled":false,"rental_uris":{"android":"levelo://app?vid=81377dd3-ebb4-48c5-8ba0-e485cc924052","ios":"levelo://app?vid=81377dd3-ebb4-48c5-8ba0-e485cc924052"},"vehicle_type_id":"4","last_reported":1729030125,"current_range_meters":14800,"station_id":"ce4bhk92rcd13ifvqgc0","pricing_plan_id":"cebpf4jnsgd1na2vs0mg"},{"bike_id":"5a63799a-d9e5-4d78-a2bb-4e19b7b89a7e","system_id":"levelo_inurba_marseille","lat":43.25577,"lon":5.38236,"is_reserved":false,"is_disabled":false,"rental_uris":{"android":"levelo://app?vid=5a63799a-d9e5-4d78-a2bb-4e19b7b89a7e","ios":"levelo://app?vid=5a63799a-d9e5-4d78-a2bb-4e19b7b89a7e"},"vehicle_type_id":"4","last_reported":1729030125,"current_range_meters":38000,"station_id":"ce4bhih2rcd13ifvqfs0","pricing_plan_id":"cebpf4jnsgd1na2vs0mg"},{"bike_id":"ec118f6a-fcc0-41a9-94fc-dd12b675b87d","system_id":"levelo_inurba_marseille","lat":43.31324,"lon":5.39694,"is_reserved":false,"is_disabled":false,"rental_uris":{"android":"levelo://app?vid=ec118f6a-fcc0-41a9-94fc-dd12b675b87d","ios":"levelo://app?vid=ec118f6a-fcc0-41a9-94fc-dd12b675b87d"},"vehicle_type_id":"4","last_reported":1729030125,"current_range_meters":39200,"station_id":"ce4bgvp2rcd13ifvqcu0","pricing_plan_id":"cebpf4jnsgd1na2vs0mg"},{"bike_id":"c94d3112-017a-46fc-86b5-6a58beef3113","system_id":"levelo_inurba_marseille","lat":43.31758,"lon":5.39015,"is_reserved":false,"is_disabled":false,"rental_uris":{"android":"levelo://app?vid=c94d3112-017a-46fc-86b5-6a58beef3113","ios":"levelo://app?vid=c94d3112-017a-46fc-86b5-6a58beef3113"},"vehicle_type_id":"4","last_reported":1729030125,"current_range_meters":38800,"station_id":"ce4bhqp2rcd13ifvqhng","pricing_plan_id":"cebpf4jnsgd1na2vs0mg"},