{"last_updated":1728914926,"ttl":60,"version":"2.2","data":{"bikes":[{"bike_id":"c91cca1d-bc4f-4d46-89fd-084a4dce297b","system_id":"levelo_inurba_marseille","lat":43.29799,"lon":5.38086,"is_reserved":false,"is_disabled":false,"rental_uris":{"android":"levelo://app?vid=c91cca1d-bc4f-4d46-89fd-084a4dce297b","ios":"levelo://app?vid=c91cca1d-bc4f-4d46-89fd-084a4dce297b"},"vehicle_type_id":"4","last_reported":1728914926,"current_range_meters":27600,"station_id":"ce4bgip2rcd13ifvqbb0","pricing_plan_id":"cebpf4jnsgd1na2vs0mg"},{"bike_id":"95785e29-d47c-4d9c-94b3-a7569b1462bb","system_id":"levelo_inurba_marseille","lat":43.262054,"lon":5.374451,"is_reserved":false,"is_disabled":false,"rental_uris":{"android":"levelo://app?vid=95785e29-d47c-4d9c-94b3-a7569b1462bb","ios":"levelo://app?vid=95785e29-d47c-4d9c-94b3-a7569b1462bb"},"vehicle_type_id":"4","last_reported":1728914926,"current_range_meters":22000,"station_id":"ce4bhgp2rcd13ifvqfc0","pricing_plan_id":"cebpf4jnsgd1na2vs0mg"},{"bike_id":"48f453ca-db24-4236-a439-6a536a793318","system_id":"levelo_inurba_marseille","lat":43.27568,"lon":5.38414,"is_reserved":false,"is_disabled":false,"rental_uris":{"android":"levelo://app?vid=48f453ca-db24-4236-a439-6a536a793318","ios":"levelo://app?vid=48f453ca-db24-4236-a439-6a536a793318"},"vehicle_type_id":"4","last_reported":1728914926,"current_range_meters":6800,"station_id":"ce4bhh92rcd13ifvqfi0","pricing_plan_id":"cebpf4jnsgd1na2vs0mg"},{"bike_id":"303efb17-6626-4717-a2f9-417272ba70d1","system_id":"levelo_inurba_marseille","lat":43.28359,"lon":5.38633,"is_reserved":false,"is_disabled":false,"rental_uris":{"android":"levelo://app?vid=303efb17-6626-4717-a2f9-417272ba70d1","ios":"levelo://app?vid=303efb17-6626-4717-a2f9-417272ba70d1"},"vehicle_type_id":"4","last_reported":1728914926,"current_range_meters":30800,"station_id":"ce4bh492rcd13ifvqdvg","pricing_plan_id":"cebpf4jnsgd1na2vs0mg"},{"bike_id":"8f74ab94-4f60-4e12-a0b0-e320a190cc5f","system_id":"levelo_inurba_marseille","lat":43.27571,"lon":5.38413,"is_reserved":false,"is_disabled":false,"rental_uris":{"android":"levelo://app?vid=8f74ab94-4f60-4e12-a0b0-e320a190cc5f","ios":"levelo://app?vid=8f74ab94-4f60-4e12-a0b0-e320a190cc5f"},"vehicle_type_id":"4","last_reported":1728914926,"current_range_meters":3600,"station_id":"ce4bhh92rcd13ifvqfi0","pricing_plan_id":"cebpf4jnsgd1na2vs0mg"},{"bike_id":"ce699b10-e77d-47a4-9d14-424098ae4885","system_id":"levelo_inurba_marseille","lat":43.27995,"lon":5.41666,"is_reserved":false,"is_disabled":false,"rental_uris":{"android":"levelo://app?vid=ce699b10-e77d-47a4-9d14-424098ae4885","ios":"levelo://app?vid=ce699b10-e77d-47a4-9d14-424098ae4885"},"vehicle_type_id":"4","last_reported":1728914926,"current_range_meters":29600,"station_id":"ce4bho12rcd13ifvqh1g","pricing_plan_id":"cebpf4jnsgd1na2vs0mg"},{"bike_id":"ab6eca58-8aaf-4927-b354-d50216b0f608","system_id":"levelo_inurba_marseille","lat":43.27993,"lon":5.41662,"is_reserved":false,"is_disabled":false,"rental_uris":{"android":"levelo://app?vid=ab6eca58-8aaf-4927-b354-d50216b0f608","ios":"levelo://app?vid=ab6eca58-8aaf-4927-b354-d50216b0f608"},"vehicle_type_id":"4","last_reported":1728914926,"current_range_meters":21600,"station_id":"ce4bho12rcd13ifvqh1g","pricing_plan_id":"cebpf4jnsgd1na2vs0mg"},{"bike_id":"a1b181c3-d637-48e8-943f-79d0278132aa","system_id":"levelo_inurba_marseille","lat":43.29275,"lon":5.36844,"is_reserved":false,"is_disabled":false,"rental_uris":{"android":"levelo://app?vid=a1b181c3-d637-48e8-943f-79d0278132aa","ios":"levelo://app?vid=a1b181c3-d637-48e8-943f-79d0278132aa"},"vehicle_type_id":"4","last_reported":1728914926,"current_range_meters":7200,"station_id":"ce4bhbp2rcd13ifvqesg","pricing_plan_id":"cebpf4jnsgd1na2vs0mg"},{"bike_id":"337f4929-9cdd-44b3-9cb5-d213dd2eed01","system_id":"levelo_inurba_marseille","lat":43.28152,"lon":5.42647,"is_reserved":false,"is_disabled":false,"rental_uris":{"android":"levelo://app?vid=337f4929-9cdd-44b3-9cb5-d213dd2eed01","ios":"levelo://app?vid=337f4929-9cdd-44b3-9cb5-d213dd2eed01"},"vehicle_type_id":"4","last_reported":1728914926,"current_range_meters":12400,"station_id":"ce4bhnh2rcd13ifvqgug","pricing_plan_id":"cebpf4jnsgd1na2vs0mg"},{"bike_id":"99bbb50b-8dee-4d7f-9c79-b39e732340a7","system_id":"levelo_inurba_marseille","lat":43.30418,"lon":5.41285,"is_reserved":false,"is_disabled":false,"rental_uris":{"android":"levelo://app?vid=99bbb50b-8dee-4d7f-9c79-b39e732340a7","ios":"levelo://app?vid=99bbb50b-8dee-4d7f-9c79-b39e732340a7"},"vehicle_type_id":"4","last_reported":1728914926,"current_range_meters":31200,"station_id":"ce4bhop2rcd13ifvqh8g","pricing_plan_id":"cebpf4jnsgd1na2vs0mg"},{"bike_id":"35fd0d03-06ff-4b46-9415-ecb65011872e","system_id":"levelo_inurba_marseille","lat":43.29797,"lon":5.38111,"is_reserved":false,"is_disabled":false,"rental_uris":{"android":"levelo://app?vid=35fd0d03-06ff-4b46-9415-ecb65011872e","ios":"levelo://app?vid=35fd0d03-06ff-4b46-9415-ecb65011872e"},"vehicle_type_id":"4","last_reported":1728914926,"current_range_meters":27200,"station_id":"ce4bgip2rcd13ifvqbb0","pricing_plan_id":"cebpf4jnsgd1na2vs0mg"},{"bike_id":"72847957-b91c-4739-a051-6dd0337137d9","system_id":"levelo_inurba_marseille","lat":43.29842,"lon":5.36276,"is_reserved":false,"is_disabled":false,"rental_uris":{"android":"levelo://app?vid=72847957-b91c-4739-a051-6dd0337137d9","ios":"levelo://app?vid=72847957-b91c-4739-a051-6dd0337137d9"},"vehicle_type_id":"4","last_reported":1728914926,"current_range_meters":25600,"station_id":"ce4bgpp2rcd13ifvqc3g","pricing_plan_id":"cebpf4jnsgd1na2vs0mg"},{"bike_id":"3da7f9d2-6299-4bd1-8ca3-8d7bf680c0f9","system_id":"levelo_inurba_marseille","lat":43.28667,"lon":5.36361,"is_reserved":false,"is_disabled":false,"rental_uris":{"android":"levelo://app?vid=3da7f9d2-6299-4bd1-8ca3-8d7bf680c0f9","ios":"levelo://app?vid=3da7f9d2-6299-4bd1-8ca3-8d7bf680c0f9"},"vehicle_type_id":"4","last_reported":1728914926,"current_range_meters":38800,"station_id":"ce4bhah2rcd13ifvqej0","pricing_plan_id":"cebpf4jnsgd1na2vs0mg"},{"bike_id":"7283940b-0fc6-46b0-b0e5-4ebb0ec2f23e","system_id":"levelo_inurba_marseille","lat":43.24663,"lon":5.38167,"is_reserved":false,"is_disabled":false,"rental_uris":{"android":"levelo://app?vid=7283940b-0fc6-46b0-b0e5-4ebb0ec2f23e","ios":"levelo://app?vid=7283940b-0fc6-46b0-b0e5-4ebb0ec2f23e"},"vehicle_type_id":"4","last_reported":1728914926,"current_range_meters":16000,"station_id":"ce4bhih2rcd13ifvqfr0","pricing_plan_id":"cebpf4jnsgd1na2vs0mg"},{"bike_id":"9a5f02e7-f2c0-4d66-9b29-b5537d018711","system_id":"levelo_inurba_marseille","lat":43.25819,"lon":5.39433,"is_reserved":false,"is_disabled":false,"rental_uris":{"android":"levelo://app?vid=9a5f02e7-f2c0-4d66-9b29-b5537d018711","ios":"levelo://app?vid=9a5f02e7-f2c0-4d66-9b29-b5537d018711"},"vehicle_type_id":"4","last_reported":1728914926,"current_range_meters":36800,"station_id":"ce4bhip2rcd13ifvqft0","pricing_plan_id":"cebpf4jnsgd1na2vs0mg"},{"bike_id":"e50744ec-6573-4d8d-8e61-afa7b3b35806","system_id":"levelo_inurba_marseille","lat":43.32654,"lon":5.40996,"is_reserved":false,"is_disabled":false,"rental_uris":{"android":"levelo://app?vid=e50744ec-6573-4d8d-8e61-afa7b3b35806","ios":"levelo://app?vid=e50744ec-6573-4d8d-8e61-afa7b3b35806"},"vehicle_type_id":"4","last_reported":1728914926,"current_range_meters":35200,"station_id":"ce4bhpp2rcd13ifvqhgg","pricing_plan_id":"cebpf4jnsgd1na2vs0mg"},{"bike_id":"1c9343e4-7b78-402e-b1fe-6599c269887e","system_id":"levelo_inurba_marseille","lat":43.314515,"lon":5.37384,"is_reserved":false,"is_disabled":false,"rental_uris":{"android":"levelo://app?vid=1c9343e4-7b78-402e-b1fe-6599c269887e","ios":"levelo://app?vid=1c9343e4-7b78-402e-b1fe-6599c269887e"},"vehicle_type_id":"4","last_reported":1728914926,"current_range_meters":27600,"station_id":"","pricing_plan_id":"cebpf4jnsgd1na2vs0mg"},{"bike_id":"68023172-0da4-40c1-b483-e2650c3b6738","system_id":"levelo_inurba_marseille","lat":43.25715,"lon":5.41116,"is_reserved":false,"is_disabled":false,"rental_uris":{"android":"levelo://app?vid=68023172-0da4-40c1-b483-e2650c3b6738","ios":"levelo://app?vid=68023172-0da4-40c1-b483-e2650c3b6738"},"vehicle_type_id":"4","last_reported":1728914926,"current_range_meters":4800,"station_id":"ce4bhkp2rcd13ifvqgd0","pricing_plan_id":"cebpf4jnsgd1na2vs0mg"},{"bike_id":"c82ba427-6650-49e4-ac87-a99c82a84bb4","system_id":"levelo_inurba_marseille","lat":43.3018,"lon":5.36605,"is_reserved":false,"is_disabled":false,"rental_uris":{"android":"levelo://app?vid=c82ba427-6650-49e4-ac87-a99c82a84bb4","ios":"levelo://app?vid=c82ba427-6650-49e4-ac87-a99c82a84bb4"},"vehicle_type_id":"4","last_reported":1728914926,"current_range_meters":39200,"station_id":"ce4bgrh2rcd13ifvqc8g","pricing_plan_id":"cebpf4jnsgd1na2vs0mg"},{"bike_id":"7fa2cdb2-f6bb-4d29-9011-9528209a8569","system_id":"levelo_inurba_marseille","lat":43.29974,"lon":5.37178,"is_reserved":false,"is_disabled":false,"rental_uris":{"android":"levelo://app?vid=7fa2cdb2-f6bb-4d29-9011-9528209a8569","ios":"levelo://app?vid=7fa2cdb2-f6bb-4d29-9011-9528209a8569"},"vehicle_type_id":"4","last_reported":1728914926,"current_range_meters":38800,"station_id":"ce4bgr92rcd13ifvqc7g","pricing_plan_id":"cebpf4jnsgd1na2vs0mg"},{"bike_id":"05c13f11-cb7a-454d-9399-b9513c3e5949","system_id":"levelo_inurba_marseille","lat":43.28154,"lon":5.42658,"is_reserved":false,"is_disabled":false,"rental_uris":{"android":"levelo://app?vid=05c13f11-cb7a-454d-9399-b9513c3e5949","ios":"levelo://app?vid=05c13f11-cb7a-454d-9399-b9513c3e5949"},"vehicle_type_id":"4","last_reported":1728914926,"current_range_meters":22400,"station_id":"ce4bhnh2rcd13ifvqgug","pricing_plan_id":"cebpf4jnsgd1na2vs0mg"},{"bike_id":"5009dd6a-456d-4cc3-8af5-e8afa6144086","system_id":"levelo_inurba_marseille","lat":43.33725,"lon":5.391875,"is_reserved":false,"is_disabled":false,"rental_uris":{"android":"levelo://app?vid=5009dd6a-456d-4cc3-8af5-e8afa6144086","ios":"levelo://app?vid=5009dd6a-456d-4cc3-8af5-e8afa6144086"},"vehicle_type_id":"4","last_reported":1728914926,"current_range_meters":28400,"station_id":"ce4bhr92rcd13ifvqhsg","pricing_plan_id":"cebpf4jnsgd1na2vs0mg"},{"bike_id":"28dc14f3-5507-4242-99be-0e7fec408fc2","system_id":"levelo_inurba_marseille","lat":43.31476,"lon":5.37302,"is_reserved":false,"is_disabled":false,"rental_uris":{"android":"levelo://app?vid=28dc14f3-5507-4242-99be-0e7fec408fc2","ios":"levelo://app?vid=28dc14f3-5507-4242-99be-0e7fec408fc2"},"vehicle_type_id":"4","last_reported":1728914926,"current_range_meters":10800,"station_id":"ce4bgt12rcd13ifvqcd0","pricing_plan_id":"cebpf4jnsgd1na2vs0mg"},{"bike_id":"e5e81cb2-5a31-44cd-ac8f-9a45f773b9b5","system_id":"levelo_inurba_marseille","lat":43.28612,"lon":5.37063,"is_reserved":false,"is_disabled":false,"rental_uris":{"android":"levelo://app?vid=e5e81cb2-5a31-44cd-ac8f-9a45f773b9b5","ios":"levelo://app?vid=e5e81cb2-5a31-44cd-ac8f-9a45f773b9b5"},"vehicle_type_id":"4","last_reported":1728914926,"current_range_meters":39200,"station_id":"ce4bht12rcd13ifvqi60","pricing_plan_id":"cebpf4jnsgd1na2vs0mg"},{"bike_id":"df19653b-e5e1-4adf-a49b-83f42b4a3c4e","system_id":"levelo_inurba_marseille","lat":43.28604,"lon":5.35101,"is_reserved":false,"is_disabled":false,"rental_uris":{"android":"levelo://app?vid=df19653b-e5e1-4adf-a49b-83f42b4a3c4e","ios":"levelo://app?vid=df19653b-e5e1-4adf-a49b-83f42b4a3c4e"},"vehicle_type_id":"4","last_reported":1728914926,"current_range_meters":28800,"station_id":"ce4bhch2rcd13ifvqeug","pricing_plan_id":"cebpf4jnsgd1na2vs0mg"},{"bike_id":"5fe20323-0016-4ce7-9d5f-2acc9cf04e86","system_id":"levelo_inurba_marseille","lat":43.31728,"lon":5.3713,"is_reserved":false,"is_disabled":false,"rental_uris":{"android":"levelo://app?vid=5fe20323-0016-4ce7-9d5f-2acc9cf04e86","ios":"levelo://app?vid=5fe20323-0016-4ce7-9d5f-2acc9cf04e86"},"vehicle_type_id":"4","last_reported":1728914926,"current_range_meters":33200,"station_id":"","pricing_plan_id":"cebpf4jnsgd1na2vs0mg"},{"bike_id":"969cfeb2-178b-4d82-8b59-635595546a6c","system_id":"levelo_inurba_marseille","lat":43.28993,"lon":5.356,"is_reserved":false,"is_disabled":false,"rental_uris":{"android":"levelo://app?vid=969cfeb2-178b-4d82-8b59-635595546a6c","ios":"levelo://app?vid=969cfeb2-178b-4d82-8b59-635595546a6c"},"vehicle_type_id":"4","last_reported":1728914926,"current_range_meters":38800,"station_id":"","pricing_plan_id":"cebpf4jnsgd1na2vs0mg"},{"bike_id":"16a04acf-f9cc-4dae-9811-1a95980eddf7","system_id":"levelo_inurba_marseille","lat":43.30331,"lon":5.40443,"is_reserved":false,"is_disabled":false,"rental_uris":{"android":"levelo://app?vid=16a04acf-f9cc-4dae-9811-1a95980eddf7","ios":"levelo://app?vid=16a04acf-f9cc-4dae-9811-1a95980eddf7"},"vehicle_type_id":"4","last_reported":1728914926,"current_range_meters":36400,"station_id":"ce4bh012rcd13ifvqd10","pricing_plan_id":"cebpf4jnsgd1na2vs0mg"},{"bike_id":"4a5939c9-d97b-474f-8594-77a16be1c688","system_id":"levelo_inurba_marseille","lat":43.25,"lon":5.38933,"is_reserved":false,"is_disabled":false,"rental_uris":{"android":"levelo://app?vid=4a5939c9-d97b-474f-8594-77a16be1c688","ios":"levelo://app?vid=4a5939c9-d97b-474f-8594-77a16be1c688"},"vehicle_type_id":"4","last_reported":1728914926,"current_range_meters":32800,"station_id":"ce4bhgp2rcd13ifvqfd0","pricing_plan_id":"cebpf4jnsgd1na2vs0mg"},{"bike_id":"c355a965-9dd0-4b07-b983-3618ea069bbb","system_id":"levelo_inurba_marseille","lat":43.24388,"lon":5.37052,"is_reserved":false,"is_disabled":false,"rental_uris":{"android":"levelo://app?vid=c355a965-9dd0-4b07-b983-3618ea069bbb","ios":"levelo://app?vid=c355a965-9dd0-4b07-b983-3618ea069bbb"},"vehicle_type_id":"4","last_reported":1728914926,"current_range_meters":30000,"station_id":"ce4bhhh2rcd13ifvqfk0","pricing_plan_id":"cebpf4jnsgd1na2vs0mg"},{"bike_id":"793fea5e-2bce-43b7-b894-f22b97c60c5d","system_id":"levelo_inurba_marseille","lat":43.28074,"lon":5.38854,"is_reserved":false,"is_disabled":false,"rental_uris":{"android":"levelo://app?vid=793fea5e-2bce-43b7-b894-f22b97c60c5d","ios":"levelo://app?vid=793fea5e-2bce-43b7-b894-f22b97c60c5d"},"vehicle_type_id":"4","last_reported":1728914926,"current_range_meters":8400,"station_id":"","pricing_plan_id":"cebpf4jnsgd1na2vs0mg"},{"bike_id":"151f06ed-3f2d-47f8-a489-f077727a2cc6","system_id":"levelo_inurba_marseille","lat":43.29591,"lon":5.38104,"is_reserved":false,"is_disabled":false,"rental_uris":{"android":"levelo://app?vid=151f06ed-3f2d-47f8-a489-f077727a2cc6","ios":"levelo://app?vid=151f06ed-3f2d-47f8-a489-f077727a2cc6"},"vehicle_type_id":"4","last_reported":1728914926,"current_range_meters":38800,"station_id":"ce4bgl12rcd13ifvqbo0","pricing_plan_id":"cebpf4jnsgd1na2vs0mg"},{"bike_id":"92fe93a6-c0d9-43c8-b658-76e2cd0be64e","system_id":"levelo_inurba_marseille","lat":43.30327,"lon":5.4044,"is_reserved":false,"is_disabled":false,"rental_uris":{"android":"levelo://app?vid=92fe93a6-c0d9-43c8-b658-76e2cd0be64e","ios":"levelo://app?vid=92fe93a6-c0d9-43c8-b658-76e2cd0be64e"},"vehicle_type_id":"4","last_reported":1728914926,"current_range_meters":9200,"station_id":"ce4bh012rcd13ifvqd10","pricing_plan_id":"cebpf4jnsgd1na2vs0mg"},{"bike_id":"51a43f96-867e-4ab9-8ec5-999842e38d95","system_id":"levelo_inurba_marseille","lat":43.31062,"lon":5.40095,"is_reserved":false,"is_disabled":false,"rental_uris":{"android":"levelo://app?vid=51a43f96-867e-4ab9-8ec5-999842e38d95","ios":"levelo://app?vid=51a43f96-867e-4ab9-8ec5-999842e38d95"},"vehicle_type_id":"4","last_reported":1728914926,"current_range_meters":25200,"station_id":"","pricing_plan_id":"cebpf4jnsgd1na2vs0mg"},{"bike_id":"8e8a6ebf-9485-47ee-b1c3-50ab3ea9e698","system_id":"levelo_inurba_marseille","lat":43.30467,"lon":5.37914,"is_reserved":false,"is_disabled":false,"rental_uris":{"android":"levelo://app?vid=8e8a6ebf-9485-47ee-b1c3-50ab3ea9e698","ios":"levelo://app?vid=8e8a6ebf-9485-47ee-b1c3-50ab3ea9e698"},"vehicle_type_id":"4","last_reported":1728914926,"current_range_meters":36000,"station_id":"ce4bgup2rcd13ifvqcn0","pricing_plan_id":"cebpf4jnsgd1na2vs0mg"},{"bike_id":"7fc43cba-fdb7-4ab0-9883-d67852ce743b","system_id":"levelo_inurba_marseille","lat":43.32478,"lon":5.36553,"is_reserved":false,"is_disabled":false,"rental_uris":{"android":"levelo://app?vid=7fc43cba-fdb7-4ab0-9883-d67852ce743b","ios":"levelo://app?vid=7fc43cba-fdb7-4ab0-9883-d67852ce743b"},"vehicle_type_id":"4","last_reported":1728914926,"current_range_meters":12800,"station_id":"ce4bhs12rcd13ifvqhvg","pricing_plan_id":"cebpf4jnsgd1na2vs0mg"},{"bike_id":"90ac7f48-a5ab-4b94-a632-9e30e651f61e","system_id":"levelo_inurba_marseille","lat":43.314817,"lon":5.373055,"is_reserved":false,"is_disabled":false,"rental_uris":{"android":"levelo://app?vid=90ac7f48-a5ab-4b94-a632-9e30e651f61e","ios":"levelo://app?vid=90ac7f48-a5ab-4b94-a632-9e30e651f61e"},"vehicle_type_id":"4","last_reported":1728914926,"current_range_meters":16800,"station_id":"ce4bgt12rcd13ifvqcd0","pricing_plan_id":"cebpf4jnsgd1na2vs0mg"},{"bike_id":"07a0f3e7-7d0d-4fb4-99a7-9be90dfc2a0e","system_id":"levelo_inurba_marseille","lat":43.31169,"lon":5.38713,"is_reserved":false,"is_disabled":false,"rental_uris":{"android":"levelo://app?vid=07a0f3e7-7d0d-4fb4-99a7-9be90dfc2a0e","ios":"levelo://app?vid=07a0f3e7-7d0d-4fb4-99a7-9be90dfc2a0e"},"vehicle_type_id":"4","last_reported":1728914926,"current_range_meters":4800,"station_id":"ce4bgv12rcd13ifvqcp0","pricing_plan_id":"cebpf4jnsgd1na2vs0mg"},{"bike_id":"22a96efd-39c4-4912-a6a0-80515b1ce0d5","system_id":"levelo_inurba_marseille","lat":43.2757,"lon":5.38411,"is_reserved":false,"is_disabled":false,"rental_uris":{"android":"levelo://app?vid=22a96efd-39c4-4912-a6a0-80515b1ce0d5","ios":"levelo://app?vid=22a96efd-39c4-4912-a6a0-80515b1ce0d5"},"vehicle_type_id":"4","last_reported":1728914926,"current_range_meters":12800,"station_id":"ce4bhh92rcd13ifvqfi0","pricing_plan_id":"cebpf4jnsgd1na2vs0mg"},{"bike_id":"d8d27750-cf44-4386-8009-8d56c70bfc53","system_id":"levelo_inurba_marseille","lat":43.29795,"lon":5.38079,"is_reserved":false,"is_disabled":false,"rental_uris":{"android":"levelo://app?vid=d8d27750-cf44-4386-8009-8d56c70bfc53","ios":"levelo://app?vid=d8d27750-cf44-4386-8009-8d56c70bfc53"},"vehicle_type_id":"4","last_reported":1728914926,"current_range_meters":38800,"station_id":"ce4bgip2rcd13ifvqbb0","pricing_plan_id":"cebpf4jnsgd1na2vs0mg"},{"bike_id":"09a2e575-ef21-47f1-afdd-66b4617de5a0","system_id":"levelo_inurba_marseille","lat":43.280855,"lon":5.396856,"is_reserved":false,"is_disabled":false,"rental_uris":{"android":"levelo://app?vid=09a2e575-ef21-47f1-afdd-66b4617de5a0","ios":"levelo://app?vid=09a2e575-ef21-47f1-afdd-66b4617de5a0"},"vehicle_type_id":"4","last_reported":1728914926,"current_range_meters":32800,"station_id":"ce4bho12rcd13ifvqh2g","pricing_plan_id":"cebpf4jnsgd1na2vs0mg"},{"bike_id":"6d237f38-4529-4b09-8fa2-00b6edb6a06d","system_id":"levelo_inurba_marseille","lat":43.30434,"lon":5.39746,"is_reserved":false,"is_disabled":false,"rental_uris":{"android":"levelo://app?vid=6d237f38-4529-4b09-8fa2-00b6edb6a06d","ios":"levelo://app?vid=6d237f38-4529-4b09-8fa2-00b6edb6a06d"},"vehicle_type_id":"4","last_reported":1728914926,"current_range_meters":17200,"station_id":"ce4bh092rcd13ifvqd20","pricing_plan_id":"cebpf4jnsgd1na2vs0mg"},{"bike_id":"4482dbd3-0d31-4b43-bbd3-5cfbb130291d","system_id":"levelo_inurba_marseille","lat":43.23179,"lon":5.35537,"is_reserved":false,"is_disabled":false,"rental_uris":{"android":"levelo://app?vid=4482dbd3-0d31-4b43-bbd3-5cfbb130291d","ios":"levelo://app?vid=4482dbd3-0d31-4b43-bbd3-5cfbb130291d"},"vehicle_type_id":"4","last_reported":1728914926,"current_range_meters":5600,"station_id":"ce4bhu92rcd13ifvqi70","pricing_plan_id":"cebpf4jnsgd1na2vs0mg"},{"bike_id":"6b17eb88-eb4b-4e99-b498-976febb60eca","system_id":"levelo_inurba_marseille","lat":43.28699,"lon":5.39977,"is_reserved":false,"is_disabled":false,"rental_uris":{"android":"levelo://app?vid=6b17eb88-eb4b-4e99-b498-976febb60eca","ios":"levelo://app?vid=6b17eb88-eb4b-4e99-b498-976febb60eca"},"vehicle_type_id":"4","last_reported":1728914926,"current_range_meters":28400,"station_id":"ce4bho92rcd13ifvqh3g","pricing_plan_id":"cebpf4jnsgd1na2vs0mg"},{"bike_id":"8c5383e1-64e4-46b3-9bd5-0c793f8de58e","system_id":"levelo_inurba_marseille","lat":43.3127,"lon":5.40165,"is_reserved":false,"is_disabled":false,"rental_uris":{"android":"levelo://app?vid=8c5383e1-64e4-46b3-9bd5-0c793f8de58e","ios":"levelo://app?vid=8c5383e1-64e4-46b3-9bd5-0c793f8de58e"},"vehicle_type_id":"4","last_reported":1728914926,"current_range_meters":8000,"station_id":"ce4bh092rcd13ifvqd30","pricing_plan_id":"cebpf4jnsgd1na2vs0mg"},{"bike_id":"5a6fd978-a1d1-40a3-a294-ae48efed4672","system_id":"levelo_inurba_marseille","lat":43.24162,"lon":5.36392,"is_reserved":false,"is_disabled":false,"rental_uris":{"android":"levelo://app?vid=5a6fd978-a1d1-40a3-a294-ae48efed4672","ios":"levelo://app?vid=5a6fd978-a1d1-40a3-a294-ae48efed4672"},"vehicle_type_id":"4","last_reported":1728914926,"current_range_meters":38800,"station_id":"cpo36qri1sfpv3e86is0","pricing_plan_id":"cebpf4jnsgd1na2vs0mg"},{"bike_id":"6ddabe83-c1d2-4cb3-9c99-bf36e6d9dae3","system_id":"levelo_inurba_marseille","lat":43.27957,"lon":5.38712,"is_reserved":false,"is_disabled":false,"rental_uris":{"android":"levelo://app?vid=6ddabe83-c1d2-4cb3-9c99-bf36e6d9dae3","ios":"levelo://app?vid=6ddabe83-c1d2-4cb3-9c99-bf36e6d9dae3"},"vehicle_type_id":"4","last_reported":1728914926,"current_range_meters":35200,"station_id":"ce4bhg12rcd13ifvqf80","pricing_plan_id":"cebpf4jnsgd1na2vs0mg"},{"bike_id":"35d1ca95-9089-45e2-ab61-ae2a6a5a2d86","system_id":"levelo_inurba_marseille","lat":43.296,"lon":5.381,"is_reserved":false,"is_disabled":false,"rental_uris":{"android":"levelo://app?vid=35d1ca95-9089-45e2-ab61-ae2a6a5a2d86","ios":"levelo://app?vid=35d1ca95-9089-45e2-ab61-ae2a6a5a2d86"},"vehicle_type_id":"4","last_reported":1728914926,"current_range_meters":4800,"station_id":"ce4bgl12rcd13ifvqbo0","pricing_plan_id":"cebpf4jnsgd1na2vs0mg"},{"bike_id":"b178b062-35cd-4f92-91db-f4ae171fe0ea","system_id":"levelo_inurba_marseille","lat":43.292851,"lon":5.368404,"is_reserved":false,"is_disabled":false,"rental_uris":{"android":"levelo://app?vid=b178b062-35cd-4f92-91db-f4ae171fe0ea","ios":"levelo://app?vid=b178b062-35cd-4f92-91db-f4ae171fe0ea"},"vehicle_type_id":"4","last_reported":1728914926,"current_range_meters":14400,"station_id":"","pricing_plan_id":"cebpf4jnsgd1na2vs0mg"},{"bike_id":"63346ca8-47d7-49c0-b506-a43ebef1174f","system_id":"levelo_inurba_marseille","lat":43.29021,"lon":5.38631,"is_reserved":false,"is_disabled":false,"rental_uris":{"android":"levelo://app?vid=63346ca8-47d7-49c0-b506-a43ebef1174f","ios":"levelo://app?vid=63346ca8-47d7-49c0-b506-a43ebef1174f"},"vehicle_type_id":"4","last_reported":1728914926,"current_range_meters":6400,"station_id":"ce4bh4p2rcd13ifvqe0g","pricing_plan_id":"cebpf4jnsgd1na2vs0mg"},{"bike_id":"b17bd6a0-4c14-4c8c-96d0-fdc1bec84ba5","system_id":"levelo_inurba_marseille","lat":43.31062,"lon":5.38351,"is_reserved":false,"is_disabled":false,"rental_uris":{"android":"levelo://app?vid=b17bd6a0-4c14-4c8c-96d0-fdc1bec84ba5","ios":"levelo://app?vid=b17bd6a0-4c14-4c8c-96d0-fdc1bec84ba5"},"vehicle_type_id":"4","last_reported":1728914926,"current_range_meters":13600,"station_id":"ce4bgv92rcd13ifvqcr0","pricing_plan_id":"cebpf4jnsgd1na2vs0mg"},{"bike_id":"a0004b86-0108-4a59-8420-8474f739e195","system_id":"levelo_inurba_marseille","lat":43.31758,"lon":5.39012,"is_reserved":false,"is_disabled":false,"rental_uris":{"android":"levelo://app?vid=a0004b86-0108-4a59-8420-8474f739e195","ios":"levelo://app?vid=a0004b86-0108-4a59-8420-8474f739e195"},"vehicle_type_id":"4","last_reported":1728914926,"current_range_meters":38000,"station_id":"ce4bhqp2rcd13ifvqhng","pricing_plan_id":"cebpf4jnsgd1na2vs0mg"},{"bike_id":"c0670d96-b06e-446b-a07e-6b5eeebc59d7","system_id":"levelo_inurba_marseille","lat":43.274948,"lon":5.424466,"is_reserved":false,"is_disabled":false,"rental_uris":{"android":"levelo://app?vid=c0670d96-b06e-446b-a07e-6b5eeebc59d7","ios":"levelo://app?vid=c0670d96-b06e-446b-a07e-6b5eeebc59d7"},"vehicle_type_id":"4","last_reported":1728914926,"current_range_meters":16400,"station_id":"ce4bhn92rcd13ifvqgrg","pricing_plan_id":"cebpf4jnsgd1na2vs0mg"},{"bike_id":"ab3473cd-c013-4e72-a3c7-a1b5e97417c2","system_id":"levelo_inurba_marseille","lat":43.29565,"lon":5.37524,"is_reserved":false,"is_disabled":false,"rental_uris":{"android":"levelo://app?vid=ab3473cd-c013-4e72-a3c7-a1b5e97417c2","ios":"levelo://app?vid=ab3473cd-c013-4e72-a3c7-a1b5e97417c2"},"vehicle_type_id":"4","last_reported":1728914926,"current_range_meters":33200,"station_id":"ce4bgh92rcd13ifvqb50","pricing_plan_id":"cebpf4jnsgd1na2vs0mg"},{"bike_id":"cc160756-c5be-47df-8986-85e756db12d6","system_id":"levelo_inurba_marseille","lat":43.29647,"lon":5.37258,"is_reserved":false,"is_disabled":false,"rental_uris":{"android":"levelo://app?vid=cc160756-c5be-47df-8986-85e756db12d6","ios":"levelo://app?vid=cc160756-c5be-47df-8986-85e756db12d6"},"vehicle_type_id":"4","last_reported":1728914926,"current_range_meters":10000,"station_id":"ce4bgk12rcd13ifvqbj0","pricing_plan_id":"cebpf4jnsgd1na2vs0mg"},{"bike_id":"5427fc69-c1d6-4ea4-b1f4-ac67770aa2b9","system_id":"levelo_inurba_marseille","lat":43.30955,"lon":5.39034,"is_reserved":false,"is_disabled":false,"rental_uris":{"android":"levelo://app?vid=5427fc69-c1d6-4ea4-b1f4-ac67770aa2b9","ios":"levelo://app?vid=5427fc69-c1d6-4ea4-b1f4-ac67770aa2b9"},"vehicle_type_id":"4","last_reported":1728914926,"current_range_meters":38800,"station_id":"ce4bgup2rcd13ifvqco0","pricing_plan_id":"cebpf4jnsgd1na2vs0mg"},{"bike_id":"61f4ae0b-dc19-4b1b-9d53-4fe07e8abc83","system_id":"levelo_inurba_marseille","lat":43.31364,"lon":5.38491,"is_reserved":false,"is_disabled":false,"rental_uris":{"android":"levelo://app?vid=61f4ae0b-dc19-4b1b-9d53-4fe07e8abc83","ios":"levelo://app?vid=61f4ae0b-dc19-4b1b-9d53-4fe07e8abc83"},"vehicle_type_id":"4","last_reported":1728914926,"current_range_meters":20000,"station_id":"ce4bgt92rcd13ifvqcf0","pricing_plan_id":"cebpf4jnsgd1na2vs0mg"},{"bike_id":"a0d3d324-fa7e-4417-aee7-85012ecab44e","system_id":"levelo_inurba_marseille","lat":43.34222,"lon":5.44577,"is_reserved":false,"is_disabled":false,"rental_uris":{"android":"levelo://app?vid=a0d3d324-fa7e-4417-aee7-85012ecab44e","ios":"levelo://app?vid=a0d3d324-fa7e-4417-aee7-85012ecab44e"},"vehicle_type_id":"4","last_reported":1728914926,"current_range_meters":28000,"station_id":"","pricing_plan_id":"cebpf4jnsgd1na2vs0mg"},{"bike_id":"da49a55c-885d-42f6-b03c-927d7ca58a3f","system_id":"levelo_inurba_marseille","lat":43.30098,"lon":5.36879,"is_reserved":false,"is_disabled":false,"rental_uris":{"android":"levelo://app?vid=da49a55c-885d-42f6-b03c-927d7ca58a3f","ios":"levelo://app?vid=da49a55c-885d-42f6-b03c-927d7ca58a3f"},"vehicle_type_id":"4","last_reported":1728914926,"current_range_meters":25600,"station_id":"ce4bgr92rcd13ifvqc7g","pricing_plan_id":"cebpf4jnsgd1na2vs0mg"},{"bike_id":"2b7e1507-3293-42c7-b21e-b79470cff341","system_id":"levelo_inurba_marseille","lat":43.23147,"lon":5.43694,"is_reserved":false,"is_disabled":false,"rental_uris":{"android":"levelo://app?vid=2b7e1507-3293-42c7-b21e-b79470cff341","ios":"levelo://app?vid=2b7e1507-3293-42c7-b21e-b79470cff341"},"vehicle_type_id":"4","last_reported":1728914926,"current_range_meters":38800,"station_id":"ce4bhmp2rcd13ifvqgog","pricing_plan_id":"cebpf4jnsgd1na2vs0mg"},{"bike_id":"3a6440f7-d8d6-444b-bcb5-c18d16425ed6","system_id":"levelo_inurba_marseille","lat":43.32099,"lon":5.36783,"is_reserved":false,"is_disabled":false,"rental_uris":{"android":"levelo://app?vid=3a6440f7-d8d6-444b-bcb5-c18d16425ed6","ios":"levelo://app?vid=3a6440f7-d8d6-444b-bcb5-c18d16425ed6"},"vehicle_type_id":"4","last_reported":1728914926,"current_range_meters":38800,"station_id":"ce4bhrh2rcd13ifvqhug","pricing_plan_id":"cebpf4jnsgd1na2vs0mg"},{"bike_id":"382c089c-cb86-4d8c-8dd1-b725cc804514","system_id":"levelo_inurba_marseille","lat":43.29797,"lon":5.38084,"is_reserved":false,"is_disabled":false,"rental_uris":{"android":"levelo://app?vid=382c089c-cb86-4d8c-8dd1-b725cc804514","ios":"levelo://app?vid=382c089c-cb86-4d8c-8dd1-b725cc804514"},"vehicle_type_id":"4","last_reported":1728914926,"current_range_meters":39200,"station_id":"ce4bgip2rcd13ifvqbb0","pricing_plan_id":"cebpf4jnsgd1na2vs0mg"},{"bike_id":"52272774-4ba5-4bdc-9542-4bf676333bb7","system_id":"levelo_inurba_marseille","lat":43.30524,"lon":5.36688,"is_reserved":false,"is_disabled":false,"rental_uris":{"android":"levelo://app?vid=52272774-4ba5-4bdc-9542-4bf676333bb7","ios":"levelo://app?vid=52272774-4ba5-4bdc-9542-4bf676333bb7"},"vehicle_type_id":"4","last_reported":1728914926,"current_range_meters":39200,"station_id":"ce4bgrp2rcd13ifvqc9g","pricing_plan_id":"cebpf4jnsgd1na2vs0mg"},{"bike_id":"c389edc9-9992-4c2e-857b-eebd3d66f1ac","system_id":"levelo_inurba_marseille","lat":43.29845,"lon":5.36289,"is_reserved":false,"is_disabled":false,"rental_uris":{"android":"levelo://app?vid=c389edc9-9992-4c2e-857b-eebd3d66f1ac","ios":"levelo://app?vid=c389edc9-9992-4c2e-857b-eebd3d66f1ac"},"vehicle_type_id":"4","last_reported":1728914926,"current_range_meters":38800,"station_id":"ce4bgpp2rcd13ifvqc3g","pricing_plan_id":"cebpf4jnsgd1na2vs0mg"},{"bike_id":"65f620f2-29cf-4b4a-bb60-8d940c0cc756","system_id":"levelo_inurba_marseille","lat":43.30535,"lon":5.36535,"is_reserved":false,"is_disabled":false,"rental_uris":{"android":"levelo://app?vid=65f620f2-29cf-4b4a-bb60-8d940c0cc756","ios":"levelo://app?vid=65f620f2-29cf-4b4a-bb60-8d940c0cc756"},"vehicle_type_id":"4","last_reported":1728914926,"current_range_meters":12800,"station_id":"ce4bgs12rcd13ifvqcag","pricing_plan_id":"cebpf4jnsgd1na2vs0mg"},{"bike_id":"8f3a9769-3381-42c8-8c2e-6e66bc54896f","system_id":"levelo_inurba_marseille","lat":43.29974,"lon":5.37176,"is_reserved":false,"is_disabled":false,"rental_uris":{"android":"levelo://app?vid=8f3a9769-3381-42c8-8c2e-6e66bc54896f","ios":"levelo://app?vid=8f3a9769-3381-42c8-8c2e-6e66bc54896f"},"vehicle_type_id":"4","last_reported":1728914926,"current_range_meters":14000,"station_id":"ce4bgr92rcd13ifvqc7g","pricing_plan_id":"cebpf4jnsgd1na2vs0mg"},{"bike_id":"87ec02bc-b072-43c0-b8e3-d31c77ee93b2","system_id":"levelo_inurba_marseille","lat":43.29625,"lon":5.37717,"is_reserved":false,"is_disabled":false,"rental_uris":{"android":"levelo://app?vid=87ec02bc-b072-43c0-b8e3-d31c77ee93b2","ios":"levelo://app?vid=87ec02bc-b072-43c0-b8e3-d31c77ee93b2"},"vehicle_type_id":"4","last_reported":1728914926,"current_range_meters":26800,"station_id":"ce4bgi92rcd13ifvqb90","pricing_plan_id":"cebpf4jnsgd1na2vs0mg"},{"bike_id":"83c29142-170a-4ab1-9656-c74d85375df5","system_id":"levelo_inurba_marseille","lat":43.23146,"lon":5.43707,"is_reserved":false,"is_disabled":false,"rental_uris":{"android":"levelo://app?vid=83c29142-170a-4ab1-9656-c74d85375df5","ios":"levelo://app?vid=83c29142-170a-4ab1-9656-c74d85375df5"},"vehicle_type_id":"4","last_reported":1728914926,"current_range_meters":38800,"station_id":"ce4bhmp2rcd13ifvqgog","pricing_plan_id":"cebpf4jnsgd1na2vs0mg"},{"bike_id":"3afb0681-8fbd-47fe-8917-e12bc3cf488b","system_id":"levelo_inurba_marseille","lat":43.33714,"lon":5.39182,"is_reserved":false,"is_disabled":false,"rental_uris":{"android":"levelo://app?vid=3afb0681-8fbd-47fe-8917-e12bc3cf488b","ios":"levelo://app?vid=3afb0681-8fbd-47fe-8917-e12bc3cf488b"},"vehicle_type_id":"4","last_reported":1728914926,"current_range_meters":38800,"station_id":"ce4bhr92rcd13ifvqhsg","pricing_plan_id":"cebpf4jnsgd1na2vs0mg"},{"bike_id":"025048a1-1d87-4678-a467-42cb27858e40","system_id":"levelo_inurba_marseille","lat":43.30529,"lon":5.36701,"is_reserved":false,"is_disabled":false,"rental_uris":{"android":"levelo://app?vid=025048a1-1d87-4678-a467-42cb27858e40","ios":"levelo://app?vid=025048a1-1d87-4678-a467-42cb27858e40"},"vehicle_type_id":"4","last_reported":1728914926,"current_range_meters":38800,"station_id":"ce4bgrp2rcd13ifvqc9g","pricing_plan_id":"cebpf4jnsgd1na2vs0mg"},{"bike_id":"6d3d62d7-f590-4302-845b-0f5067d62164","system_id":"levelo_inurba_marseille","lat":43.29511,"lon":5.394,"is_reserved":false,"is_disabled":false,"rental_uris":{"android":"levelo://app?vid=6d3d62d7-f590-4302-845b-0f5067d62164","ios":"levelo://app?vid=6d3d62d7-f590-4302-845b-0f5067d62164"},"vehicle_type_id":"4","last_reported":1728914926,"current_range_meters":15200,"station_id":"ce4bh292rcd13ifvqdf0","pricing_plan_id":"cebpf4jnsgd1na2vs0mg"},{"bike_id":"b65b7dde-847a-4df1-a722-62732b99ed37","system_id":"levelo_inurba_marseille","lat":43.291107,"lon":5.381897,"is_reserved":false,"is_disabled":false,"rental_uris":{"android":"levelo://app?vid=b65b7dde-847a-4df1-a722-62732b99ed37","ios":"levelo://app?vid=b65b7dde-847a-4df1-a722-62732b99ed37"},"vehicle_type_id":"4","last_reported":1728914926,"current_range_meters":29600,"station_id":"ce4bh512rcd13ifvqe2g","pricing_plan_id":"cebpf4jnsgd1na2vs0mg"},{"bike_id":"b3e5817f-6e73-4f35-b2b9-9b1057cb6558","system_id":"levelo_inurba_marseille","lat":43.29033,"lon":5.39964,"is_reserved":false,"is_disabled":false,"rental_uris":{"android":"levelo://app?vid=b3e5817f-6e73-4f35-b2b9-9b1057cb6558","ios":"levelo://app?vid=b3e5817f-6e73-4f35-b2b9-9b1057cb6558"},"vehicle_type_id":"4","last_reported":1728914926,"current_range_meters":11200,"station_id":"ce4bh392rcd13ifvqdm0","pricing_plan_id":"cebpf4jnsgd1na2vs0mg"},{"bike_id":"9e28eef6-65d5-45f3-949e-f408b00a230d","system_id":"levelo_inurba_marseille","lat":43.29016,"lon":5.38637,"is_reserved":false,"is_disabled":false,"rental_uris":{"android":"levelo://app?vid=9e28eef6-65d5-45f3-949e-f408b00a230d","ios":"levelo://app?vid=9e28eef6-65d5-45f3-949e-f408b00a230d"},"vehicle_type_id":"4","last_reported":1728914926,"current_range_meters":3200,"station_id":"ce4bh4p2rcd13ifvqe0g","pricing_plan_id":"cebpf4jnsgd1na2vs0mg"},{"bike_id":"ebc29e8e-a5cd-4c41-ae7c-f77a08fdcdde","system_id":"levelo_inurba_marseille","lat":43.30518,"lon":5.36519,"is_reserved":false,"is_disabled":false,"rental_uris":{"android":"levelo://app?vid=ebc29e8e-a5cd-4c41-ae7c-f77a08fdcdde","ios":"levelo://app?vid=ebc29e8e-a5cd-4c41-ae7c-f77a08fdcdde"},"vehicle_type_id":"4","last_reported":1728914926,"current_range_meters":34000,"station_id":"","pricing_plan_id":"cebpf4jnsgd1na2vs0mg"},{"bike_id":"0414a6f3-3a4f-43b9-8c1f-b9716e2b2116","system_id":"levelo_inurba_marseille","lat":43.2396,"lon":5.36639,"is_reserved":false,"is_disabled":false,"rental_uris":{"android":"levelo://app?vid=0414a6f3-3a4f-43b9-8c1f-b9716e2b2116","ios":"levelo://app?vid=0414a6f3-3a4f-43b9-8c1f-b9716e2b2116"},"vehicle_type_id":"4","last_reported":1728914926,"current_range_meters":38800,"station_id":"ce4bhi12rcd13ifvqfp0","pricing_plan_id":"cebpf4jnsgd1na2vs0mg"},{"bike_id":"69865d35-9015-4f0b-ba17-045bf17a9e77","system_id":"levelo_inurba_marseille","lat":43.26054,"lon":5.39387,"is_reserved":false,"is_disabled":false,"rental_uris":{"android":"levelo://app?vid=69865d35-9015-4f0b-ba17-045bf17a9e77","ios":"levelo://app?vid=69865d35-9015-4f0b-ba17-045bf17a9e77"},"vehicle_type_id":"4","last_reported":1728914926,"current_range_meters":23200,"station_id":"ce4bhh92rcd13ifvqfj0","pricing_plan_id":"cebpf4jnsgd1na2vs0mg"},{"bike_id":"a9312b9a-4690-45ee-8337-72a284d1f003","system_id":"levelo_inurba_marseille","lat":43.29956,"lon":5.38498,"is_reserved":false,"is_disabled":false,"rental_uris":{"android":"levelo://app?vid=a9312b9a-4690-45ee-8337-72a284d1f003","ios":"levelo://app?vid=a9312b9a-4690-45ee-8337-72a284d1f003"},"vehicle_type_id":"4","last_reported":1728914926,"current_range_meters":38000,"station_id":"ce4bgj92rcd13ifvqbd0","pricing_plan_id":"cebpf4jnsgd1na2vs0mg"},{"bike_id":"c7e6c756-277a-4832-a9d1-9d4a1c1f2814","system_id":"levelo_inurba_marseille","lat":43.2605,"lon":5.39386,"is_reserved":false,"is_disabled":false,"rental_uris":{"android":"levelo://app?vid=c7e6c756-277a-4832-a9d1-9d4a1c1f2814","ios":"levelo://app?vid=c7e6c756-277a-4832-a9d1-9d4a1c1f2814"},"vehicle_type_id":"4","last_reported":1728914926,"current_range_meters":27600,"station_id":"ce4bhh92rcd13ifvqfj0","pricing_plan_id":"cebpf4jnsgd1na2vs0mg"},{"bike_id":"e1b2a9a6-ed40-4524-b4b9-4d650f4c37c2","system_id":"levelo_inurba_marseille","lat":43.28078,"lon":5.39661,"is_reserved":false,"is_disabled":false,"rental_uris":{"android":"levelo://app?vid=e1b2a9a6-ed40-4524-b4b9-4d650f4c37c2","ios":"levelo://app?vid=e1b2a9a6-ed40-4524-b4b9-4d650f4c37c2"},"vehicle_type_id":"4","last_reported":1728914926,"current_range_meters":24800,"station_id":"ce4bho12rcd13ifvqh2g","pricing_plan_id":"cebpf4jnsgd1na2vs0mg"},{"bike_id":"2c14af55-a96e-41b1-9615-4fd12466c1da","system_id":"levelo_inurba_marseille","lat":43.29971,"lon":5.37182,"is_reserved":false,"is_disabled":false,"rental_uris":{"android":"levelo://app?vid=2c14af55-a96e-41b1-9615-4fd12466c1da","ios":"levelo://app?vid=2c14af55-a96e-41b1-9615-4fd12466c1da"},"vehicle_type_id":"4","last_reported":1728914926,"current_range_meters":24400,"station_id":"ce4bgr92rcd13ifvqc7g","pricing_plan_id":"cebpf4jnsgd1na2vs0mg"},{"bike_id":"b018a453-cfce-462a-a64a-c928db0ccbb0","system_id":"levelo_inurba_marseille","lat":43.310486,"lon":5.376728,"is_reserved":false,"is_disabled":false,"rental_uris":{"android":"levelo://app?vid=b018a453-cfce-462a-a64a-c928db0ccbb0","ios":"levelo://app?vid=b018a453-cfce-462a-a64a-c928db0ccbb0"},"vehicle_type_id":"4","last_reported":1728914926,"current_range_meters":36400,"station_id":"ce4bh9p2rcd13ifvqec0","pricing_plan_id":"cebpf4jnsgd1na2vs0mg"},{"bike_id":"9790b464-6c90-4df6-9747-531950e624fc","system_id":"levelo_inurba_marseille","lat":43.27941,"lon":5.41043,"is_reserved":false,"is_disabled":false,"rental_uris":{"android":"levelo://app?vid=9790b464-6c90-4df6-9747-531950e624fc","ios":"levelo://app?vid=9790b464-6c90-4df6-9747-531950e624fc"},"vehicle_type_id":"4","last_reported":1728914926,"current_range_meters":30800,"station_id":"ce4bhnp2rcd13ifvqh0g","pricing_plan_id":"cebpf4jnsgd1na2vs0mg"},{"bike_id":"962561bf-93c4-4a4e-839f-c4b4f62bd94d","system_id":"levelo_inurba_marseille","lat":43.25858,"lon":5.39906,"is_reserved":false,"is_disabled":false,"rental_uris":{"android":"levelo://app?vid=962561bf-93c4-4a4e-839f-c4b4f62bd94d","ios":"levelo://app?vid=962561bf-93c4-4a4e-839f-c4b4f62bd94d"},"vehicle_type_id":"4","last_reported":1728914926,"current_range_meters":34000,"station_id":"ce4bhl92rcd13ifvqghg","pricing_plan_id":"cebpf4jnsgd1na2vs0mg"},{"bike_id":"b80c714b-6a66-4d5c-832e-bd487c535a72","system_id":"levelo_inurba_marseille","lat":43.31109,"lon":5.38064,"is_reserved":false,"is_disabled":false,"rental_uris":{"android":"levelo://app?vid=b80c714b-6a66-4d5c-832e-bd487c535a72","ios":"levelo://app?vid=b80c714b-6a66-4d5c-832e-bd487c535a72"},"vehicle_type_id":"4","last_reported":1728914926,"current_range_meters":19600,"station_id":"ce4bgt92rcd13ifvqcf0","pricing_plan_id":"cebpf4jnsgd1na2vs0mg"},{"bike_id":"2140b6a3-5118-4150-823e-9225aeb56201","system_id":"levelo_inurba_marseille","lat":43.23193,"lon":5.35548,"is_reserved":false,"is_disabled":false,"rental_uris":{"android":"levelo://app?vid=2140b6a3-5118-4150-823e-9225aeb56201","ios":"levelo://app?vid=2140b6a3-5118-4150-823e-9225aeb56201"},"vehicle_type_id":"4","last_reported":1728914926,"current_range_meters":8400,"station_id":"ce4bhu92rcd13ifvqi70","pricing_plan_id":"cebpf4jnsgd1na2vs0mg"},{"bike_id":"3c4fbeed-06e3-4f6c-8b5b-cde1b5e8fee3","system_id":"levelo_inurba_marseille","lat":43.24648,"lon":5.38902,"is_reserved":false,"is_disabled":false,"rental_uris":{"android":"levelo://app?vid=3c4fbeed-06e3-4f6c-8b5b-cde1b5e8fee3","ios":"levelo://app?vid=3c4fbeed-06e3-4f6c-8b5b-cde1b5e8fee3"},"vehicle_type_id":"4","last_reported":1728914926,"current_range_meters":38800,"station_id":"ce4bhg12rcd13ifvqf60","pricing_plan_id":"cebpf4jnsgd1na2vs0mg"},{"bike_id":"f3ffa9e3-8fd9-4512-81b9-b80cbaf83903","system_id":"levelo_inurba_marseille","lat":43.28151,"lon":5.42637,"is_reserved":false,"is_disabled":false,"rental_uris":{"android":"levelo://app?vid=f3ffa9e3-8fd9-4512-81b9-b80cbaf83903","ios":"levelo://app?vid=f3ffa9e3-8fd9-4512-81b9-b80cbaf83903"},"vehicle_type_id":"4","last_reported":1728914926,"current_range_meters":38400,"station_id":"ce4bhnh2rcd13ifvqgug","pricing_plan_id":"cebpf4jnsgd1na2vs0mg"},{"bike_id":"94e36800-0876-449f-ab73-0d327298c706","system_id":"levelo_inurba_marseille","lat":43.3136,"lon":5.38488,"is_reserved":false,"is_disabled":false,"rental_uris":{"android":"levelo://app?vid=94e36800-0876-449f-ab73-0d327298c706","ios":"levelo://app?vid=94e36800-0876-449f-ab73-0d327298c706"},"vehicle_type_id":"4","last_reported":1728914926,"current_range_meters":10800,"station_id":"ce4bgt92rcd13ifvqcf0","pricing_plan_id":"cebpf4jnsgd1na2vs0mg"},{"bike_id":"9c328ce8-d6fe-4c2a-bc27-89b0c2af70dd","system_id":"levelo_inurba_marseille","lat":43.29967,"lon":5.37172,"is_reserved":false,"is_disabled":false,"rental_uris":{"android":"levelo://app?vid=9c328ce8-d6fe-4c2a-bc27-89b0c2af70dd","ios":"levelo://app?vid=9c328ce8-d6fe-4c2a-bc27-89b0c2af70dd"},"vehicle_type_id":"4","last_reported":1728914926,"current_range_meters":14000,"station_id":"ce4bgr92rcd13ifvqc7g","pricing_plan_id":"cebpf4jnsgd1na2vs0mg"},{"bike_id":"6013cd94-2734-47d4-a52b-45ae8e086bbb","system_id":"levelo_inurba_marseille","lat":43.29625,"lon":5.40591,"is_reserved":false,"is_disabled":false,"rental_uris":{"android":"levelo://app?vid=6013cd94-2734-47d4-a52b-45ae8e086bbb","ios":"levelo://app?vid=6013cd94-2734-47d4-a52b-45ae8e086bbb"},"vehicle_type_id":"4","last_reported":1728914926,"current_range_meters":34000,"station_id":"ce4bh0h2rcd13ifvqd60","pricing_plan_id":"cebpf4jnsgd1na2vs0mg"},{"bike_id":"d4338133-aae8-485b-afb7-f4eb536f8136","system_id":"levelo_inurba_marseille","lat":43.30151,"lon":5.38099,"is_reserved":false,"is_disabled":false,"rental_uris":{"android":"levelo://app?vid=d4338133-aae8-485b-afb7-f4eb536f8136","ios":"levelo://app?vid=d4338133-aae8-485b-afb7-f4eb536f8136"},"vehicle_type_id":"4","last_reported":1728914926,"current_range_meters":36800,"station_id":"ce4bgjp2rcd13ifvqbh0","pricing_plan_id":"cebpf4jnsgd1na2vs0mg"},{"bike_id":"02edf250-0bdc-44d6-9936-04b527fbc30e","system_id":"levelo_inurba_marseille","lat":43.24386,"lon":5.37057,"is_reserved":false,"is_disabled":false,"rental_uris":{"android":"levelo://app?vid=02edf250-0bdc-44d6-9936-04b527fbc30e","ios":"levelo://app?vid=02edf250-0bdc-44d6-9936-04b527fbc30e"},"vehicle_type_id":"4","last_reported":1728914926,"current_range_meters":16400,"station_id":"ce4bhhh2rcd13ifvqfk0","pricing_plan_id":"cebpf4jnsgd1na2vs0mg"},{"bike_id":"3c5994d7-623c-4efb-8bae-370233f87bc7","system_id":"levelo_inurba_marseille","lat":43.28151,"lon":5.42641,"is_reserved":false,"is_disabled":false,"rental_uris":{"android":"levelo://app?vid=3c5994d7-623c-4efb-8bae-370233f87bc7","ios":"levelo://app?vid=3c5994d7-623c-4efb-8bae-370233f87bc7"},"vehicle_type_id":"4","last_reported":1728914926,"current_range_meters":19200,"station_id":"ce4bhnh2rcd13ifvqgug","pricing_plan_id":"cebpf4jnsgd1na2vs0mg"},{"bike_id":"78bdb84b-c1ee-4965-b64e-1cd2c42960aa","system_id":"levelo_inurba_marseille","lat":43.26802,"lon":5.4027,"is_reserved":false,"is_disabled":false,"rental_uris":{"android":"levelo://app?vid=78bdb84b-c1ee-4965-b64e-1cd2c42960aa","ios":"levelo://app?vid=78bdb84b-c1ee-4965-b64e-1cd2c42960aa"},"vehicle_type_id":"4","last_reported":1728914926,"current_range_meters":38000,"station_id":"ce501612rcd8frsf0b60","pricing_plan_id":"cebpf4jnsgd1na2vs0mg"},{"bike_id":"e2725a32-841c-4fd5-baba-1cee769fa09d","system_id":"levelo_inurba_marseille","lat":43.2827,"lon":5.3506,"is_reserved":false,"is_disabled":false,"rental_uris":{"android":"levelo://app?vid=e2725a32-841c-4fd5-baba-1cee769fa09d","ios":"levelo://app?vid=e2725a32-841c-4fd5-baba-1cee769fa09d"},"vehicle_type_id":"4","last_reported":1728914926,"current_range_meters":27600,"station_id":"ce4bhbp2rcd13ifvqerg","pricing_plan_id":"cebpf4jnsgd1na2vs0mg"},{"bike_id":"de49afd5-9caa-4fa4-918a-7526806c270b","system_id":"levelo_inurba_marseille","lat":43.29615,"lon":5.37154,"is_reserved":false,"is_disabled":false,"rental_uris":{"android":"levelo://app?vid=de49afd5-9caa-4fa4-918a-7526806c270b","ios":"levelo://app?vid=de49afd5-9caa-4fa4-918a-7526806c270b"},"vehicle_type_id":"4","last_reported":1728914926,"current_range_meters":38800,"station_id":"ce4bgnh2rcd13ifvqc0g","pricing_plan_id":"cebpf4jnsgd1na2vs0mg"},{"bike_id":"83d94ba6-63ff-4a3e-8cbe-319587d39ea5","system_id":"levelo_inurba_marseille","lat":43.246457,"lon":5.38901,"is_reserved":false,"is_disabled":false,"rental_uris":{"android":"levelo://app?vid=83d94ba6-63ff-4a3e-8cbe-319587d39ea5","ios":"levelo://app?vid=83d94ba6-63ff-4a3e-8cbe-319587d39ea5"},"vehicle_type_id":"4","last_reported":1728914926,"current_range_meters":24400,"station_id":"ce4bhg12rcd13ifvqf60","pricing_plan_id":"cebpf4jnsgd1na2vs0mg"},{"bike_id":"dddc6d05-5375-4b83-b15b-e598822581e4","system_id":"levelo_inurba_marseille","lat":43.264,"lon":5.37846,"is_reserved":false,"is_disabled":false,"rental_uris":{"android":"levelo://app?vid=dddc6d05-5375-4b83-b15b-e598822581e4","ios":"levelo://app?vid=dddc6d05-5375-4b83-b15b-e598822581e4"},"vehicle_type_id":"4","last_reported":1728914926,"current_range_meters":19600,"station_id":"ce4bhg92rcd13ifvqf90","pricing_plan_id":"cebpf4jnsgd1na2vs0mg"},{"bike_id":"eee50baa-64a1-4ffd-84c6-bcc85ec1e0eb","system_id":"levelo_inurba_marseille","lat":43.26059,"lon":5.39398,"is_reserved":false,"is_disabled":false,"rental_uris":{"android":"levelo://app?vid=eee50baa-64a1-4ffd-84c6-bcc85ec1e0eb","ios":"levelo://app?vid=eee50baa-64a1-4ffd-84c6-bcc85ec1e0eb"},"vehicle_type_id":"4","last_reported":1728914926,"current_range_meters":37600,"station_id":"ce4bhh92rcd13ifvqfj0","pricing_plan_id":"cebpf4jnsgd1na2vs0mg"},{"bike_id":"53dacfe1-b69a-46c1-8c21-5d68f904c4a7","system_id":"levelo_inurba_marseille","lat":43.297802,"lon":5.381068,"is_reserved":false,"is_disabled":false,"rental_uris":{"android":"levelo://app?vid=53dacfe1-b69a-46c1-8c21-5d68f904c4a7","ios":"levelo://app?vid=53dacfe1-b69a-46c1-8c21-5d68f904c4a7"},"vehicle_type_id":"4","last_reported":1728914926,"current_range_meters":37600,"station_id":"ce4bgip2rcd13ifvqbb0","pricing_plan_id":"cebpf4jnsgd1na2vs0mg"},{"bike_id":"cc195f2d-b632-4aa4-bf03-ed6157cf03a2","system_id":"levelo_inurba_marseille","lat":43.24383,"lon":5.37055,"is_reserved":false,"is_disabled":false,"rental_uris":{"android":"levelo://app?vid=cc195f2d-b632-4aa4-bf03-ed6157cf03a2","ios":"levelo://app?vid=cc195f2d-b632-4aa4-bf03-ed6157cf03a2"},"vehicle_type_id":"4","last_reported":1728914926,"current_range_meters":19600,"station_id":"ce4bhhh2rcd13ifvqfk0","pricing_plan_id":"cebpf4jnsgd1na2vs0mg"},{"bike_id":"e01e41b6-906b-4d38-bd47-8409331ef9cb","system_id":"levelo_inurba_marseille","lat":43.24166,"lon":5.3639,"is_reserved":false,"is_disabled":false,"rental_uris":{"android":"levelo://app?vid=e01e41b6-906b-4d38-bd47-8409331ef9cb","ios":"levelo://app?vid=e01e41b6-906b-4d38-bd47-8409331ef9cb"},"vehicle_type_id":"4","last_reported":1728914926,"current_range_meters":37600,"station_id":"cpo36qri1sfpv3e86is0","pricing_plan_id":"cebpf4jnsgd1na2vs0mg"},{"bike_id":"697ed944-2e67-4742-abb0-aec52c913a43","system_id":"levelo_inurba_marseille","lat":43.30927,"lon":5.4014,"is_reserved":false,"is_disabled":false,"rental_uris":{"android":"levelo://app?vid=697ed944-2e67-4742-abb0-aec52c913a43","ios":"levelo://app?vid=697ed944-2e67-4742-abb0-aec52c913a43"},"vehicle_type_id":"4","last_reported":1728914926,"current_range_meters":8000,"station_id":"ce4bgvp2rcd13ifvqct0","pricing_plan_id":"cebpf4jnsgd1na2vs0mg"},{"bike_id":"38744c24-4739-4788-bc11-26e62b631965","system_id":"levelo_inurba_marseille","lat":43.24174,"lon":5.39737,"is_reserved":false,"is_disabled":false,"rental_uris":{"android":"levelo://app?vid=38744c24-4739-4788-bc11-26e62b631965","ios":"levelo://app?vid=38744c24-4739-4788-bc11-26e62b631965"},"vehicle_type_id":"4","last_reported":1728914926,"current_range_meters":24800,"station_id":"ce4bhn12rcd13ifvqgpg","pricing_plan_id":"cebpf4jnsgd1na2vs0mg"},{"bike_id":"a0645793-85c3-4cbe-9661-0d11a8d919ed","system_id":"levelo_inurba_marseille","lat":43.34137,"lon":5.40898,"is_reserved":false,"is_disabled":false,"rental_uris":{"android":"levelo://app?vid=a0645793-85c3-4cbe-9661-0d11a8d919ed","ios":"levelo://app?vid=a0645793-85c3-4cbe-9661-0d11a8d919ed"},"vehicle_type_id":"4","last_reported":1728914926,"current_range_meters":27200,"station_id":"ce4bhqh2rcd13ifvqhlg","pricing_plan_id":"cebpf4jnsgd1na2vs0mg"},{"bike_id":"89211ee2-076f-4df3-92bd-cd8885f2e76d","system_id":"levelo_inurba_marseille","lat":43.23191,"lon":5.35557,"is_reserved":false,"is_disabled":false,"rental_uris":{"android":"levelo://app?vid=89211ee2-076f-4df3-92bd-cd8885f2e76d","ios":"levelo://app?vid=89211ee2-076f-4df3-92bd-cd8885f2e76d"},"vehicle_type_id":"4","last_reported":1728914926,"current_range_meters":38800,"station_id":"ce4bhu92rcd13ifvqi70","pricing_plan_id":"cebpf4jnsgd1na2vs0mg"},{"bike_id":"6f108c79-169f-46fd-b08b-6b93e5050ee6","system_id":"levelo_inurba_marseille","lat":43.33715,"lon":5.39191,"is_reserved":false,"is_disabled":false,"rental_uris":{"android":"levelo://app?vid=6f108c79-169f-46fd-b08b-6b93e5050ee6","ios":"levelo://app?vid=6f108c79-169f-46fd-b08b-6b93e5050ee6"},"vehicle_type_id":"4","last_reported":1728914926,"current_range_meters":10800,"station_id":"ce4bhr92rcd13ifvqhsg","pricing_plan_id":"cebpf4jnsgd1na2vs0mg"},{"bike_id":"54bbc313-587a-40d4-9fdf-6f7e59b8fb87","system_id":"levelo_inurba_marseille","lat":43.31325,"lon":5.39691,"is_reserved":false,"is_disabled":false,"rental_uris":{"android":"levelo://app?vid=54bbc313-587a-40d4-9fdf-6f7e59b8fb87","ios":"levelo://app?vid=54bbc313-587a-40d4-9fdf-6f7e59b8fb87"},"vehicle_type_id":"4","last_reported":1728914926,"current_range_meters":27200,"station_id":"ce4bgvp2rcd13ifvqcu0","pricing_plan_id":"cebpf4jnsgd1na2vs0mg"},{"bike_id":"4318c1e8-2621-480a-abc2-12376b3f7b4f","system_id":"levelo_inurba_marseille","lat":43.31325,"lon":5.39693,"is_reserved":false,"is_disabled":false,"rental_uris":{"android":"levelo://app?vid=4318c1e8-2621-480a-abc2-12376b3f7b4f","ios":"levelo://app?vid=4318c1e8-2621-480a-abc2-12376b3f7b4f"},"vehicle_type_id":"4","last_reported":1728914926,"current_range_meters":4800,"station_id":"ce4bgvp2rcd13ifvqcu0","pricing_plan_id":"cebpf4jnsgd1na2vs0mg"},{"bike_id":"37eabea0-a1fa-4b1e-a826-61de8c07d027","system_id":"levelo_inurba_marseille","lat":43.30906,"lon":5.37189,"is_reserved":false,"is_disabled":false,"rental_uris":{"android":"levelo://app?vid=37eabea0-a1fa-4b1e-a826-61de8c07d027","ios":"levelo://app?vid=37eabea0-a1fa-4b1e-a826-61de8c07d027"},"vehicle_type_id":"4","last_reported":1728914926,"current_range_meters":36400,"station_id":"ce4bguh2rcd13ifvqckg","pricing_plan_id":"cebpf4jnsgd1na2vs0mg"},{"bike_id":"4401e9fe-8fae-4df0-be02-0119e3aeedbd","system_id":"levelo_inurba_marseille","lat":43.33755,"lon":5.37445,"is_reserved":false,"is_disabled":false,"rental_uris":{"android":"levelo://app?vid=4401e9fe-8fae-4df0-be02-0119e3aeedbd","ios":"levelo://app?vid=4401e9fe-8fae-4df0-be02-0119e3aeedbd"},"vehicle_type_id":"4","last_reported":1728914926,"current_range_meters":37600,"station_id":"","pricing_plan_id":"cebpf4jnsgd1na2vs0mg"},{"bike_id":"4f7d6087-8bdc-4d24-b61e-1887f34e09a3","system_id":"levelo_inurba_marseille","lat":43.28701,"lon":5.39988,"is_reserved":false,"is_disabled":false,"rental_uris":{"android":"levelo://app?vid=4f7d6087-8bdc-4d24-b61e-1887f34e09a3","ios":"levelo://app?vid=4f7d6087-8bdc-4d24-b61e-1887f34e09a3"},"vehicle_type_id":"4","last_reported":1728914926,"current_range_meters":19600,"station_id":"ce4bho92rcd13ifvqh3g","pricing_plan_id":"cebpf4jnsgd1na2vs0mg"},{"bike_id":"de15c3dc-a687-48f1-854c-76081ceda121","system_id":"levelo_inurba_marseille","lat":43.2466,"lon":5.38163,"is_reserved":false,"is_disabled":false,"rental_uris":{"android":"levelo://app?vid=de15c3dc-a687-48f1-854c-76081ceda121","ios":"levelo://app?vid=de15c3dc-a687-48f1-854c-76081ceda121"},"vehicle_type_id":"4","last_reported":1728914926,"current_range_meters":22800,"station_id":"ce4bhih2rcd13ifvqfr0","pricing_plan_id":"cebpf4jnsgd1na2vs0mg"},{"bike_id":"76aefb69-25a5-4bcf-a117-8e3c139e6be2","system_id":"levelo_inurba_marseille","lat":43.23184,"lon":5.39973,"is_reserved":false,"is_disabled":false,"rental_uris":{"android":"levelo://app?vid=76aefb69-25a5-4bcf-a117-8e3c139e6be2","ios":"levelo://app?vid=76aefb69-25a5-4bcf-a117-8e3c139e6be2"},"vehicle_type_id":"4","last_reported":1728914926,"current_range_meters":10800,"station_id":"ce4bhn12rcd13ifvqgqg","pricing_plan_id":"cebpf4jnsgd1na2vs0mg"},{"bike_id":"1b210df7-3cc3-43f4-b71a-6c23aec506a8","system_id":"levelo_inurba_marseille","lat":43.30134,"lon":5.39873,"is_reserved":false,"is_disabled":false,"rental_uris":{"android":"levelo://app?vid=1b210df7-3cc3-43f4-b71a-6c23aec506a8","ios":"levelo://app?vid=1b210df7-3cc3-43f4-b71a-6c23aec506a8"},"vehicle_type_id":"4","last_reported":1728914926,"current_range_meters":23200,"station_id":"ce4bh0h2rcd13ifvqd40","pricing_plan_id":"cebpf4jnsgd1na2vs0mg"},{"bike_id":"0da5b8f5-f22b-4996-8a52-d44a0f279f3e","system_id":"levelo_inurba_marseille","lat":43.25863,"lon":5.39901,"is_reserved":false,"is_disabled":false,"rental_uris":{"android":"levelo://app?vid=0da5b8f5-f22b-4996-8a52-d44a0f279f3e","ios":"levelo://app?vid=0da5b8f5-f22b-4996-8a52-d44a0f279f3e"},"vehicle_type_id":"4","last_reported":1728914926,"current_range_meters":14000,"station_id":"ce4bhl92rcd13ifvqghg","pricing_plan_id":"cebpf4jnsgd1na2vs0mg"},{"bike_id":"3cb8022b-1caa-4a45-92ef-bfb43910ef47","system_id":"levelo_inurba_marseille","lat":43.283981,"lon":5.384691,"is_reserved":false,"is_disabled":false,"rental_uris":{"android":"levelo://app?vid=3cb8022b-1caa-4a45-92ef-bfb43910ef47","ios":"levelo://app?vid=3cb8022b-1caa-4a45-92ef-bfb43910ef47"},"vehicle_type_id":"4","last_reported":1728914926,"current_range_meters":22800,"station_id":"ce4bh512rcd13ifvqe3g","pricing_plan_id":"cebpf4jnsgd1na2vs0mg"},{"bike_id":"da486340-ff9c-4c66-a9a8-1cfcf6ff5b0f","system_id":"levelo_inurba_marseille","lat":43.292792,"lon":5.388556,"is_reserved":false,"is_disabled":false,"rental_uris":{"android":"levelo://app?vid=da486340-ff9c-4c66-a9a8-1cfcf6ff5b0f","ios":"levelo://app?vid=da486340-ff9c-4c66-a9a8-1cfcf6ff5b0f"},"vehicle_type_id":"4","last_reported":1728914926,"current_range_meters":20400,"station_id":"ce4bgkp2rcd13ifvqbmg","pricing_plan_id":"cebpf4jnsgd1na2vs0mg"},{"bike_id":"176a7a39-6d04-4fe2-b6fd-3ae9686d8ffb","system_id":"levelo_inurba_marseille","lat":43.26054,"lon":5.39387,"is_reserved":false,"is_disabled":false,"rental_uris":{"android":"levelo://app?vid=176a7a39-6d04-4fe2-b6fd-3ae9686d8ffb","ios":"levelo://app?vid=176a7a39-6d04-4fe2-b6fd-3ae9686d8ffb"},"vehicle_type_id":"4","last_reported":1728914926,"current_range_meters":39200,"station_id":"ce4bhh92rcd13ifvqfj0","pricing_plan_id":"cebpf4jnsgd1na2vs0mg"},{"bike_id":"95052969-694f-408e-9207-0e2b49113d06","system_id":"levelo_inurba_marseille","lat":43.29583,"lon":5.37519,"is_reserved":false,"is_disabled":false,"rental_uris":{"android":"levelo://app?vid=95052969-694f-408e-9207-0e2b49113d06","ios":"levelo://app?vid=95052969-694f-408e-9207-0e2b49113d06"},"vehicle_type_id":"4","last_reported":1728914926,"current_range_meters":39200,"station_id":"ce4bgh92rcd13ifvqb50","pricing_plan_id":"cebpf4jnsgd1na2vs0mg"},{"bike_id":"d0ec2960-1685-4144-8de4-162ef81ffa1d","system_id":"levelo_inurba_marseille","lat":43.32106,"lon":5.36766,"is_reserved":false,"is_disabled":false,"rental_uris":{"android":"levelo://app?vid=d0ec2960-1685-4144-8de4-162ef81ffa1d","ios":"levelo://app?vid=d0ec2960-1685-4144-8de4-162ef81ffa1d"},"vehicle_type_id":"4","last_reported":1728914926,"current_range_meters":30400,"station_id":"ce4bhrh2rcd13ifvqhug","pricing_plan_id":"cebpf4jnsgd1na2vs0mg"},{"bike_id":"5656e8f0-a8dd-42d7-8b46-4d03613c3306","system_id":"levelo_inurba_marseille","lat":43.30276,"lon":5.37697,"is_reserved":false,"is_disabled":false,"rental_uris":{"android":"levelo://app?vid=5656e8f0-a8dd-42d7-8b46-4d03613c3306","ios":"levelo://app?vid=5656e8f0-a8dd-42d7-8b46-4d03613c3306"},"vehicle_type_id":"4","last_reported":1728914926,"current_range_meters":32400,"station_id":"ce4bguh2rcd13ifvqcj0","pricing_plan_id":"cebpf4jnsgd1na2vs0mg"},{"bike_id":"b5ac920f-962a-4da6-b6d3-8e7c7548ae6a","system_id":"levelo_inurba_marseille","lat":43.31695,"lon":5.37794,"is_reserved":false,"is_disabled":false,"rental_uris":{"android":"levelo://app?vid=b5ac920f-962a-4da6-b6d3-8e7c7548ae6a","ios":"levelo://app?vid=b5ac920f-962a-4da6-b6d3-8e7c7548ae6a"},"vehicle_type_id":"4","last_reported":1728914926,"current_range_meters":19200,"station_id":"ce4bgth2rcd13ifvqch0","pricing_plan_id":"cebpf4jnsgd1na2vs0mg"},{"bike_id":"ff96eee3-1ac8-4888-9ae7-e4b6cc8154af","system_id":"levelo_inurba_marseille","lat":43.33739,"lon":5.3746,"is_reserved":false,"is_disabled":false,"rental_uris":{"android":"levelo://app?vid=ff96eee3-1ac8-4888-9ae7-e4b6cc8154af","ios":"levelo://app?vid=ff96eee3-1ac8-4888-9ae7-e4b6cc8154af"},"vehicle_type_id":"4","last_reported":1728914926,"current_range_meters":38000,"station_id":"","pricing_plan_id":"cebpf4jnsgd1na2vs0mg"},{"bike_id":"35bba3af-d722-4a26-b8dc-8aae3c1cb02e","system_id":"levelo_inurba_marseille","lat":43.31274,"lon":5.40165,"is_reserved":false,"is_disabled":false,"rental_uris":{"android":"levelo://app?vid=35bba3af-d722-4a26-b8dc-8aae3c1cb02e","ios":"levelo://app?vid=35bba3af-d722-4a26-b8dc-8aae3c1cb02e"},"vehicle_type_id":"4","last_reported":1728914926,"current_range_meters":12000,"station_id":"ce4bh092rcd13ifvqd30","pricing_plan_id":"cebpf4jnsgd1na2vs0mg"},{"bike_id":"1d1d4ead-1ac1-407d-a9b7-6668176eb698","system_id":"levelo_inurba_marseille","lat":43.2952,"lon":5.37504,"is_reserved":false,"is_disabled":false,"rental_uris":{"android":"levelo://app?vid=1d1d4ead-1ac1-407d-a9b7-6668176eb698","ios":"levelo://app?vid=1d1d4ead-1ac1-407d-a9b7-6668176eb698"},"vehicle_type_id":"4","last_reported":1728914926,"current_range_meters":9600,"station_id":"ce4bgkp2rcd13ifvqbmg","pricing_plan_id":"cebpf4jnsgd1na2vs0mg"},{"bike_id":"524c15e0-a6d7-4018-bd86-f8d87b298f85","system_id":"levelo_inurba_marseille","lat":43.304302,"lon":5.397461,"is_reserved":false,"is_disabled":false,"rental_uris":{"android":"levelo://app?vid=524c15e0-a6d7-4018-bd86-f8d87b298f85","ios":"levelo://app?vid=524c15e0-a6d7-4018-bd86-f8d87b298f85"},"vehicle_type_id":"4","last_reported":1728914926,"current_range_meters":12000,"station_id":"ce4bh092rcd13ifvqd20","pricing_plan_id":"cebpf4jnsgd1na2vs0mg"},{"bike_id":"75a9a6bb-d370-47ba-a632-54d34a3705e3","system_id":"levelo_inurba_marseille","lat":43.28456,"lon":5.35888,"is_reserved":false,"is_disabled":false,"rental_uris":{"android":"levelo://app?vid=75a9a6bb-d370-47ba-a632-54d34a3705e3","ios":"levelo://app?vid=75a9a6bb-d370-47ba-a632-54d34a3705e3"},"vehicle_type_id":"4","last_reported":1728914926,"current_range_meters":26800,"station_id":"ce4bhah2rcd13ifvqei0","pricing_plan_id":"cebpf4jnsgd1na2vs0mg"},{"bike_id":"af70152a-4350-4ddf-8e92-7d3cc0eda950","system_id":"levelo_inurba_marseille","lat":43.29027,"lon":5.38643,"is_reserved":false,"is_disabled":false,"rental_uris":{"android":"levelo://app?vid=af70152a-4350-4ddf-8e92-7d3cc0eda950","ios":"levelo://app?vid=af70152a-4350-4ddf-8e92-7d3cc0eda950"},"vehicle_type_id":"4","last_reported":1728914926,"current_range_meters":38400,"station_id":"ce4bh4p2rcd13ifvqe0g","pricing_plan_id":"cebpf4jnsgd1na2vs0mg"},{"bike_id":"9e9e9de3-45b6-4fe8-95ea-703eddca933b","system_id":"levelo_inurba_marseille","lat":43.26674,"lon":5.38266,"is_reserved":false,"is_disabled":false,"rental_uris":{"android":"levelo://app?vid=9e9e9de3-45b6-4fe8-95ea-703eddca933b","ios":"levelo://app?vid=9e9e9de3-45b6-4fe8-95ea-703eddca933b"},"vehicle_type_id":"4","last_reported":1728914926,"current_range_meters":8800,"station_id":"ce4bhg92rcd13ifvqf90","pricing_plan_id":"cebpf4jnsgd1na2vs0mg"},{"bike_id":"116e3602-06f1-4c1a-bbca-440ef4de8753","system_id":"levelo_inurba_marseille","lat":43.25858,"lon":5.39903,"is_reserved":false,"is_disabled":false,"rental_uris":{"android":"levelo://app?vid=116e3602-06f1-4c1a-bbca-440ef4de8753","ios":"levelo://app?vid=116e3602-06f1-4c1a-bbca-440ef4de8753"},"vehicle_type_id":"4","last_reported":1728914926,"current_range_meters":28400,"station_id":"ce4bhl92rcd13ifvqghg","pricing_plan_id":"cebpf4jnsgd1na2vs0mg"},{"bike_id":"40bc6735-ca61-48f5-9019-08f286e3a318","system_id":"levelo_inurba_marseille","lat":43.30537,"lon":5.3671,"is_reserved":false,"is_disabled":false,"rental_uris":{"android":"levelo://app?vid=40bc6735-ca61-48f5-9019-08f286e3a318","ios":"levelo://app?vid=40bc6735-ca61-48f5-9019-08f286e3a318"},"vehicle_type_id":"4","last_reported":1728914926,"current_range_meters":31200,"station_id":"ce4bgrp2rcd13ifvqc9g","pricing_plan_id":"cebpf4jnsgd1na2vs0mg"},{"bike_id":"a14829ce-f968-4f5e-b6eb-77bff3352624","system_id":"levelo_inurba_marseille","lat":43.30282,"lon":5.37695,"is_reserved":false,"is_disabled":false,"rental_uris":{"android":"levelo://app?vid=a14829ce-f968-4f5e-b6eb-77bff3352624","ios":"levelo://app?vid=a14829ce-f968-4f5e-b6eb-77bff3352624"},"vehicle_type_id":"4","last_reported":1728914926,"current_range_meters":18000,"station_id":"ce4bguh2rcd13ifvqcj0","pricing_plan_id":"cebpf4jnsgd1na2vs0mg"},{"bike_id":"0ab9a25f-4f8d-4fde-8032-ace8a5a2960e","system_id":"levelo_inurba_marseille","lat":43.24644,"lon":5.38897,"is_reserved":false,"is_disabled":false,"rental_uris":{"android":"levelo://app?vid=0ab9a25f-4f8d-4fde-8032-ace8a5a2960e","ios":"levelo://app?vid=0ab9a25f-4f8d-4fde-8032-ace8a5a2960e"},"vehicle_type_id":"4","last_reported":1728914926,"current_range_meters":4800,"station_id":"ce4bhg12rcd13ifvqf60","pricing_plan_id":"cebpf4jnsgd1na2vs0mg"},{"bike_id":"70d2c401-ee11-4214-afb6-0f4d6e3615a1","system_id":"levelo_inurba_marseille","lat":43.25865,"lon":5.39901,"is_reserved":false,"is_disabled":false,"rental_uris":{"android":"levelo://app?vid=70d2c401-ee11-4214-afb6-0f4d6e3615a1","ios":"levelo://app?vid=70d2c401-ee11-4214-afb6-0f4d6e3615a1"},"vehicle_type_id":"4","last_reported":1728914926,"current_range_meters":38800,"station_id":"ce4bhl92rcd13ifvqghg","pricing_plan_id":"cebpf4jnsgd1na2vs0mg"},{"bike_id":"e55ce7e2-8e60-47b5-844e-977029bd08ba","system_id":"levelo_inurba_marseille","lat":43.29544,"lon":5.42254,"is_reserved":false,"is_disabled":false,"rental_uris":{"android":"levelo://app?vid=e55ce7e2-8e60-47b5-844e-977029bd08ba","ios":"levelo://app?vid=e55ce7e2-8e60-47b5-844e-977029bd08ba"},"vehicle_type_id":"4","last_reported":1728914926,"current_range_meters":39200,"station_id":"ce4bhph2rcd13ifvqhdg","pricing_plan_id":"cebpf4jnsgd1na2vs0mg"},{"bike_id":"292b9425-1372-40d4-bf0a-fe57aa779a41","system_id":"levelo_inurba_marseille","lat":43.23058,"lon":5.35495,"is_reserved":false,"is_disabled":false,"rental_uris":{"android":"levelo://app?vid=292b9425-1372-40d4-bf0a-fe57aa779a41","ios":"levelo://app?vid=292b9425-1372-40d4-bf0a-fe57aa779a41"},"vehicle_type_id":"4","last_reported":1728914926,"current_range_meters":37600,"station_id":"cpo3342slgdg3j2ifvpg","pricing_plan_id":"cebpf4jnsgd1na2vs0mg"},{"bike_id":"09a8f79c-993d-4815-bf53-cfa84d21eee6","system_id":"levelo_inurba_marseille","lat":43.25931,"lon":5.40897,"is_reserved":false,"is_disabled":false,"rental_uris":{"android":"levelo://app?vid=09a8f79c-993d-4815-bf53-cfa84d21eee6","ios":"levelo://app?vid=09a8f79c-993d-4815-bf53-cfa84d21eee6"},"vehicle_type_id":"4","last_reported":1728914926,"current_range_meters":22800,"station_id":"ce4bhm92rcd13ifvqglg","pricing_plan_id":"cebpf4jnsgd1na2vs0mg"},{"bike_id":"7a9bcd29-426b-49b2-b00d-fa47e73de371","system_id":"levelo_inurba_marseille","lat":43.25718,"lon":5.41103,"is_reserved":false,"is_disabled":false,"rental_uris":{"android":"levelo://app?vid=7a9bcd29-426b-49b2-b00d-fa47e73de371","ios":"levelo://app?vid=7a9bcd29-426b-49b2-b00d-fa47e73de371"},"vehicle_type_id":"4","last_reported":1728914926,"current_range_meters":3600,"station_id":"ce4bhkp2rcd13ifvqgd0","pricing_plan_id":"cebpf4jnsgd1na2vs0mg"},{"bike_id":"2feb0969-edd6-47d8-98a0-a230f500bdd0","system_id":"levelo_inurba_marseille","lat":43.29618,"lon":5.37162,"is_reserved":false,"is_disabled":false,"rental_uris":{"android":"levelo://app?vid=2feb0969-edd6-47d8-98a0-a230f500bdd0","ios":"levelo://app?vid=2feb0969-edd6-47d8-98a0-a230f500bdd0"},"vehicle_type_id":"4","last_reported":1728914926,"current_range_meters":24400,"station_id":"ce4bgnh2rcd13ifvqc0g","pricing_plan_id":"cebpf4jnsgd1na2vs0mg"},{"bike_id":"319db2db-70a0-4432-b12c-db6bad30cafc","system_id":"levelo_inurba_marseille","lat":43.29849,"lon":5.36284,"is_reserved":false,"is_disabled":false,"rental_uris":{"android":"levelo://app?vid=319db2db-70a0-4432-b12c-db6bad30cafc","ios":"levelo://app?vid=319db2db-70a0-4432-b12c-db6bad30cafc"},"vehicle_type_id":"4","last_reported":1728914926,"current_range_meters":32000,"station_id":"ce4bgpp2rcd13ifvqc3g","pricing_plan_id":"cebpf4jnsgd1na2vs0mg"},{"bike_id":"bbcd97b8-abcf-4a54-9053-e41804657f51","system_id":"levelo_inurba_marseille","lat":43.29972,"lon":5.38479,"is_reserved":false,"is_disabled":false,"rental_uris":{"android":"levelo://app?vid=bbcd97b8-abcf-4a54-9053-e41804657f51","ios":"levelo://app?vid=bbcd97b8-abcf-4a54-9053-e41804657f51"},"vehicle_type_id":"4","last_reported":1728914926,"current_range_meters":14000,"station_id":"ce4bgj92rcd13ifvqbd0","pricing_plan_id":"cebpf4jnsgd1na2vs0mg"},{"bike_id":"ac75da46-99f8-48ce-b608-79e189382108","system_id":"levelo_inurba_marseille","lat":43.2953,"lon":5.39042,"is_reserved":false,"is_disabled":false,"rental_uris":{"android":"levelo://app?vid=ac75da46-99f8-48ce-b608-79e189382108","ios":"levelo://app?vid=ac75da46-99f8-48ce-b608-79e189382108"},"vehicle_type_id":"4","last_reported":1728914926,"current_range_meters":34800,"station_id":"ce4bh3p2rcd13ifvqdp0","pricing_plan_id":"cebpf4jnsgd1na2vs0mg"},{"bike_id":"2c1638e5-4be7-4564-a61a-45b1d6f91a3c","system_id":"levelo_inurba_marseille","lat":43.30603,"lon":5.3722,"is_reserved":false,"is_disabled":false,"rental_uris":{"android":"levelo://app?vid=2c1638e5-4be7-4564-a61a-45b1d6f91a3c","ios":"levelo://app?vid=2c1638e5-4be7-4564-a61a-45b1d6f91a3c"},"vehicle_type_id":"4","last_reported":1728914926,"current_range_meters":32400,"station_id":"ce4bgqh2rcd13ifvqc4g","pricing_plan_id":"cebpf4jnsgd1na2vs0mg"},{"bike_id":"f9431acc-4158-4e63-bbe0-7544277cc35e","system_id":"levelo_inurba_marseille","lat":43.29032,"lon":5.37567,"is_reserved":false,"is_disabled":false,"rental_uris":{"android":"levelo://app?vid=f9431acc-4158-4e63-bbe0-7544277cc35e","ios":"levelo://app?vid=f9431acc-4158-4e63-bbe0-7544277cc35e"},"vehicle_type_id":"4","last_reported":1728914926,"current_range_meters":30400,"station_id":"ce4bh692rcd13ifvqe90","pricing_plan_id":"cebpf4jnsgd1na2vs0mg"},{"bike_id":"e42a5c5b-19d2-48bc-8dfc-c8514ef28621","system_id":"levelo_inurba_marseille","lat":43.24167,"lon":5.36395,"is_reserved":false,"is_disabled":false,"rental_uris":{"android":"levelo://app?vid=e42a5c5b-19d2-48bc-8dfc-c8514ef28621","ios":"levelo://app?vid=e42a5c5b-19d2-48bc-8dfc-c8514ef28621"},"vehicle_type_id":"4","last_reported":1728914926,"current_range_meters":30000,"station_id":"cpo36qri1sfpv3e86is0","pricing_plan_id":"cebpf4jnsgd1na2vs0mg"},{"bike_id":"b6d8f277-dc48-4eab-9f65-53dd2b9b7112","system_id":"levelo_inurba_marseille","lat":43.26571,"lon":5.39009,"is_reserved":false,"is_disabled":false,"rental_uris":{"android":"levelo://app?vid=b6d8f277-dc48-4eab-9f65-53dd2b9b7112","ios":"levelo://app?vid=b6d8f277-dc48-4eab-9f65-53dd2b9b7112"},"vehicle_type_id":"4","last_reported":1728914926,"current_range_meters":3600,"station_id":"ce4bhe12rcd13ifvqf30","pricing_plan_id":"cebpf4jnsgd1na2vs0mg"},{"bike_id":"b06fad3a-c976-49a7-9eef-73d7ba88f78c","system_id":"levelo_inurba_marseille","lat":43.29193,"lon":5.35802,"is_reserved":false,"is_disabled":false,"rental_uris":{"android":"levelo://app?vid=b06fad3a-c976-49a7-9eef-73d7ba88f78c","ios":"levelo://app?vid=b06fad3a-c976-49a7-9eef-73d7ba88f78c"},"vehicle_type_id":"4","last_reported":1728914926,"current_range_meters":24000,"station_id":"ce4bhb12rcd13ifvqel0","pricing_plan_id":"cebpf4jnsgd1na2vs0mg"},{"bike_id":"28e70f94-24b9-4205-b375-58c98f3bda7a","system_id":"levelo_inurba_marseille","lat":43.25864,"lon":5.39902,"is_reserved":false,"is_disabled":false,"rental_uris":{"android":"levelo://app?vid=28e70f94-24b9-4205-b375-58c98f3bda7a","ios":"levelo://app?vid=28e70f94-24b9-4205-b375-58c98f3bda7a"},"vehicle_type_id":"4","last_reported":1728914926,"current_range_meters":37600,"station_id":"ce4bhl92rcd13ifvqghg","pricing_plan_id":"cebpf4jnsgd1na2vs0mg"},{"bike_id":"339289c4-7b38-4d77-815f-139b6ca78fd9","system_id":"levelo_inurba_marseille","lat":43.291931,"lon":5.358038,"is_reserved":false,"is_disabled":false,"rental_uris":{"android":"levelo://app?vid=339289c4-7b38-4d77-815f-139b6ca78fd9","ios":"levelo://app?vid=339289c4-7b38-4d77-815f-139b6ca78fd9"},"vehicle_type_id":"4","last_reported":1728914926,"current_range_meters":23200,"station_id":"ce4bhb12rcd13ifvqel0","pricing_plan_id":"cebpf4jnsgd1na2vs0mg"},{"bike_id":"4d739139-0ec9-48fa-8ee5-a19b69fa74e4","system_id":"levelo_inurba_marseille","lat":43.23194,"lon":5.35547,"is_reserved":false,"is_disabled":false,"rental_uris":{"android":"levelo://app?vid=4d739139-0ec9-48fa-8ee5-a19b69fa74e4","ios":"levelo://app?vid=4d739139-0ec9-48fa-8ee5-a19b69fa74e4"},"vehicle_type_id":"4","last_reported":1728914926,"current_range_meters":2000,"station_id":"ce4bhu92rcd13ifvqi70","pricing_plan_id":"cebpf4jnsgd1na2vs0mg"},{"bike_id":"dbb3054c-5a22-40f0-8a11-c70fce130da1","system_id":"levelo_inurba_marseille","lat":43.24548,"lon":5.39542,"is_reserved":false,"is_disabled":false,"rental_uris":{"android":"levelo://app?vid=dbb3054c-5a22-40f0-8a11-c70fce130da1","ios":"levelo://app?vid=dbb3054c-5a22-40f0-8a11-c70fce130da1"},"vehicle_type_id":"4","last_reported":1728914926,"current_range_meters":22000,"station_id":"ce4bhlp2rcd13ifvqgjg","pricing_plan_id":"cebpf4jnsgd1na2vs0mg"},{"bike_id":"d06f24f3-1961-4c39-8b26-c72733863fe9","system_id":"levelo_inurba_marseille","lat":43.33781,"lon":5.37443,"is_reserved":false,"is_disabled":false,"rental_uris":{"android":"levelo://app?vid=d06f24f3-1961-4c39-8b26-c72733863fe9","ios":"levelo://app?vid=d06f24f3-1961-4c39-8b26-c72733863fe9"},"vehicle_type_id":"4","last_reported":1728914926,"current_range_meters":28400,"station_id":"","pricing_plan_id":"cebpf4jnsgd1na2vs0mg"},{"bike_id":"21598ab8-71c1-4d5f-bb69-8c5708cf1e3e","system_id":"levelo_inurba_marseille","lat":43.31221,"lon":5.36866,"is_reserved":false,"is_disabled":false,"rental_uris":{"android":"levelo://app?vid=21598ab8-71c1-4d5f-bb69-8c5708cf1e3e","ios":"levelo://app?vid=21598ab8-71c1-4d5f-bb69-8c5708cf1e3e"},"vehicle_type_id":"4","last_reported":1728914926,"current_range_meters":30800,"station_id":"ce4bgl92rcd13ifvqbq0","pricing_plan_id":"cebpf4jnsgd1na2vs0mg"},{"bike_id":"20706c22-f253-4b83-b7a7-de1d8af153b4","system_id":"levelo_inurba_marseille","lat":43.27812,"lon":5.40712,"is_reserved":false,"is_disabled":false,"rental_uris":{"android":"levelo://app?vid=20706c22-f253-4b83-b7a7-de1d8af153b4","ios":"levelo://app?vid=20706c22-f253-4b83-b7a7-de1d8af153b4"},"vehicle_type_id":"4","last_reported":1728914926,"current_range_meters":8000,"station_id":"ce4bhnh2rcd13ifvqgtg","pricing_plan_id":"cebpf4jnsgd1na2vs0mg"},{"bike_id":"de55ef64-fd38-455a-b0e1-1ae601486694","system_id":"levelo_inurba_marseille","lat":43.28459,"lon":5.35895,"is_reserved":false,"is_disabled":false,"rental_uris":{"android":"levelo://app?vid=de55ef64-fd38-455a-b0e1-1ae601486694","ios":"levelo://app?vid=de55ef64-fd38-455a-b0e1-1ae601486694"},"vehicle_type_id":"4","last_reported":1728914926,"current_range_meters":30800,"station_id":"ce4bhah2rcd13ifvqei0","pricing_plan_id":"cebpf4jnsgd1na2vs0mg"},{"bike_id":"d41309ab-1a1f-4395-acaa-455483c3f8e1","system_id":"levelo_inurba_marseille","lat":43.23193,"lon":5.35559,"is_reserved":false,"is_disabled":false,"rental_uris":{"android":"levelo://app?vid=d41309ab-1a1f-4395-acaa-455483c3f8e1","ios":"levelo://app?vid=d41309ab-1a1f-4395-acaa-455483c3f8e1"},"vehicle_type_id":"4","last_reported":1728914926,"current_range_meters":37600,"station_id":"ce4bhu92rcd13ifvqi70","pricing_plan_id":"cebpf4jnsgd1na2vs0mg"},{"bike_id":"2cdc4196-c711-434e-ada9-2308757c8740","system_id":"levelo_inurba_marseille","lat":43.30544,"lon":5.36707,"is_reserved":false,"is_disabled":false,"rental_uris":{"android":"levelo://app?vid=2cdc4196-c711-434e-ada9-2308757c8740","ios":"levelo://app?vid=2cdc4196-c711-434e-ada9-2308757c8740"},"vehicle_type_id":"4","last_reported":1728914926,"current_range_meters":9600,"station_id":"ce4bgrp2rcd13ifvqc9g","pricing_plan_id":"cebpf4jnsgd1na2vs0mg"},{"bike_id":"5b282a8a-bc6a-4a44-ba86-5ea47fe786e0","system_id":"levelo_inurba_marseille","lat":43.32103,"lon":5.3677,"is_reserved":false,"is_disabled":false,"rental_uris":{"android":"levelo://app?vid=5b282a8a-bc6a-4a44-ba86-5ea47fe786e0","ios":"levelo://app?vid=5b282a8a-bc6a-4a44-ba86-5ea47fe786e0"},"vehicle_type_id":"4","last_reported":1728914926,"current_range_meters":36800,"station_id":"ce4bhrh2rcd13ifvqhug","pricing_plan_id":"cebpf4jnsgd1na2vs0mg"},{"bike_id":"2e543809-e713-4eb6-bdfb-6cf271b7dabd","system_id":"levelo_inurba_marseille","lat":43.30904,"lon":5.36851,"is_reserved":false,"is_disabled":false,"rental_uris":{"android":"levelo://app?vid=2e543809-e713-4eb6-bdfb-6cf271b7dabd","ios":"levelo://app?vid=2e543809-e713-4eb6-bdfb-6cf271b7dabd"},"vehicle_type_id":"4","last_reported":1728914926,"current_range_meters":28800,"station_id":"ce4bgn92rcd13ifvqbvg","pricing_plan_id":"cebpf4jnsgd1na2vs0mg"},{"bike_id":"eaedc49c-645c-4444-a4d2-8456bbc17d70","system_id":"levelo_inurba_marseille","lat":43.29899,"lon":5.43667,"is_reserved":false,"is_disabled":false,"rental_uris":{"android":"levelo://app?vid=eaedc49c-645c-4444-a4d2-8456bbc17d70","ios":"levelo://app?vid=eaedc49c-645c-4444-a4d2-8456bbc17d70"},"vehicle_type_id":"4","last_reported":1728914926,"current_range_meters":17200,"station_id":"ce4bhpp2rcd13ifvqhfg","pricing_plan_id":"cebpf4jnsgd1na2vs0mg"},{"bike_id":"fedf1404-1438-4fe4-877e-19d0319428ee","system_id":"levelo_inurba_marseille","lat":43.24799,"lon":5.37447,"is_reserved":false,"is_disabled":false,"rental_uris":{"android":"levelo://app?vid=fedf1404-1438-4fe4-877e-19d0319428ee","ios":"levelo://app?vid=fedf1404-1438-4fe4-877e-19d0319428ee"},"vehicle_type_id":"4","last_reported":1728914926,"current_range_meters":37600,"station_id":"ce4bhgh2rcd13ifvqfb0","pricing_plan_id":"cebpf4jnsgd1na2vs0mg"},{"bike_id":"d4df80f1-e151-423d-9227-64617f7201ab","system_id":"levelo_inurba_marseille","lat":43.24993,"lon":5.38926,"is_reserved":false,"is_disabled":false,"rental_uris":{"android":"levelo://app?vid=d4df80f1-e151-423d-9227-64617f7201ab","ios":"levelo://app?vid=d4df80f1-e151-423d-9227-64617f7201ab"},"vehicle_type_id":"4","last_reported":1728914926,"current_range_meters":25200,"station_id":"ce4bhgp2rcd13ifvqfd0","pricing_plan_id":"cebpf4jnsgd1na2vs0mg"},{"bike_id":"72b31da5-29d9-4edb-a378-abfe468f2132","system_id":"levelo_inurba_marseille","lat":43.29708,"lon":5.36602,"is_reserved":false,"is_disabled":false,"rental_uris":{"android":"levelo://app?vid=72b31da5-29d9-4edb-a378-abfe468f2132","ios":"levelo://app?vid=72b31da5-29d9-4edb-a378-abfe468f2132"},"vehicle_type_id":"4","last_reported":1728914926,"current_range_meters":6800,"station_id":"ce4bgn12rcd13ifvqbt0","pricing_plan_id":"cebpf4jnsgd1na2vs0mg"},{"bike_id":"5cbb5012-c5d7-48f5-94ef-cb2ff0885809","system_id":"levelo_inurba_marseille","lat":43.26059,"lon":5.394014,"is_reserved":false,"is_disabled":false,"rental_uris":{"android":"levelo://app?vid=5cbb5012-c5d7-48f5-94ef-cb2ff0885809","ios":"levelo://app?vid=5cbb5012-c5d7-48f5-94ef-cb2ff0885809"},"vehicle_type_id":"4","last_reported":1728914926,"current_range_meters":36000,"station_id":"ce4bhh92rcd13ifvqfj0","pricing_plan_id":"cebpf4jnsgd1na2vs0mg"},{"bike_id":"1b8bfdfe-f0e2-479e-9664-b9c45a24a782","system_id":"levelo_inurba_marseille","lat":43.23152,"lon":5.43703,"is_reserved":false,"is_disabled":false,"rental_uris":{"android":"levelo://app?vid=1b8bfdfe-f0e2-479e-9664-b9c45a24a782","ios":"levelo://app?vid=1b8bfdfe-f0e2-479e-9664-b9c45a24a782"},"vehicle_type_id":"4","last_reported":1728914926,"current_range_meters":14800,"station_id":"ce4bhmp2rcd13ifvqgog","pricing_plan_id":"cebpf4jnsgd1na2vs0mg"},{"bike_id":"a5fe0612-2ba4-4448-a6f4-dda9b1b68d0f","system_id":"levelo_inurba_marseille","lat":43.30186,"lon":5.36611,"is_reserved":false,"is_disabled":false,"rental_uris":{"android":"levelo://app?vid=a5fe0612-2ba4-4448-a6f4-dda9b1b68d0f","ios":"levelo://app?vid=a5fe0612-2ba4-4448-a6f4-dda9b1b68d0f"},"vehicle_type_id":"4","last_reported":1728914926,"current_range_meters":27600,"station_id":"ce4bgrh2rcd13ifvqc8g","pricing_plan_id":"cebpf4jnsgd1na2vs0mg"},{"bike_id":"5b8663e6-0c27-4e87-bca3-2d633ca28ef3","system_id":"levelo_inurba_marseille","lat":43.29519,"lon":5.37508,"is_reserved":false,"is_disabled":false,"rental_uris":{"android":"levelo://app?vid=5b8663e6-0c27-4e87-bca3-2d633ca28ef3","ios":"levelo://app?vid=5b8663e6-0c27-4e87-bca3-2d633ca28ef3"},"vehicle_type_id":"4","last_reported":1728914926,"current_range_meters":17200,"station_id":"ce4bgkp2rcd13ifvqbmg","pricing_plan_id":"cebpf4jnsgd1na2vs0mg"},{"bike_id":"1af2813b-98a0-4b62-aaf8-89652b30f639","system_id":"levelo_inurba_marseille","lat":43.22936,"lon":5.35378,"is_reserved":false,"is_disabled":false,"rental_uris":{"android":"levelo://app?vid=1af2813b-98a0-4b62-aaf8-89652b30f639","ios":"levelo://app?vid=1af2813b-98a0-4b62-aaf8-89652b30f639"},"vehicle_type_id":"4","last_reported":1728914926,"current_range_meters":36000,"station_id":"cpo3532slgdg3j2ikp40","pricing_plan_id":"cebpf4jnsgd1na2vs0mg"},{"bike_id":"85145c8d-ffe3-4050-8ffe-e1bbf4533bf2","system_id":"levelo_inurba_marseille","lat":43.2955,"lon":5.42284,"is_reserved":false,"is_disabled":false,"rental_uris":{"android":"levelo://app?vid=85145c8d-ffe3-4050-8ffe-e1bbf4533bf2","ios":"levelo://app?vid=85145c8d-ffe3-4050-8ffe-e1bbf4533bf2"},"vehicle_type_id":"4","last_reported":1728914926,"current_range_meters":33200,"station_id":"ce4bhph2rcd13ifvqhdg","pricing_plan_id":"cebpf4jnsgd1na2vs0mg"},{"bike_id":"edba7335-4b2e-4e81-9329-672061d4697d","system_id":"levelo_inurba_marseille","lat":43.29265,"lon":5.40117,"is_reserved":false,"is_disabled":false,"rental_uris":{"android":"levelo://app?vid=edba7335-4b2e-4e81-9329-672061d4697d","ios":"levelo://app?vid=edba7335-4b2e-4e81-9329-672061d4697d"},"vehicle_type_id":"4","last_reported":1728914926,"current_range_meters":38800,"station_id":"ce4bh312rcd13ifvqdk0","pricing_plan_id":"cebpf4jnsgd1na2vs0mg"},{"bike_id":"f93454e1-a669-4c63-a4ca-b572042c7971","system_id":"levelo_inurba_marseille","lat":43.23192,"lon":5.35559,"is_reserved":false,"is_disabled":false,"rental_uris":{"android":"levelo://app?vid=f93454e1-a669-4c63-a4ca-b572042c7971","ios":"levelo://app?vid=f93454e1-a669-4c63-a4ca-b572042c7971"},"vehicle_type_id":"4","last_reported":1728914926,"current_range_meters":29600,"station_id":"ce4bhu92rcd13ifvqi70","pricing_plan_id":"cebpf4jnsgd1na2vs0mg"},{"bike_id":"845443f5-48b9-48cc-bcd6-6be32eca0125","system_id":"levelo_inurba_marseille","lat":43.29954,"lon":5.41313,"is_reserved":false,"is_disabled":false,"rental_uris":{"android":"levelo://app?vid=845443f5-48b9-48cc-bcd6-6be32eca0125","ios":"levelo://app?vid=845443f5-48b9-48cc-bcd6-6be32eca0125"},"vehicle_type_id":"4","last_reported":1728914926,"current_range_meters":36400,"station_id":"ce4bhp12rcd13ifvqh9g","pricing_plan_id":"cebpf4jnsgd1na2vs0mg"},{"bike_id":"d8899baa-68b0-4d33-9d6b-00344453a560","system_id":"levelo_inurba_marseille","lat":43.29188,"lon":5.35805,"is_reserved":false,"is_disabled":false,"rental_uris":{"android":"levelo://app?vid=d8899baa-68b0-4d33-9d6b-00344453a560","ios":"levelo://app?vid=d8899baa-68b0-4d33-9d6b-00344453a560"},"vehicle_type_id":"4","last_reported":1728914926,"current_range_meters":24000,"station_id":"ce4bhb12rcd13ifvqel0","pricing_plan_id":"cebpf4jnsgd1na2vs0mg"},{"bike_id":"f89eeca3-f788-45e3-a285-753cb13e4971","system_id":"levelo_inurba_marseille","lat":43.28151,"lon":5.42645,"is_reserved":false,"is_disabled":false,"rental_uris":{"android":"levelo://app?vid=f89eeca3-f788-45e3-a285-753cb13e4971","ios":"levelo://app?vid=f89eeca3-f788-45e3-a285-753cb13e4971"},"vehicle_type_id":"4","last_reported":1728914926,"current_range_meters":20400,"station_id":"ce4bhnh2rcd13ifvqgug","pricing_plan_id":"cebpf4jnsgd1na2vs0mg"},{"bike_id":"d9aaaab4-57cb-4f79-8f46-315477c7207b","system_id":"levelo_inurba_marseille","lat":43.27309,"lon":5.39079,"is_reserved":false,"is_disabled":false,"rental_uris":{"android":"levelo://app?vid=d9aaaab4-57cb-4f79-8f46-315477c7207b","ios":"levelo://app?vid=d9aaaab4-57cb-4f79-8f46-315477c7207b"},"vehicle_type_id":"4","last_reported":1728914926,"current_range_meters":9200,"station_id":"ce4bhgp2rcd13ifvqfe0","pricing_plan_id":"cebpf4jnsgd1na2vs0mg"},{"bike_id":"75d64712-a213-4a1c-afc5-bd5573565a07","system_id":"levelo_inurba_marseille","lat":43.29192,"lon":5.39327,"is_reserved":false,"is_disabled":false,"rental_uris":{"android":"levelo://app?vid=75d64712-a213-4a1c-afc5-bd5573565a07","ios":"levelo://app?vid=75d64712-a213-4a1c-afc5-bd5573565a07"},"vehicle_type_id":"4","last_reported":1728914926,"current_range_meters":38800,"station_id":"ce4bh192rcd13ifvqdd0","pricing_plan_id":"cebpf4jnsgd1na2vs0mg"},{"bike_id":"6a344486-14e7-432e-98bf-b8beed8e06c6","system_id":"levelo_inurba_marseille","lat":43.32336,"lon":5.38328,"is_reserved":false,"is_disabled":false,"rental_uris":{"android":"levelo://app?vid=6a344486-14e7-432e-98bf-b8beed8e06c6","ios":"levelo://app?vid=6a344486-14e7-432e-98bf-b8beed8e06c6"},"vehicle_type_id":"4","last_reported":1728914926,"current_range_meters":35200,"station_id":"","pricing_plan_id":"cebpf4jnsgd1na2vs0mg"},{"bike_id":"a42bc3b3-c700-42d5-83e4-f935167afc41","system_id":"levelo_inurba_marseille","lat":43.299838,"lon":5.38482,"is_reserved":false,"is_disabled":false,"rental_uris":{"android":"levelo://app?vid=a42bc3b3-c700-42d5-83e4-f935167afc41","ios":"levelo://app?vid=a42bc3b3-c700-42d5-83e4-f935167afc41"},"vehicle_type_id":"4","last_reported":1728914926,"current_range_meters":19200,"station_id":"ce4bgt12rcd13ifvqce0","pricing_plan_id":"cebpf4jnsgd1na2vs0mg"},{"bike_id":"fc9ea00d-8057-4ce8-96b9-a98501c16984","system_id":"levelo_inurba_marseille","lat":43.28275,"lon":5.35069,"is_reserved":false,"is_disabled":false,"rental_uris":{"android":"levelo://app?vid=fc9ea00d-8057-4ce8-96b9-a98501c16984","ios":"levelo://app?vid=fc9ea00d-8057-4ce8-96b9-a98501c16984"},"vehicle_type_id":"4","last_reported":1728914926,"current_range_meters":3600,"station_id":"ce4bhbp2rcd13ifvqerg","pricing_plan_id":"cebpf4jnsgd1na2vs0mg"},{"bike_id":"fb98a24e-0938-4426-b862-7886718862d9","system_id":"levelo_inurba_marseille","lat":43.29905,"lon":5.37459,"is_reserved":false,"is_disabled":false,"rental_uris":{"android":"levelo://app?vid=fb98a24e-0938-4426-b862-7886718862d9","ios":"levelo://app?vid=fb98a24e-0938-4426-b862-7886718862d9"},"vehicle_type_id":"4","last_reported":1728914926,"current_range_meters":26000,"station_id":"ce4bgjh2rcd13ifvqbg0","pricing_plan_id":"cebpf4jnsgd1na2vs0mg"},{"bike_id":"41717e86-9f46-4be7-867c-8a39e4cfb439","system_id":"levelo_inurba_marseille","lat":43.28463,"lon":5.38417,"is_reserved":false,"is_disabled":false,"rental_uris":{"android":"levelo://app?vid=41717e86-9f46-4be7-867c-8a39e4cfb439","ios":"levelo://app?vid=41717e86-9f46-4be7-867c-8a39e4cfb439"},"vehicle_type_id":"4","last_reported":1728914926,"current_range_meters":38800,"station_id":"ce4bh512rcd13ifvqe3g","pricing_plan_id":"cebpf4jnsgd1na2vs0mg"},{"bike_id":"6b6c40a7-31c3-45c2-9ed8-4744786dc7f0","system_id":"levelo_inurba_marseille","lat":43.33717,"lon":5.39186,"is_reserved":false,"is_disabled":false,"rental_uris":{"android":"levelo://app?vid=6b6c40a7-31c3-45c2-9ed8-4744786dc7f0","ios":"levelo://app?vid=6b6c40a7-31c3-45c2-9ed8-4744786dc7f0"},"vehicle_type_id":"4","last_reported":1728914926,"current_range_meters":26000,"station_id":"ce4bhr92rcd13ifvqhsg","pricing_plan_id":"cebpf4jnsgd1na2vs0mg"},{"bike_id":"754da881-cbc9-4b35-beb2-51d368048841","system_id":"levelo_inurba_marseille","lat":43.33731,"lon":5.37454,"is_reserved":false,"is_disabled":false,"rental_uris":{"android":"levelo://app?vid=754da881-cbc9-4b35-beb2-51d368048841","ios":"levelo://app?vid=754da881-cbc9-4b35-beb2-51d368048841"},"vehicle_type_id":"4","last_reported":1728914926,"current_range_meters":36800,"station_id":"","pricing_plan_id":"cebpf4jnsgd1na2vs0mg"},{"bike_id":"952ec04e-e156-4a81-92cf-caab40b96d6b","system_id":"levelo_inurba_marseille","lat":43.31161,"lon":5.38711,"is_reserved":false,"is_disabled":false,"rental_uris":{"android":"levelo://app?vid=952ec04e-e156-4a81-92cf-caab40b96d6b","ios":"levelo://app?vid=952ec04e-e156-4a81-92cf-caab40b96d6b"},"vehicle_type_id":"4","last_reported":1728914926,"current_range_meters":38000,"station_id":"ce4bgv12rcd13ifvqcp0","pricing_plan_id":"cebpf4jnsgd1na2vs0mg"},{"bike_id":"4068bf33-a058-4767-ac47-fd409a2058d1","system_id":"levelo_inurba_marseille","lat":43.24993,"lon":5.38922,"is_reserved":false,"is_disabled":false,"rental_uris":{"android":"levelo://app?vid=4068bf33-a058-4767-ac47-fd409a2058d1","ios":"levelo://app?vid=4068bf33-a058-4767-ac47-fd409a2058d1"},"vehicle_type_id":"4","last_reported":1728914926,"current_range_meters":28800,"station_id":"ce4bhgp2rcd13ifvqfd0","pricing_plan_id":"cebpf4jnsgd1na2vs0mg"},{"bike_id":"80004c0b-1888-4bc4-861c-1bb18fe1efd7","system_id":"levelo_inurba_marseille","lat":43.29548,"lon":5.42285,"is_reserved":false,"is_disabled":false,"rental_uris":{"android":"levelo://app?vid=80004c0b-1888-4bc4-861c-1bb18fe1efd7","ios":"levelo://app?vid=80004c0b-1888-4bc4-861c-1bb18fe1efd7"},"vehicle_type_id":"4","last_reported":1728914926,"current_range_meters":9600,"station_id":"ce4bhph2rcd13ifvqhdg","pricing_plan_id":"cebpf4jnsgd1na2vs0mg"},{"bike_id":"c666630a-48af-44c3-a256-5c6b19465427","system_id":"levelo_inurba_marseille","lat":43.24998,"lon":5.38924,"is_reserved":false,"is_disabled":false,"rental_uris":{"android":"levelo://app?vid=c666630a-48af-44c3-a256-5c6b19465427","ios":"levelo://app?vid=c666630a-48af-44c3-a256-5c6b19465427"},"vehicle_type_id":"4","last_reported":1728914926,"current_range_meters":25600,"station_id":"ce4bhgp2rcd13ifvqfd0","pricing_plan_id":"cebpf4jnsgd1na2vs0mg"},{"bike_id":"8e4310b3-8820-4ff1-8c01-58d119cd8be3","system_id":"levelo_inurba_marseille","lat":43.30269,"lon":5.37697,"is_reserved":false,"is_disabled":false,"rental_uris":{"android":"levelo://app?vid=8e4310b3-8820-4ff1-8c01-58d119cd8be3","ios":"levelo://app?vid=8e4310b3-8820-4ff1-8c01-58d119cd8be3"},"vehicle_type_id":"4","last_reported":1728914926,"current_range_meters":37600,"station_id":"ce4bguh2rcd13ifvqcj0","pricing_plan_id":"cebpf4jnsgd1na2vs0mg"},{"bike_id":"8d03e1ba-5181-4ab1-91b4-a60cadc36c15","system_id":"levelo_inurba_marseille","lat":43.295914,"lon":5.381056,"is_reserved":false,"is_disabled":false,"rental_uris":{"android":"levelo://app?vid=8d03e1ba-5181-4ab1-91b4-a60cadc36c15","ios":"levelo://app?vid=8d03e1ba-5181-4ab1-91b4-a60cadc36c15"},"vehicle_type_id":"4","last_reported":1728914926,"current_range_meters":18000,"station_id":"ce4bgl12rcd13ifvqbo0","pricing_plan_id":"cebpf4jnsgd1na2vs0mg"},{"bike_id":"b250cbcd-46bd-44b1-8819-7961f8e6d330","system_id":"levelo_inurba_marseille","lat":43.24388,"lon":5.37052,"is_reserved":false,"is_disabled":false,"rental_uris":{"android":"levelo://app?vid=b250cbcd-46bd-44b1-8819-7961f8e6d330","ios":"levelo://app?vid=b250cbcd-46bd-44b1-8819-7961f8e6d330"},"vehicle_type_id":"4","last_reported":1728914926,"current_range_meters":38800,"station_id":"ce4bhhh2rcd13ifvqfk0","pricing_plan_id":"cebpf4jnsgd1na2vs0mg"},{"bike_id":"00a5f327-d584-4c8c-bd69-c9ad8a103ce9","system_id":"levelo_inurba_marseille","lat":43.24651,"lon":5.38896,"is_reserved":false,"is_disabled":false,"rental_uris":{"android":"levelo://app?vid=00a5f327-d584-4c8c-bd69-c9ad8a103ce9","ios":"levelo://app?vid=00a5f327-d584-4c8c-bd69-c9ad8a103ce9"},"vehicle_type_id":"4","last_reported":1728914926,"current_range_meters":30000,"station_id":"ce4bhg12rcd13ifvqf60","pricing_plan_id":"cebpf4jnsgd1na2vs0mg"},{"bike_id":"9641bdfe-11f5-43f9-a0e0-a08d9ab400f5","system_id":"levelo_inurba_marseille","lat":43.28623,"lon":5.35105,"is_reserved":false,"is_disabled":false,"rental_uris":{"android":"levelo://app?vid=9641bdfe-11f5-43f9-a0e0-a08d9ab400f5","ios":"levelo://app?vid=9641bdfe-11f5-43f9-a0e0-a08d9ab400f5"},"vehicle_type_id":"4","last_reported":1728914926,"current_range_meters":24800,"station_id":"ce4bhch2rcd13ifvqeug","pricing_plan_id":"cebpf4jnsgd1na2vs0mg"},{"bike_id":"3ebe46e5-b273-4cb6-bb0c-b034c72c2da4","system_id":"levelo_inurba_marseille","lat":43.29276,"lon":5.36843,"is_reserved":false,"is_disabled":false,"rental_uris":{"android":"levelo://app?vid=3ebe46e5-b273-4cb6-bb0c-b034c72c2da4","ios":"levelo://app?vid=3ebe46e5-b273-4cb6-bb0c-b034c72c2da4"},"vehicle_type_id":"4","last_reported":1728914926,"current_range_meters":9600,"station_id":"ce4bhbp2rcd13ifvqesg","pricing_plan_id":"cebpf4jnsgd1na2vs0mg"},{"bike_id":"762436c5-780c-4b9a-a231-e18db55d684f","system_id":"levelo_inurba_marseille","lat":43.32058,"lon":5.41557,"is_reserved":false,"is_disabled":false,"rental_uris":{"android":"levelo://app?vid=762436c5-780c-4b9a-a231-e18db55d684f","ios":"levelo://app?vid=762436c5-780c-4b9a-a231-e18db55d684f"},"vehicle_type_id":"4","last_reported":1728914926,"current_range_meters":31200,"station_id":"ce4bhq92rcd13ifvqhkg","pricing_plan_id":"cebpf4jnsgd1na2vs0mg"},{"bike_id":"824fc291-63f2-4605-b264-772dcd3cef17","system_id":"levelo_inurba_marseille","lat":43.3372,"lon":5.39186,"is_reserved":false,"is_disabled":false,"rental_uris":{"android":"levelo://app?vid=824fc291-63f2-4605-b264-772dcd3cef17","ios":"levelo://app?vid=824fc291-63f2-4605-b264-772dcd3cef17"},"vehicle_type_id":"4","last_reported":1728914926,"current_range_meters":26000,"station_id":"ce4bhr92rcd13ifvqhsg","pricing_plan_id":"cebpf4jnsgd1na2vs0mg"},{"bike_id":"6484c328-3310-4860-83fc-c04cb372ae68","system_id":"levelo_inurba_marseille","lat":43.26054,"lon":5.39394,"is_reserved":false,"is_disabled":false,"rental_uris":{"android":"levelo://app?vid=6484c328-3310-4860-83fc-c04cb372ae68","ios":"levelo://app?vid=6484c328-3310-4860-83fc-c04cb372ae68"},"vehicle_type_id":"4","last_reported":1728914926,"current_range_meters":36800,"station_id":"ce4bhh92rcd13ifvqfj0","pricing_plan_id":"cebpf4jnsgd1na2vs0mg"},{"bike_id":"f269126c-1b0b-4a1a-a1d6-f8c3716f5336","system_id":"levelo_inurba_marseille","lat":43.23196,"lon":5.35552,"is_reserved":false,"is_disabled":false,"rental_uris":{"android":"levelo://app?vid=f269126c-1b0b-4a1a-a1d6-f8c3716f5336","ios":"levelo://app?vid=f269126c-1b0b-4a1a-a1d6-f8c3716f5336"},"vehicle_type_id":"4","last_reported":1728914926,"current_range_meters":37600,"station_id":"ce4bhu92rcd13ifvqi70","pricing_plan_id":"cebpf4jnsgd1na2vs0mg"},{"bike_id":"adca6e3c-f78c-40b3-a77a-3e4c216dc753","system_id":"levelo_inurba_marseille","lat":43.287742,"lon":5.361407,"is_reserved":false,"is_disabled":false,"rental_uris":{"android":"levelo://app?vid=adca6e3c-f78c-40b3-a77a-3e4c216dc753","ios":"levelo://app?vid=adca6e3c-f78c-40b3-a77a-3e4c216dc753"},"vehicle_type_id":"4","last_reported":1728914926,"current_range_meters":37600,"station_id":"cki0cbj6b192h4jlfktg","pricing_plan_id":"cebpf4jnsgd1na2vs0mg"},{"bike_id":"6f4b79a1-feca-496a-a641-6bdad1c9828a","system_id":"levelo_inurba_marseille","lat":43.32479,"lon":5.36565,"is_reserved":false,"is_disabled":false,"rental_uris":{"android":"levelo://app?vid=6f4b79a1-feca-496a-a641-6bdad1c9828a","ios":"levelo://app?vid=6f4b79a1-feca-496a-a641-6bdad1c9828a"},"vehicle_type_id":"4","last_reported":1728914926,"current_range_meters":39200,"station_id":"ce4bhs12rcd13ifvqhvg","pricing_plan_id":"cebpf4jnsgd1na2vs0mg"},{"bike_id":"f225be58-7bba-4f0e-af17-4310840d1f36","system_id":"levelo_inurba_marseille","lat":43.29804,"lon":5.38075,"is_reserved":false,"is_disabled":false,"rental_uris":{"android":"levelo://app?vid=f225be58-7bba-4f0e-af17-4310840d1f36","ios":"levelo://app?vid=f225be58-7bba-4f0e-af17-4310840d1f36"},"vehicle_type_id":"4","last_reported":1728914926,"current_range_meters":38400,"station_id":"ce4bh692rcd13ifvqe90","pricing_plan_id":"cebpf4jnsgd1na2vs0mg"},{"bike_id":"4d6bab1d-37fd-48f3-828e-64776edb28b4","system_id":"levelo_inurba_marseille","lat":43.28147,"lon":5.42638,"is_reserved":false,"is_disabled":false,"rental_uris":{"android":"levelo://app?vid=4d6bab1d-37fd-48f3-828e-64776edb28b4","ios":"levelo://app?vid=4d6bab1d-37fd-48f3-828e-64776edb28b4"},"vehicle_type_id":"4","last_reported":1728914926,"current_range_meters":24400,"station_id":"ce4bhnh2rcd13ifvqgug","pricing_plan_id":"cebpf4jnsgd1na2vs0mg"},{"bike_id":"c07b0602-95dc-45d6-ad85-46dfc610b8f8","system_id":"levelo_inurba_marseille","lat":43.29028,"lon":5.38641,"is_reserved":false,"is_disabled":false,"rental_uris":{"android":"levelo://app?vid=c07b0602-95dc-45d6-ad85-46dfc610b8f8","ios":"levelo://app?vid=c07b0602-95dc-45d6-ad85-46dfc610b8f8"},"vehicle_type_id":"4","last_reported":1728914926,"current_range_meters":19200,"station_id":"ce4bh4p2rcd13ifvqe0g","pricing_plan_id":"cebpf4jnsgd1na2vs0mg"},{"bike_id":"5ede9bdc-069f-46eb-9044-1670dc34336d","system_id":"levelo_inurba_marseille","lat":43.25118,"lon":5.40317,"is_reserved":false,"is_disabled":false,"rental_uris":{"android":"levelo://app?vid=5ede9bdc-069f-46eb-9044-1670dc34336d","ios":"levelo://app?vid=5ede9bdc-069f-46eb-9044-1670dc34336d"},"vehicle_type_id":"4","last_reported":1728914926,"current_range_meters":26000,"station_id":"ce4bhlh2rcd13ifvqgig","pricing_plan_id":"cebpf4jnsgd1na2vs0mg"},{"bike_id":"7eec1c8f-71e5-4e65-b0fb-e1793261ced3","system_id":"levelo_inurba_marseille","lat":43.29904,"lon":5.3747,"is_reserved":false,"is_disabled":false,"rental_uris":{"android":"levelo://app?vid=7eec1c8f-71e5-4e65-b0fb-e1793261ced3","ios":"levelo://app?vid=7eec1c8f-71e5-4e65-b0fb-e1793261ced3"},"vehicle_type_id":"4","last_reported":1728914926,"current_range_meters":39200,"station_id":"ce4bgjh2rcd13ifvqbg0","pricing_plan_id":"cebpf4jnsgd1na2vs0mg"},{"bike_id":"262fd014-e30d-43d7-ad9d-63c21a7313a2","system_id":"levelo_inurba_marseille","lat":43.29885,"lon":5.43661,"is_reserved":false,"is_disabled":false,"rental_uris":{"android":"levelo://app?vid=262fd014-e30d-43d7-ad9d-63c21a7313a2","ios":"levelo://app?vid=262fd014-e30d-43d7-ad9d-63c21a7313a2"},"vehicle_type_id":"4","last_reported":1728914926,"current_range_meters":37600,"station_id":"ce4bhpp2rcd13ifvqhfg","pricing_plan_id":"cebpf4jnsgd1na2vs0mg"},{"bike_id":"3d416aa5-f493-4644-bd11-bdddad01967a","system_id":"levelo_inurba_marseille","lat":43.29627,"lon":5.37162,"is_reserved":false,"is_disabled":false,"rental_uris":{"android":"levelo://app?vid=3d416aa5-f493-4644-bd11-bdddad01967a","ios":"levelo://app?vid=3d416aa5-f493-4644-bd11-bdddad01967a"},"vehicle_type_id":"4","last_reported":1728914926,"current_range_meters":36400,"station_id":"ce4bgnh2rcd13ifvqc0g","pricing_plan_id":"cebpf4jnsgd1na2vs0mg"},{"bike_id":"07c20742-f5c6-482e-a593-a2530240999e","system_id":"levelo_inurba_marseille","lat":43.29552,"lon":5.42296,"is_reserved":false,"is_disabled":false,"rental_uris":{"android":"levelo://app?vid=07c20742-f5c6-482e-a593-a2530240999e","ios":"levelo://app?vid=07c20742-f5c6-482e-a593-a2530240999e"},"vehicle_type_id":"4","last_reported":1728914926,"current_range_meters":38000,"station_id":"ce4bhph2rcd13ifvqhdg","pricing_plan_id":"cebpf4jnsgd1na2vs0mg"},{"bike_id":"c6710237-b445-4862-8616-47ea11d83d0f","system_id":"levelo_inurba_marseille","lat":43.24161,"lon":5.36394,"is_reserved":false,"is_disabled":false,"rental_uris":{"android":"levelo://app?vid=c6710237-b445-4862-8616-47ea11d83d0f","ios":"levelo://app?vid=c6710237-b445-4862-8616-47ea11d83d0f"},"vehicle_type_id":"4","last_reported":1728914926,"current_range_meters":29600,"station_id":"cpo36qri1sfpv3e86is0","pricing_plan_id":"cebpf4jnsgd1na2vs0mg"},{"bike_id":"4ecbc01c-cada-4ea3-918e-6f3087dd51b3","system_id":"levelo_inurba_marseille","lat":43.29534,"lon":5.37529,"is_reserved":false,"is_disabled":false,"rental_uris":{"android":"levelo://app?vid=4ecbc01c-cada-4ea3-918e-6f3087dd51b3","ios":"levelo://app?vid=4ecbc01c-cada-4ea3-918e-6f3087dd51b3"},"vehicle_type_id":"4","last_reported":1728914926,"current_range_meters":29600,"station_id":"ce4bgkp2rcd13ifvqbmg","pricing_plan_id":"cebpf4jnsgd1na2vs0mg"},{"bike_id":"64a94efa-47b6-428b-9964-138098ebe3ff","system_id":"levelo_inurba_marseille","lat":43.3095,"lon":5.39028,"is_reserved":false,"is_disabled":false,"rental_uris":{"android":"levelo://app?vid=64a94efa-47b6-428b-9964-138098ebe3ff","ios":"levelo://app?vid=64a94efa-47b6-428b-9964-138098ebe3ff"},"vehicle_type_id":"4","last_reported":1728914926,"current_range_meters":30800,"station_id":"ce4bgup2rcd13ifvqco0","pricing_plan_id":"cebpf4jnsgd1na2vs0mg"},{"bike_id":"11d82e88-47de-4dc3-8659-276caa86337f","system_id":"levelo_inurba_marseille","lat":43.29866,"lon":5.39739,"is_reserved":false,"is_disabled":false,"rental_uris":{"android":"levelo://app?vid=11d82e88-47de-4dc3-8659-276caa86337f","ios":"levelo://app?vid=11d82e88-47de-4dc3-8659-276caa86337f"},"vehicle_type_id":"4","last_reported":1728914926,"current_range_meters":23200,"station_id":"ce4bh0h2rcd13ifvqd50","pricing_plan_id":"cebpf4jnsgd1na2vs0mg"},{"bike_id":"ff48aaf1-5595-4bf9-bf13-c2633fad3aed","system_id":"levelo_inurba_marseille","lat":43.29571,"lon":5.37526,"is_reserved":false,"is_disabled":false,"rental_uris":{"android":"levelo://app?vid=ff48aaf1-5595-4bf9-bf13-c2633fad3aed","ios":"levelo://app?vid=ff48aaf1-5595-4bf9-bf13-c2633fad3aed"},"vehicle_type_id":"4","last_reported":1728914926,"current_range_meters":36800,"station_id":"ce4bgh92rcd13ifvqb50","pricing_plan_id":"cebpf4jnsgd1na2vs0mg"},{"bike_id":"e22447e2-d9c5-448d-8420-b2bf24065647","system_id":"levelo_inurba_marseille","lat":43.29628,"lon":5.40596,"is_reserved":false,"is_disabled":false,"rental_uris":{"android":"levelo://app?vid=e22447e2-d9c5-448d-8420-b2bf24065647","ios":"levelo://app?vid=e22447e2-d9c5-448d-8420-b2bf24065647"},"vehicle_type_id":"4","last_reported":1728914926,"current_range_meters":8400,"station_id":"ce4bh0h2rcd13ifvqd60","pricing_plan_id":"cebpf4jnsgd1na2vs0mg"},{"bike_id":"299fa77c-d820-4ee5-9f4e-8abc5b7a410f","system_id":"levelo_inurba_marseille","lat":43.28615,"lon":5.36154,"is_reserved":false,"is_disabled":false,"rental_uris":{"android":"levelo://app?vid=299fa77c-d820-4ee5-9f4e-8abc5b7a410f","ios":"levelo://app?vid=299fa77c-d820-4ee5-9f4e-8abc5b7a410f"},"vehicle_type_id":"4","last_reported":1728914926,"current_range_meters":29600,"station_id":"ce4bhah2rcd13ifvqei0","pricing_plan_id":"cebpf4jnsgd1na2vs0mg"},{"bike_id":"a3d92d5d-06a6-491a-a900-e94736046b32","system_id":"levelo_inurba_marseille","lat":43.27615,"lon":5.36102,"is_reserved":false,"is_disabled":false,"rental_uris":{"android":"levelo://app?vid=a3d92d5d-06a6-491a-a900-e94736046b32","ios":"levelo://app?vid=a3d92d5d-06a6-491a-a900-e94736046b32"},"vehicle_type_id":"4","last_reported":1728914926,"current_range_meters":33600,"station_id":"ce4bgj92rcd13ifvqbe0","pricing_plan_id":"cebpf4jnsgd1na2vs0mg"},{"bike_id":"7d3a88c5-d13f-454d-ae5c-aa5c8b9d2d99","system_id":"levelo_inurba_marseille","lat":43.29796,"lon":5.38147,"is_reserved":false,"is_disabled":false,"rental_uris":{"android":"levelo://app?vid=7d3a88c5-d13f-454d-ae5c-aa5c8b9d2d99","ios":"levelo://app?vid=7d3a88c5-d13f-454d-ae5c-aa5c8b9d2d99"},"vehicle_type_id":"4","last_reported":1728914926,"current_range_meters":38800,"station_id":"ce4bgip2rcd13ifvqbb0","pricing_plan_id":"cebpf4jnsgd1na2vs0mg"},{"bike_id":"5c7cfc52-31e8-4a15-a0a3-22e6dab51e0a","system_id":"levelo_inurba_marseille","lat":43.28615,"lon":5.35104,"is_reserved":false,"is_disabled":false,"rental_uris":{"android":"levelo://app?vid=5c7cfc52-31e8-4a15-a0a3-22e6dab51e0a","ios":"levelo://app?vid=5c7cfc52-31e8-4a15-a0a3-22e6dab51e0a"},"vehicle_type_id":"4","last_reported":1728914926,"current_range_meters":16400,"station_id":"ce4bhch2rcd13ifvqeug","pricing_plan_id":"cebpf4jnsgd1na2vs0mg"},