{"last_updated":1771539592,"ttl":60,"version":"2.2","data":{"bikes":[{"bike_id":"99327eba-2c72-48ee-a78b-9b9a5e0f558b","system_id":"levelo_inurba_marseille","lat":43.337444,"lon":5.374475,"is_reserved":false,"is_disabled":true,"rental_uris":{"android":"levelo://app?vid=99327eba-2c72-48ee-a78b-9b9a5e0f558b","ios":"levelo://app?vid=99327eba-2c72-48ee-a78b-9b9a5e0f558b"},"vehicle_type_id":"4","last_reported":1771539593,"current_range_meters":22400,"station_id":"","pricing_plan_id":"cebpf4jnsgd1na2vs0mg"},{"bike_id":"43b98b5f-6dbd-4ec4-a093-cfba8e608803","system_id":"levelo_inurba_marseille","lat":43.33024,"lon":5.3901,"is_reserved":false,"is_disabled":false,"rental_uris":{"android":"levelo://app?vid=43b98b5f-6dbd-4ec4-a093-cfba8e608803","ios":"levelo://app?vid=43b98b5f-6dbd-4ec4-a093-cfba8e608803"},"vehicle_type_id":"4","last_reported":1771539593,"current_range_meters":39200,"station_id":"ce4bhr92rcd13ifvqhrg","pricing_plan_id":"cebpf4jnsgd1na2vs0mg"},{"bike_id":"eaf07016-3264-40cc-b6c8-095c9a4cf112","system_id":"levelo_inurba_marseille","lat":43.27824,"lon":5.39199,"is_reserved":false,"is_disabled":false,"rental_uris":{"android":"levelo://app?vid=eaf07016-3264-40cc-b6c8-095c9a4cf112","ios":"levelo://app?vid=eaf07016-3264-40cc-b6c8-095c9a4cf112"},"vehicle_type_id":"4","last_reported":1771539593,"current_range_meters":40000,"station_id":"ce4bhjp2rcd13ifvqga0","pricing_plan_id":"cebpf4jnsgd1na2vs0mg"},{"bike_id":"7a1cdecb-11bb-4f70-bf50-b6f3456f03c6","system_id":"levelo_inurba_marseille","lat":43.33036,"lon":5.38997,"is_reserved":false,"is_disabled":false,"rental_uris":{"android":"levelo://app?vid=7a1cdecb-11bb-4f70-bf50-b6f3456f03c6","ios":"levelo://app?vid=7a1cdecb-11bb-4f70-bf50-b6f3456f03c6"},"vehicle_type_id":"4","last_reported":1771539593,"current_range_meters":38800,"station_id":"ce4bhr92rcd13ifvqhrg","pricing_plan_id":"cebpf4jnsgd1na2vs0mg"},{"bike_id":"4d144231-2289-496a-bc7a-fa4fa5d7e2d8","system_id":"levelo_inurba_marseille","lat":43.33019,"lon":5.39032,"is_reserved":false,"is_disabled":false,"rental_uris":{"android":"levelo://app?vid=4d144231-2289-496a-bc7a-fa4fa5d7e2d8","ios":"levelo://app?vid=4d144231-2289-496a-bc7a-fa4fa5d7e2d8"},"vehicle_type_id":"4","last_reported":1771539593,"current_range_meters":39200,"station_id":"ce4bhr92rcd13ifvqhrg","pricing_plan_id":"cebpf4jnsgd1na2vs0mg"},{"bike_id":"0516ad23-91ca-413d-b8b4-23658eb358e0","system_id":"levelo_inurba_marseille","lat":43.33022,"lon":5.39027,"is_reserved":false,"is_disabled":false,"rental_uris":{"android":"levelo://app?vid=0516ad23-91ca-413d-b8b4-23658eb358e0","ios":"levelo://app?vid=0516ad23-91ca-413d-b8b4-23658eb358e0"},"vehicle_type_id":"4","last_reported":1771539593,"current_range_meters":39200,"station_id":"ce4bhr92rcd13ifvqhrg","pricing_plan_id":"cebpf4jnsgd1na2vs0mg"},{"bike_id":"26000524-2bbf-4fdd-ae6e-f447f558181e","system_id":"levelo_inurba_marseille","lat":43.30441,"lon":5.38881,"is_reserved":false,"is_disabled":false,"rental_uris":{"android":"levelo://app?vid=26000524-2bbf-4fdd-ae6e-f447f558181e","ios":"levelo://app?vid=26000524-2bbf-4fdd-ae6e-f447f558181e"},"vehicle_type_id":"4","last_reported":1771539593,"current_range_meters":39200,"station_id":"ce4bgk12rcd13ifvqbi0","pricing_plan_id":"cebpf4jnsgd1na2vs0mg"},{"bike_id":"ccfa2006-ef9a-478a-a704-426a2376a419","system_id":"levelo_inurba_marseille","lat":43.33024,"lon":5.39044,"is_reserved":false,"is_disabled":false,"rental_uris":{"android":"levelo://app?vid=ccfa2006-ef9a-478a-a704-426a2376a419","ios":"levelo://app?vid=ccfa2006-ef9a-478a-a704-426a2376a419"},"vehicle_type_id":"4","last_reported":1771539593,"current_range_meters":39200,"station_id":"ce4bhr92rcd13ifvqhrg","pricing_plan_id":"cebpf4jnsgd1na2vs0mg"},{"bike_id":"9cf09c6e-6674-4d88-9be0-f6e909b4f5c4","system_id":"levelo_inurba_marseille","lat":43.3303,"lon":5.38991,"is_reserved":false,"is_disabled":false,"rental_uris":{"android":"levelo://app?vid=9cf09c6e-6674-4d88-9be0-f6e909b4f5c4","ios":"levelo://app?vid=9cf09c6e-6674-4d88-9be0-f6e909b4f5c4"},"vehicle_type_id":"4","last_reported":1771539593,"current_range_meters":39200,"station_id":"ce4bhr92rcd13ifvqhrg","pricing_plan_id":"cebpf4jnsgd1na2vs0mg"},{"bike_id":"67684dd4-9830-4386-8d3b-50a28b8fdff3","system_id":"levelo_inurba_marseille","lat":43.33028,"lon":5.39039,"is_reserved":false,"is_disabled":false,"rental_uris":{"android":"levelo://app?vid=67684dd4-9830-4386-8d3b-50a28b8fdff3","ios":"levelo://app?vid=67684dd4-9830-4386-8d3b-50a28b8fdff3"},"vehicle_type_id":"4","last_reported":1771539593,"current_range_meters":39200,"station_id":"ce4bhr92rcd13ifvqhrg","pricing_plan_id":"cebpf4jnsgd1na2vs0mg"},{"bike_id":"589c75b5-74c8-4f58-8438-82be05448464","system_id":"levelo_inurba_marseille","lat":43.29533,"lon":5.38532,"is_reserved":false,"is_disabled":false,"rental_uris":{"android":"levelo://app?vid=589c75b5-74c8-4f58-8438-82be05448464","ios":"levelo://app?vid=589c75b5-74c8-4f58-8438-82be05448464"},"vehicle_type_id":"4","last_reported":1771539593,"current_range_meters":24000,"station_id":"ce4bgih2rcd13ifvqba0","pricing_plan_id":"cebpf4jnsgd1na2vs0mg"},{"bike_id":"19d23579-6cc8-4678-9fe1-3aaecb2b3094","system_id":"levelo_inurba_marseille","lat":43.29281,"lon":5.36848,"is_reserved":false,"is_disabled":false,"rental_uris":{"android":"levelo://app?vid=19d23579-6cc8-4678-9fe1-3aaecb2b3094","ios":"levelo://app?vid=19d23579-6cc8-4678-9fe1-3aaecb2b3094"},"vehicle_type_id":"4","last_reported":1771539593,"current_range_meters":16800,"station_id":"ce4bhbp2rcd13ifvqesg","pricing_plan_id":"cebpf4jnsgd1na2vs0mg"},{"bike_id":"d8078990-2633-4921-9e81-c73d420fcb12","system_id":"levelo_inurba_marseille","lat":43.28405,"lon":5.37517,"is_reserved":false,"is_disabled":true,"rental_uris":{"android":"levelo://app?vid=d8078990-2633-4921-9e81-c73d420fcb12","ios":"levelo://app?vid=d8078990-2633-4921-9e81-c73d420fcb12"},"vehicle_type_id":"4","last_reported":1771539593,"current_range_meters":17200,"station_id":"ce4bh412rcd13ifvqds0","pricing_plan_id":"cebpf4jnsgd1na2vs0mg"},{"bike_id":"f56469d6-156e-4dc9-9c3e-3416ed76c4ba","system_id":"levelo_inurba_marseille","lat":43.33141,"lon":5.377,"is_reserved":false,"is_disabled":false,"rental_uris":{"android":"levelo://app?vid=f56469d6-156e-4dc9-9c3e-3416ed76c4ba","ios":"levelo://app?vid=f56469d6-156e-4dc9-9c3e-3416ed76c4ba"},"vehicle_type_id":"4","last_reported":1771539593,"current_range_meters":20800,"station_id":"st_d46cu089ee8s73dldbu0","pricing_plan_id":"cebpf4jnsgd1na2vs0mg"},{"bike_id":"f1b8608e-c371-45f5-a94a-be8266215028","system_id":"levelo_inurba_marseille","lat":43.30304,"lon":5.36896,"is_reserved":false,"is_disabled":false,"rental_uris":{"android":"levelo://app?vid=f1b8608e-c371-45f5-a94a-be8266215028","ios":"levelo://app?vid=f1b8608e-c371-45f5-a94a-be8266215028"},"vehicle_type_id":"4","last_reported":1771539593,"current_range_meters":32400,"station_id":"ce4bgqh2rcd13ifvqc5g","pricing_plan_id":"cebpf4jnsgd1na2vs0mg"},{"bike_id":"21fcee29-1f60-4b15-9570-fdb254aa265c","system_id":"levelo_inurba_marseille","lat":43.30561,"lon":5.36699,"is_reserved":false,"is_disabled":false,"rental_uris":{"android":"levelo://app?vid=21fcee29-1f60-4b15-9570-fdb254aa265c","ios":"levelo://app?vid=21fcee29-1f60-4b15-9570-fdb254aa265c"},"vehicle_type_id":"4","last_reported":1771539593,"current_range_meters":36800,"station_id":"ce4bgrp2rcd13ifvqc9g","pricing_plan_id":"cebpf4jnsgd1na2vs0mg"},{"bike_id":"13a64cc7-77a3-43bb-b2dc-1de46eb833f3","system_id":"levelo_inurba_marseille","lat":43.306687,"lon":5.40082,"is_reserved":false,"is_disabled":false,"rental_uris":{"android":"levelo://app?vid=13a64cc7-77a3-43bb-b2dc-1de46eb833f3","ios":"levelo://app?vid=13a64cc7-77a3-43bb-b2dc-1de46eb833f3"},"vehicle_type_id":"4","last_reported":1771539593,"current_range_meters":25200,"station_id":"ce4bh112rcd13ifvqda0","pricing_plan_id":"cebpf4jnsgd1na2vs0mg"},{"bike_id":"5a2ea636-c0b3-4ef1-8174-a3363098f3d9","system_id":"levelo_inurba_marseille","lat":43.3042,"lon":5.39744,"is_reserved":false,"is_disabled":false,"rental_uris":{"android":"levelo://app?vid=5a2ea636-c0b3-4ef1-8174-a3363098f3d9","ios":"levelo://app?vid=5a2ea636-c0b3-4ef1-8174-a3363098f3d9"},"vehicle_type_id":"4","last_reported":1771539593,"current_range_meters":28800,"station_id":"ce4bh092rcd13ifvqd20","pricing_plan_id":"cebpf4jnsgd1na2vs0mg"},{"bike_id":"290fa5f4-0ced-4749-90ac-279bca5e7583","system_id":"levelo_inurba_marseille","lat":43.31326,"lon":5.39687,"is_reserved":false,"is_disabled":false,"rental_uris":{"android":"levelo://app?vid=290fa5f4-0ced-4749-90ac-279bca5e7583","ios":"levelo://app?vid=290fa5f4-0ced-4749-90ac-279bca5e7583"},"vehicle_type_id":"4","last_reported":1771539593,"current_range_meters":34800,"station_id":"ce4bgvp2rcd13ifvqcu0","pricing_plan_id":"cebpf4jnsgd1na2vs0mg"},{"bike_id":"37b7e444-9d5d-4c7d-ab45-e9b1c28ae4ed","system_id":"levelo_inurba_marseille","lat":43.26957,"lon":5.38627,"is_reserved":false,"is_disabled":false,"rental_uris":{"android":"levelo://app?vid=37b7e444-9d5d-4c7d-ab45-e9b1c28ae4ed","ios":"levelo://app?vid=37b7e444-9d5d-4c7d-ab45-e9b1c28ae4ed"},"vehicle_type_id":"4","last_reported":1771539593,"current_range_meters":22000,"station_id":"ce4bhh92rcd13ifvqfh0","pricing_plan_id":"cebpf4jnsgd1na2vs0mg"},{"bike_id":"d2bb17c7-6558-4b9c-ae8a-0d2292552853","system_id":"levelo_inurba_marseille","lat":43.28468,"lon":5.48415,"is_reserved":false,"is_disabled":false,"rental_uris":{"android":"levelo://app?vid=d2bb17c7-6558-4b9c-ae8a-0d2292552853","ios":"levelo://app?vid=d2bb17c7-6558-4b9c-ae8a-0d2292552853"},"vehicle_type_id":"4","last_reported":1771539593,"current_range_meters":32800,"station_id":"","pricing_plan_id":"cebpf4jnsgd1na2vs0mg"},{"bike_id":"9b2e5973-2279-43e6-9726-4b4fee231d0c","system_id":"levelo_inurba_marseille","lat":43.30507,"lon":5.38875,"is_reserved":false,"is_disabled":false,"rental_uris":{"android":"levelo://app?vid=9b2e5973-2279-43e6-9726-4b4fee231d0c","ios":"levelo://app?vid=9b2e5973-2279-43e6-9726-4b4fee231d0c"},"vehicle_type_id":"4","last_reported":1771539593,"current_range_meters":28400,"station_id":"","pricing_plan_id":"cebpf4jnsgd1na2vs0mg"},{"bike_id":"da4093a5-6673-43a8-b7ee-b4859a45cac4","system_id":"levelo_inurba_marseille","lat":43.24385,"lon":5.37077,"is_reserved":false,"is_disabled":false,"rental_uris":{"android":"levelo://app?vid=da4093a5-6673-43a8-b7ee-b4859a45cac4","ios":"levelo://app?vid=da4093a5-6673-43a8-b7ee-b4859a45cac4"},"vehicle_type_id":"4","last_reported":1771539593,"current_range_meters":4800,"station_id":"ce4bhhh2rcd13ifvqfk0","pricing_plan_id":"cebpf4jnsgd1na2vs0mg"},{"bike_id":"7a9dd99f-b993-46df-8767-5dfb4ba3f227","system_id":"levelo_inurba_marseille","lat":43.28408,"lon":5.37507,"is_reserved":false,"is_disabled":false,"rental_uris":{"android":"levelo://app?vid=7a9dd99f-b993-46df-8767-5dfb4ba3f227","ios":"levelo://app?vid=7a9dd99f-b993-46df-8767-5dfb4ba3f227"},"vehicle_type_id":"4","last_reported":1771539593,"current_range_meters":39200,"station_id":"ce4bh412rcd13ifvqds0","pricing_plan_id":"cebpf4jnsgd1na2vs0mg"},{"bike_id":"95b05025-e69b-45a5-9b26-e1374ad4998f","system_id":"levelo_inurba_marseille","lat":43.29319,"lon":5.37143,"is_reserved":false,"is_disabled":false,"rental_uris":{"android":"levelo://app?vid=95b05025-e69b-45a5-9b26-e1374ad4998f","ios":"levelo://app?vid=95b05025-e69b-45a5-9b26-e1374ad4998f"},"vehicle_type_id":"4","last_reported":1771539593,"current_range_meters":17600,"station_id":"ce4bgh92rcd13ifvqb40","pricing_plan_id":"cebpf4jnsgd1na2vs0mg"},{"bike_id":"2962a10c-3327-4211-83a9-6a2e08ce74c7","system_id":"levelo_inurba_marseille","lat":43.29314,"lon":5.37177,"is_reserved":false,"is_disabled":false,"rental_uris":{"android":"levelo://app?vid=2962a10c-3327-4211-83a9-6a2e08ce74c7","ios":"levelo://app?vid=2962a10c-3327-4211-83a9-6a2e08ce74c7"},"vehicle_type_id":"4","last_reported":1771539593,"current_range_meters":18800,"station_id":"ce4bgh92rcd13ifvqb40","pricing_plan_id":"cebpf4jnsgd1na2vs0mg"},{"bike_id":"9e1d28bc-db73-4b13-86a9-387759e1564c","system_id":"levelo_inurba_marseille","lat":43.29026,"lon":5.3812,"is_reserved":false,"is_disabled":false,"rental_uris":{"android":"levelo://app?vid=9e1d28bc-db73-4b13-86a9-387759e1564c","ios":"levelo://app?vid=9e1d28bc-db73-4b13-86a9-387759e1564c"},"vehicle_type_id":"4","last_reported":1771539593,"current_range_meters":30800,"station_id":"ce4bh4p2rcd13ifvqe1g","pricing_plan_id":"cebpf4jnsgd1na2vs0mg"},{"bike_id":"f5589284-e22a-4c69-b0cb-a20b86316d6f","system_id":"levelo_inurba_marseille","lat":43.262108,"lon":5.374399,"is_reserved":false,"is_disabled":true,"rental_uris":{"android":"levelo://app?vid=f5589284-e22a-4c69-b0cb-a20b86316d6f","ios":"levelo://app?vid=f5589284-e22a-4c69-b0cb-a20b86316d6f"},"vehicle_type_id":"4","last_reported":1771539593,"current_range_meters":1600,"station_id":"ce4bhgp2rcd13ifvqfc0","pricing_plan_id":"cebpf4jnsgd1na2vs0mg"},{"bike_id":"b6b6add6-741f-413a-beaf-faffbcc5b485","system_id":"levelo_inurba_marseille","lat":43.29577,"lon":5.36741,"is_reserved":false,"is_disabled":false,"rental_uris":{"android":"levelo://app?vid=b6b6add6-741f-413a-beaf-faffbcc5b485","ios":"levelo://app?vid=b6b6add6-741f-413a-beaf-faffbcc5b485"},"vehicle_type_id":"4","last_reported":1771539593,"current_range_meters":32000,"station_id":"ce4bgph2rcd13ifvqc2g","pricing_plan_id":"cebpf4jnsgd1na2vs0mg"},{"bike_id":"4fe5a186-358d-4555-a1b9-45c78cb7dfbd","system_id":"levelo_inurba_marseille","lat":43.28445,"lon":5.39211,"is_reserved":false,"is_disabled":false,"rental_uris":{"android":"levelo://app?vid=4fe5a186-358d-4555-a1b9-45c78cb7dfbd","ios":"levelo://app?vid=4fe5a186-358d-4555-a1b9-45c78cb7dfbd"},"vehicle_type_id":"4","last_reported":1771539593,"current_range_meters":18800,"station_id":"ce4bhoh2rcd13ifvqh5g","pricing_plan_id":"cebpf4jnsgd1na2vs0mg"},{"bike_id":"995dd4aa-d943-4547-aee8-c3325bdb05ae","system_id":"levelo_inurba_marseille","lat":43.31287,"lon":5.4018,"is_reserved":false,"is_disabled":true,"rental_uris":{"android":"levelo://app?vid=995dd4aa-d943-4547-aee8-c3325bdb05ae","ios":"levelo://app?vid=995dd4aa-d943-4547-aee8-c3325bdb05ae"},"vehicle_type_id":"4","last_reported":1771539593,"current_range_meters":20000,"station_id":"ce4bh092rcd13ifvqd30","pricing_plan_id":"cebpf4jnsgd1na2vs0mg"},{"bike_id":"241bef2b-f60e-42bb-8453-04fa3a703885","system_id":"levelo_inurba_marseille","lat":43.29574,"lon":5.37539,"is_reserved":false,"is_disabled":false,"rental_uris":{"android":"levelo://app?vid=241bef2b-f60e-42bb-8453-04fa3a703885","ios":"levelo://app?vid=241bef2b-f60e-42bb-8453-04fa3a703885"},"vehicle_type_id":"4","last_reported":1771539593,"current_range_meters":28400,"station_id":"ce4bgh92rcd13ifvqb50","pricing_plan_id":"cebpf4jnsgd1na2vs0mg"},{"bike_id":"08885286-bc7f-4747-874e-71ce041f551b","system_id":"levelo_inurba_marseille","lat":43.29933,"lon":5.36536,"is_reserved":false,"is_disabled":false,"rental_uris":{"android":"levelo://app?vid=08885286-bc7f-4747-874e-71ce041f551b","ios":"levelo://app?vid=08885286-bc7f-4747-874e-71ce041f551b"},"vehicle_type_id":"4","last_reported":1771539593,"current_range_meters":16400,"station_id":"ce4bgm92rcd13ifvqbr0","pricing_plan_id":"cebpf4jnsgd1na2vs0mg"},{"bike_id":"b22887b7-91c2-4148-bb64-f62f62c924cd","system_id":"levelo_inurba_marseille","lat":43.27928,"lon":5.38031,"is_reserved":false,"is_disabled":false,"rental_uris":{"android":"levelo://app?vid=b22887b7-91c2-4148-bb64-f62f62c924cd","ios":"levelo://app?vid=b22887b7-91c2-4148-bb64-f62f62c924cd"},"vehicle_type_id":"4","last_reported":1771539593,"current_range_meters":39200,"station_id":"ce4bhf92rcd13ifvqf50","pricing_plan_id":"cebpf4jnsgd1na2vs0mg"},{"bike_id":"9fe67ae4-bcbf-455d-92f3-d190fa5ed34b","system_id":"levelo_inurba_marseille","lat":43.28079,"lon":5.38973,"is_reserved":false,"is_disabled":false,"rental_uris":{"android":"levelo://app?vid=9fe67ae4-bcbf-455d-92f3-d190fa5ed34b","ios":"levelo://app?vid=9fe67ae4-bcbf-455d-92f3-d190fa5ed34b"},"vehicle_type_id":"4","last_reported":1771539593,"current_range_meters":11200,"station_id":"","pricing_plan_id":"cebpf4jnsgd1na2vs0mg"},{"bike_id":"1f9676a7-2b99-4f16-8329-6f9877f6e1c7","system_id":"levelo_inurba_marseille","lat":43.290338,"lon":5.386516,"is_reserved":false,"is_disabled":false,"rental_uris":{"android":"levelo://app?vid=1f9676a7-2b99-4f16-8329-6f9877f6e1c7","ios":"levelo://app?vid=1f9676a7-2b99-4f16-8329-6f9877f6e1c7"},"vehicle_type_id":"4","last_reported":1771539593,"current_range_meters":24000,"station_id":"ce4bh4p2rcd13ifvqe0g","pricing_plan_id":"cebpf4jnsgd1na2vs0mg"},{"bike_id":"0a1f859b-1261-4c19-a098-0a939ef82b91","system_id":"levelo_inurba_marseille","lat":43.29054,"lon":5.35908,"is_reserved":false,"is_disabled":false,"rental_uris":{"android":"levelo://app?vid=0a1f859b-1261-4c19-a098-0a939ef82b91","ios":"levelo://app?vid=0a1f859b-1261-4c19-a098-0a939ef82b91"},"vehicle_type_id":"4","last_reported":1771539593,"current_range_meters":30400,"station_id":"ce4bha92rcd13ifvqeg0","pricing_plan_id":"cebpf4jnsgd1na2vs0mg"},{"bike_id":"5b919c72-ec4c-4417-a2bd-6d66a7aedf70","system_id":"levelo_inurba_marseille","lat":43.27894,"lon":5.3801,"is_reserved":false,"is_disabled":false,"rental_uris":{"android":"levelo://app?vid=5b919c72-ec4c-4417-a2bd-6d66a7aedf70","ios":"levelo://app?vid=5b919c72-ec4c-4417-a2bd-6d66a7aedf70"},"vehicle_type_id":"4","last_reported":1771539593,"current_range_meters":38400,"station_id":"ce4bhf92rcd13ifvqf50","pricing_plan_id":"cebpf4jnsgd1na2vs0mg"},{"bike_id":"d0caeb2f-b726-4517-a43a-8fff04b88cb8","system_id":"levelo_inurba_marseille","lat":43.30163,"lon":5.39851,"is_reserved":false,"is_disabled":false,"rental_uris":{"android":"levelo://app?vid=d0caeb2f-b726-4517-a43a-8fff04b88cb8","ios":"levelo://app?vid=d0caeb2f-b726-4517-a43a-8fff04b88cb8"},"vehicle_type_id":"4","last_reported":1771539593,"current_range_meters":11200,"station_id":"ce4bh0h2rcd13ifvqd40","pricing_plan_id":"cebpf4jnsgd1na2vs0mg"},{"bike_id":"396bef18-c8e8-45d9-a95f-e8fe6b390700","system_id":"levelo_inurba_marseille","lat":43.26372,"lon":5.41067,"is_reserved":false,"is_disabled":false,"rental_uris":{"android":"levelo://app?vid=396bef18-c8e8-45d9-a95f-e8fe6b390700","ios":"levelo://app?vid=396bef18-c8e8-45d9-a95f-e8fe6b390700"},"vehicle_type_id":"4","last_reported":1771539593,"current_range_meters":24800,"station_id":"st_d4e5ca6na9uc73bfl5fg","pricing_plan_id":"cebpf4jnsgd1na2vs0mg"},{"bike_id":"f2d30de6-4c83-468b-9ea0-b4022ee843f0","system_id":"levelo_inurba_marseille","lat":43.32351,"lon":5.36742,"is_reserved":false,"is_disabled":false,"rental_uris":{"android":"levelo://app?vid=f2d30de6-4c83-468b-9ea0-b4022ee843f0","ios":"levelo://app?vid=f2d30de6-4c83-468b-9ea0-b4022ee843f0"},"vehicle_type_id":"4","last_reported":1771539593,"current_range_meters":24800,"station_id":"ce4bhsh2rcd13ifvqi2g","pricing_plan_id":"cebpf4jnsgd1na2vs0mg"},{"bike_id":"6730bef9-debf-4c9c-b160-fce2d703d18c","system_id":"levelo_inurba_marseille","lat":43.291963,"lon":5.393173,"is_reserved":false,"is_disabled":true,"rental_uris":{"android":"levelo://app?vid=6730bef9-debf-4c9c-b160-fce2d703d18c","ios":"levelo://app?vid=6730bef9-debf-4c9c-b160-fce2d703d18c"},"vehicle_type_id":"4","last_reported":1771539593,"current_range_meters":26000,"station_id":"ce4bh192rcd13ifvqdd0","pricing_plan_id":"cebpf4jnsgd1na2vs0mg"},{"bike_id":"9c2890e9-222e-4840-9a57-38213f2fa5e0","system_id":"levelo_inurba_marseille","lat":43.33802,"lon":5.3917,"is_reserved":false,"is_disabled":false,"rental_uris":{"android":"levelo://app?vid=9c2890e9-222e-4840-9a57-38213f2fa5e0","ios":"levelo://app?vid=9c2890e9-222e-4840-9a57-38213f2fa5e0"},"vehicle_type_id":"4","last_reported":1771539593,"current_range_meters":38000,"station_id":"ce4bhr92rcd13ifvqhsg","pricing_plan_id":"cebpf4jnsgd1na2vs0mg"},{"bike_id":"a3b2933f-8ff7-4f74-9463-9171f532f834","system_id":"levelo_inurba_marseille","lat":43.29776,"lon":5.38106,"is_reserved":false,"is_disabled":false,"rental_uris":{"android":"levelo://app?vid=a3b2933f-8ff7-4f74-9463-9171f532f834","ios":"levelo://app?vid=a3b2933f-8ff7-4f74-9463-9171f532f834"},"vehicle_type_id":"4","last_reported":1771539593,"current_range_meters":32800,"station_id":"ce4bgip2rcd13ifvqbb0","pricing_plan_id":"cebpf4jnsgd1na2vs0mg"},{"bike_id":"e071cb6b-00dd-46cc-bbae-0c336769674f","system_id":"levelo_inurba_marseille","lat":43.2649,"lon":5.39492,"is_reserved":false,"is_disabled":false,"rental_uris":{"android":"levelo://app?vid=e071cb6b-00dd-46cc-bbae-0c336769674f","ios":"levelo://app?vid=e071cb6b-00dd-46cc-bbae-0c336769674f"},"vehicle_type_id":"4","last_reported":1771539593,"current_range_meters":28400,"station_id":"ce4bhi12rcd13ifvqfq0","pricing_plan_id":"cebpf4jnsgd1na2vs0mg"},{"bike_id":"faebf9e2-a63f-44b8-ba5e-243905e4c540","system_id":"levelo_inurba_marseille","lat":43.30179,"lon":5.37301,"is_reserved":false,"is_disabled":false,"rental_uris":{"android":"levelo://app?vid=faebf9e2-a63f-44b8-ba5e-243905e4c540","ios":"levelo://app?vid=faebf9e2-a63f-44b8-ba5e-243905e4c540"},"vehicle_type_id":"4","last_reported":1771539593,"current_range_meters":39200,"station_id":"ce4bgs92rcd13ifvqcc0","pricing_plan_id":"cebpf4jnsgd1na2vs0mg"},{"bike_id":"e9c8c195-4938-4494-9005-66aa872cbce1","system_id":"levelo_inurba_marseille","lat":43.31213,"lon":5.36865,"is_reserved":false,"is_disabled":false,"rental_uris":{"android":"levelo://app?vid=e9c8c195-4938-4494-9005-66aa872cbce1","ios":"levelo://app?vid=e9c8c195-4938-4494-9005-66aa872cbce1"},"vehicle_type_id":"4","last_reported":1771539593,"current_range_meters":18800,"station_id":"ce4bgl92rcd13ifvqbq0","pricing_plan_id":"cebpf4jnsgd1na2vs0mg"},{"bike_id":"931770a8-1988-4a03-9204-d403a4b231b4","system_id":"levelo_inurba_marseille","lat":43.29493,"lon":5.43308,"is_reserved":false,"is_disabled":false,"rental_uris":{"android":"levelo://app?vid=931770a8-1988-4a03-9204-d403a4b231b4","ios":"levelo://app?vid=931770a8-1988-4a03-9204-d403a4b231b4"},"vehicle_type_id":"4","last_reported":1771539593,"current_range_meters":34000,"station_id":"st_d3j5ugp08ojc73fj9d10","pricing_plan_id":"cebpf4jnsgd1na2vs0mg"},{"bike_id":"85b351ee-888c-451d-9dff-5ff7aef2984a","system_id":"levelo_inurba_marseille","lat":43.3013,"lon":5.39867,"is_reserved":false,"is_disabled":false,"rental_uris":{"android":"levelo://app?vid=85b351ee-888c-451d-9dff-5ff7aef2984a","ios":"levelo://app?vid=85b351ee-888c-451d-9dff-5ff7aef2984a"},"vehicle_type_id":"4","last_reported":1771539593,"current_range_meters":31200,"station_id":"ce4bh0h2rcd13ifvqd40","pricing_plan_id":"cebpf4jnsgd1na2vs0mg"},{"bike_id":"a2aac6db-ff2a-410f-9224-52b6b4391027","system_id":"levelo_inurba_marseille","lat":43.25113,"lon":5.40329,"is_reserved":false,"is_disabled":false,"rental_uris":{"android":"levelo://app?vid=a2aac6db-ff2a-410f-9224-52b6b4391027","ios":"levelo://app?vid=a2aac6db-ff2a-410f-9224-52b6b4391027"},"vehicle_type_id":"4","last_reported":1771539593,"current_range_meters":24000,"station_id":"ce4bhlh2rcd13ifvqgig","pricing_plan_id":"cebpf4jnsgd1na2vs0mg"},{"bike_id":"04ab1faf-83f8-453d-a45d-cb0011fd9773","system_id":"levelo_inurba_marseille","lat":43.282089,"lon":5.390508,"is_reserved":false,"is_disabled":false,"rental_uris":{"android":"levelo://app?vid=04ab1faf-83f8-453d-a45d-cb0011fd9773","ios":"levelo://app?vid=04ab1faf-83f8-453d-a45d-cb0011fd9773"},"vehicle_type_id":"4","last_reported":1771539593,"current_range_meters":9600,"station_id":"ce4bhn92rcd13ifvqgsg","pricing_plan_id":"cebpf4jnsgd1na2vs0mg"},{"bike_id":"29136cdc-509b-432f-822a-1a0dcf3da18b","system_id":"levelo_inurba_marseille","lat":43.29773,"lon":5.38086,"is_reserved":false,"is_disabled":false,"rental_uris":{"android":"levelo://app?vid=29136cdc-509b-432f-822a-1a0dcf3da18b","ios":"levelo://app?vid=29136cdc-509b-432f-822a-1a0dcf3da18b"},"vehicle_type_id":"4","last_reported":1771539593,"current_range_meters":38400,"station_id":"ce4bgip2rcd13ifvqbb0","pricing_plan_id":"cebpf4jnsgd1na2vs0mg"},{"bike_id":"5eb31601-6dd4-424f-b16b-9e02a606664a","system_id":"levelo_inurba_marseille","lat":43.280081,"lon":5.400057,"is_reserved":false,"is_disabled":true,"rental_uris":{"android":"levelo://app?vid=5eb31601-6dd4-424f-b16b-9e02a606664a","ios":"levelo://app?vid=5eb31601-6dd4-424f-b16b-9e02a606664a"},"vehicle_type_id":"4","last_reported":1771539593,"current_range_meters":0,"station_id":"ce4bho92rcd13ifvqh4g","pricing_plan_id":"cebpf4jnsgd1na2vs0mg"},{"bike_id":"2db75720-0046-4e94-95e8-8689873cbed8","system_id":"levelo_inurba_marseille","lat":43.27578,"lon":5.38413,"is_reserved":false,"is_disabled":false,"rental_uris":{"android":"levelo://app?vid=2db75720-0046-4e94-95e8-8689873cbed8","ios":"levelo://app?vid=2db75720-0046-4e94-95e8-8689873cbed8"},"vehicle_type_id":"4","last_reported":1771539593,"current_range_meters":24800,"station_id":"ce4bhh92rcd13ifvqfi0","pricing_plan_id":"cebpf4jnsgd1na2vs0mg"},{"bike_id":"10b4454e-cf3a-4037-8b45-b811ed0c5d91","system_id":"levelo_inurba_marseille","lat":43.22532,"lon":5.34827,"is_reserved":false,"is_disabled":false,"rental_uris":{"android":"levelo://app?vid=10b4454e-cf3a-4037-8b45-b811ed0c5d91","ios":"levelo://app?vid=10b4454e-cf3a-4037-8b45-b811ed0c5d91"},"vehicle_type_id":"4","last_reported":1771539593,"current_range_meters":36800,"station_id":"st_cvj5dfep6f1abm77gieg","pricing_plan_id":"cebpf4jnsgd1na2vs0mg"},{"bike_id":"05999296-9476-4507-b736-9bcf96ba6830","system_id":"levelo_inurba_marseille","lat":43.28352,"lon":5.38102,"is_reserved":false,"is_disabled":false,"rental_uris":{"android":"levelo://app?vid=05999296-9476-4507-b736-9bcf96ba6830","ios":"levelo://app?vid=05999296-9476-4507-b736-9bcf96ba6830"},"vehicle_type_id":"4","last_reported":1771539593,"current_range_meters":30400,"station_id":"ce4bh412rcd13ifvqdr0","pricing_plan_id":"cebpf4jnsgd1na2vs0mg"},{"bike_id":"85a58be4-1aa6-4473-bece-977758e9c8ae","system_id":"levelo_inurba_marseille","lat":43.24801,"lon":5.37459,"is_reserved":false,"is_disabled":false,"rental_uris":{"android":"levelo://app?vid=85a58be4-1aa6-4473-bece-977758e9c8ae","ios":"levelo://app?vid=85a58be4-1aa6-4473-bece-977758e9c8ae"},"vehicle_type_id":"4","last_reported":1771539593,"current_range_meters":19600,"station_id":"ce4bhgh2rcd13ifvqfb0","pricing_plan_id":"cebpf4jnsgd1na2vs0mg"},{"bike_id":"446c442f-8fc7-4d0a-98b4-4c30604b3509","system_id":"levelo_inurba_marseille","lat":43.304366,"lon":5.388916,"is_reserved":false,"is_disabled":false,"rental_uris":{"android":"levelo://app?vid=446c442f-8fc7-4d0a-98b4-4c30604b3509","ios":"levelo://app?vid=446c442f-8fc7-4d0a-98b4-4c30604b3509"},"vehicle_type_id":"4","last_reported":1771539593,"current_range_meters":26000,"station_id":"ce4bgk12rcd13ifvqbi0","pricing_plan_id":"cebpf4jnsgd1na2vs0mg"},{"bike_id":"415a59dd-0aff-41c9-85d3-895296a390d5","system_id":"levelo_inurba_marseille","lat":43.31361,"lon":5.36718,"is_reserved":false,"is_disabled":false,"rental_uris":{"android":"levelo://app?vid=415a59dd-0aff-41c9-85d3-895296a390d5","ios":"levelo://app?vid=415a59dd-0aff-41c9-85d3-895296a390d5"},"vehicle_type_id":"4","last_reported":1771539593,"current_range_meters":25200,"station_id":"ce4bgr92rcd13ifvqc6g","pricing_plan_id":"cebpf4jnsgd1na2vs0mg"},{"bike_id":"6baf0ea6-fc1a-4ec0-b216-e5f723d8b4aa","system_id":"levelo_inurba_marseille","lat":43.22926,"lon":5.35384,"is_reserved":false,"is_disabled":false,"rental_uris":{"android":"levelo://app?vid=6baf0ea6-fc1a-4ec0-b216-e5f723d8b4aa","ios":"levelo://app?vid=6baf0ea6-fc1a-4ec0-b216-e5f723d8b4aa"},"vehicle_type_id":"4","last_reported":1771539593,"current_range_meters":17200,"station_id":"cpo3532slgdg3j2ikp40","pricing_plan_id":"cebpf4jnsgd1na2vs0mg"},{"bike_id":"19d3787d-1c8e-4249-902d-f5e776447478","system_id":"levelo_inurba_marseille","lat":43.25506,"lon":5.37641,"is_reserved":false,"is_disabled":false,"rental_uris":{"android":"levelo://app?vid=19d3787d-1c8e-4249-902d-f5e776447478","ios":"levelo://app?vid=19d3787d-1c8e-4249-902d-f5e776447478"},"vehicle_type_id":"4","last_reported":1771539593,"current_range_meters":26000,"station_id":"ce4bhh12rcd13ifvqff0","pricing_plan_id":"cebpf4jnsgd1na2vs0mg"},{"bike_id":"5c0952e3-3469-48d1-b0ac-88596b084e30","system_id":"levelo_inurba_marseille","lat":43.33757,"lon":5.37498,"is_reserved":false,"is_disabled":false,"rental_uris":{"android":"levelo://app?vid=5c0952e3-3469-48d1-b0ac-88596b084e30","ios":"levelo://app?vid=5c0952e3-3469-48d1-b0ac-88596b084e30"},"vehicle_type_id":"4","last_reported":1771539593,"current_range_meters":35600,"station_id":"","pricing_plan_id":"cebpf4jnsgd1na2vs0mg"},{"bike_id":"e50254f2-cd78-44c8-95ab-99f3aac9e1bc","system_id":"levelo_inurba_marseille","lat":43.31398,"lon":5.37596,"is_reserved":false,"is_disabled":false,"rental_uris":{"android":"levelo://app?vid=e50254f2-cd78-44c8-95ab-99f3aac9e1bc","ios":"levelo://app?vid=e50254f2-cd78-44c8-95ab-99f3aac9e1bc"},"vehicle_type_id":"4","last_reported":1771539593,"current_range_meters":27600,"station_id":"","pricing_plan_id":"cebpf4jnsgd1na2vs0mg"},{"bike_id":"c7cad050-434c-46f5-af01-f388aedca456","system_id":"levelo_inurba_marseille","lat":43.29594,"lon":5.38095,"is_reserved":false,"is_disabled":false,"rental_uris":{"android":"levelo://app?vid=c7cad050-434c-46f5-af01-f388aedca456","ios":"levelo://app?vid=c7cad050-434c-46f5-af01-f388aedca456"},"vehicle_type_id":"4","last_reported":1771539593,"current_range_meters":28800,"station_id":"ce4bgl12rcd13ifvqbo0","pricing_plan_id":"cebpf4jnsgd1na2vs0mg"},{"bike_id":"ccd3f4dd-465f-404a-97df-4643702c071b","system_id":"levelo_inurba_marseille","lat":43.25874,"lon":5.39898,"is_reserved":false,"is_disabled":false,"rental_uris":{"android":"levelo://app?vid=ccd3f4dd-465f-404a-97df-4643702c071b","ios":"levelo://app?vid=ccd3f4dd-465f-404a-97df-4643702c071b"},"vehicle_type_id":"4","last_reported":1771539593,"current_range_meters":38800,"station_id":"ce4bhl92rcd13ifvqghg","pricing_plan_id":"cebpf4jnsgd1na2vs0mg"},{"bike_id":"8da81a44-8f88-438e-8d2b-03464ed75ce9","system_id":"levelo_inurba_marseille","lat":43.29444,"lon":5.39751,"is_reserved":false,"is_disabled":false,"rental_uris":{"android":"levelo://app?vid=8da81a44-8f88-438e-8d2b-03464ed75ce9","ios":"levelo://app?vid=8da81a44-8f88-438e-8d2b-03464ed75ce9"},"vehicle_type_id":"4","last_reported":1771539593,"current_range_meters":26800,"station_id":"ce4bh3h2rcd13ifvqdo0","pricing_plan_id":"cebpf4jnsgd1na2vs0mg"},{"bike_id":"93f041f4-e8ff-42bf-9c57-4b88f5b87d58","system_id":"levelo_inurba_marseille","lat":43.30185,"lon":5.37438,"is_reserved":false,"is_disabled":false,"rental_uris":{"android":"levelo://app?vid=93f041f4-e8ff-42bf-9c57-4b88f5b87d58","ios":"levelo://app?vid=93f041f4-e8ff-42bf-9c57-4b88f5b87d58"},"vehicle_type_id":"4","last_reported":1771539593,"current_range_meters":36400,"station_id":"","pricing_plan_id":"cebpf4jnsgd1na2vs0mg"},{"bike_id":"d5887e7a-5c48-4306-a0d7-f13c900fa2f4","system_id":"levelo_inurba_marseille","lat":43.25002,"lon":5.3892,"is_reserved":false,"is_disabled":false,"rental_uris":{"android":"levelo://app?vid=d5887e7a-5c48-4306-a0d7-f13c900fa2f4","ios":"levelo://app?vid=d5887e7a-5c48-4306-a0d7-f13c900fa2f4"},"vehicle_type_id":"4","last_reported":1771539593,"current_range_meters":24800,"station_id":"ce4bhgp2rcd13ifvqfd0","pricing_plan_id":"cebpf4jnsgd1na2vs0mg"},{"bike_id":"ef03a01d-4dc4-4d63-a259-62cbde6e1f13","system_id":"levelo_inurba_marseille","lat":43.29923,"lon":5.38128,"is_reserved":false,"is_disabled":false,"rental_uris":{"android":"levelo://app?vid=ef03a01d-4dc4-4d63-a259-62cbde6e1f13","ios":"levelo://app?vid=ef03a01d-4dc4-4d63-a259-62cbde6e1f13"},"vehicle_type_id":"4","last_reported":1771539593,"current_range_meters":12400,"station_id":"ce4bgj12rcd13ifvqbc0","pricing_plan_id":"cebpf4jnsgd1na2vs0mg"},{"bike_id":"166e35c4-ba58-48ae-81a6-945bb5d753ca","system_id":"levelo_inurba_marseille","lat":43.24635,"lon":5.38902,"is_reserved":false,"is_disabled":false,"rental_uris":{"android":"levelo://app?vid=166e35c4-ba58-48ae-81a6-945bb5d753ca","ios":"levelo://app?vid=166e35c4-ba58-48ae-81a6-945bb5d753ca"},"vehicle_type_id":"4","last_reported":1771539593,"current_range_meters":27200,"station_id":"ce4bhg12rcd13ifvqf60","pricing_plan_id":"cebpf4jnsgd1na2vs0mg"},{"bike_id":"499a55ef-832f-47a1-bd4b-0e9a331028e6","system_id":"levelo_inurba_marseille","lat":43.299,"lon":5.3814,"is_reserved":false,"is_disabled":false,"rental_uris":{"android":"levelo://app?vid=499a55ef-832f-47a1-bd4b-0e9a331028e6","ios":"levelo://app?vid=499a55ef-832f-47a1-bd4b-0e9a331028e6"},"vehicle_type_id":"4","last_reported":1771539593,"current_range_meters":31200,"station_id":"ce4bgj12rcd13ifvqbc0","pricing_plan_id":"cebpf4jnsgd1na2vs0mg"},{"bike_id":"14652153-7008-4a95-8eda-99604cdb737d","system_id":"levelo_inurba_marseille","lat":43.29542,"lon":5.3939,"is_reserved":false,"is_disabled":false,"rental_uris":{"android":"levelo://app?vid=14652153-7008-4a95-8eda-99604cdb737d","ios":"levelo://app?vid=14652153-7008-4a95-8eda-99604cdb737d"},"vehicle_type_id":"4","last_reported":1771539593,"current_range_meters":34800,"station_id":"ce4bh292rcd13ifvqdf0","pricing_plan_id":"cebpf4jnsgd1na2vs0mg"},{"bike_id":"2cbbc2f5-92a3-4c38-a0e2-181ee10ae410","system_id":"levelo_inurba_marseille","lat":43.27545,"lon":5.42439,"is_reserved":false,"is_disabled":false,"rental_uris":{"android":"levelo://app?vid=2cbbc2f5-92a3-4c38-a0e2-181ee10ae410","ios":"levelo://app?vid=2cbbc2f5-92a3-4c38-a0e2-181ee10ae410"},"vehicle_type_id":"4","last_reported":1771539593,"current_range_meters":33600,"station_id":"ce4bhn92rcd13ifvqgrg","pricing_plan_id":"cebpf4jnsgd1na2vs0mg"},{"bike_id":"77c84e28-a226-4c9d-bcc9-76b7f8c0d11c","system_id":"levelo_inurba_marseille","lat":43.24545,"lon":5.39514,"is_reserved":false,"is_disabled":false,"rental_uris":{"android":"levelo://app?vid=77c84e28-a226-4c9d-bcc9-76b7f8c0d11c","ios":"levelo://app?vid=77c84e28-a226-4c9d-bcc9-76b7f8c0d11c"},"vehicle_type_id":"4","last_reported":1771539593,"current_range_meters":33200,"station_id":"ce4bhlp2rcd13ifvqgjg","pricing_plan_id":"cebpf4jnsgd1na2vs0mg"},{"bike_id":"c9b743d2-ea19-486c-9150-6905c9d98a27","system_id":"levelo_inurba_marseille","lat":43.26556,"lon":5.40326,"is_reserved":false,"is_disabled":false,"rental_uris":{"android":"levelo://app?vid=c9b743d2-ea19-486c-9150-6905c9d98a27","ios":"levelo://app?vid=c9b743d2-ea19-486c-9150-6905c9d98a27"},"vehicle_type_id":"4","last_reported":1771539593,"current_range_meters":20400,"station_id":"ce4bhmp2rcd13ifvqgng","pricing_plan_id":"cebpf4jnsgd1na2vs0mg"},{"bike_id":"b2b913a6-f4da-45b2-9c78-124976e82a8a","system_id":"levelo_inurba_marseille","lat":43.29605,"lon":5.38098,"is_reserved":false,"is_disabled":false,"rental_uris":{"android":"levelo://app?vid=b2b913a6-f4da-45b2-9c78-124976e82a8a","ios":"levelo://app?vid=b2b913a6-f4da-45b2-9c78-124976e82a8a"},"vehicle_type_id":"4","last_reported":1771539593,"current_range_meters":24000,"station_id":"ce4bgl12rcd13ifvqbo0","pricing_plan_id":"cebpf4jnsgd1na2vs0mg"},{"bike_id":"f3c5d32f-828d-4a2a-bd02-59bb1b899498","system_id":"levelo_inurba_marseille","lat":43.265,"lon":5.39527,"is_reserved":false,"is_disabled":false,"rental_uris":{"android":"levelo://app?vid=f3c5d32f-828d-4a2a-bd02-59bb1b899498","ios":"levelo://app?vid=f3c5d32f-828d-4a2a-bd02-59bb1b899498"},"vehicle_type_id":"4","last_reported":1771539593,"current_range_meters":34000,"station_id":"ce4bhi12rcd13ifvqfq0","pricing_plan_id":"cebpf4jnsgd1na2vs0mg"},{"bike_id":"fc1aa6b8-6e5e-467f-92e9-aae02099ae9d","system_id":"levelo_inurba_marseille","lat":43.24628,"lon":5.4315,"is_reserved":false,"is_disabled":false,"rental_uris":{"android":"levelo://app?vid=fc1aa6b8-6e5e-467f-92e9-aae02099ae9d","ios":"levelo://app?vid=fc1aa6b8-6e5e-467f-92e9-aae02099ae9d"},"vehicle_type_id":"4","last_reported":1771539593,"current_range_meters":6400,"station_id":"st_d2m6c4gdas8pm72e190g","pricing_plan_id":"cebpf4jnsgd1na2vs0mg"},{"bike_id":"ba713b63-eaf2-4de3-a950-3a55c3912344","system_id":"levelo_inurba_marseille","lat":43.25107,"lon":5.40333,"is_reserved":false,"is_disabled":false,"rental_uris":{"android":"levelo://app?vid=ba713b63-eaf2-4de3-a950-3a55c3912344","ios":"levelo://app?vid=ba713b63-eaf2-4de3-a950-3a55c3912344"},"vehicle_type_id":"4","last_reported":1771539593,"current_range_meters":36400,"station_id":"ce4bhlh2rcd13ifvqgig","pricing_plan_id":"cebpf4jnsgd1na2vs0mg"},{"bike_id":"1bdf262b-5b53-4108-b666-339efbe4431c","system_id":"levelo_inurba_marseille","lat":43.2904,"lon":5.38142,"is_reserved":false,"is_disabled":true,"rental_uris":{"android":"levelo://app?vid=1bdf262b-5b53-4108-b666-339efbe4431c","ios":"levelo://app?vid=1bdf262b-5b53-4108-b666-339efbe4431c"},"vehicle_type_id":"4","last_reported":1771539593,"current_range_meters":32000,"station_id":"ce4bh4p2rcd13ifvqe1g","pricing_plan_id":"cebpf4jnsgd1na2vs0mg"},{"bike_id":"57723f7a-061e-46b7-a0ae-b6210e118d77","system_id":"levelo_inurba_marseille","lat":43.30897,"lon":5.36856,"is_reserved":false,"is_disabled":false,"rental_uris":{"android":"levelo://app?vid=57723f7a-061e-46b7-a0ae-b6210e118d77","ios":"levelo://app?vid=57723f7a-061e-46b7-a0ae-b6210e118d77"},"vehicle_type_id":"4","last_reported":1771539593,"current_range_meters":28800,"station_id":"ce4bgn92rcd13ifvqbvg","pricing_plan_id":"cebpf4jnsgd1na2vs0mg"},{"bike_id":"c1b26ae8-8837-4bd2-b0e2-b890b8516fff","system_id":"levelo_inurba_marseille","lat":43.31325,"lon":5.36822,"is_reserved":false,"is_disabled":false,"rental_uris":{"android":"levelo://app?vid=c1b26ae8-8837-4bd2-b0e2-b890b8516fff","ios":"levelo://app?vid=c1b26ae8-8837-4bd2-b0e2-b890b8516fff"},"vehicle_type_id":"4","last_reported":1771539593,"current_range_meters":36000,"station_id":"","pricing_plan_id":"cebpf4jnsgd1na2vs0mg"},{"bike_id":"8ca95bb8-e44c-4afb-9ecc-95ec51bdb879","system_id":"levelo_inurba_marseille","lat":43.24813,"lon":5.37448,"is_reserved":false,"is_disabled":false,"rental_uris":{"android":"levelo://app?vid=8ca95bb8-e44c-4afb-9ecc-95ec51bdb879","ios":"levelo://app?vid=8ca95bb8-e44c-4afb-9ecc-95ec51bdb879"},"vehicle_type_id":"4","last_reported":1771539593,"current_range_meters":17200,"station_id":"ce4bhgh2rcd13ifvqfb0","pricing_plan_id":"cebpf4jnsgd1na2vs0mg"},{"bike_id":"f4b72c32-b078-47bf-bd6e-2a4cf9260d45","system_id":"levelo_inurba_marseille","lat":43.2869,"lon":5.35507,"is_reserved":false,"is_disabled":false,"rental_uris":{"android":"levelo://app?vid=f4b72c32-b078-47bf-bd6e-2a4cf9260d45","ios":"levelo://app?vid=f4b72c32-b078-47bf-bd6e-2a4cf9260d45"},"vehicle_type_id":"4","last_reported":1771539593,"current_range_meters":30400,"station_id":"","pricing_plan_id":"cebpf4jnsgd1na2vs0mg"},{"bike_id":"786db946-01e6-401d-825a-5be2365421b8","system_id":"levelo_inurba_marseille","lat":43.25578,"lon":5.38268,"is_reserved":false,"is_disabled":false,"rental_uris":{"android":"levelo://app?vid=786db946-01e6-401d-825a-5be2365421b8","ios":"levelo://app?vid=786db946-01e6-401d-825a-5be2365421b8"},"vehicle_type_id":"4","last_reported":1771539593,"current_range_meters":16400,"station_id":"ce4bhih2rcd13ifvqfs0","pricing_plan_id":"cebpf4jnsgd1na2vs0mg"},{"bike_id":"8a1f384e-0a36-4301-9ad0-4a6a3d21c361","system_id":"levelo_inurba_marseille","lat":43.29454,"lon":5.39765,"is_reserved":false,"is_disabled":false,"rental_uris":{"android":"levelo://app?vid=8a1f384e-0a36-4301-9ad0-4a6a3d21c361","ios":"levelo://app?vid=8a1f384e-0a36-4301-9ad0-4a6a3d21c361"},"vehicle_type_id":"4","last_reported":1771539593,"current_range_meters":30400,"station_id":"ce4bh3h2rcd13ifvqdo0","pricing_plan_id":"cebpf4jnsgd1na2vs0mg"},{"bike_id":"f5d22547-d06e-4fad-85c6-2cbbdcd29ad4","system_id":"levelo_inurba_marseille","lat":43.29181,"lon":5.372028,"is_reserved":false,"is_disabled":false,"rental_uris":{"android":"levelo://app?vid=f5d22547-d06e-4fad-85c6-2cbbdcd29ad4","ios":"levelo://app?vid=f5d22547-d06e-4fad-85c6-2cbbdcd29ad4"},"vehicle_type_id":"4","last_reported":1771539593,"current_range_meters":27200,"station_id":"ce4bha92rcd13ifvqeh0","pricing_plan_id":"cebpf4jnsgd1na2vs0mg"},{"bike_id":"b7832889-4ff5-4ee2-9a8d-e7dc3953a51e","system_id":"levelo_inurba_marseille","lat":43.24809,"lon":5.37441,"is_reserved":false,"is_disabled":false,"rental_uris":{"android":"levelo://app?vid=b7832889-4ff5-4ee2-9a8d-e7dc3953a51e","ios":"levelo://app?vid=b7832889-4ff5-4ee2-9a8d-e7dc3953a51e"},"vehicle_type_id":"4","last_reported":1771539593,"current_range_meters":17200,"station_id":"ce4bhgh2rcd13ifvqfb0","pricing_plan_id":"cebpf4jnsgd1na2vs0mg"},{"bike_id":"e31475f3-41c2-4225-bc2c-f2317ef7948f","system_id":"levelo_inurba_marseille","lat":43.29541,"lon":5.3853,"is_reserved":false,"is_disabled":false,"rental_uris":{"android":"levelo://app?vid=e31475f3-41c2-4225-bc2c-f2317ef7948f","ios":"levelo://app?vid=e31475f3-41c2-4225-bc2c-f2317ef7948f"},"vehicle_type_id":"4","last_reported":1771539593,"current_range_meters":20400,"station_id":"ce4bgih2rcd13ifvqba0","pricing_plan_id":"cebpf4jnsgd1na2vs0mg"},{"bike_id":"1884763e-4640-4445-b9fa-24751097379d","system_id":"levelo_inurba_marseille","lat":43.29102,"lon":5.38151,"is_reserved":false,"is_disabled":true,"rental_uris":{"android":"levelo://app?vid=1884763e-4640-4445-b9fa-24751097379d","ios":"levelo://app?vid=1884763e-4640-4445-b9fa-24751097379d"},"vehicle_type_id":"4","last_reported":1771539593,"current_range_meters":39200,"station_id":"ce4bh512rcd13ifvqe2g","pricing_plan_id":"cebpf4jnsgd1na2vs0mg"},{"bike_id":"a2b17400-8e5c-4ea2-af80-074b6e160bbc","system_id":"levelo_inurba_marseille","lat":43.3149,"lon":5.37301,"is_reserved":false,"is_disabled":false,"rental_uris":{"android":"levelo://app?vid=a2b17400-8e5c-4ea2-af80-074b6e160bbc","ios":"levelo://app?vid=a2b17400-8e5c-4ea2-af80-074b6e160bbc"},"vehicle_type_id":"4","last_reported":1771539593,"current_range_meters":34800,"station_id":"ce4bgt12rcd13ifvqcd0","pricing_plan_id":"cebpf4jnsgd1na2vs0mg"},{"bike_id":"98ef6a7d-32f2-4972-a7e4-d0e75f178a33","system_id":"levelo_inurba_marseille","lat":43.30122,"lon":5.43117,"is_reserved":false,"is_disabled":false,"rental_uris":{"android":"levelo://app?vid=98ef6a7d-32f2-4972-a7e4-d0e75f178a33","ios":"levelo://app?vid=98ef6a7d-32f2-4972-a7e4-d0e75f178a33"},"vehicle_type_id":"4","last_reported":1771539593,"current_range_meters":32400,"station_id":"st_d3js3co5814s73ftftug","pricing_plan_id":"cebpf4jnsgd1na2vs0mg"},{"bike_id":"cdcd8c42-d26a-4e42-9873-59170e37aa87","system_id":"levelo_inurba_marseille","lat":43.23061,"lon":5.35489,"is_reserved":false,"is_disabled":false,"rental_uris":{"android":"levelo://app?vid=cdcd8c42-d26a-4e42-9873-59170e37aa87","ios":"levelo://app?vid=cdcd8c42-d26a-4e42-9873-59170e37aa87"},"vehicle_type_id":"4","last_reported":1771539593,"current_range_meters":39200,"station_id":"cpo3342slgdg3j2ifvpg","pricing_plan_id":"cebpf4jnsgd1na2vs0mg"},{"bike_id":"74f93e91-fd1e-46a3-af86-8c59b80fc809","system_id":"levelo_inurba_marseille","lat":43.26214,"lon":5.40526,"is_reserved":false,"is_disabled":false,"rental_uris":{"android":"levelo://app?vid=74f93e91-fd1e-46a3-af86-8c59b80fc809","ios":"levelo://app?vid=74f93e91-fd1e-46a3-af86-8c59b80fc809"},"vehicle_type_id":"4","last_reported":1771539593,"current_range_meters":25200,"station_id":"","pricing_plan_id":"cebpf4jnsgd1na2vs0mg"},{"bike_id":"fad3df44-feeb-4aa5-939d-6a398ca4560c","system_id":"levelo_inurba_marseille","lat":43.26786,"lon":5.39419,"is_reserved":false,"is_disabled":false,"rental_uris":{"android":"levelo://app?vid=fad3df44-feeb-4aa5-939d-6a398ca4560c","ios":"levelo://app?vid=fad3df44-feeb-4aa5-939d-6a398ca4560c"},"vehicle_type_id":"4","last_reported":1771539593,"current_range_meters":37600,"station_id":"ce4bhh12rcd13ifvqfg0","pricing_plan_id":"cebpf4jnsgd1na2vs0mg"},{"bike_id":"6dc166ac-703a-41ec-a4b5-ddf06bfcc432","system_id":"levelo_inurba_marseille","lat":43.29011,"lon":5.38652,"is_reserved":false,"is_disabled":false,"rental_uris":{"android":"levelo://app?vid=6dc166ac-703a-41ec-a4b5-ddf06bfcc432","ios":"levelo://app?vid=6dc166ac-703a-41ec-a4b5-ddf06bfcc432"},"vehicle_type_id":"4","last_reported":1771539593,"current_range_meters":30000,"station_id":"ce4bh4p2rcd13ifvqe0g","pricing_plan_id":"cebpf4jnsgd1na2vs0mg"},{"bike_id":"1d773c16-2ac9-4c44-bb87-e6ec017de05d","system_id":"levelo_inurba_marseille","lat":43.31182,"lon":5.38717,"is_reserved":false,"is_disabled":false,"rental_uris":{"android":"levelo://app?vid=1d773c16-2ac9-4c44-bb87-e6ec017de05d","ios":"levelo://app?vid=1d773c16-2ac9-4c44-bb87-e6ec017de05d"},"vehicle_type_id":"4","last_reported":1771539593,"current_range_meters":20800,"station_id":"ce4bgv12rcd13ifvqcp0","pricing_plan_id":"cebpf4jnsgd1na2vs0mg"},{"bike_id":"7f4020f1-08e1-47db-aaf6-8cd8485ead94","system_id":"levelo_inurba_marseille","lat":43.30288,"lon":5.36903,"is_reserved":false,"is_disabled":false,"rental_uris":{"android":"levelo://app?vid=7f4020f1-08e1-47db-aaf6-8cd8485ead94","ios":"levelo://app?vid=7f4020f1-08e1-47db-aaf6-8cd8485ead94"},"vehicle_type_id":"4","last_reported":1771539593,"current_range_meters":39200,"station_id":"ce4bgqh2rcd13ifvqc5g","pricing_plan_id":"cebpf4jnsgd1na2vs0mg"},{"bike_id":"aed5bfec-6f6b-4d48-9743-ee9d48821171","system_id":"levelo_inurba_marseille","lat":43.28141,"lon":5.42645,"is_reserved":false,"is_disabled":false,"rental_uris":{"android":"levelo://app?vid=aed5bfec-6f6b-4d48-9743-ee9d48821171","ios":"levelo://app?vid=aed5bfec-6f6b-4d48-9743-ee9d48821171"},"vehicle_type_id":"4","last_reported":1771539593,"current_range_meters":30800,"station_id":"ce4bhnh2rcd13ifvqgug","pricing_plan_id":"cebpf4jnsgd1na2vs0mg"},{"bike_id":"ed62a73a-4bd7-49f5-ba79-79b7cfcd0252","system_id":"levelo_inurba_marseille","lat":43.28435,"lon":5.35053,"is_reserved":false,"is_disabled":true,"rental_uris":{"android":"levelo://app?vid=ed62a73a-4bd7-49f5-ba79-79b7cfcd0252","ios":"levelo://app?vid=ed62a73a-4bd7-49f5-ba79-79b7cfcd0252"},"vehicle_type_id":"4","last_reported":1771539593,"current_range_meters":25600,"station_id":"ce4bhbh2rcd13ifvqepg","pricing_plan_id":"cebpf4jnsgd1na2vs0mg"},{"bike_id":"42b6100a-41f2-4d60-944d-8dd96a15e3d1","system_id":"levelo_inurba_marseille","lat":43.31422,"lon":5.37357,"is_reserved":false,"is_disabled":false,"rental_uris":{"android":"levelo://app?vid=42b6100a-41f2-4d60-944d-8dd96a15e3d1","ios":"levelo://app?vid=42b6100a-41f2-4d60-944d-8dd96a15e3d1"},"vehicle_type_id":"4","last_reported":1771539593,"current_range_meters":8800,"station_id":"","pricing_plan_id":"cebpf4jnsgd1na2vs0mg"},{"bike_id":"12841638-7e7d-416a-ba31-23c5c61af75c","system_id":"levelo_inurba_marseille","lat":43.29579,"lon":5.39976,"is_reserved":false,"is_disabled":false,"rental_uris":{"android":"levelo://app?vid=12841638-7e7d-416a-ba31-23c5c61af75c","ios":"levelo://app?vid=12841638-7e7d-416a-ba31-23c5c61af75c"},"vehicle_type_id":"4","last_reported":1771539593,"current_range_meters":10000,"station_id":"ce4bh312rcd13ifvqdj0","pricing_plan_id":"cebpf4jnsgd1na2vs0mg"},{"bike_id":"7074c830-1f49-440a-aa60-013e310fa522","system_id":"levelo_inurba_marseille","lat":43.27369,"lon":5.36266,"is_reserved":false,"is_disabled":false,"rental_uris":{"android":"levelo://app?vid=7074c830-1f49-440a-aa60-013e310fa522","ios":"levelo://app?vid=7074c830-1f49-440a-aa60-013e310fa522"},"vehicle_type_id":"4","last_reported":1771539593,"current_range_meters":11600,"station_id":"ce4bhbh2rcd13ifvqeo0","pricing_plan_id":"cebpf4jnsgd1na2vs0mg"},{"bike_id":"11c6bfff-c339-43fd-bdd1-865eec75b1f4","system_id":"levelo_inurba_marseille","lat":43.24996,"lon":5.40455,"is_reserved":false,"is_disabled":false,"rental_uris":{"android":"levelo://app?vid=11c6bfff-c339-43fd-bdd1-865eec75b1f4","ios":"levelo://app?vid=11c6bfff-c339-43fd-bdd1-865eec75b1f4"},"vehicle_type_id":"4","last_reported":1771539593,"current_range_meters":28000,"station_id":"","pricing_plan_id":"cebpf4jnsgd1na2vs0mg"},{"bike_id":"b6d988ed-d4a1-482d-b75a-620a0f62be5b","system_id":"levelo_inurba_marseille","lat":43.26026,"lon":5.37549,"is_reserved":false,"is_disabled":false,"rental_uris":{"android":"levelo://app?vid=b6d988ed-d4a1-482d-b75a-620a0f62be5b","ios":"levelo://app?vid=b6d988ed-d4a1-482d-b75a-620a0f62be5b"},"vehicle_type_id":"4","last_reported":1771539593,"current_range_meters":18000,"station_id":"ce4bhgh2rcd13ifvqfa0","pricing_plan_id":"cebpf4jnsgd1na2vs0mg"},{"bike_id":"ed801aba-6299-4abc-846c-98c2ac128308","system_id":"levelo_inurba_marseille","lat":43.24395,"lon":5.37074,"is_reserved":false,"is_disabled":false,"rental_uris":{"android":"levelo://app?vid=ed801aba-6299-4abc-846c-98c2ac128308","ios":"levelo://app?vid=ed801aba-6299-4abc-846c-98c2ac128308"},"vehicle_type_id":"4","last_reported":1771539593,"current_range_meters":18800,"station_id":"ce4bhhh2rcd13ifvqfk0","pricing_plan_id":"cebpf4jnsgd1na2vs0mg"},{"bike_id":"a338c969-bf95-4c60-ade2-72f3f3a8ab46","system_id":"levelo_inurba_marseille","lat":43.29607,"lon":5.38091,"is_reserved":false,"is_disabled":false,"rental_uris":{"android":"levelo://app?vid=a338c969-bf95-4c60-ade2-72f3f3a8ab46","ios":"levelo://app?vid=a338c969-bf95-4c60-ade2-72f3f3a8ab46"},"vehicle_type_id":"4","last_reported":1771539593,"current_range_meters":32400,"station_id":"ce4bgl12rcd13ifvqbo0","pricing_plan_id":"cebpf4jnsgd1na2vs0mg"},{"bike_id":"549f289b-9770-4026-802d-a4ffdc207c39","system_id":"levelo_inurba_marseille","lat":43.32361,"lon":5.38875,"is_reserved":false,"is_disabled":false,"rental_uris":{"android":"levelo://app?vid=549f289b-9770-4026-802d-a4ffdc207c39","ios":"levelo://app?vid=549f289b-9770-4026-802d-a4ffdc207c39"},"vehicle_type_id":"4","last_reported":1771539593,"current_range_meters":37600,"station_id":"ce4bhqp2rcd13ifvqhog","pricing_plan_id":"cebpf4jnsgd1na2vs0mg"},{"bike_id":"e8d230b9-0ba2-40c8-bc64-4a07b6f6ced2","system_id":"levelo_inurba_marseille","lat":43.2256,"lon":5.41646,"is_reserved":false,"is_disabled":false,"rental_uris":{"android":"levelo://app?vid=e8d230b9-0ba2-40c8-bc64-4a07b6f6ced2","ios":"levelo://app?vid=e8d230b9-0ba2-40c8-bc64-4a07b6f6ced2"},"vehicle_type_id":"4","last_reported":1771539593,"current_range_meters":6000,"station_id":"st_d2o4gvlbi1j2169b742g","pricing_plan_id":"cebpf4jnsgd1na2vs0mg"},{"bike_id":"e59f665b-ca8e-40ab-a2ed-9455369e7fbf","system_id":"levelo_inurba_marseille","lat":43.28466,"lon":5.48395,"is_reserved":false,"is_disabled":false,"rental_uris":{"android":"levelo://app?vid=e59f665b-ca8e-40ab-a2ed-9455369e7fbf","ios":"levelo://app?vid=e59f665b-ca8e-40ab-a2ed-9455369e7fbf"},"vehicle_type_id":"4","last_reported":1771539593,"current_range_meters":24400,"station_id":"","pricing_plan_id":"cebpf4jnsgd1na2vs0mg"},{"bike_id":"17df4095-c250-4c01-a943-f0608a2acf86","system_id":"levelo_inurba_marseille","lat":43.308703,"lon":5.377185,"is_reserved":false,"is_disabled":false,"rental_uris":{"android":"levelo://app?vid=17df4095-c250-4c01-a943-f0608a2acf86","ios":"levelo://app?vid=17df4095-c250-4c01-a943-f0608a2acf86"},"vehicle_type_id":"4","last_reported":1771539593,"current_range_meters":10000,"station_id":"ce4bgv92rcd13ifvqcq0","pricing_plan_id":"cebpf4jnsgd1na2vs0mg"},{"bike_id":"ec923e34-7d9c-433e-8da4-04f4faf733a8","system_id":"levelo_inurba_marseille","lat":43.29529,"lon":5.37488,"is_reserved":false,"is_disabled":false,"rental_uris":{"android":"levelo://app?vid=ec923e34-7d9c-433e-8da4-04f4faf733a8","ios":"levelo://app?vid=ec923e34-7d9c-433e-8da4-04f4faf733a8"},"vehicle_type_id":"4","last_reported":1771539593,"current_range_meters":39200,"station_id":"ce4bgkp2rcd13ifvqbmg","pricing_plan_id":"cebpf4jnsgd1na2vs0mg"},{"bike_id":"8c21ace2-0801-4586-8cea-064ccad16c99","system_id":"levelo_inurba_marseille","lat":43.2255,"lon":5.41625,"is_reserved":false,"is_disabled":false,"rental_uris":{"android":"levelo://app?vid=8c21ace2-0801-4586-8cea-064ccad16c99","ios":"levelo://app?vid=8c21ace2-0801-4586-8cea-064ccad16c99"},"vehicle_type_id":"4","last_reported":1771539593,"current_range_meters":38800,"station_id":"st_d2o4gvlbi1j2169b742g","pricing_plan_id":"cebpf4jnsgd1na2vs0mg"},{"bike_id":"ad4eda2d-29ff-4bac-bf5f-b98fd85aff85","system_id":"levelo_inurba_marseille","lat":43.29594,"lon":5.38105,"is_reserved":false,"is_disabled":false,"rental_uris":{"android":"levelo://app?vid=ad4eda2d-29ff-4bac-bf5f-b98fd85aff85","ios":"levelo://app?vid=ad4eda2d-29ff-4bac-bf5f-b98fd85aff85"},"vehicle_type_id":"4","last_reported":1771539593,"current_range_meters":21600,"station_id":"ce4bgl12rcd13ifvqbo0","pricing_plan_id":"cebpf4jnsgd1na2vs0mg"},{"bike_id":"ae1526ac-94c0-4471-b06e-92c0bff1ac42","system_id":"levelo_inurba_marseille","lat":43.28083,"lon":5.39661,"is_reserved":false,"is_disabled":false,"rental_uris":{"android":"levelo://app?vid=ae1526ac-94c0-4471-b06e-92c0bff1ac42","ios":"levelo://app?vid=ae1526ac-94c0-4471-b06e-92c0bff1ac42"},"vehicle_type_id":"4","last_reported":1771539593,"current_range_meters":20000,"station_id":"ce4bho12rcd13ifvqh2g","pricing_plan_id":"cebpf4jnsgd1na2vs0mg"},{"bike_id":"9c73f2c7-5b50-4522-9afb-360155e111ca","system_id":"levelo_inurba_marseille","lat":43.2583,"lon":5.39436,"is_reserved":false,"is_disabled":false,"rental_uris":{"android":"levelo://app?vid=9c73f2c7-5b50-4522-9afb-360155e111ca","ios":"levelo://app?vid=9c73f2c7-5b50-4522-9afb-360155e111ca"},"vehicle_type_id":"4","last_reported":1771539593,"current_range_meters":39200,"station_id":"ce4bhip2rcd13ifvqft0","pricing_plan_id":"cebpf4jnsgd1na2vs0mg"},{"bike_id":"6a073e53-b7ba-45d5-a82b-20ab8b7b8e96","system_id":"levelo_inurba_marseille","lat":43.33563,"lon":5.37454,"is_reserved":false,"is_disabled":false,"rental_uris":{"android":"levelo://app?vid=6a073e53-b7ba-45d5-a82b-20ab8b7b8e96","ios":"levelo://app?vid=6a073e53-b7ba-45d5-a82b-20ab8b7b8e96"},"vehicle_type_id":"4","last_reported":1771539593,"current_range_meters":16400,"station_id":"st_d46tts09ee8s73dlu43g","pricing_plan_id":"cebpf4jnsgd1na2vs0mg"},{"bike_id":"02afad58-7c53-414e-834f-fd79a6ae4dae","system_id":"levelo_inurba_marseille","lat":43.28363,"lon":5.38097,"is_reserved":false,"is_disabled":false,"rental_uris":{"android":"levelo://app?vid=02afad58-7c53-414e-834f-fd79a6ae4dae","ios":"levelo://app?vid=02afad58-7c53-414e-834f-fd79a6ae4dae"},"vehicle_type_id":"4","last_reported":1771539593,"current_range_meters":39200,"station_id":"ce4bh412rcd13ifvqdr0","pricing_plan_id":"cebpf4jnsgd1na2vs0mg"},{"bike_id":"27586e15-78a0-41b9-981d-e5de2751a5b3","system_id":"levelo_inurba_marseille","lat":43.30306,"lon":5.36886,"is_reserved":false,"is_disabled":false,"rental_uris":{"android":"levelo://app?vid=27586e15-78a0-41b9-981d-e5de2751a5b3","ios":"levelo://app?vid=27586e15-78a0-41b9-981d-e5de2751a5b3"},"vehicle_type_id":"4","last_reported":1771539593,"current_range_meters":13600,"station_id":"ce4bgqh2rcd13ifvqc5g","pricing_plan_id":"cebpf4jnsgd1na2vs0mg"},{"bike_id":"4e6ae03e-50eb-4e46-ad3a-b607c4b7ae2f","system_id":"levelo_inurba_marseille","lat":43.26942,"lon":5.40243,"is_reserved":false,"is_disabled":false,"rental_uris":{"android":"levelo://app?vid=4e6ae03e-50eb-4e46-ad3a-b607c4b7ae2f","ios":"levelo://app?vid=4e6ae03e-50eb-4e46-ad3a-b607c4b7ae2f"},"vehicle_type_id":"4","last_reported":1771539593,"current_range_meters":38400,"station_id":"cjm6bp8fraef2m0cb0m0","pricing_plan_id":"cebpf4jnsgd1na2vs0mg"},{"bike_id":"9584df82-7fb1-41aa-8564-b7958aeeac11","system_id":"levelo_inurba_marseille","lat":43.2884,"lon":5.35844,"is_reserved":false,"is_disabled":false,"rental_uris":{"android":"levelo://app?vid=9584df82-7fb1-41aa-8564-b7958aeeac11","ios":"levelo://app?vid=9584df82-7fb1-41aa-8564-b7958aeeac11"},"vehicle_type_id":"4","last_reported":1771539593,"current_range_meters":32800,"station_id":"ce4bhb12rcd13ifvqem0","pricing_plan_id":"cebpf4jnsgd1na2vs0mg"},{"bike_id":"65ea9a10-66c8-4e19-9171-3ec66c2f7ddd","system_id":"levelo_inurba_marseille","lat":43.30802,"lon":5.3816,"is_reserved":false,"is_disabled":false,"rental_uris":{"android":"levelo://app?vid=65ea9a10-66c8-4e19-9171-3ec66c2f7ddd","ios":"levelo://app?vid=65ea9a10-66c8-4e19-9171-3ec66c2f7ddd"},"vehicle_type_id":"4","last_reported":1771539593,"current_range_meters":38000,"station_id":"ce4bgt12rcd13ifvqce0","pricing_plan_id":"cebpf4jnsgd1na2vs0mg"},{"bike_id":"697d9299-f53c-4422-92ef-feeb2fe91248","system_id":"levelo_inurba_marseille","lat":43.30543,"lon":5.38429,"is_reserved":false,"is_disabled":false,"rental_uris":{"android":"levelo://app?vid=697d9299-f53c-4422-92ef-feeb2fe91248","ios":"levelo://app?vid=697d9299-f53c-4422-92ef-feeb2fe91248"},"vehicle_type_id":"4","last_reported":1771539593,"current_range_meters":17200,"station_id":"ce4bgg92rcd13ifvqb30","pricing_plan_id":"cebpf4jnsgd1na2vs0mg"},{"bike_id":"4bd1f6d4-81e3-4e75-8ac8-751650c842e0","system_id":"levelo_inurba_marseille","lat":43.30429,"lon":5.38894,"is_reserved":false,"is_disabled":false,"rental_uris":{"android":"levelo://app?vid=4bd1f6d4-81e3-4e75-8ac8-751650c842e0","ios":"levelo://app?vid=4bd1f6d4-81e3-4e75-8ac8-751650c842e0"},"vehicle_type_id":"4","last_reported":1771539593,"current_range_meters":39200,"station_id":"ce4bgk12rcd13ifvqbi0","pricing_plan_id":"cebpf4jnsgd1na2vs0mg"},{"bike_id":"3336a309-b824-40ed-b52e-035197a7a433","system_id":"levelo_inurba_marseille","lat":43.26677,"lon":5.3828,"is_reserved":false,"is_disabled":false,"rental_uris":{"android":"levelo://app?vid=3336a309-b824-40ed-b52e-035197a7a433","ios":"levelo://app?vid=3336a309-b824-40ed-b52e-035197a7a433"},"vehicle_type_id":"4","last_reported":1771539593,"current_range_meters":25200,"station_id":"ce4bhg92rcd13ifvqf90","pricing_plan_id":"cebpf4jnsgd1na2vs0mg"},{"bike_id":"82b6bf62-bb92-4b1a-95dd-0cedf36fc011","system_id":"levelo_inurba_marseille","lat":43.28693,"lon":5.3793,"is_reserved":false,"is_disabled":false,"rental_uris":{"android":"levelo://app?vid=82b6bf62-bb92-4b1a-95dd-0cedf36fc011","ios":"levelo://app?vid=82b6bf62-bb92-4b1a-95dd-0cedf36fc011"},"vehicle_type_id":"4","last_reported":1771539593,"current_range_meters":18800,"station_id":"ce4bh9p2rcd13ifvqec0","pricing_plan_id":"cebpf4jnsgd1na2vs0mg"},{"bike_id":"bb0803fd-9df1-4445-90aa-26704edd9381","system_id":"levelo_inurba_marseille","lat":43.28028,"lon":5.36938,"is_reserved":false,"is_disabled":false,"rental_uris":{"android":"levelo://app?vid=bb0803fd-9df1-4445-90aa-26704edd9381","ios":"levelo://app?vid=bb0803fd-9df1-4445-90aa-26704edd9381"},"vehicle_type_id":"4","last_reported":1771539593,"current_range_meters":23200,"station_id":"ce4bha12rcd13ifvqef0","pricing_plan_id":"cebpf4jnsgd1na2vs0mg"},{"bike_id":"10c133ee-c45c-48fc-94ed-8007f69d73dd","system_id":"levelo_inurba_marseille","lat":43.29835,"lon":5.40393,"is_reserved":false,"is_disabled":false,"rental_uris":{"android":"levelo://app?vid=10c133ee-c45c-48fc-94ed-8007f69d73dd","ios":"levelo://app?vid=10c133ee-c45c-48fc-94ed-8007f69d73dd"},"vehicle_type_id":"4","last_reported":1771539593,"current_range_meters":39200,"station_id":"ce4bh112rcd13ifvqd90","pricing_plan_id":"cebpf4jnsgd1na2vs0mg"},{"bike_id":"093ed882-d0d1-4a36-bddd-24da7616b8b9","system_id":"levelo_inurba_marseille","lat":43.28466,"lon":5.35882,"is_reserved":false,"is_disabled":false,"rental_uris":{"android":"levelo://app?vid=093ed882-d0d1-4a36-bddd-24da7616b8b9","ios":"levelo://app?vid=093ed882-d0d1-4a36-bddd-24da7616b8b9"},"vehicle_type_id":"4","last_reported":1771539593,"current_range_meters":20800,"station_id":"ce4bhah2rcd13ifvqei0","pricing_plan_id":"cebpf4jnsgd1na2vs0mg"},{"bike_id":"201ca36c-c632-433f-8e63-028103426023","system_id":"levelo_inurba_marseille","lat":43.284747,"lon":5.484033,"is_reserved":false,"is_disabled":false,"rental_uris":{"android":"levelo://app?vid=201ca36c-c632-433f-8e63-028103426023","ios":"levelo://app?vid=201ca36c-c632-433f-8e63-028103426023"},"vehicle_type_id":"4","last_reported":1771539593,"current_range_meters":9600,"station_id":"","pricing_plan_id":"cebpf4jnsgd1na2vs0mg"},{"bike_id":"ef70ce12-fd44-42a0-88ed-3b2ca489b7fa","system_id":"levelo_inurba_marseille","lat":43.28857,"lon":5.42537,"is_reserved":false,"is_disabled":false,"rental_uris":{"android":"levelo://app?vid=ef70ce12-fd44-42a0-88ed-3b2ca489b7fa","ios":"levelo://app?vid=ef70ce12-fd44-42a0-88ed-3b2ca489b7fa"},"vehicle_type_id":"4","last_reported":1771539593,"current_range_meters":35600,"station_id":"st_d3b462108ojc7389ooeg","pricing_plan_id":"cebpf4jnsgd1na2vs0mg"},{"bike_id":"1e504fcf-67aa-4f33-a678-83b21b5a50c7","system_id":"levelo_inurba_marseille","lat":43.29896,"lon":5.43654,"is_reserved":false,"is_disabled":false,"rental_uris":{"android":"levelo://app?vid=1e504fcf-67aa-4f33-a678-83b21b5a50c7","ios":"levelo://app?vid=1e504fcf-67aa-4f33-a678-83b21b5a50c7"},"vehicle_type_id":"4","last_reported":1771539593,"current_range_meters":36800,"station_id":"ce4bhpp2rcd13ifvqhfg","pricing_plan_id":"cebpf4jnsgd1na2vs0mg"},{"bike_id":"402fb316-de29-4c6c-b0e2-48c631932a53","system_id":"levelo_inurba_marseille","lat":43.24711,"lon":5.38161,"is_reserved":false,"is_disabled":false,"rental_uris":{"android":"levelo://app?vid=402fb316-de29-4c6c-b0e2-48c631932a53","ios":"levelo://app?vid=402fb316-de29-4c6c-b0e2-48c631932a53"},"vehicle_type_id":"4","last_reported":1771539593,"current_range_meters":15200,"station_id":"","pricing_plan_id":"cebpf4jnsgd1na2vs0mg"},{"bike_id":"0a19b8ea-5646-43e3-9c33-b9ffd92b9fe4","system_id":"levelo_inurba_marseille","lat":43.28479,"lon":5.38456,"is_reserved":false,"is_disabled":true,"rental_uris":{"android":"levelo://app?vid=0a19b8ea-5646-43e3-9c33-b9ffd92b9fe4","ios":"levelo://app?vid=0a19b8ea-5646-43e3-9c33-b9ffd92b9fe4"},"vehicle_type_id":"4","last_reported":1771539593,"current_range_meters":16400,"station_id":"ce4bh512rcd13ifvqe3g","pricing_plan_id":"cebpf4jnsgd1na2vs0mg"},{"bike_id":"9a18b8dc-072f-4891-a2b3-cd04b923ac9f","system_id":"levelo_inurba_marseille","lat":43.303223,"lon":5.404331,"is_reserved":false,"is_disabled":false,"rental_uris":{"android":"levelo://app?vid=9a18b8dc-072f-4891-a2b3-cd04b923ac9f","ios":"levelo://app?vid=9a18b8dc-072f-4891-a2b3-cd04b923ac9f"},"vehicle_type_id":"4","last_reported":1771539593,"current_range_meters":28400,"station_id":"ce4bh012rcd13ifvqd10","pricing_plan_id":"cebpf4jnsgd1na2vs0mg"},{"bike_id":"2869ecff-d536-4cb2-8e34-6173355891f6","system_id":"levelo_inurba_marseille","lat":43.31226,"lon":5.36857,"is_reserved":false,"is_disabled":false,"rental_uris":{"android":"levelo://app?vid=2869ecff-d536-4cb2-8e34-6173355891f6","ios":"levelo://app?vid=2869ecff-d536-4cb2-8e34-6173355891f6"},"vehicle_type_id":"4","last_reported":1771539593,"current_range_meters":16800,"station_id":"ce4bgl92rcd13ifvqbq0","pricing_plan_id":"cebpf4jnsgd1na2vs0mg"},{"bike_id":"e6dcc18a-88f9-4a06-a9ba-f44311cce2a6","system_id":"levelo_inurba_marseille","lat":43.26809,"lon":5.40254,"is_reserved":false,"is_disabled":false,"rental_uris":{"android":"levelo://app?vid=e6dcc18a-88f9-4a06-a9ba-f44311cce2a6","ios":"levelo://app?vid=e6dcc18a-88f9-4a06-a9ba-f44311cce2a6"},"vehicle_type_id":"4","last_reported":1771539593,"current_range_meters":35200,"station_id":"ce501612rcd8frsf0b60","pricing_plan_id":"cebpf4jnsgd1na2vs0mg"},{"bike_id":"0d3490bd-42db-4e35-8a21-91310e80e7bf","system_id":"levelo_inurba_marseille","lat":43.29319,"lon":5.37157,"is_reserved":false,"is_disabled":false,"rental_uris":{"android":"levelo://app?vid=0d3490bd-42db-4e35-8a21-91310e80e7bf","ios":"levelo://app?vid=0d3490bd-42db-4e35-8a21-91310e80e7bf"},"vehicle_type_id":"4","last_reported":1771539593,"current_range_meters":38400,"station_id":"ce4bgh92rcd13ifvqb40","pricing_plan_id":"cebpf4jnsgd1na2vs0mg"},{"bike_id":"f5e3a92c-ddd1-4818-8a75-9f931e9d13b0","system_id":"levelo_inurba_marseille","lat":43.29524,"lon":5.39413,"is_reserved":false,"is_disabled":false,"rental_uris":{"android":"levelo://app?vid=f5e3a92c-ddd1-4818-8a75-9f931e9d13b0","ios":"levelo://app?vid=f5e3a92c-ddd1-4818-8a75-9f931e9d13b0"},"vehicle_type_id":"4","last_reported":1771539593,"current_range_meters":34800,"station_id":"ce4bh292rcd13ifvqdf0","pricing_plan_id":"cebpf4jnsgd1na2vs0mg"},{"bike_id":"62002b9e-98dc-483b-a906-03797d45c6ed","system_id":"levelo_inurba_marseille","lat":43.27995,"lon":5.41663,"is_reserved":false,"is_disabled":false,"rental_uris":{"android":"levelo://app?vid=62002b9e-98dc-483b-a906-03797d45c6ed","ios":"levelo://app?vid=62002b9e-98dc-483b-a906-03797d45c6ed"},"vehicle_type_id":"4","last_reported":1771539593,"current_range_meters":34800,"station_id":"ce4bho12rcd13ifvqh1g","pricing_plan_id":"cebpf4jnsgd1na2vs0mg"},{"bike_id":"0d1fe51a-78e9-4b32-9bfd-ee0a94c148d6","system_id":"levelo_inurba_marseille","lat":43.28695,"lon":5.37394,"is_reserved":false,"is_disabled":false,"rental_uris":{"android":"levelo://app?vid=0d1fe51a-78e9-4b32-9bfd-ee0a94c148d6","ios":"levelo://app?vid=0d1fe51a-78e9-4b32-9bfd-ee0a94c148d6"},"vehicle_type_id":"4","last_reported":1771539593,"current_range_meters":30000,"station_id":"ce4bh3p2rcd13ifvqdq0","pricing_plan_id":"cebpf4jnsgd1na2vs0mg"},{"bike_id":"8cfdc7bf-2865-4ede-9a18-ab4dbc925fcc","system_id":"levelo_inurba_marseille","lat":43.30934,"lon":5.4013,"is_reserved":false,"is_disabled":false,"rental_uris":{"android":"levelo://app?vid=8cfdc7bf-2865-4ede-9a18-ab4dbc925fcc","ios":"levelo://app?vid=8cfdc7bf-2865-4ede-9a18-ab4dbc925fcc"},"vehicle_type_id":"4","last_reported":1771539593,"current_range_meters":32800,"station_id":"ce4bgvp2rcd13ifvqct0","pricing_plan_id":"cebpf4jnsgd1na2vs0mg"},{"bike_id":"c3a5f5ea-55d6-4ed8-bea4-d28498a9da5d","system_id":"levelo_inurba_marseille","lat":43.28997,"lon":5.35619,"is_reserved":false,"is_disabled":false,"rental_uris":{"android":"levelo://app?vid=c3a5f5ea-55d6-4ed8-bea4-d28498a9da5d","ios":"levelo://app?vid=c3a5f5ea-55d6-4ed8-bea4-d28498a9da5d"},"vehicle_type_id":"4","last_reported":1771539593,"current_range_meters":38400,"station_id":"ce4bhb92rcd13ifvqen0","pricing_plan_id":"cebpf4jnsgd1na2vs0mg"},{"bike_id":"96438059-8ec7-4cad-b18f-887d9f3a4374","system_id":"levelo_inurba_marseille","lat":43.31524,"lon":5.37316,"is_reserved":false,"is_disabled":false,"rental_uris":{"android":"levelo://app?vid=96438059-8ec7-4cad-b18f-887d9f3a4374","ios":"levelo://app?vid=96438059-8ec7-4cad-b18f-887d9f3a4374"},"vehicle_type_id":"4","last_reported":1771539593,"current_range_meters":31200,"station_id":"ce4bgt12rcd13ifvqcd0","pricing_plan_id":"cebpf4jnsgd1na2vs0mg"},{"bike_id":"d19340cb-cbcd-4fe2-946f-56767c26b7fe","system_id":"levelo_inurba_marseille","lat":43.28213,"lon":5.39075,"is_reserved":false,"is_disabled":false,"rental_uris":{"android":"levelo://app?vid=d19340cb-cbcd-4fe2-946f-56767c26b7fe","ios":"levelo://app?vid=d19340cb-cbcd-4fe2-946f-56767c26b7fe"},"vehicle_type_id":"4","last_reported":1771539593,"current_range_meters":22000,"station_id":"ce4bhn92rcd13ifvqgsg","pricing_plan_id":"cebpf4jnsgd1na2vs0mg"},{"bike_id":"b5980d8f-5453-4713-b097-6ba9f5d3bd53","system_id":"levelo_inurba_marseille","lat":43.24663,"lon":5.38159,"is_reserved":false,"is_disabled":false,"rental_uris":{"android":"levelo://app?vid=b5980d8f-5453-4713-b097-6ba9f5d3bd53","ios":"levelo://app?vid=b5980d8f-5453-4713-b097-6ba9f5d3bd53"},"vehicle_type_id":"4","last_reported":1771539593,"current_range_meters":23200,"station_id":"ce4bhih2rcd13ifvqfr0","pricing_plan_id":"cebpf4jnsgd1na2vs0mg"},{"bike_id":"32c0e5e3-64a3-454e-a1bd-65899057540c","system_id":"levelo_inurba_marseille","lat":43.28839,"lon":5.35829,"is_reserved":false,"is_disabled":false,"rental_uris":{"android":"levelo://app?vid=32c0e5e3-64a3-454e-a1bd-65899057540c","ios":"levelo://app?vid=32c0e5e3-64a3-454e-a1bd-65899057540c"},"vehicle_type_id":"4","last_reported":1771539593,"current_range_meters":12000,"station_id":"ce4bhb12rcd13ifvqem0","pricing_plan_id":"cebpf4jnsgd1na2vs0mg"},{"bike_id":"ee898327-82a5-4282-b5a8-c1302e157462","system_id":"levelo_inurba_marseille","lat":43.299405,"lon":5.365453,"is_reserved":false,"is_disabled":false,"rental_uris":{"android":"levelo://app?vid=ee898327-82a5-4282-b5a8-c1302e157462","ios":"levelo://app?vid=ee898327-82a5-4282-b5a8-c1302e157462"},"vehicle_type_id":"4","last_reported":1771539593,"current_range_meters":26800,"station_id":"ce4bgm92rcd13ifvqbr0","pricing_plan_id":"cebpf4jnsgd1na2vs0mg"},{"bike_id":"13166e17-97c1-40df-9d65-c7534f8a3954","system_id":"levelo_inurba_marseille","lat":43.29514,"lon":5.39044,"is_reserved":false,"is_disabled":false,"rental_uris":{"android":"levelo://app?vid=13166e17-97c1-40df-9d65-c7534f8a3954","ios":"levelo://app?vid=13166e17-97c1-40df-9d65-c7534f8a3954"},"vehicle_type_id":"4","last_reported":1771539593,"current_range_meters":33200,"station_id":"ce4bh3p2rcd13ifvqdp0","pricing_plan_id":"cebpf4jnsgd1na2vs0mg"},{"bike_id":"6f71b375-7f6f-4f18-9925-7a32e5ba2a03","system_id":"levelo_inurba_marseille","lat":43.28472,"lon":5.35872,"is_reserved":false,"is_disabled":false,"rental_uris":{"android":"levelo://app?vid=6f71b375-7f6f-4f18-9925-7a32e5ba2a03","ios":"levelo://app?vid=6f71b375-7f6f-4f18-9925-7a32e5ba2a03"},"vehicle_type_id":"4","last_reported":1771539593,"current_range_meters":32000,"station_id":"ce4bhah2rcd13ifvqei0","pricing_plan_id":"cebpf4jnsgd1na2vs0mg"},{"bike_id":"a3ff3c45-0f5c-423d-82a7-4cca525501fc","system_id":"levelo_inurba_marseille","lat":43.26778,"lon":5.3942,"is_reserved":false,"is_disabled":false,"rental_uris":{"android":"levelo://app?vid=a3ff3c45-0f5c-423d-82a7-4cca525501fc","ios":"levelo://app?vid=a3ff3c45-0f5c-423d-82a7-4cca525501fc"},"vehicle_type_id":"4","last_reported":1771539593,"current_range_meters":35600,"station_id":"ce4bhh12rcd13ifvqfg0","pricing_plan_id":"cebpf4jnsgd1na2vs0mg"},{"bike_id":"30e71a7f-218d-4ed3-8bce-a8d5d264d9e6","system_id":"levelo_inurba_marseille","lat":43.33161,"lon":5.3768,"is_reserved":false,"is_disabled":false,"rental_uris":{"android":"levelo://app?vid=30e71a7f-218d-4ed3-8bce-a8d5d264d9e6","ios":"levelo://app?vid=30e71a7f-218d-4ed3-8bce-a8d5d264d9e6"},"vehicle_type_id":"4","last_reported":1771539593,"current_range_meters":12400,"station_id":"st_d46cu089ee8s73dldbu0","pricing_plan_id":"cebpf4jnsgd1na2vs0mg"},{"bike_id":"820283bb-7348-4881-a27b-8ff5df5ea0a7","system_id":"levelo_inurba_marseille","lat":43.31894,"lon":5.40726,"is_reserved":false,"is_disabled":false,"rental_uris":{"android":"levelo://app?vid=820283bb-7348-4881-a27b-8ff5df5ea0a7","ios":"levelo://app?vid=820283bb-7348-4881-a27b-8ff5df5ea0a7"},"vehicle_type_id":"4","last_reported":1771539593,"current_range_meters":38400,"station_id":"ce4bhq12rcd13ifvqhig","pricing_plan_id":"cebpf4jnsgd1na2vs0mg"},{"bike_id":"f793b274-b441-4ad1-b7af-7b63567f6882","system_id":"levelo_inurba_marseille","lat":43.3198,"lon":5.38157,"is_reserved":false,"is_disabled":false,"rental_uris":{"android":"levelo://app?vid=f793b274-b441-4ad1-b7af-7b63567f6882","ios":"levelo://app?vid=f793b274-b441-4ad1-b7af-7b63567f6882"},"vehicle_type_id":"4","last_reported":1771539593,"current_range_meters":36800,"station_id":"ce4bhr12rcd13ifvqhpg","pricing_plan_id":"cebpf4jnsgd1na2vs0mg"},{"bike_id":"757f6331-4f0a-4f0d-b964-072afef1ed2f","system_id":"levelo_inurba_marseille","lat":43.30679,"lon":5.40033,"is_reserved":false,"is_disabled":false,"rental_uris":{"android":"levelo://app?vid=757f6331-4f0a-4f0d-b964-072afef1ed2f","ios":"levelo://app?vid=757f6331-4f0a-4f0d-b964-072afef1ed2f"},"vehicle_type_id":"4","last_reported":1771539593,"current_range_meters":27600,"station_id":"","pricing_plan_id":"cebpf4jnsgd1na2vs0mg"},{"bike_id":"0ddf152a-9092-4b82-818a-7ea4d7e348cb","system_id":"levelo_inurba_marseille","lat":43.29302,"lon":5.3746,"is_reserved":false,"is_disabled":false,"rental_uris":{"android":"levelo://app?vid=0ddf152a-9092-4b82-818a-7ea4d7e348cb","ios":"levelo://app?vid=0ddf152a-9092-4b82-818a-7ea4d7e348cb"},"vehicle_type_id":"4","last_reported":1771539593,"current_range_meters":14000,"station_id":"ce4bgi12rcd13ifvqb70","pricing_plan_id":"cebpf4jnsgd1na2vs0mg"},{"bike_id":"c7d2b54a-d383-408d-9a81-b600a9105a37","system_id":"levelo_inurba_marseille","lat":43.33547,"lon":5.37456,"is_reserved":false,"is_disabled":false,"rental_uris":{"android":"levelo://app?vid=c7d2b54a-d383-408d-9a81-b600a9105a37","ios":"levelo://app?vid=c7d2b54a-d383-408d-9a81-b600a9105a37"},"vehicle_type_id":"4","last_reported":1771539593,"current_range_meters":18000,"station_id":"st_d46tts09ee8s73dlu43g","pricing_plan_id":"cebpf4jnsgd1na2vs0mg"},{"bike_id":"c135ce5a-ba70-4ffc-9697-7b0a2e31381d","system_id":"levelo_inurba_marseille","lat":43.30152,"lon":5.38758,"is_reserved":false,"is_disabled":true,"rental_uris":{"android":"levelo://app?vid=c135ce5a-ba70-4ffc-9697-7b0a2e31381d","ios":"levelo://app?vid=c135ce5a-ba70-4ffc-9697-7b0a2e31381d"},"vehicle_type_id":"4","last_reported":1771539593,"current_range_meters":36400,"station_id":"ce4bghh2rcd13ifvqb60","pricing_plan_id":"cebpf4jnsgd1na2vs0mg"},{"bike_id":"f4fd0ff2-eb91-40c3-9aac-87c17b131164","system_id":"levelo_inurba_marseille","lat":43.27569,"lon":5.38423,"is_reserved":false,"is_disabled":true,"rental_uris":{"android":"levelo://app?vid=f4fd0ff2-eb91-40c3-9aac-87c17b131164","ios":"levelo://app?vid=f4fd0ff2-eb91-40c3-9aac-87c17b131164"},"vehicle_type_id":"4","last_reported":1771539593,"current_range_meters":400,"station_id":"ce4bhh92rcd13ifvqfi0","pricing_plan_id":"cebpf4jnsgd1na2vs0mg"},{"bike_id":"88d55422-5d6d-4698-a0f5-6f5e1cf7d814","system_id":"levelo_inurba_marseille","lat":43.30438,"lon":5.38859,"is_reserved":false,"is_disabled":false,"rental_uris":{"android":"levelo://app?vid=88d55422-5d6d-4698-a0f5-6f5e1cf7d814","ios":"levelo://app?vid=88d55422-5d6d-4698-a0f5-6f5e1cf7d814"},"vehicle_type_id":"4","last_reported":1771539593,"current_range_meters":28000,"station_id":"ce4bgk12rcd13ifvqbi0","pricing_plan_id":"cebpf4jnsgd1na2vs0mg"},{"bike_id":"4b20e146-4e88-4eda-9be1-c75411a16e8b","system_id":"levelo_inurba_marseille","lat":43.29215,"lon":5.36016,"is_reserved":false,"is_disabled":false,"rental_uris":{"android":"levelo://app?vid=4b20e146-4e88-4eda-9be1-c75411a16e8b","ios":"levelo://app?vid=4b20e146-4e88-4eda-9be1-c75411a16e8b"},"vehicle_type_id":"4","last_reported":1771539593,"current_range_meters":22000,"station_id":"ce4bhbh2rcd13ifvqeqg","pricing_plan_id":"cebpf4jnsgd1na2vs0mg"},{"bike_id":"0af9e755-22ed-4828-a2f8-c9fa292a78b2","system_id":"levelo_inurba_marseille","lat":43.28728,"lon":5.36085,"is_reserved":false,"is_disabled":false,"rental_uris":{"android":"levelo://app?vid=0af9e755-22ed-4828-a2f8-c9fa292a78b2","ios":"levelo://app?vid=0af9e755-22ed-4828-a2f8-c9fa292a78b2"},"vehicle_type_id":"4","last_reported":1771539593,"current_range_meters":35600,"station_id":"cki0cbj6b192h4jlfktg","pricing_plan_id":"cebpf4jnsgd1na2vs0mg"},{"bike_id":"7369def7-9b1b-46ef-b714-b9627d037a41","system_id":"levelo_inurba_marseille","lat":43.27068,"lon":5.42286,"is_reserved":false,"is_disabled":false,"rental_uris":{"android":"levelo://app?vid=7369def7-9b1b-46ef-b714-b9627d037a41","ios":"levelo://app?vid=7369def7-9b1b-46ef-b714-b9627d037a41"},"vehicle_type_id":"4","last_reported":1771539593,"current_range_meters":4000,"station_id":"ce4bhk92rcd13ifvqgb0","pricing_plan_id":"cebpf4jnsgd1na2vs0mg"},{"bike_id":"3509f13d-ce5d-4591-b9d8-1fa53fc0398a","system_id":"levelo_inurba_marseille","lat":43.28842,"lon":5.35866,"is_reserved":false,"is_disabled":false,"rental_uris":{"android":"levelo://app?vid=3509f13d-ce5d-4591-b9d8-1fa53fc0398a","ios":"levelo://app?vid=3509f13d-ce5d-4591-b9d8-1fa53fc0398a"},"vehicle_type_id":"4","last_reported":1771539593,"current_range_meters":40000,"station_id":"ce4bhb12rcd13ifvqem0","pricing_plan_id":"cebpf4jnsgd1na2vs0mg"},{"bike_id":"e23a5435-262a-41e9-87f3-1135db2f06a4","system_id":"levelo_inurba_marseille","lat":43.29553,"lon":5.37493,"is_reserved":false,"is_disabled":false,"rental_uris":{"android":"levelo://app?vid=e23a5435-262a-41e9-87f3-1135db2f06a4","ios":"levelo://app?vid=e23a5435-262a-41e9-87f3-1135db2f06a4"},"vehicle_type_id":"4","last_reported":1771539593,"current_range_meters":33200,"station_id":"ce4bgkp2rcd13ifvqbmg","pricing_plan_id":"cebpf4jnsgd1na2vs0mg"},{"bike_id":"e5c37de4-5b20-40fe-851e-2d0c03d75c93","system_id":"levelo_inurba_marseille","lat":43.33125,"lon":5.39271,"is_reserved":false,"is_disabled":false,"rental_uris":{"android":"levelo://app?vid=e5c37de4-5b20-40fe-851e-2d0c03d75c93","ios":"levelo://app?vid=e5c37de4-5b20-40fe-851e-2d0c03d75c93"},"vehicle_type_id":"4","last_reported":1771539593,"current_range_meters":10000,"station_id":"","pricing_plan_id":"cebpf4jnsgd1na2vs0mg"},{"bike_id":"07b0f432-5e82-4f8c-81ee-67d93dfdf4d8","system_id":"levelo_inurba_marseille","lat":43.28619,"lon":5.35101,"is_reserved":false,"is_disabled":false,"rental_uris":{"android":"levelo://app?vid=07b0f432-5e82-4f8c-81ee-67d93dfdf4d8","ios":"levelo://app?vid=07b0f432-5e82-4f8c-81ee-67d93dfdf4d8"},"vehicle_type_id":"4","last_reported":1771539593,"current_range_meters":4000,"station_id":"ce4bhch2rcd13ifvqeug","pricing_plan_id":"cebpf4jnsgd1na2vs0mg"},{"bike_id":"5dc15068-156f-423a-b505-7f859341db9b","system_id":"levelo_inurba_marseille","lat":43.28723,"lon":5.36081,"is_reserved":false,"is_disabled":false,"rental_uris":{"android":"levelo://app?vid=5dc15068-156f-423a-b505-7f859341db9b","ios":"levelo://app?vid=5dc15068-156f-423a-b505-7f859341db9b"},"vehicle_type_id":"4","last_reported":1771539593,"current_range_meters":11200,"station_id":"cki0cbj6b192h4jlfktg","pricing_plan_id":"cebpf4jnsgd1na2vs0mg"},{"bike_id":"466afbb4-34e0-46e8-93c8-08c6309c4b15","system_id":"levelo_inurba_marseille","lat":43.29295,"lon":5.37453,"is_reserved":false,"is_disabled":false,"rental_uris":{"android":"levelo://app?vid=466afbb4-34e0-46e8-93c8-08c6309c4b15","ios":"levelo://app?vid=466afbb4-34e0-46e8-93c8-08c6309c4b15"},"vehicle_type_id":"4","last_reported":1771539593,"current_range_meters":7200,"station_id":"ce4bgi12rcd13ifvqb70","pricing_plan_id":"cebpf4jnsgd1na2vs0mg"},{"bike_id":"921810b6-1bc3-440a-bc47-665b4a5f5a1e","system_id":"levelo_inurba_marseille","lat":43.30935,"lon":5.36827,"is_reserved":false,"is_disabled":false,"rental_uris":{"android":"levelo://app?vid=921810b6-1bc3-440a-bc47-665b4a5f5a1e","ios":"levelo://app?vid=921810b6-1bc3-440a-bc47-665b4a5f5a1e"},"vehicle_type_id":"4","last_reported":1771539593,"current_range_meters":26800,"station_id":"ce4bgn92rcd13ifvqbvg","pricing_plan_id":"cebpf4jnsgd1na2vs0mg"},{"bike_id":"47788a9b-3d71-4615-adaa-2c88572889ac","system_id":"levelo_inurba_marseille","lat":43.31486,"lon":5.37299,"is_reserved":false,"is_disabled":false,"rental_uris":{"android":"levelo://app?vid=47788a9b-3d71-4615-adaa-2c88572889ac","ios":"levelo://app?vid=47788a9b-3d71-4615-adaa-2c88572889ac"},"vehicle_type_id":"4","last_reported":1771539593,"current_range_meters":30000,"station_id":"ce4bgt12rcd13ifvqcd0","pricing_plan_id":"cebpf4jnsgd1na2vs0mg"},{"bike_id":"4a0e62d3-be5f-4d6a-b90e-c3411a1287ce","system_id":"levelo_inurba_marseille","lat":43.28843,"lon":5.35842,"is_reserved":false,"is_disabled":false,"rental_uris":{"android":"levelo://app?vid=4a0e62d3-be5f-4d6a-b90e-c3411a1287ce","ios":"levelo://app?vid=4a0e62d3-be5f-4d6a-b90e-c3411a1287ce"},"vehicle_type_id":"4","last_reported":1771539593,"current_range_meters":40000,"station_id":"ce4bhb12rcd13ifvqem0","pricing_plan_id":"cebpf4jnsgd1na2vs0mg"},{"bike_id":"fe61620a-8630-4808-bdbe-e17dd1aaecfb","system_id":"levelo_inurba_marseille","lat":43.24401,"lon":5.37075,"is_reserved":false,"is_disabled":false,"rental_uris":{"android":"levelo://app?vid=fe61620a-8630-4808-bdbe-e17dd1aaecfb","ios":"levelo://app?vid=fe61620a-8630-4808-bdbe-e17dd1aaecfb"},"vehicle_type_id":"4","last_reported":1771539593,"current_range_meters":32800,"station_id":"","pricing_plan_id":"cebpf4jnsgd1na2vs0mg"},{"bike_id":"3741e8ea-33bc-4b2e-99b8-7d77857e40d0","system_id":"levelo_inurba_marseille","lat":43.25089,"lon":5.39513,"is_reserved":false,"is_disabled":false,"rental_uris":{"android":"levelo://app?vid=3741e8ea-33bc-4b2e-99b8-7d77857e40d0","ios":"levelo://app?vid=3741e8ea-33bc-4b2e-99b8-7d77857e40d0"},"vehicle_type_id":"4","last_reported":1771539593,"current_range_meters":32000,"station_id":"ce4bhm12rcd13ifvqgkg","pricing_plan_id":"cebpf4jnsgd1na2vs0mg"},{"bike_id":"caa244bd-10d6-4453-8144-dfac9fd1e116","system_id":"levelo_inurba_marseille","lat":43.28558,"lon":5.39502,"is_reserved":false,"is_disabled":false,"rental_uris":{"android":"levelo://app?vid=caa244bd-10d6-4453-8144-dfac9fd1e116","ios":"levelo://app?vid=caa244bd-10d6-4453-8144-dfac9fd1e116"},"vehicle_type_id":"4","last_reported":1771539593,"current_range_meters":39200,"station_id":"ce4bh292rcd13ifvqdg0","pricing_plan_id":"cebpf4jnsgd1na2vs0mg"},{"bike_id":"feddf533-e694-4295-8a00-2ac5034dd517","system_id":"levelo_inurba_marseille","lat":43.26939,"lon":5.40189,"is_reserved":false,"is_disabled":false,"rental_uris":{"android":"levelo://app?vid=feddf533-e694-4295-8a00-2ac5034dd517","ios":"levelo://app?vid=feddf533-e694-4295-8a00-2ac5034dd517"},"vehicle_type_id":"4","last_reported":1771539593,"current_range_meters":36800,"station_id":"","pricing_plan_id":"cebpf4jnsgd1na2vs0mg"},{"bike_id":"df0d7781-4bf1-46fc-ada1-1bd873d26f1b","system_id":"levelo_inurba_marseille","lat":43.30145,"lon":5.39866,"is_reserved":false,"is_disabled":false,"rental_uris":{"android":"levelo://app?vid=df0d7781-4bf1-46fc-ada1-1bd873d26f1b","ios":"levelo://app?vid=df0d7781-4bf1-46fc-ada1-1bd873d26f1b"},"vehicle_type_id":"4","last_reported":1771539593,"current_range_meters":30400,"station_id":"ce4bh0h2rcd13ifvqd40","pricing_plan_id":"cebpf4jnsgd1na2vs0mg"},{"bike_id":"452fff2a-3493-416b-b5e3-7732003649cc","system_id":"levelo_inurba_marseille","lat":43.337444,"lon":5.374475,"is_reserved":false,"is_disabled":false,"rental_uris":{"android":"levelo://app?vid=452fff2a-3493-416b-b5e3-7732003649cc","ios":"levelo://app?vid=452fff2a-3493-416b-b5e3-7732003649cc"},"vehicle_type_id":"4","last_reported":1771539593,"current_range_meters":34800,"station_id":"","pricing_plan_id":"cebpf4jnsgd1na2vs0mg"},{"bike_id":"786d080f-11cd-4917-a370-5fa2c6bc6f27","system_id":"levelo_inurba_marseille","lat":43.29315,"lon":5.37179,"is_reserved":false,"is_disabled":false,"rental_uris":{"android":"levelo://app?vid=786d080f-11cd-4917-a370-5fa2c6bc6f27","ios":"levelo://app?vid=786d080f-11cd-4917-a370-5fa2c6bc6f27"},"vehicle_type_id":"4","last_reported":1771539593,"current_range_meters":18800,"station_id":"ce4bgh92rcd13ifvqb40","pricing_plan_id":"cebpf4jnsgd1na2vs0mg"},{"bike_id":"ce069f3a-d6cd-4f0d-9f6f-daf56540623c","system_id":"levelo_inurba_marseille","lat":43.29547,"lon":5.3852,"is_reserved":false,"is_disabled":false,"rental_uris":{"android":"levelo://app?vid=ce069f3a-d6cd-4f0d-9f6f-daf56540623c","ios":"levelo://app?vid=ce069f3a-d6cd-4f0d-9f6f-daf56540623c"},"vehicle_type_id":"4","last_reported":1771539593,"current_range_meters":32400,"station_id":"ce4bgih2rcd13ifvqba0","pricing_plan_id":"cebpf4jnsgd1na2vs0mg"},{"bike_id":"8e2b5240-82cf-4964-9103-cf14b2b8a8b6","system_id":"levelo_inurba_marseille","lat":43.30038,"lon":5.38352,"is_reserved":false,"is_disabled":false,"rental_uris":{"android":"levelo://app?vid=8e2b5240-82cf-4964-9103-cf14b2b8a8b6","ios":"levelo://app?vid=8e2b5240-82cf-4964-9103-cf14b2b8a8b6"},"vehicle_type_id":"4","last_reported":1771539593,"current_range_meters":26800,"station_id":"","pricing_plan_id":"cebpf4jnsgd1na2vs0mg"},{"bike_id":"35bdafb6-cd19-49e6-ab52-4a2ff16cdc2e","system_id":"levelo_inurba_marseille","lat":43.246845,"lon":5.38159,"is_reserved":false,"is_disabled":false,"rental_uris":{"android":"levelo://app?vid=35bdafb6-cd19-49e6-ab52-4a2ff16cdc2e","ios":"levelo://app?vid=35bdafb6-cd19-49e6-ab52-4a2ff16cdc2e"},"vehicle_type_id":"4","last_reported":1771539593,"current_range_meters":35200,"station_id":"ce4bhih2rcd13ifvqfr0","pricing_plan_id":"cebpf4jnsgd1na2vs0mg"},{"bike_id":"ec9791c3-47c7-4257-ae24-e153a5b0ed0f","system_id":"levelo_inurba_marseille","lat":43.2986,"lon":5.36275,"is_reserved":false,"is_disabled":false,"rental_uris":{"android":"levelo://app?vid=ec9791c3-47c7-4257-ae24-e153a5b0ed0f","ios":"levelo://app?vid=ec9791c3-47c7-4257-ae24-e153a5b0ed0f"},"vehicle_type_id":"4","last_reported":1771539593,"current_range_meters":34800,"station_id":"ce4bgpp2rcd13ifvqc3g","pricing_plan_id":"cebpf4jnsgd1na2vs0mg"},{"bike_id":"a7d629ae-69dd-4c6a-b799-c35407e67baa","system_id":"levelo_inurba_marseille","lat":43.31682,"lon":5.40488,"is_reserved":false,"is_disabled":false,"rental_uris":{"android":"levelo://app?vid=a7d629ae-69dd-4c6a-b799-c35407e67baa","ios":"levelo://app?vid=a7d629ae-69dd-4c6a-b799-c35407e67baa"},"vehicle_type_id":"4","last_reported":1771539593,"current_range_meters":36800,"station_id":"ce4bh012rcd13ifvqd00","pricing_plan_id":"cebpf4jnsgd1na2vs0mg"},{"bike_id":"a390b538-2807-40e2-95f9-4ed175e72a0b","system_id":"levelo_inurba_marseille","lat":43.24944,"lon":5.40499,"is_reserved":false,"is_disabled":false,"rental_uris":{"android":"levelo://app?vid=a390b538-2807-40e2-95f9-4ed175e72a0b","ios":"levelo://app?vid=a390b538-2807-40e2-95f9-4ed175e72a0b"},"vehicle_type_id":"4","last_reported":1771539593,"current_range_meters":20400,"station_id":"st_d2ngiaodas8pm72gd1h0","pricing_plan_id":"cebpf4jnsgd1na2vs0mg"},{"bike_id":"822a37e9-cc86-4db6-b810-29ef8016af0b","system_id":"levelo_inurba_marseille","lat":43.2981,"lon":5.44072,"is_reserved":false,"is_disabled":false,"rental_uris":{"android":"levelo://app?vid=822a37e9-cc86-4db6-b810-29ef8016af0b","ios":"levelo://app?vid=822a37e9-cc86-4db6-b810-29ef8016af0b"},"vehicle_type_id":"4","last_reported":1771539593,"current_range_meters":19200,"station_id":"st_d3jp68qikq2c7381ktn0","pricing_plan_id":"cebpf4jnsgd1na2vs0mg"},{"bike_id":"f9c0c279-ea1b-4575-ae73-5372f56cf43b","system_id":"levelo_inurba_marseille","lat":43.29868,"lon":5.36245,"is_reserved":false,"is_disabled":false,"rental_uris":{"android":"levelo://app?vid=f9c0c279-ea1b-4575-ae73-5372f56cf43b","ios":"levelo://app?vid=f9c0c279-ea1b-4575-ae73-5372f56cf43b"},"vehicle_type_id":"4","last_reported":1771539593,"current_range_meters":32800,"station_id":"ce4bgpp2rcd13ifvqc3g","pricing_plan_id":"cebpf4jnsgd1na2vs0mg"},{"bike_id":"03aee3db-9f4f-47df-b3ec-8d0bacddcdbc","system_id":"levelo_inurba_marseille","lat":43.27173,"lon":5.40999,"is_reserved":false,"is_disabled":false,"rental_uris":{"android":"levelo://app?vid=03aee3db-9f4f-47df-b3ec-8d0bacddcdbc","ios":"levelo://app?vid=03aee3db-9f4f-47df-b3ec-8d0bacddcdbc"},"vehicle_type_id":"4","last_reported":1771539593,"current_range_meters":32000,"station_id":"ce4bhl12rcd13ifvqgf0","pricing_plan_id":"cebpf4jnsgd1na2vs0mg"},{"bike_id":"55eb0aad-f6b5-4ef8-8c2b-ee220d251165","system_id":"levelo_inurba_marseille","lat":43.26939,"lon":5.40254,"is_reserved":false,"is_disabled":false,"rental_uris":{"android":"levelo://app?vid=55eb0aad-f6b5-4ef8-8c2b-ee220d251165","ios":"levelo://app?vid=55eb0aad-f6b5-4ef8-8c2b-ee220d251165"},"vehicle_type_id":"4","last_reported":1771539593,"current_range_meters":26800,"station_id":"cjm6bp8fraef2m0cb0m0","pricing_plan_id":"cebpf4jnsgd1na2vs0mg"},{"bike_id":"59aabee3-6211-4f8a-9630-29cde1e1b3d7","system_id":"levelo_inurba_marseille","lat":43.29541,"lon":5.37488,"is_reserved":false,"is_disabled":false,"rental_uris":{"android":"levelo://app?vid=59aabee3-6211-4f8a-9630-29cde1e1b3d7","ios":"levelo://app?vid=59aabee3-6211-4f8a-9630-29cde1e1b3d7"},"vehicle_type_id":"4","last_reported":1771539593,"current_range_meters":14400,"station_id":"ce4bgkp2rcd13ifvqbmg","pricing_plan_id":"cebpf4jnsgd1na2vs0mg"},{"bike_id":"89b3e01c-4867-4ddb-b4c3-f53bd946fe77","system_id":"levelo_inurba_marseille","lat":43.29217,"lon":5.36051,"is_reserved":false,"is_disabled":false,"rental_uris":{"android":"levelo://app?vid=89b3e01c-4867-4ddb-b4c3-f53bd946fe77","ios":"levelo://app?vid=89b3e01c-4867-4ddb-b4c3-f53bd946fe77"},"vehicle_type_id":"4","last_reported":1771539593,"current_range_meters":9200,"station_id":"ce4bhbh2rcd13ifvqeqg","pricing_plan_id":"cebpf4jnsgd1na2vs0mg"},{"bike_id":"012436c7-b0d2-44f6-9f1e-20d7a40c23a6","system_id":"levelo_inurba_marseille","lat":43.26222,"lon":5.40453,"is_reserved":false,"is_disabled":false,"rental_uris":{"android":"levelo://app?vid=012436c7-b0d2-44f6-9f1e-20d7a40c23a6","ios":"levelo://app?vid=012436c7-b0d2-44f6-9f1e-20d7a40c23a6"},"vehicle_type_id":"4","last_reported":1771539593,"current_range_meters":35200,"station_id":"ce4bhmh2rcd13ifvqgmg","pricing_plan_id":"cebpf4jnsgd1na2vs0mg"},{"bike_id":"ddb35e99-7580-4184-b1a3-39dee08fd05d","system_id":"levelo_inurba_marseille","lat":43.29572,"lon":5.43929,"is_reserved":false,"is_disabled":true,"rental_uris":{"android":"levelo://app?vid=ddb35e99-7580-4184-b1a3-39dee08fd05d","ios":"levelo://app?vid=ddb35e99-7580-4184-b1a3-39dee08fd05d"},"vehicle_type_id":"4","last_reported":1771539593,"current_range_meters":8800,"station_id":"","pricing_plan_id":"cebpf4jnsgd1na2vs0mg"},{"bike_id":"4d976bf5-f813-4b36-99cd-ae82b3487f1d","system_id":"levelo_inurba_marseille","lat":43.27996,"lon":5.41664,"is_reserved":false,"is_disabled":false,"rental_uris":{"android":"levelo://app?vid=4d976bf5-f813-4b36-99cd-ae82b3487f1d","ios":"levelo://app?vid=4d976bf5-f813-4b36-99cd-ae82b3487f1d"},"vehicle_type_id":"4","last_reported":1771539593,"current_range_meters":6000,"station_id":"ce4bho12rcd13ifvqh1g","pricing_plan_id":"cebpf4jnsgd1na2vs0mg"},{"bike_id":"cf4ac0e3-a880-402a-ba16-3c810e1ae3e2","system_id":"levelo_inurba_marseille","lat":43.29273,"lon":5.36843,"is_reserved":false,"is_disabled":false,"rental_uris":{"android":"levelo://app?vid=cf4ac0e3-a880-402a-ba16-3c810e1ae3e2","ios":"levelo://app?vid=cf4ac0e3-a880-402a-ba16-3c810e1ae3e2"},"vehicle_type_id":"4","last_reported":1771539593,"current_range_meters":12000,"station_id":"ce4bhbp2rcd13ifvqesg","pricing_plan_id":"cebpf4jnsgd1na2vs0mg"},{"bike_id":"ccbff816-1104-4bd0-99c6-f565cf383d9e","system_id":"levelo_inurba_marseille","lat":43.25479,"lon":5.37713,"is_reserved":false,"is_disabled":false,"rental_uris":{"android":"levelo://app?vid=ccbff816-1104-4bd0-99c6-f565cf383d9e","ios":"levelo://app?vid=ccbff816-1104-4bd0-99c6-f565cf383d9e"},"vehicle_type_id":"4","last_reported":1771539593,"current_range_meters":18000,"station_id":"ce4bhh12rcd13ifvqff0","pricing_plan_id":"cebpf4jnsgd1na2vs0mg"},{"bike_id":"5d7a4341-37d2-42fa-ad84-ca427f669a8e","system_id":"levelo_inurba_marseille","lat":43.28672,"lon":5.38651,"is_reserved":false,"is_disabled":false,"rental_uris":{"android":"levelo://app?vid=5d7a4341-37d2-42fa-ad84-ca427f669a8e","ios":"levelo://app?vid=5d7a4341-37d2-42fa-ad84-ca427f669a8e"},"vehicle_type_id":"4","last_reported":1771539593,"current_range_meters":32800,"station_id":"ce4bh492rcd13ifvqdug","pricing_plan_id":"cebpf4jnsgd1na2vs0mg"},{"bike_id":"2e25f457-5608-42bb-aeb4-790c9e40bcfb","system_id":"levelo_inurba_marseille","lat":43.3011,"lon":5.39065,"is_reserved":false,"is_disabled":false,"rental_uris":{"android":"levelo://app?vid=2e25f457-5608-42bb-aeb4-790c9e40bcfb","ios":"levelo://app?vid=2e25f457-5608-42bb-aeb4-790c9e40bcfb"},"vehicle_type_id":"4","last_reported":1771539593,"current_range_meters":14400,"station_id":"ce4bh192rcd13ifvqdb0","pricing_plan_id":"cebpf4jnsgd1na2vs0mg"},{"bike_id":"9e461da4-4323-4ec6-93d1-59e666bb895f","system_id":"levelo_inurba_marseille","lat":43.29969,"lon":5.37179,"is_reserved":false,"is_disabled":false,"rental_uris":{"android":"levelo://app?vid=9e461da4-4323-4ec6-93d1-59e666bb895f","ios":"levelo://app?vid=9e461da4-4323-4ec6-93d1-59e666bb895f"},"vehicle_type_id":"4","last_reported":1771539593,"current_range_meters":39200,"station_id":"ce4bgr92rcd13ifvqc7g","pricing_plan_id":"cebpf4jnsgd1na2vs0mg"},{"bike_id":"f3dabe3a-1263-4a4f-94b4-37ab08554040","system_id":"levelo_inurba_marseille","lat":43.27974,"lon":5.3875,"is_reserved":false,"is_disabled":false,"rental_uris":{"android":"levelo://app?vid=f3dabe3a-1263-4a4f-94b4-37ab08554040","ios":"levelo://app?vid=f3dabe3a-1263-4a4f-94b4-37ab08554040"},"vehicle_type_id":"4","last_reported":1771539593,"current_range_meters":32800,"station_id":"ce4bhg12rcd13ifvqf80","pricing_plan_id":"cebpf4jnsgd1na2vs0mg"},{"bike_id":"728b0c9d-1f10-4705-b6fc-a3f8c7e4d5aa","system_id":"levelo_inurba_marseille","lat":43.2998,"lon":5.37168,"is_reserved":false,"is_disabled":false,"rental_uris":{"android":"levelo://app?vid=728b0c9d-1f10-4705-b6fc-a3f8c7e4d5aa","ios":"levelo://app?vid=728b0c9d-1f10-4705-b6fc-a3f8c7e4d5aa"},"vehicle_type_id":"4","last_reported":1771539593,"current_range_meters":27600,"station_id":"ce4bgr92rcd13ifvqc7g","pricing_plan_id":"cebpf4jnsgd1na2vs0mg"},{"bike_id":"5d4597b2-2961-4f8b-8c73-25cd03047315","system_id":"levelo_inurba_marseille","lat":43.30282,"lon":5.377,"is_reserved":false,"is_disabled":false,"rental_uris":{"android":"levelo://app?vid=5d4597b2-2961-4f8b-8c73-25cd03047315","ios":"levelo://app?vid=5d4597b2-2961-4f8b-8c73-25cd03047315"},"vehicle_type_id":"4","last_reported":1771539593,"current_range_meters":34800,"station_id":"ce4bguh2rcd13ifvqcj0","pricing_plan_id":"cebpf4jnsgd1na2vs0mg"},{"bike_id":"ffc56a23-044d-4963-902d-0e1fcd559827","system_id":"levelo_inurba_marseille","lat":43.25489,"lon":5.37664,"is_reserved":false,"is_disabled":false,"rental_uris":{"android":"levelo://app?vid=ffc56a23-044d-4963-902d-0e1fcd559827","ios":"levelo://app?vid=ffc56a23-044d-4963-902d-0e1fcd559827"},"vehicle_type_id":"4","last_reported":1771539593,"current_range_meters":19600,"station_id":"ce4bhh12rcd13ifvqff0","pricing_plan_id":"cebpf4jnsgd1na2vs0mg"},{"bike_id":"718f4185-4e47-4177-9e77-08c6703daa55","system_id":"levelo_inurba_marseille","lat":43.30045,"lon":5.37429,"is_reserved":false,"is_disabled":false,"rental_uris":{"android":"levelo://app?vid=718f4185-4e47-4177-9e77-08c6703daa55","ios":"levelo://app?vid=718f4185-4e47-4177-9e77-08c6703daa55"},"vehicle_type_id":"4","last_reported":1771539593,"current_range_meters":33600,"station_id":"","pricing_plan_id":"cebpf4jnsgd1na2vs0mg"},{"bike_id":"759f0a09-9669-46dc-9822-7ecc825b93de","system_id":"levelo_inurba_marseille","lat":43.30544,"lon":5.36539,"is_reserved":false,"is_disabled":false,"rental_uris":{"android":"levelo://app?vid=759f0a09-9669-46dc-9822-7ecc825b93de","ios":"levelo://app?vid=759f0a09-9669-46dc-9822-7ecc825b93de"},"vehicle_type_id":"4","last_reported":1771539593,"current_range_meters":33200,"station_id":"ce4bgs12rcd13ifvqcag","pricing_plan_id":"cebpf4jnsgd1na2vs0mg"},{"bike_id":"32ffec6a-477b-42f8-9e4b-439374552554","system_id":"levelo_inurba_marseille","lat":43.29299,"lon":5.37458,"is_reserved":false,"is_disabled":false,"rental_uris":{"android":"levelo://app?vid=32ffec6a-477b-42f8-9e4b-439374552554","ios":"levelo://app?vid=32ffec6a-477b-42f8-9e4b-439374552554"},"vehicle_type_id":"4","last_reported":1771539593,"current_range_meters":32000,"station_id":"ce4bgi12rcd13ifvqb70","pricing_plan_id":"cebpf4jnsgd1na2vs0mg"},{"bike_id":"c1041c65-310c-4c2c-875e-b13cba60632a","system_id":"levelo_inurba_marseille","lat":43.28363,"lon":5.3863,"is_reserved":false,"is_disabled":false,"rental_uris":{"android":"levelo://app?vid=c1041c65-310c-4c2c-875e-b13cba60632a","ios":"levelo://app?vid=c1041c65-310c-4c2c-875e-b13cba60632a"},"vehicle_type_id":"4","last_reported":1771539593,"current_range_meters":20000,"station_id":"ce4bh492rcd13ifvqdvg","pricing_plan_id":"cebpf4jnsgd1na2vs0mg"},{"bike_id":"a203736d-c1b5-4b92-91cd-952b9b8898d7","system_id":"levelo_inurba_marseille","lat":43.29825,"lon":5.4408,"is_reserved":false,"is_disabled":false,"rental_uris":{"android":"levelo://app?vid=a203736d-c1b5-4b92-91cd-952b9b8898d7","ios":"levelo://app?vid=a203736d-c1b5-4b92-91cd-952b9b8898d7"},"vehicle_type_id":"4","last_reported":1771539593,"current_range_meters":38800,"station_id":"st_d3jp68qikq2c7381ktn0","pricing_plan_id":"cebpf4jnsgd1na2vs0mg"},{"bike_id":"84b0b670-200d-4214-99d4-bfcf30c671d6","system_id":"levelo_inurba_marseille","lat":43.27953,"lon":5.41036,"is_reserved":false,"is_disabled":false,"rental_uris":{"android":"levelo://app?vid=84b0b670-200d-4214-99d4-bfcf30c671d6","ios":"levelo://app?vid=84b0b670-200d-4214-99d4-bfcf30c671d6"},"vehicle_type_id":"4","last_reported":1771539593,"current_range_meters":16000,"station_id":"ce4bhnp2rcd13ifvqh0g","pricing_plan_id":"cebpf4jnsgd1na2vs0mg"},{"bike_id":"ab3d66d5-5daf-4382-8c65-1eb907410934","system_id":"levelo_inurba_marseille","lat":43.306756,"lon":5.421918,"is_reserved":false,"is_disabled":false,"rental_uris":{"android":"levelo://app?vid=ab3d66d5-5daf-4382-8c65-1eb907410934","ios":"levelo://app?vid=ab3d66d5-5daf-4382-8c65-1eb907410934"},"vehicle_type_id":"4","last_reported":1771539593,"current_range_meters":6800,"station_id":"st_cvj6ca6bvosntc0bfgr0","pricing_plan_id":"cebpf4jnsgd1na2vs0mg"},{"bike_id":"fb96fa14-8bcd-48be-9af9-e5241134992f","system_id":"levelo_inurba_marseille","lat":43.29605,"lon":5.38098,"is_reserved":false,"is_disabled":false,"rental_uris":{"android":"levelo://app?vid=fb96fa14-8bcd-48be-9af9-e5241134992f","ios":"levelo://app?vid=fb96fa14-8bcd-48be-9af9-e5241134992f"},"vehicle_type_id":"4","last_reported":1771539593,"current_range_meters":20000,"station_id":"ce4bgl12rcd13ifvqbo0","pricing_plan_id":"cebpf4jnsgd1na2vs0mg"},{"bike_id":"e3786c6a-109c-48ed-81ed-519284ac44c0","system_id":"levelo_inurba_marseille","lat":43.30315,"lon":5.36901,"is_reserved":false,"is_disabled":false,"rental_uris":{"android":"levelo://app?vid=e3786c6a-109c-48ed-81ed-519284ac44c0","ios":"levelo://app?vid=e3786c6a-109c-48ed-81ed-519284ac44c0"},"vehicle_type_id":"4","last_reported":1771539593,"current_range_meters":32400,"station_id":"ce4bgqh2rcd13ifvqc5g","pricing_plan_id":"cebpf4jnsgd1na2vs0mg"},{"bike_id":"1e338c1e-67a9-4b78-b10e-94880e41f594","system_id":"levelo_inurba_marseille","lat":43.28398,"lon":5.37525,"is_reserved":false,"is_disabled":false,"rental_uris":{"android":"levelo://app?vid=1e338c1e-67a9-4b78-b10e-94880e41f594","ios":"levelo://app?vid=1e338c1e-67a9-4b78-b10e-94880e41f594"},"vehicle_type_id":"4","last_reported":1771539593,"current_range_meters":22400,"station_id":"ce4bh412rcd13ifvqds0","pricing_plan_id":"cebpf4jnsgd1na2vs0mg"},{"bike_id":"1af9bab0-5f17-4159-a631-dbb93ea244d0","system_id":"levelo_inurba_marseille","lat":43.30178,"lon":5.36664,"is_reserved":false,"is_disabled":false,"rental_uris":{"android":"levelo://app?vid=1af9bab0-5f17-4159-a631-dbb93ea244d0","ios":"levelo://app?vid=1af9bab0-5f17-4159-a631-dbb93ea244d0"},"vehicle_type_id":"4","last_reported":1771539593,"current_range_meters":40000,"station_id":"ce4bgrh2rcd13ifvqc8g","pricing_plan_id":"cebpf4jnsgd1na2vs0mg"},{"bike_id":"dabf8c6c-7a23-4ab4-b49a-34403024e8a0","system_id":"levelo_inurba_marseille","lat":43.248,"lon":5.37463,"is_reserved":false,"is_disabled":false,"rental_uris":{"android":"levelo://app?vid=dabf8c6c-7a23-4ab4-b49a-34403024e8a0","ios":"levelo://app?vid=dabf8c6c-7a23-4ab4-b49a-34403024e8a0"},"vehicle_type_id":"4","last_reported":1771539593,"current_range_meters":28000,"station_id":"ce4bhgh2rcd13ifvqfb0","pricing_plan_id":"cebpf4jnsgd1na2vs0mg"},{"bike_id":"0ee44bc3-204b-4d93-a7f6-9ab9f6e7a72b","system_id":"levelo_inurba_marseille","lat":43.27595,"lon":5.38423,"is_reserved":false,"is_disabled":false,"rental_uris":{"android":"levelo://app?vid=0ee44bc3-204b-4d93-a7f6-9ab9f6e7a72b","ios":"levelo://app?vid=0ee44bc3-204b-4d93-a7f6-9ab9f6e7a72b"},"vehicle_type_id":"4","last_reported":1771539593,"current_range_meters":36400,"station_id":"ce4bhh92rcd13ifvqfi0","pricing_plan_id":"cebpf4jnsgd1na2vs0mg"},{"bike_id":"ff7c6076-03ef-481d-ba9a-a74982616a5f","system_id":"levelo_inurba_marseille","lat":43.28736,"lon":5.3792,"is_reserved":false,"is_disabled":false,"rental_uris":{"android":"levelo://app?vid=ff7c6076-03ef-481d-ba9a-a74982616a5f","ios":"levelo://app?vid=ff7c6076-03ef-481d-ba9a-a74982616a5f"},"vehicle_type_id":"4","last_reported":1771539593,"current_range_meters":40000,"station_id":"ce4bh9p2rcd13ifvqec0","pricing_plan_id":"cebpf4jnsgd1na2vs0mg"},{"bike_id":"26c9c5da-f607-4349-8de6-516f9c33ba1f","system_id":"levelo_inurba_marseille","lat":43.25492,"lon":5.37642,"is_reserved":false,"is_disabled":false,"rental_uris":{"android":"levelo://app?vid=26c9c5da-f607-4349-8de6-516f9c33ba1f","ios":"levelo://app?vid=26c9c5da-f607-4349-8de6-516f9c33ba1f"},"vehicle_type_id":"4","last_reported":1771539593,"current_range_meters":39200,"station_id":"ce4bhh12rcd13ifvqff0","pricing_plan_id":"cebpf4jnsgd1na2vs0mg"},{"bike_id":"6490eec2-c2e9-42ad-aca0-95d82ccfc451","system_id":"levelo_inurba_marseille","lat":43.29147,"lon":5.36067,"is_reserved":false,"is_disabled":false,"rental_uris":{"android":"levelo://app?vid=6490eec2-c2e9-42ad-aca0-95d82ccfc451","ios":"levelo://app?vid=6490eec2-c2e9-42ad-aca0-95d82ccfc451"},"vehicle_type_id":"4","last_reported":1771539593,"current_range_meters":7200,"station_id":"ce4bhbh2rcd13ifvqeqg","pricing_plan_id":"cebpf4jnsgd1na2vs0mg"},{"bike_id":"fac37d59-7173-486d-84e4-f215994ed327","system_id":"levelo_inurba_marseille","lat":43.262071,"lon":5.379227,"is_reserved":false,"is_disabled":false,"rental_uris":{"android":"levelo://app?vid=fac37d59-7173-486d-84e4-f215994ed327","ios":"levelo://app?vid=fac37d59-7173-486d-84e4-f215994ed327"},