{"last_updated":1753215216,"ttl":60,"version":"2.2","data":{"bikes":[{"bike_id":"496cac02-0e91-4f64-97b9-cb34cf0ab931","system_id":"levelo_inurba_marseille","lat":43.225006,"lon":5.347806,"is_reserved":false,"is_disabled":false,"rental_uris":{"android":"levelo://app?vid=496cac02-0e91-4f64-97b9-cb34cf0ab931","ios":"levelo://app?vid=496cac02-0e91-4f64-97b9-cb34cf0ab931"},"vehicle_type_id":"4","last_reported":1753215216,"current_range_meters":2800,"station_id":"","pricing_plan_id":"cebpf4jnsgd1na2vs0mg"},{"bike_id":"ad169315-4465-432e-bb7f-f81e79e081fd","system_id":"levelo_inurba_marseille","lat":43.250031,"lon":5.389288,"is_reserved":false,"is_disabled":false,"rental_uris":{"android":"levelo://app?vid=ad169315-4465-432e-bb7f-f81e79e081fd","ios":"levelo://app?vid=ad169315-4465-432e-bb7f-f81e79e081fd"},"vehicle_type_id":"4","last_reported":1753215216,"current_range_meters":2800,"station_id":"ce4bhgp2rcd13ifvqfd0","pricing_plan_id":"cebpf4jnsgd1na2vs0mg"},{"bike_id":"fad4a779-afbf-4c6a-8b23-cd386f8b9e09","system_id":"levelo_inurba_marseille","lat":43.28933,"lon":5.38388,"is_reserved":false,"is_disabled":false,"rental_uris":{"android":"levelo://app?vid=fad4a779-afbf-4c6a-8b23-cd386f8b9e09","ios":"levelo://app?vid=fad4a779-afbf-4c6a-8b23-cd386f8b9e09"},"vehicle_type_id":"4","last_reported":1753215216,"current_range_meters":2800,"station_id":"ce4bh612rcd13ifvqe6g","pricing_plan_id":"cebpf4jnsgd1na2vs0mg"},{"bike_id":"2570fccc-bc83-4857-aceb-da270b9d0cad","system_id":"levelo_inurba_marseille","lat":43.29505,"lon":5.38185,"is_reserved":false,"is_disabled":false,"rental_uris":{"android":"levelo://app?vid=2570fccc-bc83-4857-aceb-da270b9d0cad","ios":"levelo://app?vid=2570fccc-bc83-4857-aceb-da270b9d0cad"},"vehicle_type_id":"4","last_reported":1753215216,"current_range_meters":3200,"station_id":"","pricing_plan_id":"cebpf4jnsgd1na2vs0mg"},{"bike_id":"50216683-5015-40c9-b87f-1fcc0ed7cb90","system_id":"levelo_inurba_marseille","lat":43.30735,"lon":5.4245,"is_reserved":false,"is_disabled":false,"rental_uris":{"android":"levelo://app?vid=50216683-5015-40c9-b87f-1fcc0ed7cb90","ios":"levelo://app?vid=50216683-5015-40c9-b87f-1fcc0ed7cb90"},"vehicle_type_id":"4","last_reported":1753215216,"current_range_meters":3200,"station_id":"st_cvj6ca6bvosntc0bfgr0","pricing_plan_id":"cebpf4jnsgd1na2vs0mg"},{"bike_id":"0dbbf050-f782-45de-a8fb-06035d82c115","system_id":"levelo_inurba_marseille","lat":43.265592,"lon":5.390106,"is_reserved":false,"is_disabled":true,"rental_uris":{"android":"levelo://app?vid=0dbbf050-f782-45de-a8fb-06035d82c115","ios":"levelo://app?vid=0dbbf050-f782-45de-a8fb-06035d82c115"},"vehicle_type_id":"4","last_reported":1753215216,"current_range_meters":4400,"station_id":"ce4bhe12rcd13ifvqf30","pricing_plan_id":"cebpf4jnsgd1na2vs0mg"},{"bike_id":"dcabdc7e-3185-47ca-998c-bb23133e3cf7","system_id":"levelo_inurba_marseille","lat":43.27833,"lon":5.39208,"is_reserved":false,"is_disabled":false,"rental_uris":{"android":"levelo://app?vid=dcabdc7e-3185-47ca-998c-bb23133e3cf7","ios":"levelo://app?vid=dcabdc7e-3185-47ca-998c-bb23133e3cf7"},"vehicle_type_id":"4","last_reported":1753215216,"current_range_meters":4000,"station_id":"ce4bhjp2rcd13ifvqga0","pricing_plan_id":"cebpf4jnsgd1na2vs0mg"},{"bike_id":"920f3b97-2ebc-4ef1-b928-8efbfb4acfd5","system_id":"levelo_inurba_marseille","lat":43.29306,"lon":5.37163,"is_reserved":false,"is_disabled":false,"rental_uris":{"android":"levelo://app?vid=920f3b97-2ebc-4ef1-b928-8efbfb4acfd5","ios":"levelo://app?vid=920f3b97-2ebc-4ef1-b928-8efbfb4acfd5"},"vehicle_type_id":"4","last_reported":1753215216,"current_range_meters":4000,"station_id":"ce4bgh92rcd13ifvqb40","pricing_plan_id":"cebpf4jnsgd1na2vs0mg"},{"bike_id":"d31d1deb-2b98-484a-8572-001a36e223e1","system_id":"levelo_inurba_marseille","lat":43.2587,"lon":5.39894,"is_reserved":false,"is_disabled":false,"rental_uris":{"android":"levelo://app?vid=d31d1deb-2b98-484a-8572-001a36e223e1","ios":"levelo://app?vid=d31d1deb-2b98-484a-8572-001a36e223e1"},"vehicle_type_id":"4","last_reported":1753215216,"current_range_meters":4000,"station_id":"ce4bhl92rcd13ifvqghg","pricing_plan_id":"cebpf4jnsgd1na2vs0mg"},{"bike_id":"09759e77-dc1b-4bc9-aa94-510ee136346f","system_id":"levelo_inurba_marseille","lat":43.27561,"lon":5.38434,"is_reserved":false,"is_disabled":false,"rental_uris":{"android":"levelo://app?vid=09759e77-dc1b-4bc9-aa94-510ee136346f","ios":"levelo://app?vid=09759e77-dc1b-4bc9-aa94-510ee136346f"},"vehicle_type_id":"4","last_reported":1753215216,"current_range_meters":4000,"station_id":"ce4bhh92rcd13ifvqfi0","pricing_plan_id":"cebpf4jnsgd1na2vs0mg"},{"bike_id":"828efabf-9dd6-4e02-8898-49c4ceacad55","system_id":"levelo_inurba_marseille","lat":43.31115,"lon":5.37766,"is_reserved":false,"is_disabled":false,"rental_uris":{"android":"levelo://app?vid=828efabf-9dd6-4e02-8898-49c4ceacad55","ios":"levelo://app?vid=828efabf-9dd6-4e02-8898-49c4ceacad55"},"vehicle_type_id":"4","last_reported":1753215216,"current_range_meters":4400,"station_id":"ce4bgt92rcd13ifvqcg0","pricing_plan_id":"cebpf4jnsgd1na2vs0mg"},{"bike_id":"c76b279d-dc0c-4590-b54a-a86c34242337","system_id":"levelo_inurba_marseille","lat":43.25872,"lon":5.39889,"is_reserved":false,"is_disabled":false,"rental_uris":{"android":"levelo://app?vid=c76b279d-dc0c-4590-b54a-a86c34242337","ios":"levelo://app?vid=c76b279d-dc0c-4590-b54a-a86c34242337"},"vehicle_type_id":"4","last_reported":1753215216,"current_range_meters":4400,"station_id":"ce4bhl92rcd13ifvqghg","pricing_plan_id":"cebpf4jnsgd1na2vs0mg"},{"bike_id":"667ac414-cef7-4b17-8024-2403b284bfb0","system_id":"levelo_inurba_marseille","lat":43.2894,"lon":5.39625,"is_reserved":false,"is_disabled":false,"rental_uris":{"android":"levelo://app?vid=667ac414-cef7-4b17-8024-2403b284bfb0","ios":"levelo://app?vid=667ac414-cef7-4b17-8024-2403b284bfb0"},"vehicle_type_id":"4","last_reported":1753215216,"current_range_meters":4800,"station_id":"ce4bh3h2rcd13ifvqdn0","pricing_plan_id":"cebpf4jnsgd1na2vs0mg"},{"bike_id":"6a7a080f-d658-4be6-a93b-3fe9dbe91bc2","system_id":"levelo_inurba_marseille","lat":43.29418,"lon":5.39753,"is_reserved":false,"is_disabled":false,"rental_uris":{"android":"levelo://app?vid=6a7a080f-d658-4be6-a93b-3fe9dbe91bc2","ios":"levelo://app?vid=6a7a080f-d658-4be6-a93b-3fe9dbe91bc2"},"vehicle_type_id":"4","last_reported":1753215216,"current_range_meters":4800,"station_id":"ce4bh3h2rcd13ifvqdo0","pricing_plan_id":"cebpf4jnsgd1na2vs0mg"},{"bike_id":"85a5c837-2ce7-40d8-af0b-883362dd3119","system_id":"levelo_inurba_marseille","lat":43.27803,"lon":5.35505,"is_reserved":false,"is_disabled":false,"rental_uris":{"android":"levelo://app?vid=85a5c837-2ce7-40d8-af0b-883362dd3119","ios":"levelo://app?vid=85a5c837-2ce7-40d8-af0b-883362dd3119"},"vehicle_type_id":"4","last_reported":1753215216,"current_range_meters":5600,"station_id":"","pricing_plan_id":"cebpf4jnsgd1na2vs0mg"},{"bike_id":"4138c930-e447-433f-b2dd-91160a99be0f","system_id":"levelo_inurba_marseille","lat":43.29863,"lon":5.39742,"is_reserved":false,"is_disabled":false,"rental_uris":{"android":"levelo://app?vid=4138c930-e447-433f-b2dd-91160a99be0f","ios":"levelo://app?vid=4138c930-e447-433f-b2dd-91160a99be0f"},"vehicle_type_id":"4","last_reported":1753215216,"current_range_meters":5600,"station_id":"ce4bh0h2rcd13ifvqd50","pricing_plan_id":"cebpf4jnsgd1na2vs0mg"},{"bike_id":"97755933-1054-4689-adc6-ad94657391eb","system_id":"levelo_inurba_marseille","lat":43.27071,"lon":5.42279,"is_reserved":false,"is_disabled":false,"rental_uris":{"android":"levelo://app?vid=97755933-1054-4689-adc6-ad94657391eb","ios":"levelo://app?vid=97755933-1054-4689-adc6-ad94657391eb"},"vehicle_type_id":"4","last_reported":1753215216,"current_range_meters":5600,"station_id":"ce4bhk92rcd13ifvqgb0","pricing_plan_id":"cebpf4jnsgd1na2vs0mg"},{"bike_id":"f27c1589-c550-4d36-b8d0-85a9553b7e44","system_id":"levelo_inurba_marseille","lat":43.26193,"lon":5.3745,"is_reserved":false,"is_disabled":false,"rental_uris":{"android":"levelo://app?vid=f27c1589-c550-4d36-b8d0-85a9553b7e44","ios":"levelo://app?vid=f27c1589-c550-4d36-b8d0-85a9553b7e44"},"vehicle_type_id":"4","last_reported":1753215216,"current_range_meters":6000,"station_id":"ce4bhgp2rcd13ifvqfc0","pricing_plan_id":"cebpf4jnsgd1na2vs0mg"},{"bike_id":"468a2652-6d94-42b5-a1a6-d68158dce3a5","system_id":"levelo_inurba_marseille","lat":43.28404,"lon":5.37508,"is_reserved":false,"is_disabled":false,"rental_uris":{"android":"levelo://app?vid=468a2652-6d94-42b5-a1a6-d68158dce3a5","ios":"levelo://app?vid=468a2652-6d94-42b5-a1a6-d68158dce3a5"},"vehicle_type_id":"4","last_reported":1753215216,"current_range_meters":6000,"station_id":"ce4bh412rcd13ifvqds0","pricing_plan_id":"cebpf4jnsgd1na2vs0mg"},{"bike_id":"9020555f-710b-4931-87ac-bcfe04d633c8","system_id":"levelo_inurba_marseille","lat":43.30218,"lon":5.39479,"is_reserved":false,"is_disabled":false,"rental_uris":{"android":"levelo://app?vid=9020555f-710b-4931-87ac-bcfe04d633c8","ios":"levelo://app?vid=9020555f-710b-4931-87ac-bcfe04d633c8"},"vehicle_type_id":"4","last_reported":1753215216,"current_range_meters":6400,"station_id":"ce4bh0p2rcd13ifvqd70","pricing_plan_id":"cebpf4jnsgd1na2vs0mg"},{"bike_id":"a642de60-b36d-49cc-9f3d-68bea4476ea7","system_id":"levelo_inurba_marseille","lat":43.26028,"lon":5.37551,"is_reserved":false,"is_disabled":false,"rental_uris":{"android":"levelo://app?vid=a642de60-b36d-49cc-9f3d-68bea4476ea7","ios":"levelo://app?vid=a642de60-b36d-49cc-9f3d-68bea4476ea7"},"vehicle_type_id":"4","last_reported":1753215216,"current_range_meters":6000,"station_id":"ce4bhgh2rcd13ifvqfa0","pricing_plan_id":"cebpf4jnsgd1na2vs0mg"},{"bike_id":"4c0ef949-8c0e-4975-b735-99c23cda168f","system_id":"levelo_inurba_marseille","lat":43.25107,"lon":5.40317,"is_reserved":false,"is_disabled":false,"rental_uris":{"android":"levelo://app?vid=4c0ef949-8c0e-4975-b735-99c23cda168f","ios":"levelo://app?vid=4c0ef949-8c0e-4975-b735-99c23cda168f"},"vehicle_type_id":"4","last_reported":1753215216,"current_range_meters":6400,"station_id":"ce4bhlh2rcd13ifvqgig","pricing_plan_id":"cebpf4jnsgd1na2vs0mg"},{"bike_id":"5c390f51-8dfa-4c2c-aa80-8e953ec1252f","system_id":"levelo_inurba_marseille","lat":43.305946,"lon":5.393586,"is_reserved":false,"is_disabled":false,"rental_uris":{"android":"levelo://app?vid=5c390f51-8dfa-4c2c-aa80-8e953ec1252f","ios":"levelo://app?vid=5c390f51-8dfa-4c2c-aa80-8e953ec1252f"},"vehicle_type_id":"4","last_reported":1753215216,"current_range_meters":6400,"station_id":"ce4bh0p2rcd13ifvqd80","pricing_plan_id":"cebpf4jnsgd1na2vs0mg"},{"bike_id":"9ae7d50c-a3ea-4136-8080-315c191e000a","system_id":"levelo_inurba_marseille","lat":43.28744,"lon":5.38402,"is_reserved":false,"is_disabled":false,"rental_uris":{"android":"levelo://app?vid=9ae7d50c-a3ea-4136-8080-315c191e000a","ios":"levelo://app?vid=9ae7d50c-a3ea-4136-8080-315c191e000a"},"vehicle_type_id":"4","last_reported":1753215216,"current_range_meters":6800,"station_id":"","pricing_plan_id":"cebpf4jnsgd1na2vs0mg"},{"bike_id":"288e40f1-8fbf-4748-a95b-1be5b48bdbe8","system_id":"levelo_inurba_marseille","lat":43.28954,"lon":5.36617,"is_reserved":false,"is_disabled":true,"rental_uris":{"android":"levelo://app?vid=288e40f1-8fbf-4748-a95b-1be5b48bdbe8","ios":"levelo://app?vid=288e40f1-8fbf-4748-a95b-1be5b48bdbe8"},"vehicle_type_id":"4","last_reported":1753215216,"current_range_meters":6800,"station_id":"ce4bhap2rcd13ifvqek0","pricing_plan_id":"cebpf4jnsgd1na2vs0mg"},{"bike_id":"374764e9-1483-4c39-a939-2017d46b717a","system_id":"levelo_inurba_marseille","lat":43.28034,"lon":5.3504,"is_reserved":false,"is_disabled":false,"rental_uris":{"android":"levelo://app?vid=374764e9-1483-4c39-a939-2017d46b717a","ios":"levelo://app?vid=374764e9-1483-4c39-a939-2017d46b717a"},"vehicle_type_id":"4","last_reported":1753215216,"current_range_meters":6800,"station_id":"","pricing_plan_id":"cebpf4jnsgd1na2vs0mg"},{"bike_id":"20bab09b-981d-4511-83af-05d3395e11cb","system_id":"levelo_inurba_marseille","lat":43.288505,"lon":5.393138,"is_reserved":false,"is_disabled":true,"rental_uris":{"android":"levelo://app?vid=20bab09b-981d-4511-83af-05d3395e11cb","ios":"levelo://app?vid=20bab09b-981d-4511-83af-05d3395e11cb"},"vehicle_type_id":"4","last_reported":1753215216,"current_range_meters":6800,"station_id":"ce4bh2p2rcd13ifvqdi0","pricing_plan_id":"cebpf4jnsgd1na2vs0mg"},{"bike_id":"bd1bc371-62cd-4dfb-bc8b-bd3d2de79cdb","system_id":"levelo_inurba_marseille","lat":43.29264,"lon":5.38434,"is_reserved":false,"is_disabled":false,"rental_uris":{"android":"levelo://app?vid=bd1bc371-62cd-4dfb-bc8b-bd3d2de79cdb","ios":"levelo://app?vid=bd1bc371-62cd-4dfb-bc8b-bd3d2de79cdb"},"vehicle_type_id":"4","last_reported":1753215216,"current_range_meters":6800,"station_id":"ce4bh692rcd13ifvqea0","pricing_plan_id":"cebpf4jnsgd1na2vs0mg"},{"bike_id":"09715af2-1841-4b4c-8ac3-dafdd7ec196f","system_id":"levelo_inurba_marseille","lat":43.28357,"lon":5.38095,"is_reserved":false,"is_disabled":false,"rental_uris":{"android":"levelo://app?vid=09715af2-1841-4b4c-8ac3-dafdd7ec196f","ios":"levelo://app?vid=09715af2-1841-4b4c-8ac3-dafdd7ec196f"},"vehicle_type_id":"4","last_reported":1753215216,"current_range_meters":7200,"station_id":"ce4bh412rcd13ifvqdr0","pricing_plan_id":"cebpf4jnsgd1na2vs0mg"},{"bike_id":"70cf5b14-6d83-4f33-8ea0-8d5bf665eb22","system_id":"levelo_inurba_marseille","lat":43.305937,"lon":5.39352,"is_reserved":false,"is_disabled":false,"rental_uris":{"android":"levelo://app?vid=70cf5b14-6d83-4f33-8ea0-8d5bf665eb22","ios":"levelo://app?vid=70cf5b14-6d83-4f33-8ea0-8d5bf665eb22"},"vehicle_type_id":"4","last_reported":1753215216,"current_range_meters":7200,"station_id":"ce4bh0p2rcd13ifvqd80","pricing_plan_id":"cebpf4jnsgd1na2vs0mg"},{"bike_id":"b2f29b23-6c2a-4ab3-b7ab-c635278b8d64","system_id":"levelo_inurba_marseille","lat":43.254967,"lon":5.37648,"is_reserved":false,"is_disabled":false,"rental_uris":{"android":"levelo://app?vid=b2f29b23-6c2a-4ab3-b7ab-c635278b8d64","ios":"levelo://app?vid=b2f29b23-6c2a-4ab3-b7ab-c635278b8d64"},"vehicle_type_id":"4","last_reported":1753215216,"current_range_meters":7200,"station_id":"ce4bhh12rcd13ifvqff0","pricing_plan_id":"cebpf4jnsgd1na2vs0mg"},{"bike_id":"213f038e-3369-455f-a407-d1b8677748b8","system_id":"levelo_inurba_marseille","lat":43.30093,"lon":5.374132,"is_reserved":false,"is_disabled":false,"rental_uris":{"android":"levelo://app?vid=213f038e-3369-455f-a407-d1b8677748b8","ios":"levelo://app?vid=213f038e-3369-455f-a407-d1b8677748b8"},"vehicle_type_id":"4","last_reported":1753215216,"current_range_meters":7200,"station_id":"ce4bgv92rcd13ifvqcr0","pricing_plan_id":"cebpf4jnsgd1na2vs0mg"},{"bike_id":"42413a25-16d1-4419-b44a-45580e0c6ac6","system_id":"levelo_inurba_marseille","lat":43.3378,"lon":5.3747,"is_reserved":false,"is_disabled":false,"rental_uris":{"android":"levelo://app?vid=42413a25-16d1-4419-b44a-45580e0c6ac6","ios":"levelo://app?vid=42413a25-16d1-4419-b44a-45580e0c6ac6"},"vehicle_type_id":"4","last_reported":1753215216,"current_range_meters":8000,"station_id":"","pricing_plan_id":"cebpf4jnsgd1na2vs0mg"},{"bike_id":"3808bbbc-bf71-4de1-97ee-2481d526b56a","system_id":"levelo_inurba_marseille","lat":43.27072,"lon":5.42291,"is_reserved":false,"is_disabled":true,"rental_uris":{"android":"levelo://app?vid=3808bbbc-bf71-4de1-97ee-2481d526b56a","ios":"levelo://app?vid=3808bbbc-bf71-4de1-97ee-2481d526b56a"},"vehicle_type_id":"4","last_reported":1753215216,"current_range_meters":8000,"station_id":"ce4bhk92rcd13ifvqgb0","pricing_plan_id":"cebpf4jnsgd1na2vs0mg"},{"bike_id":"e3e221b5-f90c-4297-b5d3-bebf2b214f73","system_id":"levelo_inurba_marseille","lat":43.30429,"lon":5.3974,"is_reserved":false,"is_disabled":false,"rental_uris":{"android":"levelo://app?vid=e3e221b5-f90c-4297-b5d3-bebf2b214f73","ios":"levelo://app?vid=e3e221b5-f90c-4297-b5d3-bebf2b214f73"},"vehicle_type_id":"4","last_reported":1753215216,"current_range_meters":8000,"station_id":"ce4bh092rcd13ifvqd20","pricing_plan_id":"cebpf4jnsgd1na2vs0mg"},{"bike_id":"e39288b7-19a0-4539-9072-8e7682715a92","system_id":"levelo_inurba_marseille","lat":43.32477,"lon":5.36567,"is_reserved":false,"is_disabled":false,"rental_uris":{"android":"levelo://app?vid=e39288b7-19a0-4539-9072-8e7682715a92","ios":"levelo://app?vid=e39288b7-19a0-4539-9072-8e7682715a92"},"vehicle_type_id":"4","last_reported":1753215216,"current_range_meters":8000,"station_id":"ce4bhs12rcd13ifvqhvg","pricing_plan_id":"cebpf4jnsgd1na2vs0mg"},{"bike_id":"993bd012-047a-46ce-8d53-c934d256a05a","system_id":"levelo_inurba_marseille","lat":43.29282,"lon":5.4011,"is_reserved":false,"is_disabled":false,"rental_uris":{"android":"levelo://app?vid=993bd012-047a-46ce-8d53-c934d256a05a","ios":"levelo://app?vid=993bd012-047a-46ce-8d53-c934d256a05a"},"vehicle_type_id":"4","last_reported":1753215216,"current_range_meters":8000,"station_id":"ce4bh312rcd13ifvqdk0","pricing_plan_id":"cebpf4jnsgd1na2vs0mg"},{"bike_id":"ae8617c3-3528-48c8-b7d5-c3d256868d34","system_id":"levelo_inurba_marseille","lat":43.298796,"lon":5.384864,"is_reserved":false,"is_disabled":false,"rental_uris":{"android":"levelo://app?vid=ae8617c3-3528-48c8-b7d5-c3d256868d34","ios":"levelo://app?vid=ae8617c3-3528-48c8-b7d5-c3d256868d34"},"vehicle_type_id":"4","last_reported":1753215216,"current_range_meters":8000,"station_id":"ce4bgup2rcd13ifvqco0","pricing_plan_id":"cebpf4jnsgd1na2vs0mg"},{"bike_id":"83eaf031-bbfe-455c-9cdf-c53a24a79f27","system_id":"levelo_inurba_marseille","lat":43.27087,"lon":5.40209,"is_reserved":false,"is_disabled":false,"rental_uris":{"android":"levelo://app?vid=83eaf031-bbfe-455c-9cdf-c53a24a79f27","ios":"levelo://app?vid=83eaf031-bbfe-455c-9cdf-c53a24a79f27"},"vehicle_type_id":"4","last_reported":1753215216,"current_range_meters":8400,"station_id":"","pricing_plan_id":"cebpf4jnsgd1na2vs0mg"},{"bike_id":"f81d648c-1981-4daf-be99-4792234208b2","system_id":"levelo_inurba_marseille","lat":43.26264,"lon":5.37176,"is_reserved":false,"is_disabled":false,"rental_uris":{"android":"levelo://app?vid=f81d648c-1981-4daf-be99-4792234208b2","ios":"levelo://app?vid=f81d648c-1981-4daf-be99-4792234208b2"},"vehicle_type_id":"4","last_reported":1753215216,"current_range_meters":8400,"station_id":"","pricing_plan_id":"cebpf4jnsgd1na2vs0mg"},{"bike_id":"efda8583-2d93-44e3-8c9a-af98b469b6a6","system_id":"levelo_inurba_marseille","lat":43.29037,"lon":5.38097,"is_reserved":false,"is_disabled":false,"rental_uris":{"android":"levelo://app?vid=efda8583-2d93-44e3-8c9a-af98b469b6a6","ios":"levelo://app?vid=efda8583-2d93-44e3-8c9a-af98b469b6a6"},"vehicle_type_id":"4","last_reported":1753215216,"current_range_meters":8400,"station_id":"ce4bh4p2rcd13ifvqe1g","pricing_plan_id":"cebpf4jnsgd1na2vs0mg"},{"bike_id":"36c804c1-e116-432f-b883-355821b3c55d","system_id":"levelo_inurba_marseille","lat":43.29784,"lon":5.39344,"is_reserved":false,"is_disabled":false,"rental_uris":{"android":"levelo://app?vid=36c804c1-e116-432f-b883-355821b3c55d","ios":"levelo://app?vid=36c804c1-e116-432f-b883-355821b3c55d"},"vehicle_type_id":"4","last_reported":1753215216,"current_range_meters":8400,"station_id":"chh1huq6cuj3fo74tm60","pricing_plan_id":"cebpf4jnsgd1na2vs0mg"},{"bike_id":"68abe24e-e299-4358-9a15-8c060ba655f2","system_id":"levelo_inurba_marseille","lat":43.30212,"lon":5.39465,"is_reserved":false,"is_disabled":false,"rental_uris":{"android":"levelo://app?vid=68abe24e-e299-4358-9a15-8c060ba655f2","ios":"levelo://app?vid=68abe24e-e299-4358-9a15-8c060ba655f2"},"vehicle_type_id":"4","last_reported":1753215216,"current_range_meters":8400,"station_id":"ce4bh0p2rcd13ifvqd70","pricing_plan_id":"cebpf4jnsgd1na2vs0mg"},{"bike_id":"52765964-db74-40c6-9a54-b19a400e73f8","system_id":"levelo_inurba_marseille","lat":43.27068,"lon":5.42278,"is_reserved":false,"is_disabled":false,"rental_uris":{"android":"levelo://app?vid=52765964-db74-40c6-9a54-b19a400e73f8","ios":"levelo://app?vid=52765964-db74-40c6-9a54-b19a400e73f8"},"vehicle_type_id":"4","last_reported":1753215216,"current_range_meters":8800,"station_id":"ce4bhk92rcd13ifvqgb0","pricing_plan_id":"cebpf4jnsgd1na2vs0mg"},{"bike_id":"bc8e8184-a6af-4eda-9557-7e503f0c793c","system_id":"levelo_inurba_marseille","lat":43.24171,"lon":5.39701,"is_reserved":false,"is_disabled":true,"rental_uris":{"android":"levelo://app?vid=bc8e8184-a6af-4eda-9557-7e503f0c793c","ios":"levelo://app?vid=bc8e8184-a6af-4eda-9557-7e503f0c793c"},"vehicle_type_id":"4","last_reported":1753215216,"current_range_meters":8800,"station_id":"ce4bhn12rcd13ifvqgpg","pricing_plan_id":"cebpf4jnsgd1na2vs0mg"},{"bike_id":"e4761578-ae86-4dfa-b146-0428e5d8cca7","system_id":"levelo_inurba_marseille","lat":43.241718,"lon":5.364018,"is_reserved":false,"is_disabled":true,"rental_uris":{"android":"levelo://app?vid=e4761578-ae86-4dfa-b146-0428e5d8cca7","ios":"levelo://app?vid=e4761578-ae86-4dfa-b146-0428e5d8cca7"},"vehicle_type_id":"4","last_reported":1753215216,"current_range_meters":9200,"station_id":"cpo36qri1sfpv3e86is0","pricing_plan_id":"cebpf4jnsgd1na2vs0mg"},{"bike_id":"a3c91e3d-fc14-404a-9d55-d141affaa7cb","system_id":"levelo_inurba_marseille","lat":43.30883,"lon":5.39651,"is_reserved":false,"is_disabled":false,"rental_uris":{"android":"levelo://app?vid=a3c91e3d-fc14-404a-9d55-d141affaa7cb","ios":"levelo://app?vid=a3c91e3d-fc14-404a-9d55-d141affaa7cb"},"vehicle_type_id":"4","last_reported":1753215216,"current_range_meters":9200,"station_id":"ce4bh012rcd13ifvqcv0","pricing_plan_id":"cebpf4jnsgd1na2vs0mg"},{"bike_id":"8c1d0819-f991-43c1-a0ae-15c2c54fdbcd","system_id":"levelo_inurba_marseille","lat":43.2737,"lon":5.36255,"is_reserved":false,"is_disabled":true,"rental_uris":{"android":"levelo://app?vid=8c1d0819-f991-43c1-a0ae-15c2c54fdbcd","ios":"levelo://app?vid=8c1d0819-f991-43c1-a0ae-15c2c54fdbcd"},"vehicle_type_id":"4","last_reported":1753215216,"current_range_meters":9200,"station_id":"ce4bhbh2rcd13ifvqeo0","pricing_plan_id":"cebpf4jnsgd1na2vs0mg"},{"bike_id":"f1cc4863-18d9-4986-a458-7e95f6fd6178","system_id":"levelo_inurba_marseille","lat":43.30544,"lon":5.3653,"is_reserved":false,"is_disabled":false,"rental_uris":{"android":"levelo://app?vid=f1cc4863-18d9-4986-a458-7e95f6fd6178","ios":"levelo://app?vid=f1cc4863-18d9-4986-a458-7e95f6fd6178"},"vehicle_type_id":"4","last_reported":1753215216,"current_range_meters":9200,"station_id":"ce4bgs12rcd13ifvqcag","pricing_plan_id":"cebpf4jnsgd1na2vs0mg"},{"bike_id":"f3a3329f-eb96-4f6e-bf85-996081eb70f6","system_id":"levelo_inurba_marseille","lat":43.288536,"lon":5.393151,"is_reserved":false,"is_disabled":false,"rental_uris":{"android":"levelo://app?vid=f3a3329f-eb96-4f6e-bf85-996081eb70f6","ios":"levelo://app?vid=f3a3329f-eb96-4f6e-bf85-996081eb70f6"},"vehicle_type_id":"4","last_reported":1753215216,"current_range_meters":9200,"station_id":"ce4bh2p2rcd13ifvqdi0","pricing_plan_id":"cebpf4jnsgd1na2vs0mg"},{"bike_id":"b8db4d88-e6d3-4ebe-b644-11f431e21dc0","system_id":"levelo_inurba_marseille","lat":43.24181,"lon":5.39725,"is_reserved":false,"is_disabled":false,"rental_uris":{"android":"levelo://app?vid=b8db4d88-e6d3-4ebe-b644-11f431e21dc0","ios":"levelo://app?vid=b8db4d88-e6d3-4ebe-b644-11f431e21dc0"},"vehicle_type_id":"4","last_reported":1753215216,"current_range_meters":9200,"station_id":"ce4bhn12rcd13ifvqgpg","pricing_plan_id":"cebpf4jnsgd1na2vs0mg"},{"bike_id":"1329137a-3e39-4fa0-8dc6-3d3a499d89e3","system_id":"levelo_inurba_marseille","lat":43.29071,"lon":5.37168,"is_reserved":false,"is_disabled":false,"rental_uris":{"android":"levelo://app?vid=1329137a-3e39-4fa0-8dc6-3d3a499d89e3","ios":"levelo://app?vid=1329137a-3e39-4fa0-8dc6-3d3a499d89e3"},"vehicle_type_id":"4","last_reported":1753215216,"current_range_meters":9600,"station_id":"ce4bh5p2rcd13ifvqe4g","pricing_plan_id":"cebpf4jnsgd1na2vs0mg"},{"bike_id":"d7959729-6fb5-44ff-a09e-2236bce00ced","system_id":"levelo_inurba_marseille","lat":43.28077,"lon":5.39664,"is_reserved":false,"is_disabled":false,"rental_uris":{"android":"levelo://app?vid=d7959729-6fb5-44ff-a09e-2236bce00ced","ios":"levelo://app?vid=d7959729-6fb5-44ff-a09e-2236bce00ced"},"vehicle_type_id":"4","last_reported":1753215216,"current_range_meters":9600,"station_id":"ce4bho12rcd13ifvqh2g","pricing_plan_id":"cebpf4jnsgd1na2vs0mg"},{"bike_id":"46a0683c-5b6d-444d-a01d-17cfcaac67cd","system_id":"levelo_inurba_marseille","lat":43.24166,"lon":5.36386,"is_reserved":false,"is_disabled":false,"rental_uris":{"android":"levelo://app?vid=46a0683c-5b6d-444d-a01d-17cfcaac67cd","ios":"levelo://app?vid=46a0683c-5b6d-444d-a01d-17cfcaac67cd"},"vehicle_type_id":"4","last_reported":1753215216,"current_range_meters":9600,"station_id":"cpo36qri1sfpv3e86is0","pricing_plan_id":"cebpf4jnsgd1na2vs0mg"},{"bike_id":"74566338-da79-46b2-9e0a-87427f28c699","system_id":"levelo_inurba_marseille","lat":43.2988,"lon":5.38906,"is_reserved":false,"is_disabled":false,"rental_uris":{"android":"levelo://app?vid=74566338-da79-46b2-9e0a-87427f28c699","ios":"levelo://app?vid=74566338-da79-46b2-9e0a-87427f28c699"},"vehicle_type_id":"4","last_reported":1753215216,"current_range_meters":9600,"station_id":"ce4bh392rcd13ifvqdl0","pricing_plan_id":"cebpf4jnsgd1na2vs0mg"},{"bike_id":"f694e406-e107-448d-bab8-f88112b0c9a2","system_id":"levelo_inurba_marseille","lat":43.35048,"lon":5.35063,"is_reserved":false,"is_disabled":false,"rental_uris":{"android":"levelo://app?vid=f694e406-e107-448d-bab8-f88112b0c9a2","ios":"levelo://app?vid=f694e406-e107-448d-bab8-f88112b0c9a2"},"vehicle_type_id":"4","last_reported":1753215216,"current_range_meters":10000,"station_id":"","pricing_plan_id":"cebpf4jnsgd1na2vs0mg"},{"bike_id":"b3e19d7b-a98f-4fbf-9f64-5a4fc3374ee5","system_id":"levelo_inurba_marseille","lat":43.28573,"lon":5.38337,"is_reserved":false,"is_disabled":false,"rental_uris":{"android":"levelo://app?vid=b3e19d7b-a98f-4fbf-9f64-5a4fc3374ee5","ios":"levelo://app?vid=b3e19d7b-a98f-4fbf-9f64-5a4fc3374ee5"},"vehicle_type_id":"4","last_reported":1753215216,"current_range_meters":10800,"station_id":"","pricing_plan_id":"cebpf4jnsgd1na2vs0mg"},{"bike_id":"4b7e1140-f850-42d8-8abf-a703996a9176","system_id":"levelo_inurba_marseille","lat":43.30888,"lon":5.39657,"is_reserved":false,"is_disabled":false,"rental_uris":{"android":"levelo://app?vid=4b7e1140-f850-42d8-8abf-a703996a9176","ios":"levelo://app?vid=4b7e1140-f850-42d8-8abf-a703996a9176"},"vehicle_type_id":"4","last_reported":1753215216,"current_range_meters":10800,"station_id":"ce4bh012rcd13ifvqcv0","pricing_plan_id":"cebpf4jnsgd1na2vs0mg"},{"bike_id":"7a568569-b392-41ed-bc91-5aaf454dd52a","system_id":"levelo_inurba_marseille","lat":43.30746,"lon":5.42445,"is_reserved":false,"is_disabled":false,"rental_uris":{"android":"levelo://app?vid=7a568569-b392-41ed-bc91-5aaf454dd52a","ios":"levelo://app?vid=7a568569-b392-41ed-bc91-5aaf454dd52a"},"vehicle_type_id":"4","last_reported":1753215216,"current_range_meters":11200,"station_id":"st_cvj6ca6bvosntc0bfgr0","pricing_plan_id":"cebpf4jnsgd1na2vs0mg"},{"bike_id":"eea93a68-581d-47ae-ab85-496f844ffbff","system_id":"levelo_inurba_marseille","lat":43.21759,"lon":5.34601,"is_reserved":false,"is_disabled":false,"rental_uris":{"android":"levelo://app?vid=eea93a68-581d-47ae-ab85-496f844ffbff","ios":"levelo://app?vid=eea93a68-581d-47ae-ab85-496f844ffbff"},"vehicle_type_id":"4","last_reported":1753215216,"current_range_meters":11200,"station_id":"st_cvj6r9ubvosntc0bgbag","pricing_plan_id":"cebpf4jnsgd1na2vs0mg"},{"bike_id":"a11d093c-4602-402e-9085-6aff7f1a8370","system_id":"levelo_inurba_marseille","lat":43.2953,"lon":5.38556,"is_reserved":false,"is_disabled":true,"rental_uris":{"android":"levelo://app?vid=a11d093c-4602-402e-9085-6aff7f1a8370","ios":"levelo://app?vid=a11d093c-4602-402e-9085-6aff7f1a8370"},"vehicle_type_id":"4","last_reported":1753215216,"current_range_meters":11600,"station_id":"ce4bgih2rcd13ifvqba0","pricing_plan_id":"cebpf4jnsgd1na2vs0mg"},{"bike_id":"4e058d12-541f-4837-a62b-0e0602a8306c","system_id":"levelo_inurba_marseille","lat":43.24654,"lon":5.38893,"is_reserved":false,"is_disabled":false,"rental_uris":{"android":"levelo://app?vid=4e058d12-541f-4837-a62b-0e0602a8306c","ios":"levelo://app?vid=4e058d12-541f-4837-a62b-0e0602a8306c"},"vehicle_type_id":"4","last_reported":1753215216,"current_range_meters":11200,"station_id":"ce4bhg12rcd13ifvqf60","pricing_plan_id":"cebpf4jnsgd1na2vs0mg"},{"bike_id":"4dc0a81d-0a86-4457-9622-ae6809761b62","system_id":"levelo_inurba_marseille","lat":43.30426,"lon":5.39749,"is_reserved":false,"is_disabled":false,"rental_uris":{"android":"levelo://app?vid=4dc0a81d-0a86-4457-9622-ae6809761b62","ios":"levelo://app?vid=4dc0a81d-0a86-4457-9622-ae6809761b62"},"vehicle_type_id":"4","last_reported":1753215216,"current_range_meters":11200,"station_id":"ce4bh092rcd13ifvqd20","pricing_plan_id":"cebpf4jnsgd1na2vs0mg"},{"bike_id":"a5f1f0d6-c678-45f4-9b29-96eaa29a3e36","system_id":"levelo_inurba_marseille","lat":43.25138,"lon":5.37335,"is_reserved":false,"is_disabled":false,"rental_uris":{"android":"levelo://app?vid=a5f1f0d6-c678-45f4-9b29-96eaa29a3e36","ios":"levelo://app?vid=a5f1f0d6-c678-45f4-9b29-96eaa29a3e36"},"vehicle_type_id":"4","last_reported":1753215216,"current_range_meters":11200,"station_id":"","pricing_plan_id":"cebpf4jnsgd1na2vs0mg"},{"bike_id":"8683ce90-f074-4b78-8033-8d3c6f735b73","system_id":"levelo_inurba_marseille","lat":43.3234,"lon":5.36739,"is_reserved":false,"is_disabled":true,"rental_uris":{"android":"levelo://app?vid=8683ce90-f074-4b78-8033-8d3c6f735b73","ios":"levelo://app?vid=8683ce90-f074-4b78-8033-8d3c6f735b73"},"vehicle_type_id":"4","last_reported":1753215216,"current_range_meters":11600,"station_id":"ce4bhsh2rcd13ifvqi2g","pricing_plan_id":"cebpf4jnsgd1na2vs0mg"},{"bike_id":"365bc9b2-68bd-4764-ad7a-4ff9aa780715","system_id":"levelo_inurba_marseille","lat":43.29907,"lon":5.43687,"is_reserved":false,"is_disabled":false,"rental_uris":{"android":"levelo://app?vid=365bc9b2-68bd-4764-ad7a-4ff9aa780715","ios":"levelo://app?vid=365bc9b2-68bd-4764-ad7a-4ff9aa780715"},"vehicle_type_id":"4","last_reported":1753215216,"current_range_meters":11600,"station_id":"ce4bhpp2rcd13ifvqhfg","pricing_plan_id":"cebpf4jnsgd1na2vs0mg"},{"bike_id":"06410ab7-646b-4a92-8c67-9be9379422d4","system_id":"levelo_inurba_marseille","lat":43.33034,"lon":5.412847,"is_reserved":false,"is_disabled":false,"rental_uris":{"android":"levelo://app?vid=06410ab7-646b-4a92-8c67-9be9379422d4","ios":"levelo://app?vid=06410ab7-646b-4a92-8c67-9be9379422d4"},"vehicle_type_id":"4","last_reported":1753215216,"current_range_meters":11600,"station_id":"","pricing_plan_id":"cebpf4jnsgd1na2vs0mg"},{"bike_id":"556ebe47-8298-4d93-93a6-d2e6e5588882","system_id":"levelo_inurba_marseille","lat":43.30429,"lon":5.39754,"is_reserved":false,"is_disabled":false,"rental_uris":{"android":"levelo://app?vid=556ebe47-8298-4d93-93a6-d2e6e5588882","ios":"levelo://app?vid=556ebe47-8298-4d93-93a6-d2e6e5588882"},"vehicle_type_id":"4","last_reported":1753215216,"current_range_meters":11600,"station_id":"ce4bh092rcd13ifvqd20","pricing_plan_id":"cebpf4jnsgd1na2vs0mg"},{"bike_id":"faa32080-b901-4937-b1b8-7fdadb12c092","system_id":"levelo_inurba_marseille","lat":43.295348,"lon":5.385447,"is_reserved":false,"is_disabled":false,"rental_uris":{"android":"levelo://app?vid=faa32080-b901-4937-b1b8-7fdadb12c092","ios":"levelo://app?vid=faa32080-b901-4937-b1b8-7fdadb12c092"},"vehicle_type_id":"4","last_reported":1753215216,"current_range_meters":11600,"station_id":"ce4bgih2rcd13ifvqba0","pricing_plan_id":"cebpf4jnsgd1na2vs0mg"},{"bike_id":"d725914d-dade-4fde-9287-ec243d3883fc","system_id":"levelo_inurba_marseille","lat":43.30294,"lon":5.39218,"is_reserved":false,"is_disabled":false,"rental_uris":{"android":"levelo://app?vid=d725914d-dade-4fde-9287-ec243d3883fc","ios":"levelo://app?vid=d725914d-dade-4fde-9287-ec243d3883fc"},"vehicle_type_id":"4","last_reported":1753215216,"current_range_meters":11600,"station_id":"ce4bgkh2rcd13ifvqbk0","pricing_plan_id":"cebpf4jnsgd1na2vs0mg"},{"bike_id":"5c6c35d6-6bc2-4486-a739-cbd21dd97e09","system_id":"levelo_inurba_marseille","lat":43.29274,"lon":5.36843,"is_reserved":false,"is_disabled":false,"rental_uris":{"android":"levelo://app?vid=5c6c35d6-6bc2-4486-a739-cbd21dd97e09","ios":"levelo://app?vid=5c6c35d6-6bc2-4486-a739-cbd21dd97e09"},"vehicle_type_id":"4","last_reported":1753215216,"current_range_meters":11600,"station_id":"ce4bhbp2rcd13ifvqesg","pricing_plan_id":"cebpf4jnsgd1na2vs0mg"},{"bike_id":"85d3e27d-f61f-46fd-813d-3c35c5d54efd","system_id":"levelo_inurba_marseille","lat":43.27939,"lon":5.4104,"is_reserved":false,"is_disabled":false,"rental_uris":{"android":"levelo://app?vid=85d3e27d-f61f-46fd-813d-3c35c5d54efd","ios":"levelo://app?vid=85d3e27d-f61f-46fd-813d-3c35c5d54efd"},"vehicle_type_id":"4","last_reported":1753215216,"current_range_meters":11600,"station_id":"ce4bhnp2rcd13ifvqh0g","pricing_plan_id":"cebpf4jnsgd1na2vs0mg"},{"bike_id":"306af05b-d76d-4fc0-ad63-67c2d50e50a4","system_id":"levelo_inurba_marseille","lat":43.29895,"lon":5.43671,"is_reserved":false,"is_disabled":false,"rental_uris":{"android":"levelo://app?vid=306af05b-d76d-4fc0-ad63-67c2d50e50a4","ios":"levelo://app?vid=306af05b-d76d-4fc0-ad63-67c2d50e50a4"},"vehicle_type_id":"4","last_reported":1753215216,"current_range_meters":11600,"station_id":"ce4bhpp2rcd13ifvqhfg","pricing_plan_id":"cebpf4jnsgd1na2vs0mg"},{"bike_id":"7dbbb529-7a14-4c15-91b2-36294d397550","system_id":"levelo_inurba_marseille","lat":43.23206,"lon":5.35546,"is_reserved":false,"is_disabled":false,"rental_uris":{"android":"levelo://app?vid=7dbbb529-7a14-4c15-91b2-36294d397550","ios":"levelo://app?vid=7dbbb529-7a14-4c15-91b2-36294d397550"},"vehicle_type_id":"4","last_reported":1753215216,"current_range_meters":11600,"station_id":"ce4bhu92rcd13ifvqi70","pricing_plan_id":"cebpf4jnsgd1na2vs0mg"},{"bike_id":"4433bd94-c5b0-4a48-96c6-dd6c81bebbf0","system_id":"levelo_inurba_marseille","lat":43.32642,"lon":5.41032,"is_reserved":false,"is_disabled":false,"rental_uris":{"android":"levelo://app?vid=4433bd94-c5b0-4a48-96c6-dd6c81bebbf0","ios":"levelo://app?vid=4433bd94-c5b0-4a48-96c6-dd6c81bebbf0"},"vehicle_type_id":"4","last_reported":1753215216,"current_range_meters":11600,"station_id":"ce4bhpp2rcd13ifvqhgg","pricing_plan_id":"cebpf4jnsgd1na2vs0mg"},{"bike_id":"e8cc858e-1aee-461f-b8e8-902e1b83785b","system_id":"levelo_inurba_marseille","lat":43.25507,"lon":5.37654,"is_reserved":false,"is_disabled":false,"rental_uris":{"android":"levelo://app?vid=e8cc858e-1aee-461f-b8e8-902e1b83785b","ios":"levelo://app?vid=e8cc858e-1aee-461f-b8e8-902e1b83785b"},"vehicle_type_id":"4","last_reported":1753215216,"current_range_meters":12000,"station_id":"ce4bhh12rcd13ifvqff0","pricing_plan_id":"cebpf4jnsgd1na2vs0mg"},{"bike_id":"31512d5f-0dec-4a62-8079-5461fa609dc1","system_id":"levelo_inurba_marseille","lat":43.29289,"lon":5.40146,"is_reserved":false,"is_disabled":false,"rental_uris":{"android":"levelo://app?vid=31512d5f-0dec-4a62-8079-5461fa609dc1","ios":"levelo://app?vid=31512d5f-0dec-4a62-8079-5461fa609dc1"},"vehicle_type_id":"4","last_reported":1753215216,"current_range_meters":12000,"station_id":"ce4bh312rcd13ifvqdk0","pricing_plan_id":"cebpf4jnsgd1na2vs0mg"},{"bike_id":"0f4fbe6a-4962-47ec-9598-5fce1f20721e","system_id":"levelo_inurba_marseille","lat":43.24167,"lon":5.36385,"is_reserved":false,"is_disabled":false,"rental_uris":{"android":"levelo://app?vid=0f4fbe6a-4962-47ec-9598-5fce1f20721e","ios":"levelo://app?vid=0f4fbe6a-4962-47ec-9598-5fce1f20721e"},"vehicle_type_id":"4","last_reported":1753215216,"current_range_meters":12000,"station_id":"cpo36qri1sfpv3e86is0","pricing_plan_id":"cebpf4jnsgd1na2vs0mg"},{"bike_id":"82c8233f-aee5-442c-9e9a-7411a4a6a37b","system_id":"levelo_inurba_marseille","lat":43.30453,"lon":5.39804,"is_reserved":false,"is_disabled":false,"rental_uris":{"android":"levelo://app?vid=82c8233f-aee5-442c-9e9a-7411a4a6a37b","ios":"levelo://app?vid=82c8233f-aee5-442c-9e9a-7411a4a6a37b"},"vehicle_type_id":"4","last_reported":1753215216,"current_range_meters":12000,"station_id":"ce4bh092rcd13ifvqd20","pricing_plan_id":"cebpf4jnsgd1na2vs0mg"},{"bike_id":"e1bf140c-2230-44d3-b62e-1f590a00979e","system_id":"levelo_inurba_marseille","lat":43.3054,"lon":5.36541,"is_reserved":false,"is_disabled":false,"rental_uris":{"android":"levelo://app?vid=e1bf140c-2230-44d3-b62e-1f590a00979e","ios":"levelo://app?vid=e1bf140c-2230-44d3-b62e-1f590a00979e"},"vehicle_type_id":"4","last_reported":1753215216,"current_range_meters":12000,"station_id":"ce4bgs12rcd13ifvqcag","pricing_plan_id":"cebpf4jnsgd1na2vs0mg"},{"bike_id":"e7369532-7b5b-45e4-b887-8437f1f872b4","system_id":"levelo_inurba_marseille","lat":43.28934,"lon":5.38387,"is_reserved":false,"is_disabled":false,"rental_uris":{"android":"levelo://app?vid=e7369532-7b5b-45e4-b887-8437f1f872b4","ios":"levelo://app?vid=e7369532-7b5b-45e4-b887-8437f1f872b4"},"vehicle_type_id":"4","last_reported":1753215216,"current_range_meters":12000,"station_id":"ce4bh612rcd13ifvqe6g","pricing_plan_id":"cebpf4jnsgd1na2vs0mg"},{"bike_id":"52289c8f-2dc9-4c80-8d92-272e145c2039","system_id":"levelo_inurba_marseille","lat":43.21748,"lon":5.34609,"is_reserved":false,"is_disabled":false,"rental_uris":{"android":"levelo://app?vid=52289c8f-2dc9-4c80-8d92-272e145c2039","ios":"levelo://app?vid=52289c8f-2dc9-4c80-8d92-272e145c2039"},"vehicle_type_id":"4","last_reported":1753215216,"current_range_meters":12000,"station_id":"st_cvj6r9ubvosntc0bgbag","pricing_plan_id":"cebpf4jnsgd1na2vs0mg"},{"bike_id":"c05f8a9b-b11a-421b-bf54-758864ba593c","system_id":"levelo_inurba_marseille","lat":43.259339,"lon":5.409129,"is_reserved":false,"is_disabled":true,"rental_uris":{"android":"levelo://app?vid=c05f8a9b-b11a-421b-bf54-758864ba593c","ios":"levelo://app?vid=c05f8a9b-b11a-421b-bf54-758864ba593c"},"vehicle_type_id":"4","last_reported":1753215216,"current_range_meters":12000,"station_id":"ce4bhm92rcd13ifvqglg","pricing_plan_id":"cebpf4jnsgd1na2vs0mg"},{"bike_id":"47b8aae7-f1c0-4dfa-bc2e-f1264bdba72b","system_id":"levelo_inurba_marseille","lat":43.31292,"lon":5.390127,"is_reserved":false,"is_disabled":false,"rental_uris":{"android":"levelo://app?vid=47b8aae7-f1c0-4dfa-bc2e-f1264bdba72b","ios":"levelo://app?vid=47b8aae7-f1c0-4dfa-bc2e-f1264bdba72b"},"vehicle_type_id":"4","last_reported":1753215216,"current_range_meters":12000,"station_id":"","pricing_plan_id":"cebpf4jnsgd1na2vs0mg"},{"bike_id":"1a28eacd-d2c2-40ad-acea-38ff342b2427","system_id":"levelo_inurba_marseille","lat":43.29595,"lon":5.38109,"is_reserved":false,"is_disabled":false,"rental_uris":{"android":"levelo://app?vid=1a28eacd-d2c2-40ad-acea-38ff342b2427","ios":"levelo://app?vid=1a28eacd-d2c2-40ad-acea-38ff342b2427"},"vehicle_type_id":"4","last_reported":1753215216,"current_range_meters":12000,"station_id":"ce4bgl12rcd13ifvqbo0","pricing_plan_id":"cebpf4jnsgd1na2vs0mg"},{"bike_id":"7be012ec-5173-47e7-ba3c-eebf114a92cb","system_id":"levelo_inurba_marseille","lat":43.29196,"lon":5.35768,"is_reserved":false,"is_disabled":false,"rental_uris":{"android":"levelo://app?vid=7be012ec-5173-47e7-ba3c-eebf114a92cb","ios":"levelo://app?vid=7be012ec-5173-47e7-ba3c-eebf114a92cb"},"vehicle_type_id":"4","last_reported":1753215216,"current_range_meters":12400,"station_id":"ce4bhb12rcd13ifvqel0","pricing_plan_id":"cebpf4jnsgd1na2vs0mg"},{"bike_id":"1c9ede40-2dd2-4e45-aa1e-9a326f5967a7","system_id":"levelo_inurba_marseille","lat":43.29513,"lon":5.39427,"is_reserved":false,"is_disabled":false,"rental_uris":{"android":"levelo://app?vid=1c9ede40-2dd2-4e45-aa1e-9a326f5967a7","ios":"levelo://app?vid=1c9ede40-2dd2-4e45-aa1e-9a326f5967a7"},"vehicle_type_id":"4","last_reported":1753215216,"current_range_meters":12400,"station_id":"ce4bh292rcd13ifvqdf0","pricing_plan_id":"cebpf4jnsgd1na2vs0mg"},{"bike_id":"274edca9-b562-4cb0-8e1a-0bddf66bc358","system_id":"levelo_inurba_marseille","lat":43.29192,"lon":5.39329,"is_reserved":false,"is_disabled":false,"rental_uris":{"android":"levelo://app?vid=274edca9-b562-4cb0-8e1a-0bddf66bc358","ios":"levelo://app?vid=274edca9-b562-4cb0-8e1a-0bddf66bc358"},"vehicle_type_id":"4","last_reported":1753215216,"current_range_meters":12400,"station_id":"ce4bh192rcd13ifvqdd0","pricing_plan_id":"cebpf4jnsgd1na2vs0mg"},{"bike_id":"36569050-bd8e-4d40-bd96-3184a6ceafb9","system_id":"levelo_inurba_marseille","lat":43.29528,"lon":5.39036,"is_reserved":false,"is_disabled":false,"rental_uris":{"android":"levelo://app?vid=36569050-bd8e-4d40-bd96-3184a6ceafb9","ios":"levelo://app?vid=36569050-bd8e-4d40-bd96-3184a6ceafb9"},"vehicle_type_id":"4","last_reported":1753215216,"current_range_meters":12400,"station_id":"ce4bh3p2rcd13ifvqdp0","pricing_plan_id":"cebpf4jnsgd1na2vs0mg"},{"bike_id":"b9c57429-d7eb-428d-ae5d-38268c36157e","system_id":"levelo_inurba_marseille","lat":43.31132,"lon":5.37797,"is_reserved":false,"is_disabled":false,"rental_uris":{"android":"levelo://app?vid=b9c57429-d7eb-428d-ae5d-38268c36157e","ios":"levelo://app?vid=b9c57429-d7eb-428d-ae5d-38268c36157e"},"vehicle_type_id":"4","last_reported":1753215216,"current_range_meters":12800,"station_id":"ce4bgt92rcd13ifvqcg0","pricing_plan_id":"cebpf4jnsgd1na2vs0mg"},{"bike_id":"62feaa7e-dc1c-473f-b7db-e4da62424471","system_id":"levelo_inurba_marseille","lat":43.26552,"lon":5.37288,"is_reserved":false,"is_disabled":false,"rental_uris":{"android":"levelo://app?vid=62feaa7e-dc1c-473f-b7db-e4da62424471","ios":"levelo://app?vid=62feaa7e-dc1c-473f-b7db-e4da62424471"},"vehicle_type_id":"4","last_reported":1753215216,"current_range_meters":12800,"station_id":"ce4bhg12rcd13ifvqf70","pricing_plan_id":"cebpf4jnsgd1na2vs0mg"},{"bike_id":"89e5300e-f524-48d1-8669-762241baab60","system_id":"levelo_inurba_marseille","lat":43.22943,"lon":5.35406,"is_reserved":false,"is_disabled":false,"rental_uris":{"android":"levelo://app?vid=89e5300e-f524-48d1-8669-762241baab60","ios":"levelo://app?vid=89e5300e-f524-48d1-8669-762241baab60"},"vehicle_type_id":"4","last_reported":1753215216,"current_range_meters":12800,"station_id":"cpo3532slgdg3j2ikp40","pricing_plan_id":"cebpf4jnsgd1na2vs0mg"},{"bike_id":"4a35db4e-5a3f-4d45-b760-465bfb68f087","system_id":"levelo_inurba_marseille","lat":43.292627,"lon":5.368473,"is_reserved":false,"is_disabled":false,"rental_uris":{"android":"levelo://app?vid=4a35db4e-5a3f-4d45-b760-465bfb68f087","ios":"levelo://app?vid=4a35db4e-5a3f-4d45-b760-465bfb68f087"},"vehicle_type_id":"4","last_reported":1753215216,"current_range_meters":12800,"station_id":"ce4bhbp2rcd13ifvqesg","pricing_plan_id":"cebpf4jnsgd1na2vs0mg"},{"bike_id":"f15138f2-2812-43a6-a7cc-045a7f98b124","system_id":"levelo_inurba_marseille","lat":43.275669,"lon":5.384283,"is_reserved":false,"is_disabled":false,"rental_uris":{"android":"levelo://app?vid=f15138f2-2812-43a6-a7cc-045a7f98b124","ios":"levelo://app?vid=f15138f2-2812-43a6-a7cc-045a7f98b124"},"vehicle_type_id":"4","last_reported":1753215216,"current_range_meters":12800,"station_id":"ce4bhh92rcd13ifvqfi0","pricing_plan_id":"cebpf4jnsgd1na2vs0mg"},{"bike_id":"fa44074e-2672-4b1d-a24c-66aabc098535","system_id":"levelo_inurba_marseille","lat":43.2978,"lon":5.37102,"is_reserved":false,"is_disabled":false,"rental_uris":{"android":"levelo://app?vid=fa44074e-2672-4b1d-a24c-66aabc098535","ios":"levelo://app?vid=fa44074e-2672-4b1d-a24c-66aabc098535"},"vehicle_type_id":"4","last_reported":1753215216,"current_range_meters":12800,"station_id":"ce4bgop2rcd13ifvqc1g","pricing_plan_id":"cebpf4jnsgd1na2vs0mg"},{"bike_id":"0c7a70d1-5257-4f92-81ea-3fbf563949dc","system_id":"levelo_inurba_marseille","lat":43.29262,"lon":5.38434,"is_reserved":false,"is_disabled":false,"rental_uris":{"android":"levelo://app?vid=0c7a70d1-5257-4f92-81ea-3fbf563949dc","ios":"levelo://app?vid=0c7a70d1-5257-4f92-81ea-3fbf563949dc"},"vehicle_type_id":"4","last_reported":1753215216,"current_range_meters":12800,"station_id":"ce4bh692rcd13ifvqea0","pricing_plan_id":"cebpf4jnsgd1na2vs0mg"},{"bike_id":"381ddd28-e794-4c4b-a82f-6b4d06849fe8","system_id":"levelo_inurba_marseille","lat":43.28484,"lon":5.38572,"is_reserved":false,"is_disabled":false,"rental_uris":{"android":"levelo://app?vid=381ddd28-e794-4c4b-a82f-6b4d06849fe8","ios":"levelo://app?vid=381ddd28-e794-4c4b-a82f-6b4d06849fe8"},"vehicle_type_id":"4","last_reported":1753215216,"current_range_meters":12800,"station_id":"ce4bh8p2rcd13ifvqeb0","pricing_plan_id":"cebpf4jnsgd1na2vs0mg"},{"bike_id":"71533976-e8de-423d-9790-4951ea389533","system_id":"levelo_inurba_marseille","lat":43.33606,"lon":5.41034,"is_reserved":false,"is_disabled":false,"rental_uris":{"android":"levelo://app?vid=71533976-e8de-423d-9790-4951ea389533","ios":"levelo://app?vid=71533976-e8de-423d-9790-4951ea389533"},"vehicle_type_id":"4","last_reported":1753215216,"current_range_meters":12800,"station_id":"ce4bhqh2rcd13ifvqhmg","pricing_plan_id":"cebpf4jnsgd1na2vs0mg"},{"bike_id":"05d42747-d0a7-485b-804a-c208d042127e","system_id":"levelo_inurba_marseille","lat":43.241712,"lon":5.363961,"is_reserved":false,"is_disabled":false,"rental_uris":{"android":"levelo://app?vid=05d42747-d0a7-485b-804a-c208d042127e","ios":"levelo://app?vid=05d42747-d0a7-485b-804a-c208d042127e"},"vehicle_type_id":"4","last_reported":1753215216,"current_range_meters":12800,"station_id":"cpo36qri1sfpv3e86is0","pricing_plan_id":"cebpf4jnsgd1na2vs0mg"},{"bike_id":"f0c1c567-3404-405c-9e98-69849925e354","system_id":"levelo_inurba_marseille","lat":43.24424,"lon":5.37107,"is_reserved":false,"is_disabled":false,"rental_uris":{"android":"levelo://app?vid=f0c1c567-3404-405c-9e98-69849925e354","ios":"levelo://app?vid=f0c1c567-3404-405c-9e98-69849925e354"},"vehicle_type_id":"4","last_reported":1753215216,"current_range_meters":13600,"station_id":"ce4bhhh2rcd13ifvqfk0","pricing_plan_id":"cebpf4jnsgd1na2vs0mg"},{"bike_id":"f80ee3da-f2fe-4907-8e65-d6e2b6183eca","system_id":"levelo_inurba_marseille","lat":43.273773,"lon":5.362615,"is_reserved":false,"is_disabled":false,"rental_uris":{"android":"levelo://app?vid=f80ee3da-f2fe-4907-8e65-d6e2b6183eca","ios":"levelo://app?vid=f80ee3da-f2fe-4907-8e65-d6e2b6183eca"},"vehicle_type_id":"4","last_reported":1753215216,"current_range_meters":13600,"station_id":"ce4bhbh2rcd13ifvqeo0","pricing_plan_id":"cebpf4jnsgd1na2vs0mg"},{"bike_id":"f9c41163-5ecd-4c1a-8ac0-2a6141a12633","system_id":"levelo_inurba_marseille","lat":43.31078,"lon":5.38352,"is_reserved":false,"is_disabled":false,"rental_uris":{"android":"levelo://app?vid=f9c41163-5ecd-4c1a-8ac0-2a6141a12633","ios":"levelo://app?vid=f9c41163-5ecd-4c1a-8ac0-2a6141a12633"},"vehicle_type_id":"4","last_reported":1753215216,"current_range_meters":13600,"station_id":"ce4bgv92rcd13ifvqcr0","pricing_plan_id":"cebpf4jnsgd1na2vs0mg"},{"bike_id":"f7d24d79-fb73-44fe-a579-eccbe39a5e1e","system_id":"levelo_inurba_marseille","lat":43.2418,"lon":5.36386,"is_reserved":false,"is_disabled":false,"rental_uris":{"android":"levelo://app?vid=f7d24d79-fb73-44fe-a579-eccbe39a5e1e","ios":"levelo://app?vid=f7d24d79-fb73-44fe-a579-eccbe39a5e1e"},"vehicle_type_id":"4","last_reported":1753215216,"current_range_meters":13600,"station_id":"cpo36qri1sfpv3e86is0","pricing_plan_id":"cebpf4jnsgd1na2vs0mg"},{"bike_id":"f801204e-2d2a-46f8-9cf7-d6672aabba69","system_id":"levelo_inurba_marseille","lat":43.28929,"lon":5.36624,"is_reserved":false,"is_disabled":false,"rental_uris":{"android":"levelo://app?vid=f801204e-2d2a-46f8-9cf7-d6672aabba69","ios":"levelo://app?vid=f801204e-2d2a-46f8-9cf7-d6672aabba69"},"vehicle_type_id":"4","last_reported":1753215216,"current_range_meters":13600,"station_id":"ce4bhap2rcd13ifvqek0","pricing_plan_id":"cebpf4jnsgd1na2vs0mg"},{"bike_id":"1d73df30-a550-4a18-a14a-094531912053","system_id":"levelo_inurba_marseille","lat":43.291125,"lon":5.383047,"is_reserved":false,"is_disabled":false,"rental_uris":{"android":"levelo://app?vid=1d73df30-a550-4a18-a14a-094531912053","ios":"levelo://app?vid=1d73df30-a550-4a18-a14a-094531912053"},"vehicle_type_id":"4","last_reported":1753215216,"current_range_meters":13600,"station_id":"","pricing_plan_id":"cebpf4jnsgd1na2vs0mg"},{"bike_id":"931edad7-6ae8-4962-8a92-49bca051cc1a","system_id":"levelo_inurba_marseille","lat":43.3059,"lon":5.372361,"is_reserved":false,"is_disabled":false,"rental_uris":{"android":"levelo://app?vid=931edad7-6ae8-4962-8a92-49bca051cc1a","ios":"levelo://app?vid=931edad7-6ae8-4962-8a92-49bca051cc1a"},"vehicle_type_id":"4","last_reported":1753215216,"current_range_meters":13600,"station_id":"ce4bgqh2rcd13ifvqc4g","pricing_plan_id":"cebpf4jnsgd1na2vs0mg"},{"bike_id":"d3ed952d-bc25-48dd-b193-241fd0c32bd6","system_id":"levelo_inurba_marseille","lat":43.29351,"lon":5.38528,"is_reserved":false,"is_disabled":false,"rental_uris":{"android":"levelo://app?vid=d3ed952d-bc25-48dd-b193-241fd0c32bd6","ios":"levelo://app?vid=d3ed952d-bc25-48dd-b193-241fd0c32bd6"},"vehicle_type_id":"4","last_reported":1753215216,"current_range_meters":13600,"station_id":"","pricing_plan_id":"cebpf4jnsgd1na2vs0mg"},{"bike_id":"15352c78-db4a-4152-b0db-bb22864a1c03","system_id":"levelo_inurba_marseille","lat":43.26197,"lon":5.37932,"is_reserved":false,"is_disabled":false,"rental_uris":{"android":"levelo://app?vid=15352c78-db4a-4152-b0db-bb22864a1c03","ios":"levelo://app?vid=15352c78-db4a-4152-b0db-bb22864a1c03"},"vehicle_type_id":"4","last_reported":1753215216,"current_range_meters":12800,"station_id":"ce4bhjp2rcd13ifvqg90","pricing_plan_id":"cebpf4jnsgd1na2vs0mg"},{"bike_id":"95b323ab-4b42-435a-862c-42c98a1009e4","system_id":"levelo_inurba_marseille","lat":43.31116,"lon":5.37755,"is_reserved":false,"is_disabled":false,"rental_uris":{"android":"levelo://app?vid=95b323ab-4b42-435a-862c-42c98a1009e4","ios":"levelo://app?vid=95b323ab-4b42-435a-862c-42c98a1009e4"},"vehicle_type_id":"4","last_reported":1753215216,"current_range_meters":13600,"station_id":"ce4bgt92rcd13ifvqcg0","pricing_plan_id":"cebpf4jnsgd1na2vs0mg"},{"bike_id":"aa5097b6-6968-4aec-b711-e7780938924b","system_id":"levelo_inurba_marseille","lat":43.32944,"lon":5.35909,"is_reserved":false,"is_disabled":false,"rental_uris":{"android":"levelo://app?vid=aa5097b6-6968-4aec-b711-e7780938924b","ios":"levelo://app?vid=aa5097b6-6968-4aec-b711-e7780938924b"},"vehicle_type_id":"4","last_reported":1753215216,"current_range_meters":13600,"station_id":"","pricing_plan_id":"cebpf4jnsgd1na2vs0mg"},{"bike_id":"5bf793ea-3d31-4bc4-bdd4-7bc8f39606ba","system_id":"levelo_inurba_marseille","lat":43.292825,"lon":5.368478,"is_reserved":false,"is_disabled":false,"rental_uris":{"android":"levelo://app?vid=5bf793ea-3d31-4bc4-bdd4-7bc8f39606ba","ios":"levelo://app?vid=5bf793ea-3d31-4bc4-bdd4-7bc8f39606ba"},"vehicle_type_id":"4","last_reported":1753215216,"current_range_meters":14000,"station_id":"ce4bhbp2rcd13ifvqesg","pricing_plan_id":"cebpf4jnsgd1na2vs0mg"},{"bike_id":"f4b5a7aa-82cb-452a-a9be-ffb671a1c4e3","system_id":"levelo_inurba_marseille","lat":43.29261,"lon":5.40906,"is_reserved":false,"is_disabled":false,"rental_uris":{"android":"levelo://app?vid=f4b5a7aa-82cb-452a-a9be-ffb671a1c4e3","ios":"levelo://app?vid=f4b5a7aa-82cb-452a-a9be-ffb671a1c4e3"},"vehicle_type_id":"4","last_reported":1753215216,"current_range_meters":14000,"station_id":"ce4bh192rcd13ifvqdc0","pricing_plan_id":"cebpf4jnsgd1na2vs0mg"},{"bike_id":"12d1c272-588d-4ddc-8a27-4af9e97e4b5a","system_id":"levelo_inurba_marseille","lat":43.30526,"lon":5.36702,"is_reserved":false,"is_disabled":false,"rental_uris":{"android":"levelo://app?vid=12d1c272-588d-4ddc-8a27-4af9e97e4b5a","ios":"levelo://app?vid=12d1c272-588d-4ddc-8a27-4af9e97e4b5a"},"vehicle_type_id":"4","last_reported":1753215216,"current_range_meters":14000,"station_id":"ce4bgrp2rcd13ifvqc9g","pricing_plan_id":"cebpf4jnsgd1na2vs0mg"},{"bike_id":"63f1f4f6-257b-49ee-b1cc-877b8c49b659","system_id":"levelo_inurba_marseille","lat":43.30208,"lon":5.39463,"is_reserved":false,"is_disabled":false,"rental_uris":{"android":"levelo://app?vid=63f1f4f6-257b-49ee-b1cc-877b8c49b659","ios":"levelo://app?vid=63f1f4f6-257b-49ee-b1cc-877b8c49b659"},"vehicle_type_id":"4","last_reported":1753215216,"current_range_meters":14000,"station_id":"ce4bh0p2rcd13ifvqd70","pricing_plan_id":"cebpf4jnsgd1na2vs0mg"},{"bike_id":"ff2e471b-0da3-47af-bd18-814d2ed7bf29","system_id":"levelo_inurba_marseille","lat":43.2756,"lon":5.38411,"is_reserved":false,"is_disabled":false,"rental_uris":{"android":"levelo://app?vid=ff2e471b-0da3-47af-bd18-814d2ed7bf29","ios":"levelo://app?vid=ff2e471b-0da3-47af-bd18-814d2ed7bf29"},"vehicle_type_id":"4","last_reported":1753215216,"current_range_meters":14000,"station_id":"ce4bhh92rcd13ifvqfi0","pricing_plan_id":"cebpf4jnsgd1na2vs0mg"},{"bike_id":"c9dbd36b-479c-4a5c-b200-3aa7673340d9","system_id":"levelo_inurba_marseille","lat":43.241448,"lon":5.363743,"is_reserved":false,"is_disabled":false,"rental_uris":{"android":"levelo://app?vid=c9dbd36b-479c-4a5c-b200-3aa7673340d9","ios":"levelo://app?vid=c9dbd36b-479c-4a5c-b200-3aa7673340d9"},"vehicle_type_id":"4","last_reported":1753215216,"current_range_meters":14000,"station_id":"","pricing_plan_id":"cebpf4jnsgd1na2vs0mg"},{"bike_id":"b8157e49-d09e-4d5e-90fd-5d667c09b9a5","system_id":"levelo_inurba_marseille","lat":43.29058,"lon":5.3717,"is_reserved":false,"is_disabled":true,"rental_uris":{"android":"levelo://app?vid=b8157e49-d09e-4d5e-90fd-5d667c09b9a5","ios":"levelo://app?vid=b8157e49-d09e-4d5e-90fd-5d667c09b9a5"},"vehicle_type_id":"4","last_reported":1753215216,"current_range_meters":14000,"station_id":"ce4bgh92rcd13ifvqb40","pricing_plan_id":"cebpf4jnsgd1na2vs0mg"},{"bike_id":"85b65ca0-7365-40fb-8905-5a0638bc8593","system_id":"levelo_inurba_marseille","lat":43.229262,"lon":5.353739,"is_reserved":false,"is_disabled":false,"rental_uris":{"android":"levelo://app?vid=85b65ca0-7365-40fb-8905-5a0638bc8593","ios":"levelo://app?vid=85b65ca0-7365-40fb-8905-5a0638bc8593"},"vehicle_type_id":"4","last_reported":1753215216,"current_range_meters":14000,"station_id":"cpo3532slgdg3j2ikp40","pricing_plan_id":"cebpf4jnsgd1na2vs0mg"},{"bike_id":"1814aead-c7f1-4b20-8570-698d90166305","system_id":"levelo_inurba_marseille","lat":43.2582,"lon":5.39438,"is_reserved":false,"is_disabled":true,"rental_uris":{"android":"levelo://app?vid=1814aead-c7f1-4b20-8570-698d90166305","ios":"levelo://app?vid=1814aead-c7f1-4b20-8570-698d90166305"},"vehicle_type_id":"4","last_reported":1753215216,"current_range_meters":14000,"station_id":"ce4bhih2rcd13ifvqfr0","pricing_plan_id":"cebpf4jnsgd1na2vs0mg"},{"bike_id":"3c21b9e1-b296-4844-a6d5-b8d19c7f36c9","system_id":"levelo_inurba_marseille","lat":43.29185,"lon":5.38418,"is_reserved":false,"is_disabled":false,"rental_uris":{"android":"levelo://app?vid=3c21b9e1-b296-4844-a6d5-b8d19c7f36c9","ios":"levelo://app?vid=3c21b9e1-b296-4844-a6d5-b8d19c7f36c9"},"vehicle_type_id":"4","last_reported":1753215216,"current_range_meters":14000,"station_id":"","pricing_plan_id":"cebpf4jnsgd1na2vs0mg"},{"bike_id":"14ccb160-29ff-436c-b37f-91da99a35cc9","system_id":"levelo_inurba_marseille","lat":43.31082,"lon":5.38351,"is_reserved":false,"is_disabled":false,"rental_uris":{"android":"levelo://app?vid=14ccb160-29ff-436c-b37f-91da99a35cc9","ios":"levelo://app?vid=14ccb160-29ff-436c-b37f-91da99a35cc9"},"vehicle_type_id":"4","last_reported":1753215216,"current_range_meters":14000,"station_id":"ce4bgv92rcd13ifvqcr0","pricing_plan_id":"cebpf4jnsgd1na2vs0mg"},{"bike_id":"fdc30c44-819b-440d-9095-7ac1b5eabb16","system_id":"levelo_inurba_marseille","lat":43.35903,"lon":5.41457,"is_reserved":false,"is_disabled":false,"rental_uris":{"android":"levelo://app?vid=fdc30c44-819b-440d-9095-7ac1b5eabb16","ios":"levelo://app?vid=fdc30c44-819b-440d-9095-7ac1b5eabb16"},"vehicle_type_id":"4","last_reported":1753215216,"current_range_meters":14000,"station_id":"","pricing_plan_id":"cebpf4jnsgd1na2vs0mg"},{"bike_id":"dfb70569-575b-4627-ace4-b72c9d7227f9","system_id":"levelo_inurba_marseille","lat":43.24053,"lon":5.37735,"is_reserved":false,"is_disabled":false,"rental_uris":{"android":"levelo://app?vid=dfb70569-575b-4627-ace4-b72c9d7227f9","ios":"levelo://app?vid=dfb70569-575b-4627-ace4-b72c9d7227f9"},"vehicle_type_id":"4","last_reported":1753215216,"current_range_meters":14400,"station_id":"ce4bhnp2rcd13ifvqgvg","pricing_plan_id":"cebpf4jnsgd1na2vs0mg"},{"bike_id":"d26281fd-2a07-44cf-ae5e-1ca4c1f8938d","system_id":"levelo_inurba_marseille","lat":43.24811,"lon":5.37461,"is_reserved":false,"is_disabled":false,"rental_uris":{"android":"levelo://app?vid=d26281fd-2a07-44cf-ae5e-1ca4c1f8938d","ios":"levelo://app?vid=d26281fd-2a07-44cf-ae5e-1ca4c1f8938d"},"vehicle_type_id":"4","last_reported":1753215216,"current_range_meters":14400,"station_id":"ce4bhgh2rcd13ifvqfb0","pricing_plan_id":"cebpf4jnsgd1na2vs0mg"},{"bike_id":"356040ad-1162-4af2-a60b-9e46effaf81e","system_id":"levelo_inurba_marseille","lat":43.29529,"lon":5.394,"is_reserved":false,"is_disabled":false,"rental_uris":{"android":"levelo://app?vid=356040ad-1162-4af2-a60b-9e46effaf81e","ios":"levelo://app?vid=356040ad-1162-4af2-a60b-9e46effaf81e"},"vehicle_type_id":"4","last_reported":1753215216,"current_range_meters":14400,"station_id":"ce4bh292rcd13ifvqdf0","pricing_plan_id":"cebpf4jnsgd1na2vs0mg"},{"bike_id":"2354a578-b732-43f4-ac7f-14badb5b4c61","system_id":"levelo_inurba_marseille","lat":43.22496,"lon":5.34778,"is_reserved":false,"is_disabled":false,"rental_uris":{"android":"levelo://app?vid=2354a578-b732-43f4-ac7f-14badb5b4c61","ios":"levelo://app?vid=2354a578-b732-43f4-ac7f-14badb5b4c61"},"vehicle_type_id":"4","last_reported":1753215216,"current_range_meters":14400,"station_id":"st_cvj5dfep6f1abm77gieg","pricing_plan_id":"cebpf4jnsgd1na2vs0mg"},{"bike_id":"c3635d42-3dcb-4a2a-a0ff-c4a84df72959","system_id":"levelo_inurba_marseille","lat":43.23146,"lon":5.43708,"is_reserved":false,"is_disabled":false,"rental_uris":{"android":"levelo://app?vid=c3635d42-3dcb-4a2a-a0ff-c4a84df72959","ios":"levelo://app?vid=c3635d42-3dcb-4a2a-a0ff-c4a84df72959"},"vehicle_type_id":"4","last_reported":1753215216,"current_range_meters":14400,"station_id":"ce4bhmp2rcd13ifvqgog","pricing_plan_id":"cebpf4jnsgd1na2vs0mg"},{"bike_id":"ae656939-3fcc-45d6-8bd7-56d0b99d5384","system_id":"levelo_inurba_marseille","lat":43.289396,"lon":5.363958,"is_reserved":false,"is_disabled":false,"rental_uris":{"android":"levelo://app?vid=ae656939-3fcc-45d6-8bd7-56d0b99d5384","ios":"levelo://app?vid=ae656939-3fcc-45d6-8bd7-56d0b99d5384"},"vehicle_type_id":"4","last_reported":1753215216,"current_range_meters":14400,"station_id":"ce4bhc92rcd13ifvqetg","pricing_plan_id":"cebpf4jnsgd1na2vs0mg"},{"bike_id":"02828cd4-f8da-4439-bea7-4f2018ee316d","system_id":"levelo_inurba_marseille","lat":43.25108,"lon":5.40323,"is_reserved":false,"is_disabled":false,"rental_uris":{"android":"levelo://app?vid=02828cd4-f8da-4439-bea7-4f2018ee316d","ios":"levelo://app?vid=02828cd4-f8da-4439-bea7-4f2018ee316d"},"vehicle_type_id":"4","last_reported":1753215216,"current_range_meters":14400,"station_id":"ce4bhlh2rcd13ifvqgig","pricing_plan_id":"cebpf4jnsgd1na2vs0mg"},{"bike_id":"71fbfc47-6b0e-4633-8e6f-85478a03ed20","system_id":"levelo_inurba_marseille","lat":43.297178,"lon":5.366203,"is_reserved":false,"is_disabled":false,"rental_uris":{"android":"levelo://app?vid=71fbfc47-6b0e-4633-8e6f-85478a03ed20","ios":"levelo://app?vid=71fbfc47-6b0e-4633-8e6f-85478a03ed20"},"vehicle_type_id":"4","last_reported":1753215216,"current_range_meters":14400,"station_id":"ce4bgn12rcd13ifvqbt0","pricing_plan_id":"cebpf4jnsgd1na2vs0mg"},{"bike_id":"72576955-e119-40d4-89ab-e52fbaca2af9","system_id":"levelo_inurba_marseille","lat":43.26392,"lon":5.40812,"is_reserved":false,"is_disabled":false,"rental_uris":{"android":"levelo://app?vid=72576955-e119-40d4-89ab-e52fbaca2af9","ios":"levelo://app?vid=72576955-e119-40d4-89ab-e52fbaca2af9"},"vehicle_type_id":"4","last_reported":1753215216,"current_range_meters":14400,"station_id":"","pricing_plan_id":"cebpf4jnsgd1na2vs0mg"},{"bike_id":"c774f4c2-bc5f-4cf6-9563-a432097878f3","system_id":"levelo_inurba_marseille","lat":43.29182,"lon":5.35808,"is_reserved":false,"is_disabled":false,"rental_uris":{"android":"levelo://app?vid=c774f4c2-bc5f-4cf6-9563-a432097878f3","ios":"levelo://app?vid=c774f4c2-bc5f-4cf6-9563-a432097878f3"},"vehicle_type_id":"4","last_reported":1753215216,"current_range_meters":14400,"station_id":"ce4bhb12rcd13ifvqel0","pricing_plan_id":"cebpf4jnsgd1na2vs0mg"},{"bike_id":"a3913e26-087b-4315-8521-f6bd5350bbfa","system_id":"levelo_inurba_marseille","lat":43.29897,"lon":5.43669,"is_reserved":false,"is_disabled":false,"rental_uris":{"android":"levelo://app?vid=a3913e26-087b-4315-8521-f6bd5350bbfa","ios":"levelo://app?vid=a3913e26-087b-4315-8521-f6bd5350bbfa"},"vehicle_type_id":"4","last_reported":1753215216,"current_range_meters":14400,"station_id":"ce4bhpp2rcd13ifvqhfg","pricing_plan_id":"cebpf4jnsgd1na2vs0mg"},{"bike_id":"46d25803-1408-43fd-9cc3-c806c932a269","system_id":"levelo_inurba_marseille","lat":43.32487,"lon":5.36552,"is_reserved":false,"is_disabled":false,"rental_uris":{"android":"levelo://app?vid=46d25803-1408-43fd-9cc3-c806c932a269","ios":"levelo://app?vid=46d25803-1408-43fd-9cc3-c806c932a269"},"vehicle_type_id":"4","last_reported":1753215216,"current_range_meters":14800,"station_id":"ce4bhs12rcd13ifvqhvg","pricing_plan_id":"cebpf4jnsgd1na2vs0mg"},{"bike_id":"52925771-8e68-459d-8576-9a91463a9224","system_id":"levelo_inurba_marseille","lat":43.2842,"lon":5.34984,"is_reserved":false,"is_disabled":false,"rental_uris":{"android":"levelo://app?vid=52925771-8e68-459d-8576-9a91463a9224","ios":"levelo://app?vid=52925771-8e68-459d-8576-9a91463a9224"},"vehicle_type_id":"4","last_reported":1753215216,"current_range_meters":14800,"station_id":"ce4bhbh2rcd13ifvqepg","pricing_plan_id":"cebpf4jnsgd1na2vs0mg"},{"bike_id":"fa14a5c9-752b-4ec9-8e2c-a22d9a7d5bc7","system_id":"levelo_inurba_marseille","lat":43.30282,"lon":5.39213,"is_reserved":false,"is_disabled":false,"rental_uris":{"android":"levelo://app?vid=fa14a5c9-752b-4ec9-8e2c-a22d9a7d5bc7","ios":"levelo://app?vid=fa14a5c9-752b-4ec9-8e2c-a22d9a7d5bc7"},"vehicle_type_id":"4","last_reported":1753215216,"current_range_meters":14800,"station_id":"ce4bgkh2rcd13ifvqbk0","pricing_plan_id":"cebpf4jnsgd1na2vs0mg"},{"bike_id":"f10ab636-1a7a-4f7f-acb8-5b94c72839fe","system_id":"levelo_inurba_marseille","lat":43.31533,"lon":5.3803,"is_reserved":false,"is_disabled":false,"rental_uris":{"android":"levelo://app?vid=f10ab636-1a7a-4f7f-acb8-5b94c72839fe","ios":"levelo://app?vid=f10ab636-1a7a-4f7f-acb8-5b94c72839fe"},"vehicle_type_id":"4","last_reported":1753215216,"current_range_meters":14800,"station_id":"ce4bhsp2rcd13ifvqi50","pricing_plan_id":"cebpf4jnsgd1na2vs0mg"},{"bike_id":"fcc7ddd8-a621-4eb1-acd0-bd7eb68e7449","system_id":"levelo_inurba_marseille","lat":43.28915,"lon":5.38395,"is_reserved":false,"is_disabled":false,"rental_uris":{"android":"levelo://app?vid=fcc7ddd8-a621-4eb1-acd0-bd7eb68e7449","ios":"levelo://app?vid=fcc7ddd8-a621-4eb1-acd0-bd7eb68e7449"},"vehicle_type_id":"4","last_reported":1753215216,"current_range_meters":14800,"station_id":"ce4bh612rcd13ifvqe6g","pricing_plan_id":"cebpf4jnsgd1na2vs0mg"},{"bike_id":"535ecc09-6590-40fa-a131-69903ee7e903","system_id":"levelo_inurba_marseille","lat":43.29791,"lon":5.3935,"is_reserved":false,"is_disabled":false,"rental_uris":{"android":"levelo://app?vid=535ecc09-6590-40fa-a131-69903ee7e903","ios":"levelo://app?vid=535ecc09-6590-40fa-a131-69903ee7e903"},"vehicle_type_id":"4","last_reported":1753215216,"current_range_meters":14800,"station_id":"chh1huq6cuj3fo74tm60","pricing_plan_id":"cebpf4jnsgd1na2vs0mg"},{"bike_id":"62b18e78-0150-42ec-b90a-28816a8a7879","system_id":"levelo_inurba_marseille","lat":43.29256,"lon":5.37621,"is_reserved":false,"is_disabled":false,"rental_uris":{"android":"levelo://app?vid=62b18e78-0150-42ec-b90a-28816a8a7879","ios":"levelo://app?vid=62b18e78-0150-42ec-b90a-28816a8a7879"},"vehicle_type_id":"4","last_reported":1753215216,"current_range_meters":14800,"station_id":"ce4bgi12rcd13ifvqb80","pricing_plan_id":"cebpf4jnsgd1na2vs0mg"},{"bike_id":"fe50cf1d-fc61-4e48-98f2-ea42037cc2b3","system_id":"levelo_inurba_marseille","lat":43.22917,"lon":5.35375,"is_reserved":false,"is_disabled":false,"rental_uris":{"android":"levelo://app?vid=fe50cf1d-fc61-4e48-98f2-ea42037cc2b3","ios":"levelo://app?vid=fe50cf1d-fc61-4e48-98f2-ea42037cc2b3"},"vehicle_type_id":"4","last_reported":1753215216,"current_range_meters":15200,"station_id":"cpo3532slgdg3j2ikp40","pricing_plan_id":"cebpf4jnsgd1na2vs0mg"},{"bike_id":"1e6792f6-e23b-4a70-9f0d-cfc180638578","system_id":"levelo_inurba_marseille","lat":43.27413,"lon":5.39416,"is_reserved":false,"is_disabled":false,"rental_uris":{"android":"levelo://app?vid=1e6792f6-e23b-4a70-9f0d-cfc180638578","ios":"levelo://app?vid=1e6792f6-e23b-4a70-9f0d-cfc180638578"},"vehicle_type_id":"4","last_reported":1753215216,"current_range_meters":14800,"station_id":"ce4bhgp2rcd13ifvqfe0","pricing_plan_id":"cebpf4jnsgd1na2vs0mg"},{"bike_id":"e44893bb-5cdf-4921-b4e8-39ee578180a1","system_id":"levelo_inurba_marseille","lat":43.24081,"lon":5.37757,"is_reserved":false,"is_disabled":false,"rental_uris":{"android":"levelo://app?vid=e44893bb-5cdf-4921-b4e8-39ee578180a1","ios":"levelo://app?vid=e44893bb-5cdf-4921-b4e8-39ee578180a1"},"vehicle_type_id":"4","last_reported":1753215216,"current_range_meters":14800,"station_id":"ce4bhnp2rcd13ifvqgvg","pricing_plan_id":"cebpf4jnsgd1na2vs0mg"},{"bike_id":"44a45772-723a-4648-a74e-08f333288fdd","system_id":"levelo_inurba_marseille","lat":43.25825,"lon":5.39447,"is_reserved":false,"is_disabled":false,"rental_uris":{"android":"levelo://app?vid=44a45772-723a-4648-a74e-08f333288fdd","ios":"levelo://app?vid=44a45772-723a-4648-a74e-08f333288fdd"},"vehicle_type_id":"4","last_reported":1753215216,"current_range_meters":14800,"station_id":"ce4bhip2rcd13ifvqft0","pricing_plan_id":"cebpf4jnsgd1na2vs0mg"},{"bike_id":"38e96e7e-55fc-4af3-816d-df4df8629610","system_id":"levelo_inurba_marseille","lat":43.29013,"lon":5.38599,"is_reserved":false,"is_disabled":false,"rental_uris":{"android":"levelo://app?vid=38e96e7e-55fc-4af3-816d-df4df8629610","ios":"levelo://app?vid=38e96e7e-55fc-4af3-816d-df4df8629610"},"vehicle_type_id":"4","last_reported":1753215216,"current_range_meters":15200,"station_id":"ce4bh4p2rcd13ifvqe0g","pricing_plan_id":"cebpf4jnsgd1na2vs0mg"},{"bike_id":"ddee8931-81fd-4275-b13b-a486f6b9cf68","system_id":"levelo_inurba_marseille","lat":43.28411,"lon":5.34981,"is_reserved":false,"is_disabled":false,"rental_uris":{"android":"levelo://app?vid=ddee8931-81fd-4275-b13b-a486f6b9cf68","ios":"levelo://app?vid=ddee8931-81fd-4275-b13b-a486f6b9cf68"},"vehicle_type_id":"4","last_reported":1753215216,"current_range_meters":15200,"station_id":"ce4bhbh2rcd13ifvqepg","pricing_plan_id":"cebpf4jnsgd1na2vs0mg"},{"bike_id":"af246ed4-10d9-4f46-a35e-1a36c0b74e9a","system_id":"levelo_inurba_marseille","lat":43.29272,"lon":5.38435,"is_reserved":false,"is_disabled":false,"rental_uris":{"android":"levelo://app?vid=af246ed4-10d9-4f46-a35e-1a36c0b74e9a","ios":"levelo://app?vid=af246ed4-10d9-4f46-a35e-1a36c0b74e9a"},"vehicle_type_id":"4","last_reported":1753215216,"current_range_meters":16000,"station_id":"ce4bh692rcd13ifvqea0","pricing_plan_id":"cebpf4jnsgd1na2vs0mg"},{"bike_id":"d3eea4a0-76ba-4059-ba6b-c1ecd6270925","system_id":"levelo_inurba_marseille","lat":43.21185,"lon":5.351,"is_reserved":false,"is_disabled":false,"rental_uris":{"android":"levelo://app?vid=d3eea4a0-76ba-4059-ba6b-c1ecd6270925","ios":"levelo://app?vid=d3eea4a0-76ba-4059-ba6b-c1ecd6270925"},"vehicle_type_id":"4","last_reported":1753215216,"current_range_meters":16000,"station_id":"st_cvj6sg6p6f1abm77japg","pricing_plan_id":"cebpf4jnsgd1na2vs0mg"},{"bike_id":"153ce597-664e-4dca-97e6-09a4750f1a38","system_id":"levelo_inurba_marseille","lat":43.29223,"lon":5.36053,"is_reserved":false,"is_disabled":false,"rental_uris":{"android":"levelo://app?vid=153ce597-664e-4dca-97e6-09a4750f1a38","ios":"levelo://app?vid=153ce597-664e-4dca-97e6-09a4750f1a38"},"vehicle_type_id":"4","last_reported":1753215216,"current_range_meters":16000,"station_id":"ce4bhbh2rcd13ifvqeqg","pricing_plan_id":"cebpf4jnsgd1na2vs0mg"},{"bike_id":"b1453e61-933b-4a6b-817a-e1844eff6709","system_id":"levelo_inurba_marseille","lat":43.2897,"lon":5.37833,"is_reserved":false,"is_disabled":false,"rental_uris":{"android":"levelo://app?vid=b1453e61-933b-4a6b-817a-e1844eff6709","ios":"levelo://app?vid=b1453e61-933b-4a6b-817a-e1844eff6709"},"vehicle_type_id":"4","last_reported":1753215216,"current_range_meters":16000,"station_id":"ce4bh9p2rcd13ifvqed0","pricing_plan_id":"cebpf4jnsgd1na2vs0mg"},{"bike_id":"48af5488-6afa-46d8-b781-df5aa91844e8","system_id":"levelo_inurba_marseille","lat":43.31372,"lon":5.38503,"is_reserved":false,"is_disabled":false,"rental_uris":{"android":"levelo://app?vid=48af5488-6afa-46d8-b781-df5aa91844e8","ios":"levelo://app?vid=48af5488-6afa-46d8-b781-df5aa91844e8"},"vehicle_type_id":"4","last_reported":1753215216,"current_range_meters":16000,"station_id":"ce4bgt92rcd13ifvqcf0","pricing_plan_id":"cebpf4jnsgd1na2vs0mg"},{"bike_id":"650db757-2eee-41d7-bbf5-735668e2866a","system_id":"levelo_inurba_marseille","lat":43.25117,"lon":5.40317,"is_reserved":false,"is_disabled":false,"rental_uris":{"android":"levelo://app?vid=650db757-2eee-41d7-bbf5-735668e2866a","ios":"levelo://app?vid=650db757-2eee-41d7-bbf5-735668e2866a"},"vehicle_type_id":"4","last_reported":1753215216,"current_range_meters":16000,"station_id":"ce4bhlh2rcd13ifvqgig","pricing_plan_id":"cebpf4jnsgd1na2vs0mg"},{"bike_id":"8e6b8fb4-b52b-417c-af31-79aa8bf4509c","system_id":"levelo_inurba_marseille","lat":43.30637,"lon":5.40072,"is_reserved":false,"is_disabled":false,"rental_uris":{"android":"levelo://app?vid=8e6b8fb4-b52b-417c-af31-79aa8bf4509c","ios":"levelo://app?vid=8e6b8fb4-b52b-417c-af31-79aa8bf4509c"},"vehicle_type_id":"4","last_reported":1753215216,"current_range_meters":16400,"station_id":"ce4bh112rcd13ifvqda0","pricing_plan_id":"cebpf4jnsgd1na2vs0mg"},{"bike_id":"6912b39d-9a51-46c2-9a88-bea38d6a7e23","system_id":"levelo_inurba_marseille","lat":43.29897,"lon":5.38907,"is_reserved":false,"is_disabled":false,"rental_uris":{"android":"levelo://app?vid=6912b39d-9a51-46c2-9a88-bea38d6a7e23","ios":"levelo://app?vid=6912b39d-9a51-46c2-9a88-bea38d6a7e23"},"vehicle_type_id":"4","last_reported":1753215216,"current_range_meters":16400,"station_id":"ce4bh392rcd13ifvqdl0","pricing_plan_id":"cebpf4jnsgd1na2vs0mg"},{"bike_id":"9a143ed1-a3c7-421c-a22c-84e79d27e230","system_id":"levelo_inurba_marseille","lat":43.28404,"lon":5.3501,"is_reserved":false,"is_disabled":true,"rental_uris":{"android":"levelo://app?vid=9a143ed1-a3c7-421c-a22c-84e79d27e230","ios":"levelo://app?vid=9a143ed1-a3c7-421c-a22c-84e79d27e230"},"vehicle_type_id":"4","last_reported":1753215216,"current_range_meters":16400,"station_id":"ce4bhbh2rcd13ifvqepg","pricing_plan_id":"cebpf4jnsgd1na2vs0mg"},{"bike_id":"c5c5ce4e-bd02-4580-bc1c-a85c2beae863","system_id":"levelo_inurba_marseille","lat":43.250907,"lon":5.395238,"is_reserved":false,"is_disabled":false,"rental_uris":{"android":"levelo://app?vid=c5c5ce4e-bd02-4580-bc1c-a85c2beae863","ios":"levelo://app?vid=c5c5ce4e-bd02-4580-bc1c-a85c2beae863"},"vehicle_type_id":"4","last_reported":1753215216,"current_range_meters":16400,"station_id":"ce4bhm12rcd13ifvqgkg","pricing_plan_id":"cebpf4jnsgd1na2vs0mg"},{"bike_id":"db4f7d16-4447-4752-b9fa-314b60a317e8","system_id":"levelo_inurba_marseille","lat":43.299083,"lon":5.379223,"is_reserved":false,"is_disabled":false,"rental_uris":{"android":"levelo://app?vid=db4f7d16-4447-4752-b9fa-314b60a317e8","ios":"levelo://app?vid=db4f7d16-4447-4752-b9fa-314b60a317e8"},"vehicle_type_id":"4","last_reported":1753215216,"current_range_meters":16400,"station_id":"","pricing_plan_id":"cebpf4jnsgd1na2vs0mg"},{"bike_id":"433d457c-a5fb-4a79-8eef-bdd9237750e1","system_id":"levelo_inurba_marseille","lat":43.29524,"lon":5.39039,"is_reserved":false,"is_disabled":false,"rental_uris":{"android":"levelo://app?vid=433d457c-a5fb-4a79-8eef-bdd9237750e1","ios":"levelo://app?vid=433d457c-a5fb-4a79-8eef-bdd9237750e1"},"vehicle_type_id":"4","last_reported":1753215216,"current_range_meters":16400,"station_id":"ce4bh3p2rcd13ifvqdp0","pricing_plan_id":"cebpf4jnsgd1na2vs0mg"},{"bike_id":"646cb9ab-a96a-4c2c-bbb1-889a97452ef6","system_id":"levelo_inurba_marseille","lat":43.27562,"lon":5.38417,"is_reserved":false,"is_disabled":false,"rental_uris":{"android":"levelo://app?vid=646cb9ab-a96a-4c2c-bbb1-889a97452ef6","ios":"levelo://app?vid=646cb9ab-a96a-4c2c-bbb1-889a97452ef6"},"vehicle_type_id":"4","last_reported":1753215216,"current_range_meters":16400,"station_id":"ce4bhh92rcd13ifvqfi0","pricing_plan_id":"cebpf4jnsgd1na2vs0mg"},{"bike_id":"093c2cb0-1994-4bd3-a77d-f6c63ce5413a","system_id":"levelo_inurba_marseille","lat":43.22505,"lon":5.34787,"is_reserved":false,"is_disabled":true,"rental_uris":{"android":"levelo://app?vid=093c2cb0-1994-4bd3-a77d-f6c63ce5413a","ios":"levelo://app?vid=093c2cb0-1994-4bd3-a77d-f6c63ce5413a"},"vehicle_type_id":"4","last_reported":1753215216,"current_range_meters":16400,"station_id":"st_cvj5dfep6f1abm77gieg","pricing_plan_id":"cebpf4jnsgd1na2vs0mg"},{"bike_id":"fe07410f-2ac3-4d42-a644-c798c7a25a84","system_id":"levelo_inurba_marseille","lat":43.26571,"lon":5.372879,"is_reserved":false,"is_disabled":false,"rental_uris":{"android":"levelo://app?vid=fe07410f-2ac3-4d42-a644-c798c7a25a84","ios":"levelo://app?vid=fe07410f-2ac3-4d42-a644-c798c7a25a84"},"vehicle_type_id":"4","last_reported":1753215216,"current_range_meters":16400,"station_id":"","pricing_plan_id":"cebpf4jnsgd1na2vs0mg"},{"bike_id":"8b8b5073-f3a9-4702-a784-1ad1f1994013","system_id":"levelo_inurba_marseille","lat":43.30603,"lon":5.39354,"is_reserved":false,"is_disabled":false,"rental_uris":{"android":"levelo://app?vid=8b8b5073-f3a9-4702-a784-1ad1f1994013","ios":"levelo://app?vid=8b8b5073-f3a9-4702-a784-1ad1f1994013"},"vehicle_type_id":"4","last_reported":1753215216,"current_range_meters":16400,"station_id":"ce4bh0p2rcd13ifvqd80","pricing_plan_id":"cebpf4jnsgd1na2vs0mg"},{"bike_id":"c2d6577b-432d-43fb-9598-e14d3548b5c2","system_id":"levelo_inurba_marseille","lat":43.29272,"lon":5.38444,"is_reserved":false,"is_disabled":false,"rental_uris":{"android":"levelo://app?vid=c2d6577b-432d-43fb-9598-e14d3548b5c2","ios":"levelo://app?vid=c2d6577b-432d-43fb-9598-e14d3548b5c2"},"vehicle_type_id":"4","last_reported":1753215216,"current_range_meters":16400,"station_id":"ce4bh692rcd13ifvqea0","pricing_plan_id":"cebpf4jnsgd1na2vs0mg"},{"bike_id":"fb0f45ea-8473-47f0-a76e-d1f6bf1d24f0","system_id":"levelo_inurba_marseille","lat":43.29546,"lon":5.3853,"is_reserved":false,"is_disabled":false,"rental_uris":{"android":"levelo://app?vid=fb0f45ea-8473-47f0-a76e-d1f6bf1d24f0","ios":"levelo://app?vid=fb0f45ea-8473-47f0-a76e-d1f6bf1d24f0"},"vehicle_type_id":"4","last_reported":1753215216,"current_range_meters":16400,"station_id":"ce4bgih2rcd13ifvqba0","pricing_plan_id":"cebpf4jnsgd1na2vs0mg"},{"bike_id":"87245a48-ddeb-4974-b2f3-654cf3b1e0fb","system_id":"levelo_inurba_marseille","lat":43.28701,"lon":5.39983,"is_reserved":false,"is_disabled":false,"rental_uris":{"android":"levelo://app?vid=87245a48-ddeb-4974-b2f3-654cf3b1e0fb","ios":"levelo://app?vid=87245a48-ddeb-4974-b2f3-654cf3b1e0fb"},"vehicle_type_id":"4","last_reported":1753215216,"current_range_meters":16400,"station_id":"ce4bho92rcd13ifvqh3g","pricing_plan_id":"cebpf4jnsgd1na2vs0mg"},{"bike_id":"157458e2-9676-4586-8d16-e98da32675b3","system_id":"levelo_inurba_marseille","lat":43.30581,"lon":5.39345,"is_reserved":false,"is_disabled":false,"rental_uris":{"android":"levelo://app?vid=157458e2-9676-4586-8d16-e98da32675b3","ios":"levelo://app?vid=157458e2-9676-4586-8d16-e98da32675b3"},"vehicle_type_id":"4","last_reported":1753215216,"current_range_meters":16400,"station_id":"ce4bh0p2rcd13ifvqd80","pricing_plan_id":"cebpf4jnsgd1na2vs0mg"},{"bike_id":"9059afd0-959c-418a-a35b-25ef84e09900","system_id":"levelo_inurba_marseille","lat":43.3053,"lon":5.36546,"is_reserved":false,"is_disabled":false,"rental_uris":{"android":"levelo://app?vid=9059afd0-959c-418a-a35b-25ef84e09900","ios":"levelo://app?vid=9059afd0-959c-418a-a35b-25ef84e09900"},"vehicle_type_id":"4","last_reported":1753215216,"current_range_meters":16400,"station_id":"ce4bgs12rcd13ifvqcag","pricing_plan_id":"cebpf4jnsgd1na2vs0mg"},{"bike_id":"cc926983-7496-48df-9677-b8723ddc96b9","system_id":"levelo_inurba_marseille","lat":43.22923,"lon":5.35387,"is_reserved":false,"is_disabled":false,"rental_uris":{"android":"levelo://app?vid=cc926983-7496-48df-9677-b8723ddc96b9","ios":"levelo://app?vid=cc926983-7496-48df-9677-b8723ddc96b9"},"vehicle_type_id":"4","last_reported":1753215216,"current_range_meters":16800,"station_id":"cpo3532slgdg3j2ikp40","pricing_plan_id":"cebpf4jnsgd1na2vs0mg"},{"bike_id":"b461780b-2a4b-4e08-994e-d300a01c475a","system_id":"levelo_inurba_marseille","lat":43.29532,"lon":5.39016,"is_reserved":false,"is_disabled":false,"rental_uris":{"android":"levelo://app?vid=b461780b-2a4b-4e08-994e-d300a01c475a","ios":"levelo://app?vid=b461780b-2a4b-4e08-994e-d300a01c475a"},"vehicle_type_id":"4","last_reported":1753215216,"current_range_meters":16800,"station_id":"ce4bh3p2rcd13ifvqdp0","pricing_plan_id":"cebpf4jnsgd1na2vs0mg"},{"bike_id":"1a2751da-031a-4246-8d2c-dd848ee0e802","system_id":"levelo_inurba_marseille","lat":43.29538,"lon":5.38546,"is_reserved":false,"is_disabled":true,"rental_uris":{"android":"levelo://app?vid=1a2751da-031a-4246-8d2c-dd848ee0e802","ios":"levelo://app?vid=1a2751da-031a-4246-8d2c-dd848ee0e802"},"vehicle_type_id":"4","last_reported":1753215216,"current_range_meters":16800,"station_id":"ce4bgih2rcd13ifvqba0","pricing_plan_id":"cebpf4jnsgd1na2vs0mg"},{"bike_id":"fb81ee79-6688-4d05-be53-1ac881d0c7b8","system_id":"levelo_inurba_marseille","lat":43.23207,"lon":5.35549,"is_reserved":false,"is_disabled":false,"rental_uris":{"android":"levelo://app?vid=fb81ee79-6688-4d05-be53-1ac881d0c7b8","ios":"levelo://app?vid=fb81ee79-6688-4d05-be53-1ac881d0c7b8"},"vehicle_type_id":"4","last_reported":1753215216,"current_range_meters":16800,"station_id":"ce4bhu92rcd13ifvqi70","pricing_plan_id":"cebpf4jnsgd1na2vs0mg"},{"bike_id":"6a102a90-f6e0-499a-a8df-486cf33a7ee2","system_id":"levelo_inurba_marseille","lat":43.21848,"lon":5.349365,"is_reserved":false,"is_disabled":false,"rental_uris":{"android":"levelo://app?vid=6a102a90-f6e0-499a-a8df-486cf33a7ee2","ios":"levelo://app?vid=6a102a90-f6e0-499a-a8df-486cf33a7ee2"},"vehicle_type_id":"4","last_reported":1753215216,"current_range_meters":16800,"station_id":"","pricing_plan_id":"cebpf4jnsgd1na2vs0mg"},{"bike_id":"96615291-df4f-41b4-8715-19e294e472c2","system_id":"levelo_inurba_marseille","lat":43.27566,"lon":5.38415,"is_reserved":false,"is_disabled":false,"rental_uris":{"android":"levelo://app?vid=96615291-df4f-41b4-8715-19e294e472c2","ios":"levelo://app?vid=96615291-df4f-41b4-8715-19e294e472c2"},"vehicle_type_id":"4","last_reported":1753215216,"current_range_meters":16800,"station_id":"ce4bhh92rcd13ifvqfi0","pricing_plan_id":"cebpf4jnsgd1na2vs0mg"},{"bike_id":"b564f4b5-cb36-4694-a241-a0b2dbccb790","system_id":"levelo_inurba_marseille","lat":43.30806,"lon":5.38158,"is_reserved":false,"is_disabled":false,"rental_uris":{"android":"levelo://app?vid=b564f4b5-cb36-4694-a241-a0b2dbccb790","ios":"levelo://app?vid=b564f4b5-cb36-4694-a241-a0b2dbccb790"},"vehicle_type_id":"4","last_reported":1753215216,"current_range_meters":16800,"station_id":"ce4bgt12rcd13ifvqce0","pricing_plan_id":"cebpf4jnsgd1na2vs0mg"},{"bike_id":"9b6fce05-30a2-42db-979d-76d83f5165be","system_id":"levelo_inurba_marseille","lat":43.28157,"lon":5.42641,"is_reserved":false,"is_disabled":false,"rental_uris":{"android":"levelo://app?vid=9b6fce05-30a2-42db-979d-76d83f5165be","ios":"levelo://app?vid=9b6fce05-30a2-42db-979d-76d83f5165be"},"vehicle_type_id":"4","last_reported":1753215216,"current_range_meters":16800,"station_id":"ce4bhnh2rcd13ifvqgug","pricing_plan_id":"cebpf4jnsgd1na2vs0mg"},{"bike_id":"317582b7-4f6d-4edf-8352-04987657336f","system_id":"levelo_inurba_marseille","lat":43.29538,"lon":5.38535,"is_reserved":false,"is_disabled":false,"rental_uris":{"android":"levelo://app?vid=317582b7-4f6d-4edf-8352-04987657336f","ios":"levelo://app?vid=317582b7-4f6d-4edf-8352-04987657336f"},"vehicle_type_id":"4","last_reported":1753215216,"current_range_meters":16800,"station_id":"ce4bgih2rcd13ifvqba0","pricing_plan_id":"cebpf4jnsgd1na2vs0mg"},{"bike_id":"6093672b-1e9a-4299-b920-36e4f293a348","system_id":"levelo_inurba_marseille","lat":43.2293,"lon":5.35364,"is_reserved":false,"is_disabled":false,"rental_uris":{"android":"levelo://app?vid=6093672b-1e9a-4299-b920-36e4f293a348","ios":"levelo://app?vid=6093672b-1e9a-4299-b920-36e4f293a348"},"vehicle_type_id":"4","last_reported":1753215216,"current_range_meters":17200,"station_id":"cpo3532slgdg3j2ikp40","pricing_plan_id":"cebpf4jnsgd1na2vs0mg"},{"bike_id":"11251068-6f7d-46bb-896b-3c17e0064bb4","system_id":"levelo_inurba_marseille","lat":43.31326,"lon":5.39684,"is_reserved":false,"is_disabled":false,"rental_uris":{"android":"levelo://app?vid=11251068-6f7d-46bb-896b-3c17e0064bb4","ios":"levelo://app?vid=11251068-6f7d-46bb-896b-3c17e0064bb4"},"vehicle_type_id":"4","last_reported":1753215216,"current_range_meters":17200,"station_id":"ce4bgvp2rcd13ifvqcu0","pricing_plan_id":"cebpf4jnsgd1na2vs0mg"},{"bike_id":"bb431a0a-3a87-4c29-81ba-6f8268477c0a","system_id":"levelo_inurba_marseille","lat":43.29197,"lon":5.39325,"is_reserved":false,"is_disabled":false,"rental_uris":{"android":"levelo://app?vid=bb431a0a-3a87-4c29-81ba-6f8268477c0a","ios":"levelo://app?vid=bb431a0a-3a87-4c29-81ba-6f8268477c0a"},"vehicle_type_id":"4","last_reported":1753215216,"current_range_meters":17200,"station_id":"ce4bh192rcd13ifvqdd0","pricing_plan_id":"cebpf4jnsgd1na2vs0mg"},{"bike_id":"9adc6fbc-266a-4c1c-bca9-fbfce89961f1","system_id":"levelo_inurba_marseille","lat":43.28036,"lon":5.36948,"is_reserved":false,"is_disabled":false,"rental_uris":{"android":"levelo://app?vid=9adc6fbc-266a-4c1c-bca9-fbfce89961f1","ios":"levelo://app?vid=9adc6fbc-266a-4c1c-bca9-fbfce89961f1"},"vehicle_type_id":"4","last_reported":1753215216,"current_range_meters":17200,"station_id":"ce4bha12rcd13ifvqef0","pricing_plan_id":"cebpf4jnsgd1na2vs0mg"},{"bike_id":"a1b0b122-6e21-4460-9358-18ef2a002ce1","system_id":"levelo_inurba_marseille","lat":43.28404,"lon":5.34974,"is_reserved":false,"is_disabled":false,"rental_uris":{"android":"levelo://app?vid=a1b0b122-6e21-4460-9358-18ef2a002ce1","ios":"levelo://app?vid=a1b0b122-6e21-4460-9358-18ef2a002ce1"},"vehicle_type_id":"4","last_reported":1753215216,"current_range_meters":17200,"station_id":"ce4bhbh2rcd13ifvqepg","pricing_plan_id":"cebpf4jnsgd1na2vs0mg"},{"bike_id":"5b4b0158-f86f-4e96-a4a3-2fb3a6eed526","system_id":"levelo_inurba_marseille","lat":43.28659,"lon":5.36354,"is_reserved":false,"is_disabled":false,"rental_uris":{"android":"levelo://app?vid=5b4b0158-f86f-4e96-a4a3-2fb3a6eed526","ios":"levelo://app?vid=5b4b0158-f86f-4e96-a4a3-2fb3a6eed526"},"vehicle_type_id":"4","last_reported":1753215216,"current_range_meters":17200,"station_id":"ce4bhah2rcd13ifvqej0","pricing_plan_id":"cebpf4jnsgd1na2vs0mg"},{"bike_id":"f7f39aad-16f1-48af-b53a-a700e9df1b9a","system_id":"levelo_inurba_marseille","lat":43.25118,"lon":5.40318,"is_reserved":false,"is_disabled":false,"rental_uris":{"android":"levelo://app?vid=f7f39aad-16f1-48af-b53a-a700e9df1b9a","ios":"levelo://app?vid=f7f39aad-16f1-48af-b53a-a700e9df1b9a"},"vehicle_type_id":"4","last_reported":1753215216,"current_range_meters":17200,"station_id":"ce4bhlh2rcd13ifvqgig","pricing_plan_id":"cebpf4jnsgd1na2vs0mg"},{"bike_id":"5b47a81d-ead0-4c4b-8864-c63aeb4bcd3d","system_id":"levelo_inurba_marseille","lat":43.21203,"lon":5.35083,"is_reserved":false,"is_disabled":false,"rental_uris":{"android":"levelo://app?vid=5b47a81d-ead0-4c4b-8864-c63aeb4bcd3d","ios":"levelo://app?vid=5b47a81d-ead0-4c4b-8864-c63aeb4bcd3d"},"vehicle_type_id":"4","last_reported":1753215216,"current_range_meters":17200,"station_id":"st_cvj6sg6p6f1abm77japg","pricing_plan_id":"cebpf4jnsgd1na2vs0mg"},{"bike_id":"ee2475e2-14aa-476d-9b2b-2499ae541461","system_id":"levelo_inurba_marseille","lat":43.28843,"lon":5.35877,"is_reserved":false,"is_disabled":false,"rental_uris":{"android":"levelo://app?vid=ee2475e2-14aa-476d-9b2b-2499ae541461","ios":"levelo://app?vid=ee2475e2-14aa-476d-9b2b-2499ae541461"},"vehicle_type_id":"4","last_reported":1753215216,"current_range_meters":17200,"station_id":"ce4bhb12rcd13ifvqem0","pricing_plan_id":"cebpf4jnsgd1na2vs0mg"},{"bike_id":"0328809f-87e4-43d4-9881-2db7d232e7fc","system_id":"levelo_inurba_marseille","lat":43.289451,"lon":5.366322,"is_reserved":false,"is_disabled":false,"rental_uris":{"android":"levelo://app?vid=0328809f-87e4-43d4-9881-2db7d232e7fc","ios":"levelo://app?vid=0328809f-87e4-43d4-9881-2db7d232e7fc"},"vehicle_type_id":"4","last_reported":1753215216,"current_range_meters":17200,"station_id":"ce4bhap2rcd13ifvqek0","pricing_plan_id":"cebpf4jnsgd1na2vs0mg"},{"bike_id":"d77a4304-77a5-4dd6-bcdf-b4ed43987f49","system_id":"levelo_inurba_marseille","lat":43.29576,"lon":5.39966,"is_reserved":false,"is_disabled":false,"rental_uris":{"android":"levelo://app?vid=d77a4304-77a5-4dd6-bcdf-b4ed43987f49","ios":"levelo://app?vid=d77a4304-77a5-4dd6-bcdf-b4ed43987f49"},"vehicle_type_id":"4","last_reported":1753215216,"current_range_meters":17200,"station_id":"ce4bh312rcd13ifvqdj0","pricing_plan_id":"cebpf4jnsgd1na2vs0mg"},{"bike_id":"767a19f1-45f8-441e-93a4-44fb91c31d2a","system_id":"levelo_inurba_marseille","lat":43.29524,"lon":5.39392,"is_reserved":false,"is_disabled":false,"rental_uris":{"android":"levelo://app?vid=767a19f1-45f8-441e-93a4-44fb91c31d2a","ios":"levelo://app?vid=767a19f1-45f8-441e-93a4-44fb91c31d2a"},"vehicle_type_id":"4","last_reported":1753215216,"current_range_meters":17200,"station_id":"ce4bh292rcd13ifvqdf0","pricing_plan_id":"cebpf4jnsgd1na2vs0mg"},{"bike_id":"609a84fb-2c47-44fa-9abb-206b6d93c96b","system_id":"levelo_inurba_marseille","lat":43.31712,"lon":5.4371,"is_reserved":false,"is_disabled":false,"rental_uris":{"android":"levelo://app?vid=609a84fb-2c47-44fa-9abb-206b6d93c96b","ios":"levelo://app?vid=609a84fb-2c47-44fa-9abb-206b6d93c96b"},"vehicle_type_id":"4","last_reported":1753215216,"current_range_meters":17600,"station_id":"ce4bhp92rcd13ifvqhcg","pricing_plan_id":"cebpf4jnsgd1na2vs0mg"},{"bike_id":"e3a9e6d1-788b-4774-babe-289560a0bee7","system_id":"levelo_inurba_marseille","lat":43.29953,"lon":5.37439,"is_reserved":false,"is_disabled":false,"rental_uris":{"android":"levelo://app?vid=e3a9e6d1-788b-4774-babe-289560a0bee7","ios":"levelo://app?vid=e3a9e6d1-788b-4774-babe-289560a0bee7"},"vehicle_type_id":"4","last_reported":1753215216,"current_range_meters":17600,"station_id":"ce4bgjh2rcd13ifvqbg0","pricing_plan_id":"cebpf4jnsgd1na2vs0mg"},{"bike_id":"8aec3a73-d103-49b7-b4a7-cc0238b8e0dd","system_id":"levelo_inurba_marseille","lat":43.24073,"lon":5.37757,"is_reserved":false,"is_disabled":false,"rental_uris":{"android":"levelo://app?vid=8aec3a73-d103-49b7-b4a7-cc0238b8e0dd","ios":"levelo://app?vid=8aec3a73-d103-49b7-b4a7-cc0238b8e0dd"},"vehicle_type_id":"4","last_reported":1753215216,"current_range_meters":17600,"station_id":"ce4bhnp2rcd13ifvqgvg","pricing_plan_id":"cebpf4jnsgd1na2vs0mg"},{"bike_id":"d509b331-e799-4503-90e7-40b1e687c26f","system_id":"levelo_inurba_marseille","lat":43.28612,"lon":5.370656,"is_reserved":false,"is_disabled":true,"rental_uris":{"android":"levelo://app?vid=d509b331-e799-4503-90e7-40b1e687c26f","ios":"levelo://app?vid=d509b331-e799-4503-90e7-40b1e687c26f"},"vehicle_type_id":"4","last_reported":1753215216,"current_range_meters":17600,"station_id":"ce4bht12rcd13ifvqi60","pricing_plan_id":"cebpf4jnsgd1na2vs0mg"},{"bike_id":"674330ff-21c4-4c60-8bc8-0849090bcaf1","system_id":"levelo_inurba_marseille","lat":43.30302,"lon":5.39204,"is_reserved":false,"is_disabled":false,"rental_uris":{"android":"levelo://app?vid=674330ff-21c4-4c60-8bc8-0849090bcaf1","ios":"levelo://app?vid=674330ff-21c4-4c60-8bc8-0849090bcaf1"},"vehicle_type_id":"4","last_reported":1753215216,"current_range_meters":17600,"station_id":"ce4bgkh2rcd13ifvqbk0","pricing_plan_id":"cebpf4jnsgd1na2vs0mg"},{"bike_id":"4355f60b-bb67-4c5e-a729-7d6782d7e997","system_id":"levelo_inurba_marseille","lat":43.27934,"lon":5.41076,"is_reserved":false,"is_disabled":false,"rental_uris":{"android":"levelo://app?vid=4355f60b-bb67-4c5e-a729-7d6782d7e997","ios":"levelo://app?vid=4355f60b-bb67-4c5e-a729-7d6782d7e997"},"vehicle_type_id":"4","last_reported":1753215216,"current_range_meters":17600,"station_id":"ce4bhnp2rcd13ifvqh0g","pricing_plan_id":"cebpf4jnsgd1na2vs0mg"},{"bike_id":"94d150ac-2ae2-4a0a-8433-0652a7c6f31f","system_id":"levelo_inurba_marseille","lat":43.2509,"lon":5.39526,"is_reserved":false,"is_disabled":false,"rental_uris":{"android":"levelo://app?vid=94d150ac-2ae2-4a0a-8433-0652a7c6f31f","ios":"levelo://app?vid=94d150ac-2ae2-4a0a-8433-0652a7c6f31f"},"vehicle_type_id":"4","last_reported":1753215216,"current_range_meters":17600,"station_id":"ce4bhm12rcd13ifvqgkg","pricing_plan_id":"cebpf4jnsgd1na2vs0mg"},{"bike_id":"5984b2a9-df08-472f-9972-51a1ce9935d3","system_id":"levelo_inurba_marseille","lat":43.21774,"lon":5.34606,"is_reserved":false,"is_disabled":false,"rental_uris":{"android":"levelo://app?vid=5984b2a9-df08-472f-9972-51a1ce9935d3","ios":"levelo://app?vid=5984b2a9-df08-472f-9972-51a1ce9935d3"},"vehicle_type_id":"4","last_reported":1753215216,"current_range_meters":17600,"station_id":"st_cvj6r9ubvosntc0bgbag","pricing_plan_id":"cebpf4jnsgd1na2vs0mg"},{"bike_id":"07beef1a-ab0d-4c6d-8335-99337ef8730b","system_id":"levelo_inurba_marseille","lat":43.29581,"lon":5.36728,"is_reserved":false,"is_disabled":false,"rental_uris":{"android":"levelo://app?vid=07beef1a-ab0d-4c6d-8335-99337ef8730b","ios":"levelo://app?vid=07beef1a-ab0d-4c6d-8335-99337ef8730b"},"vehicle_type_id":"4","last_reported":1753215216,"current_range_meters":17600,"station_id":"ce4bgph2rcd13ifvqc2g","pricing_plan_id":"cebpf4jnsgd1na2vs0mg"},{"bike_id":"975c7ac7-ca95-41a0-9cef-be768d6024c6","system_id":"levelo_inurba_marseille","lat":43.29789,"lon":5.39327,"is_reserved":false,"is_disabled":false,"rental_uris":{"android":"levelo://app?vid=975c7ac7-ca95-41a0-9cef-be768d6024c6","ios":"levelo://app?vid=975c7ac7-ca95-41a0-9cef-be768d6024c6"},"vehicle_type_id":"4","last_reported":1753215216,"current_range_meters":18000,"station_id":"chh1huq6cuj3fo74tm60","pricing_plan_id":"cebpf4jnsgd1na2vs0mg"},{"bike_id":"4f1dd806-4cc0-4731-a103-d84b6076bb8f","system_id":"levelo_inurba_marseille","lat":43.25581,"lon":5.38233,"is_reserved":false,"is_disabled":true,"rental_uris":{"android":"levelo://app?vid=4f1dd806-4cc0-4731-a103-d84b6076bb8f","ios":"levelo://app?vid=4f1dd806-4cc0-4731-a103-d84b6076bb8f"},"vehicle_type_id":"4","last_reported":1753215216,"current_range_meters":18000,"station_id":"ce4bhih2rcd13ifvqfs0","pricing_plan_id":"cebpf4jnsgd1na2vs0mg"},{"bike_id":"1d55ed1a-2b52-4796-8dca-c7d3633b1679","system_id":"levelo_inurba_marseille","lat":43.24996,"lon":5.38947,"is_reserved":false,"is_disabled":false,"rental_uris":{"android":"levelo://app?vid=1d55ed1a-2b52-4796-8dca-c7d3633b1679","ios":"levelo://app?vid=1d55ed1a-2b52-4796-8dca-c7d3633b1679"},"vehicle_type_id":"4","last_reported":1753215216,"current_range_meters":18000,"station_id":"ce4bhgp2rcd13ifvqfd0","pricing_plan_id":"cebpf4jnsgd1na2vs0mg"},{"bike_id":"87efb87e-9c1b-48bc-9816-65bf93d44e2c","system_id":"levelo_inurba_marseille","lat":43.276176,"lon":5.361005,"is_reserved":false,"is_disabled":false,"rental_uris":{"android":"levelo://app?vid=87efb87e-9c1b-48bc-9816-65bf93d44e2c","ios":"levelo://app?vid=87efb87e-9c1b-48bc-9816-65bf93d44e2c"},"vehicle_type_id":"4","last_reported":1753215216,"current_range_meters":18000,"station_id":"","pricing_plan_id":"cebpf4jnsgd1na2vs0mg"},{"bike_id":"23c29e00-ece7-4cf5-8159-4b8848728223","system_id":"levelo_inurba_marseille","lat":43.28405,"lon":5.35006,"is_reserved":false,"is_disabled":false,"rental_uris":{"android":"levelo://app?vid=23c29e00-ece7-4cf5-8159-4b8848728223","ios":"levelo://app?vid=23c29e00-ece7-4cf5-8159-4b8848728223"},"vehicle_type_id":"4","last_reported":1753215216,"current_range_meters":18000,"station_id":"ce4bhbh2rcd13ifvqepg","pricing_plan_id":"cebpf4jnsgd1na2vs0mg"},{"bike_id":"6e609a8e-a24c-4763-a552-bc09931144e6","system_id":"levelo_inurba_marseille","lat":43.28618,"lon":5.35099,"is_reserved":false,"is_disabled":false,"rental_uris":{"android":"levelo://app?vid=6e609a8e-a24c-4763-a552-bc09931144e6","ios":"levelo://app?vid=6e609a8e-a24c-4763-a552-bc09931144e6"},"vehicle_type_id":"4","last_reported":1753215216,"current_range_meters":18000,"station_id":"ce4bhch2rcd13ifvqeug","pricing_plan_id":"cebpf4jnsgd1na2vs0mg"},{"bike_id":"3cef1158-540c-4055-a46b-73e02d1c17f7","system_id":"levelo_inurba_marseille","lat":43.28582,"lon":5.38328,"is_reserved":false,"is_disabled":false,"rental_uris":{"android":"levelo://app?vid=3cef1158-540c-4055-a46b-73e02d1c17f7","ios":"levelo://app?vid=3cef1158-540c-4055-a46b-73e02d1c17f7"},"vehicle_type_id":"4","last_reported":1753215216,"current_range_meters":18000,"station_id":"","pricing_plan_id":"cebpf4jnsgd1na2vs0mg"},{"bike_id":"3a41e442-1812-4e9c-9a4b-c952397c9da2","system_id":"levelo_inurba_marseille","lat":43.2841,"lon":5.34978,"is_reserved":false,"is_disabled":false,"rental_uris":{"android":"levelo://app?vid=3a41e442-1812-4e9c-9a4b-c952397c9da2","ios":"levelo://app?vid=3a41e442-1812-4e9c-9a4b-c952397c9da2"},"vehicle_type_id":"4","last_reported":1753215216,"current_range_meters":18000,"station_id":"ce4bhbh2rcd13ifvqepg","pricing_plan_id":"cebpf4jnsgd1na2vs0mg"},{"bike_id":"3c5ec4da-c7fb-4377-8a25-fa299fc765b1","system_id":"levelo_inurba_marseille","lat":43.2292,"lon":5.35377,"is_reserved":false,"is_disabled":false,"rental_uris":{"android":"levelo://app?vid=3c5ec4da-c7fb-4377-8a25-fa299fc765b1","ios":"levelo://app?vid=3c5ec4da-c7fb-4377-8a25-fa299fc765b1"},"vehicle_type_id":"4","last_reported":1753215216,"current_range_meters":18000,"station_id":"cpo3532slgdg3j2ikp40","pricing_plan_id":"cebpf4jnsgd1na2vs0mg"},{"bike_id":"98dca6ca-f3f1-4735-ae0a-f8c0632de0fb","system_id":"levelo_inurba_marseille","lat":43.295194,"lon":5.394019,"is_reserved":false,"is_disabled":false,"rental_uris":{"android":"levelo://app?vid=98dca6ca-f3f1-4735-ae0a-f8c0632de0fb","ios":"levelo://app?vid=98dca6ca-f3f1-4735-ae0a-f8c0632de0fb"},"vehicle_type_id":"4","last_reported":1753215216,"current_range_meters":18000,"station_id":"ce4bh292rcd13ifvqdf0","pricing_plan_id":"cebpf4jnsgd1na2vs0mg"},{"bike_id":"290f724d-e2c5-4a8b-a4b6-bf133326be72","system_id":"levelo_inurba_marseille","lat":43.29516,"lon":5.39399,"is_reserved":false,"is_disabled":false,"rental_uris":{"android":"levelo://app?vid=290f724d-e2c5-4a8b-a4b6-bf133326be72","ios":"levelo://app?vid=290f724d-e2c5-4a8b-a4b6-bf133326be72"},"vehicle_type_id":"4","last_reported":1753215216,"current_range_meters":18000,"station_id":"ce4bh292rcd13ifvqdf0","pricing_plan_id":"cebpf4jnsgd1na2vs0mg"},{"bike_id":"0f2a2ec1-0612-4170-86a7-c51171ec3498","system_id":"levelo_inurba_marseille","lat":43.286686,"lon":5.36342,"is_reserved":false,"is_disabled":false,"rental_uris":{"android":"levelo://app?vid=0f2a2ec1-0612-4170-86a7-c51171ec3498","ios":"levelo://app?vid=0f2a2ec1-0612-4170-86a7-c51171ec3498"},"vehicle_type_id":"4","last_reported":1753215216,"current_range_meters":18000,"station_id":"ce4bhah2rcd13ifvqej0","pricing_plan_id":"cebpf4jnsgd1na2vs0mg"},{"bike_id":"944f4ce4-0ee8-45e4-9785-d5656bb60b53","system_id":"levelo_inurba_marseille","lat":43.28572,"lon":5.39493,"is_reserved":false,"is_disabled":false,"rental_uris":{"android":"levelo://app?vid=944f4ce4-0ee8-45e4-9785-d5656bb60b53","ios":"levelo://app?vid=944f4ce4-0ee8-45e4-9785-d5656bb60b53"},"vehicle_type_id":"4","last_reported":1753215216,"current_range_meters":18000,"station_id":"ce4bh292rcd13ifvqdg0","pricing_plan_id":"cebpf4jnsgd1na2vs0mg"},{"bike_id":"40003ce9-0410-467e-8a20-fc80535a1e4d","system_id":"levelo_inurba_marseille","lat":43.28082,"lon":5.39657,"is_reserved":false,"is_disabled":false,"rental_uris":{"android":"levelo://app?vid=40003ce9-0410-467e-8a20-fc80535a1e4d","ios":"levelo://app?vid=40003ce9-0410-467e-8a20-fc80535a1e4d"},"vehicle_type_id":"4","last_reported":1753215216,"current_range_meters":18000,"station_id":"ce4bho12rcd13ifvqh2g","pricing_plan_id":"cebpf4jnsgd1na2vs0mg"},{"bike_id":"3c46ac99-e222-4f73-89b6-c3dd91f8950d","system_id":"levelo_inurba_marseille","lat":43.25155,"lon":5.40328,"is_reserved":false,"is_disabled":false,"rental_uris":{"android":"levelo://app?vid=3c46ac99-e222-4f73-89b6-c3dd91f8950d","ios":"levelo://app?vid=3c46ac99-e222-4f73-89b6-c3dd91f8950d"},"vehicle_type_id":"4","last_reported":1753215216,"current_range_meters":18800,"station_id":"","pricing_plan_id":"cebpf4jnsgd1na2vs0mg"},{"bike_id":"60580a08-434d-49cb-863c-a727a37b68e8","system_id":"levelo_inurba_marseille","lat":43.25001,"lon":5.38923,"is_reserved":false,"is_disabled":false,"rental_uris":{"android":"levelo://app?vid=60580a08-434d-49cb-863c-a727a37b68e8","ios":"levelo://app?vid=60580a08-434d-49cb-863c-a727a37b68e8"},"vehicle_type_id":"4","last_reported":1753215216,"current_range_meters":18800,"station_id":"ce4bhgp2rcd13ifvqfd0","pricing_plan_id":"cebpf4jnsgd1na2vs0mg"},{"bike_id":"869b3531-b500-41ef-9b48-7d699d16ba5f","system_id":"levelo_inurba_marseille","lat":43.2439,"lon":5.37041,"is_reserved":false,"is_disabled":false,"rental_uris":{"android":"levelo://app?vid=869b3531-b500-41ef-9b48-7d699d16ba5f","ios":"levelo://app?vid=869b3531-b500-41ef-9b48-7d699d16ba5f"},"vehicle_type_id":"4","last_reported":1753215216,"current_range_meters":18800,"station_id":"ce4bhhh2rcd13ifvqfk0","pricing_plan_id":"cebpf4jnsgd1na2vs0mg"},{"bike_id":"87304162-6179-4a31-ba9b-3189dfa3532e","system_id":"levelo_inurba_marseille","lat":43.30934,"lon":5.40144,"is_reserved":false,"is_disabled":false,"rental_uris":{"android":"levelo://app?vid=87304162-6179-4a31-ba9b-3189dfa3532e","ios":"levelo://app?vid=87304162-6179-4a31-ba9b-3189dfa3532e"},"vehicle_type_id":"4","last_reported":1753215216,"current_range_meters":18800,"station_id":"ce4bgvp2rcd13ifvqct0","pricing_plan_id":"cebpf4jnsgd1na2vs0mg"},{"bike_id":"c7fb7bc9-cce5-4dbe-9d25-1adaba45ad0d","system_id":"levelo_inurba_marseille","lat":43.28712,"lon":5.37403,"is_reserved":false,"is_disabled":true,"rental_uris":{"android":"levelo://app?vid=c7fb7bc9-cce5-4dbe-9d25-1adaba45ad0d","ios":"levelo://app?vid=c7fb7bc9-cce5-4dbe-9d25-1adaba45ad0d"},"vehicle_type_id":"4","last_reported":1753215216,"current_range_meters":18800,"station_id":"ce4bh3p2rcd13ifvqdq0","pricing_plan_id":"cebpf4jnsgd1na2vs0mg"},{"bike_id":"dcc90529-6796-4414-854c-340f2f729bd1","system_id":"levelo_inurba_marseille","lat":43.29509,"lon":5.39041,"is_reserved":false,"is_disabled":false,"rental_uris":{"android":"levelo://app?vid=dcc90529-6796-4414-854c-340f2f729bd1","ios":"levelo://app?vid=dcc90529-6796-4414-854c-340f2f729bd1"},"vehicle_type_id":"4","last_reported":1753215216,"current_range_meters":18800,"station_id":"ce4bh3p2rcd13ifvqdp0","pricing_plan_id":"cebpf4jnsgd1na2vs0mg"},{"bike_id":"8f43a54d-c5f8-4838-acdc-ba4e3403fbfc","system_id":"levelo_inurba_marseille","lat":43.29716,"lon":5.36614,"is_reserved":false,"is_disabled":false,"rental_uris":{"android":"levelo://app?vid=8f43a54d-c5f8-4838-acdc-ba4e3403fbfc","ios":"levelo://app?vid=8f43a54d-c5f8-4838-acdc-ba4e3403fbfc"},"vehicle_type_id":"4","last_reported":1753215216,"current_range_meters":18800,"station_id":"ce4bgn12rcd13ifvqbt0","pricing_plan_id":"cebpf4jnsgd1na2vs0mg"},{"bike_id":"0a7e2862-d8ec-4c77-89d9-cfcdd51f8d75","system_id":"levelo_inurba_marseille","lat":43.31772,"lon":5.36862,"is_reserved":false,"is_disabled":false,"rental_uris":{"android":"levelo://app?vid=0a7e2862-d8ec-4c77-89d9-cfcdd51f8d75","ios":"levelo://app?vid=0a7e2862-d8ec-4c77-89d9-cfcdd51f8d75"},"vehicle_type_id":"4","last_reported":1753215216,"current_range_meters":18800,"station_id":"","pricing_plan_id":"cebpf4jnsgd1na2vs0mg"},{"bike_id":"e6207266-568b-460c-bb7c-11d8a0b76203","system_id":"levelo_inurba_marseille","lat":43.257247,"lon":5.394224,"is_reserved":false,"is_disabled":false,"rental_uris":{"android":"levelo://app?vid=e6207266-568b-460c-bb7c-11d8a0b76203","ios":"levelo://app?vid=e6207266-568b-460c-bb7c-11d8a0b76203"},