{"last_updated":1745721414,"ttl":60,"version":"2.2","data":{"bikes":[{"bike_id":"327fa908-fafe-40ae-b97e-12862a152f1f","system_id":"levelo_inurba_marseille","lat":43.27608,"lon":5.39318,"is_reserved":false,"is_disabled":false,"rental_uris":{"android":"levelo://app?vid=327fa908-fafe-40ae-b97e-12862a152f1f","ios":"levelo://app?vid=327fa908-fafe-40ae-b97e-12862a152f1f"},"vehicle_type_id":"4","last_reported":1745721415,"current_range_meters":2800,"station_id":"","pricing_plan_id":"cebpf4jnsgd1na2vs0mg"},{"bike_id":"1746265e-27ad-4913-8a06-b6dc5372d844","system_id":"levelo_inurba_marseille","lat":43.25994,"lon":5.37494,"is_reserved":false,"is_disabled":false,"rental_uris":{"android":"levelo://app?vid=1746265e-27ad-4913-8a06-b6dc5372d844","ios":"levelo://app?vid=1746265e-27ad-4913-8a06-b6dc5372d844"},"vehicle_type_id":"4","last_reported":1745721415,"current_range_meters":2800,"station_id":"","pricing_plan_id":"cebpf4jnsgd1na2vs0mg"},{"bike_id":"29e436ca-6f7d-42ee-94c7-987fdae41c2b","system_id":"levelo_inurba_marseille","lat":43.26187,"lon":5.37459,"is_reserved":false,"is_disabled":false,"rental_uris":{"android":"levelo://app?vid=29e436ca-6f7d-42ee-94c7-987fdae41c2b","ios":"levelo://app?vid=29e436ca-6f7d-42ee-94c7-987fdae41c2b"},"vehicle_type_id":"4","last_reported":1745721415,"current_range_meters":2800,"station_id":"ce4bhgp2rcd13ifvqfc0","pricing_plan_id":"cebpf4jnsgd1na2vs0mg"},{"bike_id":"8e1b7f9c-15cd-4196-9a56-b8c9c867228b","system_id":"levelo_inurba_marseille","lat":43.26211,"lon":5.37448,"is_reserved":false,"is_disabled":false,"rental_uris":{"android":"levelo://app?vid=8e1b7f9c-15cd-4196-9a56-b8c9c867228b","ios":"levelo://app?vid=8e1b7f9c-15cd-4196-9a56-b8c9c867228b"},"vehicle_type_id":"4","last_reported":1745721415,"current_range_meters":3200,"station_id":"ce4bhgp2rcd13ifvqfc0","pricing_plan_id":"cebpf4jnsgd1na2vs0mg"},{"bike_id":"74bf1832-a389-491d-9cf1-c0544e13bc20","system_id":"levelo_inurba_marseille","lat":43.27497,"lon":5.42461,"is_reserved":false,"is_disabled":false,"rental_uris":{"android":"levelo://app?vid=74bf1832-a389-491d-9cf1-c0544e13bc20","ios":"levelo://app?vid=74bf1832-a389-491d-9cf1-c0544e13bc20"},"vehicle_type_id":"4","last_reported":1745721415,"current_range_meters":3200,"station_id":"ce4bhn92rcd13ifvqgrg","pricing_plan_id":"cebpf4jnsgd1na2vs0mg"},{"bike_id":"fcddd32a-71f9-41b4-a1cc-f32582f63a00","system_id":"levelo_inurba_marseille","lat":43.30775,"lon":5.3765,"is_reserved":false,"is_disabled":false,"rental_uris":{"android":"levelo://app?vid=fcddd32a-71f9-41b4-a1cc-f32582f63a00","ios":"levelo://app?vid=fcddd32a-71f9-41b4-a1cc-f32582f63a00"},"vehicle_type_id":"4","last_reported":1745721415,"current_range_meters":3200,"station_id":"","pricing_plan_id":"cebpf4jnsgd1na2vs0mg"},{"bike_id":"5e03de95-19f8-4977-aa30-42647409354d","system_id":"levelo_inurba_marseille","lat":43.23955,"lon":5.36647,"is_reserved":false,"is_disabled":false,"rental_uris":{"android":"levelo://app?vid=5e03de95-19f8-4977-aa30-42647409354d","ios":"levelo://app?vid=5e03de95-19f8-4977-aa30-42647409354d"},"vehicle_type_id":"4","last_reported":1745721415,"current_range_meters":3200,"station_id":"ce4bhi12rcd13ifvqfp0","pricing_plan_id":"cebpf4jnsgd1na2vs0mg"},{"bike_id":"6d91a8dc-ba91-4e59-90e6-05e9199e8291","system_id":"levelo_inurba_marseille","lat":43.262283,"lon":5.404585,"is_reserved":false,"is_disabled":false,"rental_uris":{"android":"levelo://app?vid=6d91a8dc-ba91-4e59-90e6-05e9199e8291","ios":"levelo://app?vid=6d91a8dc-ba91-4e59-90e6-05e9199e8291"},"vehicle_type_id":"4","last_reported":1745721415,"current_range_meters":3200,"station_id":"ce4bhmh2rcd13ifvqgmg","pricing_plan_id":"cebpf4jnsgd1na2vs0mg"},{"bike_id":"40b6b781-3a93-4dd5-9313-bd380b91aeb6","system_id":"levelo_inurba_marseille","lat":43.268838,"lon":5.381661,"is_reserved":false,"is_disabled":false,"rental_uris":{"android":"levelo://app?vid=40b6b781-3a93-4dd5-9313-bd380b91aeb6","ios":"levelo://app?vid=40b6b781-3a93-4dd5-9313-bd380b91aeb6"},"vehicle_type_id":"4","last_reported":1745721415,"current_range_meters":3600,"station_id":"","pricing_plan_id":"cebpf4jnsgd1na2vs0mg"},{"bike_id":"1d10ce78-507c-4676-b08e-f0f5e4c411cb","system_id":"levelo_inurba_marseille","lat":43.3129,"lon":5.40148,"is_reserved":false,"is_disabled":false,"rental_uris":{"android":"levelo://app?vid=1d10ce78-507c-4676-b08e-f0f5e4c411cb","ios":"levelo://app?vid=1d10ce78-507c-4676-b08e-f0f5e4c411cb"},"vehicle_type_id":"4","last_reported":1745721415,"current_range_meters":3600,"station_id":"ce4bh092rcd13ifvqd30","pricing_plan_id":"cebpf4jnsgd1na2vs0mg"},{"bike_id":"eebed111-53f3-42cc-962e-8056498da25f","system_id":"levelo_inurba_marseille","lat":43.28034,"lon":5.35646,"is_reserved":false,"is_disabled":false,"rental_uris":{"android":"levelo://app?vid=eebed111-53f3-42cc-962e-8056498da25f","ios":"levelo://app?vid=eebed111-53f3-42cc-962e-8056498da25f"},"vehicle_type_id":"4","last_reported":1745721415,"current_range_meters":3600,"station_id":"","pricing_plan_id":"cebpf4jnsgd1na2vs0mg"},{"bike_id":"b729244b-57f7-4f6b-b6a8-0f094c841175","system_id":"levelo_inurba_marseille","lat":43.306033,"lon":5.372498,"is_reserved":false,"is_disabled":false,"rental_uris":{"android":"levelo://app?vid=b729244b-57f7-4f6b-b6a8-0f094c841175","ios":"levelo://app?vid=b729244b-57f7-4f6b-b6a8-0f094c841175"},"vehicle_type_id":"4","last_reported":1745721415,"current_range_meters":3600,"station_id":"ce4bgqh2rcd13ifvqc4g","pricing_plan_id":"cebpf4jnsgd1na2vs0mg"},{"bike_id":"8d06dc27-c467-42a4-997a-2f823fc43cb8","system_id":"levelo_inurba_marseille","lat":43.2942,"lon":5.386201,"is_reserved":false,"is_disabled":false,"rental_uris":{"android":"levelo://app?vid=8d06dc27-c467-42a4-997a-2f823fc43cb8","ios":"levelo://app?vid=8d06dc27-c467-42a4-997a-2f823fc43cb8"},"vehicle_type_id":"4","last_reported":1745721415,"current_range_meters":4000,"station_id":"ce4bh2h2rcd13ifvqdh0","pricing_plan_id":"cebpf4jnsgd1na2vs0mg"},{"bike_id":"d1ff7e34-d25d-4063-9648-2bd4db47424f","system_id":"levelo_inurba_marseille","lat":43.32455,"lon":5.39145,"is_reserved":false,"is_disabled":true,"rental_uris":{"android":"levelo://app?vid=d1ff7e34-d25d-4063-9648-2bd4db47424f","ios":"levelo://app?vid=d1ff7e34-d25d-4063-9648-2bd4db47424f"},"vehicle_type_id":"4","last_reported":1745721415,"current_range_meters":4400,"station_id":"","pricing_plan_id":"cebpf4jnsgd1na2vs0mg"},{"bike_id":"422b5989-c8b6-43aa-b2b9-3bfeb2e1ddc0","system_id":"levelo_inurba_marseille","lat":43.24706,"lon":5.4118,"is_reserved":false,"is_disabled":false,"rental_uris":{"android":"levelo://app?vid=422b5989-c8b6-43aa-b2b9-3bfeb2e1ddc0","ios":"levelo://app?vid=422b5989-c8b6-43aa-b2b9-3bfeb2e1ddc0"},"vehicle_type_id":"4","last_reported":1745721415,"current_range_meters":4800,"station_id":"","pricing_plan_id":"cebpf4jnsgd1na2vs0mg"},{"bike_id":"af926de2-a12a-4832-8dd1-d3f70d728432","system_id":"levelo_inurba_marseille","lat":43.27977,"lon":5.41657,"is_reserved":false,"is_disabled":false,"rental_uris":{"android":"levelo://app?vid=af926de2-a12a-4832-8dd1-d3f70d728432","ios":"levelo://app?vid=af926de2-a12a-4832-8dd1-d3f70d728432"},"vehicle_type_id":"4","last_reported":1745721415,"current_range_meters":4800,"station_id":"ce4bho12rcd13ifvqh1g","pricing_plan_id":"cebpf4jnsgd1na2vs0mg"},{"bike_id":"bf5cf6b7-c538-4903-a90b-18b5b995616b","system_id":"levelo_inurba_marseille","lat":43.299194,"lon":5.371863,"is_reserved":false,"is_disabled":false,"rental_uris":{"android":"levelo://app?vid=bf5cf6b7-c538-4903-a90b-18b5b995616b","ios":"levelo://app?vid=bf5cf6b7-c538-4903-a90b-18b5b995616b"},"vehicle_type_id":"4","last_reported":1745721415,"current_range_meters":4800,"station_id":"","pricing_plan_id":"cebpf4jnsgd1na2vs0mg"},{"bike_id":"05094179-e208-4767-94df-7d6832edefd1","system_id":"levelo_inurba_marseille","lat":43.28146,"lon":5.42668,"is_reserved":false,"is_disabled":false,"rental_uris":{"android":"levelo://app?vid=05094179-e208-4767-94df-7d6832edefd1","ios":"levelo://app?vid=05094179-e208-4767-94df-7d6832edefd1"},"vehicle_type_id":"4","last_reported":1745721415,"current_range_meters":4800,"station_id":"ce4bhnh2rcd13ifvqgug","pricing_plan_id":"cebpf4jnsgd1na2vs0mg"},{"bike_id":"f62a4552-ec40-438e-82bf-49608a81162e","system_id":"levelo_inurba_marseille","lat":43.239637,"lon":5.366297,"is_reserved":false,"is_disabled":false,"rental_uris":{"android":"levelo://app?vid=f62a4552-ec40-438e-82bf-49608a81162e","ios":"levelo://app?vid=f62a4552-ec40-438e-82bf-49608a81162e"},"vehicle_type_id":"4","last_reported":1745721415,"current_range_meters":5600,"station_id":"ce4bhi12rcd13ifvqfp0","pricing_plan_id":"cebpf4jnsgd1na2vs0mg"},{"bike_id":"ab3a4106-7e42-4508-9e77-1ef3e4fbbf45","system_id":"levelo_inurba_marseille","lat":43.29354,"lon":5.40188,"is_reserved":false,"is_disabled":false,"rental_uris":{"android":"levelo://app?vid=ab3a4106-7e42-4508-9e77-1ef3e4fbbf45","ios":"levelo://app?vid=ab3a4106-7e42-4508-9e77-1ef3e4fbbf45"},"vehicle_type_id":"4","last_reported":1745721415,"current_range_meters":5600,"station_id":"","pricing_plan_id":"cebpf4jnsgd1na2vs0mg"},{"bike_id":"e99e6315-2751-4329-ad7b-f9d19f8ec3ef","system_id":"levelo_inurba_marseille","lat":43.28152,"lon":5.42645,"is_reserved":false,"is_disabled":false,"rental_uris":{"android":"levelo://app?vid=e99e6315-2751-4329-ad7b-f9d19f8ec3ef","ios":"levelo://app?vid=e99e6315-2751-4329-ad7b-f9d19f8ec3ef"},"vehicle_type_id":"4","last_reported":1745721415,"current_range_meters":5600,"station_id":"ce4bhnh2rcd13ifvqgug","pricing_plan_id":"cebpf4jnsgd1na2vs0mg"},{"bike_id":"62e1022a-c07d-490e-be99-4267ae20ba81","system_id":"levelo_inurba_marseille","lat":43.29268,"lon":5.40147,"is_reserved":false,"is_disabled":false,"rental_uris":{"android":"levelo://app?vid=62e1022a-c07d-490e-be99-4267ae20ba81","ios":"levelo://app?vid=62e1022a-c07d-490e-be99-4267ae20ba81"},"vehicle_type_id":"4","last_reported":1745721415,"current_range_meters":5600,"station_id":"ce4bh312rcd13ifvqdk0","pricing_plan_id":"cebpf4jnsgd1na2vs0mg"},{"bike_id":"11401a89-1aad-4932-8dc9-873ec02586b9","system_id":"levelo_inurba_marseille","lat":43.225006,"lon":5.34782,"is_reserved":false,"is_disabled":false,"rental_uris":{"android":"levelo://app?vid=11401a89-1aad-4932-8dc9-873ec02586b9","ios":"levelo://app?vid=11401a89-1aad-4932-8dc9-873ec02586b9"},"vehicle_type_id":"4","last_reported":1745721415,"current_range_meters":5600,"station_id":"ce4bgjp2rcd13ifvqbh0","pricing_plan_id":"cebpf4jnsgd1na2vs0mg"},{"bike_id":"3b6e3216-f666-4298-a310-acc5d51086df","system_id":"levelo_inurba_marseille","lat":43.241793,"lon":5.397295,"is_reserved":false,"is_disabled":false,"rental_uris":{"android":"levelo://app?vid=3b6e3216-f666-4298-a310-acc5d51086df","ios":"levelo://app?vid=3b6e3216-f666-4298-a310-acc5d51086df"},"vehicle_type_id":"4","last_reported":1745721415,"current_range_meters":6000,"station_id":"ce4bhn12rcd13ifvqgpg","pricing_plan_id":"cebpf4jnsgd1na2vs0mg"},{"bike_id":"18ae1d78-8d9e-4697-bc48-a39d36035c1d","system_id":"levelo_inurba_marseille","lat":43.23969,"lon":5.3663,"is_reserved":false,"is_disabled":false,"rental_uris":{"android":"levelo://app?vid=18ae1d78-8d9e-4697-bc48-a39d36035c1d","ios":"levelo://app?vid=18ae1d78-8d9e-4697-bc48-a39d36035c1d"},"vehicle_type_id":"4","last_reported":1745721415,"current_range_meters":6000,"station_id":"ce4bhi12rcd13ifvqfp0","pricing_plan_id":"cebpf4jnsgd1na2vs0mg"},{"bike_id":"554fe001-fd7c-4ce9-8b9f-fe24a3da343a","system_id":"levelo_inurba_marseille","lat":43.231877,"lon":5.355625,"is_reserved":false,"is_disabled":false,"rental_uris":{"android":"levelo://app?vid=554fe001-fd7c-4ce9-8b9f-fe24a3da343a","ios":"levelo://app?vid=554fe001-fd7c-4ce9-8b9f-fe24a3da343a"},"vehicle_type_id":"4","last_reported":1745721415,"current_range_meters":6400,"station_id":"ce4bhu92rcd13ifvqi70","pricing_plan_id":"cebpf4jnsgd1na2vs0mg"},{"bike_id":"443d6ddb-b230-4118-872e-9387df278ccd","system_id":"levelo_inurba_marseille","lat":43.24068,"lon":5.37794,"is_reserved":false,"is_disabled":false,"rental_uris":{"android":"levelo://app?vid=443d6ddb-b230-4118-872e-9387df278ccd","ios":"levelo://app?vid=443d6ddb-b230-4118-872e-9387df278ccd"},"vehicle_type_id":"4","last_reported":1745721415,"current_range_meters":6400,"station_id":"ce4bhnp2rcd13ifvqgvg","pricing_plan_id":"cebpf4jnsgd1na2vs0mg"},{"bike_id":"3fb10e7d-00e1-476c-a14f-2837b73331eb","system_id":"levelo_inurba_marseille","lat":43.2619,"lon":5.37455,"is_reserved":false,"is_disabled":false,"rental_uris":{"android":"levelo://app?vid=3fb10e7d-00e1-476c-a14f-2837b73331eb","ios":"levelo://app?vid=3fb10e7d-00e1-476c-a14f-2837b73331eb"},"vehicle_type_id":"4","last_reported":1745721415,"current_range_meters":6800,"station_id":"ce4bhgp2rcd13ifvqfc0","pricing_plan_id":"cebpf4jnsgd1na2vs0mg"},{"bike_id":"51376682-930e-45ed-90e0-b53d931ddc33","system_id":"levelo_inurba_marseille","lat":43.27497,"lon":5.42453,"is_reserved":false,"is_disabled":false,"rental_uris":{"android":"levelo://app?vid=51376682-930e-45ed-90e0-b53d931ddc33","ios":"levelo://app?vid=51376682-930e-45ed-90e0-b53d931ddc33"},"vehicle_type_id":"4","last_reported":1745721415,"current_range_meters":6800,"station_id":"ce4bhn92rcd13ifvqgrg","pricing_plan_id":"cebpf4jnsgd1na2vs0mg"},{"bike_id":"255eaede-da36-4197-9efa-9fb62e6c5b62","system_id":"levelo_inurba_marseille","lat":43.2621,"lon":5.37444,"is_reserved":false,"is_disabled":false,"rental_uris":{"android":"levelo://app?vid=255eaede-da36-4197-9efa-9fb62e6c5b62","ios":"levelo://app?vid=255eaede-da36-4197-9efa-9fb62e6c5b62"},"vehicle_type_id":"4","last_reported":1745721415,"current_range_meters":6800,"station_id":"ce4bhgp2rcd13ifvqfc0","pricing_plan_id":"cebpf4jnsgd1na2vs0mg"},{"bike_id":"1633ed64-e423-42e4-93c5-471c5c6b4f37","system_id":"levelo_inurba_marseille","lat":43.26056,"lon":5.39388,"is_reserved":false,"is_disabled":false,"rental_uris":{"android":"levelo://app?vid=1633ed64-e423-42e4-93c5-471c5c6b4f37","ios":"levelo://app?vid=1633ed64-e423-42e4-93c5-471c5c6b4f37"},"vehicle_type_id":"4","last_reported":1745721415,"current_range_meters":6800,"station_id":"ce4bhh92rcd13ifvqfj0","pricing_plan_id":"cebpf4jnsgd1na2vs0mg"},{"bike_id":"8a6fd588-85d3-4301-b7fc-ce76c956fcc4","system_id":"levelo_inurba_marseille","lat":43.31477,"lon":5.37289,"is_reserved":false,"is_disabled":false,"rental_uris":{"android":"levelo://app?vid=8a6fd588-85d3-4301-b7fc-ce76c956fcc4","ios":"levelo://app?vid=8a6fd588-85d3-4301-b7fc-ce76c956fcc4"},"vehicle_type_id":"4","last_reported":1745721415,"current_range_meters":7200,"station_id":"ce4bgt12rcd13ifvqcd0","pricing_plan_id":"cebpf4jnsgd1na2vs0mg"},{"bike_id":"62b8d5c9-eb15-493f-a357-4eb15de007d7","system_id":"levelo_inurba_marseille","lat":43.28155,"lon":5.42645,"is_reserved":false,"is_disabled":false,"rental_uris":{"android":"levelo://app?vid=62b8d5c9-eb15-493f-a357-4eb15de007d7","ios":"levelo://app?vid=62b8d5c9-eb15-493f-a357-4eb15de007d7"},"vehicle_type_id":"4","last_reported":1745721415,"current_range_meters":7200,"station_id":"ce4bhnh2rcd13ifvqgug","pricing_plan_id":"cebpf4jnsgd1na2vs0mg"},{"bike_id":"b25d821f-85f0-4e36-bfe6-db46d00f9763","system_id":"levelo_inurba_marseille","lat":43.295548,"lon":5.422853,"is_reserved":false,"is_disabled":false,"rental_uris":{"android":"levelo://app?vid=b25d821f-85f0-4e36-bfe6-db46d00f9763","ios":"levelo://app?vid=b25d821f-85f0-4e36-bfe6-db46d00f9763"},"vehicle_type_id":"4","last_reported":1745721415,"current_range_meters":7200,"station_id":"ce4bhph2rcd13ifvqhdg","pricing_plan_id":"cebpf4jnsgd1na2vs0mg"},{"bike_id":"6104de1b-83a6-4912-bfa1-49d35364e6af","system_id":"levelo_inurba_marseille","lat":43.23952,"lon":5.36634,"is_reserved":false,"is_disabled":false,"rental_uris":{"android":"levelo://app?vid=6104de1b-83a6-4912-bfa1-49d35364e6af","ios":"levelo://app?vid=6104de1b-83a6-4912-bfa1-49d35364e6af"},"vehicle_type_id":"4","last_reported":1745721415,"current_range_meters":7200,"station_id":"ce4bhi12rcd13ifvqfp0","pricing_plan_id":"cebpf4jnsgd1na2vs0mg"},{"bike_id":"3b576989-6583-41eb-90c4-d5036c5af5a9","system_id":"levelo_inurba_marseille","lat":43.284601,"lon":5.358867,"is_reserved":false,"is_disabled":false,"rental_uris":{"android":"levelo://app?vid=3b576989-6583-41eb-90c4-d5036c5af5a9","ios":"levelo://app?vid=3b576989-6583-41eb-90c4-d5036c5af5a9"},"vehicle_type_id":"4","last_reported":1745721415,"current_range_meters":8000,"station_id":"ce4bhah2rcd13ifvqei0","pricing_plan_id":"cebpf4jnsgd1na2vs0mg"},{"bike_id":"da43153d-0c82-4e6e-ab78-8fccd5cb1acc","system_id":"levelo_inurba_marseille","lat":43.2317,"lon":5.40019,"is_reserved":false,"is_disabled":false,"rental_uris":{"android":"levelo://app?vid=da43153d-0c82-4e6e-ab78-8fccd5cb1acc","ios":"levelo://app?vid=da43153d-0c82-4e6e-ab78-8fccd5cb1acc"},"vehicle_type_id":"4","last_reported":1745721415,"current_range_meters":8000,"station_id":"ce4bhn12rcd13ifvqgqg","pricing_plan_id":"cebpf4jnsgd1na2vs0mg"},{"bike_id":"206d6220-b715-46fc-be54-9a6732301080","system_id":"levelo_inurba_marseille","lat":43.27819,"lon":5.40712,"is_reserved":false,"is_disabled":false,"rental_uris":{"android":"levelo://app?vid=206d6220-b715-46fc-be54-9a6732301080","ios":"levelo://app?vid=206d6220-b715-46fc-be54-9a6732301080"},"vehicle_type_id":"4","last_reported":1745721415,"current_range_meters":8000,"station_id":"ce4bhnh2rcd13ifvqgtg","pricing_plan_id":"cebpf4jnsgd1na2vs0mg"},{"bike_id":"b9d9721d-c534-4190-b885-afd25bc0dc94","system_id":"levelo_inurba_marseille","lat":43.29254,"lon":5.37618,"is_reserved":false,"is_disabled":false,"rental_uris":{"android":"levelo://app?vid=b9d9721d-c534-4190-b885-afd25bc0dc94","ios":"levelo://app?vid=b9d9721d-c534-4190-b885-afd25bc0dc94"},"vehicle_type_id":"4","last_reported":1745721415,"current_range_meters":8000,"station_id":"ce4bgi12rcd13ifvqb80","pricing_plan_id":"cebpf4jnsgd1na2vs0mg"},{"bike_id":"316a7097-1e22-4f12-a17e-a81c0d10a3d1","system_id":"levelo_inurba_marseille","lat":43.27923,"lon":5.38685,"is_reserved":false,"is_disabled":false,"rental_uris":{"android":"levelo://app?vid=316a7097-1e22-4f12-a17e-a81c0d10a3d1","ios":"levelo://app?vid=316a7097-1e22-4f12-a17e-a81c0d10a3d1"},"vehicle_type_id":"4","last_reported":1745721415,"current_range_meters":8000,"station_id":"ce4bhg12rcd13ifvqf80","pricing_plan_id":"cebpf4jnsgd1na2vs0mg"},{"bike_id":"571880c0-0712-439e-9fee-1111267484d9","system_id":"levelo_inurba_marseille","lat":43.28701,"lon":5.37931,"is_reserved":false,"is_disabled":true,"rental_uris":{"android":"levelo://app?vid=571880c0-0712-439e-9fee-1111267484d9","ios":"levelo://app?vid=571880c0-0712-439e-9fee-1111267484d9"},"vehicle_type_id":"4","last_reported":1745721415,"current_range_meters":8400,"station_id":"ce4bh9p2rcd13ifvqec0","pricing_plan_id":"cebpf4jnsgd1na2vs0mg"},{"bike_id":"b4b0266c-631d-4bc0-b722-43b22c86c85f","system_id":"levelo_inurba_marseille","lat":43.30975,"lon":5.41755,"is_reserved":false,"is_disabled":false,"rental_uris":{"android":"levelo://app?vid=b4b0266c-631d-4bc0-b722-43b22c86c85f","ios":"levelo://app?vid=b4b0266c-631d-4bc0-b722-43b22c86c85f"},"vehicle_type_id":"4","last_reported":1745721415,"current_range_meters":8400,"station_id":"","pricing_plan_id":"cebpf4jnsgd1na2vs0mg"},{"bike_id":"c886bc95-a9f4-4b08-af93-286cc6dbd1ea","system_id":"levelo_inurba_marseille","lat":43.241666,"lon":5.364,"is_reserved":false,"is_disabled":false,"rental_uris":{"android":"levelo://app?vid=c886bc95-a9f4-4b08-af93-286cc6dbd1ea","ios":"levelo://app?vid=c886bc95-a9f4-4b08-af93-286cc6dbd1ea"},"vehicle_type_id":"4","last_reported":1745721415,"current_range_meters":8400,"station_id":"cpo36qri1sfpv3e86is0","pricing_plan_id":"cebpf4jnsgd1na2vs0mg"},{"bike_id":"046462ca-8fd6-4982-94c7-3f4266b3a3be","system_id":"levelo_inurba_marseille","lat":43.278926,"lon":5.380186,"is_reserved":false,"is_disabled":false,"rental_uris":{"android":"levelo://app?vid=046462ca-8fd6-4982-94c7-3f4266b3a3be","ios":"levelo://app?vid=046462ca-8fd6-4982-94c7-3f4266b3a3be"},"vehicle_type_id":"4","last_reported":1745721415,"current_range_meters":8400,"station_id":"ce4bhf92rcd13ifvqf50","pricing_plan_id":"cebpf4jnsgd1na2vs0mg"},{"bike_id":"e768aa58-f78c-4d48-862b-93a92cf87bd8","system_id":"levelo_inurba_marseille","lat":43.321183,"lon":5.367642,"is_reserved":false,"is_disabled":false,"rental_uris":{"android":"levelo://app?vid=e768aa58-f78c-4d48-862b-93a92cf87bd8","ios":"levelo://app?vid=e768aa58-f78c-4d48-862b-93a92cf87bd8"},"vehicle_type_id":"4","last_reported":1745721415,"current_range_meters":8800,"station_id":"ce4bhrh2rcd13ifvqhug","pricing_plan_id":"cebpf4jnsgd1na2vs0mg"},{"bike_id":"458f1985-19de-447d-8c20-91f354b4bc8c","system_id":"levelo_inurba_marseille","lat":43.26492,"lon":5.39584,"is_reserved":false,"is_disabled":false,"rental_uris":{"android":"levelo://app?vid=458f1985-19de-447d-8c20-91f354b4bc8c","ios":"levelo://app?vid=458f1985-19de-447d-8c20-91f354b4bc8c"},"vehicle_type_id":"4","last_reported":1745721415,"current_range_meters":8800,"station_id":"ce4bhi12rcd13ifvqfq0","pricing_plan_id":"cebpf4jnsgd1na2vs0mg"},{"bike_id":"60d0d4f4-f24a-4173-850c-0d18243bf392","system_id":"levelo_inurba_marseille","lat":43.26939,"lon":5.40258,"is_reserved":false,"is_disabled":false,"rental_uris":{"android":"levelo://app?vid=60d0d4f4-f24a-4173-850c-0d18243bf392","ios":"levelo://app?vid=60d0d4f4-f24a-4173-850c-0d18243bf392"},"vehicle_type_id":"4","last_reported":1745721415,"current_range_meters":8800,"station_id":"cjm6bp8fraef2m0cb0m0","pricing_plan_id":"cebpf4jnsgd1na2vs0mg"},{"bike_id":"3f485f12-ccbf-4cc6-bfee-26b7c2709069","system_id":"levelo_inurba_marseille","lat":43.281873,"lon":5.490593,"is_reserved":false,"is_disabled":false,"rental_uris":{"android":"levelo://app?vid=3f485f12-ccbf-4cc6-bfee-26b7c2709069","ios":"levelo://app?vid=3f485f12-ccbf-4cc6-bfee-26b7c2709069"},"vehicle_type_id":"4","last_reported":1745721415,"current_range_meters":8800,"station_id":"","pricing_plan_id":"cebpf4jnsgd1na2vs0mg"},{"bike_id":"e00cb7fa-11e9-4069-bff4-da0f4ea4cbdb","system_id":"levelo_inurba_marseille","lat":43.29909,"lon":5.37468,"is_reserved":false,"is_disabled":false,"rental_uris":{"android":"levelo://app?vid=e00cb7fa-11e9-4069-bff4-da0f4ea4cbdb","ios":"levelo://app?vid=e00cb7fa-11e9-4069-bff4-da0f4ea4cbdb"},"vehicle_type_id":"4","last_reported":1745721415,"current_range_meters":9200,"station_id":"ce4bgjh2rcd13ifvqbg0","pricing_plan_id":"cebpf4jnsgd1na2vs0mg"},{"bike_id":"042a36cf-a68c-4f02-8fbe-a3d4f36fa492","system_id":"levelo_inurba_marseille","lat":43.21193,"lon":5.35067,"is_reserved":false,"is_disabled":false,"rental_uris":{"android":"levelo://app?vid=042a36cf-a68c-4f02-8fbe-a3d4f36fa492","ios":"levelo://app?vid=042a36cf-a68c-4f02-8fbe-a3d4f36fa492"},"vehicle_type_id":"4","last_reported":1745721415,"current_range_meters":9200,"station_id":"st_cvj6sg6p6f1abm77japg","pricing_plan_id":"cebpf4jnsgd1na2vs0mg"},{"bike_id":"b9527aa0-e123-40cc-9678-2b81cd662594","system_id":"levelo_inurba_marseille","lat":43.30937,"lon":5.40155,"is_reserved":false,"is_disabled":false,"rental_uris":{"android":"levelo://app?vid=b9527aa0-e123-40cc-9678-2b81cd662594","ios":"levelo://app?vid=b9527aa0-e123-40cc-9678-2b81cd662594"},"vehicle_type_id":"4","last_reported":1745721415,"current_range_meters":9200,"station_id":"ce4bgvp2rcd13ifvqct0","pricing_plan_id":"cebpf4jnsgd1na2vs0mg"},{"bike_id":"aa7dd23a-c50c-4359-a4fa-3d29c4576751","system_id":"levelo_inurba_marseille","lat":43.24176,"lon":5.36404,"is_reserved":false,"is_disabled":false,"rental_uris":{"android":"levelo://app?vid=aa7dd23a-c50c-4359-a4fa-3d29c4576751","ios":"levelo://app?vid=aa7dd23a-c50c-4359-a4fa-3d29c4576751"},"vehicle_type_id":"4","last_reported":1745721415,"current_range_meters":9200,"station_id":"cpo36qri1sfpv3e86is0","pricing_plan_id":"cebpf4jnsgd1na2vs0mg"},{"bike_id":"9d24975d-5989-4c6e-bc54-bdc168e02c5f","system_id":"levelo_inurba_marseille","lat":43.24498,"lon":5.41156,"is_reserved":false,"is_disabled":false,"rental_uris":{"android":"levelo://app?vid=9d24975d-5989-4c6e-bc54-bdc168e02c5f","ios":"levelo://app?vid=9d24975d-5989-4c6e-bc54-bdc168e02c5f"},"vehicle_type_id":"4","last_reported":1745721415,"current_range_meters":9200,"station_id":"","pricing_plan_id":"cebpf4jnsgd1na2vs0mg"},{"bike_id":"190e2a44-d16f-4e6b-8e6a-22a9c30ba1bb","system_id":"levelo_inurba_marseille","lat":43.22481,"lon":5.34771,"is_reserved":false,"is_disabled":false,"rental_uris":{"android":"levelo://app?vid=190e2a44-d16f-4e6b-8e6a-22a9c30ba1bb","ios":"levelo://app?vid=190e2a44-d16f-4e6b-8e6a-22a9c30ba1bb"},"vehicle_type_id":"4","last_reported":1745721415,"current_range_meters":9200,"station_id":"st_cvj5dfep6f1abm77gieg","pricing_plan_id":"cebpf4jnsgd1na2vs0mg"},{"bike_id":"84f9693e-5ab9-4497-970b-c392fec5e36d","system_id":"levelo_inurba_marseille","lat":43.25862,"lon":5.39919,"is_reserved":false,"is_disabled":false,"rental_uris":{"android":"levelo://app?vid=84f9693e-5ab9-4497-970b-c392fec5e36d","ios":"levelo://app?vid=84f9693e-5ab9-4497-970b-c392fec5e36d"},"vehicle_type_id":"4","last_reported":1745721415,"current_range_meters":9200,"station_id":"ce4bhl92rcd13ifvqghg","pricing_plan_id":"cebpf4jnsgd1na2vs0mg"},{"bike_id":"3df5bec1-c782-4382-a3d7-acccba1d6c4e","system_id":"levelo_inurba_marseille","lat":43.28263,"lon":5.35068,"is_reserved":false,"is_disabled":false,"rental_uris":{"android":"levelo://app?vid=3df5bec1-c782-4382-a3d7-acccba1d6c4e","ios":"levelo://app?vid=3df5bec1-c782-4382-a3d7-acccba1d6c4e"},"vehicle_type_id":"4","last_reported":1745721415,"current_range_meters":9600,"station_id":"ce4bhbp2rcd13ifvqerg","pricing_plan_id":"cebpf4jnsgd1na2vs0mg"},{"bike_id":"ac9de8e3-36ab-49a0-84b7-c5c7afc378d9","system_id":"levelo_inurba_marseille","lat":43.29278,"lon":5.40142,"is_reserved":false,"is_disabled":false,"rental_uris":{"android":"levelo://app?vid=ac9de8e3-36ab-49a0-84b7-c5c7afc378d9","ios":"levelo://app?vid=ac9de8e3-36ab-49a0-84b7-c5c7afc378d9"},"vehicle_type_id":"4","last_reported":1745721415,"current_range_meters":9600,"station_id":"ce4bh312rcd13ifvqdk0","pricing_plan_id":"cebpf4jnsgd1na2vs0mg"},{"bike_id":"6d7cc870-ccfd-4f48-96fb-e8c1f82a64cc","system_id":"levelo_inurba_marseille","lat":43.29783,"lon":5.37118,"is_reserved":false,"is_disabled":true,"rental_uris":{"android":"levelo://app?vid=6d7cc870-ccfd-4f48-96fb-e8c1f82a64cc","ios":"levelo://app?vid=6d7cc870-ccfd-4f48-96fb-e8c1f82a64cc"},"vehicle_type_id":"4","last_reported":1745721415,"current_range_meters":9600,"station_id":"ce4bgop2rcd13ifvqc1g","pricing_plan_id":"cebpf4jnsgd1na2vs0mg"},{"bike_id":"757a31c2-77e1-4627-a72e-6a5115a94e27","system_id":"levelo_inurba_marseille","lat":43.21739,"lon":5.34602,"is_reserved":false,"is_disabled":false,"rental_uris":{"android":"levelo://app?vid=757a31c2-77e1-4627-a72e-6a5115a94e27","ios":"levelo://app?vid=757a31c2-77e1-4627-a72e-6a5115a94e27"},"vehicle_type_id":"4","last_reported":1745721415,"current_range_meters":9600,"station_id":"st_cvj6r9ubvosntc0bgbag","pricing_plan_id":"cebpf4jnsgd1na2vs0mg"},{"bike_id":"2fac31c9-ecd4-4c07-9ea5-ab959ac9f813","system_id":"levelo_inurba_marseille","lat":43.24686,"lon":5.38167,"is_reserved":false,"is_disabled":true,"rental_uris":{"android":"levelo://app?vid=2fac31c9-ecd4-4c07-9ea5-ab959ac9f813","ios":"levelo://app?vid=2fac31c9-ecd4-4c07-9ea5-ab959ac9f813"},"vehicle_type_id":"4","last_reported":1745721415,"current_range_meters":9600,"station_id":"ce4bhih2rcd13ifvqfr0","pricing_plan_id":"cebpf4jnsgd1na2vs0mg"},{"bike_id":"bb38c831-3df7-4f43-b5cb-d68bf144473e","system_id":"levelo_inurba_marseille","lat":43.26782,"lon":5.39417,"is_reserved":false,"is_disabled":false,"rental_uris":{"android":"levelo://app?vid=bb38c831-3df7-4f43-b5cb-d68bf144473e","ios":"levelo://app?vid=bb38c831-3df7-4f43-b5cb-d68bf144473e"},"vehicle_type_id":"4","last_reported":1745721415,"current_range_meters":9600,"station_id":"ce4bhh12rcd13ifvqfg0","pricing_plan_id":"cebpf4jnsgd1na2vs0mg"},{"bike_id":"ed537f9b-b1db-4f7f-87a1-1dbb18dd4577","system_id":"levelo_inurba_marseille","lat":43.33599,"lon":5.42826,"is_reserved":false,"is_disabled":false,"rental_uris":{"android":"levelo://app?vid=ed537f9b-b1db-4f7f-87a1-1dbb18dd4577","ios":"levelo://app?vid=ed537f9b-b1db-4f7f-87a1-1dbb18dd4577"},"vehicle_type_id":"4","last_reported":1745721415,"current_range_meters":9600,"station_id":"","pricing_plan_id":"cebpf4jnsgd1na2vs0mg"},{"bike_id":"3e8f967c-f41e-4797-a659-737e6711283c","system_id":"levelo_inurba_marseille","lat":43.243945,"lon":5.370555,"is_reserved":false,"is_disabled":false,"rental_uris":{"android":"levelo://app?vid=3e8f967c-f41e-4797-a659-737e6711283c","ios":"levelo://app?vid=3e8f967c-f41e-4797-a659-737e6711283c"},"vehicle_type_id":"4","last_reported":1745721415,"current_range_meters":9600,"station_id":"ce4bhhh2rcd13ifvqfk0","pricing_plan_id":"cebpf4jnsgd1na2vs0mg"},{"bike_id":"0cce7ea2-3151-4739-8e52-340c11e5c4e0","system_id":"levelo_inurba_marseille","lat":43.24647,"lon":5.382,"is_reserved":false,"is_disabled":false,"rental_uris":{"android":"levelo://app?vid=0cce7ea2-3151-4739-8e52-340c11e5c4e0","ios":"levelo://app?vid=0cce7ea2-3151-4739-8e52-340c11e5c4e0"},"vehicle_type_id":"4","last_reported":1745721415,"current_range_meters":10000,"station_id":"ce4bhih2rcd13ifvqfr0","pricing_plan_id":"cebpf4jnsgd1na2vs0mg"},{"bike_id":"303a0bc9-5235-4359-8967-fcaa7c875634","system_id":"levelo_inurba_marseille","lat":43.28411,"lon":5.37519,"is_reserved":false,"is_disabled":false,"rental_uris":{"android":"levelo://app?vid=303a0bc9-5235-4359-8967-fcaa7c875634","ios":"levelo://app?vid=303a0bc9-5235-4359-8967-fcaa7c875634"},"vehicle_type_id":"4","last_reported":1745721415,"current_range_meters":10000,"station_id":"ce4bh412rcd13ifvqds0","pricing_plan_id":"cebpf4jnsgd1na2vs0mg"},{"bike_id":"b2cc3c0b-f417-4257-9c42-1d57f4b85cfd","system_id":"levelo_inurba_marseille","lat":43.319952,"lon":5.381552,"is_reserved":false,"is_disabled":false,"rental_uris":{"android":"levelo://app?vid=b2cc3c0b-f417-4257-9c42-1d57f4b85cfd","ios":"levelo://app?vid=b2cc3c0b-f417-4257-9c42-1d57f4b85cfd"},"vehicle_type_id":"4","last_reported":1745721415,"current_range_meters":10000,"station_id":"ce4bhr12rcd13ifvqhpg","pricing_plan_id":"cebpf4jnsgd1na2vs0mg"},{"bike_id":"3f8e74df-4b8a-4fe8-9f20-4fbe47605119","system_id":"levelo_inurba_marseille","lat":43.29025,"lon":5.37555,"is_reserved":false,"is_disabled":true,"rental_uris":{"android":"levelo://app?vid=3f8e74df-4b8a-4fe8-9f20-4fbe47605119","ios":"levelo://app?vid=3f8e74df-4b8a-4fe8-9f20-4fbe47605119"},"vehicle_type_id":"4","last_reported":1745721415,"current_range_meters":10000,"station_id":"ce4bh692rcd13ifvqe90","pricing_plan_id":"cebpf4jnsgd1na2vs0mg"},{"bike_id":"ccb58822-4bf1-4cf8-9190-ef7aee64397d","system_id":"levelo_inurba_marseille","lat":43.31112,"lon":5.37764,"is_reserved":false,"is_disabled":false,"rental_uris":{"android":"levelo://app?vid=ccb58822-4bf1-4cf8-9190-ef7aee64397d","ios":"levelo://app?vid=ccb58822-4bf1-4cf8-9190-ef7aee64397d"},"vehicle_type_id":"4","last_reported":1745721415,"current_range_meters":10000,"station_id":"ce4bgt92rcd13ifvqcg0","pricing_plan_id":"cebpf4jnsgd1na2vs0mg"},{"bike_id":"50567301-7660-45e4-9314-78fdd7ddbf96","system_id":"levelo_inurba_marseille","lat":43.30768,"lon":5.40896,"is_reserved":false,"is_disabled":false,"rental_uris":{"android":"levelo://app?vid=50567301-7660-45e4-9314-78fdd7ddbf96","ios":"levelo://app?vid=50567301-7660-45e4-9314-78fdd7ddbf96"},"vehicle_type_id":"4","last_reported":1745721415,"current_range_meters":10000,"station_id":"","pricing_plan_id":"cebpf4jnsgd1na2vs0mg"},{"bike_id":"8267a175-b5cb-45e0-8d32-cc806f617854","system_id":"levelo_inurba_marseille","lat":43.30518,"lon":5.38867,"is_reserved":false,"is_disabled":false,"rental_uris":{"android":"levelo://app?vid=8267a175-b5cb-45e0-8d32-cc806f617854","ios":"levelo://app?vid=8267a175-b5cb-45e0-8d32-cc806f617854"},"vehicle_type_id":"4","last_reported":1745721415,"current_range_meters":10000,"station_id":"","pricing_plan_id":"cebpf4jnsgd1na2vs0mg"},{"bike_id":"4e09e2f3-6329-4563-9a1f-79c5001029cb","system_id":"levelo_inurba_marseille","lat":43.32364,"lon":5.38906,"is_reserved":false,"is_disabled":false,"rental_uris":{"android":"levelo://app?vid=4e09e2f3-6329-4563-9a1f-79c5001029cb","ios":"levelo://app?vid=4e09e2f3-6329-4563-9a1f-79c5001029cb"},"vehicle_type_id":"4","last_reported":1745721415,"current_range_meters":10000,"station_id":"ce4bhqp2rcd13ifvqhog","pricing_plan_id":"cebpf4jnsgd1na2vs0mg"},{"bike_id":"c1b1b433-bcb9-4a7d-8963-3218bcdcba1e","system_id":"levelo_inurba_marseille","lat":43.23367,"lon":5.36059,"is_reserved":false,"is_disabled":false,"rental_uris":{"android":"levelo://app?vid=c1b1b433-bcb9-4a7d-8963-3218bcdcba1e","ios":"levelo://app?vid=c1b1b433-bcb9-4a7d-8963-3218bcdcba1e"},"vehicle_type_id":"4","last_reported":1745721415,"current_range_meters":10000,"station_id":"","pricing_plan_id":"cebpf4jnsgd1na2vs0mg"},{"bike_id":"c596ab54-4f89-4649-a442-12778ac8adc4","system_id":"levelo_inurba_marseille","lat":43.31711,"lon":5.43689,"is_reserved":false,"is_disabled":true,"rental_uris":{"android":"levelo://app?vid=c596ab54-4f89-4649-a442-12778ac8adc4","ios":"levelo://app?vid=c596ab54-4f89-4649-a442-12778ac8adc4"},"vehicle_type_id":"4","last_reported":1745721415,"current_range_meters":10800,"station_id":"ce4bhp92rcd13ifvqhcg","pricing_plan_id":"cebpf4jnsgd1na2vs0mg"},{"bike_id":"dcbbc72b-79eb-4fa4-b4c5-70f5bb4d55ae","system_id":"levelo_inurba_marseille","lat":43.30301,"lon":5.39241,"is_reserved":false,"is_disabled":false,"rental_uris":{"android":"levelo://app?vid=dcbbc72b-79eb-4fa4-b4c5-70f5bb4d55ae","ios":"levelo://app?vid=dcbbc72b-79eb-4fa4-b4c5-70f5bb4d55ae"},"vehicle_type_id":"4","last_reported":1745721415,"current_range_meters":10800,"station_id":"ce4bgkh2rcd13ifvqbk0","pricing_plan_id":"cebpf4jnsgd1na2vs0mg"},{"bike_id":"b987a002-7b79-4baf-97dd-64c49e459599","system_id":"levelo_inurba_marseille","lat":43.33595,"lon":5.41027,"is_reserved":false,"is_disabled":false,"rental_uris":{"android":"levelo://app?vid=b987a002-7b79-4baf-97dd-64c49e459599","ios":"levelo://app?vid=b987a002-7b79-4baf-97dd-64c49e459599"},"vehicle_type_id":"4","last_reported":1745721415,"current_range_meters":10800,"station_id":"ce4bhqh2rcd13ifvqhmg","pricing_plan_id":"cebpf4jnsgd1na2vs0mg"},{"bike_id":"437769dd-f842-483f-a971-b47c60bf1ac1","system_id":"levelo_inurba_marseille","lat":43.303217,"lon":5.404397,"is_reserved":false,"is_disabled":false,"rental_uris":{"android":"levelo://app?vid=437769dd-f842-483f-a971-b47c60bf1ac1","ios":"levelo://app?vid=437769dd-f842-483f-a971-b47c60bf1ac1"},"vehicle_type_id":"4","last_reported":1745721415,"current_range_meters":10800,"station_id":"ce4bh012rcd13ifvqd10","pricing_plan_id":"cebpf4jnsgd1na2vs0mg"},{"bike_id":"736ee7d5-708e-48bd-8281-35bb85d0bc7d","system_id":"levelo_inurba_marseille","lat":43.28996,"lon":5.35637,"is_reserved":false,"is_disabled":true,"rental_uris":{"android":"levelo://app?vid=736ee7d5-708e-48bd-8281-35bb85d0bc7d","ios":"levelo://app?vid=736ee7d5-708e-48bd-8281-35bb85d0bc7d"},"vehicle_type_id":"4","last_reported":1745721415,"current_range_meters":10800,"station_id":"ce4bhb92rcd13ifvqen0","pricing_plan_id":"cebpf4jnsgd1na2vs0mg"},{"bike_id":"b6fa6dbe-9038-49ed-9332-07858da86a12","system_id":"levelo_inurba_marseille","lat":43.30652,"lon":5.40071,"is_reserved":false,"is_disabled":false,"rental_uris":{"android":"levelo://app?vid=b6fa6dbe-9038-49ed-9332-07858da86a12","ios":"levelo://app?vid=b6fa6dbe-9038-49ed-9332-07858da86a12"},"vehicle_type_id":"4","last_reported":1745721415,"current_range_meters":10800,"station_id":"ce4bh112rcd13ifvqda0","pricing_plan_id":"cebpf4jnsgd1na2vs0mg"},{"bike_id":"df2cf5fe-ae71-4393-b101-92b911d9a985","system_id":"levelo_inurba_marseille","lat":43.279692,"lon":5.38709,"is_reserved":false,"is_disabled":false,"rental_uris":{"android":"levelo://app?vid=df2cf5fe-ae71-4393-b101-92b911d9a985","ios":"levelo://app?vid=df2cf5fe-ae71-4393-b101-92b911d9a985"},"vehicle_type_id":"4","last_reported":1745721415,"current_range_meters":10800,"station_id":"ce4bhg12rcd13ifvqf80","pricing_plan_id":"cebpf4jnsgd1na2vs0mg"},{"bike_id":"6432cf12-7374-4597-9940-3d891d136fdc","system_id":"levelo_inurba_marseille","lat":43.30114,"lon":5.39886,"is_reserved":false,"is_disabled":false,"rental_uris":{"android":"levelo://app?vid=6432cf12-7374-4597-9940-3d891d136fdc","ios":"levelo://app?vid=6432cf12-7374-4597-9940-3d891d136fdc"},"vehicle_type_id":"4","last_reported":1745721415,"current_range_meters":10800,"station_id":"ce4bh0h2rcd13ifvqd40","pricing_plan_id":"cebpf4jnsgd1na2vs0mg"},{"bike_id":"d8ad6217-9763-42dc-b54f-610fb581eb45","system_id":"levelo_inurba_marseille","lat":43.29253,"lon":5.40906,"is_reserved":false,"is_disabled":false,"rental_uris":{"android":"levelo://app?vid=d8ad6217-9763-42dc-b54f-610fb581eb45","ios":"levelo://app?vid=d8ad6217-9763-42dc-b54f-610fb581eb45"},"vehicle_type_id":"4","last_reported":1745721415,"current_range_meters":11200,"station_id":"ce4bh192rcd13ifvqdc0","pricing_plan_id":"cebpf4jnsgd1na2vs0mg"},{"bike_id":"0a20c176-84ce-406c-b816-a20786a5492e","system_id":"levelo_inurba_marseille","lat":43.317113,"lon":5.377661,"is_reserved":false,"is_disabled":false,"rental_uris":{"android":"levelo://app?vid=0a20c176-84ce-406c-b816-a20786a5492e","ios":"levelo://app?vid=0a20c176-84ce-406c-b816-a20786a5492e"},"vehicle_type_id":"4","last_reported":1745721415,"current_range_meters":11200,"station_id":"ce4bgth2rcd13ifvqch0","pricing_plan_id":"cebpf4jnsgd1na2vs0mg"},{"bike_id":"3ca0e0b6-859b-407e-b779-010e38c1d06e","system_id":"levelo_inurba_marseille","lat":43.28415,"lon":5.37522,"is_reserved":false,"is_disabled":false,"rental_uris":{"android":"levelo://app?vid=3ca0e0b6-859b-407e-b779-010e38c1d06e","ios":"levelo://app?vid=3ca0e0b6-859b-407e-b779-010e38c1d06e"},"vehicle_type_id":"4","last_reported":1745721415,"current_range_meters":11200,"station_id":"ce4bh412rcd13ifvqds0","pricing_plan_id":"cebpf4jnsgd1na2vs0mg"},{"bike_id":"60a58b16-450e-4564-abc4-c8500e2008e3","system_id":"levelo_inurba_marseille","lat":43.30927,"lon":5.40156,"is_reserved":false,"is_disabled":false,"rental_uris":{"android":"levelo://app?vid=60a58b16-450e-4564-abc4-c8500e2008e3","ios":"levelo://app?vid=60a58b16-450e-4564-abc4-c8500e2008e3"},"vehicle_type_id":"4","last_reported":1745721415,"current_range_meters":11200,"station_id":"ce4bgvp2rcd13ifvqct0","pricing_plan_id":"cebpf4jnsgd1na2vs0mg"},{"bike_id":"ac61834c-a10a-425e-9cdb-694af07bb25f","system_id":"levelo_inurba_marseille","lat":43.27932,"lon":5.38711,"is_reserved":false,"is_disabled":false,"rental_uris":{"android":"levelo://app?vid=ac61834c-a10a-425e-9cdb-694af07bb25f","ios":"levelo://app?vid=ac61834c-a10a-425e-9cdb-694af07bb25f"},"vehicle_type_id":"4","last_reported":1745721415,"current_range_meters":11200,"station_id":"ce4bhg12rcd13ifvqf80","pricing_plan_id":"cebpf4jnsgd1na2vs0mg"},{"bike_id":"a07c8234-ee61-4ef8-a011-258b70c0cdf3","system_id":"levelo_inurba_marseille","lat":43.33567,"lon":5.40989,"is_reserved":false,"is_disabled":false,"rental_uris":{"android":"levelo://app?vid=a07c8234-ee61-4ef8-a011-258b70c0cdf3","ios":"levelo://app?vid=a07c8234-ee61-4ef8-a011-258b70c0cdf3"},"vehicle_type_id":"4","last_reported":1745721415,"current_range_meters":11200,"station_id":"","pricing_plan_id":"cebpf4jnsgd1na2vs0mg"},{"bike_id":"1a7be864-77bf-453b-9288-d6002e57f536","system_id":"levelo_inurba_marseille","lat":43.23151,"lon":5.4371,"is_reserved":false,"is_disabled":false,"rental_uris":{"android":"levelo://app?vid=1a7be864-77bf-453b-9288-d6002e57f536","ios":"levelo://app?vid=1a7be864-77bf-453b-9288-d6002e57f536"},"vehicle_type_id":"4","last_reported":1745721415,"current_range_meters":11600,"station_id":"ce4bhmp2rcd13ifvqgog","pricing_plan_id":"cebpf4jnsgd1na2vs0mg"},{"bike_id":"765b1b0e-d96e-43ab-919b-2620323cea8d","system_id":"levelo_inurba_marseille","lat":43.292794,"lon":5.401166,"is_reserved":false,"is_disabled":false,"rental_uris":{"android":"levelo://app?vid=765b1b0e-d96e-43ab-919b-2620323cea8d","ios":"levelo://app?vid=765b1b0e-d96e-43ab-919b-2620323cea8d"},"vehicle_type_id":"4","last_reported":1745721415,"current_range_meters":11600,"station_id":"ce4bh312rcd13ifvqdk0","pricing_plan_id":"cebpf4jnsgd1na2vs0mg"},{"bike_id":"294b1e57-c85f-4e87-a43c-53cfdc59fd11","system_id":"levelo_inurba_marseille","lat":43.28941,"lon":5.36636,"is_reserved":false,"is_disabled":false,"rental_uris":{"android":"levelo://app?vid=294b1e57-c85f-4e87-a43c-53cfdc59fd11","ios":"levelo://app?vid=294b1e57-c85f-4e87-a43c-53cfdc59fd11"},"vehicle_type_id":"4","last_reported":1745721415,"current_range_meters":11200,"station_id":"ce4bhap2rcd13ifvqek0","pricing_plan_id":"cebpf4jnsgd1na2vs0mg"},{"bike_id":"cecf372e-f99d-4092-9fb9-aba0fb187411","system_id":"levelo_inurba_marseille","lat":43.32363,"lon":5.38884,"is_reserved":false,"is_disabled":false,"rental_uris":{"android":"levelo://app?vid=cecf372e-f99d-4092-9fb9-aba0fb187411","ios":"levelo://app?vid=cecf372e-f99d-4092-9fb9-aba0fb187411"},"vehicle_type_id":"4","last_reported":1745721415,"current_range_meters":11600,"station_id":"ce4bhqp2rcd13ifvqhog","pricing_plan_id":"cebpf4jnsgd1na2vs0mg"},{"bike_id":"6d0f1c4b-cbb6-4ecc-b9c2-164566a35010","system_id":"levelo_inurba_marseille","lat":43.24178,"lon":5.39725,"is_reserved":false,"is_disabled":false,"rental_uris":{"android":"levelo://app?vid=6d0f1c4b-cbb6-4ecc-b9c2-164566a35010","ios":"levelo://app?vid=6d0f1c4b-cbb6-4ecc-b9c2-164566a35010"},"vehicle_type_id":"4","last_reported":1745721415,"current_range_meters":12000,"station_id":"ce4bhn12rcd13ifvqgpg","pricing_plan_id":"cebpf4jnsgd1na2vs0mg"},{"bike_id":"a5752412-2b3a-495a-b554-2a3e08204a69","system_id":"levelo_inurba_marseille","lat":43.322843,"lon":5.38266,"is_reserved":false,"is_disabled":false,"rental_uris":{"android":"levelo://app?vid=a5752412-2b3a-495a-b554-2a3e08204a69","ios":"levelo://app?vid=a5752412-2b3a-495a-b554-2a3e08204a69"},"vehicle_type_id":"4","last_reported":1745721415,"current_range_meters":12000,"station_id":"ce4bhr12rcd13ifvqhqg","pricing_plan_id":"cebpf4jnsgd1na2vs0mg"},{"bike_id":"dd3031e0-5272-497e-a41c-be7750e07327","system_id":"levelo_inurba_marseille","lat":43.30071,"lon":5.40295,"is_reserved":false,"is_disabled":false,"rental_uris":{"android":"levelo://app?vid=dd3031e0-5272-497e-a41c-be7750e07327","ios":"levelo://app?vid=dd3031e0-5272-497e-a41c-be7750e07327"},"vehicle_type_id":"4","last_reported":1745721415,"current_range_meters":12000,"station_id":"","pricing_plan_id":"cebpf4jnsgd1na2vs0mg"},{"bike_id":"6f9efa22-6701-48b6-9dac-71701c013e89","system_id":"levelo_inurba_marseille","lat":43.280037,"lon":5.40001,"is_reserved":false,"is_disabled":false,"rental_uris":{"android":"levelo://app?vid=6f9efa22-6701-48b6-9dac-71701c013e89","ios":"levelo://app?vid=6f9efa22-6701-48b6-9dac-71701c013e89"},"vehicle_type_id":"4","last_reported":1745721415,"current_range_meters":12000,"station_id":"ce4bho92rcd13ifvqh4g","pricing_plan_id":"cebpf4jnsgd1na2vs0mg"},{"bike_id":"15773708-82d1-4093-a964-e4465d2f612a","system_id":"levelo_inurba_marseille","lat":43.279413,"lon":5.410443,"is_reserved":false,"is_disabled":false,"rental_uris":{"android":"levelo://app?vid=15773708-82d1-4093-a964-e4465d2f612a","ios":"levelo://app?vid=15773708-82d1-4093-a964-e4465d2f612a"},"vehicle_type_id":"4","last_reported":1745721415,"current_range_meters":12000,"station_id":"ce4bhnp2rcd13ifvqh0g","pricing_plan_id":"cebpf4jnsgd1na2vs0mg"},{"bike_id":"c8a7bdc5-8f70-419a-b2dd-cd8b6d350aa0","system_id":"levelo_inurba_marseille","lat":43.31548,"lon":5.37228,"is_reserved":false,"is_disabled":false,"rental_uris":{"android":"levelo://app?vid=c8a7bdc5-8f70-419a-b2dd-cd8b6d350aa0","ios":"levelo://app?vid=c8a7bdc5-8f70-419a-b2dd-cd8b6d350aa0"},"vehicle_type_id":"4","last_reported":1745721415,"current_range_meters":12400,"station_id":"ce4bgt12rcd13ifvqcd0","pricing_plan_id":"cebpf4jnsgd1na2vs0mg"},{"bike_id":"15a4e1f4-4ca8-4bfa-b5d8-f744834c7deb","system_id":"levelo_inurba_marseille","lat":43.3093,"lon":5.40144,"is_reserved":false,"is_disabled":false,"rental_uris":{"android":"levelo://app?vid=15a4e1f4-4ca8-4bfa-b5d8-f744834c7deb","ios":"levelo://app?vid=15a4e1f4-4ca8-4bfa-b5d8-f744834c7deb"},"vehicle_type_id":"4","last_reported":1745721415,"current_range_meters":12400,"station_id":"ce4bgvp2rcd13ifvqct0","pricing_plan_id":"cebpf4jnsgd1na2vs0mg"},{"bike_id":"8f6f9e39-bb29-4339-bfa4-a9d237fc9c9e","system_id":"levelo_inurba_marseille","lat":43.26794,"lon":5.3942,"is_reserved":false,"is_disabled":false,"rental_uris":{"android":"levelo://app?vid=8f6f9e39-bb29-4339-bfa4-a9d237fc9c9e","ios":"levelo://app?vid=8f6f9e39-bb29-4339-bfa4-a9d237fc9c9e"},"vehicle_type_id":"4","last_reported":1745721415,"current_range_meters":12400,"station_id":"ce4bhh12rcd13ifvqfg0","pricing_plan_id":"cebpf4jnsgd1na2vs0mg"},{"bike_id":"ec74b155-1065-4a53-a181-10d9f61c4403","system_id":"levelo_inurba_marseille","lat":43.292517,"lon":5.409097,"is_reserved":false,"is_disabled":false,"rental_uris":{"android":"levelo://app?vid=ec74b155-1065-4a53-a181-10d9f61c4403","ios":"levelo://app?vid=ec74b155-1065-4a53-a181-10d9f61c4403"},"vehicle_type_id":"4","last_reported":1745721415,"current_range_meters":12400,"station_id":"ce4bh192rcd13ifvqdc0","pricing_plan_id":"cebpf4jnsgd1na2vs0mg"},{"bike_id":"dea15188-c098-4794-90f6-0fc4b187f745","system_id":"levelo_inurba_marseille","lat":43.30812,"lon":5.43528,"is_reserved":false,"is_disabled":false,"rental_uris":{"android":"levelo://app?vid=dea15188-c098-4794-90f6-0fc4b187f745","ios":"levelo://app?vid=dea15188-c098-4794-90f6-0fc4b187f745"},"vehicle_type_id":"4","last_reported":1745721415,"current_range_meters":12400,"station_id":"ce4bhph2rcd13ifvqheg","pricing_plan_id":"cebpf4jnsgd1na2vs0mg"},{"bike_id":"2437b117-bcc1-4f0e-afd1-eadb7828182e","system_id":"levelo_inurba_marseille","lat":43.26683,"lon":5.382663,"is_reserved":false,"is_disabled":false,"rental_uris":{"android":"levelo://app?vid=2437b117-bcc1-4f0e-afd1-eadb7828182e","ios":"levelo://app?vid=2437b117-bcc1-4f0e-afd1-eadb7828182e"},"vehicle_type_id":"4","last_reported":1745721415,"current_range_meters":12400,"station_id":"ce4bhg92rcd13ifvqf90","pricing_plan_id":"cebpf4jnsgd1na2vs0mg"},{"bike_id":"f188ac66-fef7-4eee-844f-ab9aab80bfff","system_id":"levelo_inurba_marseille","lat":43.336036,"lon":5.410102,"is_reserved":false,"is_disabled":false,"rental_uris":{"android":"levelo://app?vid=f188ac66-fef7-4eee-844f-ab9aab80bfff","ios":"levelo://app?vid=f188ac66-fef7-4eee-844f-ab9aab80bfff"},"vehicle_type_id":"4","last_reported":1745721415,"current_range_meters":12800,"station_id":"ce4bhqh2rcd13ifvqhmg","pricing_plan_id":"cebpf4jnsgd1na2vs0mg"},{"bike_id":"0053b840-de47-4900-98aa-cc8575176b05","system_id":"levelo_inurba_marseille","lat":43.24138,"lon":5.36438,"is_reserved":false,"is_disabled":true,"rental_uris":{"android":"levelo://app?vid=0053b840-de47-4900-98aa-cc8575176b05","ios":"levelo://app?vid=0053b840-de47-4900-98aa-cc8575176b05"},"vehicle_type_id":"4","last_reported":1745721415,"current_range_meters":12800,"station_id":"cpo36qri1sfpv3e86is0","pricing_plan_id":"cebpf4jnsgd1na2vs0mg"},{"bike_id":"9740f2a9-cf08-4e00-bc94-257624b51834","system_id":"levelo_inurba_marseille","lat":43.284638,"lon":5.358938,"is_reserved":false,"is_disabled":false,"rental_uris":{"android":"levelo://app?vid=9740f2a9-cf08-4e00-bc94-257624b51834","ios":"levelo://app?vid=9740f2a9-cf08-4e00-bc94-257624b51834"},"vehicle_type_id":"4","last_reported":1745721415,"current_range_meters":12800,"station_id":"ce4bhah2rcd13ifvqei0","pricing_plan_id":"cebpf4jnsgd1na2vs0mg"},{"bike_id":"10f1716c-0792-4c36-b001-2ec5369ab54e","system_id":"levelo_inurba_marseille","lat":43.284111,"lon":5.374971,"is_reserved":false,"is_disabled":false,"rental_uris":{"android":"levelo://app?vid=10f1716c-0792-4c36-b001-2ec5369ab54e","ios":"levelo://app?vid=10f1716c-0792-4c36-b001-2ec5369ab54e"},"vehicle_type_id":"4","last_reported":1745721415,"current_range_meters":12800,"station_id":"ce4bh412rcd13ifvqds0","pricing_plan_id":"cebpf4jnsgd1na2vs0mg"},{"bike_id":"9abb17dc-2e3c-4a5a-a7fd-6a6a572d1b3d","system_id":"levelo_inurba_marseille","lat":43.28714,"lon":5.40028,"is_reserved":false,"is_disabled":false,"rental_uris":{"android":"levelo://app?vid=9abb17dc-2e3c-4a5a-a7fd-6a6a572d1b3d","ios":"levelo://app?vid=9abb17dc-2e3c-4a5a-a7fd-6a6a572d1b3d"},"vehicle_type_id":"4","last_reported":1745721415,"current_range_meters":13600,"station_id":"ce4bho92rcd13ifvqh3g","pricing_plan_id":"cebpf4jnsgd1na2vs0mg"},{"bike_id":"fe22ad41-f12d-49f0-854c-6528daf9acc2","system_id":"levelo_inurba_marseille","lat":43.28558,"lon":5.39515,"is_reserved":false,"is_disabled":false,"rental_uris":{"android":"levelo://app?vid=fe22ad41-f12d-49f0-854c-6528daf9acc2","ios":"levelo://app?vid=fe22ad41-f12d-49f0-854c-6528daf9acc2"},"vehicle_type_id":"4","last_reported":1745721415,"current_range_meters":13600,"station_id":"ce4bh292rcd13ifvqdg0","pricing_plan_id":"cebpf4jnsgd1na2vs0mg"},{"bike_id":"41f345a9-75d9-4676-b56c-6e8ef96547ca","system_id":"levelo_inurba_marseille","lat":43.24051,"lon":5.37791,"is_reserved":false,"is_disabled":false,"rental_uris":{"android":"levelo://app?vid=41f345a9-75d9-4676-b56c-6e8ef96547ca","ios":"levelo://app?vid=41f345a9-75d9-4676-b56c-6e8ef96547ca"},"vehicle_type_id":"4","last_reported":1745721415,"current_range_meters":13600,"station_id":"ce4bhnp2rcd13ifvqgvg","pricing_plan_id":"cebpf4jnsgd1na2vs0mg"},{"bike_id":"91474842-32bf-45c2-856a-80fd91d22aa5","system_id":"levelo_inurba_marseille","lat":43.211916,"lon":5.350761,"is_reserved":false,"is_disabled":false,"rental_uris":{"android":"levelo://app?vid=91474842-32bf-45c2-856a-80fd91d22aa5","ios":"levelo://app?vid=91474842-32bf-45c2-856a-80fd91d22aa5"},"vehicle_type_id":"4","last_reported":1745721415,"current_range_meters":13600,"station_id":"st_cvj6sg6p6f1abm77japg","pricing_plan_id":"cebpf4jnsgd1na2vs0mg"},{"bike_id":"8840b7d1-badd-45b4-91db-50feaeb6b7ed","system_id":"levelo_inurba_marseille","lat":43.31056,"lon":5.36718,"is_reserved":false,"is_disabled":false,"rental_uris":{"android":"levelo://app?vid=8840b7d1-badd-45b4-91db-50feaeb6b7ed","ios":"levelo://app?vid=8840b7d1-badd-45b4-91db-50feaeb6b7ed"},"vehicle_type_id":"4","last_reported":1745721415,"current_range_meters":13600,"station_id":"","pricing_plan_id":"cebpf4jnsgd1na2vs0mg"},{"bike_id":"30288cb7-e849-4b02-8ab1-96deccfd974f","system_id":"levelo_inurba_marseille","lat":43.23967,"lon":5.36612,"is_reserved":false,"is_disabled":false,"rental_uris":{"android":"levelo://app?vid=30288cb7-e849-4b02-8ab1-96deccfd974f","ios":"levelo://app?vid=30288cb7-e849-4b02-8ab1-96deccfd974f"},"vehicle_type_id":"4","last_reported":1745721415,"current_range_meters":14000,"station_id":"ce4bhi12rcd13ifvqfp0","pricing_plan_id":"cebpf4jnsgd1na2vs0mg"},{"bike_id":"8f698993-6cad-47ba-8e59-3763d9e5cb36","system_id":"levelo_inurba_marseille","lat":43.30206,"lon":5.36637,"is_reserved":false,"is_disabled":false,"rental_uris":{"android":"levelo://app?vid=8f698993-6cad-47ba-8e59-3763d9e5cb36","ios":"levelo://app?vid=8f698993-6cad-47ba-8e59-3763d9e5cb36"},"vehicle_type_id":"4","last_reported":1745721415,"current_range_meters":14000,"station_id":"ce4bgrh2rcd13ifvqc8g","pricing_plan_id":"cebpf4jnsgd1na2vs0mg"},{"bike_id":"ae1d96a0-b0a2-41e1-be14-e78907f9338a","system_id":"levelo_inurba_marseille","lat":43.29524,"lon":5.39408,"is_reserved":false,"is_disabled":true,"rental_uris":{"android":"levelo://app?vid=ae1d96a0-b0a2-41e1-be14-e78907f9338a","ios":"levelo://app?vid=ae1d96a0-b0a2-41e1-be14-e78907f9338a"},"vehicle_type_id":"4","last_reported":1745721415,"current_range_meters":14000,"station_id":"ce4bh292rcd13ifvqdf0","pricing_plan_id":"cebpf4jnsgd1na2vs0mg"},{"bike_id":"af4a97e0-dded-4da0-9eba-7bcd01c44383","system_id":"levelo_inurba_marseille","lat":43.30278,"lon":5.39192,"is_reserved":false,"is_disabled":true,"rental_uris":{"android":"levelo://app?vid=af4a97e0-dded-4da0-9eba-7bcd01c44383","ios":"levelo://app?vid=af4a97e0-dded-4da0-9eba-7bcd01c44383"},"vehicle_type_id":"4","last_reported":1745721415,"current_range_meters":14000,"station_id":"ce4bgkh2rcd13ifvqbk0","pricing_plan_id":"cebpf4jnsgd1na2vs0mg"},{"bike_id":"21a5b78b-6652-49fa-a8ee-70531791ccf1","system_id":"levelo_inurba_marseille","lat":43.24862,"lon":5.4252,"is_reserved":false,"is_disabled":false,"rental_uris":{"android":"levelo://app?vid=21a5b78b-6652-49fa-a8ee-70531791ccf1","ios":"levelo://app?vid=21a5b78b-6652-49fa-a8ee-70531791ccf1"},"vehicle_type_id":"4","last_reported":1745721415,"current_range_meters":14000,"station_id":"","pricing_plan_id":"cebpf4jnsgd1na2vs0mg"},{"bike_id":"a8a1052b-2bfa-4b96-ba3d-8a0db2f38423","system_id":"levelo_inurba_marseille","lat":43.26187,"lon":5.37493,"is_reserved":false,"is_disabled":false,"rental_uris":{"android":"levelo://app?vid=a8a1052b-2bfa-4b96-ba3d-8a0db2f38423","ios":"levelo://app?vid=a8a1052b-2bfa-4b96-ba3d-8a0db2f38423"},"vehicle_type_id":"4","last_reported":1745721415,"current_range_meters":14000,"station_id":"ce4bhgp2rcd13ifvqfc0","pricing_plan_id":"cebpf4jnsgd1na2vs0mg"},{"bike_id":"47859ae8-4157-419a-a068-4625ada059ba","system_id":"levelo_inurba_marseille","lat":43.26232,"lon":5.40458,"is_reserved":false,"is_disabled":false,"rental_uris":{"android":"levelo://app?vid=47859ae8-4157-419a-a068-4625ada059ba","ios":"levelo://app?vid=47859ae8-4157-419a-a068-4625ada059ba"},"vehicle_type_id":"4","last_reported":1745721415,"current_range_meters":14400,"station_id":"ce4bhmh2rcd13ifvqgmg","pricing_plan_id":"cebpf4jnsgd1na2vs0mg"},{"bike_id":"ed705789-0f0d-49d6-b81c-9868871746ab","system_id":"levelo_inurba_marseille","lat":43.21745,"lon":5.34614,"is_reserved":false,"is_disabled":true,"rental_uris":{"android":"levelo://app?vid=ed705789-0f0d-49d6-b81c-9868871746ab","ios":"levelo://app?vid=ed705789-0f0d-49d6-b81c-9868871746ab"},"vehicle_type_id":"4","last_reported":1745721415,"current_range_meters":14400,"station_id":"ce4bhbp2rcd13ifvqesg","pricing_plan_id":"cebpf4jnsgd1na2vs0mg"},{"bike_id":"62369e53-f4b9-4742-8a82-7327044e3cfd","system_id":"levelo_inurba_marseille","lat":43.2926,"lon":5.38431,"is_reserved":false,"is_disabled":false,"rental_uris":{"android":"levelo://app?vid=62369e53-f4b9-4742-8a82-7327044e3cfd","ios":"levelo://app?vid=62369e53-f4b9-4742-8a82-7327044e3cfd"},"vehicle_type_id":"4","last_reported":1745721415,"current_range_meters":14400,"station_id":"ce4bhb12rcd13ifvqel0","pricing_plan_id":"cebpf4jnsgd1na2vs0mg"},{"bike_id":"49e0d52b-4e80-46ce-bdc2-e9d6da2fa326","system_id":"levelo_inurba_marseille","lat":43.22512,"lon":5.34815,"is_reserved":false,"is_disabled":false,"rental_uris":{"android":"levelo://app?vid=49e0d52b-4e80-46ce-bdc2-e9d6da2fa326","ios":"levelo://app?vid=49e0d52b-4e80-46ce-bdc2-e9d6da2fa326"},"vehicle_type_id":"4","last_reported":1745721415,"current_range_meters":14400,"station_id":"st_cvj5dfep6f1abm77gieg","pricing_plan_id":"cebpf4jnsgd1na2vs0mg"},{"bike_id":"eef1e15c-ad62-483d-a88a-6602293efd51","system_id":"levelo_inurba_marseille","lat":43.29278,"lon":5.401164,"is_reserved":false,"is_disabled":false,"rental_uris":{"android":"levelo://app?vid=eef1e15c-ad62-483d-a88a-6602293efd51","ios":"levelo://app?vid=eef1e15c-ad62-483d-a88a-6602293efd51"},"vehicle_type_id":"4","last_reported":1745721415,"current_range_meters":14800,"station_id":"ce4bh312rcd13ifvqdk0","pricing_plan_id":"cebpf4jnsgd1na2vs0mg"},{"bike_id":"a08e6535-7d97-4f82-b424-5e6daf2d2362","system_id":"levelo_inurba_marseille","lat":43.29514,"lon":5.39404,"is_reserved":false,"is_disabled":true,"rental_uris":{"android":"levelo://app?vid=a08e6535-7d97-4f82-b424-5e6daf2d2362","ios":"levelo://app?vid=a08e6535-7d97-4f82-b424-5e6daf2d2362"},"vehicle_type_id":"4","last_reported":1745721415,"current_range_meters":14800,"station_id":"ce4bh292rcd13ifvqdf0","pricing_plan_id":"cebpf4jnsgd1na2vs0mg"},{"bike_id":"7223ae38-d76a-4e78-8f72-e2a57ad53906","system_id":"levelo_inurba_marseille","lat":43.25718,"lon":5.41114,"is_reserved":false,"is_disabled":false,"rental_uris":{"android":"levelo://app?vid=7223ae38-d76a-4e78-8f72-e2a57ad53906","ios":"levelo://app?vid=7223ae38-d76a-4e78-8f72-e2a57ad53906"},"vehicle_type_id":"4","last_reported":1745721415,"current_range_meters":14800,"station_id":"ce4bhkp2rcd13ifvqgd0","pricing_plan_id":"cebpf4jnsgd1na2vs0mg"},{"bike_id":"3deeaf00-3852-4940-b764-733ed923641b","system_id":"levelo_inurba_marseille","lat":43.24183,"lon":5.39768,"is_reserved":false,"is_disabled":false,"rental_uris":{"android":"levelo://app?vid=3deeaf00-3852-4940-b764-733ed923641b","ios":"levelo://app?vid=3deeaf00-3852-4940-b764-733ed923641b"},"vehicle_type_id":"4","last_reported":1745721415,"current_range_meters":14800,"station_id":"ce4bhn12rcd13ifvqgpg","pricing_plan_id":"cebpf4jnsgd1na2vs0mg"},{"bike_id":"560f12bb-1614-4d7c-b78e-ccf5bdec9ea6","system_id":"levelo_inurba_marseille","lat":43.28458,"lon":5.35893,"is_reserved":false,"is_disabled":true,"rental_uris":{"android":"levelo://app?vid=560f12bb-1614-4d7c-b78e-ccf5bdec9ea6","ios":"levelo://app?vid=560f12bb-1614-4d7c-b78e-ccf5bdec9ea6"},"vehicle_type_id":"4","last_reported":1745721415,"current_range_meters":15200,"station_id":"ce4bhah2rcd13ifvqei0","pricing_plan_id":"cebpf4jnsgd1na2vs0mg"},{"bike_id":"c22c2fa8-b7af-4a42-8da5-a9403426b48f","system_id":"levelo_inurba_marseille","lat":43.31374,"lon":5.38491,"is_reserved":false,"is_disabled":false,"rental_uris":{"android":"levelo://app?vid=c22c2fa8-b7af-4a42-8da5-a9403426b48f","ios":"levelo://app?vid=c22c2fa8-b7af-4a42-8da5-a9403426b48f"},"vehicle_type_id":"4","last_reported":1745721415,"current_range_meters":16000,"station_id":"ce4bgt92rcd13ifvqcf0","pricing_plan_id":"cebpf4jnsgd1na2vs0mg"},{"bike_id":"dca35924-9704-4de4-8acb-8ca8648e331f","system_id":"levelo_inurba_marseille","lat":43.287098,"lon":5.399835,"is_reserved":false,"is_disabled":false,"rental_uris":{"android":"levelo://app?vid=dca35924-9704-4de4-8acb-8ca8648e331f","ios":"levelo://app?vid=dca35924-9704-4de4-8acb-8ca8648e331f"},"vehicle_type_id":"4","last_reported":1745721415,"current_range_meters":16000,"station_id":"ce4bho92rcd13ifvqh3g","pricing_plan_id":"cebpf4jnsgd1na2vs0mg"},{"bike_id":"5fba67da-67b4-4811-aa42-2ba548abf90a","system_id":"levelo_inurba_marseille","lat":43.3134,"lon":5.39716,"is_reserved":false,"is_disabled":false,"rental_uris":{"android":"levelo://app?vid=5fba67da-67b4-4811-aa42-2ba548abf90a","ios":"levelo://app?vid=5fba67da-67b4-4811-aa42-2ba548abf90a"},"vehicle_type_id":"4","last_reported":1745721415,"current_range_meters":16000,"station_id":"ce4bgvp2rcd13ifvqcu0","pricing_plan_id":"cebpf4jnsgd1na2vs0mg"},{"bike_id":"356b76a1-af1a-4bef-951e-98e5b057a721","system_id":"levelo_inurba_marseille","lat":43.29279,"lon":5.38346,"is_reserved":false,"is_disabled":true,"rental_uris":{"android":"levelo://app?vid=356b76a1-af1a-4bef-951e-98e5b057a721","ios":"levelo://app?vid=356b76a1-af1a-4bef-951e-98e5b057a721"},"vehicle_type_id":"4","last_reported":1745721415,"current_range_meters":16000,"station_id":"ce4bh692rcd13ifvqea0","pricing_plan_id":"cebpf4jnsgd1na2vs0mg"},{"bike_id":"9111363c-e358-4cc0-9632-937d6be3578a","system_id":"levelo_inurba_marseille","lat":43.28001,"lon":5.39997,"is_reserved":false,"is_disabled":false,"rental_uris":{"android":"levelo://app?vid=9111363c-e358-4cc0-9632-937d6be3578a","ios":"levelo://app?vid=9111363c-e358-4cc0-9632-937d6be3578a"},"vehicle_type_id":"4","last_reported":1745721415,"current_range_meters":16000,"station_id":"ce4bho92rcd13ifvqh4g","pricing_plan_id":"cebpf4jnsgd1na2vs0mg"},{"bike_id":"404f4fcf-8e92-4a5e-b7ed-32fce94ff05c","system_id":"levelo_inurba_marseille","lat":43.30778,"lon":5.37643,"is_reserved":false,"is_disabled":false,"rental_uris":{"android":"levelo://app?vid=404f4fcf-8e92-4a5e-b7ed-32fce94ff05c","ios":"levelo://app?vid=404f4fcf-8e92-4a5e-b7ed-32fce94ff05c"},"vehicle_type_id":"4","last_reported":1745721415,"current_range_meters":16000,"station_id":"ce4bgv92rcd13ifvqcq0","pricing_plan_id":"cebpf4jnsgd1na2vs0mg"},{"bike_id":"8db45fac-c900-40ff-91a9-996d0aa765f2","system_id":"levelo_inurba_marseille","lat":43.25719,"lon":5.41115,"is_reserved":false,"is_disabled":false,"rental_uris":{"android":"levelo://app?vid=8db45fac-c900-40ff-91a9-996d0aa765f2","ios":"levelo://app?vid=8db45fac-c900-40ff-91a9-996d0aa765f2"},"vehicle_type_id":"4","last_reported":1745721415,"current_range_meters":16000,"station_id":"ce4bhkp2rcd13ifvqgd0","pricing_plan_id":"cebpf4jnsgd1na2vs0mg"},{"bike_id":"a3cb0bcc-45ee-4fcb-b255-43e5e09b7dd7","system_id":"levelo_inurba_marseille","lat":43.278171,"lon":5.406988,"is_reserved":false,"is_disabled":false,"rental_uris":{"android":"levelo://app?vid=a3cb0bcc-45ee-4fcb-b255-43e5e09b7dd7","ios":"levelo://app?vid=a3cb0bcc-45ee-4fcb-b255-43e5e09b7dd7"},"vehicle_type_id":"4","last_reported":1745721415,"current_range_meters":16400,"station_id":"ce4bhnh2rcd13ifvqgtg","pricing_plan_id":"cebpf4jnsgd1na2vs0mg"},{"bike_id":"1259d0ac-3d61-4d30-b265-ca729a6366f6","system_id":"levelo_inurba_marseille","lat":43.28402,"lon":5.37531,"is_reserved":false,"is_disabled":false,"rental_uris":{"android":"levelo://app?vid=1259d0ac-3d61-4d30-b265-ca729a6366f6","ios":"levelo://app?vid=1259d0ac-3d61-4d30-b265-ca729a6366f6"},"vehicle_type_id":"4","last_reported":1745721415,"current_range_meters":16400,"station_id":"ce4bh412rcd13ifvqds0","pricing_plan_id":"cebpf4jnsgd1na2vs0mg"},{"bike_id":"8962f977-d05b-4126-9dca-069ff6c38b83","system_id":"levelo_inurba_marseille","lat":43.28459,"lon":5.35891,"is_reserved":false,"is_disabled":false,"rental_uris":{"android":"levelo://app?vid=8962f977-d05b-4126-9dca-069ff6c38b83","ios":"levelo://app?vid=8962f977-d05b-4126-9dca-069ff6c38b83"},"vehicle_type_id":"4","last_reported":1745721415,"current_range_meters":16400,"station_id":"ce4bhah2rcd13ifvqei0","pricing_plan_id":"cebpf4jnsgd1na2vs0mg"},{"bike_id":"f546c8e4-de69-45ac-a662-7fcf89ae6709","system_id":"levelo_inurba_marseille","lat":43.31124,"lon":5.3774,"is_reserved":false,"is_disabled":false,"rental_uris":{"android":"levelo://app?vid=f546c8e4-de69-45ac-a662-7fcf89ae6709","ios":"levelo://app?vid=f546c8e4-de69-45ac-a662-7fcf89ae6709"},"vehicle_type_id":"4","last_reported":1745721415,"current_range_meters":16400,"station_id":"ce4bgt92rcd13ifvqcg0","pricing_plan_id":"cebpf4jnsgd1na2vs0mg"},{"bike_id":"57ebd52c-bbc8-4a4d-8d80-2da8f6250dbd","system_id":"levelo_inurba_marseille","lat":43.27818,"lon":5.40739,"is_reserved":false,"is_disabled":true,"rental_uris":{"android":"levelo://app?vid=57ebd52c-bbc8-4a4d-8d80-2da8f6250dbd","ios":"levelo://app?vid=57ebd52c-bbc8-4a4d-8d80-2da8f6250dbd"},"vehicle_type_id":"4","last_reported":1745721415,"current_range_meters":16400,"station_id":"ce4bhnh2rcd13ifvqgtg","pricing_plan_id":"cebpf4jnsgd1na2vs0mg"},{"bike_id":"bbfbe63d-2583-4167-a100-08c737992bef","system_id":"levelo_inurba_marseille","lat":43.31402,"lon":5.36899,"is_reserved":false,"is_disabled":false,"rental_uris":{"android":"levelo://app?vid=bbfbe63d-2583-4167-a100-08c737992bef","ios":"levelo://app?vid=bbfbe63d-2583-4167-a100-08c737992bef"},"vehicle_type_id":"4","last_reported":1745721415,"current_range_meters":16400,"station_id":"","pricing_plan_id":"cebpf4jnsgd1na2vs0mg"},{"bike_id":"ab4e547d-abb4-4c6a-9258-31195eb2ff87","system_id":"levelo_inurba_marseille","lat":43.30934,"lon":5.40175,"is_reserved":false,"is_disabled":false,"rental_uris":{"android":"levelo://app?vid=ab4e547d-abb4-4c6a-9258-31195eb2ff87","ios":"levelo://app?vid=ab4e547d-abb4-4c6a-9258-31195eb2ff87"},"vehicle_type_id":"4","last_reported":1745721415,"current_range_meters":16400,"station_id":"ce4bgvp2rcd13ifvqct0","pricing_plan_id":"cebpf4jnsgd1na2vs0mg"},{"bike_id":"e2ebe0b4-27e2-4f46-bdf4-e1916df46672","system_id":"levelo_inurba_marseille","lat":43.31766,"lon":5.40611,"is_reserved":false,"is_disabled":false,"rental_uris":{"android":"levelo://app?vid=e2ebe0b4-27e2-4f46-bdf4-e1916df46672","ios":"levelo://app?vid=e2ebe0b4-27e2-4f46-bdf4-e1916df46672"},"vehicle_type_id":"4","last_reported":1745721415,"current_range_meters":16400,"station_id":"","pricing_plan_id":"cebpf4jnsgd1na2vs0mg"},{"bike_id":"a7198c19-fdc9-4a7a-95e0-a894ca54152c","system_id":"levelo_inurba_marseille","lat":43.30986,"lon":5.4171,"is_reserved":false,"is_disabled":false,"rental_uris":{"android":"levelo://app?vid=a7198c19-fdc9-4a7a-95e0-a894ca54152c","ios":"levelo://app?vid=a7198c19-fdc9-4a7a-95e0-a894ca54152c"},"vehicle_type_id":"4","last_reported":1745721415,"current_range_meters":16800,"station_id":"","pricing_plan_id":"cebpf4jnsgd1na2vs0mg"},{"bike_id":"268dd2c6-408f-4f64-b8d0-799d00701d15","system_id":"levelo_inurba_marseille","lat":43.30879,"lon":5.39642,"is_reserved":false,"is_disabled":false,"rental_uris":{"android":"levelo://app?vid=268dd2c6-408f-4f64-b8d0-799d00701d15","ios":"levelo://app?vid=268dd2c6-408f-4f64-b8d0-799d00701d15"},"vehicle_type_id":"4","last_reported":1745721415,"current_range_meters":16800,"station_id":"ce4bh012rcd13ifvqcv0","pricing_plan_id":"cebpf4jnsgd1na2vs0mg"},{"bike_id":"cf0d47bd-81d3-4c57-82db-02956e138e59","system_id":"levelo_inurba_marseille","lat":43.32334,"lon":5.38915,"is_reserved":false,"is_disabled":false,"rental_uris":{"android":"levelo://app?vid=cf0d47bd-81d3-4c57-82db-02956e138e59","ios":"levelo://app?vid=cf0d47bd-81d3-4c57-82db-02956e138e59"},"vehicle_type_id":"4","last_reported":1745721415,"current_range_meters":16800,"station_id":"ce4bhqp2rcd13ifvqhog","pricing_plan_id":"cebpf4jnsgd1na2vs0mg"},{"bike_id":"65c86752-8cfb-4ebc-bdc8-3ddd8997a6d1","system_id":"levelo_inurba_marseille","lat":43.251124,"lon":5.403196,"is_reserved":false,"is_disabled":false,"rental_uris":{"android":"levelo://app?vid=65c86752-8cfb-4ebc-bdc8-3ddd8997a6d1","ios":"levelo://app?vid=65c86752-8cfb-4ebc-bdc8-3ddd8997a6d1"},"vehicle_type_id":"4","last_reported":1745721415,"current_range_meters":16800,"station_id":"ce4bhlh2rcd13ifvqgig","pricing_plan_id":"cebpf4jnsgd1na2vs0mg"},{"bike_id":"a3f1bad3-5904-4057-b6b9-fc62eeda1372","system_id":"levelo_inurba_marseille","lat":43.28664,"lon":5.36357,"is_reserved":false,"is_disabled":false,"rental_uris":{"android":"levelo://app?vid=a3f1bad3-5904-4057-b6b9-fc62eeda1372","ios":"levelo://app?vid=a3f1bad3-5904-4057-b6b9-fc62eeda1372"},"vehicle_type_id":"4","last_reported":1745721415,"current_range_meters":16800,"station_id":"ce4bhah2rcd13ifvqej0","pricing_plan_id":"cebpf4jnsgd1na2vs0mg"},{"bike_id":"bdf479eb-96f5-4a79-9b5a-f307d98a4907","system_id":"levelo_inurba_marseille","lat":43.29436,"lon":5.3974,"is_reserved":false,"is_disabled":false,"rental_uris":{"android":"levelo://app?vid=bdf479eb-96f5-4a79-9b5a-f307d98a4907","ios":"levelo://app?vid=bdf479eb-96f5-4a79-9b5a-f307d98a4907"},"vehicle_type_id":"4","last_reported":1745721415,"current_range_meters":16800,"station_id":"ce4bh3h2rcd13ifvqdo0","pricing_plan_id":"cebpf4jnsgd1na2vs0mg"},{"bike_id":"6a699c14-7c95-4e68-88a5-1a55ef87175b","system_id":"levelo_inurba_marseille","lat":43.30249,"lon":5.4005,"is_reserved":false,"is_disabled":false,"rental_uris":{"android":"levelo://app?vid=6a699c14-7c95-4e68-88a5-1a55ef87175b","ios":"levelo://app?vid=6a699c14-7c95-4e68-88a5-1a55ef87175b"},"vehicle_type_id":"4","last_reported":1745721415,"current_range_meters":16800,"station_id":"ce4bgvh2rcd13ifvqcs0","pricing_plan_id":"cebpf4jnsgd1na2vs0mg"},{"bike_id":"edb7787a-c68b-4c3c-a204-0dcc8d513b0d","system_id":"levelo_inurba_marseille","lat":43.24661,"lon":5.3816,"is_reserved":false,"is_disabled":false,"rental_uris":{"android":"levelo://app?vid=edb7787a-c68b-4c3c-a204-0dcc8d513b0d","ios":"levelo://app?vid=edb7787a-c68b-4c3c-a204-0dcc8d513b0d"},"vehicle_type_id":"4","last_reported":1745721415,"current_range_meters":17200,"station_id":"ce4bhih2rcd13ifvqfr0","pricing_plan_id":"cebpf4jnsgd1na2vs0mg"},{"bike_id":"b673c4dd-5bdb-48a9-9acf-4d4837707a29","system_id":"levelo_inurba_marseille","lat":43.31468,"lon":5.37336,"is_reserved":false,"is_disabled":false,"rental_uris":{"android":"levelo://app?vid=b673c4dd-5bdb-48a9-9acf-4d4837707a29","ios":"levelo://app?vid=b673c4dd-5bdb-48a9-9acf-4d4837707a29"},"vehicle_type_id":"4","last_reported":1745721415,"current_range_meters":17200,"station_id":"ce4bgt12rcd13ifvqcd0","pricing_plan_id":"cebpf4jnsgd1na2vs0mg"},{"bike_id":"4cafa0fe-85f9-4638-88f8-9a185947b3b6","system_id":"levelo_inurba_marseille","lat":43.24544,"lon":5.39522,"is_reserved":false,"is_disabled":false,"rental_uris":{"android":"levelo://app?vid=4cafa0fe-85f9-4638-88f8-9a185947b3b6","ios":"levelo://app?vid=4cafa0fe-85f9-4638-88f8-9a185947b3b6"},"vehicle_type_id":"4","last_reported":1745721415,"current_range_meters":17200,"station_id":"ce4bhlp2rcd13ifvqgjg","pricing_plan_id":"cebpf4jnsgd1na2vs0mg"},{"bike_id":"0d777af5-4166-475a-a6b9-6a0197032592","system_id":"levelo_inurba_marseille","lat":43.23252,"lon":5.3524,"is_reserved":false,"is_disabled":false,"rental_uris":{"android":"levelo://app?vid=0d777af5-4166-475a-a6b9-6a0197032592","ios":"levelo://app?vid=0d777af5-4166-475a-a6b9-6a0197032592"},"vehicle_type_id":"4","last_reported":1745721415,"current_range_meters":17200,"station_id":"","pricing_plan_id":"cebpf4jnsgd1na2vs0mg"},{"bike_id":"4fbf14ff-174c-4119-a734-32c176af6ba8","system_id":"levelo_inurba_marseille","lat":43.28478,"lon":5.38555,"is_reserved":false,"is_disabled":false,"rental_uris":{"android":"levelo://app?vid=4fbf14ff-174c-4119-a734-32c176af6ba8","ios":"levelo://app?vid=4fbf14ff-174c-4119-a734-32c176af6ba8"},"vehicle_type_id":"4","last_reported":1745721415,"current_range_meters":17200,"station_id":"ce4bh8p2rcd13ifvqeb0","pricing_plan_id":"cebpf4jnsgd1na2vs0mg"},{"bike_id":"3d934169-6946-46cc-87a4-ce5d03b77075","system_id":"levelo_inurba_marseille","lat":43.21745,"lon":5.34614,"is_reserved":false,"is_disabled":false,"rental_uris":{"android":"levelo://app?vid=3d934169-6946-46cc-87a4-ce5d03b77075","ios":"levelo://app?vid=3d934169-6946-46cc-87a4-ce5d03b77075"},"vehicle_type_id":"4","last_reported":1745721415,"current_range_meters":17200,"station_id":"st_cvj6r9ubvosntc0bgbag","pricing_plan_id":"cebpf4jnsgd1na2vs0mg"},{"bike_id":"a6ef5e73-9c2a-4c3a-b853-48e28d6dc161","system_id":"levelo_inurba_marseille","lat":43.31703,"lon":5.436974,"is_reserved":false,"is_disabled":true,"rental_uris":{"android":"levelo://app?vid=a6ef5e73-9c2a-4c3a-b853-48e28d6dc161","ios":"levelo://app?vid=a6ef5e73-9c2a-4c3a-b853-48e28d6dc161"},"vehicle_type_id":"4","last_reported":1745721415,"current_range_meters":17200,"station_id":"ce4bhp92rcd13ifvqhcg","pricing_plan_id":"cebpf4jnsgd1na2vs0mg"},{"bike_id":"1fe84233-d6e6-400c-ba7e-765c53207954","system_id":"levelo_inurba_marseille","lat":43.26072,"lon":5.3943,"is_reserved":false,"is_disabled":false,"rental_uris":{"android":"levelo://app?vid=1fe84233-d6e6-400c-ba7e-765c53207954","ios":"levelo://app?vid=1fe84233-d6e6-400c-ba7e-765c53207954"},"vehicle_type_id":"4","last_reported":1745721415,"current_range_meters":17200,"station_id":"ce4bhh92rcd13ifvqfj0","pricing_plan_id":"cebpf4jnsgd1na2vs0mg"},{"bike_id":"b330c3b4-8203-49c9-a4bf-5485d09a1d2d","system_id":"levelo_inurba_marseille","lat":43.3021,"lon":5.39478,"is_reserved":false,"is_disabled":true,"rental_uris":{"android":"levelo://app?vid=b330c3b4-8203-49c9-a4bf-5485d09a1d2d","ios":"levelo://app?vid=b330c3b4-8203-49c9-a4bf-5485d09a1d2d"},"vehicle_type_id":"4","last_reported":1745721415,"current_range_meters":17200,"station_id":"ce4bh0p2rcd13ifvqd70","pricing_plan_id":"cebpf4jnsgd1na2vs0mg"},{"bike_id":"99be1414-58ff-4752-826b-d0dcc4401711","system_id":"levelo_inurba_marseille","lat":43.248088,"lon":5.374824,"is_reserved":false,"is_disabled":true,"rental_uris":{"android":"levelo://app?vid=99be1414-58ff-4752-826b-d0dcc4401711","ios":"levelo://app?vid=99be1414-58ff-4752-826b-d0dcc4401711"},"vehicle_type_id":"4","last_reported":1745721415,"current_range_meters":17200,"station_id":"ce4bhgh2rcd13ifvqfb0","pricing_plan_id":"cebpf4jnsgd1na2vs0mg"},{"bike_id":"1395a92c-16cc-43f6-88c3-2f1342e75423","system_id":"levelo_inurba_marseille","lat":43.26894,"lon":5.40262,"is_reserved":false,"is_disabled":false,"rental_uris":{"android":"levelo://app?vid=1395a92c-16cc-43f6-88c3-2f1342e75423","ios":"levelo://app?vid=1395a92c-16cc-43f6-88c3-2f1342e75423"},"vehicle_type_id":"4","last_reported":1745721415,"current_range_meters":17600,"station_id":"cjm6bp8fraef2m0cb0m0","pricing_plan_id":"cebpf4jnsgd1na2vs0mg"},{"bike_id":"5c449a82-7dfe-47e8-8bac-0b7fcee87ac1","system_id":"levelo_inurba_marseille","lat":43.29277,"lon":5.40125,"is_reserved":false,"is_disabled":false,"rental_uris":{"android":"levelo://app?vid=5c449a82-7dfe-47e8-8bac-0b7fcee87ac1","ios":"levelo://app?vid=5c449a82-7dfe-47e8-8bac-0b7fcee87ac1"},"vehicle_type_id":"4","last_reported":1745721415,"current_range_meters":17600,"station_id":"ce4bh312rcd13ifvqdk0","pricing_plan_id":"cebpf4jnsgd1na2vs0mg"},{"bike_id":"36894e47-6a3e-44a3-a461-a4c4abe0aa7d","system_id":"levelo_inurba_marseille","lat":43.33716,"lon":5.39185,"is_reserved":false,"is_disabled":false,"rental_uris":{"android":"levelo://app?vid=36894e47-6a3e-44a3-a461-a4c4abe0aa7d","ios":"levelo://app?vid=36894e47-6a3e-44a3-a461-a4c4abe0aa7d"},"vehicle_type_id":"4","last_reported":1745721415,"current_range_meters":17600,"station_id":"ce4bhr92rcd13ifvqhsg","pricing_plan_id":"cebpf4jnsgd1na2vs0mg"},{"bike_id":"389fa13e-9fb8-4551-94cc-3437e858ed36","system_id":"levelo_inurba_marseille","lat":43.241686,"lon":5.364104,"is_reserved":false,"is_disabled":false,"rental_uris":{"android":"levelo://app?vid=389fa13e-9fb8-4551-94cc-3437e858ed36","ios":"levelo://app?vid=389fa13e-9fb8-4551-94cc-3437e858ed36"},"vehicle_type_id":"4","last_reported":1745721415,"current_range_meters":17600,"station_id":"cpo36qri1sfpv3e86is0","pricing_plan_id":"cebpf4jnsgd1na2vs0mg"},{"bike_id":"c8c66532-2a3d-48eb-b64a-4db7feb05563","system_id":"levelo_inurba_marseille","lat":43.313261,"lon":5.396894,"is_reserved":false,"is_disabled":false,"rental_uris":{"android":"levelo://app?vid=c8c66532-2a3d-48eb-b64a-4db7feb05563","ios":"levelo://app?vid=c8c66532-2a3d-48eb-b64a-4db7feb05563"},"vehicle_type_id":"4","last_reported":1745721415,"current_range_meters":17600,"station_id":"ce4bgvp2rcd13ifvqcu0","pricing_plan_id":"cebpf4jnsgd1na2vs0mg"},{"bike_id":"b8b283a3-f0bb-4b6a-8588-f7b70d0c87cc","system_id":"levelo_inurba_marseille","lat":43.31519,"lon":5.3728,"is_reserved":false,"is_disabled":false,"rental_uris":{"android":"levelo://app?vid=b8b283a3-f0bb-4b6a-8588-f7b70d0c87cc","ios":"levelo://app?vid=b8b283a3-f0bb-4b6a-8588-f7b70d0c87cc"},"vehicle_type_id":"4","last_reported":1745721415,"current_range_meters":18000,"station_id":"ce4bgt12rcd13ifvqcd0","pricing_plan_id":"cebpf4jnsgd1na2vs0mg"},{"bike_id":"a95d8854-01ac-456e-90b1-05dcac86d2ec","system_id":"levelo_inurba_marseille","lat":43.2981,"lon":5.40418,"is_reserved":false,"is_disabled":false,"rental_uris":{"android":"levelo://app?vid=a95d8854-01ac-456e-90b1-05dcac86d2ec","ios":"levelo://app?vid=a95d8854-01ac-456e-90b1-05dcac86d2ec"},"vehicle_type_id":"4","last_reported":1745721415,"current_range_meters":18000,"station_id":"ce4bh112rcd13ifvqd90","pricing_plan_id":"cebpf4jnsgd1na2vs0mg"},{"bike_id":"a2157019-5dd6-4ed7-9538-28603ba5a141","system_id":"levelo_inurba_marseille","lat":43.30928,"lon":5.40139,"is_reserved":false,"is_disabled":false,"rental_uris":{"android":"levelo://app?vid=a2157019-5dd6-4ed7-9538-28603ba5a141","ios":"levelo://app?vid=a2157019-5dd6-4ed7-9538-28603ba5a141"},"vehicle_type_id":"4","last_reported":1745721415,"current_range_meters":18000,"station_id":"ce4bgvp2rcd13ifvqct0","pricing_plan_id":"cebpf4jnsgd1na2vs0mg"},{"bike_id":"39e60548-37a4-4fcf-a3ae-8e7ab84a9c0a","system_id":"levelo_inurba_marseille","lat":43.24674,"lon":5.38158,"is_reserved":false,"is_disabled":false,"rental_uris":{"android":"levelo://app?vid=39e60548-37a4-4fcf-a3ae-8e7ab84a9c0a","ios":"levelo://app?vid=39e60548-37a4-4fcf-a3ae-8e7ab84a9c0a"},"vehicle_type_id":"4","last_reported":1745721415,"current_range_meters":18000,"station_id":"ce4bhih2rcd13ifvqfr0","pricing_plan_id":"cebpf4jnsgd1na2vs0mg"},{"bike_id":"d611f28a-88fc-4696-8f1a-350a4bd9ef77","system_id":"levelo_inurba_marseille","lat":43.30931,"lon":5.40157,"is_reserved":false,"is_disabled":false,"rental_uris":{"android":"levelo://app?vid=d611f28a-88fc-4696-8f1a-350a4bd9ef77","ios":"levelo://app?vid=d611f28a-88fc-4696-8f1a-350a4bd9ef77"},"vehicle_type_id":"4","last_reported":1745721415,"current_range_meters":18000,"station_id":"ce4bgvp2rcd13ifvqct0","pricing_plan_id":"cebpf4jnsgd1na2vs0mg"},{"bike_id":"6bbd2eb5-fa3d-4f4a-97f6-fbe4ace325a7","system_id":"levelo_inurba_marseille","lat":43.26808,"lon":5.40262,"is_reserved":false,"is_disabled":false,"rental_uris":{"android":"levelo://app?vid=6bbd2eb5-fa3d-4f4a-97f6-fbe4ace325a7","ios":"levelo://app?vid=6bbd2eb5-fa3d-4f4a-97f6-fbe4ace325a7"},"vehicle_type_id":"4","last_reported":1745721415,"current_range_meters":18000,"station_id":"ce501612rcd8frsf0b60","pricing_plan_id":"cebpf4jnsgd1na2vs0mg"},{"bike_id":"6a09d70e-b0b4-4d13-8dfc-20ae4f1f4a34","system_id":"levelo_inurba_marseille","lat":43.27493,"lon":5.42479,"is_reserved":false,"is_disabled":false,"rental_uris":{"android":"levelo://app?vid=6a09d70e-b0b4-4d13-8dfc-20ae4f1f4a34","ios":"levelo://app?vid=6a09d70e-b0b4-4d13-8dfc-20ae4f1f4a34"},"vehicle_type_id":"4","last_reported":1745721415,"current_range_meters":18000,"station_id":"ce4bhn92rcd13ifvqgrg","pricing_plan_id":"cebpf4jnsgd1na2vs0mg"},{"bike_id":"5532d2b2-7eab-45de-ba17-3a077071645e","system_id":"levelo_inurba_marseille","lat":43.29879,"lon":5.39731,"is_reserved":false,"is_disabled":false,"rental_uris":{"android":"levelo://app?vid=5532d2b2-7eab-45de-ba17-3a077071645e","ios":"levelo://app?vid=5532d2b2-7eab-45de-ba17-3a077071645e"},"vehicle_type_id":"4","last_reported":1745721415,"current_range_meters":18000,"station_id":"ce4bh0h2rcd13ifvqd50","pricing_plan_id":"cebpf4jnsgd1na2vs0mg"},{"bike_id":"4046a82f-66e8-4b55-bd0a-356edea772d8","system_id":"levelo_inurba_marseille","lat":43.30566,"lon":5.38141,"is_reserved":false,"is_disabled":false,"rental_uris":{"android":"levelo://app?vid=4046a82f-66e8-4b55-bd0a-356edea772d8","ios":"levelo://app?vid=4046a82f-66e8-4b55-bd0a-356edea772d8"},"vehicle_type_id":"4","last_reported":1745721415,"current_range_meters":18800,"station_id":"","pricing_plan_id":"cebpf4jnsgd1na2vs0mg"},{"bike_id":"6ed78adf-a90b-4b8a-9e24-777004c0bdb6","system_id":"levelo_inurba_marseille","lat":43.23183,"lon":5.39969,"is_reserved":false,"is_disabled":false,"rental_uris":{"android":"levelo://app?vid=6ed78adf-a90b-4b8a-9e24-777004c0bdb6","ios":"levelo://app?vid=6ed78adf-a90b-4b8a-9e24-777004c0bdb6"},"vehicle_type_id":"4","last_reported":1745721415,"current_range_meters":18800,"station_id":"ce4bhn12rcd13ifvqgqg","pricing_plan_id":"cebpf4jnsgd1na2vs0mg"},{"bike_id":"02ba490b-c1b2-4c3d-8d40-7133faeeb47c","system_id":"levelo_inurba_marseille","lat":43.295559,"lon":5.422841,"is_reserved":false,"is_disabled":false,"rental_uris":{"android":"levelo://app?vid=02ba490b-c1b2-4c3d-8d40-7133faeeb47c","ios":"levelo://app?vid=02ba490b-c1b2-4c3d-8d40-7133faeeb47c"},"vehicle_type_id":"4","last_reported":1745721415,"current_range_meters":18800,"station_id":"ce4bhph2rcd13ifvqhdg","pricing_plan_id":"cebpf4jnsgd1na2vs0mg"},{"bike_id":"5de8e137-bb1d-4eee-9753-053c4ffede48","system_id":"levelo_inurba_marseille","lat":43.30324,"lon":5.40427,"is_reserved":false,"is_disabled":false,"rental_uris":{"android":"levelo://app?vid=5de8e137-bb1d-4eee-9753-053c4ffede48","ios":"levelo://app?vid=5de8e137-bb1d-4eee-9753-053c4ffede48"},"vehicle_type_id":"4","last_reported":1745721415,"current_range_meters":18800,"station_id":"ce4bh012rcd13ifvqd10","pricing_plan_id":"cebpf4jnsgd1na2vs0mg"},{"bike_id":"98c8bfa7-d389-457a-8c3d-dd7a86f68a55","system_id":"levelo_inurba_marseille","lat":43.29629,"lon":5.40611,"is_reserved":false,"is_disabled":false,"rental_uris":{"android":"levelo://app?vid=98c8bfa7-d389-457a-8c3d-dd7a86f68a55","ios":"levelo://app?vid=98c8bfa7-d389-457a-8c3d-dd7a86f68a55"},"vehicle_type_id":"4","last_reported":1745721415,"current_range_meters":19200,"station_id":"ce4bh0h2rcd13ifvqd60","pricing_plan_id":"cebpf4jnsgd1na2vs0mg"},{"bike_id":"6d593226-0a2e-46d4-8de3-9c8bd9d3e674","system_id":"levelo_inurba_marseille","lat":43.2978,"lon":5.38129,"is_reserved":false,"is_disabled":true,"rental_uris":{"android":"levelo://app?vid=6d593226-0a2e-46d4-8de3-9c8bd9d3e674","ios":"levelo://app?vid=6d593226-0a2e-46d4-8de3-9c8bd9d3e674"},"vehicle_type_id":"4","last_reported":1745721415,"current_range_meters":19200,"station_id":"ce4bgip2rcd13ifvqbb0","pricing_plan_id":"cebpf4jnsgd1na2vs0mg"},{"bike_id":"97f36b89-3f79-4d54-80b9-0001fe6da6bb","system_id":"levelo_inurba_marseille","lat":43.32445,"lon":5.39134,"is_reserved":false,"is_disabled":true,"rental_uris":{"android":"levelo://app?vid=97f36b89-3f79-4d54-80b9-0001fe6da6bb","ios":"levelo://app?vid=97f36b89-3f79-4d54-80b9-0001fe6da6bb"},"vehicle_type_id":"4","last_reported":1745721415,"current_range_meters":19200,"station_id":"","pricing_plan_id":"cebpf4jnsgd1na2vs0mg"},{"bike_id":"a1300fa1-43f7-47bc-be68-1621591c429e","system_id":"levelo_inurba_marseille","lat":43.250118,"lon":5.389121,"is_reserved":false,"is_disabled":true,"rental_uris":{"android":"levelo://app?vid=a1300fa1-43f7-47bc-be68-1621591c429e","ios":"levelo://app?vid=a1300fa1-43f7-47bc-be68-1621591c429e"},"vehicle_type_id":"4","last_reported":1745721415,"current_range_meters":19200,"station_id":"ce4bhgp2rcd13ifvqfd0","pricing_plan_id":"cebpf4jnsgd1na2vs0mg"},{"bike_id":"b5374913-2d8e-4340-9ef3-bca67eedae7f","system_id":"levelo_inurba_marseille","lat":43.25921,"lon":5.40891,"is_reserved":false,"is_disabled":false,"rental_uris":{"android":"levelo://app?vid=b5374913-2d8e-4340-9ef3-bca67eedae7f","ios":"levelo://app?vid=b5374913-2d8e-4340-9ef3-bca67eedae7f"},"vehicle_type_id":"4","last_reported":1745721415,"current_range_meters":19600,"station_id":"ce4bhm92rcd13ifvqglg","pricing_plan_id":"cebpf4jnsgd1na2vs0mg"},{"bike_id":"e492037e-60a9-4864-84d6-2fe9ea031f90","system_id":"levelo_inurba_marseille","lat":43.27976,"lon":5.38768,"is_reserved":false,"is_disabled":false,"rental_uris":{"android":"levelo://app?vid=e492037e-60a9-4864-84d6-2fe9ea031f90","ios":"levelo://app?vid=e492037e-60a9-4864-84d6-2fe9ea031f90"},"vehicle_type_id":"4","last_reported":1745721415,"current_range_meters":19600,"station_id":"ce4bhg12rcd13ifvqf80","pricing_plan_id":"cebpf4jnsgd1na2vs0mg"},{"bike_id":"3e0c5218-ad89-4244-bd59-34472db353ef","system_id":"levelo_inurba_marseille","lat":43.28663,"lon":5.36353,"is_reserved":false,"is_disabled":false,"rental_uris":{"android":"levelo://app?vid=3e0c5218-ad89-4244-bd59-34472db353ef","ios":"levelo://app?vid=3e0c5218-ad89-4244-bd59-34472db353ef"},"vehicle_type_id":"4","last_reported":1745721415,"current_range_meters":19600,"station_id":"ce4bhah2rcd13ifvqej0","pricing_plan_id":"cebpf4jnsgd1na2vs0mg"},{"bike_id":"78cb7f0e-bdd1-4934-9dc6-fe66b1ce023c","system_id":"levelo_inurba_marseille","lat":43.262227,"lon":5.4045,"is_reserved":false,"is_disabled":false,"rental_uris":{"android":"levelo://app?vid=78cb7f0e-bdd1-4934-9dc6-fe66b1ce023c","ios":"levelo://app?vid=78cb7f0e-bdd1-4934-9dc6-fe66b1ce023c"},"vehicle_type_id":"4","last_reported":1745721415,"current_range_meters":19600,"station_id":"ce4bhmh2rcd13ifvqgmg","pricing_plan_id":"cebpf4jnsgd1na2vs0mg"},{"bike_id":"97fd7a4c-36e8-401d-b12d-1b4015a01ebe","system_id":"levelo_inurba_marseille","lat":43.26561,"lon":5.42095,"is_reserved":false,"is_disabled":false,"rental_uris":{"android":"levelo://app?vid=97fd7a4c-36e8-401d-b12d-1b4015a01ebe","ios":"levelo://app?vid=97fd7a4c-36e8-401d-b12d-1b4015a01ebe"},"vehicle_type_id":"4","last_reported":1745721415,"current_range_meters":19600,"station_id":"","pricing_plan_id":"cebpf4jnsgd1na2vs0mg"},{"bike_id":"d8e186e0-8d9f-4c16-bb12-3c50f63fd666","system_id":"levelo_inurba_marseille","lat":43.27492,"lon":5.42456,"is_reserved":false,"is_disabled":false,"rental_uris":{"android":"levelo://app?vid=d8e186e0-8d9f-4c16-bb12-3c50f63fd666","ios":"levelo://app?vid=d8e186e0-8d9f-4c16-bb12-3c50f63fd666"},"vehicle_type_id":"4","last_reported":1745721415,"current_range_meters":19600,"station_id":"ce4bhn92rcd13ifvqgrg","pricing_plan_id":"cebpf4jnsgd1na2vs0mg"},{"bike_id":"b532cbc6-d603-4b6c-8eb1-6da63ec873ab","system_id":"levelo_inurba_marseille","lat":43.270594,"lon":5.402504,"is_reserved":false,"is_disabled":false,"rental_uris":{"android":"levelo://app?vid=b532cbc6-d603-4b6c-8eb1-6da63ec873ab","ios":"levelo://app?vid=b532cbc6-d603-4b6c-8eb1-6da63ec873ab"},"vehicle_type_id":"4","last_reported":1745721415,"current_range_meters":19600,"station_id":"ce4bhk92rcd13ifvqgc0","pricing_plan_id":"cebpf4jnsgd1na2vs0mg"},{"bike_id":"2bd0f814-6d80-4a31-b310-ad829281cc90","system_id":"levelo_inurba_marseille","lat":43.22509,"lon":5.34778,"is_reserved":false,"is_disabled":false,"rental_uris":{"android":"levelo://app?vid=2bd0f814-6d80-4a31-b310-ad829281cc90","ios":"levelo://app?vid=2bd0f814-6d80-4a31-b310-ad829281cc90"},"vehicle_type_id":"4","last_reported":1745721415,"current_range_meters":20000,"station_id":"st_cvj5dfep6f1abm77gieg","pricing_plan_id":"cebpf4jnsgd1na2vs0mg"},{"bike_id":"89fa9ebf-c855-4df0-9b21-5c145a393657","system_id":"levelo_inurba_marseille","lat":43.3111,"lon":5.37772,"is_reserved":false,"is_disabled":false,"rental_uris":{"android":"levelo://app?vid=89fa9ebf-c855-4df0-9b21-5c145a393657","ios":"levelo://app?vid=89fa9ebf-c855-4df0-9b21-5c145a393657"},"vehicle_type_id":"4","last_reported":1745721415,"current_range_meters":20000,"station_id":"ce4bgt92rcd13ifvqcg0","pricing_plan_id":"cebpf4jnsgd1na2vs0mg"},{"bike_id":"586ad13c-53a6-4799-8583-2ba9ce1a1095","system_id":"levelo_inurba_marseille","lat":43.309864,"lon":5.41721,"is_reserved":false,"is_disabled":false,"rental_uris":{"android":"levelo://app?vid=586ad13c-53a6-4799-8583-2ba9ce1a1095","ios":"levelo://app?vid=586ad13c-53a6-4799-8583-2ba9ce1a1095"},"vehicle_type_id":"4","last_reported":1745721415,"current_range_meters":20000,"station_id":"","pricing_plan_id":"cebpf4jnsgd1na2vs0mg"},{"bike_id":"4860624f-4798-4cbd-947e-d1769e6b1e2e","system_id":"levelo_inurba_marseille","lat":43.29869,"lon":5.39736,"is_reserved":false,"is_disabled":false,"rental_uris":{"android":"levelo://app?vid=4860624f-4798-4cbd-947e-d1769e6b1e2e","ios":"levelo://app?vid=4860624f-4798-4cbd-947e-d1769e6b1e2e"},"vehicle_type_id":"4","last_reported":1745721415,"current_range_meters":20000,"station_id":"ce4bh0h2rcd13ifvqd50","pricing_plan_id":"cebpf4jnsgd1na2vs0mg"},{"bike_id":"5e29bb99-7a29-4bbf-a514-99195c8fa20f","system_id":"levelo_inurba_marseille","lat":43.29901,"lon":5.43676,"is_reserved":false,"is_disabled":false,"rental_uris":{"android":"levelo://app?vid=5e29bb99-7a29-4bbf-a514-99195c8fa20f","ios":"levelo://app?vid=5e29bb99-7a29-4bbf-a514-99195c8fa20f"},"vehicle_type_id":"4","last_reported":1745721415,"current_range_meters":20000,"station_id":"ce4bhpp2rcd13ifvqhfg","pricing_plan_id":"cebpf4jnsgd1na2vs0mg"},{"bike_id":"181ed326-b471-49b5-9f00-acd48cb5b299","system_id":"levelo_inurba_marseille","lat":43.28277,"lon":5.35087,"is_reserved":false,"is_disabled":true,"rental_uris":{"android":"levelo://app?vid=181ed326-b471-49b5-9f00-acd48cb5b299","ios":"levelo://app?vid=181ed326-b471-49b5-9f00-acd48cb5b299"},"vehicle_type_id":"4","last_reported":1745721415,"current_range_meters":20000,"station_id":"ce4bhbp2rcd13ifvqerg","pricing_plan_id":"cebpf4jnsgd1na2vs0mg"},{"bike_id":"6a0d76ed-a50b-40df-a903-31c41e5bb65c","system_id":"levelo_inurba_marseille","lat":43.31995,"lon":5.38172,"is_reserved":false,"is_disabled":false,"rental_uris":{"android":"levelo://app?vid=6a0d76ed-a50b-40df-a903-31c41e5bb65c","ios":"levelo://app?vid=6a0d76ed-a50b-40df-a903-31c41e5bb65c"},"vehicle_type_id":"4","last_reported":1745721415,"current_range_meters":20000,"station_id":"ce4bhr12rcd13ifvqhpg","pricing_plan_id":"cebpf4jnsgd1na2vs0mg"},{"bike_id":"18453f94-daca-4a77-9ae6-b4980884ba8b","system_id":"levelo_inurba_marseille","lat":43.30927,"lon":5.40142,"is_reserved":false,"is_disabled":false,"rental_uris":{"android":"levelo://app?vid=18453f94-daca-4a77-9ae6-b4980884ba8b","ios":"levelo://app?vid=18453f94-daca-4a77-9ae6-b4980884ba8b"},"vehicle_type_id":"4","last_reported":1745721415,"current_range_meters":20000,"station_id":"ce4bgvp2rcd13ifvqct0","pricing_plan_id":"cebpf4jnsgd1na2vs0mg"},{"bike_id":"a41c67de-46c6-41c8-9b96-d6f14df0c30a","system_id":"levelo_inurba_marseille","lat":43.26494,"lon":5.39549,"is_reserved":false,"is_disabled":false,"rental_uris":{"android":"levelo://app?vid=a41c67de-46c6-41c8-9b96-d6f14df0c30a","ios":"levelo://app?vid=a41c67de-46c6-41c8-9b96-d6f14df0c30a"},"vehicle_type_id":"4","last_reported":1745721415,"current_range_meters":20400,"station_id":"ce4bhi12rcd13ifvqfq0","pricing_plan_id":"cebpf4jnsgd1na2vs0mg"},{"bike_id":"958aead2-341b-497f-b287-6fa68d17f30a","system_id":"levelo_inurba_marseille","lat":43.2929,"lon":5.4012,"is_reserved":false,"is_disabled":false,"rental_uris":{"android":"levelo://app?vid=958aead2-341b-497f-b287-6fa68d17f30a","ios":"levelo://app?vid=958aead2-341b-497f-b287-6fa68d17f30a"},"vehicle_type_id":"4","last_reported":1745721415,"current_range_meters":20400,"station_id":"ce4bh312rcd13ifvqdk0","pricing_plan_id":"cebpf4jnsgd1na2vs0mg"},{"bike_id":"4508fac8-20ad-40ae-8ce9-c4bc893ea97b","system_id":"levelo_inurba_marseille","lat":43.27063,"lon":5.42315,"is_reserved":false,"is_disabled":false,"rental_uris":{"android":"levelo://app?vid=4508fac8-20ad-40ae-8ce9-c4bc893ea97b","ios":"levelo://app?vid=4508fac8-20ad-40ae-8ce9-c4bc893ea97b"},"vehicle_type_id":"4","last_reported":1745721415,"current_range_meters":20400,"station_id":"ce4bhk92rcd13ifvqgb0","pricing_plan_id":"cebpf4jnsgd1na2vs0mg"},{"bike_id":"6d9e6bcd-d12c-4436-9898-cbe3ca658211","system_id":"levelo_inurba_marseille","lat":43.22488,"lon":5.34776,"is_reserved":false,"is_disabled":false,"rental_uris":{"android":"levelo://app?vid=6d9e6bcd-d12c-4436-9898-cbe3ca658211","ios":"levelo://app?vid=6d9e6bcd-d12c-4436-9898-cbe3ca658211"},"vehicle_type_id":"4","last_reported":1745721415,"current_range_meters":20400,"station_id":"st_cvj5dfep6f1abm77gieg","pricing_plan_id":"cebpf4jnsgd1na2vs0mg"},{"bike_id":"8f0e61c2-977f-4aee-ae3e-ba3de095c8e4","system_id":"levelo_inurba_marseille","lat":43.231511,"lon":5.437134,"is_reserved":false,"is_disabled":false,"rental_uris":{"android":"levelo://app?vid=8f0e61c2-977f-4aee-ae3e-ba3de095c8e4","ios":"levelo://app?vid=8f0e61c2-977f-4aee-ae3e-ba3de095c8e4"},"vehicle_type_id":"4","last_reported":1745721415,"current_range_meters":20400,"station_id":"ce4bhmp2rcd13ifvqgog","pricing_plan_id":"cebpf4jnsgd1na2vs0mg"},{"bike_id":"c8097efb-13bc-42eb-af8d-71a384717fa6","system_id":"levelo_inurba_marseille","lat":43.26816,"lon":5.40247,"is_reserved":false,"is_disabled":false,"rental_uris":{"android":"levelo://app?vid=c8097efb-13bc-42eb-af8d-71a384717fa6","ios":"levelo://app?vid=c8097efb-13bc-42eb-af8d-71a384717fa6"},"vehicle_type_id":"4","last_reported":1745721415,"current_range_meters":20400,"station_id":"ce501612rcd8frsf0b60","pricing_plan_id":"cebpf4jnsgd1na2vs0mg"},{"bike_id":"14199087-a4f3-4749-996a-e89402759c06","system_id":"levelo_inurba_marseille","lat":43.26052,"lon":5.39403,"is_reserved":false,"is_disabled":false,"rental_uris":{"android":"levelo://app?vid=14199087-a4f3-4749-996a-e89402759c06","ios":"levelo://app?vid=14199087-a4f3-4749-996a-e89402759c06"},"vehicle_type_id":"4","last_reported":1745721415,"current_range_meters":20400,"station_id":"ce4bhh92rcd13ifvqfj0","pricing_plan_id":"cebpf4jnsgd1na2vs0mg"},{"bike_id":"0be3e0e7-687d-4857-9b13-2fe0c4be5ba3","system_id":"levelo_inurba_marseille","lat":43.2808,"lon":5.39658,"is_reserved":false,"is_disabled":false,"rental_uris":{"android":"levelo://app?vid=0be3e0e7-687d-4857-9b13-2fe0c4be5ba3","ios":"levelo://app?vid=0be3e0e7-687d-4857-9b13-2fe0c4be5ba3"},"vehicle_type_id":"4","last_reported":1745721415,"current_range_meters":20400,"station_id":"ce4bho12rcd13ifvqh2g","pricing_plan_id":"cebpf4jnsgd1na2vs0mg"},{"bike_id":"bec1e472-63aa-481e-bbc8-305365b19ca4","system_id":"levelo_inurba_marseille","lat":43.279712,"lon":5.387407,"is_reserved":false,"is_disabled":false,"rental_uris":{"android":"levelo://app?vid=bec1e472-63aa-481e-bbc8-305365b19ca4","ios":"levelo://app?vid=bec1e472-63aa-481e-bbc8-305365b19ca4"},"vehicle_type_id":"4","last_reported":1745721415,"current_range_meters":20800,"station_id":"ce4bhg12rcd13ifvqf80","pricing_plan_id":"cebpf4jnsgd1na2vs0mg"},{"bike_id":"aa5216a6-3366-4233-bba1-547280670435","system_id":"levelo_inurba_marseille","lat":43.29802,"lon":5.40406,"is_reserved":false,"is_disabled":false,"rental_uris":{"android":"levelo://app?vid=aa5216a6-3366-4233-bba1-547280670435","ios":"levelo://app?vid=aa5216a6-3366-4233-bba1-547280670435"},"vehicle_type_id":"4","last_reported":1745721415,"current_range_meters":20800,"station_id":"ce4bh112rcd13ifvqd90","pricing_plan_id":"cebpf4jnsgd1na2vs0mg"},{"bike_id":"9275afeb-620b-4a3c-83d1-31bc14709d93","system_id":"levelo_inurba_marseille","lat":43.28848,"lon":5.35856,"is_reserved":false,"is_disabled":true,"rental_uris":{"android":"levelo://app?vid=9275afeb-620b-4a3c-83d1-31bc14709d93","ios":"levelo://app?vid=9275afeb-620b-4a3c-83d1-31bc14709d93"},"vehicle_type_id":"4","last_reported":1745721415,"current_range_meters":20800,"station_id":"ce4bhb12rcd13ifvqem0","pricing_plan_id":"cebpf4jnsgd1na2vs0mg"},{"bike_id":"a5113190-8aa4-4e01-8e98-56dac68a5439","system_id":"levelo_inurba_marseille","lat":43.26949,"lon":5.38656,"is_reserved":false,"is_disabled":false,"rental_uris":{"android":"levelo://app?vid=a5113190-8aa4-4e01-8e98-56dac68a5439","ios":"levelo://app?vid=a5113190-8aa4-4e01-8e98-56dac68a5439"},"vehicle_type_id":"4","last_reported":1745721415,"current_range_meters":20800,"station_id":"ce4bhh92rcd13ifvqfh0","pricing_plan_id":"cebpf4jnsgd1na2vs0mg"},{"bike_id":"c44eb229-a1f6-478f-a2aa-0e5b2510cf33","system_id":"levelo_inurba_marseille","lat":43.265636,"lon":5.389963,"is_reserved":false,"is_disabled":false,"rental_uris":{"android":"levelo://app?vid=c44eb229-a1f6-478f-a2aa-0e5b2510cf33","ios":"levelo://app?vid=c44eb229-a1f6-478f-a2aa-0e5b2510cf33"},"vehicle_type_id":"4","last_reported":1745721415,"current_range_meters":20800,"station_id":"ce4bhe12rcd13ifvqf30","pricing_plan_id":"cebpf4jnsgd1na2vs0mg"},{"bike_id":"5ef04bbc-22dd-4338-9a50-0c7bbeda8541","system_id":"levelo_inurba_marseille","lat":43.21186,"lon":5.35102,"is_reserved":false,"is_disabled":false,"rental_uris":{"android":"levelo://app?vid=5ef04bbc-22dd-4338-9a50-0c7bbeda8541","ios":"levelo://app?vid=5ef04bbc-22dd-4338-9a50-0c7bbeda8541"},"vehicle_type_id":"4","last_reported":1745721415,"current_range_meters":20800,"station_id":"","pricing_plan_id":"cebpf4jnsgd1na2vs0mg"},{"bike_id":"ef63c742-fc0c-4d22-8b3f-9076d7e05085","system_id":"levelo_inurba_marseille","lat":43.30883,"lon":5.37191,"is_reserved":false,"is_disabled":false,"rental_uris":{"android":"levelo://app?vid=ef63c742-fc0c-4d22-8b3f-9076d7e05085","ios":"levelo://app?vid=ef63c742-fc0c-4d22-8b3f-9076d7e05085"},"vehicle_type_id":"4","last_reported":1745721415,"current_range_meters":20800,"station_id":"ce4bguh2rcd13ifvqckg","pricing_plan_id":"cebpf4jnsgd1na2vs0mg"},{"bike_id":"c5251972-d279-4ec2-bcf1-956c2d9d91f3","system_id":"levelo_inurba_marseille","lat":43.22443,"lon":5.34808,"is_reserved":false,"is_disabled":false,"rental_uris":{"android":"levelo://app?vid=c5251972-d279-4ec2-bcf1-956c2d9d91f3","ios":"levelo://app?vid=c5251972-d279-4ec2-bcf1-956c2d9d91f3"},"vehicle_type_id":"4","last_reported":1745721415,"current_range_meters":20800,"station_id":"","pricing_plan_id":"cebpf4jnsgd1na2vs0mg"},{"bike_id":"988d3e51-0f81-4d05-9256-41d5bf2a54ae","system_id":"levelo_inurba_marseille","lat":43.29702,"lon":5.36609,"is_reserved":false,"is_disabled":true,"rental_uris":{"android":"levelo://app?vid=988d3e51-0f81-4d05-9256-41d5bf2a54ae","ios":"levelo://app?vid=988d3e51-0f81-4d05-9256-41d5bf2a54ae"},"vehicle_type_id":"4","last_reported":1745721415,"current_range_meters":20800,"station_id":"ce4bgn12rcd13ifvqbt0","pricing_plan_id":"cebpf4jnsgd1na2vs0mg"},{"bike_id":"929ede0a-bede-4f2c-98c5-5586d05b6a66","system_id":"levelo_inurba_marseille","lat":43.217513,"lon":5.345995,"is_reserved":false,"is_disabled":false,"rental_uris":{"android":"levelo://app?vid=929ede0a-bede-4f2c-98c5-5586d05b6a66","ios":"levelo://app?vid=929ede0a-bede-4f2c-98c5-5586d05b6a66"},"vehicle_type_id":"4","last_reported":1745721415,"current_range_meters":21600,"station_id":"st_cvj6r9ubvosntc0bgbag","pricing_plan_id":"cebpf4jnsgd1na2vs0mg"},{"bike_id":"3f594d7c-abb9-4381-87f9-e3bcb3849d6a","system_id":"levelo_inurba_marseille","lat":43.29254,"lon":5.40914,"is_reserved":false,"is_disabled":false,"rental_uris":{"android":"levelo://app?vid=3f594d7c-abb9-4381-87f9-e3bcb3849d6a","ios":"levelo://app?vid=3f594d7c-abb9-4381-87f9-e3bcb3849d6a"},"vehicle_type_id":"4","last_reported":1745721415,"current_range_meters":21600,"station_id":"ce4bh192rcd13ifvqdc0","pricing_plan_id":"cebpf4jnsgd1na2vs0mg"},{"bike_id":"f531439d-c805-4d54-93e8-b48408165abf","system_id":"levelo_inurba_marseille","lat":43.27472,"lon":5.42466,"is_reserved":false,"is_disabled":false,"rental_uris":{"android":"levelo://app?vid=f531439d-c805-4d54-93e8-b48408165abf","ios":"levelo://app?vid=f531439d-c805-4d54-93e8-b48408165abf"},"vehicle_type_id":"4","last_reported":1745721415,"current_range_meters":21600,"station_id":"ce4bhn92rcd13ifvqgrg","pricing_plan_id":"cebpf4jnsgd1na2vs0mg"},{"bike_id":"94c7b3ad-c424-427c-abb2-5981aea66c18","system_id":"levelo_inurba_marseille","lat":43.29246,"lon":5.40904,"is_reserved":false,"is_disabled":false,"rental_uris":{"android":"levelo://app?vid=94c7b3ad-c424-427c-abb2-5981aea66c18","ios":"levelo://app?vid=94c7b3ad-c424-427c-abb2-5981aea66c18"},"vehicle_type_id":"4","last_reported":1745721415,"current_range_meters":21600,"station_id":"ce4bh192rcd13ifvqdc0","pricing_plan_id":"cebpf4jnsgd1na2vs0mg"},{"bike_id":"e28a3c40-459a-4957-a364-87a53a1ddb3a","system_id":"levelo_inurba_marseille","lat":43.2706,"lon":5.40267,"is_reserved":false,"is_disabled":false,"rental_uris":{"android":"levelo://app?vid=e28a3c40-459a-4957-a364-87a53a1ddb3a","ios":"levelo://app?vid=e28a3c40-459a-4957-a364-87a53a1ddb3a"},"vehicle_type_id":"4","last_reported":1745721415,"current_range_meters":22000,"station_id":"ce4bhk92rcd13ifvqgc0","pricing_plan_id":"cebpf4jnsgd1na2vs0mg"},{"bike_id":"188f96b2-7316-44a2-875d-4f24a3722e03","system_id":"levelo_inurba_marseille","lat":43.2977,"lon":5.37108,"is_reserved":false,"is_disabled":false,"rental_uris":{"android":"levelo://app?vid=188f96b2-7316-44a2-875d-4f24a3722e03","ios":"levelo://app?vid=188f96b2-7316-44a2-875d-4f24a3722e03"},"vehicle_type_id":"4","last_reported":1745721415,"current_range_meters":22000,"station_id":"ce4bgop2rcd13ifvqc1g","pricing_plan_id":"cebpf4jnsgd1na2vs0mg"},{"bike_id":"d62f8bfd-fabd-474f-8696-197a0baedbb2","system_id":"levelo_inurba_marseille","lat":43.251038,"lon":5.403209,"is_reserved":false,"is_disabled":false,"rental_uris":{"android":"levelo://app?vid=d62f8bfd-fabd-474f-8696-197a0baedbb2","ios":"levelo://app?vid=d62f8bfd-fabd-474f-8696-197a0baedbb2"},"vehicle_type_id":"4","last_reported":1745721415,"current_range_meters":22000,"station_id":"ce4bh412rcd13ifvqdr0","pricing_plan_id":"cebpf4jnsgd1na2vs0mg"},{"bike_id":"3637add4-daff-4870-a1b7-9df1ab35d22e","system_id":"levelo_inurba_marseille","lat":43.31532,"lon":5.38035,"is_reserved":false,"is_disabled":false,"rental_uris":{"android":"levelo://app?vid=3637add4-daff-4870-a1b7-9df1ab35d22e","ios":"levelo://app?vid=3637add4-daff-4870-a1b7-9df1ab35d22e"},"vehicle_type_id":"4","last_reported":1745721415,"current_range_meters":22000,"station_id":"ce4bhsp2rcd13ifvqi50","pricing_plan_id":"cebpf4jnsgd1na2vs0mg"},{"bike_id":"09726f98-2857-4622-b5e9-85c84dadcf18","system_id":"levelo_inurba_marseille","lat":43.30267,"lon":5.40053,"is_reserved":false,"is_disabled":false,"rental_uris":{"android":"levelo://app?vid=09726f98-2857-4622-b5e9-85c84dadcf18","ios":"levelo://app?vid=09726f98-2857-4622-b5e9-85c84dadcf18"},"vehicle_type_id":"4","last_reported":1745721415,"current_range_meters":22000,"station_id":"ce4bgvh2rcd13ifvqcs0","pricing_plan_id":"cebpf4jnsgd1na2vs0mg"},{"bike_id":"b45721df-1911-4bd0-96bb-0c84adb69cfd","system_id":"levelo_inurba_marseille","lat":43.23956,"lon":5.36635,"is_reserved":false,"is_disabled":false,"rental_uris":{"android":"levelo://app?vid=b45721df-1911-4bd0-96bb-0c84adb69cfd","ios":"levelo://app?vid=b45721df-1911-4bd0-96bb-0c84adb69cfd"},"vehicle_type_id":"4","last_reported":1745721415,"current_range_meters":22000,"station_id":"ce4bhi12rcd13ifvqfp0","pricing_plan_id":"cebpf4jnsgd1na2vs0mg"},