{"last_updated":1728972802,"ttl":60,"version":"2.2","data":{"bikes":[{"bike_id":"e2844175-56a2-4507-b65a-291c159f6e9a","system_id":"levelo_inurba_marseille","lat":43.29815,"lon":5.38096,"is_reserved":false,"is_disabled":false,"rental_uris":{"android":"levelo://app?vid=e2844175-56a2-4507-b65a-291c159f6e9a","ios":"levelo://app?vid=e2844175-56a2-4507-b65a-291c159f6e9a"},"vehicle_type_id":"4","last_reported":1728972802,"current_range_meters":37600,"station_id":"ce4bgip2rcd13ifvqbb0","pricing_plan_id":"cebpf4jnsgd1na2vs0mg"},{"bike_id":"40c10b6d-1c9f-432d-a8b1-15e5bc36d532","system_id":"levelo_inurba_marseille","lat":43.28354,"lon":5.38101,"is_reserved":false,"is_disabled":false,"rental_uris":{"android":"levelo://app?vid=40c10b6d-1c9f-432d-a8b1-15e5bc36d532","ios":"levelo://app?vid=40c10b6d-1c9f-432d-a8b1-15e5bc36d532"},"vehicle_type_id":"4","last_reported":1728972802,"current_range_meters":34800,"station_id":"ce4bh412rcd13ifvqdr0","pricing_plan_id":"cebpf4jnsgd1na2vs0mg"},{"bike_id":"eeeada4b-b2b6-46e0-82a8-1b7396c901ba","system_id":"levelo_inurba_marseille","lat":43.29191,"lon":5.35809,"is_reserved":false,"is_disabled":false,"rental_uris":{"android":"levelo://app?vid=eeeada4b-b2b6-46e0-82a8-1b7396c901ba","ios":"levelo://app?vid=eeeada4b-b2b6-46e0-82a8-1b7396c901ba"},"vehicle_type_id":"4","last_reported":1728972802,"current_range_meters":35200,"station_id":"ce4bhb12rcd13ifvqel0","pricing_plan_id":"cebpf4jnsgd1na2vs0mg"},{"bike_id":"ac788206-ab8f-4ef0-a827-047740674c33","system_id":"levelo_inurba_marseille","lat":43.30786,"lon":5.37944,"is_reserved":false,"is_disabled":false,"rental_uris":{"android":"levelo://app?vid=ac788206-ab8f-4ef0-a827-047740674c33","ios":"levelo://app?vid=ac788206-ab8f-4ef0-a827-047740674c33"},"vehicle_type_id":"4","last_reported":1728972802,"current_range_meters":20800,"station_id":"","pricing_plan_id":"cebpf4jnsgd1na2vs0mg"},{"bike_id":"0b202908-bde3-48de-9c8a-4b68063a4c5c","system_id":"levelo_inurba_marseille","lat":43.30143,"lon":5.38084,"is_reserved":false,"is_disabled":false,"rental_uris":{"android":"levelo://app?vid=0b202908-bde3-48de-9c8a-4b68063a4c5c","ios":"levelo://app?vid=0b202908-bde3-48de-9c8a-4b68063a4c5c"},"vehicle_type_id":"4","last_reported":1728972802,"current_range_meters":36800,"station_id":"ce4bgjp2rcd13ifvqbh0","pricing_plan_id":"cebpf4jnsgd1na2vs0mg"},{"bike_id":"d48b7c00-b1ed-4c03-8b3f-2a08c1d1b824","system_id":"levelo_inurba_marseille","lat":43.28224,"lon":5.36165,"is_reserved":false,"is_disabled":false,"rental_uris":{"android":"levelo://app?vid=d48b7c00-b1ed-4c03-8b3f-2a08c1d1b824","ios":"levelo://app?vid=d48b7c00-b1ed-4c03-8b3f-2a08c1d1b824"},"vehicle_type_id":"4","last_reported":1728972802,"current_range_meters":31200,"station_id":"ce4bhh92rcd13ifvqfh0","pricing_plan_id":"cebpf4jnsgd1na2vs0mg"},{"bike_id":"43f6c215-c958-4e4e-8d9c-ed0ba01c0efc","system_id":"levelo_inurba_marseille","lat":43.26802,"lon":5.40269,"is_reserved":false,"is_disabled":false,"rental_uris":{"android":"levelo://app?vid=43f6c215-c958-4e4e-8d9c-ed0ba01c0efc","ios":"levelo://app?vid=43f6c215-c958-4e4e-8d9c-ed0ba01c0efc"},"vehicle_type_id":"4","last_reported":1728972802,"current_range_meters":38000,"station_id":"ce501612rcd8frsf0b60","pricing_plan_id":"cebpf4jnsgd1na2vs0mg"},{"bike_id":"868e7c03-3666-448f-b153-2062c5d93461","system_id":"levelo_inurba_marseille","lat":43.31488,"lon":5.372549,"is_reserved":false,"is_disabled":false,"rental_uris":{"android":"levelo://app?vid=868e7c03-3666-448f-b153-2062c5d93461","ios":"levelo://app?vid=868e7c03-3666-448f-b153-2062c5d93461"},"vehicle_type_id":"4","last_reported":1728972802,"current_range_meters":32800,"station_id":"ce4bgt12rcd13ifvqcd0","pricing_plan_id":"cebpf4jnsgd1na2vs0mg"},{"bike_id":"d2cefb07-6d68-492c-bb72-844f5a3f9264","system_id":"levelo_inurba_marseille","lat":43.26558,"lon":5.37283,"is_reserved":false,"is_disabled":false,"rental_uris":{"android":"levelo://app?vid=d2cefb07-6d68-492c-bb72-844f5a3f9264","ios":"levelo://app?vid=d2cefb07-6d68-492c-bb72-844f5a3f9264"},"vehicle_type_id":"4","last_reported":1728972802,"current_range_meters":23200,"station_id":"ce4bhg12rcd13ifvqf70","pricing_plan_id":"cebpf4jnsgd1na2vs0mg"},{"bike_id":"48ce605d-1e07-4b01-b69f-0a4259aa341a","system_id":"levelo_inurba_marseille","lat":43.28722,"lon":5.3794,"is_reserved":false,"is_disabled":false,"rental_uris":{"android":"levelo://app?vid=48ce605d-1e07-4b01-b69f-0a4259aa341a","ios":"levelo://app?vid=48ce605d-1e07-4b01-b69f-0a4259aa341a"},"vehicle_type_id":"4","last_reported":1728972802,"current_range_meters":29600,"station_id":"ce4bh9p2rcd13ifvqec0","pricing_plan_id":"cebpf4jnsgd1na2vs0mg"},{"bike_id":"cd05a1e0-9758-49a6-84a9-17cb662eb948","system_id":"levelo_inurba_marseille","lat":43.30459,"lon":5.37906,"is_reserved":false,"is_disabled":false,"rental_uris":{"android":"levelo://app?vid=cd05a1e0-9758-49a6-84a9-17cb662eb948","ios":"levelo://app?vid=cd05a1e0-9758-49a6-84a9-17cb662eb948"},"vehicle_type_id":"4","last_reported":1728972802,"current_range_meters":30000,"station_id":"ce4bgup2rcd13ifvqcn0","pricing_plan_id":"cebpf4jnsgd1na2vs0mg"},{"bike_id":"4886f925-479d-4f90-aa30-64c4e1437b2a","system_id":"levelo_inurba_marseille","lat":43.30466,"lon":5.37904,"is_reserved":false,"is_disabled":false,"rental_uris":{"android":"levelo://app?vid=4886f925-479d-4f90-aa30-64c4e1437b2a","ios":"levelo://app?vid=4886f925-479d-4f90-aa30-64c4e1437b2a"},"vehicle_type_id":"4","last_reported":1728972802,"current_range_meters":32000,"station_id":"ce4bgup2rcd13ifvqcn0","pricing_plan_id":"cebpf4jnsgd1na2vs0mg"},{"bike_id":"c91e17ac-257d-4201-a7ec-aa09167a63ee","system_id":"levelo_inurba_marseille","lat":43.29275,"lon":5.36851,"is_reserved":false,"is_disabled":false,"rental_uris":{"android":"levelo://app?vid=c91e17ac-257d-4201-a7ec-aa09167a63ee","ios":"levelo://app?vid=c91e17ac-257d-4201-a7ec-aa09167a63ee"},"vehicle_type_id":"4","last_reported":1728972802,"current_range_meters":38800,"station_id":"ce4bhbp2rcd13ifvqesg","pricing_plan_id":"cebpf4jnsgd1na2vs0mg"},{"bike_id":"4df782f4-21ae-4a74-ba00-d8d268e00885","system_id":"levelo_inurba_marseille","lat":43.2979,"lon":5.38089,"is_reserved":false,"is_disabled":false,"rental_uris":{"android":"levelo://app?vid=4df782f4-21ae-4a74-ba00-d8d268e00885","ios":"levelo://app?vid=4df782f4-21ae-4a74-ba00-d8d268e00885"},"vehicle_type_id":"4","last_reported":1728972802,"current_range_meters":28800,"station_id":"ce4bgip2rcd13ifvqbb0","pricing_plan_id":"cebpf4jnsgd1na2vs0mg"},{"bike_id":"03279473-a561-4aba-a3af-802f60a77353","system_id":"levelo_inurba_marseille","lat":43.325439,"lon":5.414562,"is_reserved":false,"is_disabled":false,"rental_uris":{"android":"levelo://app?vid=03279473-a561-4aba-a3af-802f60a77353","ios":"levelo://app?vid=03279473-a561-4aba-a3af-802f60a77353"},"vehicle_type_id":"4","last_reported":1728972802,"current_range_meters":38800,"station_id":"ce4bhq12rcd13ifvqhhg","pricing_plan_id":"cebpf4jnsgd1na2vs0mg"},{"bike_id":"f3a2d775-4a0f-45be-929d-536940fa460a","system_id":"levelo_inurba_marseille","lat":43.33613,"lon":5.41031,"is_reserved":false,"is_disabled":false,"rental_uris":{"android":"levelo://app?vid=f3a2d775-4a0f-45be-929d-536940fa460a","ios":"levelo://app?vid=f3a2d775-4a0f-45be-929d-536940fa460a"},"vehicle_type_id":"4","last_reported":1728972802,"current_range_meters":18000,"station_id":"ce4bhqh2rcd13ifvqhmg","pricing_plan_id":"cebpf4jnsgd1na2vs0mg"},{"bike_id":"4cf12dc6-3a4d-47f6-980f-7bb8edfa494b","system_id":"levelo_inurba_marseille","lat":43.3047,"lon":5.37894,"is_reserved":false,"is_disabled":false,"rental_uris":{"android":"levelo://app?vid=4cf12dc6-3a4d-47f6-980f-7bb8edfa494b","ios":"levelo://app?vid=4cf12dc6-3a4d-47f6-980f-7bb8edfa494b"},"vehicle_type_id":"4","last_reported":1728972802,"current_range_meters":27200,"station_id":"ce4bgup2rcd13ifvqcn0","pricing_plan_id":"cebpf4jnsgd1na2vs0mg"},{"bike_id":"61ede58e-b51c-4985-b66c-482ab703a9ed","system_id":"levelo_inurba_marseille","lat":43.26569,"lon":5.39014,"is_reserved":false,"is_disabled":false,"rental_uris":{"android":"levelo://app?vid=61ede58e-b51c-4985-b66c-482ab703a9ed","ios":"levelo://app?vid=61ede58e-b51c-4985-b66c-482ab703a9ed"},"vehicle_type_id":"4","last_reported":1728972802,"current_range_meters":32400,"station_id":"ce4bhe12rcd13ifvqf30","pricing_plan_id":"cebpf4jnsgd1na2vs0mg"},{"bike_id":"1c9343e4-7b78-402e-b1fe-6599c269887e","system_id":"levelo_inurba_marseille","lat":43.314515,"lon":5.37384,"is_reserved":false,"is_disabled":false,"rental_uris":{"android":"levelo://app?vid=1c9343e4-7b78-402e-b1fe-6599c269887e","ios":"levelo://app?vid=1c9343e4-7b78-402e-b1fe-6599c269887e"},"vehicle_type_id":"4","last_reported":1728972802,"current_range_meters":24800,"station_id":"","pricing_plan_id":"cebpf4jnsgd1na2vs0mg"},{"bike_id":"219c8012-7a38-4be5-a341-0af90cfd6d36","system_id":"levelo_inurba_marseille","lat":43.26568,"lon":5.39019,"is_reserved":false,"is_disabled":false,"rental_uris":{"android":"levelo://app?vid=219c8012-7a38-4be5-a341-0af90cfd6d36","ios":"levelo://app?vid=219c8012-7a38-4be5-a341-0af90cfd6d36"},"vehicle_type_id":"4","last_reported":1728972802,"current_range_meters":29600,"station_id":"ce4bhe12rcd13ifvqf30","pricing_plan_id":"cebpf4jnsgd1na2vs0mg"},{"bike_id":"c0e3888e-399e-4c85-9a12-e8e6e066d5b4","system_id":"levelo_inurba_marseille","lat":43.28493,"lon":5.3856,"is_reserved":false,"is_disabled":false,"rental_uris":{"android":"levelo://app?vid=c0e3888e-399e-4c85-9a12-e8e6e066d5b4","ios":"levelo://app?vid=c0e3888e-399e-4c85-9a12-e8e6e066d5b4"},"vehicle_type_id":"4","last_reported":1728972802,"current_range_meters":30000,"station_id":"ce4bh8p2rcd13ifvqeb0","pricing_plan_id":"cebpf4jnsgd1na2vs0mg"},{"bike_id":"fd27e7bc-22d3-4ec2-8fc4-8274a100e702","system_id":"levelo_inurba_marseille","lat":43.30146,"lon":5.38069,"is_reserved":false,"is_disabled":false,"rental_uris":{"android":"levelo://app?vid=fd27e7bc-22d3-4ec2-8fc4-8274a100e702","ios":"levelo://app?vid=fd27e7bc-22d3-4ec2-8fc4-8274a100e702"},"vehicle_type_id":"4","last_reported":1728972802,"current_range_meters":31200,"station_id":"ce4bgjp2rcd13ifvqbh0","pricing_plan_id":"cebpf4jnsgd1na2vs0mg"},{"bike_id":"f37b7cdd-bf0e-4a82-9413-91669094d7b1","system_id":"levelo_inurba_marseille","lat":43.29596,"lon":5.38081,"is_reserved":false,"is_disabled":false,"rental_uris":{"android":"levelo://app?vid=f37b7cdd-bf0e-4a82-9413-91669094d7b1","ios":"levelo://app?vid=f37b7cdd-bf0e-4a82-9413-91669094d7b1"},"vehicle_type_id":"4","last_reported":1728972802,"current_range_meters":22800,"station_id":"ce4bgl12rcd13ifvqbo0","pricing_plan_id":"cebpf4jnsgd1na2vs0mg"},{"bike_id":"01278a9e-9df9-414f-9298-8fc23308687f","system_id":"levelo_inurba_marseille","lat":43.30914,"lon":5.36855,"is_reserved":false,"is_disabled":false,"rental_uris":{"android":"levelo://app?vid=01278a9e-9df9-414f-9298-8fc23308687f","ios":"levelo://app?vid=01278a9e-9df9-414f-9298-8fc23308687f"},"vehicle_type_id":"4","last_reported":1728972802,"current_range_meters":39200,"station_id":"ce4bgn92rcd13ifvqbvg","pricing_plan_id":"cebpf4jnsgd1na2vs0mg"},{"bike_id":"725cf1f1-c36f-4257-98d4-57b786bdb67f","system_id":"levelo_inurba_marseille","lat":43.24649,"lon":5.38885,"is_reserved":false,"is_disabled":false,"rental_uris":{"android":"levelo://app?vid=725cf1f1-c36f-4257-98d4-57b786bdb67f","ios":"levelo://app?vid=725cf1f1-c36f-4257-98d4-57b786bdb67f"},"vehicle_type_id":"4","last_reported":1728972802,"current_range_meters":37600,"station_id":"ce4bhg12rcd13ifvqf60","pricing_plan_id":"cebpf4jnsgd1na2vs0mg"},{"bike_id":"f9c6f96e-6cf6-4d93-9c67-60886b1ee015","system_id":"levelo_inurba_marseille","lat":43.30912,"lon":5.36849,"is_reserved":false,"is_disabled":false,"rental_uris":{"android":"levelo://app?vid=f9c6f96e-6cf6-4d93-9c67-60886b1ee015","ios":"levelo://app?vid=f9c6f96e-6cf6-4d93-9c67-60886b1ee015"},"vehicle_type_id":"4","last_reported":1728972802,"current_range_meters":39200,"station_id":"ce4bgn92rcd13ifvqbvg","pricing_plan_id":"cebpf4jnsgd1na2vs0mg"},{"bike_id":"028fce04-55e9-4ec3-b4a5-1b566b48b26b","system_id":"levelo_inurba_marseille","lat":43.32546,"lon":5.41445,"is_reserved":false,"is_disabled":false,"rental_uris":{"android":"levelo://app?vid=028fce04-55e9-4ec3-b4a5-1b566b48b26b","ios":"levelo://app?vid=028fce04-55e9-4ec3-b4a5-1b566b48b26b"},"vehicle_type_id":"4","last_reported":1728972802,"current_range_meters":23200,"station_id":"ce4bhq12rcd13ifvqhhg","pricing_plan_id":"cebpf4jnsgd1na2vs0mg"},{"bike_id":"b5dd7a4a-005e-49d4-96d2-1cdbac527232","system_id":"levelo_inurba_marseille","lat":43.29279,"lon":5.37998,"is_reserved":false,"is_disabled":false,"rental_uris":{"android":"levelo://app?vid=b5dd7a4a-005e-49d4-96d2-1cdbac527232","ios":"levelo://app?vid=b5dd7a4a-005e-49d4-96d2-1cdbac527232"},"vehicle_type_id":"4","last_reported":1728972802,"current_range_meters":4400,"station_id":"ce4bh512rcd13ifvqe3g","pricing_plan_id":"cebpf4jnsgd1na2vs0mg"},{"bike_id":"05a48c1f-8542-4604-801f-8bcad6213878","system_id":"levelo_inurba_marseille","lat":43.34147,"lon":5.40903,"is_reserved":false,"is_disabled":false,"rental_uris":{"android":"levelo://app?vid=05a48c1f-8542-4604-801f-8bcad6213878","ios":"levelo://app?vid=05a48c1f-8542-4604-801f-8bcad6213878"},"vehicle_type_id":"4","last_reported":1728972802,"current_range_meters":17200,"station_id":"ce4bhqh2rcd13ifvqhlg","pricing_plan_id":"cebpf4jnsgd1na2vs0mg"},{"bike_id":"c1a1afd4-50c7-4a88-a370-43899b911066","system_id":"levelo_inurba_marseille","lat":43.32535,"lon":5.41432,"is_reserved":false,"is_disabled":false,"rental_uris":{"android":"levelo://app?vid=c1a1afd4-50c7-4a88-a370-43899b911066","ios":"levelo://app?vid=c1a1afd4-50c7-4a88-a370-43899b911066"},"vehicle_type_id":"4","last_reported":1728972802,"current_range_meters":7200,"station_id":"ce4bhq12rcd13ifvqhhg","pricing_plan_id":"cebpf4jnsgd1na2vs0mg"},{"bike_id":"31d120bf-8cc6-45ef-b3e1-50f1d4517b6b","system_id":"levelo_inurba_marseille","lat":43.3054,"lon":5.3669,"is_reserved":false,"is_disabled":false,"rental_uris":{"android":"levelo://app?vid=31d120bf-8cc6-45ef-b3e1-50f1d4517b6b","ios":"levelo://app?vid=31d120bf-8cc6-45ef-b3e1-50f1d4517b6b"},"vehicle_type_id":"4","last_reported":1728972802,"current_range_meters":20400,"station_id":"ce4bgrp2rcd13ifvqc9g","pricing_plan_id":"cebpf4jnsgd1na2vs0mg"},{"bike_id":"236eac17-f8e0-4e4a-bc15-bde91f02d950","system_id":"levelo_inurba_marseille","lat":43.33606,"lon":5.41036,"is_reserved":false,"is_disabled":false,"rental_uris":{"android":"levelo://app?vid=236eac17-f8e0-4e4a-bc15-bde91f02d950","ios":"levelo://app?vid=236eac17-f8e0-4e4a-bc15-bde91f02d950"},"vehicle_type_id":"4","last_reported":1728972802,"current_range_meters":27200,"station_id":"ce4bhqh2rcd13ifvqhmg","pricing_plan_id":"cebpf4jnsgd1na2vs0mg"},{"bike_id":"1eb0d291-c980-43c3-897c-b678fe3f7bcf","system_id":"levelo_inurba_marseille","lat":43.32343,"lon":5.40624,"is_reserved":false,"is_disabled":false,"rental_uris":{"android":"levelo://app?vid=1eb0d291-c980-43c3-897c-b678fe3f7bcf","ios":"levelo://app?vid=1eb0d291-c980-43c3-897c-b678fe3f7bcf"},"vehicle_type_id":"4","last_reported":1728972802,"current_range_meters":32400,"station_id":"ce4bhq92rcd13ifvqhjg","pricing_plan_id":"cebpf4jnsgd1na2vs0mg"},{"bike_id":"89198ecf-9ad5-429c-84dc-a279ee6e8f88","system_id":"levelo_inurba_marseille","lat":43.337444,"lon":5.374475,"is_reserved":false,"is_disabled":false,"rental_uris":{"android":"levelo://app?vid=89198ecf-9ad5-429c-84dc-a279ee6e8f88","ios":"levelo://app?vid=89198ecf-9ad5-429c-84dc-a279ee6e8f88"},"vehicle_type_id":"4","last_reported":1728972802,"current_range_meters":38800,"station_id":"","pricing_plan_id":"cebpf4jnsgd1na2vs0mg"},{"bike_id":"8fdd4147-e848-49f0-9c54-870bdb6cb1f5","system_id":"levelo_inurba_marseille","lat":43.33608,"lon":5.41026,"is_reserved":false,"is_disabled":false,"rental_uris":{"android":"levelo://app?vid=8fdd4147-e848-49f0-9c54-870bdb6cb1f5","ios":"levelo://app?vid=8fdd4147-e848-49f0-9c54-870bdb6cb1f5"},"vehicle_type_id":"4","last_reported":1728972802,"current_range_meters":36800,"station_id":"ce4bhqh2rcd13ifvqhmg","pricing_plan_id":"cebpf4jnsgd1na2vs0mg"},{"bike_id":"16108f92-6bb6-4625-8e86-043bb5e3efc3","system_id":"levelo_inurba_marseille","lat":43.336001,"lon":5.410209,"is_reserved":false,"is_disabled":false,"rental_uris":{"android":"levelo://app?vid=16108f92-6bb6-4625-8e86-043bb5e3efc3","ios":"levelo://app?vid=16108f92-6bb6-4625-8e86-043bb5e3efc3"},"vehicle_type_id":"4","last_reported":1728972802,"current_range_meters":38800,"station_id":"ce4bhqh2rcd13ifvqhmg","pricing_plan_id":"cebpf4jnsgd1na2vs0mg"},{"bike_id":"70d8c5a0-0514-401e-bb3f-6278d2b10405","system_id":"levelo_inurba_marseille","lat":43.2696,"lon":5.38642,"is_reserved":false,"is_disabled":false,"rental_uris":{"android":"levelo://app?vid=70d8c5a0-0514-401e-bb3f-6278d2b10405","ios":"levelo://app?vid=70d8c5a0-0514-401e-bb3f-6278d2b10405"},"vehicle_type_id":"4","last_reported":1728972802,"current_range_meters":38400,"station_id":"ce4bhh92rcd13ifvqfh0","pricing_plan_id":"cebpf4jnsgd1na2vs0mg"},{"bike_id":"1d9409bd-0c9c-4604-86e0-857add384d49","system_id":"levelo_inurba_marseille","lat":43.295949,"lon":5.381007,"is_reserved":false,"is_disabled":false,"rental_uris":{"android":"levelo://app?vid=1d9409bd-0c9c-4604-86e0-857add384d49","ios":"levelo://app?vid=1d9409bd-0c9c-4604-86e0-857add384d49"},"vehicle_type_id":"4","last_reported":1728972802,"current_range_meters":16800,"station_id":"ce4bgs12rcd13ifvqcag","pricing_plan_id":"cebpf4jnsgd1na2vs0mg"},{"bike_id":"3b39d073-558f-43a6-8552-9ea0f0a73eff","system_id":"levelo_inurba_marseille","lat":43.29005,"lon":5.35617,"is_reserved":false,"is_disabled":false,"rental_uris":{"android":"levelo://app?vid=3b39d073-558f-43a6-8552-9ea0f0a73eff","ios":"levelo://app?vid=3b39d073-558f-43a6-8552-9ea0f0a73eff"},"vehicle_type_id":"4","last_reported":1728972802,"current_range_meters":38400,"station_id":"ce4bhb92rcd13ifvqen0","pricing_plan_id":"cebpf4jnsgd1na2vs0mg"},{"bike_id":"bf064a1a-0609-49b4-843f-af805a1b06b2","system_id":"levelo_inurba_marseille","lat":43.3025,"lon":5.40072,"is_reserved":false,"is_disabled":false,"rental_uris":{"android":"levelo://app?vid=bf064a1a-0609-49b4-843f-af805a1b06b2","ios":"levelo://app?vid=bf064a1a-0609-49b4-843f-af805a1b06b2"},"vehicle_type_id":"4","last_reported":1728972802,"current_range_meters":10800,"station_id":"ce4bgvh2rcd13ifvqcs0","pricing_plan_id":"cebpf4jnsgd1na2vs0mg"},{"bike_id":"09046b85-be80-430f-abcb-ffe7c189f5d8","system_id":"levelo_inurba_marseille","lat":43.29794,"lon":5.38089,"is_reserved":false,"is_disabled":false,"rental_uris":{"android":"levelo://app?vid=09046b85-be80-430f-abcb-ffe7c189f5d8","ios":"levelo://app?vid=09046b85-be80-430f-abcb-ffe7c189f5d8"},"vehicle_type_id":"4","last_reported":1728972802,"current_range_meters":36800,"station_id":"ce4bgip2rcd13ifvqbb0","pricing_plan_id":"cebpf4jnsgd1na2vs0mg"},{"bike_id":"4acaa12a-59a0-401c-a35a-9d542ce22a01","system_id":"levelo_inurba_marseille","lat":43.29891,"lon":5.43657,"is_reserved":false,"is_disabled":false,"rental_uris":{"android":"levelo://app?vid=4acaa12a-59a0-401c-a35a-9d542ce22a01","ios":"levelo://app?vid=4acaa12a-59a0-401c-a35a-9d542ce22a01"},"vehicle_type_id":"4","last_reported":1728972802,"current_range_meters":38000,"station_id":"ce4bhpp2rcd13ifvqhfg","pricing_plan_id":"cebpf4jnsgd1na2vs0mg"},{"bike_id":"27521189-a10b-488a-82b8-973812fa95e1","system_id":"levelo_inurba_marseille","lat":43.32482,"lon":5.36582,"is_reserved":false,"is_disabled":false,"rental_uris":{"android":"levelo://app?vid=27521189-a10b-488a-82b8-973812fa95e1","ios":"levelo://app?vid=27521189-a10b-488a-82b8-973812fa95e1"},"vehicle_type_id":"4","last_reported":1728972802,"current_range_meters":37600,"station_id":"ce4bhs12rcd13ifvqhvg","pricing_plan_id":"cebpf4jnsgd1na2vs0mg"},{"bike_id":"0bd3b395-cc5f-4af8-86e7-da1a96fefdaa","system_id":"levelo_inurba_marseille","lat":43.32537,"lon":5.41432,"is_reserved":false,"is_disabled":false,"rental_uris":{"android":"levelo://app?vid=0bd3b395-cc5f-4af8-86e7-da1a96fefdaa","ios":"levelo://app?vid=0bd3b395-cc5f-4af8-86e7-da1a96fefdaa"},"vehicle_type_id":"4","last_reported":1728972802,"current_range_meters":19200,"station_id":"ce4bhq12rcd13ifvqhhg","pricing_plan_id":"cebpf4jnsgd1na2vs0mg"},{"bike_id":"6f773e7f-3db4-4946-a0fe-3e8b3ece3ad8","system_id":"levelo_inurba_marseille","lat":43.28946,"lon":5.36406,"is_reserved":false,"is_disabled":false,"rental_uris":{"android":"levelo://app?vid=6f773e7f-3db4-4946-a0fe-3e8b3ece3ad8","ios":"levelo://app?vid=6f773e7f-3db4-4946-a0fe-3e8b3ece3ad8"},"vehicle_type_id":"4","last_reported":1728972802,"current_range_meters":23200,"station_id":"ce4bhc92rcd13ifvqetg","pricing_plan_id":"cebpf4jnsgd1na2vs0mg"},{"bike_id":"2f932bc9-a9cf-4357-9452-f6405e083f92","system_id":"levelo_inurba_marseille","lat":43.26683,"lon":5.38273,"is_reserved":false,"is_disabled":false,"rental_uris":{"android":"levelo://app?vid=2f932bc9-a9cf-4357-9452-f6405e083f92","ios":"levelo://app?vid=2f932bc9-a9cf-4357-9452-f6405e083f92"},"vehicle_type_id":"4","last_reported":1728972802,"current_range_meters":38000,"station_id":"ce4bhg92rcd13ifvqf90","pricing_plan_id":"cebpf4jnsgd1na2vs0mg"},{"bike_id":"7b4f4d61-4dc7-4f65-bc1a-23bf090168b1","system_id":"levelo_inurba_marseille","lat":43.27501,"lon":5.42457,"is_reserved":false,"is_disabled":false,"rental_uris":{"android":"levelo://app?vid=7b4f4d61-4dc7-4f65-bc1a-23bf090168b1","ios":"levelo://app?vid=7b4f4d61-4dc7-4f65-bc1a-23bf090168b1"},"vehicle_type_id":"4","last_reported":1728972802,"current_range_meters":21600,"station_id":"ce4bhn92rcd13ifvqgrg","pricing_plan_id":"cebpf4jnsgd1na2vs0mg"},{"bike_id":"6afcf2ea-f55c-4b49-a559-26f39e924c3c","system_id":"levelo_inurba_marseille","lat":43.29919,"lon":5.37488,"is_reserved":false,"is_disabled":false,"rental_uris":{"android":"levelo://app?vid=6afcf2ea-f55c-4b49-a559-26f39e924c3c","ios":"levelo://app?vid=6afcf2ea-f55c-4b49-a559-26f39e924c3c"},"vehicle_type_id":"4","last_reported":1728972802,"current_range_meters":24400,"station_id":"ce4bgjh2rcd13ifvqbg0","pricing_plan_id":"cebpf4jnsgd1na2vs0mg"},{"bike_id":"7c9c0bec-f708-4cc2-b646-c610e7422c78","system_id":"levelo_inurba_marseille","lat":43.31892,"lon":5.40746,"is_reserved":false,"is_disabled":false,"rental_uris":{"android":"levelo://app?vid=7c9c0bec-f708-4cc2-b646-c610e7422c78","ios":"levelo://app?vid=7c9c0bec-f708-4cc2-b646-c610e7422c78"},"vehicle_type_id":"4","last_reported":1728972802,"current_range_meters":11200,"station_id":"ce4bhq12rcd13ifvqhig","pricing_plan_id":"cebpf4jnsgd1na2vs0mg"},{"bike_id":"c30e2a12-6d42-4a28-aafe-b3ae9dda151c","system_id":"levelo_inurba_marseille","lat":43.29205,"lon":5.39326,"is_reserved":false,"is_disabled":false,"rental_uris":{"android":"levelo://app?vid=c30e2a12-6d42-4a28-aafe-b3ae9dda151c","ios":"levelo://app?vid=c30e2a12-6d42-4a28-aafe-b3ae9dda151c"},"vehicle_type_id":"4","last_reported":1728972802,"current_range_meters":10800,"station_id":"ce4bh192rcd13ifvqdd0","pricing_plan_id":"cebpf4jnsgd1na2vs0mg"},{"bike_id":"79d22428-e2ae-4ce6-8f77-2cb2cdb6b054","system_id":"levelo_inurba_marseille","lat":43.26944,"lon":5.38628,"is_reserved":false,"is_disabled":false,"rental_uris":{"android":"levelo://app?vid=79d22428-e2ae-4ce6-8f77-2cb2cdb6b054","ios":"levelo://app?vid=79d22428-e2ae-4ce6-8f77-2cb2cdb6b054"},"vehicle_type_id":"4","last_reported":1728972802,"current_range_meters":35200,"station_id":"ce4bhh92rcd13ifvqfh0","pricing_plan_id":"cebpf4jnsgd1na2vs0mg"},{"bike_id":"5a21f166-c886-4c2b-8cdc-2f284466828d","system_id":"levelo_inurba_marseille","lat":43.27362,"lon":5.42404,"is_reserved":false,"is_disabled":false,"rental_uris":{"android":"levelo://app?vid=5a21f166-c886-4c2b-8cdc-2f284466828d","ios":"levelo://app?vid=5a21f166-c886-4c2b-8cdc-2f284466828d"},"vehicle_type_id":"4","last_reported":1728972802,"current_range_meters":33600,"station_id":"","pricing_plan_id":"cebpf4jnsgd1na2vs0mg"},{"bike_id":"995213a4-b0e8-4737-b0b6-5f59e564978e","system_id":"levelo_inurba_marseille","lat":43.33604,"lon":5.41022,"is_reserved":false,"is_disabled":false,"rental_uris":{"android":"levelo://app?vid=995213a4-b0e8-4737-b0b6-5f59e564978e","ios":"levelo://app?vid=995213a4-b0e8-4737-b0b6-5f59e564978e"},"vehicle_type_id":"4","last_reported":1728972802,"current_range_meters":8000,"station_id":"ce4bhqh2rcd13ifvqhmg","pricing_plan_id":"cebpf4jnsgd1na2vs0mg"},{"bike_id":"b178b062-35cd-4f92-91db-f4ae171fe0ea","system_id":"levelo_inurba_marseille","lat":43.292851,"lon":5.368404,"is_reserved":false,"is_disabled":false,"rental_uris":{"android":"levelo://app?vid=b178b062-35cd-4f92-91db-f4ae171fe0ea","ios":"levelo://app?vid=b178b062-35cd-4f92-91db-f4ae171fe0ea"},"vehicle_type_id":"4","last_reported":1728972802,"current_range_meters":11600,"station_id":"","pricing_plan_id":"cebpf4jnsgd1na2vs0mg"},{"bike_id":"196e5cee-f00f-4801-bd94-fc734d3818a3","system_id":"levelo_inurba_marseille","lat":43.31484,"lon":5.37305,"is_reserved":false,"is_disabled":false,"rental_uris":{"android":"levelo://app?vid=196e5cee-f00f-4801-bd94-fc734d3818a3","ios":"levelo://app?vid=196e5cee-f00f-4801-bd94-fc734d3818a3"},"vehicle_type_id":"4","last_reported":1728972802,"current_range_meters":25200,"station_id":"ce4bgt12rcd13ifvqcd0","pricing_plan_id":"cebpf4jnsgd1na2vs0mg"},{"bike_id":"d62ab079-7d78-483f-a17b-62950c425e12","system_id":"levelo_inurba_marseille","lat":43.2655,"lon":5.37286,"is_reserved":false,"is_disabled":false,"rental_uris":{"android":"levelo://app?vid=d62ab079-7d78-483f-a17b-62950c425e12","ios":"levelo://app?vid=d62ab079-7d78-483f-a17b-62950c425e12"},"vehicle_type_id":"4","last_reported":1728972802,"current_range_meters":16400,"station_id":"ce4bhg12rcd13ifvqf70","pricing_plan_id":"cebpf4jnsgd1na2vs0mg"},{"bike_id":"a0004b86-0108-4a59-8420-8474f739e195","system_id":"levelo_inurba_marseille","lat":43.31759,"lon":5.39018,"is_reserved":false,"is_disabled":false,"rental_uris":{"android":"levelo://app?vid=a0004b86-0108-4a59-8420-8474f739e195","ios":"levelo://app?vid=a0004b86-0108-4a59-8420-8474f739e195"},"vehicle_type_id":"4","last_reported":1728972802,"current_range_meters":37600,"station_id":"ce4bhqp2rcd13ifvqhng","pricing_plan_id":"cebpf4jnsgd1na2vs0mg"},{"bike_id":"c0670d96-b06e-446b-a07e-6b5eeebc59d7","system_id":"levelo_inurba_marseille","lat":43.274948,"lon":5.424466,"is_reserved":false,"is_disabled":false,"rental_uris":{"android":"levelo://app?vid=c0670d96-b06e-446b-a07e-6b5eeebc59d7","ios":"levelo://app?vid=c0670d96-b06e-446b-a07e-6b5eeebc59d7"},"vehicle_type_id":"4","last_reported":1728972802,"current_range_meters":13600,"station_id":"ce4bhn92rcd13ifvqgrg","pricing_plan_id":"cebpf4jnsgd1na2vs0mg"},{"bike_id":"485372db-c927-43ac-8631-871bcbd82cc0","system_id":"levelo_inurba_marseille","lat":43.2407,"lon":5.37765,"is_reserved":false,"is_disabled":false,"rental_uris":{"android":"levelo://app?vid=485372db-c927-43ac-8631-871bcbd82cc0","ios":"levelo://app?vid=485372db-c927-43ac-8631-871bcbd82cc0"},"vehicle_type_id":"4","last_reported":1728972802,"current_range_meters":13600,"station_id":"ce4bhnp2rcd13ifvqgvg","pricing_plan_id":"cebpf4jnsgd1na2vs0mg"},{"bike_id":"a0d3d324-fa7e-4417-aee7-85012ecab44e","system_id":"levelo_inurba_marseille","lat":43.3422,"lon":5.44544,"is_reserved":false,"is_disabled":false,"rental_uris":{"android":"levelo://app?vid=a0d3d324-fa7e-4417-aee7-85012ecab44e","ios":"levelo://app?vid=a0d3d324-fa7e-4417-aee7-85012ecab44e"},"vehicle_type_id":"4","last_reported":1728972802,"current_range_meters":24800,"station_id":"","pricing_plan_id":"cebpf4jnsgd1na2vs0mg"},{"bike_id":"724c8533-6c2a-4d58-9645-9dc7cc8cde49","system_id":"levelo_inurba_marseille","lat":43.27183,"lon":5.40993,"is_reserved":false,"is_disabled":false,"rental_uris":{"android":"levelo://app?vid=724c8533-6c2a-4d58-9645-9dc7cc8cde49","ios":"levelo://app?vid=724c8533-6c2a-4d58-9645-9dc7cc8cde49"},"vehicle_type_id":"4","last_reported":1728972802,"current_range_meters":38400,"station_id":"ce4bhl12rcd13ifvqgf0","pricing_plan_id":"cebpf4jnsgd1na2vs0mg"},{"bike_id":"880da27e-9468-4933-9a69-bc77ef75e0be","system_id":"levelo_inurba_marseille","lat":43.30463,"lon":5.37903,"is_reserved":false,"is_disabled":false,"rental_uris":{"android":"levelo://app?vid=880da27e-9468-4933-9a69-bc77ef75e0be","ios":"levelo://app?vid=880da27e-9468-4933-9a69-bc77ef75e0be"},"vehicle_type_id":"4","last_reported":1728972802,"current_range_meters":28800,"station_id":"ce4bgup2rcd13ifvqcn0","pricing_plan_id":"cebpf4jnsgd1na2vs0mg"},{"bike_id":"9aa94fbb-4cc3-476b-bdbe-380bbae2b7ad","system_id":"levelo_inurba_marseille","lat":43.30145,"lon":5.38069,"is_reserved":false,"is_disabled":false,"rental_uris":{"android":"levelo://app?vid=9aa94fbb-4cc3-476b-bdbe-380bbae2b7ad","ios":"levelo://app?vid=9aa94fbb-4cc3-476b-bdbe-380bbae2b7ad"},"vehicle_type_id":"4","last_reported":1728972802,"current_range_meters":34000,"station_id":"ce4bgjp2rcd13ifvqbh0","pricing_plan_id":"cebpf4jnsgd1na2vs0mg"},{"bike_id":"0f231146-27df-4f00-9027-32244e4eeb81","system_id":"levelo_inurba_marseille","lat":43.29597,"lon":5.40013,"is_reserved":false,"is_disabled":false,"rental_uris":{"android":"levelo://app?vid=0f231146-27df-4f00-9027-32244e4eeb81","ios":"levelo://app?vid=0f231146-27df-4f00-9027-32244e4eeb81"},"vehicle_type_id":"4","last_reported":1728972802,"current_range_meters":28000,"station_id":"ce4bh312rcd13ifvqdj0","pricing_plan_id":"cebpf4jnsgd1na2vs0mg"},{"bike_id":"9b4cc07a-8e06-4f52-bccc-0f5b961a7294","system_id":"levelo_inurba_marseille","lat":43.24178,"lon":5.39731,"is_reserved":false,"is_disabled":false,"rental_uris":{"android":"levelo://app?vid=9b4cc07a-8e06-4f52-bccc-0f5b961a7294","ios":"levelo://app?vid=9b4cc07a-8e06-4f52-bccc-0f5b961a7294"},"vehicle_type_id":"4","last_reported":1728972802,"current_range_meters":35200,"station_id":"ce4bhn12rcd13ifvqgpg","pricing_plan_id":"cebpf4jnsgd1na2vs0mg"},{"bike_id":"f4574d11-9d65-4044-9e13-df2d7c83c061","system_id":"levelo_inurba_marseille","lat":43.25863,"lon":5.39897,"is_reserved":false,"is_disabled":false,"rental_uris":{"android":"levelo://app?vid=f4574d11-9d65-4044-9e13-df2d7c83c061","ios":"levelo://app?vid=f4574d11-9d65-4044-9e13-df2d7c83c061"},"vehicle_type_id":"4","last_reported":1728972802,"current_range_meters":25200,"station_id":"ce4bhl92rcd13ifvqghg","pricing_plan_id":"cebpf4jnsgd1na2vs0mg"},{"bike_id":"863215af-7b3b-42c2-87cb-9884c80ff24a","system_id":"levelo_inurba_marseille","lat":43.26568,"lon":5.3901,"is_reserved":false,"is_disabled":false,"rental_uris":{"android":"levelo://app?vid=863215af-7b3b-42c2-87cb-9884c80ff24a","ios":"levelo://app?vid=863215af-7b3b-42c2-87cb-9884c80ff24a"},"vehicle_type_id":"4","last_reported":1728972802,"current_range_meters":38800,"station_id":"ce4bhe12rcd13ifvqf30","pricing_plan_id":"cebpf4jnsgd1na2vs0mg"},{"bike_id":"fe70a9cd-a5b0-48fe-9452-2e5d346492a8","system_id":"levelo_inurba_marseille","lat":43.29369,"lon":5.37839,"is_reserved":false,"is_disabled":false,"rental_uris":{"android":"levelo://app?vid=fe70a9cd-a5b0-48fe-9452-2e5d346492a8","ios":"levelo://app?vid=fe70a9cd-a5b0-48fe-9452-2e5d346492a8"},"vehicle_type_id":"4","last_reported":1728972802,"current_range_meters":20000,"station_id":"ce4bgjh2rcd13ifvqbf0","pricing_plan_id":"cebpf4jnsgd1na2vs0mg"},{"bike_id":"e420a72a-3960-4543-b9fb-57edac02537d","system_id":"levelo_inurba_marseille","lat":43.25821,"lon":5.39439,"is_reserved":false,"is_disabled":false,"rental_uris":{"android":"levelo://app?vid=e420a72a-3960-4543-b9fb-57edac02537d","ios":"levelo://app?vid=e420a72a-3960-4543-b9fb-57edac02537d"},"vehicle_type_id":"4","last_reported":1728972802,"current_range_meters":24000,"station_id":"ce4bhip2rcd13ifvqft0","pricing_plan_id":"cebpf4jnsgd1na2vs0mg"},{"bike_id":"f0eb90d3-4209-44b4-a9d1-5434f024674a","system_id":"levelo_inurba_marseille","lat":43.24393,"lon":5.37064,"is_reserved":false,"is_disabled":false,"rental_uris":{"android":"levelo://app?vid=f0eb90d3-4209-44b4-a9d1-5434f024674a","ios":"levelo://app?vid=f0eb90d3-4209-44b4-a9d1-5434f024674a"},"vehicle_type_id":"4","last_reported":1728972802,"current_range_meters":30000,"station_id":"ce4bhhh2rcd13ifvqfk0","pricing_plan_id":"cebpf4jnsgd1na2vs0mg"},{"bike_id":"20e589df-5074-4dcf-adbd-418efaefbdae","system_id":"levelo_inurba_marseille","lat":43.29799,"lon":5.3809,"is_reserved":false,"is_disabled":false,"rental_uris":{"android":"levelo://app?vid=20e589df-5074-4dcf-adbd-418efaefbdae","ios":"levelo://app?vid=20e589df-5074-4dcf-adbd-418efaefbdae"},"vehicle_type_id":"4","last_reported":1728972802,"current_range_meters":25600,"station_id":"ce4bgip2rcd13ifvqbb0","pricing_plan_id":"cebpf4jnsgd1na2vs0mg"},{"bike_id":"1e73027b-0c25-4e93-a48b-592f5c5b175f","system_id":"levelo_inurba_marseille","lat":43.30356,"lon":5.4187,"is_reserved":false,"is_disabled":false,"rental_uris":{"android":"levelo://app?vid=1e73027b-0c25-4e93-a48b-592f5c5b175f","ios":"levelo://app?vid=1e73027b-0c25-4e93-a48b-592f5c5b175f"},"vehicle_type_id":"4","last_reported":1728972802,"current_range_meters":33200,"station_id":"ce4bhop2rcd13ifvqh7g","pricing_plan_id":"cebpf4jnsgd1na2vs0mg"},{"bike_id":"bfcb4160-b515-48ed-96b3-cc5bb6464ed0","system_id":"levelo_inurba_marseille","lat":43.30268,"lon":5.40065,"is_reserved":false,"is_disabled":false,"rental_uris":{"android":"levelo://app?vid=bfcb4160-b515-48ed-96b3-cc5bb6464ed0","ios":"levelo://app?vid=bfcb4160-b515-48ed-96b3-cc5bb6464ed0"},"vehicle_type_id":"4","last_reported":1728972802,"current_range_meters":30800,"station_id":"ce4bgvh2rcd13ifvqcs0","pricing_plan_id":"cebpf4jnsgd1na2vs0mg"},{"bike_id":"fc2e63bd-4f8d-4902-9f35-881fba91bf2e","system_id":"levelo_inurba_marseille","lat":43.29522,"lon":5.37507,"is_reserved":false,"is_disabled":false,"rental_uris":{"android":"levelo://app?vid=fc2e63bd-4f8d-4902-9f35-881fba91bf2e","ios":"levelo://app?vid=fc2e63bd-4f8d-4902-9f35-881fba91bf2e"},"vehicle_type_id":"4","last_reported":1728972802,"current_range_meters":38800,"station_id":"ce4bgkp2rcd13ifvqbmg","pricing_plan_id":"cebpf4jnsgd1na2vs0mg"},{"bike_id":"f25b9087-5c61-492d-8a81-c981d671dc2b","system_id":"levelo_inurba_marseille","lat":43.28281,"lon":5.35074,"is_reserved":false,"is_disabled":false,"rental_uris":{"android":"levelo://app?vid=f25b9087-5c61-492d-8a81-c981d671dc2b","ios":"levelo://app?vid=f25b9087-5c61-492d-8a81-c981d671dc2b"},"vehicle_type_id":"4","last_reported":1728972802,"current_range_meters":38400,"station_id":"ce4bhbp2rcd13ifvqerg","pricing_plan_id":"cebpf4jnsgd1na2vs0mg"},{"bike_id":"5f9bbca4-c275-4b1d-bb90-de4434b02e5b","system_id":"levelo_inurba_marseille","lat":43.275,"lon":5.42445,"is_reserved":false,"is_disabled":false,"rental_uris":{"android":"levelo://app?vid=5f9bbca4-c275-4b1d-bb90-de4434b02e5b","ios":"levelo://app?vid=5f9bbca4-c275-4b1d-bb90-de4434b02e5b"},"vehicle_type_id":"4","last_reported":1728972802,"current_range_meters":39200,"station_id":"ce4bhn92rcd13ifvqgrg","pricing_plan_id":"cebpf4jnsgd1na2vs0mg"},{"bike_id":"453ff30b-5109-4f9b-a0ee-199c4668928b","system_id":"levelo_inurba_marseille","lat":43.3135,"lon":5.36718,"is_reserved":false,"is_disabled":false,"rental_uris":{"android":"levelo://app?vid=453ff30b-5109-4f9b-a0ee-199c4668928b","ios":"levelo://app?vid=453ff30b-5109-4f9b-a0ee-199c4668928b"},"vehicle_type_id":"4","last_reported":1728972802,"current_range_meters":19600,"station_id":"ce4bgr92rcd13ifvqc6g","pricing_plan_id":"cebpf4jnsgd1na2vs0mg"},{"bike_id":"5017923a-b9e0-4769-95ab-eee05b5f533e","system_id":"levelo_inurba_marseille","lat":43.28487,"lon":5.38574,"is_reserved":false,"is_disabled":false,"rental_uris":{"android":"levelo://app?vid=5017923a-b9e0-4769-95ab-eee05b5f533e","ios":"levelo://app?vid=5017923a-b9e0-4769-95ab-eee05b5f533e"},"vehicle_type_id":"4","last_reported":1728972802,"current_range_meters":38800,"station_id":"ce4bh8p2rcd13ifvqeb0","pricing_plan_id":"cebpf4jnsgd1na2vs0mg"},{"bike_id":"d7deb6e6-b5eb-4eb7-8582-84561a987ba7","system_id":"levelo_inurba_marseille","lat":43.29036,"lon":5.39961,"is_reserved":false,"is_disabled":false,"rental_uris":{"android":"levelo://app?vid=d7deb6e6-b5eb-4eb7-8582-84561a987ba7","ios":"levelo://app?vid=d7deb6e6-b5eb-4eb7-8582-84561a987ba7"},"vehicle_type_id":"4","last_reported":1728972802,"current_range_meters":36000,"station_id":"ce4bh392rcd13ifvqdm0","pricing_plan_id":"cebpf4jnsgd1na2vs0mg"},{"bike_id":"b837e3d7-eff5-4faa-8987-f8a010f8b690","system_id":"levelo_inurba_marseille","lat":43.30469,"lon":5.37898,"is_reserved":false,"is_disabled":false,"rental_uris":{"android":"levelo://app?vid=b837e3d7-eff5-4faa-8987-f8a010f8b690","ios":"levelo://app?vid=b837e3d7-eff5-4faa-8987-f8a010f8b690"},"vehicle_type_id":"4","last_reported":1728972802,"current_range_meters":22800,"station_id":"ce4bgup2rcd13ifvqcn0","pricing_plan_id":"cebpf4jnsgd1na2vs0mg"},{"bike_id":"0ed0c075-e6fe-402d-bd25-ee3cc88443aa","system_id":"levelo_inurba_marseille","lat":43.25828,"lon":5.39428,"is_reserved":false,"is_disabled":false,"rental_uris":{"android":"levelo://app?vid=0ed0c075-e6fe-402d-bd25-ee3cc88443aa","ios":"levelo://app?vid=0ed0c075-e6fe-402d-bd25-ee3cc88443aa"},"vehicle_type_id":"4","last_reported":1728972802,"current_range_meters":38800,"station_id":"ce4bhip2rcd13ifvqft0","pricing_plan_id":"cebpf4jnsgd1na2vs0mg"},{"bike_id":"48a7c6e1-86ad-44ac-800b-d6837b67bd59","system_id":"levelo_inurba_marseille","lat":43.2809,"lon":5.40713,"is_reserved":false,"is_disabled":false,"rental_uris":{"android":"levelo://app?vid=48a7c6e1-86ad-44ac-800b-d6837b67bd59","ios":"levelo://app?vid=48a7c6e1-86ad-44ac-800b-d6837b67bd59"},"vehicle_type_id":"4","last_reported":1728972802,"current_range_meters":4800,"station_id":"","pricing_plan_id":"cebpf4jnsgd1na2vs0mg"},{"bike_id":"e02ae3f1-4d9a-4aae-b23f-fa8dc19dabc2","system_id":"levelo_inurba_marseille","lat":43.30465,"lon":5.37897,"is_reserved":false,"is_disabled":false,"rental_uris":{"android":"levelo://app?vid=e02ae3f1-4d9a-4aae-b23f-fa8dc19dabc2","ios":"levelo://app?vid=e02ae3f1-4d9a-4aae-b23f-fa8dc19dabc2"},"vehicle_type_id":"4","last_reported":1728972802,"current_range_meters":18000,"station_id":"ce4bgup2rcd13ifvqcn0","pricing_plan_id":"cebpf4jnsgd1na2vs0mg"},{"bike_id":"534d9bad-9c99-4863-9816-2b91c222fd71","system_id":"levelo_inurba_marseille","lat":43.258523,"lon":5.399364,"is_reserved":false,"is_disabled":false,"rental_uris":{"android":"levelo://app?vid=534d9bad-9c99-4863-9816-2b91c222fd71","ios":"levelo://app?vid=534d9bad-9c99-4863-9816-2b91c222fd71"},"vehicle_type_id":"4","last_reported":1728972802,"current_range_meters":30000,"station_id":"ce4bhl92rcd13ifvqghg","pricing_plan_id":"cebpf4jnsgd1na2vs0mg"},{"bike_id":"03abfbcc-9c7f-4ed5-bf45-b82b2b232696","system_id":"levelo_inurba_marseille","lat":43.24548,"lon":5.39523,"is_reserved":false,"is_disabled":false,"rental_uris":{"android":"levelo://app?vid=03abfbcc-9c7f-4ed5-bf45-b82b2b232696","ios":"levelo://app?vid=03abfbcc-9c7f-4ed5-bf45-b82b2b232696"},"vehicle_type_id":"4","last_reported":1728972802,"current_range_meters":38800,"station_id":"ce4bhlp2rcd13ifvqgjg","pricing_plan_id":"cebpf4jnsgd1na2vs0mg"},{"bike_id":"e9831fa1-363f-497f-b70e-bdeb1ae48702","system_id":"levelo_inurba_marseille","lat":43.29422,"lon":5.38618,"is_reserved":false,"is_disabled":false,"rental_uris":{"android":"levelo://app?vid=e9831fa1-363f-497f-b70e-bdeb1ae48702","ios":"levelo://app?vid=e9831fa1-363f-497f-b70e-bdeb1ae48702"},"vehicle_type_id":"4","last_reported":1728972802,"current_range_meters":18800,"station_id":"ce4bh2h2rcd13ifvqdh0","pricing_plan_id":"cebpf4jnsgd1na2vs0mg"},{"bike_id":"07ddbbc1-1261-4fdc-90e4-5b3639db19a0","system_id":"levelo_inurba_marseille","lat":43.25861,"lon":5.39904,"is_reserved":false,"is_disabled":false,"rental_uris":{"android":"levelo://app?vid=07ddbbc1-1261-4fdc-90e4-5b3639db19a0","ios":"levelo://app?vid=07ddbbc1-1261-4fdc-90e4-5b3639db19a0"},"vehicle_type_id":"4","last_reported":1728972802,"current_range_meters":30400,"station_id":"ce4bhl92rcd13ifvqghg","pricing_plan_id":"cebpf4jnsgd1na2vs0mg"},{"bike_id":"b80c714b-6a66-4d5c-832e-bd487c535a72","system_id":"levelo_inurba_marseille","lat":43.31109,"lon":5.38064,"is_reserved":false,"is_disabled":false,"rental_uris":{"android":"levelo://app?vid=b80c714b-6a66-4d5c-832e-bd487c535a72","ios":"levelo://app?vid=b80c714b-6a66-4d5c-832e-bd487c535a72"},"vehicle_type_id":"4","last_reported":1728972802,"current_range_meters":16400,"station_id":"ce4bgt92rcd13ifvqcf0","pricing_plan_id":"cebpf4jnsgd1na2vs0mg"},{"bike_id":"2140b6a3-5118-4150-823e-9225aeb56201","system_id":"levelo_inurba_marseille","lat":43.23186,"lon":5.35538,"is_reserved":false,"is_disabled":false,"rental_uris":{"android":"levelo://app?vid=2140b6a3-5118-4150-823e-9225aeb56201","ios":"levelo://app?vid=2140b6a3-5118-4150-823e-9225aeb56201"},"vehicle_type_id":"4","last_reported":1728972802,"current_range_meters":8400,"station_id":"ce4bhu92rcd13ifvqi70","pricing_plan_id":"cebpf4jnsgd1na2vs0mg"},{"bike_id":"478f5959-9690-4265-aea1-95006faa579d","system_id":"levelo_inurba_marseille","lat":43.2718,"lon":5.40991,"is_reserved":false,"is_disabled":false,"rental_uris":{"android":"levelo://app?vid=478f5959-9690-4265-aea1-95006faa579d","ios":"levelo://app?vid=478f5959-9690-4265-aea1-95006faa579d"},"vehicle_type_id":"4","last_reported":1728972802,"current_range_meters":38800,"station_id":"ce4bhl12rcd13ifvqgf0","pricing_plan_id":"cebpf4jnsgd1na2vs0mg"},{"bike_id":"f16511d8-6b63-4cd9-960a-2c020711c97c","system_id":"levelo_inurba_marseille","lat":43.29376,"lon":5.37848,"is_reserved":false,"is_disabled":false,"rental_uris":{"android":"levelo://app?vid=f16511d8-6b63-4cd9-960a-2c020711c97c","ios":"levelo://app?vid=f16511d8-6b63-4cd9-960a-2c020711c97c"},"vehicle_type_id":"4","last_reported":1728972802,"current_range_meters":8800,"station_id":"ce4bgjh2rcd13ifvqbf0","pricing_plan_id":"cebpf4jnsgd1na2vs0mg"},{"bike_id":"ad3a8670-165f-4afc-9f01-24e092308761","system_id":"levelo_inurba_marseille","lat":43.30152,"lon":5.38078,"is_reserved":false,"is_disabled":false,"rental_uris":{"android":"levelo://app?vid=ad3a8670-165f-4afc-9f01-24e092308761","ios":"levelo://app?vid=ad3a8670-165f-4afc-9f01-24e092308761"},"vehicle_type_id":"4","last_reported":1728972802,"current_range_meters":35200,"station_id":"ce4bgjp2rcd13ifvqbh0","pricing_plan_id":"cebpf4jnsgd1na2vs0mg"},{"bike_id":"d60739d0-8ab6-4981-80ac-9d69bbfe306c","system_id":"levelo_inurba_marseille","lat":43.27997,"lon":5.40019,"is_reserved":false,"is_disabled":false,"rental_uris":{"android":"levelo://app?vid=d60739d0-8ab6-4981-80ac-9d69bbfe306c","ios":"levelo://app?vid=d60739d0-8ab6-4981-80ac-9d69bbfe306c"},"vehicle_type_id":"4","last_reported":1728972802,"current_range_meters":28800,"station_id":"ce4bho92rcd13ifvqh4g","pricing_plan_id":"cebpf4jnsgd1na2vs0mg"},{"bike_id":"02edf250-0bdc-44d6-9936-04b527fbc30e","system_id":"levelo_inurba_marseille","lat":43.24389,"lon":5.37054,"is_reserved":false,"is_disabled":false,"rental_uris":{"android":"levelo://app?vid=02edf250-0bdc-44d6-9936-04b527fbc30e","ios":"levelo://app?vid=02edf250-0bdc-44d6-9936-04b527fbc30e"},"vehicle_type_id":"4","last_reported":1728972802,"current_range_meters":11200,"station_id":"ce4bhhh2rcd13ifvqfk0","pricing_plan_id":"cebpf4jnsgd1na2vs0mg"},{"bike_id":"ce12a8ee-bc2a-4e0a-9c3e-72d6d83b7c43","system_id":"levelo_inurba_marseille","lat":43.27968,"lon":5.38724,"is_reserved":false,"is_disabled":false,"rental_uris":{"android":"levelo://app?vid=ce12a8ee-bc2a-4e0a-9c3e-72d6d83b7c43","ios":"levelo://app?vid=ce12a8ee-bc2a-4e0a-9c3e-72d6d83b7c43"},"vehicle_type_id":"4","last_reported":1728972802,"current_range_meters":32400,"station_id":"ce4bhg12rcd13ifvqf80","pricing_plan_id":"cebpf4jnsgd1na2vs0mg"},{"bike_id":"8aa82f16-a6a0-4a14-9f25-838a8898f98d","system_id":"levelo_inurba_marseille","lat":43.26208,"lon":5.37441,"is_reserved":false,"is_disabled":false,"rental_uris":{"android":"levelo://app?vid=8aa82f16-a6a0-4a14-9f25-838a8898f98d","ios":"levelo://app?vid=8aa82f16-a6a0-4a14-9f25-838a8898f98d"},"vehicle_type_id":"4","last_reported":1728972802,"current_range_meters":38400,"station_id":"ce4bhgp2rcd13ifvqfc0","pricing_plan_id":"cebpf4jnsgd1na2vs0mg"},{"bike_id":"e9d42937-a4b2-4a84-a233-384773796211","system_id":"levelo_inurba_marseille","lat":43.25932,"lon":5.40913,"is_reserved":false,"is_disabled":false,"rental_uris":{"android":"levelo://app?vid=e9d42937-a4b2-4a84-a233-384773796211","ios":"levelo://app?vid=e9d42937-a4b2-4a84-a233-384773796211"},"vehicle_type_id":"4","last_reported":1728972802,"current_range_meters":27600,"station_id":"ce4bhm92rcd13ifvqglg","pricing_plan_id":"cebpf4jnsgd1na2vs0mg"},{"bike_id":"7cc5db3f-7c40-48b0-ab8a-ef1e22f35aea","system_id":"levelo_inurba_marseille","lat":43.30143,"lon":5.37417,"is_reserved":false,"is_disabled":false,"rental_uris":{"android":"levelo://app?vid=7cc5db3f-7c40-48b0-ab8a-ef1e22f35aea","ios":"levelo://app?vid=7cc5db3f-7c40-48b0-ab8a-ef1e22f35aea"},"vehicle_type_id":"4","last_reported":1728972802,"current_range_meters":24400,"station_id":"ce4bgs92rcd13ifvqcc0","pricing_plan_id":"cebpf4jnsgd1na2vs0mg"},{"bike_id":"ac1802f2-e0c7-4553-8f9e-27953027561d","system_id":"levelo_inurba_marseille","lat":43.32542,"lon":5.41432,"is_reserved":false,"is_disabled":false,"rental_uris":{"android":"levelo://app?vid=ac1802f2-e0c7-4553-8f9e-27953027561d","ios":"levelo://app?vid=ac1802f2-e0c7-4553-8f9e-27953027561d"},"vehicle_type_id":"4","last_reported":1728972802,"current_range_meters":9200,"station_id":"ce4bhq12rcd13ifvqhhg","pricing_plan_id":"cebpf4jnsgd1na2vs0mg"},{"bike_id":"81005c71-8480-4978-bc63-a1e137caa2c6","system_id":"levelo_inurba_marseille","lat":43.30149,"lon":5.38078,"is_reserved":false,"is_disabled":false,"rental_uris":{"android":"levelo://app?vid=81005c71-8480-4978-bc63-a1e137caa2c6","ios":"levelo://app?vid=81005c71-8480-4978-bc63-a1e137caa2c6"},"vehicle_type_id":"4","last_reported":1728972802,"current_range_meters":28000,"station_id":"ce4bgjp2rcd13ifvqbh0","pricing_plan_id":"cebpf4jnsgd1na2vs0mg"},{"bike_id":"16d8fb3d-355b-4bf9-b1d9-48059ad41c50","system_id":"levelo_inurba_marseille","lat":43.28182,"lon":5.40389,"is_reserved":false,"is_disabled":false,"rental_uris":{"android":"levelo://app?vid=16d8fb3d-355b-4bf9-b1d9-48059ad41c50","ios":"levelo://app?vid=16d8fb3d-355b-4bf9-b1d9-48059ad41c50"},"vehicle_type_id":"4","last_reported":1728972802,"current_range_meters":28400,"station_id":"ce4bho92rcd13ifvqh4g","pricing_plan_id":"cebpf4jnsgd1na2vs0mg"},{"bike_id":"eda55be5-9483-4f6a-a958-5634cc0deabd","system_id":"levelo_inurba_marseille","lat":43.31642,"lon":5.40421,"is_reserved":false,"is_disabled":false,"rental_uris":{"android":"levelo://app?vid=eda55be5-9483-4f6a-a958-5634cc0deabd","ios":"levelo://app?vid=eda55be5-9483-4f6a-a958-5634cc0deabd"},"vehicle_type_id":"4","last_reported":1728972802,"current_range_meters":5600,"station_id":"","pricing_plan_id":"cebpf4jnsgd1na2vs0mg"},{"bike_id":"e01e41b6-906b-4d38-bd47-8409331ef9cb","system_id":"levelo_inurba_marseille","lat":43.24164,"lon":5.36399,"is_reserved":false,"is_disabled":false,"rental_uris":{"android":"levelo://app?vid=e01e41b6-906b-4d38-bd47-8409331ef9cb","ios":"levelo://app?vid=e01e41b6-906b-4d38-bd47-8409331ef9cb"},"vehicle_type_id":"4","last_reported":1728972802,"current_range_meters":34800,"station_id":"cpo36qri1sfpv3e86is0","pricing_plan_id":"cebpf4jnsgd1na2vs0mg"},{"bike_id":"8c3c6ea8-bf27-4d3e-9d98-02766e0d67b6","system_id":"levelo_inurba_marseille","lat":43.29963,"lon":5.4132,"is_reserved":false,"is_disabled":false,"rental_uris":{"android":"levelo://app?vid=8c3c6ea8-bf27-4d3e-9d98-02766e0d67b6","ios":"levelo://app?vid=8c3c6ea8-bf27-4d3e-9d98-02766e0d67b6"},"vehicle_type_id":"4","last_reported":1728972802,"current_range_meters":38800,"station_id":"ce4bhp12rcd13ifvqh9g","pricing_plan_id":"cebpf4jnsgd1na2vs0mg"},{"bike_id":"89211ee2-076f-4df3-92bd-cd8885f2e76d","system_id":"levelo_inurba_marseille","lat":43.23191,"lon":5.35556,"is_reserved":false,"is_disabled":false,"rental_uris":{"android":"levelo://app?vid=89211ee2-076f-4df3-92bd-cd8885f2e76d","ios":"levelo://app?vid=89211ee2-076f-4df3-92bd-cd8885f2e76d"},"vehicle_type_id":"4","last_reported":1728972802,"current_range_meters":38800,"station_id":"ce4bhu92rcd13ifvqi70","pricing_plan_id":"cebpf4jnsgd1na2vs0mg"},{"bike_id":"ce9d0675-d631-4c06-b642-b36bc8ba8ca3","system_id":"levelo_inurba_marseille","lat":43.33725,"lon":5.39194,"is_reserved":false,"is_disabled":false,"rental_uris":{"android":"levelo://app?vid=ce9d0675-d631-4c06-b642-b36bc8ba8ca3","ios":"levelo://app?vid=ce9d0675-d631-4c06-b642-b36bc8ba8ca3"},"vehicle_type_id":"4","last_reported":1728972802,"current_range_meters":38000,"station_id":"ce4bhr92rcd13ifvqhsg","pricing_plan_id":"cebpf4jnsgd1na2vs0mg"},{"bike_id":"558469a4-3c4f-402a-9379-0d89a395ead9","system_id":"levelo_inurba_marseille","lat":43.28936,"lon":5.36641,"is_reserved":false,"is_disabled":false,"rental_uris":{"android":"levelo://app?vid=558469a4-3c4f-402a-9379-0d89a395ead9","ios":"levelo://app?vid=558469a4-3c4f-402a-9379-0d89a395ead9"},"vehicle_type_id":"4","last_reported":1728972802,"current_range_meters":22000,"station_id":"ce4bhap2rcd13ifvqek0","pricing_plan_id":"cebpf4jnsgd1na2vs0mg"},{"bike_id":"1458b245-9806-475b-b3be-c32d98087409","system_id":"levelo_inurba_marseille","lat":43.28476,"lon":5.38414,"is_reserved":false,"is_disabled":false,"rental_uris":{"android":"levelo://app?vid=1458b245-9806-475b-b3be-c32d98087409","ios":"levelo://app?vid=1458b245-9806-475b-b3be-c32d98087409"},"vehicle_type_id":"4","last_reported":1728972802,"current_range_meters":22000,"station_id":"ce4bh512rcd13ifvqe3g","pricing_plan_id":"cebpf4jnsgd1na2vs0mg"},{"bike_id":"ff7339be-2dbd-4fb2-bce4-24f273b5192e","system_id":"levelo_inurba_marseille","lat":43.28841,"lon":5.38453,"is_reserved":false,"is_disabled":false,"rental_uris":{"android":"levelo://app?vid=ff7339be-2dbd-4fb2-bce4-24f273b5192e","ios":"levelo://app?vid=ff7339be-2dbd-4fb2-bce4-24f273b5192e"},"vehicle_type_id":"4","last_reported":1728972802,"current_range_meters":32800,"station_id":"ce4bgip2rcd13ifvqbb0","pricing_plan_id":"cebpf4jnsgd1na2vs0mg"},{"bike_id":"4401e9fe-8fae-4df0-be02-0119e3aeedbd","system_id":"levelo_inurba_marseille","lat":43.33767,"lon":5.37436,"is_reserved":false,"is_disabled":false,"rental_uris":{"android":"levelo://app?vid=4401e9fe-8fae-4df0-be02-0119e3aeedbd","ios":"levelo://app?vid=4401e9fe-8fae-4df0-be02-0119e3aeedbd"},"vehicle_type_id":"4","last_reported":1728972802,"current_range_meters":32400,"station_id":"","pricing_plan_id":"cebpf4jnsgd1na2vs0mg"},{"bike_id":"7407b431-bff5-4398-a903-ce772c985ca2","system_id":"levelo_inurba_marseille","lat":43.24386,"lon":5.37065,"is_reserved":false,"is_disabled":false,"rental_uris":{"android":"levelo://app?vid=7407b431-bff5-4398-a903-ce772c985ca2","ios":"levelo://app?vid=7407b431-bff5-4398-a903-ce772c985ca2"},"vehicle_type_id":"4","last_reported":1728972802,"current_range_meters":19200,"station_id":"ce4bhhh2rcd13ifvqfk0","pricing_plan_id":"cebpf4jnsgd1na2vs0mg"},{"bike_id":"55ab21c0-14a8-4127-a2d5-c0fa006ad181","system_id":"levelo_inurba_marseille","lat":43.27539,"lon":5.40927,"is_reserved":false,"is_disabled":false,"rental_uris":{"android":"levelo://app?vid=55ab21c0-14a8-4127-a2d5-c0fa006ad181","ios":"levelo://app?vid=55ab21c0-14a8-4127-a2d5-c0fa006ad181"},"vehicle_type_id":"4","last_reported":1728972802,"current_range_meters":38000,"station_id":"ce501612rcd8frsf0b60","pricing_plan_id":"cebpf4jnsgd1na2vs0mg"},{"bike_id":"e9392d84-3a2b-4775-97c8-415a15f428b9","system_id":"levelo_inurba_marseille","lat":43.27493,"lon":5.42453,"is_reserved":false,"is_disabled":false,"rental_uris":{"android":"levelo://app?vid=e9392d84-3a2b-4775-97c8-415a15f428b9","ios":"levelo://app?vid=e9392d84-3a2b-4775-97c8-415a15f428b9"},"vehicle_type_id":"4","last_reported":1728972802,"current_range_meters":16400,"station_id":"ce4bhn92rcd13ifvqgrg","pricing_plan_id":"cebpf4jnsgd1na2vs0mg"},{"bike_id":"4d438f60-eb00-4f0e-9d32-cc6567f04cbe","system_id":"levelo_inurba_marseille","lat":43.30552,"lon":5.36705,"is_reserved":false,"is_disabled":false,"rental_uris":{"android":"levelo://app?vid=4d438f60-eb00-4f0e-9d32-cc6567f04cbe","ios":"levelo://app?vid=4d438f60-eb00-4f0e-9d32-cc6567f04cbe"},"vehicle_type_id":"4","last_reported":1728972802,"current_range_meters":36800,"station_id":"ce4bgrp2rcd13ifvqc9g","pricing_plan_id":"cebpf4jnsgd1na2vs0mg"},{"bike_id":"3e5fe587-9c10-4d92-a6c2-68d5dd352d2f","system_id":"levelo_inurba_marseille","lat":43.2953,"lon":5.38545,"is_reserved":false,"is_disabled":false,"rental_uris":{"android":"levelo://app?vid=3e5fe587-9c10-4d92-a6c2-68d5dd352d2f","ios":"levelo://app?vid=3e5fe587-9c10-4d92-a6c2-68d5dd352d2f"},"vehicle_type_id":"4","last_reported":1728972802,"current_range_meters":19200,"station_id":"ce4bgih2rcd13ifvqba0","pricing_plan_id":"cebpf4jnsgd1na2vs0mg"},{"bike_id":"f9712dbd-996b-489e-ba75-e8da56bce2f9","system_id":"levelo_inurba_marseille","lat":43.32058,"lon":5.41548,"is_reserved":false,"is_disabled":false,"rental_uris":{"android":"levelo://app?vid=f9712dbd-996b-489e-ba75-e8da56bce2f9","ios":"levelo://app?vid=f9712dbd-996b-489e-ba75-e8da56bce2f9"},"vehicle_type_id":"4","last_reported":1728972802,"current_range_meters":10000,"station_id":"ce4bhq92rcd13ifvqhkg","pricing_plan_id":"cebpf4jnsgd1na2vs0mg"},{"bike_id":"f45c5c4c-fa18-4170-b60d-9fa1304fb451","system_id":"levelo_inurba_marseille","lat":43.279386,"lon":5.410425,"is_reserved":false,"is_disabled":false,"rental_uris":{"android":"levelo://app?vid=f45c5c4c-fa18-4170-b60d-9fa1304fb451","ios":"levelo://app?vid=f45c5c4c-fa18-4170-b60d-9fa1304fb451"},"vehicle_type_id":"4","last_reported":1728972802,"current_range_meters":22400,"station_id":"ce4bhnp2rcd13ifvqh0g","pricing_plan_id":"cebpf4jnsgd1na2vs0mg"},{"bike_id":"37ce1297-6835-482a-aaff-2a5f6a5804e0","system_id":"levelo_inurba_marseille","lat":43.27419,"lon":5.39407,"is_reserved":false,"is_disabled":false,"rental_uris":{"android":"levelo://app?vid=37ce1297-6835-482a-aaff-2a5f6a5804e0","ios":"levelo://app?vid=37ce1297-6835-482a-aaff-2a5f6a5804e0"},"vehicle_type_id":"4","last_reported":1728972802,"current_range_meters":38000,"station_id":"ce4bhdp2rcd13ifvqf20","pricing_plan_id":"cebpf4jnsgd1na2vs0mg"},{"bike_id":"4e8bf75a-f60c-4784-a213-558cc88de64c","system_id":"levelo_inurba_marseille","lat":43.28466,"lon":5.38413,"is_reserved":false,"is_disabled":false,"rental_uris":{"android":"levelo://app?vid=4e8bf75a-f60c-4784-a213-558cc88de64c","ios":"levelo://app?vid=4e8bf75a-f60c-4784-a213-558cc88de64c"},"vehicle_type_id":"4","last_reported":1728972802,"current_range_meters":38800,"station_id":"ce4bh512rcd13ifvqe3g","pricing_plan_id":"cebpf4jnsgd1na2vs0mg"},{"bike_id":"eeb70712-f068-4787-a0ec-a7699bc58d5c","system_id":"levelo_inurba_marseille","lat":43.28941,"lon":5.36639,"is_reserved":false,"is_disabled":false,"rental_uris":{"android":"levelo://app?vid=eeb70712-f068-4787-a0ec-a7699bc58d5c","ios":"levelo://app?vid=eeb70712-f068-4787-a0ec-a7699bc58d5c"},"vehicle_type_id":"4","last_reported":1728972802,"current_range_meters":24400,"station_id":"ce4bhap2rcd13ifvqek0","pricing_plan_id":"cebpf4jnsgd1na2vs0mg"},{"bike_id":"ff96eee3-1ac8-4888-9ae7-e4b6cc8154af","system_id":"levelo_inurba_marseille","lat":43.33739,"lon":5.3746,"is_reserved":false,"is_disabled":false,"rental_uris":{"android":"levelo://app?vid=ff96eee3-1ac8-4888-9ae7-e4b6cc8154af","ios":"levelo://app?vid=ff96eee3-1ac8-4888-9ae7-e4b6cc8154af"},"vehicle_type_id":"4","last_reported":1728972802,"current_range_meters":35200,"station_id":"","pricing_plan_id":"cebpf4jnsgd1na2vs0mg"},{"bike_id":"e9191d34-615e-4e3d-ac29-2df0f62aa6d1","system_id":"levelo_inurba_marseille","lat":43.299243,"lon":5.374594,"is_reserved":false,"is_disabled":false,"rental_uris":{"android":"levelo://app?vid=e9191d34-615e-4e3d-ac29-2df0f62aa6d1","ios":"levelo://app?vid=e9191d34-615e-4e3d-ac29-2df0f62aa6d1"},"vehicle_type_id":"4","last_reported":1728972802,"current_range_meters":6800,"station_id":"ce4bgjh2rcd13ifvqbg0","pricing_plan_id":"cebpf4jnsgd1na2vs0mg"},{"bike_id":"23732db7-2cfe-4937-86a6-5fb46b4f6b1c","system_id":"levelo_inurba_marseille","lat":43.30464,"lon":5.37896,"is_reserved":false,"is_disabled":false,"rental_uris":{"android":"levelo://app?vid=23732db7-2cfe-4937-86a6-5fb46b4f6b1c","ios":"levelo://app?vid=23732db7-2cfe-4937-86a6-5fb46b4f6b1c"},"vehicle_type_id":"4","last_reported":1728972802,"current_range_meters":38000,"station_id":"ce4bgup2rcd13ifvqcn0","pricing_plan_id":"cebpf4jnsgd1na2vs0mg"},{"bike_id":"4cc486c5-3914-4883-ac05-f8177f7c75b7","system_id":"levelo_inurba_marseille","lat":43.26062,"lon":5.39395,"is_reserved":false,"is_disabled":false,"rental_uris":{"android":"levelo://app?vid=4cc486c5-3914-4883-ac05-f8177f7c75b7","ios":"levelo://app?vid=4cc486c5-3914-4883-ac05-f8177f7c75b7"},"vehicle_type_id":"4","last_reported":1728972802,"current_range_meters":30400,"station_id":"ce4bhh92rcd13ifvqfj0","pricing_plan_id":"cebpf4jnsgd1na2vs0mg"},{"bike_id":"7f7d8c5a-41cb-4f6a-9789-5599cc78e45e","system_id":"levelo_inurba_marseille","lat":43.27492,"lon":5.42454,"is_reserved":false,"is_disabled":false,"rental_uris":{"android":"levelo://app?vid=7f7d8c5a-41cb-4f6a-9789-5599cc78e45e","ios":"levelo://app?vid=7f7d8c5a-41cb-4f6a-9789-5599cc78e45e"},"vehicle_type_id":"4","last_reported":1728972802,"current_range_meters":29600,"station_id":"ce4bhn92rcd13ifvqgrg","pricing_plan_id":"cebpf4jnsgd1na2vs0mg"},{"bike_id":"00c53683-72aa-4d58-bb91-f404eef9456a","system_id":"levelo_inurba_marseille","lat":43.26947,"lon":5.38629,"is_reserved":false,"is_disabled":false,"rental_uris":{"android":"levelo://app?vid=00c53683-72aa-4d58-bb91-f404eef9456a","ios":"levelo://app?vid=00c53683-72aa-4d58-bb91-f404eef9456a"},"vehicle_type_id":"4","last_reported":1728972802,"current_range_meters":38800,"station_id":"ce4bhh92rcd13ifvqfh0","pricing_plan_id":"cebpf4jnsgd1na2vs0mg"},{"bike_id":"124fe4c8-d877-453b-88bd-af8d62d24653","system_id":"levelo_inurba_marseille","lat":43.2465,"lon":5.38887,"is_reserved":false,"is_disabled":false,"rental_uris":{"android":"levelo://app?vid=124fe4c8-d877-453b-88bd-af8d62d24653","ios":"levelo://app?vid=124fe4c8-d877-453b-88bd-af8d62d24653"},"vehicle_type_id":"4","last_reported":1728972802,"current_range_meters":8000,"station_id":"ce4bhg12rcd13ifvqf60","pricing_plan_id":"cebpf4jnsgd1na2vs0mg"},{"bike_id":"2b469be5-06f6-4f0e-b349-b4714aa1c7e5","system_id":"levelo_inurba_marseille","lat":43.28944,"lon":5.36399,"is_reserved":false,"is_disabled":false,"rental_uris":{"android":"levelo://app?vid=2b469be5-06f6-4f0e-b349-b4714aa1c7e5","ios":"levelo://app?vid=2b469be5-06f6-4f0e-b349-b4714aa1c7e5"},"vehicle_type_id":"4","last_reported":1728972802,"current_range_meters":28000,"station_id":"ce4bhc92rcd13ifvqetg","pricing_plan_id":"cebpf4jnsgd1na2vs0mg"},{"bike_id":"10a515f5-de6d-4ebd-ab68-7237fe828660","system_id":"levelo_inurba_marseille","lat":43.309095,"lon":5.368475,"is_reserved":false,"is_disabled":false,"rental_uris":{"android":"levelo://app?vid=10a515f5-de6d-4ebd-ab68-7237fe828660","ios":"levelo://app?vid=10a515f5-de6d-4ebd-ab68-7237fe828660"},"vehicle_type_id":"4","last_reported":1728972802,"current_range_meters":27200,"station_id":"ce4bgn92rcd13ifvqbvg","pricing_plan_id":"cebpf4jnsgd1na2vs0mg"},{"bike_id":"eff80307-d5b3-4ff3-9426-06161417ac3d","system_id":"levelo_inurba_marseille","lat":43.28936,"lon":5.39626,"is_reserved":false,"is_disabled":false,"rental_uris":{"android":"levelo://app?vid=eff80307-d5b3-4ff3-9426-06161417ac3d","ios":"levelo://app?vid=eff80307-d5b3-4ff3-9426-06161417ac3d"},"vehicle_type_id":"4","last_reported":1728972802,"current_range_meters":39200,"station_id":"ce4bh3h2rcd13ifvqdn0","pricing_plan_id":"cebpf4jnsgd1na2vs0mg"},{"bike_id":"4f027803-c5d2-4165-9635-a9f1760ade7c","system_id":"levelo_inurba_marseille","lat":43.26564,"lon":5.39012,"is_reserved":false,"is_disabled":false,"rental_uris":{"android":"levelo://app?vid=4f027803-c5d2-4165-9635-a9f1760ade7c","ios":"levelo://app?vid=4f027803-c5d2-4165-9635-a9f1760ade7c"},"vehicle_type_id":"4","last_reported":1728972802,"current_range_meters":37600,"station_id":"ce4bhe12rcd13ifvqf30","pricing_plan_id":"cebpf4jnsgd1na2vs0mg"},{"bike_id":"b33c9b36-53c0-45c3-b467-663a921ae838","system_id":"levelo_inurba_marseille","lat":43.30464,"lon":5.37902,"is_reserved":false,"is_disabled":false,"rental_uris":{"android":"levelo://app?vid=b33c9b36-53c0-45c3-b467-663a921ae838","ios":"levelo://app?vid=b33c9b36-53c0-45c3-b467-663a921ae838"},"vehicle_type_id":"4","last_reported":1728972802,"current_range_meters":27600,"station_id":"ce4bgup2rcd13ifvqcn0","pricing_plan_id":"cebpf4jnsgd1na2vs0mg"},{"bike_id":"e55ce7e2-8e60-47b5-844e-977029bd08ba","system_id":"levelo_inurba_marseille","lat":43.29557,"lon":5.4228,"is_reserved":false,"is_disabled":false,"rental_uris":{"android":"levelo://app?vid=e55ce7e2-8e60-47b5-844e-977029bd08ba","ios":"levelo://app?vid=e55ce7e2-8e60-47b5-844e-977029bd08ba"},"vehicle_type_id":"4","last_reported":1728972802,"current_range_meters":39200,"station_id":"ce4bhph2rcd13ifvqhdg","pricing_plan_id":"cebpf4jnsgd1na2vs0mg"},{"bike_id":"0b45c2be-8711-4ab5-a9ef-db89f4dea598","system_id":"levelo_inurba_marseille","lat":43.30463,"lon":5.37907,"is_reserved":false,"is_disabled":false,"rental_uris":{"android":"levelo://app?vid=0b45c2be-8711-4ab5-a9ef-db89f4dea598","ios":"levelo://app?vid=0b45c2be-8711-4ab5-a9ef-db89f4dea598"},"vehicle_type_id":"4","last_reported":1728972802,"current_range_meters":36800,"station_id":"ce4bgup2rcd13ifvqcn0","pricing_plan_id":"cebpf4jnsgd1na2vs0mg"},{"bike_id":"292b9425-1372-40d4-bf0a-fe57aa779a41","system_id":"levelo_inurba_marseille","lat":43.23063,"lon":5.35495,"is_reserved":false,"is_disabled":false,"rental_uris":{"android":"levelo://app?vid=292b9425-1372-40d4-bf0a-fe57aa779a41","ios":"levelo://app?vid=292b9425-1372-40d4-bf0a-fe57aa779a41"},"vehicle_type_id":"4","last_reported":1728972802,"current_range_meters":35200,"station_id":"cpo3342slgdg3j2ifvpg","pricing_plan_id":"cebpf4jnsgd1na2vs0mg"},{"bike_id":"abaadc87-30f0-49db-8f98-c2601a7d52a7","system_id":"levelo_inurba_marseille","lat":43.30152,"lon":5.38083,"is_reserved":false,"is_disabled":false,"rental_uris":{"android":"levelo://app?vid=abaadc87-30f0-49db-8f98-c2601a7d52a7","ios":"levelo://app?vid=abaadc87-30f0-49db-8f98-c2601a7d52a7"},"vehicle_type_id":"4","last_reported":1728972802,"current_range_meters":38800,"station_id":"ce4bgjp2rcd13ifvqbh0","pricing_plan_id":"cebpf4jnsgd1na2vs0mg"},{"bike_id":"6b2b3bd4-93d7-49fa-a468-6519d93f07ca","system_id":"levelo_inurba_marseille","lat":43.29226,"lon":5.36064,"is_reserved":false,"is_disabled":false,"rental_uris":{"android":"levelo://app?vid=6b2b3bd4-93d7-49fa-a468-6519d93f07ca","ios":"levelo://app?vid=6b2b3bd4-93d7-49fa-a468-6519d93f07ca"},"vehicle_type_id":"4","last_reported":1728972802,"current_range_meters":36800,"station_id":"ce4bhbh2rcd13ifvqeqg","pricing_plan_id":"cebpf4jnsgd1na2vs0mg"},{"bike_id":"a0e94a62-92b9-4aee-841c-76cf95b5fb0a","system_id":"levelo_inurba_marseille","lat":43.25086,"lon":5.39508,"is_reserved":false,"is_disabled":false,"rental_uris":{"android":"levelo://app?vid=a0e94a62-92b9-4aee-841c-76cf95b5fb0a","ios":"levelo://app?vid=a0e94a62-92b9-4aee-841c-76cf95b5fb0a"},"vehicle_type_id":"4","last_reported":1728972802,"current_range_meters":28000,"station_id":"ce4bhm12rcd13ifvqgkg","pricing_plan_id":"cebpf4jnsgd1na2vs0mg"},{"bike_id":"b3b84a65-83e3-4fc2-ad3d-d7fde1d5a8b0","system_id":"levelo_inurba_marseille","lat":43.2694,"lon":5.40255,"is_reserved":false,"is_disabled":false,"rental_uris":{"android":"levelo://app?vid=b3b84a65-83e3-4fc2-ad3d-d7fde1d5a8b0","ios":"levelo://app?vid=b3b84a65-83e3-4fc2-ad3d-d7fde1d5a8b0"},"vehicle_type_id":"4","last_reported":1728972802,"current_range_meters":38400,"station_id":"cjm6bp8fraef2m0cb0m0","pricing_plan_id":"cebpf4jnsgd1na2vs0mg"},{"bike_id":"fff832bb-8fe1-4b39-89a0-eac6edbed706","system_id":"levelo_inurba_marseille","lat":43.2696,"lon":5.38639,"is_reserved":false,"is_disabled":false,"rental_uris":{"android":"levelo://app?vid=fff832bb-8fe1-4b39-89a0-eac6edbed706","ios":"levelo://app?vid=fff832bb-8fe1-4b39-89a0-eac6edbed706"},"vehicle_type_id":"4","last_reported":1728972802,"current_range_meters":28400,"station_id":"ce4bhh92rcd13ifvqfh0","pricing_plan_id":"cebpf4jnsgd1na2vs0mg"},{"bike_id":"0adc00eb-7b70-4ce5-a5d5-be2ab25040db","system_id":"levelo_inurba_marseille","lat":43.30466,"lon":5.37907,"is_reserved":false,"is_disabled":false,"rental_uris":{"android":"levelo://app?vid=0adc00eb-7b70-4ce5-a5d5-be2ab25040db","ios":"levelo://app?vid=0adc00eb-7b70-4ce5-a5d5-be2ab25040db"},"vehicle_type_id":"4","last_reported":1728972802,"current_range_meters":35200,"station_id":"ce4bgup2rcd13ifvqcn0","pricing_plan_id":"cebpf4jnsgd1na2vs0mg"},{"bike_id":"11f4ad4b-7623-46af-a52a-6154289c0a47","system_id":"levelo_inurba_marseille","lat":43.28721,"lon":5.37939,"is_reserved":false,"is_disabled":false,"rental_uris":{"android":"levelo://app?vid=11f4ad4b-7623-46af-a52a-6154289c0a47","ios":"levelo://app?vid=11f4ad4b-7623-46af-a52a-6154289c0a47"},"vehicle_type_id":"4","last_reported":1728972802,"current_range_meters":17200,"station_id":"ce4bh9p2rcd13ifvqec0","pricing_plan_id":"cebpf4jnsgd1na2vs0mg"},{"bike_id":"e42a5c5b-19d2-48bc-8dfc-c8514ef28621","system_id":"levelo_inurba_marseille","lat":43.24169,"lon":5.36399,"is_reserved":false,"is_disabled":false,"rental_uris":{"android":"levelo://app?vid=e42a5c5b-19d2-48bc-8dfc-c8514ef28621","ios":"levelo://app?vid=e42a5c5b-19d2-48bc-8dfc-c8514ef28621"},"vehicle_type_id":"4","last_reported":1728972802,"current_range_meters":27200,"station_id":"cpo36qri1sfpv3e86is0","pricing_plan_id":"cebpf4jnsgd1na2vs0mg"},{"bike_id":"24a43979-b432-43c7-83da-543a83415270","system_id":"levelo_inurba_marseille","lat":43.27061,"lon":5.40254,"is_reserved":false,"is_disabled":false,"rental_uris":{"android":"levelo://app?vid=24a43979-b432-43c7-83da-543a83415270","ios":"levelo://app?vid=24a43979-b432-43c7-83da-543a83415270"},"vehicle_type_id":"4","last_reported":1728972802,"current_range_meters":38000,"station_id":"ce4bhk92rcd13ifvqgc0","pricing_plan_id":"cebpf4jnsgd1na2vs0mg"},{"bike_id":"a06937a4-3e9e-4abf-befb-c57e8480d579","system_id":"levelo_inurba_marseille","lat":43.26958,"lon":5.3864,"is_reserved":false,"is_disabled":false,"rental_uris":{"android":"levelo://app?vid=a06937a4-3e9e-4abf-befb-c57e8480d579","ios":"levelo://app?vid=a06937a4-3e9e-4abf-befb-c57e8480d579"},"vehicle_type_id":"4","last_reported":1728972802,"current_range_meters":37600,"station_id":"ce4bhh92rcd13ifvqfh0","pricing_plan_id":"cebpf4jnsgd1na2vs0mg"},{"bike_id":"0bb0b55b-1db0-4f04-9cae-5decd1e52b8e","system_id":"levelo_inurba_marseille","lat":43.23162,"lon":5.437,"is_reserved":false,"is_disabled":false,"rental_uris":{"android":"levelo://app?vid=0bb0b55b-1db0-4f04-9cae-5decd1e52b8e","ios":"levelo://app?vid=0bb0b55b-1db0-4f04-9cae-5decd1e52b8e"},"vehicle_type_id":"4","last_reported":1728972802,"current_range_meters":22800,"station_id":"ce4bhmp2rcd13ifvqgog","pricing_plan_id":"cebpf4jnsgd1na2vs0mg"},{"bike_id":"2f4894ad-bef6-449b-bc34-4c1583c86683","system_id":"levelo_inurba_marseille","lat":43.28939,"lon":5.36638,"is_reserved":false,"is_disabled":false,"rental_uris":{"android":"levelo://app?vid=2f4894ad-bef6-449b-bc34-4c1583c86683","ios":"levelo://app?vid=2f4894ad-bef6-449b-bc34-4c1583c86683"},"vehicle_type_id":"4","last_reported":1728972802,"current_range_meters":33600,"station_id":"ce4bhap2rcd13ifvqek0","pricing_plan_id":"cebpf4jnsgd1na2vs0mg"},{"bike_id":"dc519df1-69f1-46bf-9f3c-948c3fe069e9","system_id":"levelo_inurba_marseille","lat":43.30456,"lon":5.37913,"is_reserved":false,"is_disabled":false,"rental_uris":{"android":"levelo://app?vid=dc519df1-69f1-46bf-9f3c-948c3fe069e9","ios":"levelo://app?vid=dc519df1-69f1-46bf-9f3c-948c3fe069e9"},"vehicle_type_id":"4","last_reported":1728972802,"current_range_meters":38800,"station_id":"ce4bgup2rcd13ifvqcn0","pricing_plan_id":"cebpf4jnsgd1na2vs0mg"},{"bike_id":"d06f24f3-1961-4c39-8b26-c72733863fe9","system_id":"levelo_inurba_marseille","lat":43.33781,"lon":5.37443,"is_reserved":false,"is_disabled":false,"rental_uris":{"android":"levelo://app?vid=d06f24f3-1961-4c39-8b26-c72733863fe9","ios":"levelo://app?vid=d06f24f3-1961-4c39-8b26-c72733863fe9"},"vehicle_type_id":"4","last_reported":1728972802,"current_range_meters":25600,"station_id":"","pricing_plan_id":"cebpf4jnsgd1na2vs0mg"},{"bike_id":"35ee015f-fa4b-469f-9467-602ccd0a4196","system_id":"levelo_inurba_marseille","lat":43.31496,"lon":5.37312,"is_reserved":false,"is_disabled":false,"rental_uris":{"android":"levelo://app?vid=35ee015f-fa4b-469f-9467-602ccd0a4196","ios":"levelo://app?vid=35ee015f-fa4b-469f-9467-602ccd0a4196"},"vehicle_type_id":"4","last_reported":1728972802,"current_range_meters":28400,"station_id":"ce4bgt12rcd13ifvqcd0","pricing_plan_id":"cebpf4jnsgd1na2vs0mg"},{"bike_id":"bd5f1900-66f7-4d92-bd48-0e7efd972932","system_id":"levelo_inurba_marseille","lat":43.29816,"lon":5.38101,"is_reserved":false,"is_disabled":false,"rental_uris":{"android":"levelo://app?vid=bd5f1900-66f7-4d92-bd48-0e7efd972932","ios":"levelo://app?vid=bd5f1900-66f7-4d92-bd48-0e7efd972932"},"vehicle_type_id":"4","last_reported":1728972802,"current_range_meters":35200,"station_id":"ce4bgip2rcd13ifvqbb0","pricing_plan_id":"cebpf4jnsgd1na2vs0mg"},{"bike_id":"769284f6-a35c-4008-be1f-0b11e77cca03","system_id":"levelo_inurba_marseille","lat":43.28347,"lon":5.38108,"is_reserved":false,"is_disabled":false,"rental_uris":{"android":"levelo://app?vid=769284f6-a35c-4008-be1f-0b11e77cca03","ios":"levelo://app?vid=769284f6-a35c-4008-be1f-0b11e77cca03"},"vehicle_type_id":"4","last_reported":1728972802,"current_range_meters":30800,"station_id":"ce4bh412rcd13ifvqdr0","pricing_plan_id":"cebpf4jnsgd1na2vs0mg"},{"bike_id":"cf1f35a0-8cbf-4208-9583-ffbe2a0e507c","system_id":"levelo_inurba_marseille","lat":43.29225,"lon":5.36077,"is_reserved":false,"is_disabled":false,"rental_uris":{"android":"levelo://app?vid=cf1f35a0-8cbf-4208-9583-ffbe2a0e507c","ios":"levelo://app?vid=cf1f35a0-8cbf-4208-9583-ffbe2a0e507c"},"vehicle_type_id":"4","last_reported":1728972802,"current_range_meters":5600,"station_id":"ce4bhbh2rcd13ifvqeqg","pricing_plan_id":"cebpf4jnsgd1na2vs0mg"},{"bike_id":"d41309ab-1a1f-4395-acaa-455483c3f8e1","system_id":"levelo_inurba_marseille","lat":43.23195,"lon":5.3555,"is_reserved":false,"is_disabled":false,"rental_uris":{"android":"levelo://app?vid=d41309ab-1a1f-4395-acaa-455483c3f8e1","ios":"levelo://app?vid=d41309ab-1a1f-4395-acaa-455483c3f8e1"},"vehicle_type_id":"4","last_reported":1728972802,"current_range_meters":34800,"station_id":"ce4bhu92rcd13ifvqi70","pricing_plan_id":"cebpf4jnsgd1na2vs0mg"},{"bike_id":"39b707b7-e53b-4ad1-be37-0df2a563b2c2","system_id":"levelo_inurba_marseille","lat":43.31337,"lon":5.36722,"is_reserved":false,"is_disabled":false,"rental_uris":{"android":"levelo://app?vid=39b707b7-e53b-4ad1-be37-0df2a563b2c2","ios":"levelo://app?vid=39b707b7-e53b-4ad1-be37-0df2a563b2c2"},"vehicle_type_id":"4","last_reported":1728972802,"current_range_meters":36800,"station_id":"ce4bgr92rcd13ifvqc6g","pricing_plan_id":"cebpf4jnsgd1na2vs0mg"},{"bike_id":"cc57374e-cbbc-4188-9ab3-90c5d88ee31b","system_id":"levelo_inurba_marseille","lat":43.27493,"lon":5.42449,"is_reserved":false,"is_disabled":false,"rental_uris":{"android":"levelo://app?vid=cc57374e-cbbc-4188-9ab3-90c5d88ee31b","ios":"levelo://app?vid=cc57374e-cbbc-4188-9ab3-90c5d88ee31b"},"vehicle_type_id":"4","last_reported":1728972802,"current_range_meters":39200,"station_id":"ce4bhn92rcd13ifvqgrg","pricing_plan_id":"cebpf4jnsgd1na2vs0mg"},{"bike_id":"2f9e07cb-333a-435c-9c5b-8a578bd24d6c","system_id":"levelo_inurba_marseille","lat":43.27496,"lon":5.42448,"is_reserved":false,"is_disabled":false,"rental_uris":{"android":"levelo://app?vid=2f9e07cb-333a-435c-9c5b-8a578bd24d6c","ios":"levelo://app?vid=2f9e07cb-333a-435c-9c5b-8a578bd24d6c"},"vehicle_type_id":"4","last_reported":1728972802,"current_range_meters":19600,"station_id":"ce4bhn92rcd13ifvqgrg","pricing_plan_id":"cebpf4jnsgd1na2vs0mg"},{"bike_id":"4541705b-123e-4e6f-8dd6-ae40b6b53c55","system_id":"levelo_inurba_marseille","lat":43.28157,"lon":5.42645,"is_reserved":false,"is_disabled":false,"rental_uris":{"android":"levelo://app?vid=4541705b-123e-4e6f-8dd6-ae40b6b53c55","ios":"levelo://app?vid=4541705b-123e-4e6f-8dd6-ae40b6b53c55"},"vehicle_type_id":"4","last_reported":1728972802,"current_range_meters":8800,"station_id":"ce4bhnh2rcd13ifvqgug","pricing_plan_id":"cebpf4jnsgd1na2vs0mg"},{"bike_id":"49a0973d-accc-4d48-9b7d-411262a84fd5","system_id":"levelo_inurba_marseille","lat":43.31108,"lon":5.37763,"is_reserved":false,"is_disabled":false,"rental_uris":{"android":"levelo://app?vid=49a0973d-accc-4d48-9b7d-411262a84fd5","ios":"levelo://app?vid=49a0973d-accc-4d48-9b7d-411262a84fd5"},"vehicle_type_id":"4","last_reported":1728972802,"current_range_meters":38000,"station_id":"ce4bgt92rcd13ifvqcg0","pricing_plan_id":"cebpf4jnsgd1na2vs0mg"},{"bike_id":"df06b48e-1e05-4b28-ad99-227a0da75c3f","system_id":"levelo_inurba_marseille","lat":43.30604,"lon":5.39354,"is_reserved":false,"is_disabled":false,"rental_uris":{"android":"levelo://app?vid=df06b48e-1e05-4b28-ad99-227a0da75c3f","ios":"levelo://app?vid=df06b48e-1e05-4b28-ad99-227a0da75c3f"},"vehicle_type_id":"4","last_reported":1728972802,"current_range_meters":38800,"station_id":"ce4bh0p2rcd13ifvqd80","pricing_plan_id":"cebpf4jnsgd1na2vs0mg"},{"bike_id":"841fb6f8-2296-487b-9f27-17f776d3e1ac","system_id":"levelo_inurba_marseille","lat":43.24178,"lon":5.39731,"is_reserved":false,"is_disabled":false,"rental_uris":{"android":"levelo://app?vid=841fb6f8-2296-487b-9f27-17f776d3e1ac","ios":"levelo://app?vid=841fb6f8-2296-487b-9f27-17f776d3e1ac"},"vehicle_type_id":"4","last_reported":1728972802,"current_range_meters":37600,"station_id":"ce4bhn12rcd13ifvqgpg","pricing_plan_id":"cebpf4jnsgd1na2vs0mg"},{"bike_id":"6fff0583-f63c-4656-bc6a-626d3dc3e108","system_id":"levelo_inurba_marseille","lat":43.27176,"lon":5.40993,"is_reserved":false,"is_disabled":false,"rental_uris":{"android":"levelo://app?vid=6fff0583-f63c-4656-bc6a-626d3dc3e108","ios":"levelo://app?vid=6fff0583-f63c-4656-bc6a-626d3dc3e108"},"vehicle_type_id":"4","last_reported":1728972802,"current_range_meters":35200,"station_id":"ce4bhl12rcd13ifvqgf0","pricing_plan_id":"cebpf4jnsgd1na2vs0mg"},{"bike_id":"f33ca04e-0fdd-4816-b4fc-80bcd342b78a","system_id":"levelo_inurba_marseille","lat":43.295538,"lon":5.422842,"is_reserved":false,"is_disabled":false,"rental_uris":{"android":"levelo://app?vid=f33ca04e-0fdd-4816-b4fc-80bcd342b78a","ios":"levelo://app?vid=f33ca04e-0fdd-4816-b4fc-80bcd342b78a"},"vehicle_type_id":"4","last_reported":1728972802,"current_range_meters":37600,"station_id":"ce4bhph2rcd13ifvqhdg","pricing_plan_id":"cebpf4jnsgd1na2vs0mg"},{"bike_id":"1ba24af0-1e1a-458a-875b-15e0fa7d8a10","system_id":"levelo_inurba_marseille","lat":43.28951,"lon":5.36399,"is_reserved":false,"is_disabled":false,"rental_uris":{"android":"levelo://app?vid=1ba24af0-1e1a-458a-875b-15e0fa7d8a10","ios":"levelo://app?vid=1ba24af0-1e1a-458a-875b-15e0fa7d8a10"},"vehicle_type_id":"4","last_reported":1728972802,"current_range_meters":18800,"station_id":"ce4bhc92rcd13ifvqetg","pricing_plan_id":"cebpf4jnsgd1na2vs0mg"},{"bike_id":"42ddf1a3-c9fa-4405-9d7e-8b919329a107","system_id":"levelo_inurba_marseille","lat":43.284399,"lon":5.39206,"is_reserved":false,"is_disabled":false,"rental_uris":{"android":"levelo://app?vid=42ddf1a3-c9fa-4405-9d7e-8b919329a107","ios":"levelo://app?vid=42ddf1a3-c9fa-4405-9d7e-8b919329a107"},"vehicle_type_id":"4","last_reported":1728972802,"current_range_meters":38400,"station_id":"ce4bgs12rcd13ifvqcag","pricing_plan_id":"cebpf4jnsgd1na2vs0mg"},{"bike_id":"c7b21cf6-e6ef-4a95-b2ab-92111a1993c5","system_id":"levelo_inurba_marseille","lat":43.2749,"lon":5.42458,"is_reserved":false,"is_disabled":false,"rental_uris":{"android":"levelo://app?vid=c7b21cf6-e6ef-4a95-b2ab-92111a1993c5","ios":"levelo://app?vid=c7b21cf6-e6ef-4a95-b2ab-92111a1993c5"},"vehicle_type_id":"4","last_reported":1728972802,"current_range_meters":26800,"station_id":"ce4bhn92rcd13ifvqgrg","pricing_plan_id":"cebpf4jnsgd1na2vs0mg"},{"bike_id":"ec39797c-9936-4ad3-bc31-7509ade66d89","system_id":"levelo_inurba_marseille","lat":43.28158,"lon":5.42642,"is_reserved":false,"is_disabled":false,"rental_uris":{"android":"levelo://app?vid=ec39797c-9936-4ad3-bc31-7509ade66d89","ios":"levelo://app?vid=ec39797c-9936-4ad3-bc31-7509ade66d89"},"vehicle_type_id":"4","last_reported":1728972802,"current_range_meters":34000,"station_id":"ce4bhnh2rcd13ifvqgug","pricing_plan_id":"cebpf4jnsgd1na2vs0mg"},{"bike_id":"4c0eae8f-fb78-42e3-9cf9-594cfc4b55bc","system_id":"levelo_inurba_marseille","lat":43.24588,"lon":5.39277,"is_reserved":false,"is_disabled":false,"rental_uris":{"android":"levelo://app?vid=4c0eae8f-fb78-42e3-9cf9-594cfc4b55bc","ios":"levelo://app?vid=4c0eae8f-fb78-42e3-9cf9-594cfc4b55bc"},"vehicle_type_id":"4","last_reported":1728972802,"current_range_meters":9600,"station_id":"ce4bhlp2rcd13ifvqgjg","pricing_plan_id":"cebpf4jnsgd1na2vs0mg"},{"bike_id":"d43a7f1a-e138-48b5-b5d1-ce490ca9de14","system_id":"levelo_inurba_marseille","lat":43.29031,"lon":5.3813,"is_reserved":false,"is_disabled":false,"rental_uris":{"android":"levelo://app?vid=d43a7f1a-e138-48b5-b5d1-ce490ca9de14","ios":"levelo://app?vid=d43a7f1a-e138-48b5-b5d1-ce490ca9de14"},"vehicle_type_id":"4","last_reported":1728972802,"current_range_meters":38800,"station_id":"ce4bh4p2rcd13ifvqe1g","pricing_plan_id":"cebpf4jnsgd1na2vs0mg"},{"bike_id":"b11c06d9-534d-4366-a71a-e0535e8f5a13","system_id":"levelo_inurba_marseille","lat":43.29606,"lon":5.38107,"is_reserved":false,"is_disabled":false,"rental_uris":{"android":"levelo://app?vid=b11c06d9-534d-4366-a71a-e0535e8f5a13","ios":"levelo://app?vid=b11c06d9-534d-4366-a71a-e0535e8f5a13"},"vehicle_type_id":"4","last_reported":1728972802,"current_range_meters":28800,"station_id":"ce4bgl12rcd13ifvqbo0","pricing_plan_id":"cebpf4jnsgd1na2vs0mg"},{"bike_id":"1af2813b-98a0-4b62-aaf8-89652b30f639","system_id":"levelo_inurba_marseille","lat":43.22933,"lon":5.35381,"is_reserved":false,"is_disabled":false,"rental_uris":{"android":"levelo://app?vid=1af2813b-98a0-4b62-aaf8-89652b30f639","ios":"levelo://app?vid=1af2813b-98a0-4b62-aaf8-89652b30f639"},"vehicle_type_id":"4","last_reported":1728972802,"current_range_meters":32000,"station_id":"cpo3532slgdg3j2ikp40","pricing_plan_id":"cebpf4jnsgd1na2vs0mg"},{"bike_id":"c169b01e-34af-4211-8491-5b702e9a8160","system_id":"levelo_inurba_marseille","lat":43.278133,"lon":5.407132,"is_reserved":false,"is_disabled":false,"rental_uris":{"android":"levelo://app?vid=c169b01e-34af-4211-8491-5b702e9a8160","ios":"levelo://app?vid=c169b01e-34af-4211-8491-5b702e9a8160"},"vehicle_type_id":"4","last_reported":1728972802,"current_range_meters":4400,"station_id":"ce4bhnh2rcd13ifvqgtg","pricing_plan_id":"cebpf4jnsgd1na2vs0mg"},{"bike_id":"b6e51444-f57b-47a8-9c42-cdc3eaeef5e5","system_id":"levelo_inurba_marseille","lat":43.31362,"lon":5.36694,"is_reserved":false,"is_disabled":false,"rental_uris":{"android":"levelo://app?vid=b6e51444-f57b-47a8-9c42-cdc3eaeef5e5","ios":"levelo://app?vid=b6e51444-f57b-47a8-9c42-cdc3eaeef5e5"},"vehicle_type_id":"4","last_reported":1728972802,"current_range_meters":38400,"station_id":"ce4bgr92rcd13ifvqc6g","pricing_plan_id":"cebpf4jnsgd1na2vs0mg"},{"bike_id":"f93454e1-a669-4c63-a4ca-b572042c7971","system_id":"levelo_inurba_marseille","lat":43.23194,"lon":5.35546,"is_reserved":false,"is_disabled":false,"rental_uris":{"android":"levelo://app?vid=f93454e1-a669-4c63-a4ca-b572042c7971","ios":"levelo://app?vid=f93454e1-a669-4c63-a4ca-b572042c7971"},"vehicle_type_id":"4","last_reported":1728972802,"current_range_meters":27200,"station_id":"ce4bhu92rcd13ifvqi70","pricing_plan_id":"cebpf4jnsgd1na2vs0mg"},{"bike_id":"ab38c6ee-afe2-452b-b152-733408083f03","system_id":"levelo_inurba_marseille","lat":43.24074,"lon":5.37756,"is_reserved":false,"is_disabled":false,"rental_uris":{"android":"levelo://app?vid=ab38c6ee-afe2-452b-b152-733408083f03","ios":"levelo://app?vid=ab38c6ee-afe2-452b-b152-733408083f03"},"vehicle_type_id":"4","last_reported":1728972802,"current_range_meters":34800,"station_id":"ce4bhnp2rcd13ifvqgvg","pricing_plan_id":"cebpf4jnsgd1na2vs0mg"},{"bike_id":"90013b84-0d48-4b62-8b00-00a19ddadca1","system_id":"levelo_inurba_marseille","lat":43.31496,"lon":5.37312,"is_reserved":false,"is_disabled":false,"rental_uris":{"android":"levelo://app?vid=90013b84-0d48-4b62-8b00-00a19ddadca1","ios":"levelo://app?vid=90013b84-0d48-4b62-8b00-00a19ddadca1"},"vehicle_type_id":"4","last_reported":1728972802,"current_range_meters":29600,"station_id":"ce4bgt12rcd13ifvqcd0","pricing_plan_id":"cebpf4jnsgd1na2vs0mg"},{"bike_id":"57bc6541-dce3-40de-b918-ceb0411c6d81","system_id":"levelo_inurba_marseille","lat":43.23155,"lon":5.43702,"is_reserved":false,"is_disabled":false,"rental_uris":{"android":"levelo://app?vid=57bc6541-dce3-40de-b918-ceb0411c6d81","ios":"levelo://app?vid=57bc6541-dce3-40de-b918-ceb0411c6d81"},"vehicle_type_id":"4","last_reported":1728972802,"current_range_meters":14800,"station_id":"ce4bhmp2rcd13ifvqgog","pricing_plan_id":"cebpf4jnsgd1na2vs0mg"},{"bike_id":"99f99f66-5e80-4300-8b35-fa6cb8cec6b1","system_id":"levelo_inurba_marseille","lat":43.29609,"lon":5.38109,"is_reserved":false,"is_disabled":false,"rental_uris":{"android":"levelo://app?vid=99f99f66-5e80-4300-8b35-fa6cb8cec6b1","ios":"levelo://app?vid=99f99f66-5e80-4300-8b35-fa6cb8cec6b1"},"vehicle_type_id":"4","last_reported":1728972802,"current_range_meters":33600,"station_id":"ce4bgl12rcd13ifvqbo0","pricing_plan_id":"cebpf4jnsgd1na2vs0mg"},{"bike_id":"6a344486-14e7-432e-98bf-b8beed8e06c6","system_id":"levelo_inurba_marseille","lat":43.32336,"lon":5.38328,"is_reserved":false,"is_disabled":false,"rental_uris":{"android":"levelo://app?vid=6a344486-14e7-432e-98bf-b8beed8e06c6","ios":"levelo://app?vid=6a344486-14e7-432e-98bf-b8beed8e06c6"},"vehicle_type_id":"4","last_reported":1728972802,"current_range_meters":32000,"station_id":"","pricing_plan_id":"cebpf4jnsgd1na2vs0mg"},{"bike_id":"1c29ea6a-d424-450d-9c36-6b427ab42330","system_id":"levelo_inurba_marseille","lat":43.34144,"lon":5.40907,"is_reserved":false,"is_disabled":false,"rental_uris":{"android":"levelo://app?vid=1c29ea6a-d424-450d-9c36-6b427ab42330","ios":"levelo://app?vid=1c29ea6a-d424-450d-9c36-6b427ab42330"},"vehicle_type_id":"4","last_reported":1728972802,"current_range_meters":39200,"station_id":"ce4bhqh2rcd13ifvqhlg","pricing_plan_id":"cebpf4jnsgd1na2vs0mg"},{"bike_id":"81196a5d-0a45-4026-ad0a-c1bfb2a53b8b","system_id":"levelo_inurba_marseille","lat":43.30139,"lon":5.38785,"is_reserved":false,"is_disabled":false,"rental_uris":{"android":"levelo://app?vid=81196a5d-0a45-4026-ad0a-c1bfb2a53b8b","ios":"levelo://app?vid=81196a5d-0a45-4026-ad0a-c1bfb2a53b8b"},"vehicle_type_id":"4","last_reported":1728972802,"current_range_meters":27200,"station_id":"ce4bghh2rcd13ifvqb60","pricing_plan_id":"cebpf4jnsgd1na2vs0mg"},{"bike_id":"c4583097-cbd6-4914-98b4-4ed8d598d525","system_id":"levelo_inurba_marseille","lat":43.2657,"lon":5.39013,"is_reserved":false,"is_disabled":false,"rental_uris":{"android":"levelo://app?vid=c4583097-cbd6-4914-98b4-4ed8d598d525","ios":"levelo://app?vid=c4583097-cbd6-4914-98b4-4ed8d598d525"},"vehicle_type_id":"4","last_reported":1728972802,"current_range_meters":32800,"station_id":"ce4bhe12rcd13ifvqf30","pricing_plan_id":"cebpf4jnsgd1na2vs0mg"},{"bike_id":"6d61c30c-aaab-448e-98d9-6b685a70e169","system_id":"levelo_inurba_marseille","lat":43.30464,"lon":5.37886,"is_reserved":false,"is_disabled":false,"rental_uris":{"android":"levelo://app?vid=6d61c30c-aaab-448e-98d9-6b685a70e169","ios":"levelo://app?vid=6d61c30c-aaab-448e-98d9-6b685a70e169"},"vehicle_type_id":"4","last_reported":1728972802,"current_range_meters":30800,"station_id":"ce4bgup2rcd13ifvqcn0","pricing_plan_id":"cebpf4jnsgd1na2vs0mg"},{"bike_id":"754da881-cbc9-4b35-beb2-51d368048841","system_id":"levelo_inurba_marseille","lat":43.33722,"lon":5.37446,"is_reserved":false,"is_disabled":false,"rental_uris":{"android":"levelo://app?vid=754da881-cbc9-4b35-beb2-51d368048841","ios":"levelo://app?vid=754da881-cbc9-4b35-beb2-51d368048841"},"vehicle_type_id":"4","last_reported":1728972802,"current_range_meters":37600,"station_id":"","pricing_plan_id":"cebpf4jnsgd1na2vs0mg"},{"bike_id":"102a29d7-9907-4c19-89e4-dd1116c0dc9a","system_id":"levelo_inurba_marseille","lat":43.26944,"lon":5.40245,"is_reserved":false,"is_disabled":false,"rental_uris":{"android":"levelo://app?vid=102a29d7-9907-4c19-89e4-dd1116c0dc9a","ios":"levelo://app?vid=102a29d7-9907-4c19-89e4-dd1116c0dc9a"},"vehicle_type_id":"4","last_reported":1728972802,"current_range_meters":36800,"station_id":"cjm6bp8fraef2m0cb0m0","pricing_plan_id":"cebpf4jnsgd1na2vs0mg"},{"bike_id":"dde86e9c-08ab-447e-8977-98fcc15ceb96","system_id":"levelo_inurba_marseille","lat":43.24082,"lon":5.37754,"is_reserved":false,"is_disabled":false,"rental_uris":{"android":"levelo://app?vid=dde86e9c-08ab-447e-8977-98fcc15ceb96","ios":"levelo://app?vid=dde86e9c-08ab-447e-8977-98fcc15ceb96"},"vehicle_type_id":"4","last_reported":1728972802,"current_range_meters":16800,"station_id":"ce4bhnp2rcd13ifvqgvg","pricing_plan_id":"cebpf4jnsgd1na2vs0mg"},{"bike_id":"b1ce1002-a0c8-4871-8eed-d8113342009a","system_id":"levelo_inurba_marseille","lat":43.29735,"lon":5.38003,"is_reserved":false,"is_disabled":false,"rental_uris":{"android":"levelo://app?vid=b1ce1002-a0c8-4871-8eed-d8113342009a","ios":"levelo://app?vid=b1ce1002-a0c8-4871-8eed-d8113342009a"},"vehicle_type_id":"4","last_reported":1728972802,"current_range_meters":26800,"station_id":"","pricing_plan_id":"cebpf4jnsgd1na2vs0mg"},{"bike_id":"80004c0b-1888-4bc4-861c-1bb18fe1efd7","system_id":"levelo_inurba_marseille","lat":43.29556,"lon":5.42278,"is_reserved":false,"is_disabled":false,"rental_uris":{"android":"levelo://app?vid=80004c0b-1888-4bc4-861c-1bb18fe1efd7","ios":"levelo://app?vid=80004c0b-1888-4bc4-861c-1bb18fe1efd7"},"vehicle_type_id":"4","last_reported":1728972802,"current_range_meters":38800,"station_id":"ce4bhph2rcd13ifvqhdg","pricing_plan_id":"cebpf4jnsgd1na2vs0mg"},{"bike_id":"4489eb57-3bb6-4dcc-af4f-deedd1c842cf","system_id":"levelo_inurba_marseille","lat":43.257142,"lon":5.410981,"is_reserved":false,"is_disabled":false,"rental_uris":{"android":"levelo://app?vid=4489eb57-3bb6-4dcc-af4f-deedd1c842cf","ios":"levelo://app?vid=4489eb57-3bb6-4dcc-af4f-deedd1c842cf"},"vehicle_type_id":"4","last_reported":1728972802,"current_range_meters":37600,"station_id":"ce4bhkp2rcd13ifvqgd0","pricing_plan_id":"cebpf4jnsgd1na2vs0mg"},{"bike_id":"b7ef1f60-ffe0-4631-93f5-5f712203b698","system_id":"levelo_inurba_marseille","lat":43.32542,"lon":5.41433,"is_reserved":false,"is_disabled":false,"rental_uris":{"android":"levelo://app?vid=b7ef1f60-ffe0-4631-93f5-5f712203b698","ios":"levelo://app?vid=b7ef1f60-ffe0-4631-93f5-5f712203b698"},"vehicle_type_id":"4","last_reported":1728972802,"current_range_meters":32800,"station_id":"ce4bhq12rcd13ifvqhhg","pricing_plan_id":"cebpf4jnsgd1na2vs0mg"},{"bike_id":"62e45469-f538-4a4e-9c68-10e8b3b74449","system_id":"levelo_inurba_marseille","lat":43.25865,"lon":5.39902,"is_reserved":false,"is_disabled":false,"rental_uris":{"android":"levelo://app?vid=62e45469-f538-4a4e-9c68-10e8b3b74449","ios":"levelo://app?vid=62e45469-f538-4a4e-9c68-10e8b3b74449"},"vehicle_type_id":"4","last_reported":1728972802,"current_range_meters":38800,"station_id":"ce4bhl92rcd13ifvqghg","pricing_plan_id":"cebpf4jnsgd1na2vs0mg"},{"bike_id":"85f8e4ef-a703-428d-9079-be396eb9a9af","system_id":"levelo_inurba_marseille","lat":43.32537,"lon":5.41432,"is_reserved":false,"is_disabled":false,"rental_uris":{"android":"levelo://app?vid=85f8e4ef-a703-428d-9079-be396eb9a9af","ios":"levelo://app?vid=85f8e4ef-a703-428d-9079-be396eb9a9af"},"vehicle_type_id":"4","last_reported":1728972802,"current_range_meters":8000,"station_id":"ce4bhq12rcd13ifvqhhg","pricing_plan_id":"cebpf4jnsgd1na2vs0mg"},{"bike_id":"72ae183a-7bbc-4851-9b49-c2bd35a04c13","system_id":"levelo_inurba_marseille","lat":43.28356,"lon":5.38108,"is_reserved":false,"is_disabled":false,"rental_uris":{"android":"levelo://app?vid=72ae183a-7bbc-4851-9b49-c2bd35a04c13","ios":"levelo://app?vid=72ae183a-7bbc-4851-9b49-c2bd35a04c13"},"vehicle_type_id":"4","last_reported":1728972802,"current_range_meters":8400,"station_id":"ce4bh412rcd13ifvqdr0","pricing_plan_id":"cebpf4jnsgd1na2vs0mg"},{"bike_id":"d3c56be5-06cd-46e9-9e77-35750e7651d5","system_id":"levelo_inurba_marseille","lat":43.2706,"lon":5.4026,"is_reserved":false,"is_disabled":false,"rental_uris":{"android":"levelo://app?vid=d3c56be5-06cd-46e9-9e77-35750e7651d5","ios":"levelo://app?vid=d3c56be5-06cd-46e9-9e77-35750e7651d5"},"vehicle_type_id":"4","last_reported":1728972802,"current_range_meters":19200,"station_id":"ce4bhk92rcd13ifvqgc0","pricing_plan_id":"cebpf4jnsgd1na2vs0mg"},{"bike_id":"1b5fed6f-86b5-43b2-b23f-805b40cb8553","system_id":"levelo_inurba_marseille","lat":43.2407,"lon":5.37767,"is_reserved":false,"is_disabled":false,"rental_uris":{"android":"levelo://app?vid=1b5fed6f-86b5-43b2-b23f-805b40cb8553","ios":"levelo://app?vid=1b5fed6f-86b5-43b2-b23f-805b40cb8553"},"vehicle_type_id":"4","last_reported":1728972802,"current_range_meters":38800,"station_id":"ce4bhnp2rcd13ifvqgvg","pricing_plan_id":"cebpf4jnsgd1na2vs0mg"},{"bike_id":"f83487b8-cf5a-4d8b-a09a-2f8b8d0d5a46","system_id":"levelo_inurba_marseille","lat":43.337444,"lon":5.374475,"is_reserved":false,"is_disabled":false,"rental_uris":{"android":"levelo://app?vid=f83487b8-cf5a-4d8b-a09a-2f8b8d0d5a46","ios":"levelo://app?vid=f83487b8-cf5a-4d8b-a09a-2f8b8d0d5a46"},"vehicle_type_id":"4","last_reported":1728972802,"current_range_meters":34000,"station_id":"","pricing_plan_id":"cebpf4jnsgd1na2vs0mg"},{"bike_id":"f4475a1f-250b-4766-aa2d-b476f216ca8a","system_id":"levelo_inurba_marseille","lat":43.2861,"lon":5.37068,"is_reserved":false,"is_disabled":false,"rental_uris":{"android":"levelo://app?vid=f4475a1f-250b-4766-aa2d-b476f216ca8a","ios":"levelo://app?vid=f4475a1f-250b-4766-aa2d-b476f216ca8a"},"vehicle_type_id":"4","last_reported":1728972802,"current_range_meters":34800,"station_id":"ce4bht12rcd13ifvqi60","pricing_plan_id":"cebpf4jnsgd1na2vs0mg"},{"bike_id":"f62cbfa2-110e-4c13-b0a9-e1395b5a1798","system_id":"levelo_inurba_marseille","lat":43.29281,"lon":5.40129,"is_reserved":false,"is_disabled":false,"rental_uris":{"android":"levelo://app?vid=f62cbfa2-110e-4c13-b0a9-e1395b5a1798","ios":"levelo://app?vid=f62cbfa2-110e-4c13-b0a9-e1395b5a1798"},"vehicle_type_id":"4","last_reported":1728972802,"current_range_meters":14800,"station_id":"ce4bh312rcd13ifvqdk0","pricing_plan_id":"cebpf4jnsgd1na2vs0mg"},{"bike_id":"e1a27a8b-ddbf-46b5-a7e4-f8ff91b3a688","system_id":"levelo_inurba_marseille","lat":43.30276,"lon":5.377,"is_reserved":false,"is_disabled":false,"rental_uris":{"android":"levelo://app?vid=e1a27a8b-ddbf-46b5-a7e4-f8ff91b3a688","ios":"levelo://app?vid=e1a27a8b-ddbf-46b5-a7e4-f8ff91b3a688"},"vehicle_type_id":"4","last_reported":1728972802,"current_range_meters":35600,"station_id":"ce4bguh2rcd13ifvqcj0","pricing_plan_id":"cebpf4jnsgd1na2vs0mg"},{"bike_id":"91a167ce-53e0-4b9d-a0e5-21711e554cbb","system_id":"levelo_inurba_marseille","lat":43.29602,"lon":5.381,"is_reserved":false,"is_disabled":false,"rental_uris":{"android":"levelo://app?vid=91a167ce-53e0-4b9d-a0e5-21711e554cbb","ios":"levelo://app?vid=91a167ce-53e0-4b9d-a0e5-21711e554cbb"},"vehicle_type_id":"4","last_reported":1728972802,"current_range_meters":36800,"station_id":"ce4bgl12rcd13ifvqbo0","pricing_plan_id":"cebpf4jnsgd1na2vs0mg"},{"bike_id":"f269126c-1b0b-4a1a-a1d6-f8c3716f5336","system_id":"levelo_inurba_marseille","lat":43.23194,"lon":5.35559,"is_reserved":false,"is_disabled":false,"rental_uris":{"android":"levelo://app?vid=f269126c-1b0b-4a1a-a1d6-f8c3716f5336","ios":"levelo://app?vid=f269126c-1b0b-4a1a-a1d6-f8c3716f5336"},"vehicle_type_id":"4","last_reported":1728972802,"current_range_meters":34000,"station_id":"ce4bhu92rcd13ifvqi70","pricing_plan_id":"cebpf4jnsgd1na2vs0mg"},{"bike_id":"5283fc47-e4ff-4e3b-878b-01ca592b3776","system_id":"levelo_inurba_marseille","lat":43.30921,"lon":5.36849,"is_reserved":false,"is_disabled":false,"rental_uris":{"android":"levelo://app?vid=5283fc47-e4ff-4e3b-878b-01ca592b3776","ios":"levelo://app?vid=5283fc47-e4ff-4e3b-878b-01ca592b3776"},"vehicle_type_id":"4","last_reported":1728972802,"current_range_meters":27200,"station_id":"ce4bgn92rcd13ifvqbvg","pricing_plan_id":"cebpf4jnsgd1na2vs0mg"},{"bike_id":"3b873f1c-f13b-4179-b1f0-d4e8e481616b","system_id":"levelo_inurba_marseille","lat":43.29615,"lon":5.37719,"is_reserved":false,"is_disabled":false,"rental_uris":{"android":"levelo://app?vid=3b873f1c-f13b-4179-b1f0-d4e8e481616b","ios":"levelo://app?vid=3b873f1c-f13b-4179-b1f0-d4e8e481616b"},"vehicle_type_id":"4","last_reported":1728972802,"current_range_meters":38800,"station_id":"ce4bgi92rcd13ifvqb90","pricing_plan_id":"cebpf4jnsgd1na2vs0mg"},{"bike_id":"69c89ccb-175a-40d8-859c-b8dbd67d14df","system_id":"levelo_inurba_marseille","lat":43.29904,"lon":5.43667,"is_reserved":false,"is_disabled":false,"rental_uris":{"android":"levelo://app?vid=69c89ccb-175a-40d8-859c-b8dbd67d14df","ios":"levelo://app?vid=69c89ccb-175a-40d8-859c-b8dbd67d14df"},"vehicle_type_id":"4","last_reported":1728972802,"current_range_meters":38000,"station_id":"ce4bhpp2rcd13ifvqhfg","pricing_plan_id":"cebpf4jnsgd1na2vs0mg"},{"bike_id":"864fcea4-95a9-452c-8702-159af7ef4886","system_id":"levelo_inurba_marseille","lat":43.29575,"lon":5.39965,"is_reserved":false,"is_disabled":false,"rental_uris":{"android":"levelo://app?vid=864fcea4-95a9-452c-8702-159af7ef4886","ios":"levelo://app?vid=864fcea4-95a9-452c-8702-159af7ef4886"},"vehicle_type_id":"4","last_reported":1728972802,"current_range_meters":27600,"station_id":"ce4bh312rcd13ifvqdj0","pricing_plan_id":"cebpf4jnsgd1na2vs0mg"},{"bike_id":"ec6b85ad-5739-46cb-978a-56525f42a621","system_id":"levelo_inurba_marseille","lat":43.28038,"lon":5.36952,"is_reserved":false,"is_disabled":false,"rental_uris":{"android":"levelo://app?vid=ec6b85ad-5739-46cb-978a-56525f42a621","ios":"levelo://app?vid=ec6b85ad-5739-46cb-978a-56525f42a621"},"vehicle_type_id":"4","last_reported":1728972802,"current_range_meters":21600,"station_id":"ce4bha12rcd13ifvqef0","pricing_plan_id":"cebpf4jnsgd1na2vs0mg"},{"bike_id":"defd3710-c3ac-43c2-892e-17a14c034587","system_id":"levelo_inurba_marseille","lat":43.24071,"lon":5.37762,"is_reserved":false,"is_disabled":false,"rental_uris":{"android":"levelo://app?vid=defd3710-c3ac-43c2-892e-17a14c034587","ios":"levelo://app?vid=defd3710-c3ac-43c2-892e-17a14c034587"},"vehicle_type_id":"4","last_reported":1728972802,"current_range_meters":28000,"station_id":"ce4bhnp2rcd13ifvqgvg","pricing_plan_id":"cebpf4jnsgd1na2vs0mg"},{"bike_id":"018d60de-5a1d-4af3-9603-bb30cc3b5596","system_id":"levelo_inurba_marseille","lat":43.30805,"lon":5.38158,"is_reserved":false,"is_disabled":false,"rental_uris":{"android":"levelo://app?vid=018d60de-5a1d-4af3-9603-bb30cc3b5596","ios":"levelo://app?vid=018d60de-5a1d-4af3-9603-bb30cc3b5596"},"vehicle_type_id":"4","last_reported":1728972802,"current_range_meters":38000,"station_id":"ce4bgt12rcd13ifvqce0","pricing_plan_id":"cebpf4jnsgd1na2vs0mg"},{"bike_id":"7290b3ca-bf7e-4350-bdd9-54c11bc77ad3","system_id":"levelo_inurba_marseille","lat":43.28244,"lon":5.40301,"is_reserved":false,"is_disabled":false,"rental_uris":{"android":"levelo://app?vid=7290b3ca-bf7e-4350-bdd9-54c11bc77ad3","ios":"levelo://app?vid=7290b3ca-bf7e-4350-bdd9-54c11bc77ad3"},"vehicle_type_id":"4","last_reported":1728972802,"current_range_meters":35200,"station_id":"ce4bhn92rcd13ifvqgrg","pricing_plan_id":"cebpf4jnsgd1na2vs0mg"},{"bike_id":"94d48054-be54-488d-a425-2deb433f452c","system_id":"levelo_inurba_marseille","lat":43.29808,"lon":5.36432,"is_reserved":false,"is_disabled":false,"rental_uris":{"android":"levelo://app?vid=94d48054-be54-488d-a425-2deb433f452c","ios":"levelo://app?vid=94d48054-be54-488d-a425-2deb433f452c"},"vehicle_type_id":"4","last_reported":1728972802,"current_range_meters":26000,"station_id":"ce4bgnh2rcd13ifvqc0g","pricing_plan_id":"cebpf4jnsgd1na2vs0mg"},{"bike_id":"6b51d589-83b3-4f4e-8ed2-4e2752ca063f","system_id":"levelo_inurba_marseille","lat":43.27671,"lon":5.38894,"is_reserved":false,"is_disabled":false,"rental_uris":{"android":"levelo://app?vid=6b51d589-83b3-4f4e-8ed2-4e2752ca063f","ios":"levelo://app?vid=6b51d589-83b3-4f4e-8ed2-4e2752ca063f"},"vehicle_type_id":"4","last_reported":1728972802,"current_range_meters":32000,"station_id":"ce4bhi12rcd13ifvqfo0","pricing_plan_id":"cebpf4jnsgd1na2vs0mg"},{"bike_id":"37483c09-8af5-4133-8255-9701646be7dc","system_id":"levelo_inurba_marseille","lat":43.27494,"lon":5.42457,"is_reserved":false,"is_disabled":false,"rental_uris":{"android":"levelo://app?vid=37483c09-8af5-4133-8255-9701646be7dc","ios":"levelo://app?vid=37483c09-8af5-4133-8255-9701646be7dc"},"vehicle_type_id":"4","last_reported":1728972802,"current_range_meters":14800,"station_id":"ce4bhn92rcd13ifvqgrg","pricing_plan_id":"cebpf4jnsgd1na2vs0mg"},{"bike_id":"bd1e9fc6-4e5c-47e1-9871-e82d2de89c5b","system_id":"levelo_inurba_marseille","lat":43.27492,"lon":5.42461,"is_reserved":false,"is_disabled":false,"rental_uris":{"android":"levelo://app?vid=bd1e9fc6-4e5c-47e1-9871-e82d2de89c5b","ios":"levelo://app?vid=bd1e9fc6-4e5c-47e1-9871-e82d2de89c5b"},"vehicle_type_id":"4","last_reported":1728972802,"current_range_meters":14800,"station_id":"ce4bhn92rcd13ifvqgrg","pricing_plan_id":"cebpf4jnsgd1na2vs0mg"},{"bike_id":"2df24a53-3776-4415-9eae-6247707dc15f","system_id":"levelo_inurba_marseille","lat":43.30326,"lon":5.40437,"is_reserved":false,"is_disabled":false,"rental_uris":{"android":"levelo://app?vid=2df24a53-3776-4415-9eae-6247707dc15f","ios":"levelo://app?vid=2df24a53-3776-4415-9eae-6247707dc15f"},"vehicle_type_id":"4","last_reported":1728972802,"current_range_meters":7200,"station_id":"ce4bh012rcd13ifvqd10","pricing_plan_id":"cebpf4jnsgd1na2vs0mg"},{"bike_id":"4914eb02-f561-415f-8d54-bfe857379318","system_id":"levelo_inurba_marseille","lat":43.282924,"lon":5.426481,"is_reserved":false,"is_disabled":false,"rental_uris":{"android":"levelo://app?vid=4914eb02-f561-415f-8d54-bfe857379318","ios":"levelo://app?vid=4914eb02-f561-415f-8d54-bfe857379318"},"vehicle_type_id":"4","last_reported":1728972802,"current_range_meters":20000,"station_id":"ce4bhnh2rcd13ifvqgug","pricing_plan_id":"cebpf4jnsgd1na2vs0mg"},{"bike_id":"da77a718-b2a1-41fc-b88a-dc15279faae1","system_id":"levelo_inurba_marseille","lat":43.304321,"lon":5.376918,"is_reserved":false,"is_disabled":false,"rental_uris":{"android":"levelo://app?vid=da77a718-b2a1-41fc-b88a-dc15279faae1","ios":"levelo://app?vid=da77a718-b2a1-41fc-b88a-dc15279faae1"},"vehicle_type_id":"4","last_reported":1728972802,"current_range_meters":37600,"station_id":"","pricing_plan_id":"cebpf4jnsgd1na2vs0mg"},{"bike_id":"3a81e166-a666-434d-858b-7aaea55fc532","system_id":"levelo_inurba_marseille","lat":43.26953,"lon":5.38631,"is_reserved":false,"is_disabled":false,"rental_uris":{"android":"levelo://app?vid=3a81e166-a666-434d-858b-7aaea55fc532","ios":"levelo://app?vid=3a81e166-a666-434d-858b-7aaea55fc532"},"vehicle_type_id":"4","last_reported":1728972802,"current_range_meters":38000,"station_id":"ce4bhh92rcd13ifvqfh0","pricing_plan_id":"cebpf4jnsgd1na2vs0mg"},{"bike_id":"76b0cfca-ac59-4ad3-8781-c5a87ff90a30","system_id":"levelo_inurba_marseille","lat":43.27497,"lon":5.42455,"is_reserved":false,"is_disabled":false,"rental_uris":{"android":"levelo://app?vid=76b0cfca-ac59-4ad3-8781-c5a87ff90a30","ios":"levelo://app?vid=76b0cfca-ac59-4ad3-8781-c5a87ff90a30"},"vehicle_type_id":"4","last_reported":1728972802,"current_range_meters":6400,"station_id":"ce4bhn92rcd13ifvqgrg","pricing_plan_id":"cebpf4jnsgd1na2vs0mg"},{"bike_id":"2d1b49ab-92a2-4f10-847e-f9cb4a17a2db","system_id":"levelo_inurba_marseille","lat":43.30157,"lon":5.38101,"is_reserved":false,"is_disabled":false,"rental_uris":{"android":"levelo://app?vid=2d1b49ab-92a2-4f10-847e-f9cb4a17a2db","ios":"levelo://app?vid=2d1b49ab-92a2-4f10-847e-f9cb4a17a2db"},"vehicle_type_id":"4","last_reported":1728972802,"current_range_meters":16400,"station_id":"ce4bgjp2rcd13ifvqbh0","pricing_plan_id":"cebpf4jnsgd1na2vs0mg"},