{"last_updated":1702793322,"ttl":30,"version":"2.2","data":{"bikes":[{"bike_id":"d98ee523-f759-4a3e-9c1e-d258f8748029","system_id":"levelo_inurba_marseille","lat":43.312239,"lon":5.368562,"is_reserved":false,"is_disabled":false,"rental_uris":{"android":"levelo://app?vid=d98ee523-f759-4a3e-9c1e-d258f8748029","ios":"levelo://app?vid=d98ee523-f759-4a3e-9c1e-d258f8748029"},"vehicle_type_id":"4","last_reported":1702793322,"current_range_meters":28400,"station_id":"ce4bgl92rcd13ifvqbq0","pricing_plan_id":"free"},{"bike_id":"4392e721-d809-4bf5-a4a0-42bc62edcb80","system_id":"levelo_inurba_marseille","lat":43.314811,"lon":5.373104,"is_reserved":false,"is_disabled":false,"rental_uris":{"android":"levelo://app?vid=4392e721-d809-4bf5-a4a0-42bc62edcb80","ios":"levelo://app?vid=4392e721-d809-4bf5-a4a0-42bc62edcb80"},"vehicle_type_id":"4","last_reported":1702793322,"current_range_meters":21200,"station_id":"ce4bgt12rcd13ifvqcd0","pricing_plan_id":"free"},{"bike_id":"3f8b821f-e430-4a35-bf14-f8b6e777ea11","system_id":"levelo_inurba_marseille","lat":43.313939,"lon":5.375306,"is_reserved":false,"is_disabled":false,"rental_uris":{"android":"levelo://app?vid=3f8b821f-e430-4a35-bf14-f8b6e777ea11","ios":"levelo://app?vid=3f8b821f-e430-4a35-bf14-f8b6e777ea11"},"vehicle_type_id":"4","last_reported":1702793322,"current_range_meters":0,"station_id":"","pricing_plan_id":"free"},{"bike_id":"e69b963d-e1a8-4fc2-aa5a-c62097b2109d","system_id":"levelo_inurba_marseille","lat":43.3055,"lon":5.367,"is_reserved":false,"is_disabled":false,"rental_uris":{"android":"levelo://app?vid=e69b963d-e1a8-4fc2-aa5a-c62097b2109d","ios":"levelo://app?vid=e69b963d-e1a8-4fc2-aa5a-c62097b2109d"},"vehicle_type_id":"4","last_reported":1702793322,"current_range_meters":30800,"station_id":"ce4bgrp2rcd13ifvqc9g","pricing_plan_id":"free"},{"bike_id":"21467138-e523-4a2e-8406-806945ec5830","system_id":"levelo_inurba_marseille","lat":43.305368,"lon":5.367343,"is_reserved":false,"is_disabled":false,"rental_uris":{"android":"levelo://app?vid=21467138-e523-4a2e-8406-806945ec5830","ios":"levelo://app?vid=21467138-e523-4a2e-8406-806945ec5830"},"vehicle_type_id":"4","last_reported":1702793322,"current_range_meters":30400,"station_id":"ce4bgrp2rcd13ifvqc9g","pricing_plan_id":"free"},{"bike_id":"fa01873c-6435-492f-8467-0343adc337fa","system_id":"levelo_inurba_marseille","lat":43.305714,"lon":5.365633,"is_reserved":false,"is_disabled":false,"rental_uris":{"android":"levelo://app?vid=fa01873c-6435-492f-8467-0343adc337fa","ios":"levelo://app?vid=fa01873c-6435-492f-8467-0343adc337fa"},"vehicle_type_id":"4","last_reported":1702793322,"current_range_meters":31200,"station_id":"ce4bgs12rcd13ifvqcag","pricing_plan_id":"free"},{"bike_id":"5113165c-de22-42ee-a775-4f7d8ab69b8c","system_id":"levelo_inurba_marseille","lat":43.305714,"lon":5.365633,"is_reserved":false,"is_disabled":false,"rental_uris":{"android":"levelo://app?vid=5113165c-de22-42ee-a775-4f7d8ab69b8c","ios":"levelo://app?vid=5113165c-de22-42ee-a775-4f7d8ab69b8c"},"vehicle_type_id":"4","last_reported":1702793322,"current_range_meters":24800,"station_id":"ce4bgs12rcd13ifvqcag","pricing_plan_id":"free"},{"bike_id":"955e4ab2-16e5-44e8-a986-a2f50ff96c06","system_id":"levelo_inurba_marseille","lat":43.305382,"lon":5.365389,"is_reserved":false,"is_disabled":false,"rental_uris":{"android":"levelo://app?vid=955e4ab2-16e5-44e8-a986-a2f50ff96c06","ios":"levelo://app?vid=955e4ab2-16e5-44e8-a986-a2f50ff96c06"},"vehicle_type_id":"4","last_reported":1702793322,"current_range_meters":12800,"station_id":"","pricing_plan_id":"free"},{"bike_id":"755a410c-c249-4949-acfd-03fff34adae3","system_id":"levelo_inurba_marseille","lat":43.307945,"lon":5.376487,"is_reserved":false,"is_disabled":false,"rental_uris":{"android":"levelo://app?vid=755a410c-c249-4949-acfd-03fff34adae3","ios":"levelo://app?vid=755a410c-c249-4949-acfd-03fff34adae3"},"vehicle_type_id":"4","last_reported":1702793322,"current_range_meters":24400,"station_id":"ce4bgv92rcd13ifvqcq0","pricing_plan_id":"free"},{"bike_id":"024dabf7-48a9-45ca-a060-ca185d9475c6","system_id":"levelo_inurba_marseille","lat":43.307945,"lon":5.376487,"is_reserved":false,"is_disabled":false,"rental_uris":{"android":"levelo://app?vid=024dabf7-48a9-45ca-a060-ca185d9475c6","ios":"levelo://app?vid=024dabf7-48a9-45ca-a060-ca185d9475c6"},"vehicle_type_id":"4","last_reported":1702793322,"current_range_meters":8800,"station_id":"ce4bgv92rcd13ifvqcq0","pricing_plan_id":"free"},{"bike_id":"2fd4b5fc-2586-4619-95eb-eb38a22ae3ba","system_id":"levelo_inurba_marseille","lat":43.317075,"lon":5.377367,"is_reserved":false,"is_disabled":false,"rental_uris":{"android":"levelo://app?vid=2fd4b5fc-2586-4619-95eb-eb38a22ae3ba","ios":"levelo://app?vid=2fd4b5fc-2586-4619-95eb-eb38a22ae3ba"},"vehicle_type_id":"4","last_reported":1702793322,"current_range_meters":28000,"station_id":"ce4bgth2rcd13ifvqch0","pricing_plan_id":"free"},{"bike_id":"75c2516a-2148-49bc-8795-143af02329f1","system_id":"levelo_inurba_marseille","lat":43.30309,"lon":5.36887,"is_reserved":false,"is_disabled":false,"rental_uris":{"android":"levelo://app?vid=75c2516a-2148-49bc-8795-143af02329f1","ios":"levelo://app?vid=75c2516a-2148-49bc-8795-143af02329f1"},"vehicle_type_id":"4","last_reported":1702793322,"current_range_meters":3600,"station_id":"ce4bgqh2rcd13ifvqc5g","pricing_plan_id":"free"},{"bike_id":"888507e7-17ce-46f4-9980-3ac32e008b4e","system_id":"levelo_inurba_marseille","lat":43.315347,"lon":5.380279,"is_reserved":false,"is_disabled":false,"rental_uris":{"android":"levelo://app?vid=888507e7-17ce-46f4-9980-3ac32e008b4e","ios":"levelo://app?vid=888507e7-17ce-46f4-9980-3ac32e008b4e"},"vehicle_type_id":"4","last_reported":1702793322,"current_range_meters":29600,"station_id":"ce4bhsp2rcd13ifvqi50","pricing_plan_id":"free"},{"bike_id":"5631fbdf-0b1b-4a91-ac9e-b8c64f58a515","system_id":"levelo_inurba_marseille","lat":43.315358,"lon":5.380289,"is_reserved":false,"is_disabled":false,"rental_uris":{"android":"levelo://app?vid=5631fbdf-0b1b-4a91-ac9e-b8c64f58a515","ios":"levelo://app?vid=5631fbdf-0b1b-4a91-ac9e-b8c64f58a515"},"vehicle_type_id":"4","last_reported":1702793322,"current_range_meters":24400,"station_id":"ce4bhsp2rcd13ifvqi50","pricing_plan_id":"free"},{"bike_id":"2609b0bd-16b0-4a65-b886-9b713dd4a2d9","system_id":"levelo_inurba_marseille","lat":43.315291,"lon":5.380343,"is_reserved":false,"is_disabled":false,"rental_uris":{"android":"levelo://app?vid=2609b0bd-16b0-4a65-b886-9b713dd4a2d9","ios":"levelo://app?vid=2609b0bd-16b0-4a65-b886-9b713dd4a2d9"},"vehicle_type_id":"4","last_reported":1702793322,"current_range_meters":31200,"station_id":"ce4bhsp2rcd13ifvqi50","pricing_plan_id":"free"},{"bike_id":"e67c98d3-5612-4f76-9385-3e082d43b735","system_id":"levelo_inurba_marseille","lat":43.301939,"lon":5.366286,"is_reserved":false,"is_disabled":false,"rental_uris":{"android":"levelo://app?vid=e67c98d3-5612-4f76-9385-3e082d43b735","ios":"levelo://app?vid=e67c98d3-5612-4f76-9385-3e082d43b735"},"vehicle_type_id":"4","last_reported":1702793322,"current_range_meters":24800,"station_id":"ce4bgrh2rcd13ifvqc8g","pricing_plan_id":"free"},{"bike_id":"a1bfc42f-c424-40f8-9256-26b159a1a891","system_id":"levelo_inurba_marseille","lat":43.308012,"lon":5.381511,"is_reserved":false,"is_disabled":false,"rental_uris":{"android":"levelo://app?vid=a1bfc42f-c424-40f8-9256-26b159a1a891","ios":"levelo://app?vid=a1bfc42f-c424-40f8-9256-26b159a1a891"},"vehicle_type_id":"4","last_reported":1702793322,"current_range_meters":31600,"station_id":"ce4bgt12rcd13ifvqce0","pricing_plan_id":"free"},{"bike_id":"4f96b997-b58b-476a-9af3-ef3ebf042c82","system_id":"levelo_inurba_marseille","lat":43.308012,"lon":5.381511,"is_reserved":false,"is_disabled":false,"rental_uris":{"android":"levelo://app?vid=4f96b997-b58b-476a-9af3-ef3ebf042c82","ios":"levelo://app?vid=4f96b997-b58b-476a-9af3-ef3ebf042c82"},"vehicle_type_id":"4","last_reported":1702793322,"current_range_meters":29600,"station_id":"ce4bgt12rcd13ifvqce0","pricing_plan_id":"free"},{"bike_id":"f601fe0e-00f9-419a-bdb0-abda02ed2120","system_id":"levelo_inurba_marseille","lat":43.308012,"lon":5.381511,"is_reserved":false,"is_disabled":false,"rental_uris":{"android":"levelo://app?vid=f601fe0e-00f9-419a-bdb0-abda02ed2120","ios":"levelo://app?vid=f601fe0e-00f9-419a-bdb0-abda02ed2120"},"vehicle_type_id":"4","last_reported":1702793322,"current_range_meters":18800,"station_id":"ce4bgt12rcd13ifvqce0","pricing_plan_id":"free"},{"bike_id":"ef46cf43-bf8d-4ce0-81ab-2a701df5a859","system_id":"levelo_inurba_marseille","lat":43.304606,"lon":5.379026,"is_reserved":false,"is_disabled":false,"rental_uris":{"android":"levelo://app?vid=ef46cf43-bf8d-4ce0-81ab-2a701df5a859","ios":"levelo://app?vid=ef46cf43-bf8d-4ce0-81ab-2a701df5a859"},"vehicle_type_id":"4","last_reported":1702793322,"current_range_meters":26800,"station_id":"ce4bgup2rcd13ifvqcn0","pricing_plan_id":"free"},{"bike_id":"b5d25608-ac0d-4e93-8743-12baac034124","system_id":"levelo_inurba_marseille","lat":43.304606,"lon":5.379026,"is_reserved":false,"is_disabled":false,"rental_uris":{"android":"levelo://app?vid=b5d25608-ac0d-4e93-8743-12baac034124","ios":"levelo://app?vid=b5d25608-ac0d-4e93-8743-12baac034124"},"vehicle_type_id":"4","last_reported":1702793322,"current_range_meters":23600,"station_id":"ce4bgup2rcd13ifvqcn0","pricing_plan_id":"free"},{"bike_id":"44c8b40c-0afe-48d3-8480-d4dfd6b81af3","system_id":"levelo_inurba_marseille","lat":43.324771,"lon":5.36557,"is_reserved":false,"is_disabled":false,"rental_uris":{"android":"levelo://app?vid=44c8b40c-0afe-48d3-8480-d4dfd6b81af3","ios":"levelo://app?vid=44c8b40c-0afe-48d3-8480-d4dfd6b81af3"},"vehicle_type_id":"4","last_reported":1702793322,"current_range_meters":23600,"station_id":"ce4bhs12rcd13ifvqhvg","pricing_plan_id":"free"},{"bike_id":"b25275df-17e4-44ae-833e-eb12fc13d9ec","system_id":"levelo_inurba_marseille","lat":43.324771,"lon":5.36557,"is_reserved":false,"is_disabled":false,"rental_uris":{"android":"levelo://app?vid=b25275df-17e4-44ae-833e-eb12fc13d9ec","ios":"levelo://app?vid=b25275df-17e4-44ae-833e-eb12fc13d9ec"},"vehicle_type_id":"4","last_reported":1702793322,"current_range_meters":14000,"station_id":"ce4bhs12rcd13ifvqhvg","pricing_plan_id":"free"},{"bike_id":"88f7ea2a-62f7-4a88-9e9d-900940b4d7e5","system_id":"levelo_inurba_marseille","lat":43.324818,"lon":5.365646,"is_reserved":false,"is_disabled":false,"rental_uris":{"android":"levelo://app?vid=88f7ea2a-62f7-4a88-9e9d-900940b4d7e5","ios":"levelo://app?vid=88f7ea2a-62f7-4a88-9e9d-900940b4d7e5"},"vehicle_type_id":"4","last_reported":1702793322,"current_range_meters":30400,"station_id":"ce4bhs12rcd13ifvqhvg","pricing_plan_id":"free"},{"bike_id":"dd62cb3a-3f08-44cf-8561-0c89ff17ac35","system_id":"levelo_inurba_marseille","lat":43.313553,"lon":5.384768,"is_reserved":false,"is_disabled":false,"rental_uris":{"android":"levelo://app?vid=dd62cb3a-3f08-44cf-8561-0c89ff17ac35","ios":"levelo://app?vid=dd62cb3a-3f08-44cf-8561-0c89ff17ac35"},"vehicle_type_id":"4","last_reported":1702793322,"current_range_meters":18000,"station_id":"ce4bgt92rcd13ifvqcf0","pricing_plan_id":"free"},{"bike_id":"06affd4b-6bab-4f57-97ac-5f1450934618","system_id":"levelo_inurba_marseille","lat":43.313513,"lon":5.384965,"is_reserved":false,"is_disabled":false,"rental_uris":{"android":"levelo://app?vid=06affd4b-6bab-4f57-97ac-5f1450934618","ios":"levelo://app?vid=06affd4b-6bab-4f57-97ac-5f1450934618"},"vehicle_type_id":"4","last_reported":1702793322,"current_range_meters":13600,"station_id":"ce4bgt92rcd13ifvqcf0","pricing_plan_id":"free"},{"bike_id":"8ed41e6a-f8a4-4285-ba76-ccff5e3d5689","system_id":"levelo_inurba_marseille","lat":43.29975,"lon":5.37193,"is_reserved":false,"is_disabled":false,"rental_uris":{"android":"levelo://app?vid=8ed41e6a-f8a4-4285-ba76-ccff5e3d5689","ios":"levelo://app?vid=8ed41e6a-f8a4-4285-ba76-ccff5e3d5689"},"vehicle_type_id":"4","last_reported":1702793322,"current_range_meters":0,"station_id":"ce4bgr92rcd13ifvqc7g","pricing_plan_id":"free"},{"bike_id":"c4e77394-aef9-4077-b745-e99148625344","system_id":"levelo_inurba_marseille","lat":43.32733,"lon":5.36707,"is_reserved":false,"is_disabled":false,"rental_uris":{"android":"levelo://app?vid=c4e77394-aef9-4077-b745-e99148625344","ios":"levelo://app?vid=c4e77394-aef9-4077-b745-e99148625344"},"vehicle_type_id":"4","last_reported":1702793322,"current_range_meters":20000,"station_id":"","pricing_plan_id":"free"},{"bike_id":"819cb438-2e9c-4e0b-902b-5e19ef554d5c","system_id":"levelo_inurba_marseille","lat":43.305452,"lon":5.384419,"is_reserved":false,"is_disabled":false,"rental_uris":{"android":"levelo://app?vid=819cb438-2e9c-4e0b-902b-5e19ef554d5c","ios":"levelo://app?vid=819cb438-2e9c-4e0b-902b-5e19ef554d5c"},"vehicle_type_id":"4","last_reported":1702793322,"current_range_meters":12800,"station_id":"","pricing_plan_id":"free"},{"bike_id":"b9def5e8-542a-4f7e-be32-4001e745b51a","system_id":"levelo_inurba_marseille","lat":43.31166,"lon":5.38708,"is_reserved":false,"is_disabled":false,"rental_uris":{"android":"levelo://app?vid=b9def5e8-542a-4f7e-be32-4001e745b51a","ios":"levelo://app?vid=b9def5e8-542a-4f7e-be32-4001e745b51a"},"vehicle_type_id":"4","last_reported":1702793322,"current_range_meters":17200,"station_id":"ce4bgv12rcd13ifvqcp0","pricing_plan_id":"free"},{"bike_id":"0666f734-537f-4219-8787-37d98e48f7ec","system_id":"levelo_inurba_marseille","lat":43.311722,"lon":5.387247,"is_reserved":false,"is_disabled":false,"rental_uris":{"android":"levelo://app?vid=0666f734-537f-4219-8787-37d98e48f7ec","ios":"levelo://app?vid=0666f734-537f-4219-8787-37d98e48f7ec"},"vehicle_type_id":"4","last_reported":1702793322,"current_range_meters":27600,"station_id":"ce4bgv12rcd13ifvqcp0","pricing_plan_id":"free"},{"bike_id":"c1c77bc8-d481-4d2b-a56e-7eecc2e03677","system_id":"levelo_inurba_marseille","lat":43.3117,"lon":5.38711,"is_reserved":false,"is_disabled":false,"rental_uris":{"android":"levelo://app?vid=c1c77bc8-d481-4d2b-a56e-7eecc2e03677","ios":"levelo://app?vid=c1c77bc8-d481-4d2b-a56e-7eecc2e03677"},"vehicle_type_id":"4","last_reported":1702793322,"current_range_meters":17600,"station_id":"ce4bgv12rcd13ifvqcp0","pricing_plan_id":"free"},{"bike_id":"b3a97298-ae67-4699-bf43-a9e27d2bdcc2","system_id":"levelo_inurba_marseille","lat":43.3117,"lon":5.38712,"is_reserved":false,"is_disabled":false,"rental_uris":{"android":"levelo://app?vid=b3a97298-ae67-4699-bf43-a9e27d2bdcc2","ios":"levelo://app?vid=b3a97298-ae67-4699-bf43-a9e27d2bdcc2"},"vehicle_type_id":"4","last_reported":1702793322,"current_range_meters":30800,"station_id":"ce4bgv12rcd13ifvqcp0","pricing_plan_id":"free"},{"bike_id":"edc8767d-a247-4450-b7c9-97f5c7722ecc","system_id":"levelo_inurba_marseille","lat":43.311722,"lon":5.387247,"is_reserved":false,"is_disabled":false,"rental_uris":{"android":"levelo://app?vid=edc8767d-a247-4450-b7c9-97f5c7722ecc","ios":"levelo://app?vid=edc8767d-a247-4450-b7c9-97f5c7722ecc"},"vehicle_type_id":"4","last_reported":1702793322,"current_range_meters":30400,"station_id":"ce4bgv12rcd13ifvqcp0","pricing_plan_id":"free"},{"bike_id":"43109aa2-09b5-48a9-8380-fed370c49b3c","system_id":"levelo_inurba_marseille","lat":43.297794,"lon":5.370888,"is_reserved":false,"is_disabled":false,"rental_uris":{"android":"levelo://app?vid=43109aa2-09b5-48a9-8380-fed370c49b3c","ios":"levelo://app?vid=43109aa2-09b5-48a9-8380-fed370c49b3c"},"vehicle_type_id":"4","last_reported":1702793322,"current_range_meters":25600,"station_id":"ce4bgop2rcd13ifvqc1g","pricing_plan_id":"free"},{"bike_id":"257e2c60-5deb-4d9a-9e2e-c2fc09067537","system_id":"levelo_inurba_marseille","lat":43.328371,"lon":5.366909,"is_reserved":false,"is_disabled":false,"rental_uris":{"android":"levelo://app?vid=257e2c60-5deb-4d9a-9e2e-c2fc09067537","ios":"levelo://app?vid=257e2c60-5deb-4d9a-9e2e-c2fc09067537"},"vehicle_type_id":"4","last_reported":1702793322,"current_range_meters":16000,"station_id":"ce4bhs92rcd13ifvqi0g","pricing_plan_id":"free"},{"bike_id":"d552ebbe-3535-4233-b783-27841fdde344","system_id":"levelo_inurba_marseille","lat":43.328371,"lon":5.366909,"is_reserved":false,"is_disabled":false,"rental_uris":{"android":"levelo://app?vid=d552ebbe-3535-4233-b783-27841fdde344","ios":"levelo://app?vid=d552ebbe-3535-4233-b783-27841fdde344"},"vehicle_type_id":"4","last_reported":1702793322,"current_range_meters":31200,"station_id":"ce4bhs92rcd13ifvqi0g","pricing_plan_id":"free"},{"bike_id":"f1491da4-2f54-4445-8640-37b7b5e9b0bd","system_id":"levelo_inurba_marseille","lat":43.328371,"lon":5.366909,"is_reserved":false,"is_disabled":false,"rental_uris":{"android":"levelo://app?vid=f1491da4-2f54-4445-8640-37b7b5e9b0bd","ios":"levelo://app?vid=f1491da4-2f54-4445-8640-37b7b5e9b0bd"},"vehicle_type_id":"4","last_reported":1702793322,"current_range_meters":31200,"station_id":"ce4bhs92rcd13ifvqi0g","pricing_plan_id":"free"},{"bike_id":"eea4bbec-cb30-444f-bd5f-3d8ab7f2941a","system_id":"levelo_inurba_marseille","lat":43.2968,"lon":5.37291,"is_reserved":false,"is_disabled":false,"rental_uris":{"android":"levelo://app?vid=eea4bbec-cb30-444f-bd5f-3d8ab7f2941a","ios":"levelo://app?vid=eea4bbec-cb30-444f-bd5f-3d8ab7f2941a"},"vehicle_type_id":"4","last_reported":1702793322,"current_range_meters":29200,"station_id":"ce4bgk12rcd13ifvqbj0","pricing_plan_id":"free"},{"bike_id":"729c1c1f-ef5d-4c7e-8367-862d949ec8b3","system_id":"levelo_inurba_marseille","lat":43.30946,"lon":5.39043,"is_reserved":false,"is_disabled":false,"rental_uris":{"android":"levelo://app?vid=729c1c1f-ef5d-4c7e-8367-862d949ec8b3","ios":"levelo://app?vid=729c1c1f-ef5d-4c7e-8367-862d949ec8b3"},"vehicle_type_id":"4","last_reported":1702793322,"current_range_meters":25600,"station_id":"ce4bgup2rcd13ifvqco0","pricing_plan_id":"free"},{"bike_id":"d6044d44-46f6-46c2-bcb2-8e3a6e06c707","system_id":"levelo_inurba_marseille","lat":43.317557,"lon":5.390173,"is_reserved":false,"is_disabled":false,"rental_uris":{"android":"levelo://app?vid=d6044d44-46f6-46c2-bcb2-8e3a6e06c707","ios":"levelo://app?vid=d6044d44-46f6-46c2-bcb2-8e3a6e06c707"},"vehicle_type_id":"4","last_reported":1702793322,"current_range_meters":30400,"station_id":"ce4bhqp2rcd13ifvqhng","pricing_plan_id":"free"},{"bike_id":"4fe68cb0-ef05-4f1c-919b-7a2b0e3c1f89","system_id":"levelo_inurba_marseille","lat":43.317557,"lon":5.390173,"is_reserved":false,"is_disabled":false,"rental_uris":{"android":"levelo://app?vid=4fe68cb0-ef05-4f1c-919b-7a2b0e3c1f89","ios":"levelo://app?vid=4fe68cb0-ef05-4f1c-919b-7a2b0e3c1f89"},"vehicle_type_id":"4","last_reported":1702793322,"current_range_meters":31600,"station_id":"ce4bhqp2rcd13ifvqhng","pricing_plan_id":"free"},{"bike_id":"2e4327a4-5c68-42c9-a75e-2a5f9b2ba77b","system_id":"levelo_inurba_marseille","lat":43.317557,"lon":5.390173,"is_reserved":false,"is_disabled":false,"rental_uris":{"android":"levelo://app?vid=2e4327a4-5c68-42c9-a75e-2a5f9b2ba77b","ios":"levelo://app?vid=2e4327a4-5c68-42c9-a75e-2a5f9b2ba77b"},"vehicle_type_id":"4","last_reported":1702793322,"current_range_meters":31600,"station_id":"ce4bhqp2rcd13ifvqhng","pricing_plan_id":"free"},{"bike_id":"8b990761-3717-4b31-9e09-22c0e6f10fb8","system_id":"levelo_inurba_marseille","lat":43.317557,"lon":5.390173,"is_reserved":false,"is_disabled":false,"rental_uris":{"android":"levelo://app?vid=8b990761-3717-4b31-9e09-22c0e6f10fb8","ios":"levelo://app?vid=8b990761-3717-4b31-9e09-22c0e6f10fb8"},"vehicle_type_id":"4","last_reported":1702793322,"current_range_meters":9200,"station_id":"ce4bhqp2rcd13ifvqhng","pricing_plan_id":"free"},{"bike_id":"d905af5a-8db2-49a8-802d-0bcdbb6e3994","system_id":"levelo_inurba_marseille","lat":43.29806,"lon":5.38091,"is_reserved":false,"is_disabled":false,"rental_uris":{"android":"levelo://app?vid=d905af5a-8db2-49a8-802d-0bcdbb6e3994","ios":"levelo://app?vid=d905af5a-8db2-49a8-802d-0bcdbb6e3994"},"vehicle_type_id":"4","last_reported":1702793322,"current_range_meters":6800,"station_id":"","pricing_plan_id":"free"},{"bike_id":"4978515e-1c4e-4dbc-a000-36164a9c8cf6","system_id":"levelo_inurba_marseille","lat":43.304274,"lon":5.388873,"is_reserved":false,"is_disabled":false,"rental_uris":{"android":"levelo://app?vid=4978515e-1c4e-4dbc-a000-36164a9c8cf6","ios":"levelo://app?vid=4978515e-1c4e-4dbc-a000-36164a9c8cf6"},"vehicle_type_id":"4","last_reported":1702793322,"current_range_meters":30400,"station_id":"ce4bgk12rcd13ifvqbi0","pricing_plan_id":"free"},{"bike_id":"7337e3ef-c8a1-436c-891b-e99e1dc7d5e6","system_id":"levelo_inurba_marseille","lat":43.29979,"lon":5.38468,"is_reserved":false,"is_disabled":false,"rental_uris":{"android":"levelo://app?vid=7337e3ef-c8a1-436c-891b-e99e1dc7d5e6","ios":"levelo://app?vid=7337e3ef-c8a1-436c-891b-e99e1dc7d5e6"},"vehicle_type_id":"4","last_reported":1702793322,"current_range_meters":28000,"station_id":"ce4bgj92rcd13ifvqbd0","pricing_plan_id":"free"},{"bike_id":"cadcd182-2004-48ff-8527-da777ba54248","system_id":"levelo_inurba_marseille","lat":43.2997,"lon":5.38487,"is_reserved":false,"is_disabled":false,"rental_uris":{"android":"levelo://app?vid=cadcd182-2004-48ff-8527-da777ba54248","ios":"levelo://app?vid=cadcd182-2004-48ff-8527-da777ba54248"},"vehicle_type_id":"4","last_reported":1702793322,"current_range_meters":24000,"station_id":"ce4bgj92rcd13ifvqbd0","pricing_plan_id":"free"},{"bike_id":"3ff64992-d744-471f-98c1-7357e87c10ea","system_id":"levelo_inurba_marseille","lat":43.29971,"lon":5.38493,"is_reserved":false,"is_disabled":false,"rental_uris":{"android":"levelo://app?vid=3ff64992-d744-471f-98c1-7357e87c10ea","ios":"levelo://app?vid=3ff64992-d744-471f-98c1-7357e87c10ea"},"vehicle_type_id":"4","last_reported":1702793322,"current_range_meters":29600,"station_id":"ce4bgj92rcd13ifvqbd0","pricing_plan_id":"free"},{"bike_id":"79505fef-e16f-43e8-8aac-a63829dff753","system_id":"levelo_inurba_marseille","lat":43.299724,"lon":5.384848,"is_reserved":false,"is_disabled":false,"rental_uris":{"android":"levelo://app?vid=79505fef-e16f-43e8-8aac-a63829dff753","ios":"levelo://app?vid=79505fef-e16f-43e8-8aac-a63829dff753"},"vehicle_type_id":"4","last_reported":1702793322,"current_range_meters":27200,"station_id":"ce4bgj92rcd13ifvqbd0","pricing_plan_id":"free"},{"bike_id":"32b344fe-b9ca-4816-ac29-ce809e14ff24","system_id":"levelo_inurba_marseille","lat":43.299681,"lon":5.38497,"is_reserved":false,"is_disabled":false,"rental_uris":{"android":"levelo://app?vid=32b344fe-b9ca-4816-ac29-ce809e14ff24","ios":"levelo://app?vid=32b344fe-b9ca-4816-ac29-ce809e14ff24"},"vehicle_type_id":"4","last_reported":1702793322,"current_range_meters":30000,"station_id":"ce4bgj92rcd13ifvqbd0","pricing_plan_id":"free"},{"bike_id":"84db9450-9b22-48b6-8b06-c60f5f74191a","system_id":"levelo_inurba_marseille","lat":43.29969,"lon":5.38503,"is_reserved":false,"is_disabled":false,"rental_uris":{"android":"levelo://app?vid=84db9450-9b22-48b6-8b06-c60f5f74191a","ios":"levelo://app?vid=84db9450-9b22-48b6-8b06-c60f5f74191a"},"vehicle_type_id":"4","last_reported":1702793322,"current_range_meters":31200,"station_id":"ce4bgj92rcd13ifvqbd0","pricing_plan_id":"free"},{"bike_id":"da2bf830-8371-4987-8296-d78e324a9b5b","system_id":"levelo_inurba_marseille","lat":43.296504,"lon":5.379488,"is_reserved":false,"is_disabled":false,"rental_uris":{"android":"levelo://app?vid=da2bf830-8371-4987-8296-d78e324a9b5b","ios":"levelo://app?vid=da2bf830-8371-4987-8296-d78e324a9b5b"},"vehicle_type_id":"4","last_reported":1702793322,"current_range_meters":1600,"station_id":"","pricing_plan_id":"free"},{"bike_id":"7ff21894-2f32-4658-85e2-91c4f4d495d4","system_id":"levelo_inurba_marseille","lat":43.323616,"lon":5.388783,"is_reserved":false,"is_disabled":false,"rental_uris":{"android":"levelo://app?vid=7ff21894-2f32-4658-85e2-91c4f4d495d4","ios":"levelo://app?vid=7ff21894-2f32-4658-85e2-91c4f4d495d4"},"vehicle_type_id":"4","last_reported":1702793322,"current_range_meters":31200,"station_id":"ce4bhqp2rcd13ifvqhog","pricing_plan_id":"free"},{"bike_id":"2d339ccb-9fe7-4132-b39e-b9bd4a932749","system_id":"levelo_inurba_marseille","lat":43.32358,"lon":5.38882,"is_reserved":false,"is_disabled":false,"rental_uris":{"android":"levelo://app?vid=2d339ccb-9fe7-4132-b39e-b9bd4a932749","ios":"levelo://app?vid=2d339ccb-9fe7-4132-b39e-b9bd4a932749"},"vehicle_type_id":"4","last_reported":1702793322,"current_range_meters":13200,"station_id":"ce4bhqp2rcd13ifvqhog","pricing_plan_id":"free"},{"bike_id":"31954c81-37ea-46a3-a087-7d824ac76191","system_id":"levelo_inurba_marseille","lat":43.323639,"lon":5.38877,"is_reserved":false,"is_disabled":false,"rental_uris":{"android":"levelo://app?vid=31954c81-37ea-46a3-a087-7d824ac76191","ios":"levelo://app?vid=31954c81-37ea-46a3-a087-7d824ac76191"},"vehicle_type_id":"4","last_reported":1702793322,"current_range_meters":31200,"station_id":"ce4bhqp2rcd13ifvqhog","pricing_plan_id":"free"},{"bike_id":"05fd026f-0f15-4fd0-93a8-64b6c00abf07","system_id":"levelo_inurba_marseille","lat":43.29602,"lon":5.381084,"is_reserved":false,"is_disabled":false,"rental_uris":{"android":"levelo://app?vid=05fd026f-0f15-4fd0-93a8-64b6c00abf07","ios":"levelo://app?vid=05fd026f-0f15-4fd0-93a8-64b6c00abf07"},"vehicle_type_id":"4","last_reported":1702793322,"current_range_meters":29600,"station_id":"ce4bgl12rcd13ifvqbo0","pricing_plan_id":"free"},{"bike_id":"cf670697-5e0d-4b28-b2f3-41a00c4b024f","system_id":"levelo_inurba_marseille","lat":43.292749,"lon":5.368402,"is_reserved":false,"is_disabled":false,"rental_uris":{"android":"levelo://app?vid=cf670697-5e0d-4b28-b2f3-41a00c4b024f","ios":"levelo://app?vid=cf670697-5e0d-4b28-b2f3-41a00c4b024f"},"vehicle_type_id":"4","last_reported":1702793322,"current_range_meters":27200,"station_id":"ce4bhbp2rcd13ifvqesg","pricing_plan_id":"free"},{"bike_id":"5d6ee3ce-3dc9-4d0e-ae17-2c93259fed6d","system_id":"levelo_inurba_marseille","lat":43.29271,"lon":5.36839,"is_reserved":false,"is_disabled":false,"rental_uris":{"android":"levelo://app?vid=5d6ee3ce-3dc9-4d0e-ae17-2c93259fed6d","ios":"levelo://app?vid=5d6ee3ce-3dc9-4d0e-ae17-2c93259fed6d"},"vehicle_type_id":"4","last_reported":1702793322,"current_range_meters":26800,"station_id":"ce4bhbp2rcd13ifvqesg","pricing_plan_id":"free"},{"bike_id":"5f019fb3-e78e-4e41-8d48-c7f45fc165fc","system_id":"levelo_inurba_marseille","lat":43.292311,"lon":5.360731,"is_reserved":false,"is_disabled":false,"rental_uris":{"android":"levelo://app?vid=5f019fb3-e78e-4e41-8d48-c7f45fc165fc","ios":"levelo://app?vid=5f019fb3-e78e-4e41-8d48-c7f45fc165fc"},"vehicle_type_id":"4","last_reported":1702793322,"current_range_meters":9600,"station_id":"ce4bhbh2rcd13ifvqeqg","pricing_plan_id":"free"},{"bike_id":"a6990e5d-21af-4d2e-9f66-925f7d00f867","system_id":"levelo_inurba_marseille","lat":43.29272,"lon":5.37631,"is_reserved":false,"is_disabled":false,"rental_uris":{"android":"levelo://app?vid=a6990e5d-21af-4d2e-9f66-925f7d00f867","ios":"levelo://app?vid=a6990e5d-21af-4d2e-9f66-925f7d00f867"},"vehicle_type_id":"4","last_reported":1702793322,"current_range_meters":2400,"station_id":"","pricing_plan_id":"free"},{"bike_id":"f3a65ad2-f222-40fc-be34-156471103bce","system_id":"levelo_inurba_marseille","lat":43.29868,"lon":5.38908,"is_reserved":false,"is_disabled":false,"rental_uris":{"android":"levelo://app?vid=f3a65ad2-f222-40fc-be34-156471103bce","ios":"levelo://app?vid=f3a65ad2-f222-40fc-be34-156471103bce"},"vehicle_type_id":"4","last_reported":1702793322,"current_range_meters":9200,"station_id":"","pricing_plan_id":"free"},{"bike_id":"c04c555d-31b8-41cc-bd01-fd45d99c0c5a","system_id":"levelo_inurba_marseille","lat":43.291675,"lon":5.371583,"is_reserved":false,"is_disabled":false,"rental_uris":{"android":"levelo://app?vid=c04c555d-31b8-41cc-bd01-fd45d99c0c5a","ios":"levelo://app?vid=c04c555d-31b8-41cc-bd01-fd45d99c0c5a"},"vehicle_type_id":"4","last_reported":1702793322,"current_range_meters":28400,"station_id":"ce4bha92rcd13ifvqeh0","pricing_plan_id":"free"},{"bike_id":"eea9a5b5-a5ef-406f-89d0-cb3b69a8c013","system_id":"levelo_inurba_marseille","lat":43.309038,"lon":5.396546,"is_reserved":false,"is_disabled":false,"rental_uris":{"android":"levelo://app?vid=eea9a5b5-a5ef-406f-89d0-cb3b69a8c013","ios":"levelo://app?vid=eea9a5b5-a5ef-406f-89d0-cb3b69a8c013"},"vehicle_type_id":"4","last_reported":1702793322,"current_range_meters":31200,"station_id":"ce4bh012rcd13ifvqcv0","pricing_plan_id":"free"},{"bike_id":"05320e85-29e5-4035-864b-807310174155","system_id":"levelo_inurba_marseille","lat":43.309047,"lon":5.396551,"is_reserved":false,"is_disabled":false,"rental_uris":{"android":"levelo://app?vid=05320e85-29e5-4035-864b-807310174155","ios":"levelo://app?vid=05320e85-29e5-4035-864b-807310174155"},"vehicle_type_id":"4","last_reported":1702793322,"current_range_meters":21600,"station_id":"ce4bh012rcd13ifvqcv0","pricing_plan_id":"free"},{"bike_id":"7ed22226-fac5-4877-b7e4-afb6e44e5a35","system_id":"levelo_inurba_marseille","lat":43.309038,"lon":5.396546,"is_reserved":false,"is_disabled":false,"rental_uris":{"android":"levelo://app?vid=7ed22226-fac5-4877-b7e4-afb6e44e5a35","ios":"levelo://app?vid=7ed22226-fac5-4877-b7e4-afb6e44e5a35"},"vehicle_type_id":"4","last_reported":1702793322,"current_range_meters":31200,"station_id":"ce4bh012rcd13ifvqcv0","pricing_plan_id":"free"},{"bike_id":"1127c8f7-e1ed-4061-bac1-0a461aca95fe","system_id":"levelo_inurba_marseille","lat":43.309038,"lon":5.396546,"is_reserved":false,"is_disabled":false,"rental_uris":{"android":"levelo://app?vid=1127c8f7-e1ed-4061-bac1-0a461aca95fe","ios":"levelo://app?vid=1127c8f7-e1ed-4061-bac1-0a461aca95fe"},"vehicle_type_id":"4","last_reported":1702793322,"current_range_meters":31200,"station_id":"ce4bh012rcd13ifvqcv0","pricing_plan_id":"free"},{"bike_id":"d3326263-b53d-473e-ba43-290732f34ee0","system_id":"levelo_inurba_marseille","lat":43.313294,"lon":5.396882,"is_reserved":false,"is_disabled":false,"rental_uris":{"android":"levelo://app?vid=d3326263-b53d-473e-ba43-290732f34ee0","ios":"levelo://app?vid=d3326263-b53d-473e-ba43-290732f34ee0"},"vehicle_type_id":"4","last_reported":1702793322,"current_range_meters":24400,"station_id":"ce4bgvp2rcd13ifvqcu0","pricing_plan_id":"free"},{"bike_id":"088ca245-0062-4572-8e24-2074247e2a20","system_id":"levelo_inurba_marseille","lat":43.309038,"lon":5.396546,"is_reserved":false,"is_disabled":false,"rental_uris":{"android":"levelo://app?vid=088ca245-0062-4572-8e24-2074247e2a20","ios":"levelo://app?vid=088ca245-0062-4572-8e24-2074247e2a20"},"vehicle_type_id":"4","last_reported":1702793322,"current_range_meters":27200,"station_id":"ce4bh012rcd13ifvqcv0","pricing_plan_id":"free"},{"bike_id":"1bd032e9-a9c1-4d45-8800-a5fdbd1789a0","system_id":"levelo_inurba_marseille","lat":43.309038,"lon":5.396546,"is_reserved":false,"is_disabled":false,"rental_uris":{"android":"levelo://app?vid=1bd032e9-a9c1-4d45-8800-a5fdbd1789a0","ios":"levelo://app?vid=1bd032e9-a9c1-4d45-8800-a5fdbd1789a0"},"vehicle_type_id":"4","last_reported":1702793322,"current_range_meters":27200,"station_id":"ce4bh012rcd13ifvqcv0","pricing_plan_id":"free"},{"bike_id":"25f521a1-bfd3-4e3a-a20b-1619588e4969","system_id":"levelo_inurba_marseille","lat":43.291908,"lon":5.357966,"is_reserved":false,"is_disabled":false,"rental_uris":{"android":"levelo://app?vid=25f521a1-bfd3-4e3a-a20b-1619588e4969","ios":"levelo://app?vid=25f521a1-bfd3-4e3a-a20b-1619588e4969"},"vehicle_type_id":"4","last_reported":1702793322,"current_range_meters":29200,"station_id":"ce4bhb12rcd13ifvqel0","pricing_plan_id":"free"},{"bike_id":"8a34a178-2da0-4339-bf4e-e2deb6944c60","system_id":"levelo_inurba_marseille","lat":43.29562,"lon":5.38556,"is_reserved":false,"is_disabled":false,"rental_uris":{"android":"levelo://app?vid=8a34a178-2da0-4339-bf4e-e2deb6944c60","ios":"levelo://app?vid=8a34a178-2da0-4339-bf4e-e2deb6944c60"},"vehicle_type_id":"4","last_reported":1702793322,"current_range_meters":0,"station_id":"ce4bgih2rcd13ifvqba0","pricing_plan_id":"free"},{"bike_id":"55c621e1-94a8-462c-ad2d-9257efdf4c70","system_id":"levelo_inurba_marseille","lat":43.313258,"lon":5.39695,"is_reserved":false,"is_disabled":false,"rental_uris":{"android":"levelo://app?vid=55c621e1-94a8-462c-ad2d-9257efdf4c70","ios":"levelo://app?vid=55c621e1-94a8-462c-ad2d-9257efdf4c70"},"vehicle_type_id":"4","last_reported":1702793322,"current_range_meters":31200,"station_id":"ce4bgvp2rcd13ifvqcu0","pricing_plan_id":"free"},{"bike_id":"f1253399-4c64-416f-8035-862585d853fd","system_id":"levelo_inurba_marseille","lat":43.291994,"lon":5.357886,"is_reserved":false,"is_disabled":false,"rental_uris":{"android":"levelo://app?vid=f1253399-4c64-416f-8035-862585d853fd","ios":"levelo://app?vid=f1253399-4c64-416f-8035-862585d853fd"},"vehicle_type_id":"4","last_reported":1702793322,"current_range_meters":29200,"station_id":"ce4bhb12rcd13ifvqel0","pricing_plan_id":"free"},{"bike_id":"dc11934a-f11e-4bd0-b77c-c5aaf70a04e5","system_id":"levelo_inurba_marseille","lat":43.31329,"lon":5.397012,"is_reserved":false,"is_disabled":false,"rental_uris":{"android":"levelo://app?vid=dc11934a-f11e-4bd0-b77c-c5aaf70a04e5","ios":"levelo://app?vid=dc11934a-f11e-4bd0-b77c-c5aaf70a04e5"},"vehicle_type_id":"4","last_reported":1702793322,"current_range_meters":23200,"station_id":"ce4bgvp2rcd13ifvqcu0","pricing_plan_id":"free"},{"bike_id":"0e02cd82-420c-4930-9588-bb0ef265132a","system_id":"levelo_inurba_marseille","lat":43.290624,"lon":5.359245,"is_reserved":false,"is_disabled":false,"rental_uris":{"android":"levelo://app?vid=0e02cd82-420c-4930-9588-bb0ef265132a","ios":"levelo://app?vid=0e02cd82-420c-4930-9588-bb0ef265132a"},"vehicle_type_id":"4","last_reported":1702793322,"current_range_meters":29200,"station_id":"ce4bha92rcd13ifvqeg0","pricing_plan_id":"free"},{"bike_id":"ca3af477-5c44-491d-84d9-8a230bd4e5fb","system_id":"levelo_inurba_marseille","lat":43.290631,"lon":5.359244,"is_reserved":false,"is_disabled":false,"rental_uris":{"android":"levelo://app?vid=ca3af477-5c44-491d-84d9-8a230bd4e5fb","ios":"levelo://app?vid=ca3af477-5c44-491d-84d9-8a230bd4e5fb"},"vehicle_type_id":"4","last_reported":1702793322,"current_range_meters":26800,"station_id":"ce4bha92rcd13ifvqeg0","pricing_plan_id":"free"},{"bike_id":"9972567c-3116-4d6e-9547-c677f049b667","system_id":"levelo_inurba_marseille","lat":43.28943,"lon":5.36643,"is_reserved":false,"is_disabled":false,"rental_uris":{"android":"levelo://app?vid=9972567c-3116-4d6e-9547-c677f049b667","ios":"levelo://app?vid=9972567c-3116-4d6e-9547-c677f049b667"},"vehicle_type_id":"4","last_reported":1702793322,"current_range_meters":28800,"station_id":"ce4bhap2rcd13ifvqek0","pricing_plan_id":"free"},{"bike_id":"925d1d63-8c42-48c7-b06c-3249f8954959","system_id":"levelo_inurba_marseille","lat":43.304296,"lon":5.397513,"is_reserved":false,"is_disabled":false,"rental_uris":{"android":"levelo://app?vid=925d1d63-8c42-48c7-b06c-3249f8954959","ios":"levelo://app?vid=925d1d63-8c42-48c7-b06c-3249f8954959"},"vehicle_type_id":"4","last_reported":1702793322,"current_range_meters":20800,"station_id":"ce4bh092rcd13ifvqd20","pricing_plan_id":"free"},{"bike_id":"0019cc72-50a3-4298-937a-c3025a814462","system_id":"levelo_inurba_marseille","lat":43.330442,"lon":5.389148,"is_reserved":false,"is_disabled":false,"rental_uris":{"android":"levelo://app?vid=0019cc72-50a3-4298-937a-c3025a814462","ios":"levelo://app?vid=0019cc72-50a3-4298-937a-c3025a814462"},"vehicle_type_id":"4","last_reported":1702793322,"current_range_meters":5200,"station_id":"ce4bhr92rcd13ifvqhrg","pricing_plan_id":"free"},{"bike_id":"ad0f6538-ba65-40b7-bd35-329a98101cc1","system_id":"levelo_inurba_marseille","lat":43.28984,"lon":5.354844,"is_reserved":false,"is_disabled":false,"rental_uris":{"android":"levelo://app?vid=ad0f6538-ba65-40b7-bd35-329a98101cc1","ios":"levelo://app?vid=ad0f6538-ba65-40b7-bd35-329a98101cc1"},"vehicle_type_id":"4","last_reported":1702793322,"current_range_meters":8000,"station_id":"","pricing_plan_id":"free"},{"bike_id":"d515e3c1-cfd5-4a76-8d5a-e0f95be8be19","system_id":"levelo_inurba_marseille","lat":43.2901,"lon":5.381269,"is_reserved":false,"is_disabled":false,"rental_uris":{"android":"levelo://app?vid=d515e3c1-cfd5-4a76-8d5a-e0f95be8be19","ios":"levelo://app?vid=d515e3c1-cfd5-4a76-8d5a-e0f95be8be19"},"vehicle_type_id":"4","last_reported":1702793322,"current_range_meters":25200,"station_id":"ce4bh4p2rcd13ifvqe1g","pricing_plan_id":"free"},{"bike_id":"447204d2-5ce8-4b66-9b29-15a9ae85b983","system_id":"levelo_inurba_marseille","lat":43.288557,"lon":5.358603,"is_reserved":false,"is_disabled":false,"rental_uris":{"android":"levelo://app?vid=447204d2-5ce8-4b66-9b29-15a9ae85b983","ios":"levelo://app?vid=447204d2-5ce8-4b66-9b29-15a9ae85b983"},"vehicle_type_id":"4","last_reported":1702793322,"current_range_meters":27200,"station_id":"ce4bhb12rcd13ifvqem0","pricing_plan_id":"free"},{"bike_id":"ce33c0c1-2bfe-4ba6-9e7e-c6751eefe870","system_id":"levelo_inurba_marseille","lat":43.312609,"lon":5.401662,"is_reserved":false,"is_disabled":false,"rental_uris":{"android":"levelo://app?vid=ce33c0c1-2bfe-4ba6-9e7e-c6751eefe870","ios":"levelo://app?vid=ce33c0c1-2bfe-4ba6-9e7e-c6751eefe870"},"vehicle_type_id":"4","last_reported":1702793322,"current_range_meters":30800,"station_id":"ce4bh092rcd13ifvqd30","pricing_plan_id":"free"},{"bike_id":"97575c6f-f232-4b32-86fb-464f8f8fc57b","system_id":"levelo_inurba_marseille","lat":43.3128,"lon":5.401668,"is_reserved":false,"is_disabled":false,"rental_uris":{"android":"levelo://app?vid=97575c6f-f232-4b32-86fb-464f8f8fc57b","ios":"levelo://app?vid=97575c6f-f232-4b32-86fb-464f8f8fc57b"},"vehicle_type_id":"4","last_reported":1702793322,"current_range_meters":31200,"station_id":"ce4bh092rcd13ifvqd30","pricing_plan_id":"free"},{"bike_id":"5a228bb2-f7a3-4ca8-b607-a53bfe34d6fa","system_id":"levelo_inurba_marseille","lat":43.312609,"lon":5.401662,"is_reserved":false,"is_disabled":false,"rental_uris":{"android":"levelo://app?vid=5a228bb2-f7a3-4ca8-b607-a53bfe34d6fa","ios":"levelo://app?vid=5a228bb2-f7a3-4ca8-b607-a53bfe34d6fa"},"vehicle_type_id":"4","last_reported":1702793322,"current_range_meters":30800,"station_id":"ce4bh092rcd13ifvqd30","pricing_plan_id":"free"},{"bike_id":"f0cd831c-cfb9-44c7-9487-103b6df223ca","system_id":"levelo_inurba_marseille","lat":43.337445,"lon":5.374592,"is_reserved":false,"is_disabled":false,"rental_uris":{"android":"levelo://app?vid=f0cd831c-cfb9-44c7-9487-103b6df223ca","ios":"levelo://app?vid=f0cd831c-cfb9-44c7-9487-103b6df223ca"},"vehicle_type_id":"4","last_reported":1702793322,"current_range_meters":26400,"station_id":"","pricing_plan_id":"free"},{"bike_id":"1f5698a1-fae9-4180-8c15-df2f9ce17462","system_id":"levelo_inurba_marseille","lat":43.309275,"lon":5.401453,"is_reserved":false,"is_disabled":false,"rental_uris":{"android":"levelo://app?vid=1f5698a1-fae9-4180-8c15-df2f9ce17462","ios":"levelo://app?vid=1f5698a1-fae9-4180-8c15-df2f9ce17462"},"vehicle_type_id":"4","last_reported":1702793322,"current_range_meters":18000,"station_id":"ce4bgvp2rcd13ifvqct0","pricing_plan_id":"free"},{"bike_id":"8610ff21-ad0f-435a-b079-c62dad58c047","system_id":"levelo_inurba_marseille","lat":43.30642,"lon":5.401031,"is_reserved":false,"is_disabled":false,"rental_uris":{"android":"levelo://app?vid=8610ff21-ad0f-435a-b079-c62dad58c047","ios":"levelo://app?vid=8610ff21-ad0f-435a-b079-c62dad58c047"},"vehicle_type_id":"4","last_reported":1702793322,"current_range_meters":28800,"station_id":"ce4bh112rcd13ifvqda0","pricing_plan_id":"free"},{"bike_id":"3b22c300-550a-450a-8eb8-e926a9dc85f2","system_id":"levelo_inurba_marseille","lat":43.30927,"lon":5.40147,"is_reserved":false,"is_disabled":false,"rental_uris":{"android":"levelo://app?vid=3b22c300-550a-450a-8eb8-e926a9dc85f2","ios":"levelo://app?vid=3b22c300-550a-450a-8eb8-e926a9dc85f2"},"vehicle_type_id":"4","last_reported":1702793322,"current_range_meters":6400,"station_id":"ce4bgvp2rcd13ifvqct0","pricing_plan_id":"free"},{"bike_id":"c928512c-93e9-4dcd-8dcd-62cb4da07058","system_id":"levelo_inurba_marseille","lat":43.30928,"lon":5.40148,"is_reserved":false,"is_disabled":false,"rental_uris":{"android":"levelo://app?vid=c928512c-93e9-4dcd-8dcd-62cb4da07058","ios":"levelo://app?vid=c928512c-93e9-4dcd-8dcd-62cb4da07058"},"vehicle_type_id":"4","last_reported":1702793322,"current_range_meters":20000,"station_id":"ce4bgvp2rcd13ifvqct0","pricing_plan_id":"free"},{"bike_id":"3acd82a9-1a98-4a9c-83e7-281037b8576f","system_id":"levelo_inurba_marseille","lat":43.309323,"lon":5.401491,"is_reserved":false,"is_disabled":false,"rental_uris":{"android":"levelo://app?vid=3acd82a9-1a98-4a9c-83e7-281037b8576f","ios":"levelo://app?vid=3acd82a9-1a98-4a9c-83e7-281037b8576f"},"vehicle_type_id":"4","last_reported":1702793322,"current_range_meters":18000,"station_id":"ce4bgvp2rcd13ifvqct0","pricing_plan_id":"free"},{"bike_id":"7694c541-cd4a-44fe-b7be-c367cca7b631","system_id":"levelo_inurba_marseille","lat":43.30927,"lon":5.40152,"is_reserved":false,"is_disabled":false,"rental_uris":{"android":"levelo://app?vid=7694c541-cd4a-44fe-b7be-c367cca7b631","ios":"levelo://app?vid=7694c541-cd4a-44fe-b7be-c367cca7b631"},"vehicle_type_id":"4","last_reported":1702793322,"current_range_meters":14000,"station_id":"ce4bgvp2rcd13ifvqct0","pricing_plan_id":"free"},{"bike_id":"ef80ceab-dc9f-4b6c-8f52-707d5177f481","system_id":"levelo_inurba_marseille","lat":43.33752,"lon":5.37466,"is_reserved":false,"is_disabled":false,"rental_uris":{"android":"levelo://app?vid=ef80ceab-dc9f-4b6c-8f52-707d5177f481","ios":"levelo://app?vid=ef80ceab-dc9f-4b6c-8f52-707d5177f481"},"vehicle_type_id":"4","last_reported":1702793322,"current_range_meters":26000,"station_id":"","pricing_plan_id":"free"},{"bike_id":"e73ba5fd-45c7-4a46-beac-b5c7374298e6","system_id":"levelo_inurba_marseille","lat":43.309371,"lon":5.401449,"is_reserved":false,"is_disabled":false,"rental_uris":{"android":"levelo://app?vid=e73ba5fd-45c7-4a46-beac-b5c7374298e6","ios":"levelo://app?vid=e73ba5fd-45c7-4a46-beac-b5c7374298e6"},"vehicle_type_id":"4","last_reported":1702793322,"current_range_meters":21200,"station_id":"ce4bgvp2rcd13ifvqct0","pricing_plan_id":"free"},{"bike_id":"55c39c26-0ea3-4491-8153-e9b48fb14e0c","system_id":"levelo_inurba_marseille","lat":43.29077,"lon":5.38456,"is_reserved":false,"is_disabled":false,"rental_uris":{"android":"levelo://app?vid=55c39c26-0ea3-4491-8153-e9b48fb14e0c","ios":"levelo://app?vid=55c39c26-0ea3-4491-8153-e9b48fb14e0c"},"vehicle_type_id":"4","last_reported":1702793322,"current_range_meters":0,"station_id":"","pricing_plan_id":"free"},{"bike_id":"34791e21-0d69-4796-a83d-e42a4306510f","system_id":"levelo_inurba_marseille","lat":43.306412,"lon":5.401035,"is_reserved":false,"is_disabled":false,"rental_uris":{"android":"levelo://app?vid=34791e21-0d69-4796-a83d-e42a4306510f","ios":"levelo://app?vid=34791e21-0d69-4796-a83d-e42a4306510f"},"vehicle_type_id":"4","last_reported":1702793322,"current_range_meters":26800,"station_id":"ce4bh112rcd13ifvqda0","pricing_plan_id":"free"},{"bike_id":"8412b195-3cd6-48be-bf77-9ed8f9c3f697","system_id":"levelo_inurba_marseille","lat":43.30917,"lon":5.4016,"is_reserved":false,"is_disabled":false,"rental_uris":{"android":"levelo://app?vid=8412b195-3cd6-48be-bf77-9ed8f9c3f697","ios":"levelo://app?vid=8412b195-3cd6-48be-bf77-9ed8f9c3f697"},"vehicle_type_id":"4","last_reported":1702793322,"current_range_meters":24800,"station_id":"ce4bgvp2rcd13ifvqct0","pricing_plan_id":"free"},{"bike_id":"947ba9ea-3a08-4300-b903-840c337d4434","system_id":"levelo_inurba_marseille","lat":43.30143,"lon":5.39883,"is_reserved":false,"is_disabled":false,"rental_uris":{"android":"levelo://app?vid=947ba9ea-3a08-4300-b903-840c337d4434","ios":"levelo://app?vid=947ba9ea-3a08-4300-b903-840c337d4434"},"vehicle_type_id":"4","last_reported":1702793322,"current_range_meters":20400,"station_id":"ce4bh0h2rcd13ifvqd40","pricing_plan_id":"free"},{"bike_id":"35b8d0fd-6a6b-43c4-8eda-4b4535961406","system_id":"levelo_inurba_marseille","lat":43.286961,"lon":5.373785,"is_reserved":false,"is_disabled":false,"rental_uris":{"android":"levelo://app?vid=35b8d0fd-6a6b-43c4-8eda-4b4535961406","ios":"levelo://app?vid=35b8d0fd-6a6b-43c4-8eda-4b4535961406"},"vehicle_type_id":"4","last_reported":1702793322,"current_range_meters":30000,"station_id":"ce4bh3p2rcd13ifvqdq0","pricing_plan_id":"free"},{"bike_id":"fa0a5859-3f89-4eb1-8934-c4bed83464fe","system_id":"levelo_inurba_marseille","lat":43.28692,"lon":5.373955,"is_reserved":false,"is_disabled":false,"rental_uris":{"android":"levelo://app?vid=fa0a5859-3f89-4eb1-8934-c4bed83464fe","ios":"levelo://app?vid=fa0a5859-3f89-4eb1-8934-c4bed83464fe"},"vehicle_type_id":"4","last_reported":1702793322,"current_range_meters":13200,"station_id":"ce4bh3p2rcd13ifvqdq0","pricing_plan_id":"free"},{"bike_id":"a4c6085b-53a4-4f2f-8249-6eeb26bc92c7","system_id":"levelo_inurba_marseille","lat":43.290345,"lon":5.38646,"is_reserved":false,"is_disabled":false,"rental_uris":{"android":"levelo://app?vid=a4c6085b-53a4-4f2f-8249-6eeb26bc92c7","ios":"levelo://app?vid=a4c6085b-53a4-4f2f-8249-6eeb26bc92c7"},"vehicle_type_id":"4","last_reported":1702793322,"current_range_meters":25200,"station_id":"ce4bh4p2rcd13ifvqe0g","pricing_plan_id":"free"},{"bike_id":"c148ee90-7e96-45a2-abe8-da7f1c9dbb79","system_id":"levelo_inurba_marseille","lat":43.289307,"lon":5.38406,"is_reserved":false,"is_disabled":false,"rental_uris":{"android":"levelo://app?vid=c148ee90-7e96-45a2-abe8-da7f1c9dbb79","ios":"levelo://app?vid=c148ee90-7e96-45a2-abe8-da7f1c9dbb79"},"vehicle_type_id":"4","last_reported":1702793322,"current_range_meters":26000,"station_id":"ce4bh612rcd13ifvqe6g","pricing_plan_id":"free"},{"bike_id":"03f5f99e-5e86-4404-98b4-a472eca97545","system_id":"levelo_inurba_marseille","lat":43.290268,"lon":5.38638,"is_reserved":false,"is_disabled":false,"rental_uris":{"android":"levelo://app?vid=03f5f99e-5e86-4404-98b4-a472eca97545","ios":"levelo://app?vid=03f5f99e-5e86-4404-98b4-a472eca97545"},"vehicle_type_id":"4","last_reported":1702793322,"current_range_meters":12000,"station_id":"ce4bh4p2rcd13ifvqe0g","pricing_plan_id":"free"},{"bike_id":"b02fb099-f7ee-4b70-bbcf-73575aabc4c8","system_id":"levelo_inurba_marseille","lat":43.289307,"lon":5.38406,"is_reserved":false,"is_disabled":false,"rental_uris":{"android":"levelo://app?vid=b02fb099-f7ee-4b70-bbcf-73575aabc4c8","ios":"levelo://app?vid=b02fb099-f7ee-4b70-bbcf-73575aabc4c8"},"vehicle_type_id":"4","last_reported":1702793322,"current_range_meters":25600,"station_id":"ce4bh612rcd13ifvqe6g","pricing_plan_id":"free"},{"bike_id":"0caea5a7-534f-4d07-8b5b-fd4e0f328296","system_id":"levelo_inurba_marseille","lat":43.287185,"lon":5.379373,"is_reserved":false,"is_disabled":false,"rental_uris":{"android":"levelo://app?vid=0caea5a7-534f-4d07-8b5b-fd4e0f328296","ios":"levelo://app?vid=0caea5a7-534f-4d07-8b5b-fd4e0f328296"},"vehicle_type_id":"4","last_reported":1702793322,"current_range_meters":30800,"station_id":"ce4bh9p2rcd13ifvqec0","pricing_plan_id":"free"},{"bike_id":"f93fffff-8aa8-4e74-9930-6bd17922cd5d","system_id":"levelo_inurba_marseille","lat":43.284538,"lon":5.358657,"is_reserved":false,"is_disabled":false,"rental_uris":{"android":"levelo://app?vid=f93fffff-8aa8-4e74-9930-6bd17922cd5d","ios":"levelo://app?vid=f93fffff-8aa8-4e74-9930-6bd17922cd5d"},"vehicle_type_id":"4","last_reported":1702793322,"current_range_meters":16000,"station_id":"ce4bhah2rcd13ifvqei0","pricing_plan_id":"free"},{"bike_id":"b0ffbf39-b5ea-410a-9a34-d849cdabc258","system_id":"levelo_inurba_marseille","lat":43.284228,"lon":5.375117,"is_reserved":false,"is_disabled":false,"rental_uris":{"android":"levelo://app?vid=b0ffbf39-b5ea-410a-9a34-d849cdabc258","ios":"levelo://app?vid=b0ffbf39-b5ea-410a-9a34-d849cdabc258"},"vehicle_type_id":"4","last_reported":1702793322,"current_range_meters":6800,"station_id":"","pricing_plan_id":"free"},{"bike_id":"7980b514-7b81-49da-955f-d3cee0578dd7","system_id":"levelo_inurba_marseille","lat":43.283998,"lon":5.375062,"is_reserved":false,"is_disabled":false,"rental_uris":{"android":"levelo://app?vid=7980b514-7b81-49da-955f-d3cee0578dd7","ios":"levelo://app?vid=7980b514-7b81-49da-955f-d3cee0578dd7"},"vehicle_type_id":"4","last_reported":1702793322,"current_range_meters":8400,"station_id":"ce4bh412rcd13ifvqds0","pricing_plan_id":"free"},{"bike_id":"25cf5e9d-35cd-4347-bfa4-e884baa5bac0","system_id":"levelo_inurba_marseille","lat":43.295713,"lon":5.399639,"is_reserved":false,"is_disabled":false,"rental_uris":{"android":"levelo://app?vid=25cf5e9d-35cd-4347-bfa4-e884baa5bac0","ios":"levelo://app?vid=25cf5e9d-35cd-4347-bfa4-e884baa5bac0"},"vehicle_type_id":"4","last_reported":1702793322,"current_range_meters":11200,"station_id":"ce4bh312rcd13ifvqdj0","pricing_plan_id":"free"},{"bike_id":"4519113f-bb99-4d7c-a5ee-021c6300baea","system_id":"levelo_inurba_marseille","lat":43.295713,"lon":5.399639,"is_reserved":false,"is_disabled":false,"rental_uris":{"android":"levelo://app?vid=4519113f-bb99-4d7c-a5ee-021c6300baea","ios":"levelo://app?vid=4519113f-bb99-4d7c-a5ee-021c6300baea"},"vehicle_type_id":"4","last_reported":1702793322,"current_range_meters":27200,"station_id":"ce4bh312rcd13ifvqdj0","pricing_plan_id":"free"},{"bike_id":"92652e35-0f46-4898-bac7-396ee1f6f9fd","system_id":"levelo_inurba_marseille","lat":43.28395,"lon":5.37517,"is_reserved":false,"is_disabled":false,"rental_uris":{"android":"levelo://app?vid=92652e35-0f46-4898-bac7-396ee1f6f9fd","ios":"levelo://app?vid=92652e35-0f46-4898-bac7-396ee1f6f9fd"},"vehicle_type_id":"4","last_reported":1702793322,"current_range_meters":22800,"station_id":"ce4bh412rcd13ifvqds0","pricing_plan_id":"free"},{"bike_id":"2dfa5049-0e1b-4839-b5c3-156910a65dbd","system_id":"levelo_inurba_marseille","lat":43.331792,"lon":5.398383,"is_reserved":false,"is_disabled":false,"rental_uris":{"android":"levelo://app?vid=2dfa5049-0e1b-4839-b5c3-156910a65dbd","ios":"levelo://app?vid=2dfa5049-0e1b-4839-b5c3-156910a65dbd"},"vehicle_type_id":"4","last_reported":1702793322,"current_range_meters":7600,"station_id":"","pricing_plan_id":"free"},{"bike_id":"2727c664-bd75-4b2f-b8dd-f20bae895db9","system_id":"levelo_inurba_marseille","lat":43.323464,"lon":5.406297,"is_reserved":false,"is_disabled":false,"rental_uris":{"android":"levelo://app?vid=2727c664-bd75-4b2f-b8dd-f20bae895db9","ios":"levelo://app?vid=2727c664-bd75-4b2f-b8dd-f20bae895db9"},"vehicle_type_id":"4","last_reported":1702793322,"current_range_meters":24400,"station_id":"ce4bhq92rcd13ifvqhjg","pricing_plan_id":"free"},{"bike_id":"c5bcbd66-e759-41bb-99c2-6ae0677b51af","system_id":"levelo_inurba_marseille","lat":43.323464,"lon":5.406297,"is_reserved":false,"is_disabled":false,"rental_uris":{"android":"levelo://app?vid=c5bcbd66-e759-41bb-99c2-6ae0677b51af","ios":"levelo://app?vid=c5bcbd66-e759-41bb-99c2-6ae0677b51af"},"vehicle_type_id":"4","last_reported":1702793322,"current_range_meters":13600,"station_id":"ce4bhq92rcd13ifvqhjg","pricing_plan_id":"free"},{"bike_id":"a8c4246c-8b22-44a6-af13-0443491dc2b7","system_id":"levelo_inurba_marseille","lat":43.323464,"lon":5.406297,"is_reserved":false,"is_disabled":false,"rental_uris":{"android":"levelo://app?vid=a8c4246c-8b22-44a6-af13-0443491dc2b7","ios":"levelo://app?vid=a8c4246c-8b22-44a6-af13-0443491dc2b7"},"vehicle_type_id":"4","last_reported":1702793322,"current_range_meters":23600,"station_id":"ce4bhq92rcd13ifvqhjg","pricing_plan_id":"free"},{"bike_id":"b1bba2b6-372d-49dd-b13b-1b4d710db23d","system_id":"levelo_inurba_marseille","lat":43.323464,"lon":5.406297,"is_reserved":false,"is_disabled":false,"rental_uris":{"android":"levelo://app?vid=b1bba2b6-372d-49dd-b13b-1b4d710db23d","ios":"levelo://app?vid=b1bba2b6-372d-49dd-b13b-1b4d710db23d"},"vehicle_type_id":"4","last_reported":1702793322,"current_range_meters":31600,"station_id":"ce4bhq92rcd13ifvqhjg","pricing_plan_id":"free"},{"bike_id":"4e968a30-fa77-417a-ab9d-dcda58961444","system_id":"levelo_inurba_marseille","lat":43.284793,"lon":5.384113,"is_reserved":false,"is_disabled":false,"rental_uris":{"android":"levelo://app?vid=4e968a30-fa77-417a-ab9d-dcda58961444","ios":"levelo://app?vid=4e968a30-fa77-417a-ab9d-dcda58961444"},"vehicle_type_id":"4","last_reported":1702793322,"current_range_meters":6800,"station_id":"ce4bh512rcd13ifvqe3g","pricing_plan_id":"free"},{"bike_id":"10a060c1-66ee-4195-9dde-2f0517aab604","system_id":"levelo_inurba_marseille","lat":43.28482,"lon":5.38436,"is_reserved":false,"is_disabled":false,"rental_uris":{"android":"levelo://app?vid=10a060c1-66ee-4195-9dde-2f0517aab604","ios":"levelo://app?vid=10a060c1-66ee-4195-9dde-2f0517aab604"},"vehicle_type_id":"4","last_reported":1702793322,"current_range_meters":4000,"station_id":"ce4bh512rcd13ifvqe3g","pricing_plan_id":"free"},{"bike_id":"7a745c12-8edf-4361-8371-d275821a4703","system_id":"levelo_inurba_marseille","lat":43.283494,"lon":5.380945,"is_reserved":false,"is_disabled":false,"rental_uris":{"android":"levelo://app?vid=7a745c12-8edf-4361-8371-d275821a4703","ios":"levelo://app?vid=7a745c12-8edf-4361-8371-d275821a4703"},"vehicle_type_id":"4","last_reported":1702793322,"current_range_meters":30000,"station_id":"ce4bh412rcd13ifvqdr0","pricing_plan_id":"free"},{"bike_id":"d14406b9-33ee-4c84-9496-131157508ccc","system_id":"levelo_inurba_marseille","lat":43.292724,"lon":5.401131,"is_reserved":false,"is_disabled":false,"rental_uris":{"android":"levelo://app?vid=d14406b9-33ee-4c84-9496-131157508ccc","ios":"levelo://app?vid=d14406b9-33ee-4c84-9496-131157508ccc"},"vehicle_type_id":"4","last_reported":1702793322,"current_range_meters":27600,"station_id":"ce4bh312rcd13ifvqdk0","pricing_plan_id":"free"},{"bike_id":"7647568b-8653-4791-bd19-bfa5d47fe774","system_id":"levelo_inurba_marseille","lat":43.292724,"lon":5.401131,"is_reserved":false,"is_disabled":false,"rental_uris":{"android":"levelo://app?vid=7647568b-8653-4791-bd19-bfa5d47fe774","ios":"levelo://app?vid=7647568b-8653-4791-bd19-bfa5d47fe774"},"vehicle_type_id":"4","last_reported":1702793322,"current_range_meters":28400,"station_id":"ce4bh312rcd13ifvqdk0","pricing_plan_id":"free"},{"bike_id":"b6df7a9e-13ba-42a8-b66a-97daa7b14dd2","system_id":"levelo_inurba_marseille","lat":43.292724,"lon":5.401131,"is_reserved":false,"is_disabled":false,"rental_uris":{"android":"levelo://app?vid=b6df7a9e-13ba-42a8-b66a-97daa7b14dd2","ios":"levelo://app?vid=b6df7a9e-13ba-42a8-b66a-97daa7b14dd2"},"vehicle_type_id":"4","last_reported":1702793322,"current_range_meters":27200,"station_id":"ce4bh312rcd13ifvqdk0","pricing_plan_id":"free"},{"bike_id":"b06270b4-fded-4e46-b5b5-36e56aa3f6f4","system_id":"levelo_inurba_marseille","lat":43.282754,"lon":5.350519,"is_reserved":false,"is_disabled":false,"rental_uris":{"android":"levelo://app?vid=b06270b4-fded-4e46-b5b5-36e56aa3f6f4","ios":"levelo://app?vid=b06270b4-fded-4e46-b5b5-36e56aa3f6f4"},"vehicle_type_id":"4","last_reported":1702793322,"current_range_meters":31200,"station_id":"ce4bhbp2rcd13ifvqerg","pricing_plan_id":"free"},{"bike_id":"49fda772-bca8-49a5-9071-a771a6aa4272","system_id":"levelo_inurba_marseille","lat":43.283502,"lon":5.386471,"is_reserved":false,"is_disabled":false,"rental_uris":{"android":"levelo://app?vid=49fda772-bca8-49a5-9071-a771a6aa4272","ios":"levelo://app?vid=49fda772-bca8-49a5-9071-a771a6aa4272"},"vehicle_type_id":"4","last_reported":1702793322,"current_range_meters":29600,"station_id":"ce4bh492rcd13ifvqdvg","pricing_plan_id":"free"},{"bike_id":"ab9b7426-83f8-4888-bc04-281b5b9c83fa","system_id":"levelo_inurba_marseille","lat":43.283502,"lon":5.386471,"is_reserved":false,"is_disabled":false,"rental_uris":{"android":"levelo://app?vid=ab9b7426-83f8-4888-bc04-281b5b9c83fa","ios":"levelo://app?vid=ab9b7426-83f8-4888-bc04-281b5b9c83fa"},"vehicle_type_id":"4","last_reported":1702793322,"current_range_meters":27600,"station_id":"ce4bh492rcd13ifvqdvg","pricing_plan_id":"free"},{"bike_id":"c48ac4ac-f1f9-410e-bca0-01df2c8dc181","system_id":"levelo_inurba_marseille","lat":43.28036,"lon":5.36942,"is_reserved":false,"is_disabled":false,"rental_uris":{"android":"levelo://app?vid=c48ac4ac-f1f9-410e-bca0-01df2c8dc181","ios":"levelo://app?vid=c48ac4ac-f1f9-410e-bca0-01df2c8dc181"},"vehicle_type_id":"4","last_reported":1702793322,"current_range_meters":29600,"station_id":"ce4bha12rcd13ifvqef0","pricing_plan_id":"free"},{"bike_id":"e063aa6d-ecfb-43c0-963f-c3e8c8b6d808","system_id":"levelo_inurba_marseille","lat":43.280382,"lon":5.369291,"is_reserved":false,"is_disabled":false,"rental_uris":{"android":"levelo://app?vid=e063aa6d-ecfb-43c0-963f-c3e8c8b6d808","ios":"levelo://app?vid=e063aa6d-ecfb-43c0-963f-c3e8c8b6d808"},"vehicle_type_id":"4","last_reported":1702793322,"current_range_meters":11600,"station_id":"ce4bha12rcd13ifvqef0","pricing_plan_id":"free"},{"bike_id":"ecdc77a1-2c2d-4dfc-bdd4-933c4d32bf57","system_id":"levelo_inurba_marseille","lat":43.28039,"lon":5.369297,"is_reserved":false,"is_disabled":false,"rental_uris":{"android":"levelo://app?vid=ecdc77a1-2c2d-4dfc-bdd4-933c4d32bf57","ios":"levelo://app?vid=ecdc77a1-2c2d-4dfc-bdd4-933c4d32bf57"},"vehicle_type_id":"4","last_reported":1702793322,"current_range_meters":20400,"station_id":"ce4bha12rcd13ifvqef0","pricing_plan_id":"free"},{"bike_id":"9d2389f0-1f4e-4d61-afc0-c373a6bcf102","system_id":"levelo_inurba_marseille","lat":43.280382,"lon":5.369291,"is_reserved":false,"is_disabled":false,"rental_uris":{"android":"levelo://app?vid=9d2389f0-1f4e-4d61-afc0-c373a6bcf102","ios":"levelo://app?vid=9d2389f0-1f4e-4d61-afc0-c373a6bcf102"},"vehicle_type_id":"4","last_reported":1702793322,"current_range_meters":27600,"station_id":"ce4bha12rcd13ifvqef0","pricing_plan_id":"free"},{"bike_id":"f4b5a001-c304-489d-ab56-e59dc260493c","system_id":"levelo_inurba_marseille","lat":43.284462,"lon":5.392121,"is_reserved":false,"is_disabled":false,"rental_uris":{"android":"levelo://app?vid=f4b5a001-c304-489d-ab56-e59dc260493c","ios":"levelo://app?vid=f4b5a001-c304-489d-ab56-e59dc260493c"},"vehicle_type_id":"4","last_reported":1702793322,"current_range_meters":4400,"station_id":"ce4bhoh2rcd13ifvqh5g","pricing_plan_id":"free"},{"bike_id":"245cc7a4-e86b-4f59-a9b5-498c1434afb8","system_id":"levelo_inurba_marseille","lat":43.326605,"lon":5.409903,"is_reserved":false,"is_disabled":false,"rental_uris":{"android":"levelo://app?vid=245cc7a4-e86b-4f59-a9b5-498c1434afb8","ios":"levelo://app?vid=245cc7a4-e86b-4f59-a9b5-498c1434afb8"},"vehicle_type_id":"4","last_reported":1702793322,"current_range_meters":28400,"station_id":"ce4bhpp2rcd13ifvqhgg","pricing_plan_id":"free"},{"bike_id":"ac05eec3-6dd4-4e50-ab24-45f354a74562","system_id":"levelo_inurba_marseille","lat":43.326605,"lon":5.409903,"is_reserved":false,"is_disabled":false,"rental_uris":{"android":"levelo://app?vid=ac05eec3-6dd4-4e50-ab24-45f354a74562","ios":"levelo://app?vid=ac05eec3-6dd4-4e50-ab24-45f354a74562"},"vehicle_type_id":"4","last_reported":1702793322,"current_range_meters":30400,"station_id":"ce4bhpp2rcd13ifvqhgg","pricing_plan_id":"free"},{"bike_id":"0ac31803-ed02-4ad3-8b52-0a262a6d0b1d","system_id":"levelo_inurba_marseille","lat":43.326605,"lon":5.409903,"is_reserved":false,"is_disabled":false,"rental_uris":{"android":"levelo://app?vid=0ac31803-ed02-4ad3-8b52-0a262a6d0b1d","ios":"levelo://app?vid=0ac31803-ed02-4ad3-8b52-0a262a6d0b1d"},"vehicle_type_id":"4","last_reported":1702793322,"current_range_meters":30400,"station_id":"ce4bhpp2rcd13ifvqhgg","pricing_plan_id":"free"},{"bike_id":"28b5256c-ebe2-45d3-abc6-d16eb6c2b88b","system_id":"levelo_inurba_marseille","lat":43.287154,"lon":5.399979,"is_reserved":false,"is_disabled":false,"rental_uris":{"android":"levelo://app?vid=28b5256c-ebe2-45d3-abc6-d16eb6c2b88b","ios":"levelo://app?vid=28b5256c-ebe2-45d3-abc6-d16eb6c2b88b"},"vehicle_type_id":"4","last_reported":1702793322,"current_range_meters":21600,"station_id":"ce4bho92rcd13ifvqh3g","pricing_plan_id":"free"},{"bike_id":"860a1b11-25fe-4856-9f32-ce630d6fb59f","system_id":"levelo_inurba_marseille","lat":43.287154,"lon":5.399979,"is_reserved":false,"is_disabled":false,"rental_uris":{"android":"levelo://app?vid=860a1b11-25fe-4856-9f32-ce630d6fb59f","ios":"levelo://app?vid=860a1b11-25fe-4856-9f32-ce630d6fb59f"},"vehicle_type_id":"4","last_reported":1702793322,"current_range_meters":29600,"station_id":"ce4bho92rcd13ifvqh3g","pricing_plan_id":"free"},{"bike_id":"50a75cc7-e590-4a41-b17e-605170017a9c","system_id":"levelo_inurba_marseille","lat":43.320398,"lon":5.415276,"is_reserved":false,"is_disabled":false,"rental_uris":{"android":"levelo://app?vid=50a75cc7-e590-4a41-b17e-605170017a9c","ios":"levelo://app?vid=50a75cc7-e590-4a41-b17e-605170017a9c"},"vehicle_type_id":"4","last_reported":1702793322,"current_range_meters":17200,"station_id":"ce4bhq92rcd13ifvqhkg","pricing_plan_id":"free"},{"bike_id":"b20b997c-e71c-4908-ab85-2e82e1ac7d9c","system_id":"levelo_inurba_marseille","lat":43.299579,"lon":5.413255,"is_reserved":false,"is_disabled":false,"rental_uris":{"android":"levelo://app?vid=b20b997c-e71c-4908-ab85-2e82e1ac7d9c","ios":"levelo://app?vid=b20b997c-e71c-4908-ab85-2e82e1ac7d9c"},"vehicle_type_id":"4","last_reported":1702793322,"current_range_meters":25200,"station_id":"ce4bhp12rcd13ifvqh9g","pricing_plan_id":"free"},{"bike_id":"e9ebc997-d7ce-4423-9613-ece8b9ec12de","system_id":"levelo_inurba_marseille","lat":43.27621,"lon":5.36112,"is_reserved":false,"is_disabled":false,"rental_uris":{"android":"levelo://app?vid=e9ebc997-d7ce-4423-9613-ece8b9ec12de","ios":"levelo://app?vid=e9ebc997-d7ce-4423-9613-ece8b9ec12de"},"vehicle_type_id":"4","last_reported":1702793322,"current_range_meters":28800,"station_id":"ce4bgj92rcd13ifvqbe0","pricing_plan_id":"free"},{"bike_id":"ef4ebfe6-544f-427a-ab41-4e8fcd066bd6","system_id":"levelo_inurba_marseille","lat":43.27615,"lon":5.36102,"is_reserved":false,"is_disabled":false,"rental_uris":{"android":"levelo://app?vid=ef4ebfe6-544f-427a-ab41-4e8fcd066bd6","ios":"levelo://app?vid=ef4ebfe6-544f-427a-ab41-4e8fcd066bd6"},"vehicle_type_id":"4","last_reported":1702793322,"current_range_meters":31200,"station_id":"ce4bgj92rcd13ifvqbe0","pricing_plan_id":"free"},{"bike_id":"e7fcdeca-090d-491e-a8ea-4f6571be908d","system_id":"levelo_inurba_marseille","lat":43.280784,"lon":5.396622,"is_reserved":false,"is_disabled":false,"rental_uris":{"android":"levelo://app?vid=e7fcdeca-090d-491e-a8ea-4f6571be908d","ios":"levelo://app?vid=e7fcdeca-090d-491e-a8ea-4f6571be908d"},"vehicle_type_id":"4","last_reported":1702793322,"current_range_meters":27600,"station_id":"ce4bho12rcd13ifvqh2g","pricing_plan_id":"free"},{"bike_id":"438e9356-9f45-4e0c-a6d7-cdab47bfa54b","system_id":"levelo_inurba_marseille","lat":43.280784,"lon":5.396622,"is_reserved":false,"is_disabled":false,"rental_uris":{"android":"levelo://app?vid=438e9356-9f45-4e0c-a6d7-cdab47bfa54b","ios":"levelo://app?vid=438e9356-9f45-4e0c-a6d7-cdab47bfa54b"},"vehicle_type_id":"4","last_reported":1702793322,"current_range_meters":20000,"station_id":"ce4bho12rcd13ifvqh2g","pricing_plan_id":"free"},{"bike_id":"bb88f287-0e0d-4d1f-aa50-a899706e4ac8","system_id":"levelo_inurba_marseille","lat":43.280784,"lon":5.396622,"is_reserved":false,"is_disabled":false,"rental_uris":{"android":"levelo://app?vid=bb88f287-0e0d-4d1f-aa50-a899706e4ac8","ios":"levelo://app?vid=bb88f287-0e0d-4d1f-aa50-a899706e4ac8"},"vehicle_type_id":"4","last_reported":1702793322,"current_range_meters":31600,"station_id":"ce4bho12rcd13ifvqh2g","pricing_plan_id":"free"},{"bike_id":"630f80f1-ba04-49ea-9076-6a3b75fb8289","system_id":"levelo_inurba_marseille","lat":43.33601,"lon":5.410148,"is_reserved":false,"is_disabled":false,"rental_uris":{"android":"levelo://app?vid=630f80f1-ba04-49ea-9076-6a3b75fb8289","ios":"levelo://app?vid=630f80f1-ba04-49ea-9076-6a3b75fb8289"},"vehicle_type_id":"4","last_reported":1702793322,"current_range_meters":6000,"station_id":"ce4bhqh2rcd13ifvqhmg","pricing_plan_id":"free"},{"bike_id":"153a6003-68b0-4148-93df-a4eed5e7ff0e","system_id":"levelo_inurba_marseille","lat":43.27375,"lon":5.36246,"is_reserved":false,"is_disabled":false,"rental_uris":{"android":"levelo://app?vid=153a6003-68b0-4148-93df-a4eed5e7ff0e","ios":"levelo://app?vid=153a6003-68b0-4148-93df-a4eed5e7ff0e"},"vehicle_type_id":"4","last_reported":1702793322,"current_range_meters":20400,"station_id":"ce4bhbh2rcd13ifvqeo0","pricing_plan_id":"free"},{"bike_id":"2bed3501-fcea-4a7a-8a65-1bedf3ad5bdc","system_id":"levelo_inurba_marseille","lat":43.336134,"lon":5.410341,"is_reserved":false,"is_disabled":false,"rental_uris":{"android":"levelo://app?vid=2bed3501-fcea-4a7a-8a65-1bedf3ad5bdc","ios":"levelo://app?vid=2bed3501-fcea-4a7a-8a65-1bedf3ad5bdc"},"vehicle_type_id":"4","last_reported":1702793322,"current_range_meters":31200,"station_id":"ce4bhqh2rcd13ifvqhmg","pricing_plan_id":"free"},{"bike_id":"e15426ac-43b1-46a3-bfa0-5e340802bdee","system_id":"levelo_inurba_marseille","lat":43.336134,"lon":5.410341,"is_reserved":false,"is_disabled":false,"rental_uris":{"android":"levelo://app?vid=e15426ac-43b1-46a3-bfa0-5e340802bdee","ios":"levelo://app?vid=e15426ac-43b1-46a3-bfa0-5e340802bdee"},"vehicle_type_id":"4","last_reported":1702793322,"current_range_meters":24000,"station_id":"ce4bhqh2rcd13ifvqhmg","pricing_plan_id":"free"},{"bike_id":"a83fbdc4-cb19-4da7-8427-ed9acafa3ba3","system_id":"levelo_inurba_marseille","lat":43.275625,"lon":5.384392,"is_reserved":false,"is_disabled":false,"rental_uris":{"android":"levelo://app?vid=a83fbdc4-cb19-4da7-8427-ed9acafa3ba3","ios":"levelo://app?vid=a83fbdc4-cb19-4da7-8427-ed9acafa3ba3"},"vehicle_type_id":"4","last_reported":1702793322,"current_range_meters":28400,"station_id":"ce4bhh92rcd13ifvqfi0","pricing_plan_id":"free"},{"bike_id":"ea3d35f6-b07e-4308-ae51-5376e9d8e7cc","system_id":"levelo_inurba_marseille","lat":43.27347,"lon":5.36455,"is_reserved":false,"is_disabled":false,"rental_uris":{"android":"levelo://app?vid=ea3d35f6-b07e-4308-ae51-5376e9d8e7cc","ios":"levelo://app?vid=ea3d35f6-b07e-4308-ae51-5376e9d8e7cc"},"vehicle_type_id":"4","last_reported":1702793322,"current_range_meters":13200,"station_id":"","pricing_plan_id":"free"},{"bike_id":"834b8db2-fa63-4fcf-b17e-58cd7130986d","system_id":"levelo_inurba_marseille","lat":43.279952,"lon":5.400085,"is_reserved":false,"is_disabled":false,"rental_uris":{"android":"levelo://app?vid=834b8db2-fa63-4fcf-b17e-58cd7130986d","ios":"levelo://app?vid=834b8db2-fa63-4fcf-b17e-58cd7130986d"},"vehicle_type_id":"4","last_reported":1702793322,"current_range_meters":26000,"station_id":"ce4bho92rcd13ifvqh4g","pricing_plan_id":"free"},{"bike_id":"b55ffe92-8a83-40f0-a3c4-d4168e894444","system_id":"levelo_inurba_marseille","lat":43.279952,"lon":5.400085,"is_reserved":false,"is_disabled":false,"rental_uris":{"android":"levelo://app?vid=b55ffe92-8a83-40f0-a3c4-d4168e894444","ios":"levelo://app?vid=b55ffe92-8a83-40f0-a3c4-d4168e894444"},"vehicle_type_id":"4","last_reported":1702793322,"current_range_meters":27600,"station_id":"ce4bho92rcd13ifvqh4g","pricing_plan_id":"free"},{"bike_id":"f97f3ae3-0746-4a73-8a97-072f8aa9cb10","system_id":"levelo_inurba_marseille","lat":43.310785,"lon":5.424305,"is_reserved":false,"is_disabled":false,"rental_uris":{"android":"levelo://app?vid=f97f3ae3-0746-4a73-8a97-072f8aa9cb10","ios":"levelo://app?vid=f97f3ae3-0746-4a73-8a97-072f8aa9cb10"},"vehicle_type_id":"4","last_reported":1702793322,"current_range_meters":28000,"station_id":"ce4bhp92rcd13ifvqhag","pricing_plan_id":"free"},{"bike_id":"16e97540-d6c9-41cc-9f14-a93eca663b8b","system_id":"levelo_inurba_marseille","lat":43.317121,"lon":5.423936,"is_reserved":false,"is_disabled":false,"rental_uris":{"android":"levelo://app?vid=16e97540-d6c9-41cc-9f14-a93eca663b8b","ios":"levelo://app?vid=16e97540-d6c9-41cc-9f14-a93eca663b8b"},"vehicle_type_id":"4","last_reported":1702793322,"current_range_meters":27200,"station_id":"ce4bhp92rcd13ifvqhbg","pricing_plan_id":"free"},{"bike_id":"251de0dc-299e-4a18-abf1-eec4ea9c23e2","system_id":"levelo_inurba_marseille","lat":43.310785,"lon":5.424305,"is_reserved":false,"is_disabled":false,"rental_uris":{"android":"levelo://app?vid=251de0dc-299e-4a18-abf1-eec4ea9c23e2","ios":"levelo://app?vid=251de0dc-299e-4a18-abf1-eec4ea9c23e2"},"vehicle_type_id":"4","last_reported":1702793322,"current_range_meters":26800,"station_id":"ce4bhp92rcd13ifvqhag","pricing_plan_id":"free"},{"bike_id":"87cc8c4f-8ecf-420c-bac2-ed05f14f8c04","system_id":"levelo_inurba_marseille","lat":43.27621,"lon":5.394857,"is_reserved":false,"is_disabled":false,"rental_uris":{"android":"levelo://app?vid=87cc8c4f-8ecf-420c-bac2-ed05f14f8c04","ios":"levelo://app?vid=87cc8c4f-8ecf-420c-bac2-ed05f14f8c04"},"vehicle_type_id":"4","last_reported":1702793322,"current_range_meters":12000,"station_id":"","pricing_plan_id":"free"},{"bike_id":"43844db9-0392-4da0-9a6e-40bbf1d336e6","system_id":"levelo_inurba_marseille","lat":43.340804,"lon":5.410219,"is_reserved":false,"is_disabled":false,"rental_uris":{"android":"levelo://app?vid=43844db9-0392-4da0-9a6e-40bbf1d336e6","ios":"levelo://app?vid=43844db9-0392-4da0-9a6e-40bbf1d336e6"},"vehicle_type_id":"4","last_reported":1702793322,"current_range_meters":29200,"station_id":"ce4bhqh2rcd13ifvqhlg","pricing_plan_id":"free"},{"bike_id":"cb8657c1-f91a-4cfd-a573-28533970bdba","system_id":"levelo_inurba_marseille","lat":43.340804,"lon":5.410219,"is_reserved":false,"is_disabled":false,"rental_uris":{"android":"levelo://app?vid=cb8657c1-f91a-4cfd-a573-28533970bdba","ios":"levelo://app?vid=cb8657c1-f91a-4cfd-a573-28533970bdba"},"vehicle_type_id":"4","last_reported":1702793322,"current_range_meters":28000,"station_id":"ce4bhqh2rcd13ifvqhlg","pricing_plan_id":"free"},{"bike_id":"3ca2c2d2-99b0-4aa6-a05d-e30f02e6a7fb","system_id":"levelo_inurba_marseille","lat":43.276092,"lon":5.395289,"is_reserved":false,"is_disabled":false,"rental_uris":{"android":"levelo://app?vid=3ca2c2d2-99b0-4aa6-a05d-e30f02e6a7fb","ios":"levelo://app?vid=3ca2c2d2-99b0-4aa6-a05d-e30f02e6a7fb"},"vehicle_type_id":"4","last_reported":1702793322,"current_range_meters":19600,"station_id":"","pricing_plan_id":"free"},{"bike_id":"5fc20c2a-7d72-446d-8197-a5e7a73870e0","system_id":"levelo_inurba_marseille","lat":43.274103,"lon":5.394016,"is_reserved":false,"is_disabled":false,"rental_uris":{"android":"levelo://app?vid=5fc20c2a-7d72-446d-8197-a5e7a73870e0","ios":"levelo://app?vid=5fc20c2a-7d72-446d-8197-a5e7a73870e0"},"vehicle_type_id":"4","last_reported":1702793322,"current_range_meters":14800,"station_id":"ce4bhdp2rcd13ifvqf20","pricing_plan_id":"free"},{"bike_id":"c98ae2e2-3360-4f66-943c-994a40f81f94","system_id":"levelo_inurba_marseille","lat":43.30414,"lon":5.42538,"is_reserved":false,"is_disabled":false,"rental_uris":{"android":"levelo://app?vid=c98ae2e2-3360-4f66-943c-994a40f81f94","ios":"levelo://app?vid=c98ae2e2-3360-4f66-943c-994a40f81f94"},"vehicle_type_id":"4","last_reported":1702793322,"current_range_meters":26400,"station_id":"ce4bhoh2rcd13ifvqh6g","pricing_plan_id":"free"},{"bike_id":"826939a9-21e4-4a40-8aaf-a253527a8bfa","system_id":"levelo_inurba_marseille","lat":43.304088,"lon":5.425388,"is_reserved":false,"is_disabled":false,"rental_uris":{"android":"levelo://app?vid=826939a9-21e4-4a40-8aaf-a253527a8bfa","ios":"levelo://app?vid=826939a9-21e4-4a40-8aaf-a253527a8bfa"},"vehicle_type_id":"4","last_reported":1702793322,"current_range_meters":4800,"station_id":"ce4bhoh2rcd13ifvqh6g","pricing_plan_id":"free"},{"bike_id":"f8908845-b824-4667-a1e2-8677ad8c65d4","system_id":"levelo_inurba_marseille","lat":43.272116,"lon":5.391763,"is_reserved":false,"is_disabled":false,"rental_uris":{"android":"levelo://app?vid=f8908845-b824-4667-a1e2-8677ad8c65d4","ios":"levelo://app?vid=f8908845-b824-4667-a1e2-8677ad8c65d4"},"vehicle_type_id":"4","last_reported":1702793322,"current_range_meters":22800,"station_id":"ce4bhhp2rcd13ifvqfm0","pricing_plan_id":"free"},{"bike_id":"7c5e5a9a-9f39-4a14-9573-d5b8ab599dd5","system_id":"levelo_inurba_marseille","lat":43.27188,"lon":5.39224,"is_reserved":false,"is_disabled":false,"rental_uris":{"android":"levelo://app?vid=7c5e5a9a-9f39-4a14-9573-d5b8ab599dd5","ios":"levelo://app?vid=7c5e5a9a-9f39-4a14-9573-d5b8ab599dd5"},"vehicle_type_id":"4","last_reported":1702793322,"current_range_meters":19200,"station_id":"ce4bhhp2rcd13ifvqfm0","pricing_plan_id":"free"},{"bike_id":"a3497833-0109-4dfa-9bbe-66896df39185","system_id":"levelo_inurba_marseille","lat":43.278128,"lon":5.407195,"is_reserved":false,"is_disabled":false,"rental_uris":{"android":"levelo://app?vid=a3497833-0109-4dfa-9bbe-66896df39185","ios":"levelo://app?vid=a3497833-0109-4dfa-9bbe-66896df39185"},"vehicle_type_id":"4","last_reported":1702793322,"current_range_meters":26800,"station_id":"ce4bhnh2rcd13ifvqgtg","pricing_plan_id":"free"},{"bike_id":"c17d2b77-58f2-438f-9fb0-b716b135d962","system_id":"levelo_inurba_marseille","lat":43.269467,"lon":5.386439,"is_reserved":false,"is_disabled":false,"rental_uris":{"android":"levelo://app?vid=c17d2b77-58f2-438f-9fb0-b716b135d962","ios":"levelo://app?vid=c17d2b77-58f2-438f-9fb0-b716b135d962"},"vehicle_type_id":"4","last_reported":1702793322,"current_range_meters":22400,"station_id":"ce4bhh92rcd13ifvqfh0","pricing_plan_id":"free"},{"bike_id":"d847797e-502e-4e6c-936d-6551352b247a","system_id":"levelo_inurba_marseille","lat":43.269467,"lon":5.386439,"is_reserved":false,"is_disabled":false,"rental_uris":{"android":"levelo://app?vid=d847797e-502e-4e6c-936d-6551352b247a","ios":"levelo://app?vid=d847797e-502e-4e6c-936d-6551352b247a"},"vehicle_type_id":"4","last_reported":1702793322,"current_range_meters":24800,"station_id":"ce4bhh92rcd13ifvqfh0","pricing_plan_id":"free"},{"bike_id":"c0d4131f-8d8d-4750-bf09-aa224f883954","system_id":"levelo_inurba_marseille","lat":43.27956,"lon":5.4104,"is_reserved":false,"is_disabled":false,"rental_uris":{"android":"levelo://app?vid=c0d4131f-8d8d-4750-bf09-aa224f883954","ios":"levelo://app?vid=c0d4131f-8d8d-4750-bf09-aa224f883954"},"vehicle_type_id":"4","last_reported":1702793322,"current_range_meters":0,"station_id":"ce4bhnp2rcd13ifvqh0g","pricing_plan_id":"free"},{"bike_id":"ad1e221e-bd06-4b79-83cd-4d9880d1e2a5","system_id":"levelo_inurba_marseille","lat":43.27946,"lon":5.41053,"is_reserved":false,"is_disabled":false,"rental_uris":{"android":"levelo://app?vid=ad1e221e-bd06-4b79-83cd-4d9880d1e2a5","ios":"levelo://app?vid=ad1e221e-bd06-4b79-83cd-4d9880d1e2a5"},"vehicle_type_id":"4","last_reported":1702793322,"current_range_meters":20400,"station_id":"ce4bhnp2rcd13ifvqh0g","pricing_plan_id":"free"},{"bike_id":"db774753-4382-453e-a138-c32d538f9839","system_id":"levelo_inurba_marseille","lat":43.358672,"lon":5.356739,"is_reserved":false,"is_disabled":false,"rental_uris":{"android":"levelo://app?vid=db774753-4382-453e-a138-c32d538f9839","ios":"levelo://app?vid=db774753-4382-453e-a138-c32d538f9839"},"vehicle_type_id":"4","last_reported":1702793322,"current_range_meters":11600,"station_id":"","pricing_plan_id":"free"},{"bike_id":"22a06de4-5066-4c36-b94f-1589b81b3263","system_id":"levelo_inurba_marseille","lat":43.26681,"lon":5.382694,"is_reserved":false,"is_disabled":false,"rental_uris":{"android":"levelo://app?vid=22a06de4-5066-4c36-b94f-1589b81b3263","ios":"levelo://app?vid=22a06de4-5066-4c36-b94f-1589b81b3263"},"vehicle_type_id":"4","last_reported":1702793322,"current_range_meters":28800,"station_id":"ce4bhg92rcd13ifvqf90","pricing_plan_id":"free"},{"bike_id":"795c3f04-d671-45bc-bddc-7fd1d0fedee6","system_id":"levelo_inurba_marseille","lat":43.26681,"lon":5.382694,"is_reserved":false,"is_disabled":false,"rental_uris":{"android":"levelo://app?vid=795c3f04-d671-45bc-bddc-7fd1d0fedee6","ios":"levelo://app?vid=795c3f04-d671-45bc-bddc-7fd1d0fedee6"},"vehicle_type_id":"4","last_reported":1702793322,"current_range_meters":27200,"station_id":"ce4bhg92rcd13ifvqf90","pricing_plan_id":"free"},{"bike_id":"7a9a00ed-0d78-4424-b5b4-8c9b0512e2a1","system_id":"levelo_inurba_marseille","lat":43.26554,"lon":5.37288,"is_reserved":false,"is_disabled":false,"rental_uris":{"android":"levelo://app?vid=7a9a00ed-0d78-4424-b5b4-8c9b0512e2a1","ios":"levelo://app?vid=7a9a00ed-0d78-4424-b5b4-8c9b0512e2a1"},"vehicle_type_id":"4","last_reported":1702793322,"current_range_meters":29200,"station_id":"ce4bhg12rcd13ifvqf70","pricing_plan_id":"free"},{"bike_id":"4ea10955-89eb-465e-ba82-d9d699c66533","system_id":"levelo_inurba_marseille","lat":43.265462,"lon":5.372871,"is_reserved":false,"is_disabled":false,"rental_uris":{"android":"levelo://app?vid=4ea10955-89eb-465e-ba82-d9d699c66533","ios":"levelo://app?vid=4ea10955-89eb-465e-ba82-d9d699c66533"},"vehicle_type_id":"4","last_reported":1702793322,"current_range_meters":20400,"station_id":"ce4bhg12rcd13ifvqf70","pricing_plan_id":"free"},{"bike_id":"3ec397f0-b8da-4e84-be43-f4abb20ebecf","system_id":"levelo_inurba_marseille","lat":43.276625,"lon":5.411735,"is_reserved":false,"is_disabled":false,"rental_uris":{"android":"levelo://app?vid=3ec397f0-b8da-4e84-be43-f4abb20ebecf","ios":"levelo://app?vid=3ec397f0-b8da-4e84-be43-f4abb20ebecf"},"vehicle_type_id":"4","last_reported":1702793322,"current_range_meters":28800,"station_id":"","pricing_plan_id":"free"},{"bike_id":"8a74afc9-c8ee-428c-95f4-83fc1e519239","system_id":"levelo_inurba_marseille","lat":43.279994,"lon":5.416626,"is_reserved":false,"is_disabled":false,"rental_uris":{"android":"levelo://app?vid=8a74afc9-c8ee-428c-95f4-83fc1e519239","ios":"levelo://app?vid=8a74afc9-c8ee-428c-95f4-83fc1e519239"},"vehicle_type_id":"4","last_reported":1702793322,"current_range_meters":0,"station_id":"ce4bho12rcd13ifvqh1g","pricing_plan_id":"free"},{"bike_id":"a6c98b33-2386-4031-a5f1-05e5dc9f9383","system_id":"levelo_inurba_marseille","lat":43.27996,"lon":5.416624,"is_reserved":false,"is_disabled":false,"rental_uris":{"android":"levelo://app?vid=a6c98b33-2386-4031-a5f1-05e5dc9f9383","ios":"levelo://app?vid=a6c98b33-2386-4031-a5f1-05e5dc9f9383"},"vehicle_type_id":"4","last_reported":1702793322,"current_range_meters":28000,"station_id":"ce4bho12rcd13ifvqh1g","pricing_plan_id":"free"},{"bike_id":"f0777057-4272-42ef-93ac-cc8482f179b1","system_id":"levelo_inurba_marseille","lat":43.279979,"lon":5.41664,"is_reserved":false,"is_disabled":false,"rental_uris":{"android":"levelo://app?vid=f0777057-4272-42ef-93ac-cc8482f179b1","ios":"levelo://app?vid=f0777057-4272-42ef-93ac-cc8482f179b1"},"vehicle_type_id":"4","last_reported":1702793322,"current_range_meters":24000,"station_id":"ce4bho12rcd13ifvqh1g","pricing_plan_id":"free"},{"bike_id":"959c24c3-760c-427a-b86a-89ed3d51249b","system_id":"levelo_inurba_marseille","lat":43.265714,"lon":5.372891,"is_reserved":false,"is_disabled":false,"rental_uris":{"android":"levelo://app?vid=959c24c3-760c-427a-b86a-89ed3d51249b","ios":"levelo://app?vid=959c24c3-760c-427a-b86a-89ed3d51249b"},"vehicle_type_id":"4","last_reported":1702793322,"current_range_meters":26000,"station_id":"ce4bhg12rcd13ifvqf70","pricing_plan_id":"free"},{"bike_id":"a9d6c772-6107-4b1c-aca7-c146eb2ab9be","system_id":"levelo_inurba_marseille","lat":43.267966,"lon":5.393976,"is_reserved":false,"is_disabled":false,"rental_uris":{"android":"levelo://app?vid=a9d6c772-6107-4b1c-aca7-c146eb2ab9be","ios":"levelo://app?vid=a9d6c772-6107-4b1c-aca7-c146eb2ab9be"},"vehicle_type_id":"4","last_reported":1702793322,"current_range_meters":28000,"station_id":"ce4bhh12rcd13ifvqfg0","pricing_plan_id":"free"},{"bike_id":"57a2219e-c728-40bd-8907-4e3d7b3e8318","system_id":"levelo_inurba_marseille","lat":43.265743,"lon":5.390057,"is_reserved":false,"is_disabled":false,"rental_uris":{"android":"levelo://app?vid=57a2219e-c728-40bd-8907-4e3d7b3e8318","ios":"levelo://app?vid=57a2219e-c728-40bd-8907-4e3d7b3e8318"},"vehicle_type_id":"4","last_reported":1702793322,"current_range_meters":27200,"station_id":"ce4bhe12rcd13ifvqf30","pricing_plan_id":"free"},{"bike_id":"2eb7ee5a-6ade-4720-807c-b56bb99a2743","system_id":"levelo_inurba_marseille","lat":43.265569,"lon":5.390047,"is_reserved":false,"is_disabled":false,"rental_uris":{"android":"levelo://app?vid=2eb7ee5a-6ade-4720-807c-b56bb99a2743","ios":"levelo://app?vid=2eb7ee5a-6ade-4720-807c-b56bb99a2743"},"vehicle_type_id":"4","last_reported":1702793322,"current_range_meters":31200,"station_id":"ce4bhe12rcd13ifvqf30","pricing_plan_id":"free"},{"bike_id":"fbe429f5-4501-4e84-9577-fe09170ebcff","system_id":"levelo_inurba_marseille","lat":43.265569,"lon":5.390047,"is_reserved":false,"is_disabled":false,"rental_uris":{"android":"levelo://app?vid=fbe429f5-4501-4e84-9577-fe09170ebcff","ios":"levelo://app?vid=fbe429f5-4501-4e84-9577-fe09170ebcff"},"vehicle_type_id":"4","last_reported":1702793322,"current_range_meters":30000,"station_id":"ce4bhe12rcd13ifvqf30","pricing_plan_id":"free"},{"bike_id":"e90d09a2-a2bf-4b0e-95c0-4f6d9442c1ac","system_id":"levelo_inurba_marseille","lat":43.26556,"lon":5.39009,"is_reserved":false,"is_disabled":false,"rental_uris":{"android":"levelo://app?vid=e90d09a2-a2bf-4b0e-95c0-4f6d9442c1ac","ios":"levelo://app?vid=e90d09a2-a2bf-4b0e-95c0-4f6d9442c1ac"},"vehicle_type_id":"4","last_reported":1702793322,"current_range_meters":22800,"station_id":"ce4bhe12rcd13ifvqf30","pricing_plan_id":"free"},{"bike_id":"6d2a8826-c88a-4068-aa66-f80b00c6f453","system_id":"levelo_inurba_marseille","lat":43.269421,"lon":5.40249,"is_reserved":false,"is_disabled":false,"rental_uris":{"android":"levelo://app?vid=6d2a8826-c88a-4068-aa66-f80b00c6f453","ios":"levelo://app?vid=6d2a8826-c88a-4068-aa66-f80b00c6f453"},"vehicle_type_id":"4","last_reported":1702793322,"current_range_meters":20000,"station_id":"cjm6bp8fraef2m0cb0m0","pricing_plan_id":"free"},{"bike_id":"c8433c5d-bdf5-44e8-a4d9-04bc080fd051","system_id":"levelo_inurba_marseille","lat":43.261879,"lon":5.374438,"is_reserved":false,"is_disabled":false,"rental_uris":{"android":"levelo://app?vid=c8433c5d-bdf5-44e8-a4d9-04bc080fd051","ios":"levelo://app?vid=c8433c5d-bdf5-44e8-a4d9-04bc080fd051"},"vehicle_type_id":"4","last_reported":1702793322,"current_range_meters":28000,"station_id":"ce4bhgp2rcd13ifvqfc0","pricing_plan_id":"free"},{"bike_id":"65e77bcc-99d8-43c5-ae10-151bafc43501","system_id":"levelo_inurba_marseille","lat":43.26187,"lon":5.37444,"is_reserved":false,"is_disabled":false,"rental_uris":{"android":"levelo://app?vid=65e77bcc-99d8-43c5-ae10-151bafc43501","ios":"levelo://app?vid=65e77bcc-99d8-43c5-ae10-151bafc43501"},"vehicle_type_id":"4","last_reported":1702793322,"current_range_meters":31200,"station_id":"ce4bhgp2rcd13ifvqfc0","pricing_plan_id":"free"},{"bike_id":"48c1e2a6-058d-4a3d-a13d-0f741c6fd1fe","system_id":"levelo_inurba_marseille","lat":43.261782,"lon":5.374515,"is_reserved":false,"is_disabled":false,"rental_uris":{"android":"levelo://app?vid=48c1e2a6-058d-4a3d-a13d-0f741c6fd1fe","ios":"levelo://app?vid=48c1e2a6-058d-4a3d-a13d-0f741c6fd1fe"},"vehicle_type_id":"4","last_reported":1702793322,"current_range_meters":31200,"station_id":"ce4bhgp2rcd13ifvqfc0","pricing_plan_id":"free"},{"bike_id":"8f1b56dd-ca7e-4fb4-ab8e-d35e6d8bfafa","system_id":"levelo_inurba_marseille","lat":43.262012,"lon":5.379307,"is_reserved":false,"is_disabled":false,"rental_uris":{"android":"levelo://app?vid=8f1b56dd-ca7e-4fb4-ab8e-d35e6d8bfafa","ios":"levelo://app?vid=8f1b56dd-ca7e-4fb4-ab8e-d35e6d8bfafa"},"vehicle_type_id":"4","last_reported":1702793322,"current_range_meters":26800,"station_id":"ce4bhjp2rcd13ifvqg90","pricing_plan_id":"free"},{"bike_id":"bc4a64cd-ca4f-4b99-88e7-cef6ecb8fc58","system_id":"levelo_inurba_marseille","lat":43.267959,"lon":5.402685,"is_reserved":false,"is_disabled":false,"rental_uris":{"android":"levelo://app?vid=bc4a64cd-ca4f-4b99-88e7-cef6ecb8fc58","ios":"levelo://app?vid=bc4a64cd-ca4f-4b99-88e7-cef6ecb8fc58"},"vehicle_type_id":"4","last_reported":1702793322,"current_range_meters":30800,"station_id":"ce501612rcd8frsf0b60","pricing_plan_id":"free"},{"bike_id":"4c30ab0b-cc54-4ba6-ae72-a8fb812c2d2c","system_id":"levelo_inurba_marseille","lat":43.26495,"lon":5.39546,"is_reserved":false,"is_disabled":false,"rental_uris":{"android":"levelo://app?vid=4c30ab0b-cc54-4ba6-ae72-a8fb812c2d2c","ios":"levelo://app?vid=4c30ab0b-cc54-4ba6-ae72-a8fb812c2d2c"},"vehicle_type_id":"4","last_reported":1702793322,"current_range_meters":25200,"station_id":"","pricing_plan_id":"free"},{"bike_id":"8edd52e8-28cf-4b63-b3f1-27d9aaf14520","system_id":"levelo_inurba_marseille","lat":43.264897,"lon":5.395472,"is_reserved":false,"is_disabled":false,"rental_uris":{"android":"levelo://app?vid=8edd52e8-28cf-4b63-b3f1-27d9aaf14520","ios":"levelo://app?vid=8edd52e8-28cf-4b63-b3f1-27d9aaf14520"},"vehicle_type_id":"4","last_reported":1702793322,"current_range_meters":0,"station_id":"","pricing_plan_id":"free"},{"bike_id":"9a3ecfe7-427f-467f-aab2-6caa501d8c6f","system_id":"levelo_inurba_marseille","lat":43.264872,"lon":5.39546,"is_reserved":false,"is_disabled":false,"rental_uris":{"android":"levelo://app?vid=9a3ecfe7-427f-467f-aab2-6caa501d8c6f","ios":"levelo://app?vid=9a3ecfe7-427f-467f-aab2-6caa501d8c6f"},"vehicle_type_id":"4","last_reported":1702793322,"current_range_meters":0,"station_id":"","pricing_plan_id":"free"},{"bike_id":"84d23a6b-18c6-4e12-abea-edef63349583","system_id":"levelo_inurba_marseille","lat":43.298768,"lon":5.43643,"is_reserved":false,"is_disabled":false,"rental_uris":{"android":"levelo://app?vid=84d23a6b-18c6-4e12-abea-edef63349583","ios":"levelo://app?vid=84d23a6b-18c6-4e12-abea-edef63349583"},"vehicle_type_id":"4","last_reported":1702793322,"current_range_meters":22800,"station_id":"ce4bhpp2rcd13ifvqhfg","pricing_plan_id":"free"},{"bike_id":"d084d587-4b27-4e47-8734-14f6d302ab83","system_id":"levelo_inurba_marseille","lat":43.298768,"lon":5.43643,"is_reserved":false,"is_disabled":false,"rental_uris":{"android":"levelo://app?vid=d084d587-4b27-4e47-8734-14f6d302ab83","ios":"levelo://app?vid=d084d587-4b27-4e47-8734-14f6d302ab83"},"vehicle_type_id":"4","last_reported":1702793322,"current_range_meters":31200,"station_id":"ce4bhpp2rcd13ifvqhfg","pricing_plan_id":"free"},{"bike_id":"c15ae3b7-8e97-4a88-a9b4-a63f88042490","system_id":"levelo_inurba_marseille","lat":43.281548,"lon":5.42643,"is_reserved":false,"is_disabled":false,"rental_uris":{"android":"levelo://app?vid=c15ae3b7-8e97-4a88-a9b4-a63f88042490","ios":"levelo://app?vid=c15ae3b7-8e97-4a88-a9b4-a63f88042490"},"vehicle_type_id":"4","last_reported":1702793322,"current_range_meters":2800,"station_id":"ce4bhnh2rcd13ifvqgug","pricing_plan_id":"free"},{"bike_id":"71252ba5-5619-4f36-b490-0c5903f0700e","system_id":"levelo_inurba_marseille","lat":43.281548,"lon":5.42643,"is_reserved":false,"is_disabled":false,"rental_uris":{"android":"levelo://app?vid=71252ba5-5619-4f36-b490-0c5903f0700e","ios":"levelo://app?vid=71252ba5-5619-4f36-b490-0c5903f0700e"},"vehicle_type_id":"4","last_reported":1702793322,"current_range_meters":4400,"station_id":"ce4bhnh2rcd13ifvqgug","pricing_plan_id":"free"},{"bike_id":"0fbb9982-628a-458e-8599-3a52f552df95","system_id":"levelo_inurba_marseille","lat":43.281491,"lon":5.426394,"is_reserved":false,"is_disabled":false,"rental_uris":{"android":"levelo://app?vid=0fbb9982-628a-458e-8599-3a52f552df95","ios":"levelo://app?vid=0fbb9982-628a-458e-8599-3a52f552df95"},"vehicle_type_id":"4","last_reported":1702793322,"current_range_meters":24400,"station_id":"ce4bhnh2rcd13ifvqgug","pricing_plan_id":"free"},{"bike_id":"4dd764f6-774c-4512-8b0e-1beb34d8f863","system_id":"levelo_inurba_marseille","lat":43.281548,"lon":5.42643,"is_reserved":false,"is_disabled":false,"rental_uris":{"android":"levelo://app?vid=4dd764f6-774c-4512-8b0e-1beb34d8f863","ios":"levelo://app?vid=4dd764f6-774c-4512-8b0e-1beb34d8f863"},"vehicle_type_id":"4","last_reported":1702793322,"current_range_meters":31200,"station_id":"ce4bhnh2rcd13ifvqgug","pricing_plan_id":"free"},{"bike_id":"d179c498-6590-4265-ba74-db4d632b80df","system_id":"levelo_inurba_marseille","lat":43.281548,"lon":5.42643,"is_reserved":false,"is_disabled":false,"rental_uris":{"android":"levelo://app?vid=d179c498-6590-4265-ba74-db4d632b80df","ios":"levelo://app?vid=d179c498-6590-4265-ba74-db4d632b80df"},"vehicle_type_id":"4","last_reported":1702793322,"current_range_meters":30000,"station_id":"ce4bhnh2rcd13ifvqgug","pricing_plan_id":"free"},{"bike_id":"e67adb0b-4217-4b03-8657-2f9486792d7e","system_id":"levelo_inurba_marseille","lat":43.2607,"lon":5.393983,"is_reserved":false,"is_disabled":false,"rental_uris":{"android":"levelo://app?vid=e67adb0b-4217-4b03-8657-2f9486792d7e","ios":"levelo://app?vid=e67adb0b-4217-4b03-8657-2f9486792d7e"},"vehicle_type_id":"4","last_reported":1702793322,"current_range_meters":30400,"station_id":"ce4bhh92rcd13ifvqfj0","pricing_plan_id":"free"},{"bike_id":"db9d9aee-b6eb-44e3-9707-f193d311c7b0","system_id":"levelo_inurba_marseille","lat":43.260629,"lon":5.393913,"is_reserved":false,"is_disabled":false,"rental_uris":{"android":"levelo://app?vid=db9d9aee-b6eb-44e3-9707-f193d311c7b0","ios":"levelo://app?vid=db9d9aee-b6eb-44e3-9707-f193d311c7b0"},"vehicle_type_id":"4","last_reported":1702793322,"current_range_meters":29600,"station_id":"ce4bhh92rcd13ifvqfj0","pricing_plan_id":"free"},{"bike_id":"eb72cf00-5b74-4aac-948c-e470339f3e4d","system_id":"levelo_inurba_marseille","lat":43.26061,"lon":5.39393,"is_reserved":false,"is_disabled":false,"rental_uris":{"android":"levelo://app?vid=eb72cf00-5b74-4aac-948c-e470339f3e4d","ios":"levelo://app?vid=eb72cf00-5b74-4aac-948c-e470339f3e4d"},"vehicle_type_id":"4","last_reported":1702793322,"current_range_meters":20800,"station_id":"ce4bhh92rcd13ifvqfj0","pricing_plan_id":"free"},{"bike_id":"df0c2b68-5f22-4e6f-a906-3333db78c829","system_id":"levelo_inurba_marseille","lat":43.2607,"lon":5.393983,"is_reserved":false,"is_disabled":false,"rental_uris":{"android":"levelo://app?vid=df0c2b68-5f22-4e6f-a906-3333db78c829","ios":"levelo://app?vid=df0c2b68-5f22-4e6f-a906-3333db78c829"},"vehicle_type_id":"4","last_reported":1702793322,"current_range_meters":16000,"station_id":"ce4bhh92rcd13ifvqfj0","pricing_plan_id":"free"},{"bike_id":"26edb7e5-1cc5-434c-a417-271b88181037","system_id":"levelo_inurba_marseille","lat":43.275028,"lon":5.424534,"is_reserved":false,"is_disabled":false,"rental_uris":{"android":"levelo://app?vid=26edb7e5-1cc5-434c-a417-271b88181037","ios":"levelo://app?vid=26edb7e5-1cc5-434c-a417-271b88181037"},"vehicle_type_id":"4","last_reported":1702793322,"current_range_meters":13200,"station_id":"ce4bhn92rcd13ifvqgrg","pricing_plan_id":"free"},{"bike_id":"86e8efcc-9a9d-4657-8fc4-7b76fe514acc","system_id":"levelo_inurba_marseille","lat":43.275028,"lon":5.424534,"is_reserved":false,"is_disabled":false,"rental_uris":{"android":"levelo://app?vid=86e8efcc-9a9d-4657-8fc4-7b76fe514acc","ios":"levelo://app?vid=86e8efcc-9a9d-4657-8fc4-7b76fe514acc"},"vehicle_type_id":"4","last_reported":1702793322,"current_range_meters":11200,"station_id":"ce4bhn92rcd13ifvqgrg","pricing_plan_id":"free"},{"bike_id":"b6836b5c-bf87-43d1-afcb-477e491235ab","system_id":"levelo_inurba_marseille","lat":43.2609,"lon":5.39761,"is_reserved":false,"is_disabled":false,"rental_uris":{"android":"levelo://app?vid=b6836b5c-bf87-43d1-afcb-477e491235ab","ios":"levelo://app?vid=b6836b5c-bf87-43d1-afcb-477e491235ab"},"vehicle_type_id":"4","last_reported":1702793322,"current_range_meters":2400,"station_id":"","pricing_plan_id":"free"},{"bike_id":"41bc15f8-3b1d-4ccf-944e-034bbcc08f91","system_id":"levelo_inurba_marseille","lat":43.275028,"lon":5.424534,"is_reserved":false,"is_disabled":false,"rental_uris":{"android":"levelo://app?vid=41bc15f8-3b1d-4ccf-944e-034bbcc08f91","ios":"levelo://app?vid=41bc15f8-3b1d-4ccf-944e-034bbcc08f91"},"vehicle_type_id":"4","last_reported":1702793322,"current_range_meters":29200,"station_id":"ce4bhn92rcd13ifvqgrg","pricing_plan_id":"free"},{"bike_id":"cb4aa066-0acd-450f-a854-69855bd4d7ee","system_id":"levelo_inurba_marseille","lat":43.258289,"lon":5.394301,"is_reserved":false,"is_disabled":false,"rental_uris":{"android":"levelo://app?vid=cb4aa066-0acd-450f-a854-69855bd4d7ee","ios":"levelo://app?vid=cb4aa066-0acd-450f-a854-69855bd4d7ee"},"vehicle_type_id":"4","last_reported":1702793322,"current_range_meters":26000,"station_id":"ce4bhip2rcd13ifvqft0","pricing_plan_id":"free"},{"bike_id":"77ac79d5-c24d-4edd-95f5-261a49d22ea1","system_id":"levelo_inurba_marseille","lat":43.25578,"lon":5.38238,"is_reserved":false,"is_disabled":false,"rental_uris":{"android":"levelo://app?vid=77ac79d5-c24d-4edd-95f5-261a49d22ea1","ios":"levelo://app?vid=77ac79d5-c24d-4edd-95f5-261a49d22ea1"},"vehicle_type_id":"4","last_reported":1702793322,"current_range_meters":13600,"station_id":"ce4bhih2rcd13ifvqfs0","pricing_plan_id":"free"},{"bike_id":"4a14eb90-0bcc-46d5-a7ef-68f7a4f98435","system_id":"levelo_inurba_marseille","lat":43.25576,"lon":5.38235,"is_reserved":false,"is_disabled":false,"rental_uris":{"android":"levelo://app?vid=4a14eb90-0bcc-46d5-a7ef-68f7a4f98435","ios":"levelo://app?vid=4a14eb90-0bcc-46d5-a7ef-68f7a4f98435"},"vehicle_type_id":"4","last_reported":1702793322,"current_range_meters":30000,"station_id":"ce4bhih2rcd13ifvqfs0","pricing_plan_id":"free"},{"bike_id":"04827576-03c1-4517-8c81-dbcc995a56ae","system_id":"levelo_inurba_marseille","lat":43.2549,"lon":5.37641,"is_reserved":false,"is_disabled":false,"rental_uris":{"android":"levelo://app?vid=04827576-03c1-4517-8c81-dbcc995a56ae","ios":"levelo://app?vid=04827576-03c1-4517-8c81-dbcc995a56ae"},"vehicle_type_id":"4","last_reported":1702793322,"current_range_meters":18400,"station_id":"ce4bhh12rcd13ifvqff0","pricing_plan_id":"free"},{"bike_id":"306e2c26-1ee8-4490-a80b-640eb04b74f0","system_id":"levelo_inurba_marseille","lat":43.270721,"lon":5.422764,"is_reserved":false,"is_disabled":false,"rental_uris":{"android":"levelo://app?vid=306e2c26-1ee8-4490-a80b-640eb04b74f0","ios":"levelo://app?vid=306e2c26-1ee8-4490-a80b-640eb04b74f0"},"vehicle_type_id":"4","last_reported":1702793322,"current_range_meters":27200,"station_id":"ce4bhk92rcd13ifvqgb0","pricing_plan_id":"free"},{"bike_id":"30f3beb6-53d6-45ed-bb8a-acfade589457","system_id":"levelo_inurba_marseille","lat":43.258658,"lon":5.398935,"is_reserved":false,"is_disabled":false,"rental_uris":{"android":"levelo://app?vid=30f3beb6-53d6-45ed-bb8a-acfade589457","ios":"levelo://app?vid=30f3beb6-53d6-45ed-bb8a-acfade589457"},"vehicle_type_id":"4","last_reported":1702793322,"current_range_meters":26800,"station_id":"ce4bhl92rcd13ifvqghg","pricing_plan_id":"free"},{"bike_id":"c7226a43-d231-428e-8d45-d36ac12c06d7","system_id":"levelo_inurba_marseille","lat":43.25859,"lon":5.39896,"is_reserved":false,"is_disabled":false,"rental_uris":{"android":"levelo://app?vid=c7226a43-d231-428e-8d45-d36ac12c06d7","ios":"levelo://app?vid=c7226a43-d231-428e-8d45-d36ac12c06d7"},"vehicle_type_id":"4","last_reported":1702793322,"current_range_meters":10800,"station_id":"ce4bhl92rcd13ifvqghg","pricing_plan_id":"free"},{"bike_id":"a7c679f4-aee4-4156-a9a5-69e3da159837","system_id":"levelo_inurba_marseille","lat":43.25861,"lon":5.39908,"is_reserved":false,"is_disabled":false,"rental_uris":{"android":"levelo://app?vid=a7c679f4-aee4-4156-a9a5-69e3da159837","ios":"levelo://app?vid=a7c679f4-aee4-4156-a9a5-69e3da159837"},"vehicle_type_id":"4","last_reported":1702793322,"current_range_meters":24800,"station_id":"ce4bhl92rcd13ifvqghg","pricing_plan_id":"free"},{"bike_id":"486de631-4303-438d-8a28-45c67f8e2772","system_id":"levelo_inurba_marseille","lat":43.25934,"lon":5.40906,"is_reserved":false,"is_disabled":false,"rental_uris":{"android":"levelo://app?vid=486de631-4303-438d-8a28-45c67f8e2772","ios":"levelo://app?vid=486de631-4303-438d-8a28-45c67f8e2772"},"vehicle_type_id":"4","last_reported":1702793322,"current_range_meters":19200,"station_id":"ce4bhm92rcd13ifvqglg","pricing_plan_id":"free"},{"bike_id":"790f0c85-435e-464f-af9f-df0afa087a9d","system_id":"levelo_inurba_marseille","lat":43.25929,"lon":5.40911,"is_reserved":false,"is_disabled":false,"rental_uris":{"android":"levelo://app?vid=790f0c85-435e-464f-af9f-df0afa087a9d","ios":"levelo://app?vid=790f0c85-435e-464f-af9f-df0afa087a9d"},"vehicle_type_id":"4","last_reported":1702793322,"current_range_meters":31600,"station_id":"ce4bhm92rcd13ifvqglg","pricing_plan_id":"free"},{"bike_id":"ec80f2ee-d212-4255-95b5-c8ee4797f8bd","system_id":"levelo_inurba_marseille","lat":43.257253,"lon":5.411097,"is_reserved":false,"is_disabled":false,"rental_uris":{"android":"levelo://app?vid=ec80f2ee-d212-4255-95b5-c8ee4797f8bd","ios":"levelo://app?vid=ec80f2ee-d212-4255-95b5-c8ee4797f8bd"},"vehicle_type_id":"4","last_reported":1702793322,"current_range_meters":0,"station_id":"ce4bhkp2rcd13ifvqgd0","pricing_plan_id":"free"},{"bike_id":"5af8f612-79c1-484d-b89d-d8d1f1fecd60","system_id":"levelo_inurba_marseille","lat":43.257079,"lon":5.411051,"is_reserved":false,"is_disabled":false,"rental_uris":{"android":"levelo://app?vid=5af8f612-79c1-484d-b89d-d8d1f1fecd60","ios":"levelo://app?vid=5af8f612-79c1-484d-b89d-d8d1f1fecd60"},"vehicle_type_id":"4","last_reported":1702793322,"current_range_meters":30400,"station_id":"ce4bhkp2rcd13ifvqgd0","pricing_plan_id":"free"},{"bike_id":"849e9222-5924-477f-b7cd-d24357138566","system_id":"levelo_inurba_marseille","lat":43.2479,"lon":5.374457,"is_reserved":false,"is_disabled":false,"rental_uris":{"android":"levelo://app?vid=849e9222-5924-477f-b7cd-d24357138566","ios":"levelo://app?vid=849e9222-5924-477f-b7cd-d24357138566"},"vehicle_type_id":"4","last_reported":1702793322,"current_range_meters":26800,"station_id":"ce4bhgh2rcd13ifvqfb0","pricing_plan_id":"free"},{"bike_id":"c1564c0d-27af-4334-8ea6-b96bafc9ec9f","system_id":"levelo_inurba_marseille","lat":43.2479,"lon":5.374457,"is_reserved":false,"is_disabled":false,"rental_uris":{"android":"levelo://app?vid=c1564c0d-27af-4334-8ea6-b96bafc9ec9f","ios":"levelo://app?vid=c1564c0d-27af-4334-8ea6-b96bafc9ec9f"},"vehicle_type_id":"4","last_reported":1702793322,"current_range_meters":30400,"station_id":"ce4bhgh2rcd13ifvqfb0","pricing_plan_id":"free"},{"bike_id":"94831cca-2d72-4df5-a4c3-ec10f794d54a","system_id":"levelo_inurba_marseille","lat":43.25102,"lon":5.403214,"is_reserved":false,"is_disabled":false,"rental_uris":{"android":"levelo://app?vid=94831cca-2d72-4df5-a4c3-ec10f794d54a","ios":"levelo://app?vid=94831cca-2d72-4df5-a4c3-ec10f794d54a"},"vehicle_type_id":"4","last_reported":1702793322,"current_range_meters":30000,"station_id":"ce4bhlh2rcd13ifvqgig","pricing_plan_id":"free"},{"bike_id":"e7547195-e06e-4319-abcf-874701ed8f86","system_id":"levelo_inurba_marseille","lat":43.25102,"lon":5.403214,"is_reserved":false,"is_disabled":false,"rental_uris":{"android":"levelo://app?vid=e7547195-e06e-4319-abcf-874701ed8f86","ios":"levelo://app?vid=e7547195-e06e-4319-abcf-874701ed8f86"},"vehicle_type_id":"4","last_reported":1702793322,"current_range_meters":30000,"station_id":"ce4bhlh2rcd13ifvqgig","pricing_plan_id":"free"},{"bike_id":"56a2cf23-7a2d-4767-a751-99276430c860","system_id":"levelo_inurba_marseille","lat":43.25102,"lon":5.403214,"is_reserved":false,"is_disabled":false,"rental_uris":{"android":"levelo://app?vid=56a2cf23-7a2d-4767-a751-99276430c860","ios":"levelo://app?vid=56a2cf23-7a2d-4767-a751-99276430c860"},"vehicle_type_id":"4","last_reported":1702793322,"current_range_meters":31200,"station_id":"ce4bhlh2rcd13ifvqgig","pricing_plan_id":"free"},{"bike_id":"cda151f2-9ad2-46c9-9115-b73ba9a06619","system_id":"levelo_inurba_marseille","lat":43.252126,"lon":5.406351,"is_reserved":false,"is_disabled":false,"rental_uris":{"android":"levelo://app?vid=cda151f2-9ad2-46c9-9115-b73ba9a06619","ios":"levelo://app?vid=cda151f2-9ad2-46c9-9115-b73ba9a06619"},"vehicle_type_id":"4","last_reported":1702793322,"current_range_meters":1200,"station_id":"","pricing_plan_id":"free"},{"bike_id":"54bec3e4-6154-49d6-8ee6-d6d6fa5e7a18","system_id":"levelo_inurba_marseille","lat":43.25105,"lon":5.40327,"is_reserved":false,"is_disabled":false,"rental_uris":{"android":"levelo://app?vid=54bec3e4-6154-49d6-8ee6-d6d6fa5e7a18","ios":"levelo://app?vid=54bec3e4-6154-49d6-8ee6-d6d6fa5e7a18"},"vehicle_type_id":"4","last_reported":1702793322,"current_range_meters":24400,"station_id":"ce4bhlh2rcd13ifvqgig","pricing_plan_id":"free"},{"bike_id":"f65e4610-a3d1-4c11-bb68-edc29960d40b","system_id":"levelo_inurba_marseille","lat":43.246467,"lon":5.388984,"is_reserved":false,"is_disabled":false,"rental_uris":{"android":"levelo://app?vid=f65e4610-a3d1-4c11-bb68-edc29960d40b","ios":"levelo://app?vid=f65e4610-a3d1-4c11-bb68-edc29960d40b"},"vehicle_type_id":"4","last_reported":1702793322,"current_range_meters":24000,"station_id":"ce4bhg12rcd13ifvqf60","pricing_plan_id":"free"},