{"last_updated":1757938829,"ttl":60,"version":"2.2","data":{"bikes":[{"bike_id":"08edfc50-a7b9-41e3-a5e8-3965050e3342","system_id":"levelo_inurba_marseille","lat":43.23154,"lon":5.43713,"is_reserved":false,"is_disabled":false,"rental_uris":{"android":"levelo://app?vid=08edfc50-a7b9-41e3-a5e8-3965050e3342","ios":"levelo://app?vid=08edfc50-a7b9-41e3-a5e8-3965050e3342"},"vehicle_type_id":"4","last_reported":1757938829,"current_range_meters":2000,"station_id":"ce4bhmp2rcd13ifvqgog","pricing_plan_id":"cebpf4jnsgd1na2vs0mg"},{"bike_id":"32430e5d-3ac7-4cf3-8507-d9987882f07c","system_id":"levelo_inurba_marseille","lat":43.29276,"lon":5.3684,"is_reserved":false,"is_disabled":false,"rental_uris":{"android":"levelo://app?vid=32430e5d-3ac7-4cf3-8507-d9987882f07c","ios":"levelo://app?vid=32430e5d-3ac7-4cf3-8507-d9987882f07c"},"vehicle_type_id":"4","last_reported":1757938829,"current_range_meters":2800,"station_id":"ce4bhbp2rcd13ifvqesg","pricing_plan_id":"cebpf4jnsgd1na2vs0mg"},{"bike_id":"2b95d1b6-596a-4276-9845-89711ed212b3","system_id":"levelo_inurba_marseille","lat":43.25939,"lon":5.40897,"is_reserved":false,"is_disabled":false,"rental_uris":{"android":"levelo://app?vid=2b95d1b6-596a-4276-9845-89711ed212b3","ios":"levelo://app?vid=2b95d1b6-596a-4276-9845-89711ed212b3"},"vehicle_type_id":"4","last_reported":1757938829,"current_range_meters":2800,"station_id":"ce4bhm92rcd13ifvqglg","pricing_plan_id":"cebpf4jnsgd1na2vs0mg"},{"bike_id":"dbb97fbe-8989-4056-95dc-33181795018c","system_id":"levelo_inurba_marseille","lat":43.24158,"lon":5.36393,"is_reserved":false,"is_disabled":false,"rental_uris":{"android":"levelo://app?vid=dbb97fbe-8989-4056-95dc-33181795018c","ios":"levelo://app?vid=dbb97fbe-8989-4056-95dc-33181795018c"},"vehicle_type_id":"4","last_reported":1757938829,"current_range_meters":2800,"station_id":"cpo36qri1sfpv3e86is0","pricing_plan_id":"cebpf4jnsgd1na2vs0mg"},{"bike_id":"a24c4696-920b-4645-847f-87e0b46915a6","system_id":"levelo_inurba_marseille","lat":43.324165,"lon":5.425132,"is_reserved":false,"is_disabled":false,"rental_uris":{"android":"levelo://app?vid=a24c4696-920b-4645-847f-87e0b46915a6","ios":"levelo://app?vid=a24c4696-920b-4645-847f-87e0b46915a6"},"vehicle_type_id":"4","last_reported":1757938829,"current_range_meters":3200,"station_id":"","pricing_plan_id":"cebpf4jnsgd1na2vs0mg"},{"bike_id":"84be000e-b186-4e60-8aaa-b7a0f42a7175","system_id":"levelo_inurba_marseille","lat":43.337639,"lon":5.374332,"is_reserved":false,"is_disabled":false,"rental_uris":{"android":"levelo://app?vid=84be000e-b186-4e60-8aaa-b7a0f42a7175","ios":"levelo://app?vid=84be000e-b186-4e60-8aaa-b7a0f42a7175"},"vehicle_type_id":"4","last_reported":1757938829,"current_range_meters":3200,"station_id":"","pricing_plan_id":"cebpf4jnsgd1na2vs0mg"},{"bike_id":"e0368092-ccd5-4728-96c4-7c3f0a25f522","system_id":"levelo_inurba_marseille","lat":43.29259,"lon":5.38448,"is_reserved":false,"is_disabled":false,"rental_uris":{"android":"levelo://app?vid=e0368092-ccd5-4728-96c4-7c3f0a25f522","ios":"levelo://app?vid=e0368092-ccd5-4728-96c4-7c3f0a25f522"},"vehicle_type_id":"4","last_reported":1757938829,"current_range_meters":3200,"station_id":"ce4bh692rcd13ifvqea0","pricing_plan_id":"cebpf4jnsgd1na2vs0mg"},{"bike_id":"8a1c985d-8abf-4ba0-95d4-d11dd91d05c0","system_id":"levelo_inurba_marseille","lat":43.29578,"lon":5.375254,"is_reserved":false,"is_disabled":false,"rental_uris":{"android":"levelo://app?vid=8a1c985d-8abf-4ba0-95d4-d11dd91d05c0","ios":"levelo://app?vid=8a1c985d-8abf-4ba0-95d4-d11dd91d05c0"},"vehicle_type_id":"4","last_reported":1757938829,"current_range_meters":3200,"station_id":"","pricing_plan_id":"cebpf4jnsgd1na2vs0mg"},{"bike_id":"e8eb0399-c2a2-4d37-b18c-eb97e6008e7c","system_id":"levelo_inurba_marseille","lat":43.31763,"lon":5.39023,"is_reserved":false,"is_disabled":false,"rental_uris":{"android":"levelo://app?vid=e8eb0399-c2a2-4d37-b18c-eb97e6008e7c","ios":"levelo://app?vid=e8eb0399-c2a2-4d37-b18c-eb97e6008e7c"},"vehicle_type_id":"4","last_reported":1757938829,"current_range_meters":3600,"station_id":"ce4bhqp2rcd13ifvqhng","pricing_plan_id":"cebpf4jnsgd1na2vs0mg"},{"bike_id":"a0015acb-d91f-4500-96f6-6adfb8ff4521","system_id":"levelo_inurba_marseille","lat":43.28266,"lon":5.3506,"is_reserved":false,"is_disabled":false,"rental_uris":{"android":"levelo://app?vid=a0015acb-d91f-4500-96f6-6adfb8ff4521","ios":"levelo://app?vid=a0015acb-d91f-4500-96f6-6adfb8ff4521"},"vehicle_type_id":"4","last_reported":1757938829,"current_range_meters":3600,"station_id":"ce4bhbp2rcd13ifvqerg","pricing_plan_id":"cebpf4jnsgd1na2vs0mg"},{"bike_id":"2b133b0a-562f-4d78-80ef-a5763fd06224","system_id":"levelo_inurba_marseille","lat":43.280301,"lon":5.369487,"is_reserved":false,"is_disabled":false,"rental_uris":{"android":"levelo://app?vid=2b133b0a-562f-4d78-80ef-a5763fd06224","ios":"levelo://app?vid=2b133b0a-562f-4d78-80ef-a5763fd06224"},"vehicle_type_id":"4","last_reported":1757938829,"current_range_meters":4000,"station_id":"ce4bha12rcd13ifvqef0","pricing_plan_id":"cebpf4jnsgd1na2vs0mg"},{"bike_id":"7b0867f1-3c57-4dc2-b224-0bec0def6c9e","system_id":"levelo_inurba_marseille","lat":43.29571,"lon":5.39975,"is_reserved":false,"is_disabled":false,"rental_uris":{"android":"levelo://app?vid=7b0867f1-3c57-4dc2-b224-0bec0def6c9e","ios":"levelo://app?vid=7b0867f1-3c57-4dc2-b224-0bec0def6c9e"},"vehicle_type_id":"4","last_reported":1757938829,"current_range_meters":4000,"station_id":"ce4bh312rcd13ifvqdj0","pricing_plan_id":"cebpf4jnsgd1na2vs0mg"},{"bike_id":"46abccb2-8643-462f-83c6-11d19b9f7030","system_id":"levelo_inurba_marseille","lat":43.281,"lon":5.3886,"is_reserved":false,"is_disabled":false,"rental_uris":{"android":"levelo://app?vid=46abccb2-8643-462f-83c6-11d19b9f7030","ios":"levelo://app?vid=46abccb2-8643-462f-83c6-11d19b9f7030"},"vehicle_type_id":"4","last_reported":1757938829,"current_range_meters":4000,"station_id":"","pricing_plan_id":"cebpf4jnsgd1na2vs0mg"},{"bike_id":"81819441-28a7-48cc-a059-5299b09f166c","system_id":"levelo_inurba_marseille","lat":43.29011,"lon":5.35609,"is_reserved":false,"is_disabled":false,"rental_uris":{"android":"levelo://app?vid=81819441-28a7-48cc-a059-5299b09f166c","ios":"levelo://app?vid=81819441-28a7-48cc-a059-5299b09f166c"},"vehicle_type_id":"4","last_reported":1757938829,"current_range_meters":4000,"station_id":"ce4bhb92rcd13ifvqen0","pricing_plan_id":"cebpf4jnsgd1na2vs0mg"},{"bike_id":"2ff43f59-58ce-41b3-a2b1-318781c29a36","system_id":"levelo_inurba_marseille","lat":43.31347,"lon":5.36718,"is_reserved":false,"is_disabled":false,"rental_uris":{"android":"levelo://app?vid=2ff43f59-58ce-41b3-a2b1-318781c29a36","ios":"levelo://app?vid=2ff43f59-58ce-41b3-a2b1-318781c29a36"},"vehicle_type_id":"4","last_reported":1757938829,"current_range_meters":4400,"station_id":"ce4bgr92rcd13ifvqc6g","pricing_plan_id":"cebpf4jnsgd1na2vs0mg"},{"bike_id":"9654664c-5343-4405-9499-09b12012f6ce","system_id":"levelo_inurba_marseille","lat":43.29004,"lon":5.35611,"is_reserved":false,"is_disabled":false,"rental_uris":{"android":"levelo://app?vid=9654664c-5343-4405-9499-09b12012f6ce","ios":"levelo://app?vid=9654664c-5343-4405-9499-09b12012f6ce"},"vehicle_type_id":"4","last_reported":1757938829,"current_range_meters":4400,"station_id":"ce4bhb92rcd13ifvqen0","pricing_plan_id":"cebpf4jnsgd1na2vs0mg"},{"bike_id":"4891d751-b66c-4a3d-89d5-78926b795844","system_id":"levelo_inurba_marseille","lat":43.337444,"lon":5.374475,"is_reserved":false,"is_disabled":false,"rental_uris":{"android":"levelo://app?vid=4891d751-b66c-4a3d-89d5-78926b795844","ios":"levelo://app?vid=4891d751-b66c-4a3d-89d5-78926b795844"},"vehicle_type_id":"4","last_reported":1757938829,"current_range_meters":4400,"station_id":"","pricing_plan_id":"cebpf4jnsgd1na2vs0mg"},{"bike_id":"9a45254c-c77a-469d-8fa3-a3fa05a580ba","system_id":"levelo_inurba_marseille","lat":43.271722,"lon":5.386676,"is_reserved":false,"is_disabled":false,"rental_uris":{"android":"levelo://app?vid=9a45254c-c77a-469d-8fa3-a3fa05a580ba","ios":"levelo://app?vid=9a45254c-c77a-469d-8fa3-a3fa05a580ba"},"vehicle_type_id":"4","last_reported":1757938829,"current_range_meters":4400,"station_id":"","pricing_plan_id":"cebpf4jnsgd1na2vs0mg"},{"bike_id":"7c3c994a-dc1e-44a3-bdcc-191ea39a17ae","system_id":"levelo_inurba_marseille","lat":43.21194,"lon":5.350697,"is_reserved":false,"is_disabled":false,"rental_uris":{"android":"levelo://app?vid=7c3c994a-dc1e-44a3-bdcc-191ea39a17ae","ios":"levelo://app?vid=7c3c994a-dc1e-44a3-bdcc-191ea39a17ae"},"vehicle_type_id":"4","last_reported":1757938829,"current_range_meters":4400,"station_id":"st_cvj6sg6p6f1abm77japg","pricing_plan_id":"cebpf4jnsgd1na2vs0mg"},{"bike_id":"d765e876-dc94-417e-ad8c-0ac49bf5261a","system_id":"levelo_inurba_marseille","lat":43.33602,"lon":5.36126,"is_reserved":false,"is_disabled":false,"rental_uris":{"android":"levelo://app?vid=d765e876-dc94-417e-ad8c-0ac49bf5261a","ios":"levelo://app?vid=d765e876-dc94-417e-ad8c-0ac49bf5261a"},"vehicle_type_id":"4","last_reported":1757938829,"current_range_meters":4800,"station_id":"","pricing_plan_id":"cebpf4jnsgd1na2vs0mg"},{"bike_id":"c7a91e57-0eb3-419e-aee8-2c89b3790083","system_id":"levelo_inurba_marseille","lat":43.28293,"lon":5.35093,"is_reserved":false,"is_disabled":false,"rental_uris":{"android":"levelo://app?vid=c7a91e57-0eb3-419e-aee8-2c89b3790083","ios":"levelo://app?vid=c7a91e57-0eb3-419e-aee8-2c89b3790083"},"vehicle_type_id":"4","last_reported":1757938829,"current_range_meters":4800,"station_id":"ce4bhbp2rcd13ifvqerg","pricing_plan_id":"cebpf4jnsgd1na2vs0mg"},{"bike_id":"484bffae-1a3b-4bc3-9591-800118c9dc4a","system_id":"levelo_inurba_marseille","lat":43.30133,"lon":5.39867,"is_reserved":false,"is_disabled":false,"rental_uris":{"android":"levelo://app?vid=484bffae-1a3b-4bc3-9591-800118c9dc4a","ios":"levelo://app?vid=484bffae-1a3b-4bc3-9591-800118c9dc4a"},"vehicle_type_id":"4","last_reported":1757938829,"current_range_meters":4800,"station_id":"","pricing_plan_id":"cebpf4jnsgd1na2vs0mg"},{"bike_id":"2662a006-cb2e-4646-ba05-ff5840ef0c45","system_id":"levelo_inurba_marseille","lat":43.30911,"lon":5.37186,"is_reserved":false,"is_disabled":false,"rental_uris":{"android":"levelo://app?vid=2662a006-cb2e-4646-ba05-ff5840ef0c45","ios":"levelo://app?vid=2662a006-cb2e-4646-ba05-ff5840ef0c45"},"vehicle_type_id":"4","last_reported":1757938829,"current_range_meters":4800,"station_id":"ce4bguh2rcd13ifvqckg","pricing_plan_id":"cebpf4jnsgd1na2vs0mg"},{"bike_id":"02dbb44c-70e3-4a7a-b86e-6159cc35ba47","system_id":"levelo_inurba_marseille","lat":43.29587,"lon":5.38689,"is_reserved":false,"is_disabled":false,"rental_uris":{"android":"levelo://app?vid=02dbb44c-70e3-4a7a-b86e-6159cc35ba47","ios":"levelo://app?vid=02dbb44c-70e3-4a7a-b86e-6159cc35ba47"},"vehicle_type_id":"4","last_reported":1757938829,"current_range_meters":4800,"station_id":"ce4bgih2rcd13ifvqba0","pricing_plan_id":"cebpf4jnsgd1na2vs0mg"},{"bike_id":"3f6e94fe-d9cd-4906-bcf2-eda9ed03f191","system_id":"levelo_inurba_marseille","lat":43.31123,"lon":5.37764,"is_reserved":false,"is_disabled":false,"rental_uris":{"android":"levelo://app?vid=3f6e94fe-d9cd-4906-bcf2-eda9ed03f191","ios":"levelo://app?vid=3f6e94fe-d9cd-4906-bcf2-eda9ed03f191"},"vehicle_type_id":"4","last_reported":1757938829,"current_range_meters":4800,"station_id":"ce4bgt92rcd13ifvqcg0","pricing_plan_id":"cebpf4jnsgd1na2vs0mg"},{"bike_id":"1c1dcb9a-a1b0-4492-964e-110e17dfb570","system_id":"levelo_inurba_marseille","lat":43.29628,"lon":5.37718,"is_reserved":false,"is_disabled":false,"rental_uris":{"android":"levelo://app?vid=1c1dcb9a-a1b0-4492-964e-110e17dfb570","ios":"levelo://app?vid=1c1dcb9a-a1b0-4492-964e-110e17dfb570"},"vehicle_type_id":"4","last_reported":1757938829,"current_range_meters":5600,"station_id":"ce4bgi92rcd13ifvqb90","pricing_plan_id":"cebpf4jnsgd1na2vs0mg"},{"bike_id":"55d59e02-f5a5-4e1a-9360-556e842fa2a4","system_id":"levelo_inurba_marseille","lat":43.33764,"lon":5.37496,"is_reserved":false,"is_disabled":false,"rental_uris":{"android":"levelo://app?vid=55d59e02-f5a5-4e1a-9360-556e842fa2a4","ios":"levelo://app?vid=55d59e02-f5a5-4e1a-9360-556e842fa2a4"},"vehicle_type_id":"4","last_reported":1757938829,"current_range_meters":5600,"station_id":"","pricing_plan_id":"cebpf4jnsgd1na2vs0mg"},{"bike_id":"041673b2-1e99-4d1c-9a1b-5cd2a86c452c","system_id":"levelo_inurba_marseille","lat":43.29376,"lon":5.402,"is_reserved":false,"is_disabled":false,"rental_uris":{"android":"levelo://app?vid=041673b2-1e99-4d1c-9a1b-5cd2a86c452c","ios":"levelo://app?vid=041673b2-1e99-4d1c-9a1b-5cd2a86c452c"},"vehicle_type_id":"4","last_reported":1757938829,"current_range_meters":5600,"station_id":"","pricing_plan_id":"cebpf4jnsgd1na2vs0mg"},{"bike_id":"d5c98035-fc72-4062-a3ec-13203f68e8ed","system_id":"levelo_inurba_marseille","lat":43.28867,"lon":5.42511,"is_reserved":false,"is_disabled":false,"rental_uris":{"android":"levelo://app?vid=d5c98035-fc72-4062-a3ec-13203f68e8ed","ios":"levelo://app?vid=d5c98035-fc72-4062-a3ec-13203f68e8ed"},"vehicle_type_id":"4","last_reported":1757938829,"current_range_meters":5600,"station_id":"","pricing_plan_id":"cebpf4jnsgd1na2vs0mg"},{"bike_id":"dd4f082b-e627-4608-b610-14f8eb686c40","system_id":"levelo_inurba_marseille","lat":43.28667,"lon":5.36351,"is_reserved":false,"is_disabled":false,"rental_uris":{"android":"levelo://app?vid=dd4f082b-e627-4608-b610-14f8eb686c40","ios":"levelo://app?vid=dd4f082b-e627-4608-b610-14f8eb686c40"},"vehicle_type_id":"4","last_reported":1757938829,"current_range_meters":5600,"station_id":"ce4bhah2rcd13ifvqej0","pricing_plan_id":"cebpf4jnsgd1na2vs0mg"},{"bike_id":"cc128e4a-f0f4-4fa5-a18f-065373f31bc9","system_id":"levelo_inurba_marseille","lat":43.28273,"lon":5.35068,"is_reserved":false,"is_disabled":false,"rental_uris":{"android":"levelo://app?vid=cc128e4a-f0f4-4fa5-a18f-065373f31bc9","ios":"levelo://app?vid=cc128e4a-f0f4-4fa5-a18f-065373f31bc9"},"vehicle_type_id":"4","last_reported":1757938829,"current_range_meters":6000,"station_id":"ce4bhbp2rcd13ifvqerg","pricing_plan_id":"cebpf4jnsgd1na2vs0mg"},{"bike_id":"64fd3338-9664-4eab-9d69-526a809f8c3c","system_id":"levelo_inurba_marseille","lat":43.33805,"lon":5.36694,"is_reserved":false,"is_disabled":false,"rental_uris":{"android":"levelo://app?vid=64fd3338-9664-4eab-9d69-526a809f8c3c","ios":"levelo://app?vid=64fd3338-9664-4eab-9d69-526a809f8c3c"},"vehicle_type_id":"4","last_reported":1757938829,"current_range_meters":6000,"station_id":"","pricing_plan_id":"cebpf4jnsgd1na2vs0mg"},{"bike_id":"595fcf91-2e66-4c2b-8a3c-21ddb133f196","system_id":"levelo_inurba_marseille","lat":43.21753,"lon":5.34604,"is_reserved":false,"is_disabled":true,"rental_uris":{"android":"levelo://app?vid=595fcf91-2e66-4c2b-8a3c-21ddb133f196","ios":"levelo://app?vid=595fcf91-2e66-4c2b-8a3c-21ddb133f196"},"vehicle_type_id":"4","last_reported":1757938829,"current_range_meters":6000,"station_id":"st_cvj6r9ubvosntc0bgbag","pricing_plan_id":"cebpf4jnsgd1na2vs0mg"},{"bike_id":"6be1fb3a-93a3-4e6c-9139-1779db6eb7cf","system_id":"levelo_inurba_marseille","lat":43.24803,"lon":5.37454,"is_reserved":false,"is_disabled":false,"rental_uris":{"android":"levelo://app?vid=6be1fb3a-93a3-4e6c-9139-1779db6eb7cf","ios":"levelo://app?vid=6be1fb3a-93a3-4e6c-9139-1779db6eb7cf"},"vehicle_type_id":"4","last_reported":1757938829,"current_range_meters":6000,"station_id":"ce4bhgh2rcd13ifvqfb0","pricing_plan_id":"cebpf4jnsgd1na2vs0mg"},{"bike_id":"046ba709-b940-4fa3-9690-1d81db536e4b","system_id":"levelo_inurba_marseille","lat":43.22566,"lon":5.41629,"is_reserved":false,"is_disabled":false,"rental_uris":{"android":"levelo://app?vid=046ba709-b940-4fa3-9690-1d81db536e4b","ios":"levelo://app?vid=046ba709-b940-4fa3-9690-1d81db536e4b"},"vehicle_type_id":"4","last_reported":1757938829,"current_range_meters":6400,"station_id":"st_d2o4gvlbi1j2169b742g","pricing_plan_id":"cebpf4jnsgd1na2vs0mg"},{"bike_id":"6491a13f-bdc9-4bdc-b830-eb5a555cbcf6","system_id":"levelo_inurba_marseille","lat":43.24071,"lon":5.37762,"is_reserved":false,"is_disabled":false,"rental_uris":{"android":"levelo://app?vid=6491a13f-bdc9-4bdc-b830-eb5a555cbcf6","ios":"levelo://app?vid=6491a13f-bdc9-4bdc-b830-eb5a555cbcf6"},"vehicle_type_id":"4","last_reported":1757938829,"current_range_meters":6400,"station_id":"ce4bhnp2rcd13ifvqgvg","pricing_plan_id":"cebpf4jnsgd1na2vs0mg"},{"bike_id":"52d207e7-51c6-46f8-93cd-b7416abb2e3d","system_id":"levelo_inurba_marseille","lat":43.30915,"lon":5.36848,"is_reserved":false,"is_disabled":false,"rental_uris":{"android":"levelo://app?vid=52d207e7-51c6-46f8-93cd-b7416abb2e3d","ios":"levelo://app?vid=52d207e7-51c6-46f8-93cd-b7416abb2e3d"},"vehicle_type_id":"4","last_reported":1757938829,"current_range_meters":6000,"station_id":"ce4bgn92rcd13ifvqbvg","pricing_plan_id":"cebpf4jnsgd1na2vs0mg"},{"bike_id":"c5cba6d7-e282-4417-a818-5fc0802dcb08","system_id":"levelo_inurba_marseille","lat":43.33761,"lon":5.3745,"is_reserved":false,"is_disabled":false,"rental_uris":{"android":"levelo://app?vid=c5cba6d7-e282-4417-a818-5fc0802dcb08","ios":"levelo://app?vid=c5cba6d7-e282-4417-a818-5fc0802dcb08"},"vehicle_type_id":"4","last_reported":1757938829,"current_range_meters":6400,"station_id":"","pricing_plan_id":"cebpf4jnsgd1na2vs0mg"},{"bike_id":"fb2ae43e-4d62-4192-9f81-5c2347cf1f6a","system_id":"levelo_inurba_marseille","lat":43.25582,"lon":5.38229,"is_reserved":false,"is_disabled":false,"rental_uris":{"android":"levelo://app?vid=fb2ae43e-4d62-4192-9f81-5c2347cf1f6a","ios":"levelo://app?vid=fb2ae43e-4d62-4192-9f81-5c2347cf1f6a"},"vehicle_type_id":"4","last_reported":1757938829,"current_range_meters":6800,"station_id":"ce4bhih2rcd13ifvqfs0","pricing_plan_id":"cebpf4jnsgd1na2vs0mg"},{"bike_id":"c9155547-cd64-40be-878e-0e738fe31d23","system_id":"levelo_inurba_marseille","lat":43.26195,"lon":5.37451,"is_reserved":false,"is_disabled":false,"rental_uris":{"android":"levelo://app?vid=c9155547-cd64-40be-878e-0e738fe31d23","ios":"levelo://app?vid=c9155547-cd64-40be-878e-0e738fe31d23"},"vehicle_type_id":"4","last_reported":1757938829,"current_range_meters":7200,"station_id":"ce4bhgp2rcd13ifvqfc0","pricing_plan_id":"cebpf4jnsgd1na2vs0mg"},{"bike_id":"d9c11a94-d122-4240-b95b-24fdee8810ac","system_id":"levelo_inurba_marseille","lat":43.2825,"lon":5.39907,"is_reserved":false,"is_disabled":false,"rental_uris":{"android":"levelo://app?vid=d9c11a94-d122-4240-b95b-24fdee8810ac","ios":"levelo://app?vid=d9c11a94-d122-4240-b95b-24fdee8810ac"},"vehicle_type_id":"4","last_reported":1757938829,"current_range_meters":7200,"station_id":"","pricing_plan_id":"cebpf4jnsgd1na2vs0mg"},{"bike_id":"30e85da9-4a4e-420a-bc64-cfe1eeea89eb","system_id":"levelo_inurba_marseille","lat":43.28352,"lon":5.3764,"is_reserved":false,"is_disabled":false,"rental_uris":{"android":"levelo://app?vid=30e85da9-4a4e-420a-bc64-cfe1eeea89eb","ios":"levelo://app?vid=30e85da9-4a4e-420a-bc64-cfe1eeea89eb"},"vehicle_type_id":"4","last_reported":1757938829,"current_range_meters":7200,"station_id":"","pricing_plan_id":"cebpf4jnsgd1na2vs0mg"},{"bike_id":"5c1e55d9-decd-426f-89d8-b98a558f3809","system_id":"levelo_inurba_marseille","lat":43.31689,"lon":5.40489,"is_reserved":false,"is_disabled":true,"rental_uris":{"android":"levelo://app?vid=5c1e55d9-decd-426f-89d8-b98a558f3809","ios":"levelo://app?vid=5c1e55d9-decd-426f-89d8-b98a558f3809"},"vehicle_type_id":"4","last_reported":1757938829,"current_range_meters":8000,"station_id":"ce4bh012rcd13ifvqd00","pricing_plan_id":"cebpf4jnsgd1na2vs0mg"},{"bike_id":"d3d478ac-4e03-46b9-8f3c-28e7e343a98d","system_id":"levelo_inurba_marseille","lat":43.30556,"lon":5.36528,"is_reserved":false,"is_disabled":false,"rental_uris":{"android":"levelo://app?vid=d3d478ac-4e03-46b9-8f3c-28e7e343a98d","ios":"levelo://app?vid=d3d478ac-4e03-46b9-8f3c-28e7e343a98d"},"vehicle_type_id":"4","last_reported":1757938829,"current_range_meters":8000,"station_id":"ce4bgs12rcd13ifvqcag","pricing_plan_id":"cebpf4jnsgd1na2vs0mg"},{"bike_id":"4f9bd625-ea72-423e-9234-f59f397dfa3c","system_id":"levelo_inurba_marseille","lat":43.21189,"lon":5.35077,"is_reserved":false,"is_disabled":false,"rental_uris":{"android":"levelo://app?vid=4f9bd625-ea72-423e-9234-f59f397dfa3c","ios":"levelo://app?vid=4f9bd625-ea72-423e-9234-f59f397dfa3c"},"vehicle_type_id":"4","last_reported":1757938829,"current_range_meters":8000,"station_id":"st_cvj6sg6p6f1abm77japg","pricing_plan_id":"cebpf4jnsgd1na2vs0mg"},{"bike_id":"90b99ccf-2b3c-4d75-9e45-7dd3a550aac1","system_id":"levelo_inurba_marseille","lat":43.23569,"lon":5.39891,"is_reserved":false,"is_disabled":true,"rental_uris":{"android":"levelo://app?vid=90b99ccf-2b3c-4d75-9e45-7dd3a550aac1","ios":"levelo://app?vid=90b99ccf-2b3c-4d75-9e45-7dd3a550aac1"},"vehicle_type_id":"4","last_reported":1757938829,"current_range_meters":8000,"station_id":"","pricing_plan_id":"cebpf4jnsgd1na2vs0mg"},{"bike_id":"92328f20-9c61-4621-aefd-c280af7d31a0","system_id":"levelo_inurba_marseille","lat":43.2886,"lon":5.42526,"is_reserved":false,"is_disabled":false,"rental_uris":{"android":"levelo://app?vid=92328f20-9c61-4621-aefd-c280af7d31a0","ios":"levelo://app?vid=92328f20-9c61-4621-aefd-c280af7d31a0"},"vehicle_type_id":"4","last_reported":1757938829,"current_range_meters":8000,"station_id":"","pricing_plan_id":"cebpf4jnsgd1na2vs0mg"},{"bike_id":"a97c54bb-a557-422e-a557-c24d3d71715c","system_id":"levelo_inurba_marseille","lat":43.24072,"lon":5.37765,"is_reserved":false,"is_disabled":false,"rental_uris":{"android":"levelo://app?vid=a97c54bb-a557-422e-a557-c24d3d71715c","ios":"levelo://app?vid=a97c54bb-a557-422e-a557-c24d3d71715c"},"vehicle_type_id":"4","last_reported":1757938829,"current_range_meters":8000,"station_id":"ce4bhnp2rcd13ifvqgvg","pricing_plan_id":"cebpf4jnsgd1na2vs0mg"},{"bike_id":"3d47a993-8f51-4252-8509-9d2464145ca1","system_id":"levelo_inurba_marseille","lat":43.28664,"lon":5.38663,"is_reserved":false,"is_disabled":false,"rental_uris":{"android":"levelo://app?vid=3d47a993-8f51-4252-8509-9d2464145ca1","ios":"levelo://app?vid=3d47a993-8f51-4252-8509-9d2464145ca1"},"vehicle_type_id":"4","last_reported":1757938829,"current_range_meters":8000,"station_id":"ce4bh492rcd13ifvqdug","pricing_plan_id":"cebpf4jnsgd1na2vs0mg"},{"bike_id":"18ad662e-80f9-48f5-9a47-75907aa2e7ea","system_id":"levelo_inurba_marseille","lat":43.30044,"lon":5.38352,"is_reserved":false,"is_disabled":false,"rental_uris":{"android":"levelo://app?vid=18ad662e-80f9-48f5-9a47-75907aa2e7ea","ios":"levelo://app?vid=18ad662e-80f9-48f5-9a47-75907aa2e7ea"},"vehicle_type_id":"4","last_reported":1757938829,"current_range_meters":8400,"station_id":"","pricing_plan_id":"cebpf4jnsgd1na2vs0mg"},{"bike_id":"3319a219-1dc1-4a7f-a4f5-f2237e555afa","system_id":"levelo_inurba_marseille","lat":43.27621,"lon":5.36116,"is_reserved":false,"is_disabled":false,"rental_uris":{"android":"levelo://app?vid=3319a219-1dc1-4a7f-a4f5-f2237e555afa","ios":"levelo://app?vid=3319a219-1dc1-4a7f-a4f5-f2237e555afa"},"vehicle_type_id":"4","last_reported":1757938829,"current_range_meters":8400,"station_id":"ce4bgj92rcd13ifvqbe0","pricing_plan_id":"cebpf4jnsgd1na2vs0mg"},{"bike_id":"aaee8b65-dcac-4cf4-b547-fbed6cede1b6","system_id":"levelo_inurba_marseille","lat":43.28426,"lon":5.3499,"is_reserved":false,"is_disabled":false,"rental_uris":{"android":"levelo://app?vid=aaee8b65-dcac-4cf4-b547-fbed6cede1b6","ios":"levelo://app?vid=aaee8b65-dcac-4cf4-b547-fbed6cede1b6"},"vehicle_type_id":"4","last_reported":1757938829,"current_range_meters":8400,"station_id":"ce4bhbh2rcd13ifvqepg","pricing_plan_id":"cebpf4jnsgd1na2vs0mg"},{"bike_id":"ba1cc76e-8844-47e0-9c9a-8db0c91a311d","system_id":"levelo_inurba_marseille","lat":43.28237,"lon":5.39057,"is_reserved":false,"is_disabled":false,"rental_uris":{"android":"levelo://app?vid=ba1cc76e-8844-47e0-9c9a-8db0c91a311d","ios":"levelo://app?vid=ba1cc76e-8844-47e0-9c9a-8db0c91a311d"},"vehicle_type_id":"4","last_reported":1757938829,"current_range_meters":8400,"station_id":"ce4bhn92rcd13ifvqgsg","pricing_plan_id":"cebpf4jnsgd1na2vs0mg"},{"bike_id":"6472d64e-6293-4386-a3ab-718b3e11e805","system_id":"levelo_inurba_marseille","lat":43.30133,"lon":5.39858,"is_reserved":false,"is_disabled":false,"rental_uris":{"android":"levelo://app?vid=6472d64e-6293-4386-a3ab-718b3e11e805","ios":"levelo://app?vid=6472d64e-6293-4386-a3ab-718b3e11e805"},"vehicle_type_id":"4","last_reported":1757938829,"current_range_meters":8400,"station_id":"ce4bh0h2rcd13ifvqd40","pricing_plan_id":"cebpf4jnsgd1na2vs0mg"},{"bike_id":"1bae9424-2a0d-4c2d-a0e5-65d9bf088c8c","system_id":"levelo_inurba_marseille","lat":43.21764,"lon":5.346,"is_reserved":false,"is_disabled":false,"rental_uris":{"android":"levelo://app?vid=1bae9424-2a0d-4c2d-a0e5-65d9bf088c8c","ios":"levelo://app?vid=1bae9424-2a0d-4c2d-a0e5-65d9bf088c8c"},"vehicle_type_id":"4","last_reported":1757938829,"current_range_meters":8800,"station_id":"st_cvj6r9ubvosntc0bgbag","pricing_plan_id":"cebpf4jnsgd1na2vs0mg"},{"bike_id":"61cde1c0-77f2-409c-b444-f6f76a45c140","system_id":"levelo_inurba_marseille","lat":43.32107,"lon":5.36771,"is_reserved":false,"is_disabled":false,"rental_uris":{"android":"levelo://app?vid=61cde1c0-77f2-409c-b444-f6f76a45c140","ios":"levelo://app?vid=61cde1c0-77f2-409c-b444-f6f76a45c140"},"vehicle_type_id":"4","last_reported":1757938829,"current_range_meters":9200,"station_id":"ce4bhrh2rcd13ifvqhug","pricing_plan_id":"cebpf4jnsgd1na2vs0mg"},{"bike_id":"ab852d69-c9c7-4b8b-8557-2d9cd55cc38b","system_id":"levelo_inurba_marseille","lat":43.29768,"lon":5.3792,"is_reserved":false,"is_disabled":false,"rental_uris":{"android":"levelo://app?vid=ab852d69-c9c7-4b8b-8557-2d9cd55cc38b","ios":"levelo://app?vid=ab852d69-c9c7-4b8b-8557-2d9cd55cc38b"},"vehicle_type_id":"4","last_reported":1757938829,"current_range_meters":9200,"station_id":"","pricing_plan_id":"cebpf4jnsgd1na2vs0mg"},{"bike_id":"8cf69331-da50-4d69-8267-0931da6ff448","system_id":"levelo_inurba_marseille","lat":43.22934,"lon":5.35376,"is_reserved":false,"is_disabled":false,"rental_uris":{"android":"levelo://app?vid=8cf69331-da50-4d69-8267-0931da6ff448","ios":"levelo://app?vid=8cf69331-da50-4d69-8267-0931da6ff448"},"vehicle_type_id":"4","last_reported":1757938829,"current_range_meters":9200,"station_id":"cpo3532slgdg3j2ikp40","pricing_plan_id":"cebpf4jnsgd1na2vs0mg"},{"bike_id":"5a12eed5-7687-4ffb-9311-d8c98d6562c7","system_id":"levelo_inurba_marseille","lat":43.286735,"lon":5.386801,"is_reserved":false,"is_disabled":false,"rental_uris":{"android":"levelo://app?vid=5a12eed5-7687-4ffb-9311-d8c98d6562c7","ios":"levelo://app?vid=5a12eed5-7687-4ffb-9311-d8c98d6562c7"},"vehicle_type_id":"4","last_reported":1757938829,"current_range_meters":9200,"station_id":"","pricing_plan_id":"cebpf4jnsgd1na2vs0mg"},{"bike_id":"fbd0328c-4ce4-4080-b126-d2d47d815fa6","system_id":"levelo_inurba_marseille","lat":43.217815,"lon":5.345993,"is_reserved":false,"is_disabled":false,"rental_uris":{"android":"levelo://app?vid=fbd0328c-4ce4-4080-b126-d2d47d815fa6","ios":"levelo://app?vid=fbd0328c-4ce4-4080-b126-d2d47d815fa6"},"vehicle_type_id":"4","last_reported":1757938829,"current_range_meters":9200,"station_id":"st_cvj6r9ubvosntc0bgbag","pricing_plan_id":"cebpf4jnsgd1na2vs0mg"},{"bike_id":"dd32f779-e928-424d-999f-b730cf475fa7","system_id":"levelo_inurba_marseille","lat":43.21745,"lon":5.34609,"is_reserved":false,"is_disabled":false,"rental_uris":{"android":"levelo://app?vid=dd32f779-e928-424d-999f-b730cf475fa7","ios":"levelo://app?vid=dd32f779-e928-424d-999f-b730cf475fa7"},"vehicle_type_id":"4","last_reported":1757938829,"current_range_meters":9600,"station_id":"st_cvj6r9ubvosntc0bgbag","pricing_plan_id":"cebpf4jnsgd1na2vs0mg"},{"bike_id":"1c1f321d-7f02-445e-916a-8f527c5607b4","system_id":"levelo_inurba_marseille","lat":43.30418,"lon":5.41284,"is_reserved":false,"is_disabled":false,"rental_uris":{"android":"levelo://app?vid=1c1f321d-7f02-445e-916a-8f527c5607b4","ios":"levelo://app?vid=1c1f321d-7f02-445e-916a-8f527c5607b4"},"vehicle_type_id":"4","last_reported":1757938829,"current_range_meters":9600,"station_id":"ce4bhop2rcd13ifvqh8g","pricing_plan_id":"cebpf4jnsgd1na2vs0mg"},{"bike_id":"85db8ab9-6b24-4c23-8762-109e948df9cd","system_id":"levelo_inurba_marseille","lat":43.3058,"lon":5.40478,"is_reserved":false,"is_disabled":false,"rental_uris":{"android":"levelo://app?vid=85db8ab9-6b24-4c23-8762-109e948df9cd","ios":"levelo://app?vid=85db8ab9-6b24-4c23-8762-109e948df9cd"},"vehicle_type_id":"4","last_reported":1757938829,"current_range_meters":9600,"station_id":"","pricing_plan_id":"cebpf4jnsgd1na2vs0mg"},{"bike_id":"0f01824c-e510-43bb-b1e2-939b2d9996a9","system_id":"levelo_inurba_marseille","lat":43.217431,"lon":5.346065,"is_reserved":false,"is_disabled":false,"rental_uris":{"android":"levelo://app?vid=0f01824c-e510-43bb-b1e2-939b2d9996a9","ios":"levelo://app?vid=0f01824c-e510-43bb-b1e2-939b2d9996a9"},"vehicle_type_id":"4","last_reported":1757938829,"current_range_meters":9600,"station_id":"st_cvj6r9ubvosntc0bgbag","pricing_plan_id":"cebpf4jnsgd1na2vs0mg"},{"bike_id":"00753446-6c6f-43f8-9dc0-3a2a32cc870b","system_id":"levelo_inurba_marseille","lat":43.27997,"lon":5.41655,"is_reserved":false,"is_disabled":false,"rental_uris":{"android":"levelo://app?vid=00753446-6c6f-43f8-9dc0-3a2a32cc870b","ios":"levelo://app?vid=00753446-6c6f-43f8-9dc0-3a2a32cc870b"},"vehicle_type_id":"4","last_reported":1757938829,"current_range_meters":10000,"station_id":"ce4bho12rcd13ifvqh1g","pricing_plan_id":"cebpf4jnsgd1na2vs0mg"},{"bike_id":"9c75fbba-265d-4518-b67d-a730fc236080","system_id":"levelo_inurba_marseille","lat":43.28936,"lon":5.36639,"is_reserved":false,"is_disabled":false,"rental_uris":{"android":"levelo://app?vid=9c75fbba-265d-4518-b67d-a730fc236080","ios":"levelo://app?vid=9c75fbba-265d-4518-b67d-a730fc236080"},"vehicle_type_id":"4","last_reported":1757938829,"current_range_meters":10000,"station_id":"ce4bhap2rcd13ifvqek0","pricing_plan_id":"cebpf4jnsgd1na2vs0mg"},{"bike_id":"dd02a804-610e-45e9-83c3-f2b6e45c3b40","system_id":"levelo_inurba_marseille","lat":43.31272,"lon":5.40163,"is_reserved":false,"is_disabled":false,"rental_uris":{"android":"levelo://app?vid=dd02a804-610e-45e9-83c3-f2b6e45c3b40","ios":"levelo://app?vid=dd02a804-610e-45e9-83c3-f2b6e45c3b40"},"vehicle_type_id":"4","last_reported":1757938829,"current_range_meters":10000,"station_id":"ce4bh092rcd13ifvqd30","pricing_plan_id":"cebpf4jnsgd1na2vs0mg"},{"bike_id":"d349475c-c1fc-4a41-904b-f798bd65cfdf","system_id":"levelo_inurba_marseille","lat":43.26686,"lon":5.38278,"is_reserved":false,"is_disabled":false,"rental_uris":{"android":"levelo://app?vid=d349475c-c1fc-4a41-904b-f798bd65cfdf","ios":"levelo://app?vid=d349475c-c1fc-4a41-904b-f798bd65cfdf"},"vehicle_type_id":"4","last_reported":1757938829,"current_range_meters":10000,"station_id":"ce4bhg92rcd13ifvqf90","pricing_plan_id":"cebpf4jnsgd1na2vs0mg"},{"bike_id":"7781d047-f50c-471d-9f7e-365b8b6cc3c4","system_id":"levelo_inurba_marseille","lat":43.29923,"lon":5.37468,"is_reserved":false,"is_disabled":false,"rental_uris":{"android":"levelo://app?vid=7781d047-f50c-471d-9f7e-365b8b6cc3c4","ios":"levelo://app?vid=7781d047-f50c-471d-9f7e-365b8b6cc3c4"},"vehicle_type_id":"4","last_reported":1757938829,"current_range_meters":10000,"station_id":"ce4bgjh2rcd13ifvqbg0","pricing_plan_id":"cebpf4jnsgd1na2vs0mg"},{"bike_id":"e8930cfa-2c36-4dbf-ab3e-6afdedf38824","system_id":"levelo_inurba_marseille","lat":43.225736,"lon":5.416362,"is_reserved":false,"is_disabled":false,"rental_uris":{"android":"levelo://app?vid=e8930cfa-2c36-4dbf-ab3e-6afdedf38824","ios":"levelo://app?vid=e8930cfa-2c36-4dbf-ab3e-6afdedf38824"},"vehicle_type_id":"4","last_reported":1757938829,"current_range_meters":10000,"station_id":"st_d2o4gvlbi1j2169b742g","pricing_plan_id":"cebpf4jnsgd1na2vs0mg"},{"bike_id":"4d6e6605-7f16-44fa-a19a-c138ee7cb360","system_id":"levelo_inurba_marseille","lat":43.33799,"lon":5.37446,"is_reserved":false,"is_disabled":false,"rental_uris":{"android":"levelo://app?vid=4d6e6605-7f16-44fa-a19a-c138ee7cb360","ios":"levelo://app?vid=4d6e6605-7f16-44fa-a19a-c138ee7cb360"},"vehicle_type_id":"4","last_reported":1757938829,"current_range_meters":10000,"station_id":"","pricing_plan_id":"cebpf4jnsgd1na2vs0mg"},{"bike_id":"4b89ad18-a85a-4cf5-a107-a46d8823374f","system_id":"levelo_inurba_marseille","lat":43.22565,"lon":5.41627,"is_reserved":false,"is_disabled":false,"rental_uris":{"android":"levelo://app?vid=4b89ad18-a85a-4cf5-a107-a46d8823374f","ios":"levelo://app?vid=4b89ad18-a85a-4cf5-a107-a46d8823374f"},"vehicle_type_id":"4","last_reported":1757938829,"current_range_meters":10000,"station_id":"st_d2o4gvlbi1j2169b742g","pricing_plan_id":"cebpf4jnsgd1na2vs0mg"},{"bike_id":"e55ae905-9410-44da-8e6c-dadab4fedc17","system_id":"levelo_inurba_marseille","lat":43.21751,"lon":5.34602,"is_reserved":false,"is_disabled":false,"rental_uris":{"android":"levelo://app?vid=e55ae905-9410-44da-8e6c-dadab4fedc17","ios":"levelo://app?vid=e55ae905-9410-44da-8e6c-dadab4fedc17"},"vehicle_type_id":"4","last_reported":1757938829,"current_range_meters":10000,"station_id":"st_cvj6r9ubvosntc0bgbag","pricing_plan_id":"cebpf4jnsgd1na2vs0mg"},{"bike_id":"08badff3-9fe6-40c3-9bc0-615a88e72a36","system_id":"levelo_inurba_marseille","lat":43.24173,"lon":5.364,"is_reserved":false,"is_disabled":false,"rental_uris":{"android":"levelo://app?vid=08badff3-9fe6-40c3-9bc0-615a88e72a36","ios":"levelo://app?vid=08badff3-9fe6-40c3-9bc0-615a88e72a36"},"vehicle_type_id":"4","last_reported":1757938829,"current_range_meters":10000,"station_id":"cpo36qri1sfpv3e86is0","pricing_plan_id":"cebpf4jnsgd1na2vs0mg"},{"bike_id":"c4c749f8-5730-4f73-bfb2-7fbed5318866","system_id":"levelo_inurba_marseille","lat":43.32479,"lon":5.36563,"is_reserved":false,"is_disabled":false,"rental_uris":{"android":"levelo://app?vid=c4c749f8-5730-4f73-bfb2-7fbed5318866","ios":"levelo://app?vid=c4c749f8-5730-4f73-bfb2-7fbed5318866"},"vehicle_type_id":"4","last_reported":1757938829,"current_range_meters":10000,"station_id":"ce4bhs12rcd13ifvqhvg","pricing_plan_id":"cebpf4jnsgd1na2vs0mg"},{"bike_id":"e03f428c-e7b3-45a1-b7a3-80a358607b0f","system_id":"levelo_inurba_marseille","lat":43.29799,"lon":5.40396,"is_reserved":false,"is_disabled":false,"rental_uris":{"android":"levelo://app?vid=e03f428c-e7b3-45a1-b7a3-80a358607b0f","ios":"levelo://app?vid=e03f428c-e7b3-45a1-b7a3-80a358607b0f"},"vehicle_type_id":"4","last_reported":1757938829,"current_range_meters":10000,"station_id":"ce4bh112rcd13ifvqd90","pricing_plan_id":"cebpf4jnsgd1na2vs0mg"},{"bike_id":"4199e61c-96f2-46e9-aded-7515329fc385","system_id":"levelo_inurba_marseille","lat":43.2316,"lon":5.43703,"is_reserved":false,"is_disabled":false,"rental_uris":{"android":"levelo://app?vid=4199e61c-96f2-46e9-aded-7515329fc385","ios":"levelo://app?vid=4199e61c-96f2-46e9-aded-7515329fc385"},"vehicle_type_id":"4","last_reported":1757938829,"current_range_meters":10000,"station_id":"ce4bhmp2rcd13ifvqgog","pricing_plan_id":"cebpf4jnsgd1na2vs0mg"},{"bike_id":"d03a11a6-1a51-4eb0-8d9f-25d998e1098f","system_id":"levelo_inurba_marseille","lat":43.2293,"lon":5.35388,"is_reserved":false,"is_disabled":false,"rental_uris":{"android":"levelo://app?vid=d03a11a6-1a51-4eb0-8d9f-25d998e1098f","ios":"levelo://app?vid=d03a11a6-1a51-4eb0-8d9f-25d998e1098f"},"vehicle_type_id":"4","last_reported":1757938829,"current_range_meters":10800,"station_id":"cpo3532slgdg3j2ikp40","pricing_plan_id":"cebpf4jnsgd1na2vs0mg"},{"bike_id":"b208c7ce-f521-4277-9eb0-ad48dcd18028","system_id":"levelo_inurba_marseille","lat":43.31491,"lon":5.37313,"is_reserved":false,"is_disabled":false,"rental_uris":{"android":"levelo://app?vid=b208c7ce-f521-4277-9eb0-ad48dcd18028","ios":"levelo://app?vid=b208c7ce-f521-4277-9eb0-ad48dcd18028"},"vehicle_type_id":"4","last_reported":1757938829,"current_range_meters":10800,"station_id":"ce4bgt12rcd13ifvqcd0","pricing_plan_id":"cebpf4jnsgd1na2vs0mg"},{"bike_id":"f75319f4-d3a6-440f-9c89-5af7f4acd041","system_id":"levelo_inurba_marseille","lat":43.22555,"lon":5.41628,"is_reserved":false,"is_disabled":false,"rental_uris":{"android":"levelo://app?vid=f75319f4-d3a6-440f-9c89-5af7f4acd041","ios":"levelo://app?vid=f75319f4-d3a6-440f-9c89-5af7f4acd041"},"vehicle_type_id":"4","last_reported":1757938829,"current_range_meters":10800,"station_id":"st_d2o4gvlbi1j2169b742g","pricing_plan_id":"cebpf4jnsgd1na2vs0mg"},{"bike_id":"e71b7f01-2bfa-4f59-9ab8-4aa7afe879af","system_id":"levelo_inurba_marseille","lat":43.32337,"lon":5.4062,"is_reserved":false,"is_disabled":false,"rental_uris":{"android":"levelo://app?vid=e71b7f01-2bfa-4f59-9ab8-4aa7afe879af","ios":"levelo://app?vid=e71b7f01-2bfa-4f59-9ab8-4aa7afe879af"},"vehicle_type_id":"4","last_reported":1757938829,"current_range_meters":10800,"station_id":"ce4bhq92rcd13ifvqhjg","pricing_plan_id":"cebpf4jnsgd1na2vs0mg"},{"bike_id":"c7a9abd4-c090-4cda-ae33-c7614cead7c5","system_id":"levelo_inurba_marseille","lat":43.29967,"lon":5.38477,"is_reserved":false,"is_disabled":false,"rental_uris":{"android":"levelo://app?vid=c7a9abd4-c090-4cda-ae33-c7614cead7c5","ios":"levelo://app?vid=c7a9abd4-c090-4cda-ae33-c7614cead7c5"},"vehicle_type_id":"4","last_reported":1757938829,"current_range_meters":11200,"station_id":"ce4bgj92rcd13ifvqbd0","pricing_plan_id":"cebpf4jnsgd1na2vs0mg"},{"bike_id":"6a8c8dfd-4491-4c9f-9ad3-e84150d677e3","system_id":"levelo_inurba_marseille","lat":43.28931,"lon":5.38392,"is_reserved":false,"is_disabled":false,"rental_uris":{"android":"levelo://app?vid=6a8c8dfd-4491-4c9f-9ad3-e84150d677e3","ios":"levelo://app?vid=6a8c8dfd-4491-4c9f-9ad3-e84150d677e3"},"vehicle_type_id":"4","last_reported":1757938829,"current_range_meters":11200,"station_id":"ce4bh612rcd13ifvqe6g","pricing_plan_id":"cebpf4jnsgd1na2vs0mg"},{"bike_id":"e3b13244-4ad8-44d7-83ea-1f99cf6ddb7e","system_id":"levelo_inurba_marseille","lat":43.29011,"lon":5.35602,"is_reserved":false,"is_disabled":false,"rental_uris":{"android":"levelo://app?vid=e3b13244-4ad8-44d7-83ea-1f99cf6ddb7e","ios":"levelo://app?vid=e3b13244-4ad8-44d7-83ea-1f99cf6ddb7e"},"vehicle_type_id":"4","last_reported":1757938829,"current_range_meters":10800,"station_id":"ce4bhb92rcd13ifvqen0","pricing_plan_id":"cebpf4jnsgd1na2vs0mg"},{"bike_id":"e4e0215d-305f-4c87-9b9c-0fa6f0b11187","system_id":"levelo_inurba_marseille","lat":43.29925,"lon":5.375,"is_reserved":false,"is_disabled":false,"rental_uris":{"android":"levelo://app?vid=e4e0215d-305f-4c87-9b9c-0fa6f0b11187","ios":"levelo://app?vid=e4e0215d-305f-4c87-9b9c-0fa6f0b11187"},"vehicle_type_id":"4","last_reported":1757938829,"current_range_meters":11200,"station_id":"ce4bgjh2rcd13ifvqbg0","pricing_plan_id":"cebpf4jnsgd1na2vs0mg"},{"bike_id":"138a4cc6-0fc2-4c05-b087-29106e6d0053","system_id":"levelo_inurba_marseille","lat":43.28423,"lon":5.34987,"is_reserved":false,"is_disabled":false,"rental_uris":{"android":"levelo://app?vid=138a4cc6-0fc2-4c05-b087-29106e6d0053","ios":"levelo://app?vid=138a4cc6-0fc2-4c05-b087-29106e6d0053"},"vehicle_type_id":"4","last_reported":1757938829,"current_range_meters":11200,"station_id":"ce4bhbh2rcd13ifvqepg","pricing_plan_id":"cebpf4jnsgd1na2vs0mg"},{"bike_id":"a28e65a6-2eb0-4a0e-bd0b-93aa7d1cbc37","system_id":"levelo_inurba_marseille","lat":43.28853,"lon":5.39306,"is_reserved":false,"is_disabled":false,"rental_uris":{"android":"levelo://app?vid=a28e65a6-2eb0-4a0e-bd0b-93aa7d1cbc37","ios":"levelo://app?vid=a28e65a6-2eb0-4a0e-bd0b-93aa7d1cbc37"},"vehicle_type_id":"4","last_reported":1757938829,"current_range_meters":11200,"station_id":"ce4bh2p2rcd13ifvqdi0","pricing_plan_id":"cebpf4jnsgd1na2vs0mg"},{"bike_id":"fd35efd0-bf23-41ab-bb9b-8b090ddcbe6c","system_id":"levelo_inurba_marseille","lat":43.29634,"lon":5.40596,"is_reserved":false,"is_disabled":false,"rental_uris":{"android":"levelo://app?vid=fd35efd0-bf23-41ab-bb9b-8b090ddcbe6c","ios":"levelo://app?vid=fd35efd0-bf23-41ab-bb9b-8b090ddcbe6c"},"vehicle_type_id":"4","last_reported":1757938829,"current_range_meters":10800,"station_id":"ce4bh0h2rcd13ifvqd60","pricing_plan_id":"cebpf4jnsgd1na2vs0mg"},{"bike_id":"17115347-e9d9-428b-9766-7afed2bc3dbd","system_id":"levelo_inurba_marseille","lat":43.27057,"lon":5.42274,"is_reserved":false,"is_disabled":false,"rental_uris":{"android":"levelo://app?vid=17115347-e9d9-428b-9766-7afed2bc3dbd","ios":"levelo://app?vid=17115347-e9d9-428b-9766-7afed2bc3dbd"},"vehicle_type_id":"4","last_reported":1757938829,"current_range_meters":11600,"station_id":"ce4bhk92rcd13ifvqgb0","pricing_plan_id":"cebpf4jnsgd1na2vs0mg"},{"bike_id":"b2fba456-5a3b-40c6-8765-ad84661db187","system_id":"levelo_inurba_marseille","lat":43.257205,"lon":5.411136,"is_reserved":false,"is_disabled":false,"rental_uris":{"android":"levelo://app?vid=b2fba456-5a3b-40c6-8765-ad84661db187","ios":"levelo://app?vid=b2fba456-5a3b-40c6-8765-ad84661db187"},"vehicle_type_id":"4","last_reported":1757938829,"current_range_meters":11600,"station_id":"ce4bhkp2rcd13ifvqgd0","pricing_plan_id":"cebpf4jnsgd1na2vs0mg"},{"bike_id":"97706d3f-f9d6-47c3-953b-bd71c07a3fc3","system_id":"levelo_inurba_marseille","lat":43.25927,"lon":5.40896,"is_reserved":false,"is_disabled":false,"rental_uris":{"android":"levelo://app?vid=97706d3f-f9d6-47c3-953b-bd71c07a3fc3","ios":"levelo://app?vid=97706d3f-f9d6-47c3-953b-bd71c07a3fc3"},"vehicle_type_id":"4","last_reported":1757938829,"current_range_meters":11600,"station_id":"ce4bhm92rcd13ifvqglg","pricing_plan_id":"cebpf4jnsgd1na2vs0mg"},{"bike_id":"57127154-7e15-4346-89ed-ab9d76ef9c2c","system_id":"levelo_inurba_marseille","lat":43.28838,"lon":5.36326,"is_reserved":false,"is_disabled":false,"rental_uris":{"android":"levelo://app?vid=57127154-7e15-4346-89ed-ab9d76ef9c2c","ios":"levelo://app?vid=57127154-7e15-4346-89ed-ab9d76ef9c2c"},"vehicle_type_id":"4","last_reported":1757938829,"current_range_meters":11600,"station_id":"","pricing_plan_id":"cebpf4jnsgd1na2vs0mg"},{"bike_id":"61e06c0a-0c83-4376-8896-d6b79449f3d4","system_id":"levelo_inurba_marseille","lat":43.26041,"lon":5.37543,"is_reserved":false,"is_disabled":false,"rental_uris":{"android":"levelo://app?vid=61e06c0a-0c83-4376-8896-d6b79449f3d4","ios":"levelo://app?vid=61e06c0a-0c83-4376-8896-d6b79449f3d4"},"vehicle_type_id":"4","last_reported":1757938829,"current_range_meters":12000,"station_id":"ce4bhgh2rcd13ifvqfa0","pricing_plan_id":"cebpf4jnsgd1na2vs0mg"},{"bike_id":"e7a329bd-ed66-4ac7-aaba-63f2810ddd86","system_id":"levelo_inurba_marseille","lat":43.31859,"lon":5.37206,"is_reserved":false,"is_disabled":true,"rental_uris":{"android":"levelo://app?vid=e7a329bd-ed66-4ac7-aaba-63f2810ddd86","ios":"levelo://app?vid=e7a329bd-ed66-4ac7-aaba-63f2810ddd86"},"vehicle_type_id":"4","last_reported":1757938829,"current_range_meters":12000,"station_id":"","pricing_plan_id":"cebpf4jnsgd1na2vs0mg"},{"bike_id":"a8114c8c-f815-4cdf-801b-31ff18cfe54f","system_id":"levelo_inurba_marseille","lat":43.30233,"lon":5.36912,"is_reserved":false,"is_disabled":false,"rental_uris":{"android":"levelo://app?vid=a8114c8c-f815-4cdf-801b-31ff18cfe54f","ios":"levelo://app?vid=a8114c8c-f815-4cdf-801b-31ff18cfe54f"},"vehicle_type_id":"4","last_reported":1757938829,"current_range_meters":12000,"station_id":"","pricing_plan_id":"cebpf4jnsgd1na2vs0mg"},{"bike_id":"8d428476-019f-44c0-8478-70de72b747fd","system_id":"levelo_inurba_marseille","lat":43.25586,"lon":5.38222,"is_reserved":false,"is_disabled":false,"rental_uris":{"android":"levelo://app?vid=8d428476-019f-44c0-8478-70de72b747fd","ios":"levelo://app?vid=8d428476-019f-44c0-8478-70de72b747fd"},"vehicle_type_id":"4","last_reported":1757938829,"current_range_meters":12000,"station_id":"ce4bhih2rcd13ifvqfs0","pricing_plan_id":"cebpf4jnsgd1na2vs0mg"},{"bike_id":"944ea2a6-5bea-4d9a-970b-669091a09825","system_id":"levelo_inurba_marseille","lat":43.30541,"lon":5.36531,"is_reserved":false,"is_disabled":false,"rental_uris":{"android":"levelo://app?vid=944ea2a6-5bea-4d9a-970b-669091a09825","ios":"levelo://app?vid=944ea2a6-5bea-4d9a-970b-669091a09825"},"vehicle_type_id":"4","last_reported":1757938829,"current_range_meters":12000,"station_id":"ce4bgs12rcd13ifvqcag","pricing_plan_id":"cebpf4jnsgd1na2vs0mg"},{"bike_id":"31554027-ac7d-4553-b17d-61fe12c91324","system_id":"levelo_inurba_marseille","lat":43.29044,"lon":5.39973,"is_reserved":false,"is_disabled":false,"rental_uris":{"android":"levelo://app?vid=31554027-ac7d-4553-b17d-61fe12c91324","ios":"levelo://app?vid=31554027-ac7d-4553-b17d-61fe12c91324"},"vehicle_type_id":"4","last_reported":1757938829,"current_range_meters":12400,"station_id":"ce4bh392rcd13ifvqdm0","pricing_plan_id":"cebpf4jnsgd1na2vs0mg"},{"bike_id":"44e4f993-415f-4ed7-a74b-425d8c222583","system_id":"levelo_inurba_marseille","lat":43.30148,"lon":5.37402,"is_reserved":false,"is_disabled":false,"rental_uris":{"android":"levelo://app?vid=44e4f993-415f-4ed7-a74b-425d8c222583","ios":"levelo://app?vid=44e4f993-415f-4ed7-a74b-425d8c222583"},"vehicle_type_id":"4","last_reported":1757938829,"current_range_meters":12400,"station_id":"ce4bgs92rcd13ifvqcc0","pricing_plan_id":"cebpf4jnsgd1na2vs0mg"},{"bike_id":"a4a48d3b-35b3-4c21-829e-fac0dc0c2c33","system_id":"levelo_inurba_marseille","lat":43.29277,"lon":5.40116,"is_reserved":false,"is_disabled":false,"rental_uris":{"android":"levelo://app?vid=a4a48d3b-35b3-4c21-829e-fac0dc0c2c33","ios":"levelo://app?vid=a4a48d3b-35b3-4c21-829e-fac0dc0c2c33"},"vehicle_type_id":"4","last_reported":1757938829,"current_range_meters":12400,"station_id":"ce4bh312rcd13ifvqdk0","pricing_plan_id":"cebpf4jnsgd1na2vs0mg"},{"bike_id":"644e970d-033e-4acc-85a9-678a3669ae7f","system_id":"levelo_inurba_marseille","lat":43.301788,"lon":5.366365,"is_reserved":false,"is_disabled":false,"rental_uris":{"android":"levelo://app?vid=644e970d-033e-4acc-85a9-678a3669ae7f","ios":"levelo://app?vid=644e970d-033e-4acc-85a9-678a3669ae7f"},"vehicle_type_id":"4","last_reported":1757938829,"current_range_meters":12400,"station_id":"ce4bgrh2rcd13ifvqc8g","pricing_plan_id":"cebpf4jnsgd1na2vs0mg"},{"bike_id":"f6aa962f-7a6b-4327-afd1-5a98aecab21c","system_id":"levelo_inurba_marseille","lat":43.28417,"lon":5.34986,"is_reserved":false,"is_disabled":false,"rental_uris":{"android":"levelo://app?vid=f6aa962f-7a6b-4327-afd1-5a98aecab21c","ios":"levelo://app?vid=f6aa962f-7a6b-4327-afd1-5a98aecab21c"},"vehicle_type_id":"4","last_reported":1757938829,"current_range_meters":12400,"station_id":"ce4bhbh2rcd13ifvqepg","pricing_plan_id":"cebpf4jnsgd1na2vs0mg"},{"bike_id":"30d92779-838e-460b-bf7a-6371f6646707","system_id":"levelo_inurba_marseille","lat":43.21197,"lon":5.35069,"is_reserved":false,"is_disabled":true,"rental_uris":{"android":"levelo://app?vid=30d92779-838e-460b-bf7a-6371f6646707","ios":"levelo://app?vid=30d92779-838e-460b-bf7a-6371f6646707"},"vehicle_type_id":"4","last_reported":1757938829,"current_range_meters":12400,"station_id":"","pricing_plan_id":"cebpf4jnsgd1na2vs0mg"},{"bike_id":"03a632f1-6cf9-48d9-8d0d-cdc6b623de20","system_id":"levelo_inurba_marseille","lat":43.25935,"lon":5.40908,"is_reserved":false,"is_disabled":false,"rental_uris":{"android":"levelo://app?vid=03a632f1-6cf9-48d9-8d0d-cdc6b623de20","ios":"levelo://app?vid=03a632f1-6cf9-48d9-8d0d-cdc6b623de20"},"vehicle_type_id":"4","last_reported":1757938829,"current_range_meters":12400,"station_id":"ce4bhm92rcd13ifvqglg","pricing_plan_id":"cebpf4jnsgd1na2vs0mg"},{"bike_id":"65b94250-e8b6-420e-8f5e-2359bfe54aad","system_id":"levelo_inurba_marseille","lat":43.2811,"lon":5.37843,"is_reserved":false,"is_disabled":false,"rental_uris":{"android":"levelo://app?vid=65b94250-e8b6-420e-8f5e-2359bfe54aad","ios":"levelo://app?vid=65b94250-e8b6-420e-8f5e-2359bfe54aad"},"vehicle_type_id":"4","last_reported":1757938829,"current_range_meters":12400,"station_id":"ce4bha12rcd13ifvqee0","pricing_plan_id":"cebpf4jnsgd1na2vs0mg"},{"bike_id":"0c6fe877-1024-4901-84e8-0fbaefe45584","system_id":"levelo_inurba_marseille","lat":43.33422,"lon":5.40054,"is_reserved":false,"is_disabled":false,"rental_uris":{"android":"levelo://app?vid=0c6fe877-1024-4901-84e8-0fbaefe45584","ios":"levelo://app?vid=0c6fe877-1024-4901-84e8-0fbaefe45584"},"vehicle_type_id":"4","last_reported":1757938829,"current_range_meters":12800,"station_id":"","pricing_plan_id":"cebpf4jnsgd1na2vs0mg"},{"bike_id":"83147e21-1248-46bb-9a1b-40fe7620ffc3","system_id":"levelo_inurba_marseille","lat":43.29771,"lon":5.37934,"is_reserved":false,"is_disabled":false,"rental_uris":{"android":"levelo://app?vid=83147e21-1248-46bb-9a1b-40fe7620ffc3","ios":"levelo://app?vid=83147e21-1248-46bb-9a1b-40fe7620ffc3"},"vehicle_type_id":"4","last_reported":1757938829,"current_range_meters":12800,"station_id":"","pricing_plan_id":"cebpf4jnsgd1na2vs0mg"},{"bike_id":"322c1f5a-85db-4ef6-bcd4-1b5c417c8ee0","system_id":"levelo_inurba_marseille","lat":43.3377,"lon":5.37488,"is_reserved":false,"is_disabled":false,"rental_uris":{"android":"levelo://app?vid=322c1f5a-85db-4ef6-bcd4-1b5c417c8ee0","ios":"levelo://app?vid=322c1f5a-85db-4ef6-bcd4-1b5c417c8ee0"},"vehicle_type_id":"4","last_reported":1757938829,"current_range_meters":12800,"station_id":"","pricing_plan_id":"cebpf4jnsgd1na2vs0mg"},{"bike_id":"60df5be0-868d-496d-a7cc-2e097de1a47a","system_id":"levelo_inurba_marseille","lat":43.22566,"lon":5.41633,"is_reserved":false,"is_disabled":false,"rental_uris":{"android":"levelo://app?vid=60df5be0-868d-496d-a7cc-2e097de1a47a","ios":"levelo://app?vid=60df5be0-868d-496d-a7cc-2e097de1a47a"},"vehicle_type_id":"4","last_reported":1757938829,"current_range_meters":12800,"station_id":"st_d2o4gvlbi1j2169b742g","pricing_plan_id":"cebpf4jnsgd1na2vs0mg"},{"bike_id":"a5780ec2-b6b0-4add-805f-61f0d1c6be75","system_id":"levelo_inurba_marseille","lat":43.28273,"lon":5.35061,"is_reserved":false,"is_disabled":false,"rental_uris":{"android":"levelo://app?vid=a5780ec2-b6b0-4add-805f-61f0d1c6be75","ios":"levelo://app?vid=a5780ec2-b6b0-4add-805f-61f0d1c6be75"},"vehicle_type_id":"4","last_reported":1757938829,"current_range_meters":12800,"station_id":"ce4bhbp2rcd13ifvqerg","pricing_plan_id":"cebpf4jnsgd1na2vs0mg"},{"bike_id":"47439f6f-9f59-4013-8bb1-93e4699cfe3d","system_id":"levelo_inurba_marseille","lat":43.305234,"lon":5.367294,"is_reserved":false,"is_disabled":false,"rental_uris":{"android":"levelo://app?vid=47439f6f-9f59-4013-8bb1-93e4699cfe3d","ios":"levelo://app?vid=47439f6f-9f59-4013-8bb1-93e4699cfe3d"},"vehicle_type_id":"4","last_reported":1757938829,"current_range_meters":12400,"station_id":"ce4bgrp2rcd13ifvqc9g","pricing_plan_id":"cebpf4jnsgd1na2vs0mg"},{"bike_id":"fc5f83b4-c579-43a1-916f-2f8aba47da38","system_id":"levelo_inurba_marseille","lat":43.23159,"lon":5.43709,"is_reserved":false,"is_disabled":false,"rental_uris":{"android":"levelo://app?vid=fc5f83b4-c579-43a1-916f-2f8aba47da38","ios":"levelo://app?vid=fc5f83b4-c579-43a1-916f-2f8aba47da38"},"vehicle_type_id":"4","last_reported":1757938829,"current_range_meters":12800,"station_id":"ce4bhmp2rcd13ifvqgog","pricing_plan_id":"cebpf4jnsgd1na2vs0mg"},{"bike_id":"f6acb8f6-8010-47c2-bf3b-6ae09237d545","system_id":"levelo_inurba_marseille","lat":43.30307,"lon":5.39209,"is_reserved":false,"is_disabled":false,"rental_uris":{"android":"levelo://app?vid=f6acb8f6-8010-47c2-bf3b-6ae09237d545","ios":"levelo://app?vid=f6acb8f6-8010-47c2-bf3b-6ae09237d545"},"vehicle_type_id":"4","last_reported":1757938829,"current_range_meters":12800,"station_id":"ce4bgkh2rcd13ifvqbk0","pricing_plan_id":"cebpf4jnsgd1na2vs0mg"},{"bike_id":"3a61c128-4643-430a-8155-6f36d90747cb","system_id":"levelo_inurba_marseille","lat":43.239594,"lon":5.366434,"is_reserved":false,"is_disabled":false,"rental_uris":{"android":"levelo://app?vid=3a61c128-4643-430a-8155-6f36d90747cb","ios":"levelo://app?vid=3a61c128-4643-430a-8155-6f36d90747cb"},"vehicle_type_id":"4","last_reported":1757938829,"current_range_meters":13600,"station_id":"ce4bhi12rcd13ifvqfp0","pricing_plan_id":"cebpf4jnsgd1na2vs0mg"},{"bike_id":"184c75ba-a2ae-4bc5-b888-4c430b804879","system_id":"levelo_inurba_marseille","lat":43.28428,"lon":5.34961,"is_reserved":false,"is_disabled":false,"rental_uris":{"android":"levelo://app?vid=184c75ba-a2ae-4bc5-b888-4c430b804879","ios":"levelo://app?vid=184c75ba-a2ae-4bc5-b888-4c430b804879"},"vehicle_type_id":"4","last_reported":1757938829,"current_range_meters":13600,"station_id":"ce4bhbh2rcd13ifvqepg","pricing_plan_id":"cebpf4jnsgd1na2vs0mg"},{"bike_id":"a0af35ec-39e3-4a19-916f-7c9c3c487e0d","system_id":"levelo_inurba_marseille","lat":43.3051,"lon":5.36547,"is_reserved":false,"is_disabled":false,"rental_uris":{"android":"levelo://app?vid=a0af35ec-39e3-4a19-916f-7c9c3c487e0d","ios":"levelo://app?vid=a0af35ec-39e3-4a19-916f-7c9c3c487e0d"},"vehicle_type_id":"4","last_reported":1757938829,"current_range_meters":14000,"station_id":"","pricing_plan_id":"cebpf4jnsgd1na2vs0mg"},{"bike_id":"fd78db3d-4867-408c-adac-32888fda54c1","system_id":"levelo_inurba_marseille","lat":43.31476,"lon":5.37267,"is_reserved":false,"is_disabled":false,"rental_uris":{"android":"levelo://app?vid=fd78db3d-4867-408c-adac-32888fda54c1","ios":"levelo://app?vid=fd78db3d-4867-408c-adac-32888fda54c1"},"vehicle_type_id":"4","last_reported":1757938829,"current_range_meters":13600,"station_id":"ce4bgt12rcd13ifvqcd0","pricing_plan_id":"cebpf4jnsgd1na2vs0mg"},{"bike_id":"a3452e01-8c9f-4576-9347-e3f0ca59100d","system_id":"levelo_inurba_marseille","lat":43.30253,"lon":5.4005,"is_reserved":false,"is_disabled":false,"rental_uris":{"android":"levelo://app?vid=a3452e01-8c9f-4576-9347-e3f0ca59100d","ios":"levelo://app?vid=a3452e01-8c9f-4576-9347-e3f0ca59100d"},"vehicle_type_id":"4","last_reported":1757938829,"current_range_meters":14000,"station_id":"ce4bgvh2rcd13ifvqcs0","pricing_plan_id":"cebpf4jnsgd1na2vs0mg"},{"bike_id":"9b9a6aca-d8ba-4892-a70c-a46cb142c2a2","system_id":"levelo_inurba_marseille","lat":43.31353,"lon":5.36675,"is_reserved":false,"is_disabled":false,"rental_uris":{"android":"levelo://app?vid=9b9a6aca-d8ba-4892-a70c-a46cb142c2a2","ios":"levelo://app?vid=9b9a6aca-d8ba-4892-a70c-a46cb142c2a2"},"vehicle_type_id":"4","last_reported":1757938829,"current_range_meters":14000,"station_id":"ce4bgr92rcd13ifvqc6g","pricing_plan_id":"cebpf4jnsgd1na2vs0mg"},{"bike_id":"821525af-7d59-4e35-bcab-b82446360c6e","system_id":"levelo_inurba_marseille","lat":43.27968,"lon":5.38747,"is_reserved":false,"is_disabled":false,"rental_uris":{"android":"levelo://app?vid=821525af-7d59-4e35-bcab-b82446360c6e","ios":"levelo://app?vid=821525af-7d59-4e35-bcab-b82446360c6e"},"vehicle_type_id":"4","last_reported":1757938829,"current_range_meters":14000,"station_id":"ce4bhg12rcd13ifvqf80","pricing_plan_id":"cebpf4jnsgd1na2vs0mg"},{"bike_id":"11db3053-67a4-4671-901b-bb6f7a3aa562","system_id":"levelo_inurba_marseille","lat":43.286997,"lon":5.399782,"is_reserved":false,"is_disabled":false,"rental_uris":{"android":"levelo://app?vid=11db3053-67a4-4671-901b-bb6f7a3aa562","ios":"levelo://app?vid=11db3053-67a4-4671-901b-bb6f7a3aa562"},"vehicle_type_id":"4","last_reported":1757938829,"current_range_meters":14000,"station_id":"ce4bho92rcd13ifvqh3g","pricing_plan_id":"cebpf4jnsgd1na2vs0mg"},{"bike_id":"c66044b3-d4c0-4015-93ea-121a50f076d7","system_id":"levelo_inurba_marseille","lat":43.26694,"lon":5.38257,"is_reserved":false,"is_disabled":false,"rental_uris":{"android":"levelo://app?vid=c66044b3-d4c0-4015-93ea-121a50f076d7","ios":"levelo://app?vid=c66044b3-d4c0-4015-93ea-121a50f076d7"},"vehicle_type_id":"4","last_reported":1757938829,"current_range_meters":14000,"station_id":"ce4bhg92rcd13ifvqf90","pricing_plan_id":"cebpf4jnsgd1na2vs0mg"},{"bike_id":"d27a3574-c668-415b-ad3b-c0a1e10e6cf4","system_id":"levelo_inurba_marseille","lat":43.337444,"lon":5.374475,"is_reserved":false,"is_disabled":false,"rental_uris":{"android":"levelo://app?vid=d27a3574-c668-415b-ad3b-c0a1e10e6cf4","ios":"levelo://app?vid=d27a3574-c668-415b-ad3b-c0a1e10e6cf4"},"vehicle_type_id":"4","last_reported":1757938829,"current_range_meters":14000,"station_id":"","pricing_plan_id":"cebpf4jnsgd1na2vs0mg"},{"bike_id":"a9f0aa48-0ba5-4fec-8105-e95e69cd373c","system_id":"levelo_inurba_marseille","lat":43.26211,"lon":5.37445,"is_reserved":false,"is_disabled":false,"rental_uris":{"android":"levelo://app?vid=a9f0aa48-0ba5-4fec-8105-e95e69cd373c","ios":"levelo://app?vid=a9f0aa48-0ba5-4fec-8105-e95e69cd373c"},"vehicle_type_id":"4","last_reported":1757938829,"current_range_meters":14400,"station_id":"ce4bhgp2rcd13ifvqfc0","pricing_plan_id":"cebpf4jnsgd1na2vs0mg"},{"bike_id":"354803e4-5879-4aeb-b4ea-e35421599887","system_id":"levelo_inurba_marseille","lat":43.27506,"lon":5.42451,"is_reserved":false,"is_disabled":false,"rental_uris":{"android":"levelo://app?vid=354803e4-5879-4aeb-b4ea-e35421599887","ios":"levelo://app?vid=354803e4-5879-4aeb-b4ea-e35421599887"},"vehicle_type_id":"4","last_reported":1757938829,"current_range_meters":14400,"station_id":"ce4bhn92rcd13ifvqgrg","pricing_plan_id":"cebpf4jnsgd1na2vs0mg"},{"bike_id":"4155038c-e417-41d1-af44-05570514e2f6","system_id":"levelo_inurba_marseille","lat":43.29803,"lon":5.38083,"is_reserved":false,"is_disabled":false,"rental_uris":{"android":"levelo://app?vid=4155038c-e417-41d1-af44-05570514e2f6","ios":"levelo://app?vid=4155038c-e417-41d1-af44-05570514e2f6"},"vehicle_type_id":"4","last_reported":1757938829,"current_range_meters":14400,"station_id":"ce4bgip2rcd13ifvqbb0","pricing_plan_id":"cebpf4jnsgd1na2vs0mg"},{"bike_id":"088693c6-0a9a-45c3-b85d-0b3971b1e68f","system_id":"levelo_inurba_marseille","lat":43.305576,"lon":5.365329,"is_reserved":false,"is_disabled":false,"rental_uris":{"android":"levelo://app?vid=088693c6-0a9a-45c3-b85d-0b3971b1e68f","ios":"levelo://app?vid=088693c6-0a9a-45c3-b85d-0b3971b1e68f"},"vehicle_type_id":"4","last_reported":1757938829,"current_range_meters":14400,"station_id":"ce4bgs12rcd13ifvqcag","pricing_plan_id":"cebpf4jnsgd1na2vs0mg"},{"bike_id":"b1c8806b-ed67-4b50-abf6-55ff38a3547e","system_id":"levelo_inurba_marseille","lat":43.31359,"lon":5.38496,"is_reserved":false,"is_disabled":false,"rental_uris":{"android":"levelo://app?vid=b1c8806b-ed67-4b50-abf6-55ff38a3547e","ios":"levelo://app?vid=b1c8806b-ed67-4b50-abf6-55ff38a3547e"},"vehicle_type_id":"4","last_reported":1757938829,"current_range_meters":14400,"station_id":"ce4bgt92rcd13ifvqcf0","pricing_plan_id":"cebpf4jnsgd1na2vs0mg"},{"bike_id":"41de12a2-5382-4da2-9751-1300a8df4dc1","system_id":"levelo_inurba_marseille","lat":43.22559,"lon":5.41627,"is_reserved":false,"is_disabled":false,"rental_uris":{"android":"levelo://app?vid=41de12a2-5382-4da2-9751-1300a8df4dc1","ios":"levelo://app?vid=41de12a2-5382-4da2-9751-1300a8df4dc1"},"vehicle_type_id":"4","last_reported":1757938829,"current_range_meters":14400,"station_id":"st_d2o4gvlbi1j2169b742g","pricing_plan_id":"cebpf4jnsgd1na2vs0mg"},{"bike_id":"a155e67d-bec0-4326-ae57-c035ef5e1c81","system_id":"levelo_inurba_marseille","lat":43.299052,"lon":5.436716,"is_reserved":false,"is_disabled":false,"rental_uris":{"android":"levelo://app?vid=a155e67d-bec0-4326-ae57-c035ef5e1c81","ios":"levelo://app?vid=a155e67d-bec0-4326-ae57-c035ef5e1c81"},"vehicle_type_id":"4","last_reported":1757938829,"current_range_meters":14800,"station_id":"ce4bhpp2rcd13ifvqhfg","pricing_plan_id":"cebpf4jnsgd1na2vs0mg"},{"bike_id":"d352386b-fa38-41d4-a418-05ab678845a6","system_id":"levelo_inurba_marseille","lat":43.28229,"lon":5.39045,"is_reserved":false,"is_disabled":false,"rental_uris":{"android":"levelo://app?vid=d352386b-fa38-41d4-a418-05ab678845a6","ios":"levelo://app?vid=d352386b-fa38-41d4-a418-05ab678845a6"},"vehicle_type_id":"4","last_reported":1757938829,"current_range_meters":14800,"station_id":"ce4bhn92rcd13ifvqgsg","pricing_plan_id":"cebpf4jnsgd1na2vs0mg"},{"bike_id":"f7c56a48-db06-4ee3-9b90-45854a625eac","system_id":"levelo_inurba_marseille","lat":43.25928,"lon":5.40881,"is_reserved":false,"is_disabled":false,"rental_uris":{"android":"levelo://app?vid=f7c56a48-db06-4ee3-9b90-45854a625eac","ios":"levelo://app?vid=f7c56a48-db06-4ee3-9b90-45854a625eac"},"vehicle_type_id":"4","last_reported":1757938829,"current_range_meters":14800,"station_id":"ce4bhm92rcd13ifvqglg","pricing_plan_id":"cebpf4jnsgd1na2vs0mg"},{"bike_id":"c07e7a2d-d8a6-4efd-8723-e965be4d1a74","system_id":"levelo_inurba_marseille","lat":43.21744,"lon":5.34608,"is_reserved":false,"is_disabled":false,"rental_uris":{"android":"levelo://app?vid=c07e7a2d-d8a6-4efd-8723-e965be4d1a74","ios":"levelo://app?vid=c07e7a2d-d8a6-4efd-8723-e965be4d1a74"},"vehicle_type_id":"4","last_reported":1757938829,"current_range_meters":14800,"station_id":"st_cvj6r9ubvosntc0bgbag","pricing_plan_id":"cebpf4jnsgd1na2vs0mg"},{"bike_id":"b3c26a34-b3c7-46a6-a86f-6a20bc0fe30f","system_id":"levelo_inurba_marseille","lat":43.22937,"lon":5.3538,"is_reserved":false,"is_disabled":false,"rental_uris":{"android":"levelo://app?vid=b3c26a34-b3c7-46a6-a86f-6a20bc0fe30f","ios":"levelo://app?vid=b3c26a34-b3c7-46a6-a86f-6a20bc0fe30f"},"vehicle_type_id":"4","last_reported":1757938829,"current_range_meters":14800,"station_id":"cpo3532slgdg3j2ikp40","pricing_plan_id":"cebpf4jnsgd1na2vs0mg"},{"bike_id":"e824d254-16a6-4ae4-983a-05af083f4c81","system_id":"levelo_inurba_marseille","lat":43.21749,"lon":5.34604,"is_reserved":false,"is_disabled":false,"rental_uris":{"android":"levelo://app?vid=e824d254-16a6-4ae4-983a-05af083f4c81","ios":"levelo://app?vid=e824d254-16a6-4ae4-983a-05af083f4c81"},"vehicle_type_id":"4","last_reported":1757938829,"current_range_meters":15200,"station_id":"st_cvj6r9ubvosntc0bgbag","pricing_plan_id":"cebpf4jnsgd1na2vs0mg"},{"bike_id":"7c6d9800-27e8-47df-92b4-cde9f7ee2987","system_id":"levelo_inurba_marseille","lat":43.25085,"lon":5.39514,"is_reserved":false,"is_disabled":false,"rental_uris":{"android":"levelo://app?vid=7c6d9800-27e8-47df-92b4-cde9f7ee2987","ios":"levelo://app?vid=7c6d9800-27e8-47df-92b4-cde9f7ee2987"},"vehicle_type_id":"4","last_reported":1757938829,"current_range_meters":15200,"station_id":"ce4bhm12rcd13ifvqgkg","pricing_plan_id":"cebpf4jnsgd1na2vs0mg"},{"bike_id":"81dcbb8c-d191-4de5-9ce4-85e75339afb2","system_id":"levelo_inurba_marseille","lat":43.25504,"lon":5.37651,"is_reserved":false,"is_disabled":false,"rental_uris":{"android":"levelo://app?vid=81dcbb8c-d191-4de5-9ce4-85e75339afb2","ios":"levelo://app?vid=81dcbb8c-d191-4de5-9ce4-85e75339afb2"},"vehicle_type_id":"4","last_reported":1757938829,"current_range_meters":15200,"station_id":"ce4bhh12rcd13ifvqff0","pricing_plan_id":"cebpf4jnsgd1na2vs0mg"},{"bike_id":"428910aa-8429-4f4f-a442-e6b1962e86a6","system_id":"levelo_inurba_marseille","lat":43.28265,"lon":5.35072,"is_reserved":false,"is_disabled":false,"rental_uris":{"android":"levelo://app?vid=428910aa-8429-4f4f-a442-e6b1962e86a6","ios":"levelo://app?vid=428910aa-8429-4f4f-a442-e6b1962e86a6"},"vehicle_type_id":"4","last_reported":1757938829,"current_range_meters":16000,"station_id":"ce4bhbp2rcd13ifvqerg","pricing_plan_id":"cebpf4jnsgd1na2vs0mg"},{"bike_id":"3c6e2e25-9bc2-444e-a645-33351fa8a730","system_id":"levelo_inurba_marseille","lat":43.23129,"lon":5.43664,"is_reserved":false,"is_disabled":false,"rental_uris":{"android":"levelo://app?vid=3c6e2e25-9bc2-444e-a645-33351fa8a730","ios":"levelo://app?vid=3c6e2e25-9bc2-444e-a645-33351fa8a730"},"vehicle_type_id":"4","last_reported":1757938829,"current_range_meters":16000,"station_id":"ce4bhmp2rcd13ifvqgog","pricing_plan_id":"cebpf4jnsgd1na2vs0mg"},{"bike_id":"d73ebff0-d957-41dc-a638-29b88edc4926","system_id":"levelo_inurba_marseille","lat":43.22568,"lon":5.41636,"is_reserved":false,"is_disabled":false,"rental_uris":{"android":"levelo://app?vid=d73ebff0-d957-41dc-a638-29b88edc4926","ios":"levelo://app?vid=d73ebff0-d957-41dc-a638-29b88edc4926"},"vehicle_type_id":"4","last_reported":1757938829,"current_range_meters":16000,"station_id":"st_d2o4gvlbi1j2169b742g","pricing_plan_id":"cebpf4jnsgd1na2vs0mg"},{"bike_id":"7f6bbc40-be55-44e2-bc07-15054787079b","system_id":"levelo_inurba_marseille","lat":43.27496,"lon":5.42449,"is_reserved":false,"is_disabled":false,"rental_uris":{"android":"levelo://app?vid=7f6bbc40-be55-44e2-bc07-15054787079b","ios":"levelo://app?vid=7f6bbc40-be55-44e2-bc07-15054787079b"},"vehicle_type_id":"4","last_reported":1757938829,"current_range_meters":16000,"station_id":"ce4bhn92rcd13ifvqgrg","pricing_plan_id":"cebpf4jnsgd1na2vs0mg"},{"bike_id":"ea4693de-86b3-41b2-926a-c1ac20480be1","system_id":"levelo_inurba_marseille","lat":43.31352,"lon":5.3672,"is_reserved":false,"is_disabled":false,"rental_uris":{"android":"levelo://app?vid=ea4693de-86b3-41b2-926a-c1ac20480be1","ios":"levelo://app?vid=ea4693de-86b3-41b2-926a-c1ac20480be1"},"vehicle_type_id":"4","last_reported":1757938829,"current_range_meters":16000,"station_id":"ce4bgr92rcd13ifvqc6g","pricing_plan_id":"cebpf4jnsgd1na2vs0mg"},{"bike_id":"8c57de1f-4e42-44e8-a3c1-02da1c987a94","system_id":"levelo_inurba_marseille","lat":43.28941,"lon":5.36407,"is_reserved":false,"is_disabled":false,"rental_uris":{"android":"levelo://app?vid=8c57de1f-4e42-44e8-a3c1-02da1c987a94","ios":"levelo://app?vid=8c57de1f-4e42-44e8-a3c1-02da1c987a94"},"vehicle_type_id":"4","last_reported":1757938829,"current_range_meters":16000,"station_id":"ce4bhc92rcd13ifvqetg","pricing_plan_id":"cebpf4jnsgd1na2vs0mg"},{"bike_id":"96849cce-ed9b-412a-ade8-b102ee407dd5","system_id":"levelo_inurba_marseille","lat":43.27496,"lon":5.42449,"is_reserved":false,"is_disabled":false,"rental_uris":{"android":"levelo://app?vid=96849cce-ed9b-412a-ade8-b102ee407dd5","ios":"levelo://app?vid=96849cce-ed9b-412a-ade8-b102ee407dd5"},"vehicle_type_id":"4","last_reported":1757938829,"current_range_meters":16000,"station_id":"ce4bhn92rcd13ifvqgrg","pricing_plan_id":"cebpf4jnsgd1na2vs0mg"},{"bike_id":"a333d9ec-a9a7-4617-ac2f-4224c0d88af6","system_id":"levelo_inurba_marseille","lat":43.27496,"lon":5.4246,"is_reserved":false,"is_disabled":false,"rental_uris":{"android":"levelo://app?vid=a333d9ec-a9a7-4617-ac2f-4224c0d88af6","ios":"levelo://app?vid=a333d9ec-a9a7-4617-ac2f-4224c0d88af6"},"vehicle_type_id":"4","last_reported":1757938829,"current_range_meters":16000,"station_id":"ce4bhn92rcd13ifvqgrg","pricing_plan_id":"cebpf4jnsgd1na2vs0mg"},{"bike_id":"c8cf71ab-2cba-487d-b0aa-fba68c18bfaa","system_id":"levelo_inurba_marseille","lat":43.274962,"lon":5.424519,"is_reserved":false,"is_disabled":false,"rental_uris":{"android":"levelo://app?vid=c8cf71ab-2cba-487d-b0aa-fba68c18bfaa","ios":"levelo://app?vid=c8cf71ab-2cba-487d-b0aa-fba68c18bfaa"},"vehicle_type_id":"4","last_reported":1757938829,"current_range_meters":16400,"station_id":"ce4bhn92rcd13ifvqgrg","pricing_plan_id":"cebpf4jnsgd1na2vs0mg"},{"bike_id":"13a349dd-bc28-4e1d-b513-b22a61d84b91","system_id":"levelo_inurba_marseille","lat":43.21749,"lon":5.34603,"is_reserved":false,"is_disabled":false,"rental_uris":{"android":"levelo://app?vid=13a349dd-bc28-4e1d-b513-b22a61d84b91","ios":"levelo://app?vid=13a349dd-bc28-4e1d-b513-b22a61d84b91"},"vehicle_type_id":"4","last_reported":1757938829,"current_range_meters":16400,"station_id":"st_cvj6r9ubvosntc0bgbag","pricing_plan_id":"cebpf4jnsgd1na2vs0mg"},{"bike_id":"8ef8bf7d-8a91-4724-8c2e-ddeef723e28a","system_id":"levelo_inurba_marseille","lat":43.27057,"lon":5.37904,"is_reserved":false,"is_disabled":false,"rental_uris":{"android":"levelo://app?vid=8ef8bf7d-8a91-4724-8c2e-ddeef723e28a","ios":"levelo://app?vid=8ef8bf7d-8a91-4724-8c2e-ddeef723e28a"},"vehicle_type_id":"4","last_reported":1757938829,"current_range_meters":16400,"station_id":"","pricing_plan_id":"cebpf4jnsgd1na2vs0mg"},{"bike_id":"7c51ab33-80bf-4cfe-9dcf-b520865e4e13","system_id":"levelo_inurba_marseille","lat":43.23155,"lon":5.43704,"is_reserved":false,"is_disabled":false,"rental_uris":{"android":"levelo://app?vid=7c51ab33-80bf-4cfe-9dcf-b520865e4e13","ios":"levelo://app?vid=7c51ab33-80bf-4cfe-9dcf-b520865e4e13"},"vehicle_type_id":"4","last_reported":1757938829,"current_range_meters":16400,"station_id":"ce4bhmp2rcd13ifvqgog","pricing_plan_id":"cebpf4jnsgd1na2vs0mg"},{"bike_id":"4d0da910-152b-448e-9786-b400d7fabfca","system_id":"levelo_inurba_marseille","lat":43.29216,"lon":5.36055,"is_reserved":false,"is_disabled":false,"rental_uris":{"android":"levelo://app?vid=4d0da910-152b-448e-9786-b400d7fabfca","ios":"levelo://app?vid=4d0da910-152b-448e-9786-b400d7fabfca"},"vehicle_type_id":"4","last_reported":1757938829,"current_range_meters":16400,"station_id":"ce4bhbh2rcd13ifvqeqg","pricing_plan_id":"cebpf4jnsgd1na2vs0mg"},{"bike_id":"bcbe7a5e-7784-4d13-96dc-77fd6597b4e4","system_id":"levelo_inurba_marseille","lat":43.21197,"lon":5.35074,"is_reserved":false,"is_disabled":true,"rental_uris":{"android":"levelo://app?vid=bcbe7a5e-7784-4d13-96dc-77fd6597b4e4","ios":"levelo://app?vid=bcbe7a5e-7784-4d13-96dc-77fd6597b4e4"},"vehicle_type_id":"4","last_reported":1757938829,"current_range_meters":16400,"station_id":"","pricing_plan_id":"cebpf4jnsgd1na2vs0mg"},{"bike_id":"061da85e-c883-4dd5-9115-0e54f3608182","system_id":"levelo_inurba_marseille","lat":43.2509,"lon":5.39511,"is_reserved":false,"is_disabled":false,"rental_uris":{"android":"levelo://app?vid=061da85e-c883-4dd5-9115-0e54f3608182","ios":"levelo://app?vid=061da85e-c883-4dd5-9115-0e54f3608182"},"vehicle_type_id":"4","last_reported":1757938829,"current_range_meters":16800,"station_id":"ce4bhm12rcd13ifvqgkg","pricing_plan_id":"cebpf4jnsgd1na2vs0mg"},{"bike_id":"4926c775-e893-4c85-97de-c04ecf3c7713","system_id":"levelo_inurba_marseille","lat":43.27069,"lon":5.42275,"is_reserved":false,"is_disabled":false,"rental_uris":{"android":"levelo://app?vid=4926c775-e893-4c85-97de-c04ecf3c7713","ios":"levelo://app?vid=4926c775-e893-4c85-97de-c04ecf3c7713"},"vehicle_type_id":"4","last_reported":1757938829,"current_range_meters":16800,"station_id":"ce4bhk92rcd13ifvqgb0","pricing_plan_id":"cebpf4jnsgd1na2vs0mg"},{"bike_id":"5c20679f-6b15-4249-9e77-5faa6f6be122","system_id":"levelo_inurba_marseille","lat":43.288404,"lon":5.360888,"is_reserved":false,"is_disabled":false,"rental_uris":{"android":"levelo://app?vid=5c20679f-6b15-4249-9e77-5faa6f6be122","ios":"levelo://app?vid=5c20679f-6b15-4249-9e77-5faa6f6be122"},"vehicle_type_id":"4","last_reported":1757938829,"current_range_meters":16800,"station_id":"cki0cbj6b192h4jlfktg","pricing_plan_id":"cebpf4jnsgd1na2vs0mg"},{"bike_id":"b575a595-f932-4230-9ca7-6937f4a43d90","system_id":"levelo_inurba_marseille","lat":43.21742,"lon":5.34602,"is_reserved":false,"is_disabled":false,"rental_uris":{"android":"levelo://app?vid=b575a595-f932-4230-9ca7-6937f4a43d90","ios":"levelo://app?vid=b575a595-f932-4230-9ca7-6937f4a43d90"},"vehicle_type_id":"4","last_reported":1757938829,"current_range_meters":16800,"station_id":"st_cvj6r9ubvosntc0bgbag","pricing_plan_id":"cebpf4jnsgd1na2vs0mg"},{"bike_id":"1dc49266-a82c-4bf1-a6ca-13044a197eb5","system_id":"levelo_inurba_marseille","lat":43.2903,"lon":5.35662,"is_reserved":false,"is_disabled":false,"rental_uris":{"android":"levelo://app?vid=1dc49266-a82c-4bf1-a6ca-13044a197eb5","ios":"levelo://app?vid=1dc49266-a82c-4bf1-a6ca-13044a197eb5"},"vehicle_type_id":"4","last_reported":1757938829,"current_range_meters":16800,"station_id":"","pricing_plan_id":"cebpf4jnsgd1na2vs0mg"},{"bike_id":"3b00473d-3d18-4529-b64e-5f55f88e43e3","system_id":"levelo_inurba_marseille","lat":43.28418,"lon":5.34977,"is_reserved":false,"is_disabled":false,"rental_uris":{"android":"levelo://app?vid=3b00473d-3d18-4529-b64e-5f55f88e43e3","ios":"levelo://app?vid=3b00473d-3d18-4529-b64e-5f55f88e43e3"},"vehicle_type_id":"4","last_reported":1757938829,"current_range_meters":16800,"station_id":"ce4bhbh2rcd13ifvqepg","pricing_plan_id":"cebpf4jnsgd1na2vs0mg"},{"bike_id":"3dbaea07-3afd-403d-8367-7bfa92596a01","system_id":"levelo_inurba_marseille","lat":43.21748,"lon":5.34607,"is_reserved":false,"is_disabled":false,"rental_uris":{"android":"levelo://app?vid=3dbaea07-3afd-403d-8367-7bfa92596a01","ios":"levelo://app?vid=3dbaea07-3afd-403d-8367-7bfa92596a01"},"vehicle_type_id":"4","last_reported":1757938829,"current_range_meters":16800,"station_id":"st_cvj6r9ubvosntc0bgbag","pricing_plan_id":"cebpf4jnsgd1na2vs0mg"},{"bike_id":"1149282a-e6fb-400c-a9a6-162323377006","system_id":"levelo_inurba_marseille","lat":43.33983,"lon":5.37248,"is_reserved":false,"is_disabled":false,"rental_uris":{"android":"levelo://app?vid=1149282a-e6fb-400c-a9a6-162323377006","ios":"levelo://app?vid=1149282a-e6fb-400c-a9a6-162323377006"},"vehicle_type_id":"4","last_reported":1757938829,"current_range_meters":16800,"station_id":"","pricing_plan_id":"cebpf4jnsgd1na2vs0mg"},{"bike_id":"0665a94b-b79e-4f7a-9d6b-725bc773208c","system_id":"levelo_inurba_marseille","lat":43.27506,"lon":5.42459,"is_reserved":false,"is_disabled":false,"rental_uris":{"android":"levelo://app?vid=0665a94b-b79e-4f7a-9d6b-725bc773208c","ios":"levelo://app?vid=0665a94b-b79e-4f7a-9d6b-725bc773208c"},"vehicle_type_id":"4","last_reported":1757938829,"current_range_meters":16800,"station_id":"","pricing_plan_id":"cebpf4jnsgd1na2vs0mg"},{"bike_id":"32fe9c6f-4185-4786-8ddb-755a57c1365a","system_id":"levelo_inurba_marseille","lat":43.30134,"lon":5.38787,"is_reserved":false,"is_disabled":false,"rental_uris":{"android":"levelo://app?vid=32fe9c6f-4185-4786-8ddb-755a57c1365a","ios":"levelo://app?vid=32fe9c6f-4185-4786-8ddb-755a57c1365a"},"vehicle_type_id":"4","last_reported":1757938829,"current_range_meters":17200,"station_id":"ce4bghh2rcd13ifvqb60","pricing_plan_id":"cebpf4jnsgd1na2vs0mg"},{"bike_id":"5d5b51f8-15be-4825-804c-c2485c6a00ac","system_id":"levelo_inurba_marseille","lat":43.25947,"lon":5.40922,"is_reserved":false,"is_disabled":false,"rental_uris":{"android":"levelo://app?vid=5d5b51f8-15be-4825-804c-c2485c6a00ac","ios":"levelo://app?vid=5d5b51f8-15be-4825-804c-c2485c6a00ac"},"vehicle_type_id":"4","last_reported":1757938829,"current_range_meters":17200,"station_id":"ce4bhm92rcd13ifvqglg","pricing_plan_id":"cebpf4jnsgd1na2vs0mg"},{"bike_id":"9240cde8-b960-4ef6-a600-8b3785aacb47","system_id":"levelo_inurba_marseille","lat":43.27322,"lon":5.39114,"is_reserved":false,"is_disabled":false,"rental_uris":{"android":"levelo://app?vid=9240cde8-b960-4ef6-a600-8b3785aacb47","ios":"levelo://app?vid=9240cde8-b960-4ef6-a600-8b3785aacb47"},"vehicle_type_id":"4","last_reported":1757938829,"current_range_meters":17200,"station_id":"ce4bhgp2rcd13ifvqfe0","pricing_plan_id":"cebpf4jnsgd1na2vs0mg"},{"bike_id":"9b241eb1-4527-42c4-98ae-eb4c7afb09f6","system_id":"levelo_inurba_marseille","lat":43.299147,"lon":5.38155,"is_reserved":false,"is_disabled":false,"rental_uris":{"android":"levelo://app?vid=9b241eb1-4527-42c4-98ae-eb4c7afb09f6","ios":"levelo://app?vid=9b241eb1-4527-42c4-98ae-eb4c7afb09f6"},"vehicle_type_id":"4","last_reported":1757938829,"current_range_meters":16800,"station_id":"ce4bgj12rcd13ifvqbc0","pricing_plan_id":"cebpf4jnsgd1na2vs0mg"},{"bike_id":"a73fb388-b834-4afc-b9c9-f1c01a61d03e","system_id":"levelo_inurba_marseille","lat":43.29606,"lon":5.37723,"is_reserved":false,"is_disabled":false,"rental_uris":{"android":"levelo://app?vid=a73fb388-b834-4afc-b9c9-f1c01a61d03e","ios":"levelo://app?vid=a73fb388-b834-4afc-b9c9-f1c01a61d03e"},"vehicle_type_id":"4","last_reported":1757938829,"current_range_meters":17200,"station_id":"ce4bgi92rcd13ifvqb90","pricing_plan_id":"cebpf4jnsgd1na2vs0mg"},{"bike_id":"931c4c11-bdf3-4891-84c4-0cb66249217d","system_id":"levelo_inurba_marseille","lat":43.29054,"lon":5.39996,"is_reserved":false,"is_disabled":false,"rental_uris":{"android":"levelo://app?vid=931c4c11-bdf3-4891-84c4-0cb66249217d","ios":"levelo://app?vid=931c4c11-bdf3-4891-84c4-0cb66249217d"},"vehicle_type_id":"4","last_reported":1757938829,"current_range_meters":17200,"station_id":"ce4bh392rcd13ifvqdm0","pricing_plan_id":"cebpf4jnsgd1na2vs0mg"},{"bike_id":"2b7ddb0e-e31e-4e08-9c65-69101906d275","system_id":"levelo_inurba_marseille","lat":43.25335,"lon":5.42165,"is_reserved":false,"is_disabled":false,"rental_uris":{"android":"levelo://app?vid=2b7ddb0e-e31e-4e08-9c65-69101906d275","ios":"levelo://app?vid=2b7ddb0e-e31e-4e08-9c65-69101906d275"},"vehicle_type_id":"4","last_reported":1757938829,"current_range_meters":17200,"station_id":"st_d2m65c5bi1j21697t3ng","pricing_plan_id":"cebpf4jnsgd1na2vs0mg"},{"bike_id":"86498cd4-390e-45e7-8df3-bdcb42833daa","system_id":"levelo_inurba_marseille","lat":43.24079,"lon":5.37765,"is_reserved":false,"is_disabled":false,"rental_uris":{"android":"levelo://app?vid=86498cd4-390e-45e7-8df3-bdcb42833daa","ios":"levelo://app?vid=86498cd4-390e-45e7-8df3-bdcb42833daa"},"vehicle_type_id":"4","last_reported":1757938829,"current_range_meters":16800,"station_id":"ce4bhnp2rcd13ifvqgvg","pricing_plan_id":"cebpf4jnsgd1na2vs0mg"},{"bike_id":"0c4bc6b9-ba0c-4be2-9714-6f544a0928ba","system_id":"levelo_inurba_marseille","lat":43.27503,"lon":5.42445,"is_reserved":false,"is_disabled":false,"rental_uris":{"android":"levelo://app?vid=0c4bc6b9-ba0c-4be2-9714-6f544a0928ba","ios":"levelo://app?vid=0c4bc6b9-ba0c-4be2-9714-6f544a0928ba"},"vehicle_type_id":"4","last_reported":1757938829,"current_range_meters":17200,"station_id":"ce4bhn92rcd13ifvqgrg","pricing_plan_id":"cebpf4jnsgd1na2vs0mg"},{"bike_id":"d7e78b8f-8d28-4616-a0d8-e50eb6d6b403","system_id":"levelo_inurba_marseille","lat":43.29825,"lon":5.38082,"is_reserved":false,"is_disabled":false,"rental_uris":{"android":"levelo://app?vid=d7e78b8f-8d28-4616-a0d8-e50eb6d6b403","ios":"levelo://app?vid=d7e78b8f-8d28-4616-a0d8-e50eb6d6b403"},"vehicle_type_id":"4","last_reported":1757938829,"current_range_meters":17600,"station_id":"ce4bgip2rcd13ifvqbb0","pricing_plan_id":"cebpf4jnsgd1na2vs0mg"},{"bike_id":"28527c0b-107f-45f0-a033-b74526605a69","system_id":"levelo_inurba_marseille","lat":43.27207,"lon":5.39192,"is_reserved":false,"is_disabled":false,"rental_uris":{"android":"levelo://app?vid=28527c0b-107f-45f0-a033-b74526605a69","ios":"levelo://app?vid=28527c0b-107f-45f0-a033-b74526605a69"},"vehicle_type_id":"4","last_reported":1757938829,"current_range_meters":17600,"station_id":"ce4bhhp2rcd13ifvqfm0","pricing_plan_id":"cebpf4jnsgd1na2vs0mg"},{"bike_id":"e73470b2-f46f-4f87-989f-53f8372e4317","system_id":"levelo_inurba_marseille","lat":43.339027,"lon":5.39156,"is_reserved":false,"is_disabled":false,"rental_uris":{"android":"levelo://app?vid=e73470b2-f46f-4f87-989f-53f8372e4317","ios":"levelo://app?vid=e73470b2-f46f-4f87-989f-53f8372e4317"},"vehicle_type_id":"4","last_reported":1757938829,"current_range_meters":17600,"station_id":"","pricing_plan_id":"cebpf4jnsgd1na2vs0mg"},{"bike_id":"c4051c11-1f83-4e1f-a87e-359e06917b23","system_id":"levelo_inurba_marseille","lat":43.24652,"lon":5.38897,"is_reserved":false,"is_disabled":false,"rental_uris":{"android":"levelo://app?vid=c4051c11-1f83-4e1f-a87e-359e06917b23","ios":"levelo://app?vid=c4051c11-1f83-4e1f-a87e-359e06917b23"},"vehicle_type_id":"4","last_reported":1757938829,"current_range_meters":17600,"station_id":"ce4bhg12rcd13ifvqf60","pricing_plan_id":"cebpf4jnsgd1na2vs0mg"},{"bike_id":"4fd1c216-e4cd-40d4-bac5-bd7a225b3c2e","system_id":"levelo_inurba_marseille","lat":43.29097,"lon":5.38317,"is_reserved":false,"is_disabled":false,"rental_uris":{"android":"levelo://app?vid=4fd1c216-e4cd-40d4-bac5-bd7a225b3c2e","ios":"levelo://app?vid=4fd1c216-e4cd-40d4-bac5-bd7a225b3c2e"},"vehicle_type_id":"4","last_reported":1757938829,"current_range_meters":18000,"station_id":"","pricing_plan_id":"cebpf4jnsgd1na2vs0mg"},{"bike_id":"a99076be-7bb8-4e0f-a330-e47b32cc797a","system_id":"levelo_inurba_marseille","lat":43.29215,"lon":5.360567,"is_reserved":false,"is_disabled":true,"rental_uris":{"android":"levelo://app?vid=a99076be-7bb8-4e0f-a330-e47b32cc797a","ios":"levelo://app?vid=a99076be-7bb8-4e0f-a330-e47b32cc797a"},"vehicle_type_id":"4","last_reported":1757938829,"current_range_meters":18000,"station_id":"ce4bhbh2rcd13ifvqeqg","pricing_plan_id":"cebpf4jnsgd1na2vs0mg"},{"bike_id":"54141777-283e-4259-8e15-61569f176b06","system_id":"levelo_inurba_marseille","lat":43.28417,"lon":5.34987,"is_reserved":false,"is_disabled":false,"rental_uris":{"android":"levelo://app?vid=54141777-283e-4259-8e15-61569f176b06","ios":"levelo://app?vid=54141777-283e-4259-8e15-61569f176b06"},"vehicle_type_id":"4","last_reported":1757938829,"current_range_meters":18000,"station_id":"ce4bhbh2rcd13ifvqepg","pricing_plan_id":"cebpf4jnsgd1na2vs0mg"},{"bike_id":"7dc89c00-bbe9-44a4-85f5-5c4da73aea2d","system_id":"levelo_inurba_marseille","lat":43.21736,"lon":5.34564,"is_reserved":false,"is_disabled":false,"rental_uris":{"android":"levelo://app?vid=7dc89c00-bbe9-44a4-85f5-5c4da73aea2d","ios":"levelo://app?vid=7dc89c00-bbe9-44a4-85f5-5c4da73aea2d"},"vehicle_type_id":"4","last_reported":1757938829,"current_range_meters":18000,"station_id":"st_cvj6r9ubvosntc0bgbag","pricing_plan_id":"cebpf4jnsgd1na2vs0mg"},{"bike_id":"96ee9b57-cff5-4252-a08f-6a37cf344cd3","system_id":"levelo_inurba_marseille","lat":43.270833,"lon":5.422746,"is_reserved":false,"is_disabled":false,"rental_uris":{"android":"levelo://app?vid=96ee9b57-cff5-4252-a08f-6a37cf344cd3","ios":"levelo://app?vid=96ee9b57-cff5-4252-a08f-6a37cf344cd3"},"vehicle_type_id":"4","last_reported":1757938829,"current_range_meters":18000,"station_id":"ce4bhk92rcd13ifvqgb0","pricing_plan_id":"cebpf4jnsgd1na2vs0mg"},{"bike_id":"9d8c6b38-96a4-415e-b93d-4f99713e2f8e","system_id":"levelo_inurba_marseille","lat":43.31071,"lon":5.38362,"is_reserved":false,"is_disabled":false,"rental_uris":{"android":"levelo://app?vid=9d8c6b38-96a4-415e-b93d-4f99713e2f8e","ios":"levelo://app?vid=9d8c6b38-96a4-415e-b93d-4f99713e2f8e"},"vehicle_type_id":"4","last_reported":1757938829,"current_range_meters":18000,"station_id":"ce4bgv92rcd13ifvqcr0","pricing_plan_id":"cebpf4jnsgd1na2vs0mg"},{"bike_id":"976a0d28-cac1-409e-9c54-686e01b7c2eb","system_id":"levelo_inurba_marseille","lat":43.22568,"lon":5.41625,"is_reserved":false,"is_disabled":false,"rental_uris":{"android":"levelo://app?vid=976a0d28-cac1-409e-9c54-686e01b7c2eb","ios":"levelo://app?vid=976a0d28-cac1-409e-9c54-686e01b7c2eb"},"vehicle_type_id":"4","last_reported":1757938829,"current_range_meters":18000,"station_id":"st_d2o4gvlbi1j2169b742g","pricing_plan_id":"cebpf4jnsgd1na2vs0mg"},{"bike_id":"0c451dfc-35a5-482d-9ac6-fa3d922a2820","system_id":"levelo_inurba_marseille","lat":43.26962,"lon":5.38622,"is_reserved":false,"is_disabled":false,"rental_uris":{"android":"levelo://app?vid=0c451dfc-35a5-482d-9ac6-fa3d922a2820","ios":"levelo://app?vid=0c451dfc-35a5-482d-9ac6-fa3d922a2820"},"vehicle_type_id":"4","last_reported":1757938829,"current_range_meters":18000,"station_id":"ce4bhh92rcd13ifvqfh0","pricing_plan_id":"cebpf4jnsgd1na2vs0mg"},{"bike_id":"68ac0881-e8e5-4039-b7e7-2a83e68b4878","system_id":"levelo_inurba_marseille","lat":43.29785,"lon":5.38108,"is_reserved":false,"is_disabled":false,"rental_uris":{"android":"levelo://app?vid=68ac0881-e8e5-4039-b7e7-2a83e68b4878","ios":"levelo://app?vid=68ac0881-e8e5-4039-b7e7-2a83e68b4878"},"vehicle_type_id":"4","last_reported":1757938829,"current_range_meters":18000,"station_id":"ce4bgip2rcd13ifvqbb0","pricing_plan_id":"cebpf4jnsgd1na2vs0mg"},{"bike_id":"bb76d17e-f8e9-4121-a9f9-345cc5d94c47","system_id":"levelo_inurba_marseille","lat":43.28729,"lon":5.37936,"is_reserved":false,"is_disabled":false,"rental_uris":{"android":"levelo://app?vid=bb76d17e-f8e9-4121-a9f9-345cc5d94c47","ios":"levelo://app?vid=bb76d17e-f8e9-4121-a9f9-345cc5d94c47"},"vehicle_type_id":"4","last_reported":1757938829,"current_range_meters":18000,"station_id":"ce4bh9p2rcd13ifvqec0","pricing_plan_id":"cebpf4jnsgd1na2vs0mg"},{"bike_id":"78c4d63e-ddd9-4dbd-9a54-6d3e729398f2","system_id":"levelo_inurba_marseille","lat":43.31344,"lon":5.36706,"is_reserved":false,"is_disabled":false,"rental_uris":{"android":"levelo://app?vid=78c4d63e-ddd9-4dbd-9a54-6d3e729398f2","ios":"levelo://app?vid=78c4d63e-ddd9-4dbd-9a54-6d3e729398f2"},"vehicle_type_id":"4","last_reported":1757938829,"current_range_meters":18000,"station_id":"ce4bgr92rcd13ifvqc6g","pricing_plan_id":"cebpf4jnsgd1na2vs0mg"},{"bike_id":"2fcdb9ac-d24f-486b-97a0-b41ffce3b0b1","system_id":"levelo_inurba_marseille","lat":43.30461,"lon":5.37912,"is_reserved":false,"is_disabled":false,"rental_uris":{"android":"levelo://app?vid=2fcdb9ac-d24f-486b-97a0-b41ffce3b0b1","ios":"levelo://app?vid=2fcdb9ac-d24f-486b-97a0-b41ffce3b0b1"},"vehicle_type_id":"4","last_reported":1757938829,"current_range_meters":18000,"station_id":"ce4bgup2rcd13ifvqcn0","pricing_plan_id":"cebpf4jnsgd1na2vs0mg"},{"bike_id":"cd82f834-95e0-4b4e-9ee2-ebfc63fe6dae","system_id":"levelo_inurba_marseille","lat":43.2963,"lon":5.37724,"is_reserved":false,"is_disabled":false,"rental_uris":{"android":"levelo://app?vid=cd82f834-95e0-4b4e-9ee2-ebfc63fe6dae","ios":"levelo://app?vid=cd82f834-95e0-4b4e-9ee2-ebfc63fe6dae"},"vehicle_type_id":"4","last_reported":1757938829,"current_range_meters":18000,"station_id":"ce4bgi92rcd13ifvqb90","pricing_plan_id":"cebpf4jnsgd1na2vs0mg"},{"bike_id":"769f5263-3012-4ef1-ac63-60c854dda2db","system_id":"levelo_inurba_marseille","lat":43.27499,"lon":5.42495,"is_reserved":false,"is_disabled":false,"rental_uris":{"android":"levelo://app?vid=769f5263-3012-4ef1-ac63-60c854dda2db","ios":"levelo://app?vid=769f5263-3012-4ef1-ac63-60c854dda2db"},"vehicle_type_id":"4","last_reported":1757938829,"current_range_meters":18000,"station_id":"ce4bhn92rcd13ifvqgrg","pricing_plan_id":"cebpf4jnsgd1na2vs0mg"},{"bike_id":"1e154cef-fb44-49fe-92bf-21cf06203d43","system_id":"levelo_inurba_marseille","lat":43.29542,"lon":5.37506,"is_reserved":false,"is_disabled":false,"rental_uris":{"android":"levelo://app?vid=1e154cef-fb44-49fe-92bf-21cf06203d43","ios":"levelo://app?vid=1e154cef-fb44-49fe-92bf-21cf06203d43"},"vehicle_type_id":"4","last_reported":1757938829,"current_range_meters":18000,"station_id":"ce4bgkp2rcd13ifvqbmg","pricing_plan_id":"cebpf4jnsgd1na2vs0mg"},{"bike_id":"7e6890af-770a-4f9e-9143-19fd68102349","system_id":"levelo_inurba_marseille","lat":43.28937,"lon":5.36643,"is_reserved":false,"is_disabled":false,"rental_uris":{"android":"levelo://app?vid=7e6890af-770a-4f9e-9143-19fd68102349","ios":"levelo://app?vid=7e6890af-770a-4f9e-9143-19fd68102349"},"vehicle_type_id":"4","last_reported":1757938829,"current_range_meters":18000,"station_id":"ce4bhap2rcd13ifvqek0","pricing_plan_id":"cebpf4jnsgd1na2vs0mg"},{"bike_id":"921ff5bf-eb9d-4b59-9c86-c405e972b901","system_id":"levelo_inurba_marseille","lat":43.259224,"lon":5.408881,"is_reserved":false,"is_disabled":false,"rental_uris":{"android":"levelo://app?vid=921ff5bf-eb9d-4b59-9c86-c405e972b901","ios":"levelo://app?vid=921ff5bf-eb9d-4b59-9c86-c405e972b901"},"vehicle_type_id":"4","last_reported":1757938829,"current_range_meters":18000,"station_id":"ce4bhm92rcd13ifvqglg","pricing_plan_id":"cebpf4jnsgd1na2vs0mg"},{"bike_id":"0ec22504-4f53-4a7d-8664-2802d447c65f","system_id":"levelo_inurba_marseille","lat":43.21785,"lon":5.34578,"is_reserved":false,"is_disabled":false,"rental_uris":{"android":"levelo://app?vid=0ec22504-4f53-4a7d-8664-2802d447c65f","ios":"levelo://app?vid=0ec22504-4f53-4a7d-8664-2802d447c65f"},"vehicle_type_id":"4","last_reported":1757938829,"current_range_meters":18000,"station_id":"","pricing_plan_id":"cebpf4jnsgd1na2vs0mg"},{"bike_id":"9b164fdd-aba2-40a1-93c6-cae35ccea301","system_id":"levelo_inurba_marseille","lat":43.29797,"lon":5.38088,"is_reserved":false,"is_disabled":false,"rental_uris":{"android":"levelo://app?vid=9b164fdd-aba2-40a1-93c6-cae35ccea301","ios":"levelo://app?vid=9b164fdd-aba2-40a1-93c6-cae35ccea301"},"vehicle_type_id":"4","last_reported":1757938829,"current_range_meters":18000,"station_id":"ce4bgip2rcd13ifvqbb0","pricing_plan_id":"cebpf4jnsgd1na2vs0mg"},{"bike_id":"d06d078b-9778-4fb3-a0a3-697b3db6db6c","system_id":"levelo_inurba_marseille","lat":43.22934,"lon":5.35372,"is_reserved":false,"is_disabled":false,"rental_uris":{"android":"levelo://app?vid=d06d078b-9778-4fb3-a0a3-697b3db6db6c","ios":"levelo://app?vid=d06d078b-9778-4fb3-a0a3-697b3db6db6c"},"vehicle_type_id":"4","last_reported":1757938829,"current_range_meters":18800,"station_id":"cpo3532slgdg3j2ikp40","pricing_plan_id":"cebpf4jnsgd1na2vs0mg"},{"bike_id":"55bb4097-5945-43c3-9523-e1a26d231a0c","system_id":"levelo_inurba_marseille","lat":43.26204,"lon":5.3745,"is_reserved":false,"is_disabled":false,"rental_uris":{"android":"levelo://app?vid=55bb4097-5945-43c3-9523-e1a26d231a0c","ios":"levelo://app?vid=55bb4097-5945-43c3-9523-e1a26d231a0c"},"vehicle_type_id":"4","last_reported":1757938829,"current_range_meters":18800,"station_id":"ce4bhgp2rcd13ifvqfc0","pricing_plan_id":"cebpf4jnsgd1na2vs0mg"},{"bike_id":"0aab8f84-22ec-4406-afcc-62d49bc45533","system_id":"levelo_inurba_marseille","lat":43.27611,"lon":5.36113,"is_reserved":false,"is_disabled":false,"rental_uris":{"android":"levelo://app?vid=0aab8f84-22ec-4406-afcc-62d49bc45533","ios":"levelo://app?vid=0aab8f84-22ec-4406-afcc-62d49bc45533"},"vehicle_type_id":"4","last_reported":1757938829,"current_range_meters":18800,"station_id":"ce4bgj92rcd13ifvqbe0","pricing_plan_id":"cebpf4jnsgd1na2vs0mg"},{"bike_id":"aa57e526-5f5c-4592-be59-9f1fb7af4549","system_id":"levelo_inurba_marseille","lat":43.32101,"lon":5.3677,"is_reserved":false,"is_disabled":false,"rental_uris":{"android":"levelo://app?vid=aa57e526-5f5c-4592-be59-9f1fb7af4549","ios":"levelo://app?vid=aa57e526-5f5c-4592-be59-9f1fb7af4549"},"vehicle_type_id":"4","last_reported":1757938829,"current_range_meters":18800,"station_id":"ce4bhrh2rcd13ifvqhug","pricing_plan_id":"cebpf4jnsgd1na2vs0mg"},{"bike_id":"a2207526-f478-4f65-85e4-9a97cdcd57f3","system_id":"levelo_inurba_marseille","lat":43.27491,"lon":5.42461,"is_reserved":false,"is_disabled":false,"rental_uris":{"android":"levelo://app?vid=a2207526-f478-4f65-85e4-9a97cdcd57f3","ios":"levelo://app?vid=a2207526-f478-4f65-85e4-9a97cdcd57f3"},"vehicle_type_id":"4","last_reported":1757938829,"current_range_meters":18800,"station_id":"ce4bhn92rcd13ifvqgrg","pricing_plan_id":"cebpf4jnsgd1na2vs0mg"},{"bike_id":"14e0f9c0-5b49-4864-95b8-a8369a70d4e7","system_id":"levelo_inurba_marseille","lat":43.32542,"lon":5.41434,"is_reserved":false,"is_disabled":false,"rental_uris":{"android":"levelo://app?vid=14e0f9c0-5b49-4864-95b8-a8369a70d4e7","ios":"levelo://app?vid=14e0f9c0-5b49-4864-95b8-a8369a70d4e7"},"vehicle_type_id":"4","last_reported":1757938829,"current_range_meters":18000,"station_id":"ce4bhq12rcd13ifvqhhg","pricing_plan_id":"cebpf4jnsgd1na2vs0mg"},{"bike_id":"9f03ecca-31f7-4479-af01-adbb1998d3e9","system_id":"levelo_inurba_marseille","lat":43.23145,"lon":5.43726,"is_reserved":false,"is_disabled":false,"rental_uris":{"android":"levelo://app?vid=9f03ecca-31f7-4479-af01-adbb1998d3e9","ios":"levelo://app?vid=9f03ecca-31f7-4479-af01-adbb1998d3e9"},"vehicle_type_id":"4","last_reported":1757938829,"current_range_meters":18800,"station_id":"ce4bhmp2rcd13ifvqgog","pricing_plan_id":"cebpf4jnsgd1na2vs0mg"},{"bike_id":"b1182963-b9c4-4fff-b950-e76aa9d44dff","system_id":"levelo_inurba_marseille","lat":43.25937,"lon":5.40908,"is_reserved":false,"is_disabled":false,"rental_uris":{"android":"levelo://app?vid=b1182963-b9c4-4fff-b950-e76aa9d44dff","ios":"levelo://app?vid=b1182963-b9c4-4fff-b950-e76aa9d44dff"},"vehicle_type_id":"4","last_reported":1757938829,"current_range_meters":18800,"station_id":"ce4bhm92rcd13ifvqglg","pricing_plan_id":"cebpf4jnsgd1na2vs0mg"},{"bike_id":"7401f904-c7a5-4420-9a38-b32c76084c39","system_id":"levelo_inurba_marseille","lat":43.28277,"lon":5.3506,"is_reserved":false,"is_disabled":true,"rental_uris":{"android":"levelo://app?vid=7401f904-c7a5-4420-9a38-b32c76084c39","ios":"levelo://app?vid=7401f904-c7a5-4420-9a38-b32c76084c39"},"vehicle_type_id":"4","last_reported":1757938829,"current_range_meters":18800,"station_id":"ce4bhbp2rcd13ifvqerg","pricing_plan_id":"cebpf4jnsgd1na2vs0mg"},{"bike_id":"3b26aa0d-3679-4b4c-9b55-1096f6d08a9d","system_id":"levelo_inurba_marseille","lat":43.31287,"lon":5.39401,"is_reserved":false,"is_disabled":false,"rental_uris":{"android":"levelo://app?vid=3b26aa0d-3679-4b4c-9b55-1096f6d08a9d","ios":"levelo://app?vid=3b26aa0d-3679-4b4c-9b55-1096f6d08a9d"},"vehicle_type_id":"4","last_reported":1757938829,"current_range_meters":18800,"station_id":"","pricing_plan_id":"cebpf4jnsgd1na2vs0mg"},{"bike_id":"511f6c29-3390-4042-b48e-75a4d61a54e0","system_id":"levelo_inurba_marseille","lat":43.320299,"lon":5.367571,"is_reserved":false,"is_disabled":false,"rental_uris":{"android":"levelo://app?vid=511f6c29-3390-4042-b48e-75a4d61a54e0","ios":"levelo://app?vid=511f6c29-3390-4042-b48e-75a4d61a54e0"},"vehicle_type_id":"4","last_reported":1757938829,"current_range_meters":18800,"station_id":"","pricing_plan_id":"cebpf4jnsgd1na2vs0mg"},{"bike_id":"086fb8d9-2e67-4ea1-b211-49fd642ab461","system_id":"levelo_inurba_marseille","lat":43.28429,"lon":5.34996,"is_reserved":false,"is_disabled":false,"rental_uris":{"android":"levelo://app?vid=086fb8d9-2e67-4ea1-b211-49fd642ab461","ios":"levelo://app?vid=086fb8d9-2e67-4ea1-b211-49fd642ab461"},"vehicle_type_id":"4","last_reported":1757938829,"current_range_meters":18800,"station_id":"ce4bhbh2rcd13ifvqepg","pricing_plan_id":"cebpf4jnsgd1na2vs0mg"},{"bike_id":"e6b4cb53-1a15-40a2-a39e-a61ed23159a5","system_id":"levelo_inurba_marseille","lat":43.23147,"lon":5.43719,"is_reserved":false,"is_disabled":false,"rental_uris":{"android":"levelo://app?vid=e6b4cb53-1a15-40a2-a39e-a61ed23159a5","ios":"levelo://app?vid=e6b4cb53-1a15-40a2-a39e-a61ed23159a5"},"vehicle_type_id":"4","last_reported":1757938829,"current_range_meters":18800,"station_id":"ce4bhmp2rcd13ifvqgog","pricing_plan_id":"cebpf4jnsgd1na2vs0mg"},{"bike_id":"eb7cc917-6832-4011-8ed0-0ea12e66e244","system_id":"levelo_inurba_marseille","lat":43.324588,"lon":5.365521,"is_reserved":false,"is_disabled":false,"rental_uris":{"android":"levelo://app?vid=eb7cc917-6832-4011-8ed0-0ea12e66e244","ios":"levelo://app?vid=eb7cc917-6832-4011-8ed0-0ea12e66e244"},"vehicle_type_id":"4","last_reported":1757938829,"current_range_meters":19200,"station_id":"ce4bhs12rcd13ifvqhvg","pricing_plan_id":"cebpf4jnsgd1na2vs0mg"},{"bike_id":"34e28511-daa3-4532-b356-9c589f08e632","system_id":"levelo_inurba_marseille","lat":43.26953,"lon":5.38623,"is_reserved":false,"is_disabled":false,"rental_uris":{"android":"levelo://app?vid=34e28511-daa3-4532-b356-9c589f08e632","ios":"levelo://app?vid=34e28511-daa3-4532-b356-9c589f08e632"},"vehicle_type_id":"4","last_reported":1757938829,"current_range_meters":19200,"station_id":"ce4bhh92rcd13ifvqfh0","pricing_plan_id":"cebpf4jnsgd1na2vs0mg"},{"bike_id":"a039b4d7-b0bb-4927-9b79-7693532af88c","system_id":"levelo_inurba_marseille","lat":43.32364,"lon":5.3677,"is_reserved":false,"is_disabled":false,"rental_uris":{"android":"levelo://app?vid=a039b4d7-b0bb-4927-9b79-7693532af88c","ios":"levelo://app?vid=a039b4d7-b0bb-4927-9b79-7693532af88c"},"vehicle_type_id":"4","last_reported":1757938829,"current_range_meters":19200,"station_id":"ce4bhsh2rcd13ifvqi2g","pricing_plan_id":"cebpf4jnsgd1na2vs0mg"},{"bike_id":"3e201b28-7d35-4b51-b95a-4d31f130ff49","system_id":"levelo_inurba_marseille","lat":43.24805,"lon":5.37455,"is_reserved":false,"is_disabled":false,"rental_uris":{"android":"levelo://app?vid=3e201b28-7d35-4b51-b95a-4d31f130ff49","ios":"levelo://app?vid=3e201b28-7d35-4b51-b95a-4d31f130ff49"},"vehicle_type_id":"4","last_reported":1757938829,"current_range_meters":18800,"station_id":"ce4bhgh2rcd13ifvqfb0","pricing_plan_id":"cebpf4jnsgd1na2vs0mg"},{"bike_id":"13b6a164-da8f-4dda-8732-93b4a68eb989","system_id":"levelo_inurba_marseille","lat":43.30193,"lon":5.36628,"is_reserved":false,"is_disabled":false,"rental_uris":{"android":"levelo://app?vid=13b6a164-da8f-4dda-8732-93b4a68eb989","ios":"levelo://app?vid=13b6a164-da8f-4dda-8732-93b4a68eb989"},"vehicle_type_id":"4","last_reported":1757938829,"current_range_meters":19200,"station_id":"ce4bgrh2rcd13ifvqc8g","pricing_plan_id":"cebpf4jnsgd1na2vs0mg"},{"bike_id":"3841b6fe-3ea9-40f4-abd6-94c42922cf9a","system_id":"levelo_inurba_marseille","lat":43.3054,"lon":5.36546,"is_reserved":false,"is_disabled":false,"rental_uris":{"android":"levelo://app?vid=3841b6fe-3ea9-40f4-abd6-94c42922cf9a","ios":"levelo://app?vid=3841b6fe-3ea9-40f4-abd6-94c42922cf9a"},"vehicle_type_id":"4","last_reported":1757938829,"current_range_meters":19200,"station_id":"ce4bgs12rcd13ifvqcag","pricing_plan_id":"cebpf4jnsgd1na2vs0mg"},{"bike_id":"e6dd2256-792f-48e7-bd54-fde5069e7bef","system_id":"levelo_inurba_marseille","lat":43.29812,"lon":5.38098,"is_reserved":false,"is_disabled":false,"rental_uris":{"android":"levelo://app?vid=e6dd2256-792f-48e7-bd54-fde5069e7bef","ios":"levelo://app?vid=e6dd2256-792f-48e7-bd54-fde5069e7bef"},"vehicle_type_id":"4","last_reported":1757938829,"current_range_meters":19200,"station_id":"ce4bgip2rcd13ifvqbb0","pricing_plan_id":"cebpf4jnsgd1na2vs0mg"},{"bike_id":"76730552-0398-4cc1-ac92-7f00bfd28cab","system_id":"levelo_inurba_marseille","lat":43.28278,"lon":5.35072,"is_reserved":false,"is_disabled":false,"rental_uris":{"android":"levelo://app?vid=76730552-0398-4cc1-ac92-7f00bfd28cab","ios":"levelo://app?vid=76730552-0398-4cc1-ac92-7f00bfd28cab"},"vehicle_type_id":"4","last_reported":1757938829,"current_range_meters":19600,"station_id":"ce4bhbp2rcd13ifvqerg","pricing_plan_id":"cebpf4jnsgd1na2vs0mg"},{"bike_id":"7f6166ed-a130-488b-804f-cb95bdb2cc3d","system_id":"levelo_inurba_marseille","lat":43.27681,"lon":5.38883,"is_reserved":false,"is_disabled":false,"rental_uris":{"android":"levelo://app?vid=7f6166ed-a130-488b-804f-cb95bdb2cc3d","ios":"levelo://app?vid=7f6166ed-a130-488b-804f-cb95bdb2cc3d"},"vehicle_type_id":"4","last_reported":1757938829,"current_range_meters":19200,"station_id":"ce4bhi12rcd13ifvqfo0","pricing_plan_id":"cebpf4jnsgd1na2vs0mg"},{"bike_id":"d7ee1826-9a94-4cf7-a104-1559713dcaa2","system_id":"levelo_inurba_marseille","lat":43.28275,"lon":5.35075,"is_reserved":false,"is_disabled":false,"rental_uris":{"android":"levelo://app?vid=d7ee1826-9a94-4cf7-a104-1559713dcaa2","ios":"levelo://app?vid=d7ee1826-9a94-4cf7-a104-1559713dcaa2"},"vehicle_type_id":"4","last_reported":1757938829,"current_range_meters":19200,"station_id":"ce4bhbp2rcd13ifvqerg","pricing_plan_id":"cebpf4jnsgd1na2vs0mg"},{"bike_id":"98082af4-c334-4810-94aa-8ca92b41a103","system_id":"levelo_inurba_marseille","lat":43.30538,"lon":5.36536,"is_reserved":false,"is_disabled":false,"rental_uris":{"android":"levelo://app?vid=98082af4-c334-4810-94aa-8ca92b41a103","ios":"levelo://app?vid=98082af4-c334-4810-94aa-8ca92b41a103"},"vehicle_type_id":"4","last_reported":1757938829,"current_range_meters":19200,"station_id":"ce4bgs12rcd13ifvqcag","pricing_plan_id":"cebpf4jnsgd1na2vs0mg"},{"bike_id":"943b577f-6ecc-4452-8add-b5ad49b8e1fb","system_id":"levelo_inurba_marseille","lat":43.30472,"lon":5.37913,"is_reserved":false,"is_disabled":false,"rental_uris":{"android":"levelo://app?vid=943b577f-6ecc-4452-8add-b5ad49b8e1fb","ios":"levelo://app?vid=943b577f-6ecc-4452-8add-b5ad49b8e1fb"},"vehicle_type_id":"4","last_reported":1757938829,"current_range_meters":19200,"station_id":"ce4bgup2rcd13ifvqcn0","pricing_plan_id":"cebpf4jnsgd1na2vs0mg"},{"bike_id":"f3b5ef6f-ba3c-4c6d-a8e9-4b1ffaf2d106","system_id":"levelo_inurba_marseille","lat":43.31567,"lon":5.38376,"is_reserved":false,"is_disabled":false,"rental_uris":{"android":"levelo://app?vid=f3b5ef6f-ba3c-4c6d-a8e9-4b1ffaf2d106","ios":"levelo://app?vid=f3b5ef6f-ba3c-4c6d-a8e9-4b1ffaf2d106"},"vehicle_type_id":"4","last_reported":1757938829,"current_range_meters":19600,"station_id":"","pricing_plan_id":"cebpf4jnsgd1na2vs0mg"},{"bike_id":"d33d3f8a-3a4e-4e74-b804-bfb6773188e9","system_id":"levelo_inurba_marseille","lat":43.279458,"lon":5.4105,"is_reserved":false,"is_disabled":true,"rental_uris":{"android":"levelo://app?vid=d33d3f8a-3a4e-4e74-b804-bfb6773188e9","ios":"levelo://app?vid=d33d3f8a-3a4e-4e74-b804-bfb6773188e9"},"vehicle_type_id":"4","last_reported":1757938829,"current_range_meters":19600,"station_id":"ce4bhnp2rcd13ifvqh0g","pricing_plan_id":"cebpf4jnsgd1na2vs0mg"},{"bike_id":"11555ead-152a-4e2f-ac3e-7aaa852c50e5","system_id":"levelo_inurba_marseille","lat":43.21743,"lon":5.34595,"is_reserved":false,"is_disabled":false,"rental_uris":{"android":"levelo://app?vid=11555ead-152a-4e2f-ac3e-7aaa852c50e5","ios":"levelo://app?vid=11555ead-152a-4e2f-ac3e-7aaa852c50e5"},"vehicle_type_id":"4","last_reported":1757938829,"current_range_meters":19600,"station_id":"st_cvj6r9ubvosntc0bgbag","pricing_plan_id":"cebpf4jnsgd1na2vs0mg"},