{"last_updated":1722103869,"ttl":30,"version":"2.2","data":{"bikes":[{"bike_id":"175f8532-8063-44e9-8bbf-c2b727ed1a5b","system_id":"levelo_inurba_marseille","lat":43.312239,"lon":5.368562,"is_reserved":false,"is_disabled":false,"rental_uris":{"android":"levelo://app?vid=175f8532-8063-44e9-8bbf-c2b727ed1a5b","ios":"levelo://app?vid=175f8532-8063-44e9-8bbf-c2b727ed1a5b"},"vehicle_type_id":"4","last_reported":1722103869,"current_range_meters":0,"station_id":"ce4bgl92rcd13ifvqbq0","pricing_plan_id":"cebpf4jnsgd1na2vs0mg"},{"bike_id":"ad83c77c-8b07-4fc9-b1d7-30d190a8de4a","system_id":"levelo_inurba_marseille","lat":43.31485,"lon":5.37303,"is_reserved":false,"is_disabled":false,"rental_uris":{"android":"levelo://app?vid=ad83c77c-8b07-4fc9-b1d7-30d190a8de4a","ios":"levelo://app?vid=ad83c77c-8b07-4fc9-b1d7-30d190a8de4a"},"vehicle_type_id":"4","last_reported":1722103869,"current_range_meters":10400,"station_id":"ce4bgt12rcd13ifvqcd0","pricing_plan_id":"cebpf4jnsgd1na2vs0mg"},{"bike_id":"19dcc2e1-e630-4c2c-bbc5-992a369cbc1e","system_id":"levelo_inurba_marseille","lat":43.314811,"lon":5.373103,"is_reserved":false,"is_disabled":false,"rental_uris":{"android":"levelo://app?vid=19dcc2e1-e630-4c2c-bbc5-992a369cbc1e","ios":"levelo://app?vid=19dcc2e1-e630-4c2c-bbc5-992a369cbc1e"},"vehicle_type_id":"4","last_reported":1722103869,"current_range_meters":30800,"station_id":"ce4bgt12rcd13ifvqcd0","pricing_plan_id":"cebpf4jnsgd1na2vs0mg"},{"bike_id":"9445d54c-ca61-44ea-8fc4-e88ad089cf2e","system_id":"levelo_inurba_marseille","lat":43.314811,"lon":5.373104,"is_reserved":false,"is_disabled":false,"rental_uris":{"android":"levelo://app?vid=9445d54c-ca61-44ea-8fc4-e88ad089cf2e","ios":"levelo://app?vid=9445d54c-ca61-44ea-8fc4-e88ad089cf2e"},"vehicle_type_id":"4","last_reported":1722103869,"current_range_meters":4800,"station_id":"ce4bgt12rcd13ifvqcd0","pricing_plan_id":"cebpf4jnsgd1na2vs0mg"},{"bike_id":"7e16d173-cdb4-4f1d-870b-5c4ab085ba78","system_id":"levelo_inurba_marseille","lat":43.314811,"lon":5.373103,"is_reserved":false,"is_disabled":false,"rental_uris":{"android":"levelo://app?vid=7e16d173-cdb4-4f1d-870b-5c4ab085ba78","ios":"levelo://app?vid=7e16d173-cdb4-4f1d-870b-5c4ab085ba78"},"vehicle_type_id":"4","last_reported":1722103869,"current_range_meters":12000,"station_id":"ce4bgt12rcd13ifvqcd0","pricing_plan_id":"cebpf4jnsgd1na2vs0mg"},{"bike_id":"dffee624-4734-486c-9466-7bb7d4fd64c7","system_id":"levelo_inurba_marseille","lat":43.309039,"lon":5.371797,"is_reserved":false,"is_disabled":false,"rental_uris":{"android":"levelo://app?vid=dffee624-4734-486c-9466-7bb7d4fd64c7","ios":"levelo://app?vid=dffee624-4734-486c-9466-7bb7d4fd64c7"},"vehicle_type_id":"4","last_reported":1722103869,"current_range_meters":1200,"station_id":"ce4bguh2rcd13ifvqckg","pricing_plan_id":"cebpf4jnsgd1na2vs0mg"},{"bike_id":"a26a7fbc-9309-4c53-a9e0-abaabab7dd22","system_id":"levelo_inurba_marseille","lat":43.30537,"lon":5.367345,"is_reserved":false,"is_disabled":false,"rental_uris":{"android":"levelo://app?vid=a26a7fbc-9309-4c53-a9e0-abaabab7dd22","ios":"levelo://app?vid=a26a7fbc-9309-4c53-a9e0-abaabab7dd22"},"vehicle_type_id":"4","last_reported":1722103869,"current_range_meters":400,"station_id":"ce4bgrp2rcd13ifvqc9g","pricing_plan_id":"cebpf4jnsgd1na2vs0mg"},{"bike_id":"ece7a526-855c-417d-849e-cf565f50f82f","system_id":"levelo_inurba_marseille","lat":43.311131,"lon":5.377651,"is_reserved":false,"is_disabled":false,"rental_uris":{"android":"levelo://app?vid=ece7a526-855c-417d-849e-cf565f50f82f","ios":"levelo://app?vid=ece7a526-855c-417d-849e-cf565f50f82f"},"vehicle_type_id":"4","last_reported":1722103869,"current_range_meters":14000,"station_id":"ce4bgt92rcd13ifvqcg0","pricing_plan_id":"cebpf4jnsgd1na2vs0mg"},{"bike_id":"15f01dc5-25bf-423c-bbb1-4245a115d8c4","system_id":"levelo_inurba_marseille","lat":43.307945,"lon":5.376487,"is_reserved":false,"is_disabled":false,"rental_uris":{"android":"levelo://app?vid=15f01dc5-25bf-423c-bbb1-4245a115d8c4","ios":"levelo://app?vid=15f01dc5-25bf-423c-bbb1-4245a115d8c4"},"vehicle_type_id":"4","last_reported":1722103869,"current_range_meters":4000,"station_id":"ce4bgv92rcd13ifvqcq0","pricing_plan_id":"cebpf4jnsgd1na2vs0mg"},{"bike_id":"6dc70788-7419-4ff2-a7e2-076500924d5e","system_id":"levelo_inurba_marseille","lat":43.317075,"lon":5.377367,"is_reserved":false,"is_disabled":false,"rental_uris":{"android":"levelo://app?vid=6dc70788-7419-4ff2-a7e2-076500924d5e","ios":"levelo://app?vid=6dc70788-7419-4ff2-a7e2-076500924d5e"},"vehicle_type_id":"4","last_reported":1722103869,"current_range_meters":29600,"station_id":"ce4bgth2rcd13ifvqch0","pricing_plan_id":"cebpf4jnsgd1na2vs0mg"},{"bike_id":"e9eb63b3-c68c-4cc2-84d1-9dc546d94f38","system_id":"levelo_inurba_marseille","lat":43.317075,"lon":5.377367,"is_reserved":false,"is_disabled":false,"rental_uris":{"android":"levelo://app?vid=e9eb63b3-c68c-4cc2-84d1-9dc546d94f38","ios":"levelo://app?vid=e9eb63b3-c68c-4cc2-84d1-9dc546d94f38"},"vehicle_type_id":"4","last_reported":1722103869,"current_range_meters":23600,"station_id":"ce4bgth2rcd13ifvqch0","pricing_plan_id":"cebpf4jnsgd1na2vs0mg"},{"bike_id":"d59adb4b-ae18-4c1f-af2f-7a7f5718f552","system_id":"levelo_inurba_marseille","lat":43.317075,"lon":5.377367,"is_reserved":false,"is_disabled":false,"rental_uris":{"android":"levelo://app?vid=d59adb4b-ae18-4c1f-af2f-7a7f5718f552","ios":"levelo://app?vid=d59adb4b-ae18-4c1f-af2f-7a7f5718f552"},"vehicle_type_id":"4","last_reported":1722103869,"current_range_meters":28800,"station_id":"ce4bgth2rcd13ifvqch0","pricing_plan_id":"cebpf4jnsgd1na2vs0mg"},{"bike_id":"2f23911f-bbc0-41c3-ad1f-5a9701a2e149","system_id":"levelo_inurba_marseille","lat":43.317075,"lon":5.377367,"is_reserved":false,"is_disabled":false,"rental_uris":{"android":"levelo://app?vid=2f23911f-bbc0-41c3-ad1f-5a9701a2e149","ios":"levelo://app?vid=2f23911f-bbc0-41c3-ad1f-5a9701a2e149"},"vehicle_type_id":"4","last_reported":1722103869,"current_range_meters":9200,"station_id":"ce4bgth2rcd13ifvqch0","pricing_plan_id":"cebpf4jnsgd1na2vs0mg"},{"bike_id":"da33f251-d348-45f3-b7d4-8007f45126d4","system_id":"levelo_inurba_marseille","lat":43.317075,"lon":5.377367,"is_reserved":false,"is_disabled":false,"rental_uris":{"android":"levelo://app?vid=da33f251-d348-45f3-b7d4-8007f45126d4","ios":"levelo://app?vid=da33f251-d348-45f3-b7d4-8007f45126d4"},"vehicle_type_id":"4","last_reported":1722103869,"current_range_meters":5600,"station_id":"ce4bgth2rcd13ifvqch0","pricing_plan_id":"cebpf4jnsgd1na2vs0mg"},{"bike_id":"c98edaf5-55fc-4995-9eb1-f26d07771f52","system_id":"levelo_inurba_marseille","lat":43.317075,"lon":5.377367,"is_reserved":false,"is_disabled":false,"rental_uris":{"android":"levelo://app?vid=c98edaf5-55fc-4995-9eb1-f26d07771f52","ios":"levelo://app?vid=c98edaf5-55fc-4995-9eb1-f26d07771f52"},"vehicle_type_id":"4","last_reported":1722103869,"current_range_meters":11600,"station_id":"ce4bgth2rcd13ifvqch0","pricing_plan_id":"cebpf4jnsgd1na2vs0mg"},{"bike_id":"d4d816a2-b41d-4d88-b576-7d6406a656fc","system_id":"levelo_inurba_marseille","lat":43.315289,"lon":5.380349,"is_reserved":false,"is_disabled":false,"rental_uris":{"android":"levelo://app?vid=d4d816a2-b41d-4d88-b576-7d6406a656fc","ios":"levelo://app?vid=d4d816a2-b41d-4d88-b576-7d6406a656fc"},"vehicle_type_id":"4","last_reported":1722103869,"current_range_meters":31200,"station_id":"ce4bhsp2rcd13ifvqi50","pricing_plan_id":"cebpf4jnsgd1na2vs0mg"},{"bike_id":"b43f0c88-b798-4358-8008-4559a64205a7","system_id":"levelo_inurba_marseille","lat":43.315289,"lon":5.380349,"is_reserved":false,"is_disabled":false,"rental_uris":{"android":"levelo://app?vid=b43f0c88-b798-4358-8008-4559a64205a7","ios":"levelo://app?vid=b43f0c88-b798-4358-8008-4559a64205a7"},"vehicle_type_id":"4","last_reported":1722103869,"current_range_meters":31600,"station_id":"ce4bhsp2rcd13ifvqi50","pricing_plan_id":"cebpf4jnsgd1na2vs0mg"},{"bike_id":"cf6d9d36-a9ce-4c51-a442-965e86d42c84","system_id":"levelo_inurba_marseille","lat":43.31555,"lon":5.38034,"is_reserved":false,"is_disabled":false,"rental_uris":{"android":"levelo://app?vid=cf6d9d36-a9ce-4c51-a442-965e86d42c84","ios":"levelo://app?vid=cf6d9d36-a9ce-4c51-a442-965e86d42c84"},"vehicle_type_id":"4","last_reported":1722103869,"current_range_meters":12400,"station_id":"ce4bhsp2rcd13ifvqi50","pricing_plan_id":"cebpf4jnsgd1na2vs0mg"},{"bike_id":"344fd01f-dcc8-4830-bf77-b77db61022fe","system_id":"levelo_inurba_marseille","lat":43.308,"lon":5.38141,"is_reserved":false,"is_disabled":false,"rental_uris":{"android":"levelo://app?vid=344fd01f-dcc8-4830-bf77-b77db61022fe","ios":"levelo://app?vid=344fd01f-dcc8-4830-bf77-b77db61022fe"},"vehicle_type_id":"4","last_reported":1722103869,"current_range_meters":0,"station_id":"ce4bgt12rcd13ifvqce0","pricing_plan_id":"cebpf4jnsgd1na2vs0mg"},{"bike_id":"97362b81-b0ff-420a-bfd8-1aae340b5459","system_id":"levelo_inurba_marseille","lat":43.308012,"lon":5.381511,"is_reserved":false,"is_disabled":false,"rental_uris":{"android":"levelo://app?vid=97362b81-b0ff-420a-bfd8-1aae340b5459","ios":"levelo://app?vid=97362b81-b0ff-420a-bfd8-1aae340b5459"},"vehicle_type_id":"4","last_reported":1722103869,"current_range_meters":27200,"station_id":"ce4bgt12rcd13ifvqce0","pricing_plan_id":"cebpf4jnsgd1na2vs0mg"},{"bike_id":"88b33d65-b707-45cc-b55b-f123df82785a","system_id":"levelo_inurba_marseille","lat":43.304606,"lon":5.379026,"is_reserved":false,"is_disabled":false,"rental_uris":{"android":"levelo://app?vid=88b33d65-b707-45cc-b55b-f123df82785a","ios":"levelo://app?vid=88b33d65-b707-45cc-b55b-f123df82785a"},"vehicle_type_id":"4","last_reported":1722103869,"current_range_meters":0,"station_id":"ce4bgup2rcd13ifvqcn0","pricing_plan_id":"cebpf4jnsgd1na2vs0mg"},{"bike_id":"e640801d-3f06-4cdc-b3e5-a0d0f07d4a1b","system_id":"levelo_inurba_marseille","lat":43.304606,"lon":5.379026,"is_reserved":false,"is_disabled":false,"rental_uris":{"android":"levelo://app?vid=e640801d-3f06-4cdc-b3e5-a0d0f07d4a1b","ios":"levelo://app?vid=e640801d-3f06-4cdc-b3e5-a0d0f07d4a1b"},"vehicle_type_id":"4","last_reported":1722103869,"current_range_meters":12000,"station_id":"ce4bgup2rcd13ifvqcn0","pricing_plan_id":"cebpf4jnsgd1na2vs0mg"},{"bike_id":"7006e06b-4401-40f4-b0f9-b6266c57eb3f","system_id":"levelo_inurba_marseille","lat":43.3046,"lon":5.37899,"is_reserved":false,"is_disabled":false,"rental_uris":{"android":"levelo://app?vid=7006e06b-4401-40f4-b0f9-b6266c57eb3f","ios":"levelo://app?vid=7006e06b-4401-40f4-b0f9-b6266c57eb3f"},"vehicle_type_id":"4","last_reported":1722103869,"current_range_meters":0,"station_id":"ce4bgup2rcd13ifvqcn0","pricing_plan_id":"cebpf4jnsgd1na2vs0mg"},{"bike_id":"7fc59e34-6f40-4e8f-8e9c-e8bea02bf36c","system_id":"levelo_inurba_marseille","lat":43.324771,"lon":5.36557,"is_reserved":false,"is_disabled":false,"rental_uris":{"android":"levelo://app?vid=7fc59e34-6f40-4e8f-8e9c-e8bea02bf36c","ios":"levelo://app?vid=7fc59e34-6f40-4e8f-8e9c-e8bea02bf36c"},"vehicle_type_id":"4","last_reported":1722103869,"current_range_meters":27600,"station_id":"ce4bhs12rcd13ifvqhvg","pricing_plan_id":"cebpf4jnsgd1na2vs0mg"},{"bike_id":"c3d340f9-c2ff-4cb3-9c33-dde6216843be","system_id":"levelo_inurba_marseille","lat":43.32483,"lon":5.36565,"is_reserved":false,"is_disabled":false,"rental_uris":{"android":"levelo://app?vid=c3d340f9-c2ff-4cb3-9c33-dde6216843be","ios":"levelo://app?vid=c3d340f9-c2ff-4cb3-9c33-dde6216843be"},"vehicle_type_id":"4","last_reported":1722103869,"current_range_meters":31200,"station_id":"ce4bhs12rcd13ifvqhvg","pricing_plan_id":"cebpf4jnsgd1na2vs0mg"},{"bike_id":"1403f1fa-18c3-4e76-9cd0-383fcc7fc1b9","system_id":"levelo_inurba_marseille","lat":43.301429,"lon":5.37413,"is_reserved":false,"is_disabled":false,"rental_uris":{"android":"levelo://app?vid=1403f1fa-18c3-4e76-9cd0-383fcc7fc1b9","ios":"levelo://app?vid=1403f1fa-18c3-4e76-9cd0-383fcc7fc1b9"},"vehicle_type_id":"4","last_reported":1722103869,"current_range_meters":4800,"station_id":"ce4bgs92rcd13ifvqcc0","pricing_plan_id":"cebpf4jnsgd1na2vs0mg"},{"bike_id":"61aba756-3ade-4692-964e-301203ab847c","system_id":"levelo_inurba_marseille","lat":43.31997,"lon":5.38165,"is_reserved":false,"is_disabled":false,"rental_uris":{"android":"levelo://app?vid=61aba756-3ade-4692-964e-301203ab847c","ios":"levelo://app?vid=61aba756-3ade-4692-964e-301203ab847c"},"vehicle_type_id":"4","last_reported":1722103869,"current_range_meters":5600,"station_id":"ce4bhr12rcd13ifvqhpg","pricing_plan_id":"cebpf4jnsgd1na2vs0mg"},{"bike_id":"92c92d7f-6c84-415d-8c43-d3cb879ac960","system_id":"levelo_inurba_marseille","lat":43.29996,"lon":5.37174,"is_reserved":false,"is_disabled":false,"rental_uris":{"android":"levelo://app?vid=92c92d7f-6c84-415d-8c43-d3cb879ac960","ios":"levelo://app?vid=92c92d7f-6c84-415d-8c43-d3cb879ac960"},"vehicle_type_id":"4","last_reported":1722103869,"current_range_meters":22000,"station_id":"ce4bgr92rcd13ifvqc7g","pricing_plan_id":"cebpf4jnsgd1na2vs0mg"},{"bike_id":"0c2e87f7-1bd9-45bc-83fd-2e7b2cb81569","system_id":"levelo_inurba_marseille","lat":43.299222,"lon":5.365554,"is_reserved":false,"is_disabled":false,"rental_uris":{"android":"levelo://app?vid=0c2e87f7-1bd9-45bc-83fd-2e7b2cb81569","ios":"levelo://app?vid=0c2e87f7-1bd9-45bc-83fd-2e7b2cb81569"},"vehicle_type_id":"4","last_reported":1722103869,"current_range_meters":12000,"station_id":"ce4bgm92rcd13ifvqbr0","pricing_plan_id":"cebpf4jnsgd1na2vs0mg"},{"bike_id":"5a13f419-ff06-4c24-b791-31dc4ad66e98","system_id":"levelo_inurba_marseille","lat":43.299222,"lon":5.365554,"is_reserved":false,"is_disabled":false,"rental_uris":{"android":"levelo://app?vid=5a13f419-ff06-4c24-b791-31dc4ad66e98","ios":"levelo://app?vid=5a13f419-ff06-4c24-b791-31dc4ad66e98"},"vehicle_type_id":"4","last_reported":1722103869,"current_range_meters":11600,"station_id":"ce4bgm92rcd13ifvqbr0","pricing_plan_id":"cebpf4jnsgd1na2vs0mg"},{"bike_id":"6f0914bb-8fbc-4de1-95b7-f5aea649194f","system_id":"levelo_inurba_marseille","lat":43.299222,"lon":5.365554,"is_reserved":false,"is_disabled":false,"rental_uris":{"android":"levelo://app?vid=6f0914bb-8fbc-4de1-95b7-f5aea649194f","ios":"levelo://app?vid=6f0914bb-8fbc-4de1-95b7-f5aea649194f"},"vehicle_type_id":"4","last_reported":1722103869,"current_range_meters":31200,"station_id":"ce4bgm92rcd13ifvqbr0","pricing_plan_id":"cebpf4jnsgd1na2vs0mg"},{"bike_id":"7b0d5a24-1fd7-45c6-89c6-5c233c3b1c3e","system_id":"levelo_inurba_marseille","lat":43.29955,"lon":5.3738,"is_reserved":false,"is_disabled":false,"rental_uris":{"android":"levelo://app?vid=7b0d5a24-1fd7-45c6-89c6-5c233c3b1c3e","ios":"levelo://app?vid=7b0d5a24-1fd7-45c6-89c6-5c233c3b1c3e"},"vehicle_type_id":"4","last_reported":1722103869,"current_range_meters":11200,"station_id":"","pricing_plan_id":"cebpf4jnsgd1na2vs0mg"},{"bike_id":"0a11c7b3-f248-4137-84d4-79966d4f2f7f","system_id":"levelo_inurba_marseille","lat":43.30533,"lon":5.3841,"is_reserved":false,"is_disabled":false,"rental_uris":{"android":"levelo://app?vid=0a11c7b3-f248-4137-84d4-79966d4f2f7f","ios":"levelo://app?vid=0a11c7b3-f248-4137-84d4-79966d4f2f7f"},"vehicle_type_id":"4","last_reported":1722103869,"current_range_meters":0,"station_id":"ce4bgg92rcd13ifvqb30","pricing_plan_id":"cebpf4jnsgd1na2vs0mg"},{"bike_id":"1ae1f38c-2043-4ccf-9562-e5755804541b","system_id":"levelo_inurba_marseille","lat":43.298433,"lon":5.362774,"is_reserved":false,"is_disabled":false,"rental_uris":{"android":"levelo://app?vid=1ae1f38c-2043-4ccf-9562-e5755804541b","ios":"levelo://app?vid=1ae1f38c-2043-4ccf-9562-e5755804541b"},"vehicle_type_id":"4","last_reported":1722103869,"current_range_meters":5200,"station_id":"ce4bgpp2rcd13ifvqc3g","pricing_plan_id":"cebpf4jnsgd1na2vs0mg"},{"bike_id":"69c16251-9c63-4a14-8790-984c23a7e0b1","system_id":"levelo_inurba_marseille","lat":43.31177,"lon":5.38714,"is_reserved":false,"is_disabled":false,"rental_uris":{"android":"levelo://app?vid=69c16251-9c63-4a14-8790-984c23a7e0b1","ios":"levelo://app?vid=69c16251-9c63-4a14-8790-984c23a7e0b1"},"vehicle_type_id":"4","last_reported":1722103869,"current_range_meters":0,"station_id":"ce4bgv12rcd13ifvqcp0","pricing_plan_id":"cebpf4jnsgd1na2vs0mg"},{"bike_id":"24b4b9c9-c1be-47be-b6e6-93d0a263f12e","system_id":"levelo_inurba_marseille","lat":43.322872,"lon":5.382756,"is_reserved":false,"is_disabled":false,"rental_uris":{"android":"levelo://app?vid=24b4b9c9-c1be-47be-b6e6-93d0a263f12e","ios":"levelo://app?vid=24b4b9c9-c1be-47be-b6e6-93d0a263f12e"},"vehicle_type_id":"4","last_reported":1722103869,"current_range_meters":24400,"station_id":"ce4bhr12rcd13ifvqhqg","pricing_plan_id":"cebpf4jnsgd1na2vs0mg"},{"bike_id":"5ba58e73-f3ed-41c7-9713-5bd5dee87b85","system_id":"levelo_inurba_marseille","lat":43.32291,"lon":5.3827,"is_reserved":false,"is_disabled":false,"rental_uris":{"android":"levelo://app?vid=5ba58e73-f3ed-41c7-9713-5bd5dee87b85","ios":"levelo://app?vid=5ba58e73-f3ed-41c7-9713-5bd5dee87b85"},"vehicle_type_id":"4","last_reported":1722103869,"current_range_meters":24000,"station_id":"ce4bhr12rcd13ifvqhqg","pricing_plan_id":"cebpf4jnsgd1na2vs0mg"},{"bike_id":"20f52d68-bf2e-48b4-8b8f-2cabd4b588de","system_id":"levelo_inurba_marseille","lat":43.2968,"lon":5.37291,"is_reserved":false,"is_disabled":false,"rental_uris":{"android":"levelo://app?vid=20f52d68-bf2e-48b4-8b8f-2cabd4b588de","ios":"levelo://app?vid=20f52d68-bf2e-48b4-8b8f-2cabd4b588de"},"vehicle_type_id":"4","last_reported":1722103869,"current_range_meters":28000,"station_id":"ce4bgk12rcd13ifvqbj0","pricing_plan_id":"cebpf4jnsgd1na2vs0mg"},{"bike_id":"77ebd6f7-0e15-4246-8feb-b1d720ac899a","system_id":"levelo_inurba_marseille","lat":43.300434,"lon":5.382081,"is_reserved":false,"is_disabled":false,"rental_uris":{"android":"levelo://app?vid=77ebd6f7-0e15-4246-8feb-b1d720ac899a","ios":"levelo://app?vid=77ebd6f7-0e15-4246-8feb-b1d720ac899a"},"vehicle_type_id":"4","last_reported":1722103869,"current_range_meters":18800,"station_id":"","pricing_plan_id":"cebpf4jnsgd1na2vs0mg"},{"bike_id":"49c11169-6cf7-4cc6-85d2-188304648494","system_id":"levelo_inurba_marseille","lat":43.296131,"lon":5.370791,"is_reserved":false,"is_disabled":false,"rental_uris":{"android":"levelo://app?vid=49c11169-6cf7-4cc6-85d2-188304648494","ios":"levelo://app?vid=49c11169-6cf7-4cc6-85d2-188304648494"},"vehicle_type_id":"4","last_reported":1722103869,"current_range_meters":27600,"station_id":"ce4bgnh2rcd13ifvqc0g","pricing_plan_id":"cebpf4jnsgd1na2vs0mg"},{"bike_id":"dc745f82-772d-4cf9-9522-cff24860062f","system_id":"levelo_inurba_marseille","lat":43.296131,"lon":5.370791,"is_reserved":false,"is_disabled":false,"rental_uris":{"android":"levelo://app?vid=dc745f82-772d-4cf9-9522-cff24860062f","ios":"levelo://app?vid=dc745f82-772d-4cf9-9522-cff24860062f"},"vehicle_type_id":"4","last_reported":1722103869,"current_range_meters":29200,"station_id":"ce4bgnh2rcd13ifvqc0g","pricing_plan_id":"cebpf4jnsgd1na2vs0mg"},{"bike_id":"d86ed249-ad17-460a-83df-7c8d544414af","system_id":"levelo_inurba_marseille","lat":43.29585,"lon":5.36748,"is_reserved":false,"is_disabled":false,"rental_uris":{"android":"levelo://app?vid=d86ed249-ad17-460a-83df-7c8d544414af","ios":"levelo://app?vid=d86ed249-ad17-460a-83df-7c8d544414af"},"vehicle_type_id":"4","last_reported":1722103869,"current_range_meters":0,"station_id":"ce4bgph2rcd13ifvqc2g","pricing_plan_id":"cebpf4jnsgd1na2vs0mg"},{"bike_id":"09cd0f0b-4fef-4ce8-b64c-2122df02452b","system_id":"levelo_inurba_marseille","lat":43.29581,"lon":5.3674,"is_reserved":false,"is_disabled":false,"rental_uris":{"android":"levelo://app?vid=09cd0f0b-4fef-4ce8-b64c-2122df02452b","ios":"levelo://app?vid=09cd0f0b-4fef-4ce8-b64c-2122df02452b"},"vehicle_type_id":"4","last_reported":1722103869,"current_range_meters":26400,"station_id":"ce4bgph2rcd13ifvqc2g","pricing_plan_id":"cebpf4jnsgd1na2vs0mg"},{"bike_id":"45fde4f7-5625-48c9-9e71-64e79414fe92","system_id":"levelo_inurba_marseille","lat":43.29736,"lon":5.37679,"is_reserved":false,"is_disabled":false,"rental_uris":{"android":"levelo://app?vid=45fde4f7-5625-48c9-9e71-64e79414fe92","ios":"levelo://app?vid=45fde4f7-5625-48c9-9e71-64e79414fe92"},"vehicle_type_id":"4","last_reported":1722103869,"current_range_meters":24800,"station_id":"ce4bgkh2rcd13ifvqbl0","pricing_plan_id":"cebpf4jnsgd1na2vs0mg"},{"bike_id":"b5bac268-bd12-44bb-9005-6215168f7416","system_id":"levelo_inurba_marseille","lat":43.29731,"lon":5.37693,"is_reserved":false,"is_disabled":false,"rental_uris":{"android":"levelo://app?vid=b5bac268-bd12-44bb-9005-6215168f7416","ios":"levelo://app?vid=b5bac268-bd12-44bb-9005-6215168f7416"},"vehicle_type_id":"4","last_reported":1722103869,"current_range_meters":16000,"station_id":"ce4bgkh2rcd13ifvqbl0","pricing_plan_id":"cebpf4jnsgd1na2vs0mg"},{"bike_id":"b3625be2-e294-43ca-856a-3bf8386de4cc","system_id":"levelo_inurba_marseille","lat":43.296921,"lon":5.376579,"is_reserved":false,"is_disabled":false,"rental_uris":{"android":"levelo://app?vid=b3625be2-e294-43ca-856a-3bf8386de4cc","ios":"levelo://app?vid=b3625be2-e294-43ca-856a-3bf8386de4cc"},"vehicle_type_id":"4","last_reported":1722103869,"current_range_meters":31600,"station_id":"ce4bgkh2rcd13ifvqbl0","pricing_plan_id":"cebpf4jnsgd1na2vs0mg"},{"bike_id":"c6a628b6-7705-4471-a675-0519db37be66","system_id":"levelo_inurba_marseille","lat":43.296921,"lon":5.376579,"is_reserved":false,"is_disabled":false,"rental_uris":{"android":"levelo://app?vid=c6a628b6-7705-4471-a675-0519db37be66","ios":"levelo://app?vid=c6a628b6-7705-4471-a675-0519db37be66"},"vehicle_type_id":"4","last_reported":1722103869,"current_range_meters":31600,"station_id":"ce4bgkh2rcd13ifvqbl0","pricing_plan_id":"cebpf4jnsgd1na2vs0mg"},{"bike_id":"77b37070-9de9-44e1-b206-03c90bd7292c","system_id":"levelo_inurba_marseille","lat":43.29728,"lon":5.37704,"is_reserved":false,"is_disabled":false,"rental_uris":{"android":"levelo://app?vid=77b37070-9de9-44e1-b206-03c90bd7292c","ios":"levelo://app?vid=77b37070-9de9-44e1-b206-03c90bd7292c"},"vehicle_type_id":"4","last_reported":1722103869,"current_range_meters":30400,"station_id":"ce4bgkh2rcd13ifvqbl0","pricing_plan_id":"cebpf4jnsgd1na2vs0mg"},{"bike_id":"1137ff77-20fc-4f33-9f9f-023fb8b03a2c","system_id":"levelo_inurba_marseille","lat":43.296921,"lon":5.376579,"is_reserved":false,"is_disabled":false,"rental_uris":{"android":"levelo://app?vid=1137ff77-20fc-4f33-9f9f-023fb8b03a2c","ios":"levelo://app?vid=1137ff77-20fc-4f33-9f9f-023fb8b03a2c"},"vehicle_type_id":"4","last_reported":1722103869,"current_range_meters":31600,"station_id":"ce4bgkh2rcd13ifvqbl0","pricing_plan_id":"cebpf4jnsgd1na2vs0mg"},{"bike_id":"c3027f24-3c2e-4ae0-8575-af7ebc02ef01","system_id":"levelo_inurba_marseille","lat":43.297129,"lon":5.377036,"is_reserved":false,"is_disabled":false,"rental_uris":{"android":"levelo://app?vid=c3027f24-3c2e-4ae0-8575-af7ebc02ef01","ios":"levelo://app?vid=c3027f24-3c2e-4ae0-8575-af7ebc02ef01"},"vehicle_type_id":"4","last_reported":1722103869,"current_range_meters":8400,"station_id":"","pricing_plan_id":"cebpf4jnsgd1na2vs0mg"},{"bike_id":"5577df36-1040-450d-b99e-131190e9662d","system_id":"levelo_inurba_marseille","lat":43.309589,"lon":5.390258,"is_reserved":false,"is_disabled":false,"rental_uris":{"android":"levelo://app?vid=5577df36-1040-450d-b99e-131190e9662d","ios":"levelo://app?vid=5577df36-1040-450d-b99e-131190e9662d"},"vehicle_type_id":"4","last_reported":1722103869,"current_range_meters":2000,"station_id":"ce4bgup2rcd13ifvqco0","pricing_plan_id":"cebpf4jnsgd1na2vs0mg"},{"bike_id":"375acbf1-71a8-4b24-a8d5-0cfa9344939d","system_id":"levelo_inurba_marseille","lat":43.309589,"lon":5.390258,"is_reserved":false,"is_disabled":false,"rental_uris":{"android":"levelo://app?vid=375acbf1-71a8-4b24-a8d5-0cfa9344939d","ios":"levelo://app?vid=375acbf1-71a8-4b24-a8d5-0cfa9344939d"},"vehicle_type_id":"4","last_reported":1722103869,"current_range_meters":14800,"station_id":"ce4bgup2rcd13ifvqco0","pricing_plan_id":"cebpf4jnsgd1na2vs0mg"},{"bike_id":"5a5020b1-64ec-48e9-b5c0-69f252145b76","system_id":"levelo_inurba_marseille","lat":43.30951,"lon":5.39031,"is_reserved":false,"is_disabled":false,"rental_uris":{"android":"levelo://app?vid=5a5020b1-64ec-48e9-b5c0-69f252145b76","ios":"levelo://app?vid=5a5020b1-64ec-48e9-b5c0-69f252145b76"},"vehicle_type_id":"4","last_reported":1722103869,"current_range_meters":3600,"station_id":"ce4bgup2rcd13ifvqco0","pricing_plan_id":"cebpf4jnsgd1na2vs0mg"},{"bike_id":"6960db49-4680-4921-817b-17deea707a3e","system_id":"levelo_inurba_marseille","lat":43.309589,"lon":5.390258,"is_reserved":false,"is_disabled":false,"rental_uris":{"android":"levelo://app?vid=6960db49-4680-4921-817b-17deea707a3e","ios":"levelo://app?vid=6960db49-4680-4921-817b-17deea707a3e"},"vehicle_type_id":"4","last_reported":1722103869,"current_range_meters":3200,"station_id":"ce4bgup2rcd13ifvqco0","pricing_plan_id":"cebpf4jnsgd1na2vs0mg"},{"bike_id":"b3b66c24-0a88-46b8-991e-2d7c075234e9","system_id":"levelo_inurba_marseille","lat":43.296921,"lon":5.376579,"is_reserved":false,"is_disabled":false,"rental_uris":{"android":"levelo://app?vid=b3b66c24-0a88-46b8-991e-2d7c075234e9","ios":"levelo://app?vid=b3b66c24-0a88-46b8-991e-2d7c075234e9"},"vehicle_type_id":"4","last_reported":1722103869,"current_range_meters":0,"station_id":"ce4bgkh2rcd13ifvqbl0","pricing_plan_id":"cebpf4jnsgd1na2vs0mg"},{"bike_id":"b5b97180-4a54-4f79-a6e2-f9a94552384e","system_id":"levelo_inurba_marseille","lat":43.309589,"lon":5.390258,"is_reserved":false,"is_disabled":false,"rental_uris":{"android":"levelo://app?vid=b5b97180-4a54-4f79-a6e2-f9a94552384e","ios":"levelo://app?vid=b5b97180-4a54-4f79-a6e2-f9a94552384e"},"vehicle_type_id":"4","last_reported":1722103869,"current_range_meters":4800,"station_id":"ce4bgup2rcd13ifvqco0","pricing_plan_id":"cebpf4jnsgd1na2vs0mg"},{"bike_id":"99593d25-14e7-4b8f-b003-0aca5c866ea6","system_id":"levelo_inurba_marseille","lat":43.30952,"lon":5.39038,"is_reserved":false,"is_disabled":false,"rental_uris":{"android":"levelo://app?vid=99593d25-14e7-4b8f-b003-0aca5c866ea6","ios":"levelo://app?vid=99593d25-14e7-4b8f-b003-0aca5c866ea6"},"vehicle_type_id":"4","last_reported":1722103869,"current_range_meters":6000,"station_id":"","pricing_plan_id":"cebpf4jnsgd1na2vs0mg"},{"bike_id":"ac8e302d-ad82-47f4-8584-013baf39815e","system_id":"levelo_inurba_marseille","lat":43.309589,"lon":5.390258,"is_reserved":false,"is_disabled":false,"rental_uris":{"android":"levelo://app?vid=ac8e302d-ad82-47f4-8584-013baf39815e","ios":"levelo://app?vid=ac8e302d-ad82-47f4-8584-013baf39815e"},"vehicle_type_id":"4","last_reported":1722103869,"current_range_meters":13200,"station_id":"ce4bgup2rcd13ifvqco0","pricing_plan_id":"cebpf4jnsgd1na2vs0mg"},{"bike_id":"4b12d2c3-39d4-4295-af36-eaf5162db54b","system_id":"levelo_inurba_marseille","lat":43.309589,"lon":5.390258,"is_reserved":false,"is_disabled":false,"rental_uris":{"android":"levelo://app?vid=4b12d2c3-39d4-4295-af36-eaf5162db54b","ios":"levelo://app?vid=4b12d2c3-39d4-4295-af36-eaf5162db54b"},"vehicle_type_id":"4","last_reported":1722103869,"current_range_meters":30800,"station_id":"ce4bgup2rcd13ifvqco0","pricing_plan_id":"cebpf4jnsgd1na2vs0mg"},{"bike_id":"56d08423-cf45-4b0a-9c41-ef9a39ba760f","system_id":"levelo_inurba_marseille","lat":43.309589,"lon":5.390258,"is_reserved":false,"is_disabled":false,"rental_uris":{"android":"levelo://app?vid=56d08423-cf45-4b0a-9c41-ef9a39ba760f","ios":"levelo://app?vid=56d08423-cf45-4b0a-9c41-ef9a39ba760f"},"vehicle_type_id":"4","last_reported":1722103869,"current_range_meters":0,"station_id":"ce4bgup2rcd13ifvqco0","pricing_plan_id":"cebpf4jnsgd1na2vs0mg"},{"bike_id":"4496c404-3c32-4a6a-a8d4-fe28ae420eb9","system_id":"levelo_inurba_marseille","lat":43.317557,"lon":5.390173,"is_reserved":false,"is_disabled":false,"rental_uris":{"android":"levelo://app?vid=4496c404-3c32-4a6a-a8d4-fe28ae420eb9","ios":"levelo://app?vid=4496c404-3c32-4a6a-a8d4-fe28ae420eb9"},"vehicle_type_id":"4","last_reported":1722103869,"current_range_meters":7200,"station_id":"ce4bhqp2rcd13ifvqhng","pricing_plan_id":"cebpf4jnsgd1na2vs0mg"},{"bike_id":"59ce4f35-4977-4902-8543-12b0ecb7ced8","system_id":"levelo_inurba_marseille","lat":43.317557,"lon":5.390173,"is_reserved":false,"is_disabled":false,"rental_uris":{"android":"levelo://app?vid=59ce4f35-4977-4902-8543-12b0ecb7ced8","ios":"levelo://app?vid=59ce4f35-4977-4902-8543-12b0ecb7ced8"},"vehicle_type_id":"4","last_reported":1722103869,"current_range_meters":2000,"station_id":"ce4bhqp2rcd13ifvqhng","pricing_plan_id":"cebpf4jnsgd1na2vs0mg"},{"bike_id":"83f50dd5-6712-4a0f-8076-e565710007d1","system_id":"levelo_inurba_marseille","lat":43.317557,"lon":5.390173,"is_reserved":false,"is_disabled":false,"rental_uris":{"android":"levelo://app?vid=83f50dd5-6712-4a0f-8076-e565710007d1","ios":"levelo://app?vid=83f50dd5-6712-4a0f-8076-e565710007d1"},"vehicle_type_id":"4","last_reported":1722103869,"current_range_meters":0,"station_id":"ce4bhqp2rcd13ifvqhng","pricing_plan_id":"cebpf4jnsgd1na2vs0mg"},{"bike_id":"d6ce40b4-0591-41e5-a797-753e62fba44d","system_id":"levelo_inurba_marseille","lat":43.317557,"lon":5.390173,"is_reserved":false,"is_disabled":false,"rental_uris":{"android":"levelo://app?vid=d6ce40b4-0591-41e5-a797-753e62fba44d","ios":"levelo://app?vid=d6ce40b4-0591-41e5-a797-753e62fba44d"},"vehicle_type_id":"4","last_reported":1722103869,"current_range_meters":18800,"station_id":"ce4bhqp2rcd13ifvqhng","pricing_plan_id":"cebpf4jnsgd1na2vs0mg"},{"bike_id":"f4db9a27-1b7c-4cfb-bbbf-c9d17e187dfa","system_id":"levelo_inurba_marseille","lat":43.29624,"lon":5.37686,"is_reserved":false,"is_disabled":false,"rental_uris":{"android":"levelo://app?vid=f4db9a27-1b7c-4cfb-bbbf-c9d17e187dfa","ios":"levelo://app?vid=f4db9a27-1b7c-4cfb-bbbf-c9d17e187dfa"},"vehicle_type_id":"4","last_reported":1722103869,"current_range_meters":31200,"station_id":"ce4bgi92rcd13ifvqb90","pricing_plan_id":"cebpf4jnsgd1na2vs0mg"},{"bike_id":"3abcb021-8d12-41d2-9c86-5bf0728c8c77","system_id":"levelo_inurba_marseille","lat":43.298037,"lon":5.381066,"is_reserved":false,"is_disabled":false,"rental_uris":{"android":"levelo://app?vid=3abcb021-8d12-41d2-9c86-5bf0728c8c77","ios":"levelo://app?vid=3abcb021-8d12-41d2-9c86-5bf0728c8c77"},"vehicle_type_id":"4","last_reported":1722103869,"current_range_meters":0,"station_id":"ce4bgip2rcd13ifvqbb0","pricing_plan_id":"cebpf4jnsgd1na2vs0mg"},{"bike_id":"341a2703-2ec7-4253-bee2-fc0f475d9a17","system_id":"levelo_inurba_marseille","lat":43.30434,"lon":5.38896,"is_reserved":false,"is_disabled":false,"rental_uris":{"android":"levelo://app?vid=341a2703-2ec7-4253-bee2-fc0f475d9a17","ios":"levelo://app?vid=341a2703-2ec7-4253-bee2-fc0f475d9a17"},"vehicle_type_id":"4","last_reported":1722103869,"current_range_meters":5600,"station_id":"ce4bgk12rcd13ifvqbi0","pricing_plan_id":"cebpf4jnsgd1na2vs0mg"},{"bike_id":"fdead56d-d495-481d-8327-025cffec9937","system_id":"levelo_inurba_marseille","lat":43.296263,"lon":5.377094,"is_reserved":false,"is_disabled":false,"rental_uris":{"android":"levelo://app?vid=fdead56d-d495-481d-8327-025cffec9937","ios":"levelo://app?vid=fdead56d-d495-481d-8327-025cffec9937"},"vehicle_type_id":"4","last_reported":1722103869,"current_range_meters":27200,"station_id":"ce4bgi92rcd13ifvqb90","pricing_plan_id":"cebpf4jnsgd1na2vs0mg"},{"bike_id":"e7531236-e99e-4e10-9084-f3c73a6e85a2","system_id":"levelo_inurba_marseille","lat":43.296277,"lon":5.377108,"is_reserved":false,"is_disabled":false,"rental_uris":{"android":"levelo://app?vid=e7531236-e99e-4e10-9084-f3c73a6e85a2","ios":"levelo://app?vid=e7531236-e99e-4e10-9084-f3c73a6e85a2"},"vehicle_type_id":"4","last_reported":1722103869,"current_range_meters":11200,"station_id":"ce4bgi92rcd13ifvqb90","pricing_plan_id":"cebpf4jnsgd1na2vs0mg"},{"bike_id":"05604a64-045f-48e5-840a-e856f55ab7f9","system_id":"levelo_inurba_marseille","lat":43.29608,"lon":5.37716,"is_reserved":false,"is_disabled":false,"rental_uris":{"android":"levelo://app?vid=05604a64-045f-48e5-840a-e856f55ab7f9","ios":"levelo://app?vid=05604a64-045f-48e5-840a-e856f55ab7f9"},"vehicle_type_id":"4","last_reported":1722103869,"current_range_meters":26000,"station_id":"ce4bgi92rcd13ifvqb90","pricing_plan_id":"cebpf4jnsgd1na2vs0mg"},{"bike_id":"72f3761d-3fd2-4915-94b1-a5b13acca3e0","system_id":"levelo_inurba_marseille","lat":43.296263,"lon":5.377094,"is_reserved":false,"is_disabled":false,"rental_uris":{"android":"levelo://app?vid=72f3761d-3fd2-4915-94b1-a5b13acca3e0","ios":"levelo://app?vid=72f3761d-3fd2-4915-94b1-a5b13acca3e0"},"vehicle_type_id":"4","last_reported":1722103869,"current_range_meters":17600,"station_id":"ce4bgi92rcd13ifvqb90","pricing_plan_id":"cebpf4jnsgd1na2vs0mg"},{"bike_id":"87b570ea-57e8-431b-b50f-7b92f0fc67d7","system_id":"levelo_inurba_marseille","lat":43.299707,"lon":5.384859,"is_reserved":false,"is_disabled":false,"rental_uris":{"android":"levelo://app?vid=87b570ea-57e8-431b-b50f-7b92f0fc67d7","ios":"levelo://app?vid=87b570ea-57e8-431b-b50f-7b92f0fc67d7"},"vehicle_type_id":"4","last_reported":1722103869,"current_range_meters":1200,"station_id":"ce4bgj92rcd13ifvqbd0","pricing_plan_id":"cebpf4jnsgd1na2vs0mg"},{"bike_id":"86ac6fd5-ff29-45b2-82dd-e9a987587dea","system_id":"levelo_inurba_marseille","lat":43.295279,"lon":5.375048,"is_reserved":false,"is_disabled":false,"rental_uris":{"android":"levelo://app?vid=86ac6fd5-ff29-45b2-82dd-e9a987587dea","ios":"levelo://app?vid=86ac6fd5-ff29-45b2-82dd-e9a987587dea"},"vehicle_type_id":"4","last_reported":1722103869,"current_range_meters":30800,"station_id":"ce4bgkp2rcd13ifvqbmg","pricing_plan_id":"cebpf4jnsgd1na2vs0mg"},{"bike_id":"e65580d1-a32b-47e0-b338-ccc4478bf9bc","system_id":"levelo_inurba_marseille","lat":43.295279,"lon":5.375048,"is_reserved":false,"is_disabled":false,"rental_uris":{"android":"levelo://app?vid=e65580d1-a32b-47e0-b338-ccc4478bf9bc","ios":"levelo://app?vid=e65580d1-a32b-47e0-b338-ccc4478bf9bc"},"vehicle_type_id":"4","last_reported":1722103869,"current_range_meters":23200,"station_id":"ce4bgkp2rcd13ifvqbmg","pricing_plan_id":"cebpf4jnsgd1na2vs0mg"},{"bike_id":"9751958f-0dd1-48aa-bfcf-f2c06ea31414","system_id":"levelo_inurba_marseille","lat":43.29979,"lon":5.38486,"is_reserved":false,"is_disabled":false,"rental_uris":{"android":"levelo://app?vid=9751958f-0dd1-48aa-bfcf-f2c06ea31414","ios":"levelo://app?vid=9751958f-0dd1-48aa-bfcf-f2c06ea31414"},"vehicle_type_id":"4","last_reported":1722103869,"current_range_meters":0,"station_id":"ce4bgj92rcd13ifvqbd0","pricing_plan_id":"cebpf4jnsgd1na2vs0mg"},{"bike_id":"35030163-40e2-4299-b161-5e3fb5ca7da3","system_id":"levelo_inurba_marseille","lat":43.295279,"lon":5.375048,"is_reserved":false,"is_disabled":false,"rental_uris":{"android":"levelo://app?vid=35030163-40e2-4299-b161-5e3fb5ca7da3","ios":"levelo://app?vid=35030163-40e2-4299-b161-5e3fb5ca7da3"},"vehicle_type_id":"4","last_reported":1722103869,"current_range_meters":28800,"station_id":"ce4bgkp2rcd13ifvqbmg","pricing_plan_id":"cebpf4jnsgd1na2vs0mg"},{"bike_id":"a38b4e4e-1051-4a67-9bff-7472727988c2","system_id":"levelo_inurba_marseille","lat":43.295279,"lon":5.375048,"is_reserved":false,"is_disabled":false,"rental_uris":{"android":"levelo://app?vid=a38b4e4e-1051-4a67-9bff-7472727988c2","ios":"levelo://app?vid=a38b4e4e-1051-4a67-9bff-7472727988c2"},"vehicle_type_id":"4","last_reported":1722103869,"current_range_meters":1200,"station_id":"ce4bgkp2rcd13ifvqbmg","pricing_plan_id":"cebpf4jnsgd1na2vs0mg"},{"bike_id":"eafe4954-4ffc-42ec-8cce-014dcbbe01f7","system_id":"levelo_inurba_marseille","lat":43.29645,"lon":5.37939,"is_reserved":false,"is_disabled":false,"rental_uris":{"android":"levelo://app?vid=eafe4954-4ffc-42ec-8cce-014dcbbe01f7","ios":"levelo://app?vid=eafe4954-4ffc-42ec-8cce-014dcbbe01f7"},"vehicle_type_id":"4","last_reported":1722103869,"current_range_meters":31200,"station_id":"","pricing_plan_id":"cebpf4jnsgd1na2vs0mg"},{"bike_id":"c0e638b7-662b-440a-b82f-2503428c9f40","system_id":"levelo_inurba_marseille","lat":43.301396,"lon":5.387812,"is_reserved":false,"is_disabled":false,"rental_uris":{"android":"levelo://app?vid=c0e638b7-662b-440a-b82f-2503428c9f40","ios":"levelo://app?vid=c0e638b7-662b-440a-b82f-2503428c9f40"},"vehicle_type_id":"4","last_reported":1722103869,"current_range_meters":19600,"station_id":"ce4bghh2rcd13ifvqb60","pricing_plan_id":"cebpf4jnsgd1na2vs0mg"},{"bike_id":"364ada02-5f27-435f-9f95-d2162be0af15","system_id":"levelo_inurba_marseille","lat":43.309371,"lon":5.401449,"is_reserved":false,"is_disabled":false,"rental_uris":{"android":"levelo://app?vid=364ada02-5f27-435f-9f95-d2162be0af15","ios":"levelo://app?vid=364ada02-5f27-435f-9f95-d2162be0af15"},"vehicle_type_id":"4","last_reported":1722103869,"current_range_meters":1200,"station_id":"ce4bgvp2rcd13ifvqct0","pricing_plan_id":"cebpf4jnsgd1na2vs0mg"},{"bike_id":"2766c5cb-f33a-42f5-90f0-9a7c483e8620","system_id":"levelo_inurba_marseille","lat":43.32367,"lon":5.388836,"is_reserved":false,"is_disabled":false,"rental_uris":{"android":"levelo://app?vid=2766c5cb-f33a-42f5-90f0-9a7c483e8620","ios":"levelo://app?vid=2766c5cb-f33a-42f5-90f0-9a7c483e8620"},"vehicle_type_id":"4","last_reported":1722103869,"current_range_meters":26400,"station_id":"ce4bhqp2rcd13ifvqhog","pricing_plan_id":"cebpf4jnsgd1na2vs0mg"},{"bike_id":"705478de-29e1-4f89-8627-eda9a7dd1a6c","system_id":"levelo_inurba_marseille","lat":43.32367,"lon":5.388836,"is_reserved":false,"is_disabled":false,"rental_uris":{"android":"levelo://app?vid=705478de-29e1-4f89-8627-eda9a7dd1a6c","ios":"levelo://app?vid=705478de-29e1-4f89-8627-eda9a7dd1a6c"},"vehicle_type_id":"4","last_reported":1722103869,"current_range_meters":800,"station_id":"ce4bhqp2rcd13ifvqhog","pricing_plan_id":"cebpf4jnsgd1na2vs0mg"},{"bike_id":"f71684d2-e6a6-4338-92d3-2fc1bd82ccae","system_id":"levelo_inurba_marseille","lat":43.290336,"lon":5.386425,"is_reserved":false,"is_disabled":false,"rental_uris":{"android":"levelo://app?vid=f71684d2-e6a6-4338-92d3-2fc1bd82ccae","ios":"levelo://app?vid=f71684d2-e6a6-4338-92d3-2fc1bd82ccae"},"vehicle_type_id":"4","last_reported":1722103869,"current_range_meters":0,"station_id":"ce4bh4p2rcd13ifvqe0g","pricing_plan_id":"cebpf4jnsgd1na2vs0mg"},{"bike_id":"2d1560a3-0772-4bbe-b0a8-85e3c3c0a22e","system_id":"levelo_inurba_marseille","lat":43.29351,"lon":5.37132,"is_reserved":false,"is_disabled":false,"rental_uris":{"android":"levelo://app?vid=2d1560a3-0772-4bbe-b0a8-85e3c3c0a22e","ios":"levelo://app?vid=2d1560a3-0772-4bbe-b0a8-85e3c3c0a22e"},"vehicle_type_id":"4","last_reported":1722103869,"current_range_meters":13600,"station_id":"","pricing_plan_id":"cebpf4jnsgd1na2vs0mg"},{"bike_id":"466b0637-da8e-4a57-9ea0-e59e59313b37","system_id":"levelo_inurba_marseille","lat":43.29602,"lon":5.381084,"is_reserved":false,"is_disabled":false,"rental_uris":{"android":"levelo://app?vid=466b0637-da8e-4a57-9ea0-e59e59313b37","ios":"levelo://app?vid=466b0637-da8e-4a57-9ea0-e59e59313b37"},"vehicle_type_id":"4","last_reported":1722103869,"current_range_meters":12800,"station_id":"ce4bgl12rcd13ifvqbo0","pricing_plan_id":"cebpf4jnsgd1na2vs0mg"},{"bike_id":"11189389-a9e9-4f81-b8bd-b5ec6e33bff5","system_id":"levelo_inurba_marseille","lat":43.293259,"lon":5.371586,"is_reserved":false,"is_disabled":false,"rental_uris":{"android":"levelo://app?vid=11189389-a9e9-4f81-b8bd-b5ec6e33bff5","ios":"levelo://app?vid=11189389-a9e9-4f81-b8bd-b5ec6e33bff5"},"vehicle_type_id":"4","last_reported":1722103869,"current_range_meters":4400,"station_id":"ce4bgh92rcd13ifvqb40","pricing_plan_id":"cebpf4jnsgd1na2vs0mg"},{"bike_id":"d563ada7-398b-4e9a-b0cf-7f1de27aac3a","system_id":"levelo_inurba_marseille","lat":43.293249,"lon":5.371578,"is_reserved":false,"is_disabled":false,"rental_uris":{"android":"levelo://app?vid=d563ada7-398b-4e9a-b0cf-7f1de27aac3a","ios":"levelo://app?vid=d563ada7-398b-4e9a-b0cf-7f1de27aac3a"},"vehicle_type_id":"4","last_reported":1722103869,"current_range_meters":18400,"station_id":"ce4bgh92rcd13ifvqb40","pricing_plan_id":"cebpf4jnsgd1na2vs0mg"},{"bike_id":"a01dc47c-2774-4bbd-8216-b18452b19343","system_id":"levelo_inurba_marseille","lat":43.293249,"lon":5.371578,"is_reserved":false,"is_disabled":false,"rental_uris":{"android":"levelo://app?vid=a01dc47c-2774-4bbd-8216-b18452b19343","ios":"levelo://app?vid=a01dc47c-2774-4bbd-8216-b18452b19343"},"vehicle_type_id":"4","last_reported":1722103869,"current_range_meters":5200,"station_id":"ce4bgh92rcd13ifvqb40","pricing_plan_id":"cebpf4jnsgd1na2vs0mg"},{"bike_id":"fb4649f6-5774-4a6b-ab6d-18c7e48797ac","system_id":"levelo_inurba_marseille","lat":43.292749,"lon":5.368402,"is_reserved":false,"is_disabled":false,"rental_uris":{"android":"levelo://app?vid=fb4649f6-5774-4a6b-ab6d-18c7e48797ac","ios":"levelo://app?vid=fb4649f6-5774-4a6b-ab6d-18c7e48797ac"},"vehicle_type_id":"4","last_reported":1722103869,"current_range_meters":0,"station_id":"ce4bhbp2rcd13ifvqesg","pricing_plan_id":"cebpf4jnsgd1na2vs0mg"},{"bike_id":"f8d3691f-e05e-4848-b042-201f8c289c9c","system_id":"levelo_inurba_marseille","lat":43.29268,"lon":5.36841,"is_reserved":false,"is_disabled":false,"rental_uris":{"android":"levelo://app?vid=f8d3691f-e05e-4848-b042-201f8c289c9c","ios":"levelo://app?vid=f8d3691f-e05e-4848-b042-201f8c289c9c"},"vehicle_type_id":"4","last_reported":1722103869,"current_range_meters":28000,"station_id":"ce4bhbp2rcd13ifvqesg","pricing_plan_id":"cebpf4jnsgd1na2vs0mg"},{"bike_id":"8f810bb7-b70e-49ec-a998-8412f473becd","system_id":"levelo_inurba_marseille","lat":43.305994,"lon":5.393687,"is_reserved":false,"is_disabled":false,"rental_uris":{"android":"levelo://app?vid=8f810bb7-b70e-49ec-a998-8412f473becd","ios":"levelo://app?vid=8f810bb7-b70e-49ec-a998-8412f473becd"},"vehicle_type_id":"4","last_reported":1722103869,"current_range_meters":15200,"station_id":"ce4bh0p2rcd13ifvqd80","pricing_plan_id":"cebpf4jnsgd1na2vs0mg"},{"bike_id":"638f8c55-ac86-4e3f-8479-23d7a4ef7d87","system_id":"levelo_inurba_marseille","lat":43.3031,"lon":5.39204,"is_reserved":false,"is_disabled":false,"rental_uris":{"android":"levelo://app?vid=638f8c55-ac86-4e3f-8479-23d7a4ef7d87","ios":"levelo://app?vid=638f8c55-ac86-4e3f-8479-23d7a4ef7d87"},"vehicle_type_id":"4","last_reported":1722103869,"current_range_meters":14800,"station_id":"ce4bgkh2rcd13ifvqbk0","pricing_plan_id":"cebpf4jnsgd1na2vs0mg"},{"bike_id":"2152b4fc-cb7d-43ce-bd34-9879ec6527ce","system_id":"levelo_inurba_marseille","lat":43.303002,"lon":5.392142,"is_reserved":false,"is_disabled":false,"rental_uris":{"android":"levelo://app?vid=2152b4fc-cb7d-43ce-bd34-9879ec6527ce","ios":"levelo://app?vid=2152b4fc-cb7d-43ce-bd34-9879ec6527ce"},"vehicle_type_id":"4","last_reported":1722103869,"current_range_meters":0,"station_id":"ce4bgkh2rcd13ifvqbk0","pricing_plan_id":"cebpf4jnsgd1na2vs0mg"},{"bike_id":"0e668b5e-7bbc-44e7-94c3-63163966ff0b","system_id":"levelo_inurba_marseille","lat":43.2936,"lon":5.37835,"is_reserved":false,"is_disabled":false,"rental_uris":{"android":"levelo://app?vid=0e668b5e-7bbc-44e7-94c3-63163966ff0b","ios":"levelo://app?vid=0e668b5e-7bbc-44e7-94c3-63163966ff0b"},"vehicle_type_id":"4","last_reported":1722103869,"current_range_meters":2800,"station_id":"ce4bgjh2rcd13ifvqbf0","pricing_plan_id":"cebpf4jnsgd1na2vs0mg"},{"bike_id":"f56a4e38-84f6-4945-b016-5de789b1fedf","system_id":"levelo_inurba_marseille","lat":43.30296,"lon":5.39206,"is_reserved":false,"is_disabled":false,"rental_uris":{"android":"levelo://app?vid=f56a4e38-84f6-4945-b016-5de789b1fedf","ios":"levelo://app?vid=f56a4e38-84f6-4945-b016-5de789b1fedf"},"vehicle_type_id":"4","last_reported":1722103869,"current_range_meters":0,"station_id":"ce4bgkh2rcd13ifvqbk0","pricing_plan_id":"cebpf4jnsgd1na2vs0mg"},{"bike_id":"ced6ad28-cffe-48f3-83d3-44b05f399f3a","system_id":"levelo_inurba_marseille","lat":43.2937,"lon":5.3783,"is_reserved":false,"is_disabled":false,"rental_uris":{"android":"levelo://app?vid=ced6ad28-cffe-48f3-83d3-44b05f399f3a","ios":"levelo://app?vid=ced6ad28-cffe-48f3-83d3-44b05f399f3a"},"vehicle_type_id":"4","last_reported":1722103869,"current_range_meters":0,"station_id":"ce4bgjh2rcd13ifvqbf0","pricing_plan_id":"cebpf4jnsgd1na2vs0mg"},{"bike_id":"8a2799f8-f578-4cb9-9511-5e676eab31d0","system_id":"levelo_inurba_marseille","lat":43.302992,"lon":5.392136,"is_reserved":false,"is_disabled":false,"rental_uris":{"android":"levelo://app?vid=8a2799f8-f578-4cb9-9511-5e676eab31d0","ios":"levelo://app?vid=8a2799f8-f578-4cb9-9511-5e676eab31d0"},"vehicle_type_id":"4","last_reported":1722103869,"current_range_meters":0,"station_id":"ce4bgkh2rcd13ifvqbk0","pricing_plan_id":"cebpf4jnsgd1na2vs0mg"},{"bike_id":"839d3327-308b-4fdf-a26c-80c69d3c6dca","system_id":"levelo_inurba_marseille","lat":43.293667,"lon":5.378464,"is_reserved":false,"is_disabled":false,"rental_uris":{"android":"levelo://app?vid=839d3327-308b-4fdf-a26c-80c69d3c6dca","ios":"levelo://app?vid=839d3327-308b-4fdf-a26c-80c69d3c6dca"},"vehicle_type_id":"4","last_reported":1722103869,"current_range_meters":13600,"station_id":"ce4bgjh2rcd13ifvqbf0","pricing_plan_id":"cebpf4jnsgd1na2vs0mg"},{"bike_id":"af5c088b-4c0e-4ae0-a83e-36633b550965","system_id":"levelo_inurba_marseille","lat":43.2936,"lon":5.37835,"is_reserved":false,"is_disabled":false,"rental_uris":{"android":"levelo://app?vid=af5c088b-4c0e-4ae0-a83e-36633b550965","ios":"levelo://app?vid=af5c088b-4c0e-4ae0-a83e-36633b550965"},"vehicle_type_id":"4","last_reported":1722103869,"current_range_meters":10400,"station_id":"ce4bgjh2rcd13ifvqbf0","pricing_plan_id":"cebpf4jnsgd1na2vs0mg"},{"bike_id":"01acaf0f-851d-47d9-a979-00e739e37213","system_id":"levelo_inurba_marseille","lat":43.2937,"lon":5.37868,"is_reserved":false,"is_disabled":false,"rental_uris":{"android":"levelo://app?vid=01acaf0f-851d-47d9-a979-00e739e37213","ios":"levelo://app?vid=01acaf0f-851d-47d9-a979-00e739e37213"},"vehicle_type_id":"4","last_reported":1722103869,"current_range_meters":22800,"station_id":"ce4bgjh2rcd13ifvqbf0","pricing_plan_id":"cebpf4jnsgd1na2vs0mg"},{"bike_id":"b01edcd3-89ab-444a-867b-742b73f949ec","system_id":"levelo_inurba_marseille","lat":43.300852,"lon":5.390859,"is_reserved":false,"is_disabled":false,"rental_uris":{"android":"levelo://app?vid=b01edcd3-89ab-444a-867b-742b73f949ec","ios":"levelo://app?vid=b01edcd3-89ab-444a-867b-742b73f949ec"},"vehicle_type_id":"4","last_reported":1722103869,"current_range_meters":26800,"station_id":"ce4bh192rcd13ifvqdb0","pricing_plan_id":"cebpf4jnsgd1na2vs0mg"},{"bike_id":"f2b3a60a-9723-4b06-a986-378fcae4df68","system_id":"levelo_inurba_marseille","lat":43.30085,"lon":5.390856,"is_reserved":false,"is_disabled":false,"rental_uris":{"android":"levelo://app?vid=f2b3a60a-9723-4b06-a986-378fcae4df68","ios":"levelo://app?vid=f2b3a60a-9723-4b06-a986-378fcae4df68"},"vehicle_type_id":"4","last_reported":1722103869,"current_range_meters":0,"station_id":"ce4bh192rcd13ifvqdb0","pricing_plan_id":"cebpf4jnsgd1na2vs0mg"},{"bike_id":"8a6b6304-361f-40f5-a373-fcadb1a186db","system_id":"levelo_inurba_marseille","lat":43.292311,"lon":5.360731,"is_reserved":false,"is_disabled":false,"rental_uris":{"android":"levelo://app?vid=8a6b6304-361f-40f5-a373-fcadb1a186db","ios":"levelo://app?vid=8a6b6304-361f-40f5-a373-fcadb1a186db"},"vehicle_type_id":"4","last_reported":1722103869,"current_range_meters":0,"station_id":"ce4bhbh2rcd13ifvqeqg","pricing_plan_id":"cebpf4jnsgd1na2vs0mg"},{"bike_id":"0ff5fac8-939f-40ea-8f9a-97ac418cd05b","system_id":"levelo_inurba_marseille","lat":43.300852,"lon":5.390859,"is_reserved":false,"is_disabled":false,"rental_uris":{"android":"levelo://app?vid=0ff5fac8-939f-40ea-8f9a-97ac418cd05b","ios":"levelo://app?vid=0ff5fac8-939f-40ea-8f9a-97ac418cd05b"},"vehicle_type_id":"4","last_reported":1722103869,"current_range_meters":2800,"station_id":"ce4bh192rcd13ifvqdb0","pricing_plan_id":"cebpf4jnsgd1na2vs0mg"},{"bike_id":"42baeaf1-565b-42d1-b878-a1b6f1231f30","system_id":"levelo_inurba_marseille","lat":43.292311,"lon":5.360731,"is_reserved":false,"is_disabled":false,"rental_uris":{"android":"levelo://app?vid=42baeaf1-565b-42d1-b878-a1b6f1231f30","ios":"levelo://app?vid=42baeaf1-565b-42d1-b878-a1b6f1231f30"},"vehicle_type_id":"4","last_reported":1722103869,"current_range_meters":0,"station_id":"ce4bhbh2rcd13ifvqeqg","pricing_plan_id":"cebpf4jnsgd1na2vs0mg"},{"bike_id":"9cc6391c-120e-4b9e-9176-b5d57838fd85","system_id":"levelo_inurba_marseille","lat":43.28856,"lon":5.358371,"is_reserved":false,"is_disabled":false,"rental_uris":{"android":"levelo://app?vid=9cc6391c-120e-4b9e-9176-b5d57838fd85","ios":"levelo://app?vid=9cc6391c-120e-4b9e-9176-b5d57838fd85"},"vehicle_type_id":"4","last_reported":1722103869,"current_range_meters":29200,"station_id":"ce4bhb12rcd13ifvqem0","pricing_plan_id":"cebpf4jnsgd1na2vs0mg"},{"bike_id":"724ba437-3043-491e-8d26-35d37862e516","system_id":"levelo_inurba_marseille","lat":43.29259,"lon":5.37622,"is_reserved":false,"is_disabled":false,"rental_uris":{"android":"levelo://app?vid=724ba437-3043-491e-8d26-35d37862e516","ios":"levelo://app?vid=724ba437-3043-491e-8d26-35d37862e516"},"vehicle_type_id":"4","last_reported":1722103869,"current_range_meters":20000,"station_id":"ce4bgi12rcd13ifvqb80","pricing_plan_id":"cebpf4jnsgd1na2vs0mg"},{"bike_id":"b27a82ad-a505-4b11-a89a-ee05cc727eaa","system_id":"levelo_inurba_marseille","lat":43.31325,"lon":5.39674,"is_reserved":false,"is_disabled":false,"rental_uris":{"android":"levelo://app?vid=b27a82ad-a505-4b11-a89a-ee05cc727eaa","ios":"levelo://app?vid=b27a82ad-a505-4b11-a89a-ee05cc727eaa"},"vehicle_type_id":"4","last_reported":1722103869,"current_range_meters":4800,"station_id":"ce4bgvp2rcd13ifvqcu0","pricing_plan_id":"cebpf4jnsgd1na2vs0mg"},{"bike_id":"b643fd1e-0c49-4e13-9d84-30791f484a94","system_id":"levelo_inurba_marseille","lat":43.29197,"lon":5.35802,"is_reserved":false,"is_disabled":false,"rental_uris":{"android":"levelo://app?vid=b643fd1e-0c49-4e13-9d84-30791f484a94","ios":"levelo://app?vid=b643fd1e-0c49-4e13-9d84-30791f484a94"},"vehicle_type_id":"4","last_reported":1722103869,"current_range_meters":0,"station_id":"ce4bhb12rcd13ifvqel0","pricing_plan_id":"cebpf4jnsgd1na2vs0mg"},{"bike_id":"cfc19a5d-d395-4620-ab37-f72fd7b4cbe4","system_id":"levelo_inurba_marseille","lat":43.291994,"lon":5.357886,"is_reserved":false,"is_disabled":false,"rental_uris":{"android":"levelo://app?vid=cfc19a5d-d395-4620-ab37-f72fd7b4cbe4","ios":"levelo://app?vid=cfc19a5d-d395-4620-ab37-f72fd7b4cbe4"},"vehicle_type_id":"4","last_reported":1722103869,"current_range_meters":31200,"station_id":"ce4bhb12rcd13ifvqel0","pricing_plan_id":"cebpf4jnsgd1na2vs0mg"},{"bike_id":"fa5d3d60-f7d5-47e3-9ac3-07776f9cea96","system_id":"levelo_inurba_marseille","lat":43.309038,"lon":5.396546,"is_reserved":false,"is_disabled":false,"rental_uris":{"android":"levelo://app?vid=fa5d3d60-f7d5-47e3-9ac3-07776f9cea96","ios":"levelo://app?vid=fa5d3d60-f7d5-47e3-9ac3-07776f9cea96"},"vehicle_type_id":"4","last_reported":1722103869,"current_range_meters":3200,"station_id":"ce4bh012rcd13ifvqcv0","pricing_plan_id":"cebpf4jnsgd1na2vs0mg"},{"bike_id":"058cdb9f-a404-4b18-a8e4-c9666476501f","system_id":"levelo_inurba_marseille","lat":43.291994,"lon":5.357886,"is_reserved":false,"is_disabled":false,"rental_uris":{"android":"levelo://app?vid=058cdb9f-a404-4b18-a8e4-c9666476501f","ios":"levelo://app?vid=058cdb9f-a404-4b18-a8e4-c9666476501f"},"vehicle_type_id":"4","last_reported":1722103869,"current_range_meters":9200,"station_id":"ce4bhb12rcd13ifvqel0","pricing_plan_id":"cebpf4jnsgd1na2vs0mg"},{"bike_id":"6382618b-ffc5-4f39-a11a-1c6c8edadbab","system_id":"levelo_inurba_marseille","lat":43.29184,"lon":5.35791,"is_reserved":false,"is_disabled":false,"rental_uris":{"android":"levelo://app?vid=6382618b-ffc5-4f39-a11a-1c6c8edadbab","ios":"levelo://app?vid=6382618b-ffc5-4f39-a11a-1c6c8edadbab"},"vehicle_type_id":"4","last_reported":1722103869,"current_range_meters":0,"station_id":"ce4bhb12rcd13ifvqel0","pricing_plan_id":"cebpf4jnsgd1na2vs0mg"},{"bike_id":"47cc49eb-3a00-4cde-8926-611cfb15dddd","system_id":"levelo_inurba_marseille","lat":43.309038,"lon":5.396546,"is_reserved":false,"is_disabled":false,"rental_uris":{"android":"levelo://app?vid=47cc49eb-3a00-4cde-8926-611cfb15dddd","ios":"levelo://app?vid=47cc49eb-3a00-4cde-8926-611cfb15dddd"},"vehicle_type_id":"4","last_reported":1722103869,"current_range_meters":2000,"station_id":"ce4bh012rcd13ifvqcv0","pricing_plan_id":"cebpf4jnsgd1na2vs0mg"},{"bike_id":"93815a6f-848a-484e-9d20-4eba92b86e2a","system_id":"levelo_inurba_marseille","lat":43.309047,"lon":5.396551,"is_reserved":false,"is_disabled":false,"rental_uris":{"android":"levelo://app?vid=93815a6f-848a-484e-9d20-4eba92b86e2a","ios":"levelo://app?vid=93815a6f-848a-484e-9d20-4eba92b86e2a"},"vehicle_type_id":"4","last_reported":1722103869,"current_range_meters":10000,"station_id":"ce4bh012rcd13ifvqcv0","pricing_plan_id":"cebpf4jnsgd1na2vs0mg"},{"bike_id":"1483598c-d641-4346-8857-bb03fbe857aa","system_id":"levelo_inurba_marseille","lat":43.29529,"lon":5.385581,"is_reserved":false,"is_disabled":false,"rental_uris":{"android":"levelo://app?vid=1483598c-d641-4346-8857-bb03fbe857aa","ios":"levelo://app?vid=1483598c-d641-4346-8857-bb03fbe857aa"},"vehicle_type_id":"4","last_reported":1722103869,"current_range_meters":1200,"station_id":"ce4bgih2rcd13ifvqba0","pricing_plan_id":"cebpf4jnsgd1na2vs0mg"},{"bike_id":"2c03468c-e7b5-49d7-b239-850d7f52816a","system_id":"levelo_inurba_marseille","lat":43.29529,"lon":5.385581,"is_reserved":false,"is_disabled":false,"rental_uris":{"android":"levelo://app?vid=2c03468c-e7b5-49d7-b239-850d7f52816a","ios":"levelo://app?vid=2c03468c-e7b5-49d7-b239-850d7f52816a"},"vehicle_type_id":"4","last_reported":1722103869,"current_range_meters":23200,"station_id":"ce4bgih2rcd13ifvqba0","pricing_plan_id":"cebpf4jnsgd1na2vs0mg"},{"bike_id":"ef5f7175-e423-4f9a-baa9-2f982a654078","system_id":"levelo_inurba_marseille","lat":43.29529,"lon":5.385581,"is_reserved":false,"is_disabled":false,"rental_uris":{"android":"levelo://app?vid=ef5f7175-e423-4f9a-baa9-2f982a654078","ios":"levelo://app?vid=ef5f7175-e423-4f9a-baa9-2f982a654078"},"vehicle_type_id":"4","last_reported":1722103869,"current_range_meters":28400,"station_id":"ce4bgih2rcd13ifvqba0","pricing_plan_id":"cebpf4jnsgd1na2vs0mg"},{"bike_id":"87d3397f-74ed-4dbd-a89e-cd7c1426327a","system_id":"levelo_inurba_marseille","lat":43.29074,"lon":5.37168,"is_reserved":false,"is_disabled":false,"rental_uris":{"android":"levelo://app?vid=87d3397f-74ed-4dbd-a89e-cd7c1426327a","ios":"levelo://app?vid=87d3397f-74ed-4dbd-a89e-cd7c1426327a"},"vehicle_type_id":"4","last_reported":1722103869,"current_range_meters":10000,"station_id":"","pricing_plan_id":"cebpf4jnsgd1na2vs0mg"},{"bike_id":"28600c89-27c2-40ad-9e55-dacfbf25cc05","system_id":"levelo_inurba_marseille","lat":43.290779,"lon":5.371482,"is_reserved":false,"is_disabled":false,"rental_uris":{"android":"levelo://app?vid=28600c89-27c2-40ad-9e55-dacfbf25cc05","ios":"levelo://app?vid=28600c89-27c2-40ad-9e55-dacfbf25cc05"},"vehicle_type_id":"4","last_reported":1722103869,"current_range_meters":19200,"station_id":"ce4bh5p2rcd13ifvqe4g","pricing_plan_id":"cebpf4jnsgd1na2vs0mg"},{"bike_id":"3853c678-b446-41e4-9c5a-44b01e8a2e05","system_id":"levelo_inurba_marseille","lat":43.309589,"lon":5.390258,"is_reserved":false,"is_disabled":false,"rental_uris":{"android":"levelo://app?vid=3853c678-b446-41e4-9c5a-44b01e8a2e05","ios":"levelo://app?vid=3853c678-b446-41e4-9c5a-44b01e8a2e05"},"vehicle_type_id":"4","last_reported":1722103869,"current_range_meters":800,"station_id":"ce4bgup2rcd13ifvqco0","pricing_plan_id":"cebpf4jnsgd1na2vs0mg"},{"bike_id":"9b3d31dd-4175-4f91-9e36-d5c44a092b25","system_id":"levelo_inurba_marseille","lat":43.28972,"lon":5.36545,"is_reserved":false,"is_disabled":false,"rental_uris":{"android":"levelo://app?vid=9b3d31dd-4175-4f91-9e36-d5c44a092b25","ios":"levelo://app?vid=9b3d31dd-4175-4f91-9e36-d5c44a092b25"},"vehicle_type_id":"4","last_reported":1722103869,"current_range_meters":16400,"station_id":"","pricing_plan_id":"cebpf4jnsgd1na2vs0mg"},{"bike_id":"eb909839-ef28-4ee9-82aa-11be80b8e851","system_id":"levelo_inurba_marseille","lat":43.294153,"lon":5.386305,"is_reserved":false,"is_disabled":false,"rental_uris":{"android":"levelo://app?vid=eb909839-ef28-4ee9-82aa-11be80b8e851","ios":"levelo://app?vid=eb909839-ef28-4ee9-82aa-11be80b8e851"},"vehicle_type_id":"4","last_reported":1722103869,"current_range_meters":2800,"station_id":"ce4bh2h2rcd13ifvqdh0","pricing_plan_id":"cebpf4jnsgd1na2vs0mg"},{"bike_id":"b26b47f4-b3a4-4ffc-afa0-9f873bc73b3e","system_id":"levelo_inurba_marseille","lat":43.294153,"lon":5.386305,"is_reserved":false,"is_disabled":false,"rental_uris":{"android":"levelo://app?vid=b26b47f4-b3a4-4ffc-afa0-9f873bc73b3e","ios":"levelo://app?vid=b26b47f4-b3a4-4ffc-afa0-9f873bc73b3e"},"vehicle_type_id":"4","last_reported":1722103869,"current_range_meters":15200,"station_id":"ce4bh2h2rcd13ifvqdh0","pricing_plan_id":"cebpf4jnsgd1na2vs0mg"},{"bike_id":"4f2632a3-16ce-49a1-bdc1-3c153ffb392b","system_id":"levelo_inurba_marseille","lat":43.294153,"lon":5.386305,"is_reserved":false,"is_disabled":false,"rental_uris":{"android":"levelo://app?vid=4f2632a3-16ce-49a1-bdc1-3c153ffb392b","ios":"levelo://app?vid=4f2632a3-16ce-49a1-bdc1-3c153ffb392b"},"vehicle_type_id":"4","last_reported":1722103869,"current_range_meters":0,"station_id":"ce4bh2h2rcd13ifvqdh0","pricing_plan_id":"cebpf4jnsgd1na2vs0mg"},{"bike_id":"f7b94a4a-7d1a-458e-acb1-56cacef1f339","system_id":"levelo_inurba_marseille","lat":43.286595,"lon":5.386795,"is_reserved":false,"is_disabled":false,"rental_uris":{"android":"levelo://app?vid=f7b94a4a-7d1a-458e-acb1-56cacef1f339","ios":"levelo://app?vid=f7b94a4a-7d1a-458e-acb1-56cacef1f339"},"vehicle_type_id":"4","last_reported":1722103869,"current_range_meters":0,"station_id":"ce4bh492rcd13ifvqdug","pricing_plan_id":"cebpf4jnsgd1na2vs0mg"},{"bike_id":"552bd53b-64e1-42ba-8fb4-7c077f1d43f3","system_id":"levelo_inurba_marseille","lat":43.294153,"lon":5.386305,"is_reserved":false,"is_disabled":false,"rental_uris":{"android":"levelo://app?vid=552bd53b-64e1-42ba-8fb4-7c077f1d43f3","ios":"levelo://app?vid=552bd53b-64e1-42ba-8fb4-7c077f1d43f3"},"vehicle_type_id":"4","last_reported":1722103869,"current_range_meters":12000,"station_id":"ce4bh2h2rcd13ifvqdh0","pricing_plan_id":"cebpf4jnsgd1na2vs0mg"},{"bike_id":"5ba943ff-c20e-4eb3-96e1-93167168d6a1","system_id":"levelo_inurba_marseille","lat":43.28942,"lon":5.36633,"is_reserved":false,"is_disabled":false,"rental_uris":{"android":"levelo://app?vid=5ba943ff-c20e-4eb3-96e1-93167168d6a1","ios":"levelo://app?vid=5ba943ff-c20e-4eb3-96e1-93167168d6a1"},"vehicle_type_id":"4","last_reported":1722103869,"current_range_meters":0,"station_id":"ce4bhap2rcd13ifvqek0","pricing_plan_id":"cebpf4jnsgd1na2vs0mg"},{"bike_id":"a39c9044-a666-4417-b1c9-363e908da2c5","system_id":"levelo_inurba_marseille","lat":43.294162,"lon":5.386292,"is_reserved":false,"is_disabled":false,"rental_uris":{"android":"levelo://app?vid=a39c9044-a666-4417-b1c9-363e908da2c5","ios":"levelo://app?vid=a39c9044-a666-4417-b1c9-363e908da2c5"},"vehicle_type_id":"4","last_reported":1722103869,"current_range_meters":18800,"station_id":"ce4bh2h2rcd13ifvqdh0","pricing_plan_id":"cebpf4jnsgd1na2vs0mg"},{"bike_id":"b7102e11-4567-41c3-9d33-d3526c9146da","system_id":"levelo_inurba_marseille","lat":43.289184,"lon":5.366408,"is_reserved":false,"is_disabled":false,"rental_uris":{"android":"levelo://app?vid=b7102e11-4567-41c3-9d33-d3526c9146da","ios":"levelo://app?vid=b7102e11-4567-41c3-9d33-d3526c9146da"},"vehicle_type_id":"4","last_reported":1722103869,"current_range_meters":800,"station_id":"ce4bhap2rcd13ifvqek0","pricing_plan_id":"cebpf4jnsgd1na2vs0mg"},{"bike_id":"bf199076-8d52-4f2b-b8aa-d2e5ec20603a","system_id":"levelo_inurba_marseille","lat":43.289184,"lon":5.366408,"is_reserved":false,"is_disabled":false,"rental_uris":{"android":"levelo://app?vid=bf199076-8d52-4f2b-b8aa-d2e5ec20603a","ios":"levelo://app?vid=bf199076-8d52-4f2b-b8aa-d2e5ec20603a"},"vehicle_type_id":"4","last_reported":1722103869,"current_range_meters":0,"station_id":"ce4bhap2rcd13ifvqek0","pricing_plan_id":"cebpf4jnsgd1na2vs0mg"},{"bike_id":"716a2195-27e7-4100-b4b7-28d267e88207","system_id":"levelo_inurba_marseille","lat":43.28937,"lon":5.36636,"is_reserved":false,"is_disabled":false,"rental_uris":{"android":"levelo://app?vid=716a2195-27e7-4100-b4b7-28d267e88207","ios":"levelo://app?vid=716a2195-27e7-4100-b4b7-28d267e88207"},"vehicle_type_id":"4","last_reported":1722103869,"current_range_meters":0,"station_id":"ce4bhap2rcd13ifvqek0","pricing_plan_id":"cebpf4jnsgd1na2vs0mg"},{"bike_id":"cc10878a-d175-40c4-8859-661b1daf3230","system_id":"levelo_inurba_marseille","lat":43.28937,"lon":5.36635,"is_reserved":false,"is_disabled":false,"rental_uris":{"android":"levelo://app?vid=cc10878a-d175-40c4-8859-661b1daf3230","ios":"levelo://app?vid=cc10878a-d175-40c4-8859-661b1daf3230"},"vehicle_type_id":"4","last_reported":1722103869,"current_range_meters":0,"station_id":"ce4bhap2rcd13ifvqek0","pricing_plan_id":"cebpf4jnsgd1na2vs0mg"},{"bike_id":"2d2c1b73-80e3-4d7e-9d39-1b1f00ff72af","system_id":"levelo_inurba_marseille","lat":43.289184,"lon":5.366408,"is_reserved":false,"is_disabled":false,"rental_uris":{"android":"levelo://app?vid=2d2c1b73-80e3-4d7e-9d39-1b1f00ff72af","ios":"levelo://app?vid=2d2c1b73-80e3-4d7e-9d39-1b1f00ff72af"},"vehicle_type_id":"4","last_reported":1722103869,"current_range_meters":4800,"station_id":"ce4bhap2rcd13ifvqek0","pricing_plan_id":"cebpf4jnsgd1na2vs0mg"},{"bike_id":"8e843daf-b907-421a-8a54-c52f12c7796b","system_id":"levelo_inurba_marseille","lat":43.28931,"lon":5.36634,"is_reserved":false,"is_disabled":false,"rental_uris":{"android":"levelo://app?vid=8e843daf-b907-421a-8a54-c52f12c7796b","ios":"levelo://app?vid=8e843daf-b907-421a-8a54-c52f12c7796b"},"vehicle_type_id":"4","last_reported":1722103869,"current_range_meters":0,"station_id":"ce4bhap2rcd13ifvqek0","pricing_plan_id":"cebpf4jnsgd1na2vs0mg"},{"bike_id":"79aa01c3-ef53-47c3-b64d-39f655df8ae0","system_id":"levelo_inurba_marseille","lat":43.28941,"lon":5.36372,"is_reserved":false,"is_disabled":false,"rental_uris":{"android":"levelo://app?vid=79aa01c3-ef53-47c3-b64d-39f655df8ae0","ios":"levelo://app?vid=79aa01c3-ef53-47c3-b64d-39f655df8ae0"},"vehicle_type_id":"4","last_reported":1722103869,"current_range_meters":4000,"station_id":"","pricing_plan_id":"cebpf4jnsgd1na2vs0mg"},{"bike_id":"1b7e0798-82d1-40a6-9821-27096f15b916","system_id":"levelo_inurba_marseille","lat":43.2893,"lon":5.36392,"is_reserved":false,"is_disabled":false,"rental_uris":{"android":"levelo://app?vid=1b7e0798-82d1-40a6-9821-27096f15b916","ios":"levelo://app?vid=1b7e0798-82d1-40a6-9821-27096f15b916"},"vehicle_type_id":"4","last_reported":1722103869,"current_range_meters":0,"station_id":"ce4bhc92rcd13ifvqetg","pricing_plan_id":"cebpf4jnsgd1na2vs0mg"},{"bike_id":"6b9d155f-1ddd-4565-ac52-2b19d5b88391","system_id":"levelo_inurba_marseille","lat":43.292642,"lon":5.384254,"is_reserved":false,"is_disabled":false,"rental_uris":{"android":"levelo://app?vid=6b9d155f-1ddd-4565-ac52-2b19d5b88391","ios":"levelo://app?vid=6b9d155f-1ddd-4565-ac52-2b19d5b88391"},"vehicle_type_id":"4","last_reported":1722103869,"current_range_meters":0,"station_id":"ce4bh692rcd13ifvqea0","pricing_plan_id":"cebpf4jnsgd1na2vs0mg"},{"bike_id":"9be3e6e5-bfb2-4f8f-9725-c9c8c6bf3151","system_id":"levelo_inurba_marseille","lat":43.292679,"lon":5.384433,"is_reserved":false,"is_disabled":false,"rental_uris":{"android":"levelo://app?vid=9be3e6e5-bfb2-4f8f-9725-c9c8c6bf3151","ios":"levelo://app?vid=9be3e6e5-bfb2-4f8f-9725-c9c8c6bf3151"},"vehicle_type_id":"4","last_reported":1722103869,"current_range_meters":15200,"station_id":"ce4bh692rcd13ifvqea0","pricing_plan_id":"cebpf4jnsgd1na2vs0mg"},{"bike_id":"62a609d0-cde9-463f-9ddf-f2e22016283c","system_id":"levelo_inurba_marseille","lat":43.29261,"lon":5.38445,"is_reserved":false,"is_disabled":false,"rental_uris":{"android":"levelo://app?vid=62a609d0-cde9-463f-9ddf-f2e22016283c","ios":"levelo://app?vid=62a609d0-cde9-463f-9ddf-f2e22016283c"},"vehicle_type_id":"4","last_reported":1722103869,"current_range_meters":0,"station_id":"ce4bh692rcd13ifvqea0","pricing_plan_id":"cebpf4jnsgd1na2vs0mg"},{"bike_id":"f78527af-4295-47e2-8252-a14527ad1c34","system_id":"levelo_inurba_marseille","lat":43.2926,"lon":5.38443,"is_reserved":false,"is_disabled":false,"rental_uris":{"android":"levelo://app?vid=f78527af-4295-47e2-8252-a14527ad1c34","ios":"levelo://app?vid=f78527af-4295-47e2-8252-a14527ad1c34"},"vehicle_type_id":"4","last_reported":1722103869,"current_range_meters":400,"station_id":"ce4bh692rcd13ifvqea0","pricing_plan_id":"cebpf4jnsgd1na2vs0mg"},{"bike_id":"431ed7a4-43cc-401b-940e-28423af700e7","system_id":"levelo_inurba_marseille","lat":43.292642,"lon":5.384254,"is_reserved":false,"is_disabled":false,"rental_uris":{"android":"levelo://app?vid=431ed7a4-43cc-401b-940e-28423af700e7","ios":"levelo://app?vid=431ed7a4-43cc-401b-940e-28423af700e7"},"vehicle_type_id":"4","last_reported":1722103869,"current_range_meters":0,"station_id":"ce4bh692rcd13ifvqea0","pricing_plan_id":"cebpf4jnsgd1na2vs0mg"},{"bike_id":"a0ea7cef-849e-4e09-a9b0-8c8b75436d82","system_id":"levelo_inurba_marseille","lat":43.292597,"lon":5.384457,"is_reserved":false,"is_disabled":false,"rental_uris":{"android":"levelo://app?vid=a0ea7cef-849e-4e09-a9b0-8c8b75436d82","ios":"levelo://app?vid=a0ea7cef-849e-4e09-a9b0-8c8b75436d82"},"vehicle_type_id":"4","last_reported":1722103869,"current_range_meters":28400,"station_id":"ce4bh692rcd13ifvqea0","pricing_plan_id":"cebpf4jnsgd1na2vs0mg"},{"bike_id":"9db1fb8f-019d-44d5-b5a8-963e4b0eafcc","system_id":"levelo_inurba_marseille","lat":43.29263,"lon":5.38453,"is_reserved":false,"is_disabled":false,"rental_uris":{"android":"levelo://app?vid=9db1fb8f-019d-44d5-b5a8-963e4b0eafcc","ios":"levelo://app?vid=9db1fb8f-019d-44d5-b5a8-963e4b0eafcc"},"vehicle_type_id":"4","last_reported":1722103869,"current_range_meters":9200,"station_id":"ce4bh692rcd13ifvqea0","pricing_plan_id":"cebpf4jnsgd1na2vs0mg"},{"bike_id":"516e2b4c-5cf6-4902-a521-e4e91d175035","system_id":"levelo_inurba_marseille","lat":43.292583,"lon":5.384447,"is_reserved":false,"is_disabled":false,"rental_uris":{"android":"levelo://app?vid=516e2b4c-5cf6-4902-a521-e4e91d175035","ios":"levelo://app?vid=516e2b4c-5cf6-4902-a521-e4e91d175035"},"vehicle_type_id":"4","last_reported":1722103869,"current_range_meters":8000,"station_id":"ce4bh692rcd13ifvqea0","pricing_plan_id":"cebpf4jnsgd1na2vs0mg"},{"bike_id":"893638e7-4a35-45c6-aecf-5f0063801852","system_id":"levelo_inurba_marseille","lat":43.290104,"lon":5.356111,"is_reserved":false,"is_disabled":false,"rental_uris":{"android":"levelo://app?vid=893638e7-4a35-45c6-aecf-5f0063801852","ios":"levelo://app?vid=893638e7-4a35-45c6-aecf-5f0063801852"},"vehicle_type_id":"4","last_reported":1722103869,"current_range_meters":0,"station_id":"ce4bhb92rcd13ifvqen0","pricing_plan_id":"cebpf4jnsgd1na2vs0mg"},{"bike_id":"c466ffee-6125-47b6-9b01-617e232073d6","system_id":"levelo_inurba_marseille","lat":43.29005,"lon":5.35608,"is_reserved":false,"is_disabled":false,"rental_uris":{"android":"levelo://app?vid=c466ffee-6125-47b6-9b01-617e232073d6","ios":"levelo://app?vid=c466ffee-6125-47b6-9b01-617e232073d6"},"vehicle_type_id":"4","last_reported":1722103869,"current_range_meters":0,"station_id":"ce4bhb92rcd13ifvqen0","pricing_plan_id":"cebpf4jnsgd1na2vs0mg"},{"bike_id":"021096a2-60cd-405e-a89f-6de2cbf23608","system_id":"levelo_inurba_marseille","lat":43.290103,"lon":5.356114,"is_reserved":false,"is_disabled":false,"rental_uris":{"android":"levelo://app?vid=021096a2-60cd-405e-a89f-6de2cbf23608","ios":"levelo://app?vid=021096a2-60cd-405e-a89f-6de2cbf23608"},"vehicle_type_id":"4","last_reported":1722103869,"current_range_meters":0,"station_id":"ce4bhb92rcd13ifvqen0","pricing_plan_id":"cebpf4jnsgd1na2vs0mg"},{"bike_id":"5022070f-39d1-43fc-b2e1-47f2eb727a5e","system_id":"levelo_inurba_marseille","lat":43.290104,"lon":5.356111,"is_reserved":false,"is_disabled":false,"rental_uris":{"android":"levelo://app?vid=5022070f-39d1-43fc-b2e1-47f2eb727a5e","ios":"levelo://app?vid=5022070f-39d1-43fc-b2e1-47f2eb727a5e"},"vehicle_type_id":"4","last_reported":1722103869,"current_range_meters":0,"station_id":"ce4bhb92rcd13ifvqen0","pricing_plan_id":"cebpf4jnsgd1na2vs0mg"},{"bike_id":"fbf02784-30aa-40ac-b75d-ad18abfc5af8","system_id":"levelo_inurba_marseille","lat":43.29003,"lon":5.35605,"is_reserved":false,"is_disabled":false,"rental_uris":{"android":"levelo://app?vid=fbf02784-30aa-40ac-b75d-ad18abfc5af8","ios":"levelo://app?vid=fbf02784-30aa-40ac-b75d-ad18abfc5af8"},"vehicle_type_id":"4","last_reported":1722103869,"current_range_meters":0,"station_id":"ce4bhb92rcd13ifvqen0","pricing_plan_id":"cebpf4jnsgd1na2vs0mg"},{"bike_id":"4ea94333-e780-4522-8f3f-9831df5034a2","system_id":"levelo_inurba_marseille","lat":43.29098,"lon":5.38124,"is_reserved":false,"is_disabled":false,"rental_uris":{"android":"levelo://app?vid=4ea94333-e780-4522-8f3f-9831df5034a2","ios":"levelo://app?vid=4ea94333-e780-4522-8f3f-9831df5034a2"},"vehicle_type_id":"4","last_reported":1722103869,"current_range_meters":400,"station_id":"ce4bh512rcd13ifvqe2g","pricing_plan_id":"cebpf4jnsgd1na2vs0mg"},{"bike_id":"cda9d6b7-e6f5-4e2c-8d00-c413642c5c20","system_id":"levelo_inurba_marseille","lat":43.291,"lon":5.38142,"is_reserved":false,"is_disabled":false,"rental_uris":{"android":"levelo://app?vid=cda9d6b7-e6f5-4e2c-8d00-c413642c5c20","ios":"levelo://app?vid=cda9d6b7-e6f5-4e2c-8d00-c413642c5c20"},"vehicle_type_id":"4","last_reported":1722103869,"current_range_meters":9600,"station_id":"ce4bh512rcd13ifvqe2g","pricing_plan_id":"cebpf4jnsgd1na2vs0mg"},{"bike_id":"02c89c09-58af-415c-8201-ecd08725b46b","system_id":"levelo_inurba_marseille","lat":43.28997,"lon":5.35572,"is_reserved":false,"is_disabled":false,"rental_uris":{"android":"levelo://app?vid=02c89c09-58af-415c-8201-ecd08725b46b","ios":"levelo://app?vid=02c89c09-58af-415c-8201-ecd08725b46b"},"vehicle_type_id":"4","last_reported":1722103869,"current_range_meters":3600,"station_id":"","pricing_plan_id":"cebpf4jnsgd1na2vs0mg"},{"bike_id":"4e7e31f5-68a5-42ab-a1bf-e9fdde650e3b","system_id":"levelo_inurba_marseille","lat":43.291,"lon":5.381553,"is_reserved":false,"is_disabled":false,"rental_uris":{"android":"levelo://app?vid=4e7e31f5-68a5-42ab-a1bf-e9fdde650e3b","ios":"levelo://app?vid=4e7e31f5-68a5-42ab-a1bf-e9fdde650e3b"},"vehicle_type_id":"4","last_reported":1722103869,"current_range_meters":400,"station_id":"ce4bh512rcd13ifvqe2g","pricing_plan_id":"cebpf4jnsgd1na2vs0mg"},{"bike_id":"d265d24c-b2bc-4200-adea-bdd625707099","system_id":"levelo_inurba_marseille","lat":43.295169,"lon":5.390426,"is_reserved":false,"is_disabled":false,"rental_uris":{"android":"levelo://app?vid=d265d24c-b2bc-4200-adea-bdd625707099","ios":"levelo://app?vid=d265d24c-b2bc-4200-adea-bdd625707099"},"vehicle_type_id":"4","last_reported":1722103869,"current_range_meters":0,"station_id":"ce4bh3p2rcd13ifvqdp0","pricing_plan_id":"cebpf4jnsgd1na2vs0mg"},{"bike_id":"c5fc6fdf-e660-42fc-b7c9-05c6704edf47","system_id":"levelo_inurba_marseille","lat":43.330442,"lon":5.389148,"is_reserved":false,"is_disabled":false,"rental_uris":{"android":"levelo://app?vid=c5fc6fdf-e660-42fc-b7c9-05c6704edf47","ios":"levelo://app?vid=c5fc6fdf-e660-42fc-b7c9-05c6704edf47"},"vehicle_type_id":"4","last_reported":1722103869,"current_range_meters":8000,"station_id":"ce4bhr92rcd13ifvqhrg","pricing_plan_id":"cebpf4jnsgd1na2vs0mg"},{"bike_id":"c35145ab-fadb-4473-a21f-e3f0b5c97a46","system_id":"levelo_inurba_marseille","lat":43.295169,"lon":5.390426,"is_reserved":false,"is_disabled":false,"rental_uris":{"android":"levelo://app?vid=c35145ab-fadb-4473-a21f-e3f0b5c97a46","ios":"levelo://app?vid=c35145ab-fadb-4473-a21f-e3f0b5c97a46"},"vehicle_type_id":"4","last_reported":1722103869,"current_range_meters":2000,"station_id":"ce4bh3p2rcd13ifvqdp0","pricing_plan_id":"cebpf4jnsgd1na2vs0mg"},{"bike_id":"2fee7448-3148-4c22-b3e3-ced5ab226e4d","system_id":"levelo_inurba_marseille","lat":43.330442,"lon":5.389148,"is_reserved":false,"is_disabled":false,"rental_uris":{"android":"levelo://app?vid=2fee7448-3148-4c22-b3e3-ced5ab226e4d","ios":"levelo://app?vid=2fee7448-3148-4c22-b3e3-ced5ab226e4d"},"vehicle_type_id":"4","last_reported":1722103869,"current_range_meters":0,"station_id":"ce4bhr92rcd13ifvqhrg","pricing_plan_id":"cebpf4jnsgd1na2vs0mg"},{"bike_id":"4fcda57c-3a3e-45cb-86ea-9f55a93f447e","system_id":"levelo_inurba_marseille","lat":43.295169,"lon":5.390426,"is_reserved":false,"is_disabled":false,"rental_uris":{"android":"levelo://app?vid=4fcda57c-3a3e-45cb-86ea-9f55a93f447e","ios":"levelo://app?vid=4fcda57c-3a3e-45cb-86ea-9f55a93f447e"},"vehicle_type_id":"4","last_reported":1722103869,"current_range_meters":11600,"station_id":"ce4bh3p2rcd13ifvqdp0","pricing_plan_id":"cebpf4jnsgd1na2vs0mg"},{"bike_id":"fdf9d3c6-87e4-414e-b9c8-ef7ee936de7b","system_id":"levelo_inurba_marseille","lat":43.2901,"lon":5.381269,"is_reserved":false,"is_disabled":false,"rental_uris":{"android":"levelo://app?vid=fdf9d3c6-87e4-414e-b9c8-ef7ee936de7b","ios":"levelo://app?vid=fdf9d3c6-87e4-414e-b9c8-ef7ee936de7b"},"vehicle_type_id":"4","last_reported":1722103869,"current_range_meters":0,"station_id":"ce4bh4p2rcd13ifvqe1g","pricing_plan_id":"cebpf4jnsgd1na2vs0mg"},{"bike_id":"c304b049-9944-475b-b08e-a53c7fa26deb","system_id":"levelo_inurba_marseille","lat":43.28856,"lon":5.358371,"is_reserved":false,"is_disabled":false,"rental_uris":{"android":"levelo://app?vid=c304b049-9944-475b-b08e-a53c7fa26deb","ios":"levelo://app?vid=c304b049-9944-475b-b08e-a53c7fa26deb"},"vehicle_type_id":"4","last_reported":1722103869,"current_range_meters":28800,"station_id":"ce4bhb12rcd13ifvqem0","pricing_plan_id":"cebpf4jnsgd1na2vs0mg"},{"bike_id":"cb83fc94-dd59-4787-84bb-ebbb13d4610a","system_id":"levelo_inurba_marseille","lat":43.295279,"lon":5.375048,"is_reserved":false,"is_disabled":false,"rental_uris":{"android":"levelo://app?vid=cb83fc94-dd59-4787-84bb-ebbb13d4610a","ios":"levelo://app?vid=cb83fc94-dd59-4787-84bb-ebbb13d4610a"},"vehicle_type_id":"4","last_reported":1722103869,"current_range_meters":28400,"station_id":"ce4bgkp2rcd13ifvqbmg","pricing_plan_id":"cebpf4jnsgd1na2vs0mg"},{"bike_id":"c1991561-9fe3-4ecb-8809-d76bddcd17b9","system_id":"levelo_inurba_marseille","lat":43.312609,"lon":5.401662,"is_reserved":false,"is_disabled":false,"rental_uris":{"android":"levelo://app?vid=c1991561-9fe3-4ecb-8809-d76bddcd17b9","ios":"levelo://app?vid=c1991561-9fe3-4ecb-8809-d76bddcd17b9"},"vehicle_type_id":"4","last_reported":1722103869,"current_range_meters":14000,"station_id":"ce4bh092rcd13ifvqd30","pricing_plan_id":"cebpf4jnsgd1na2vs0mg"},{"bike_id":"3e79250c-7764-488c-b465-61fd16d31170","system_id":"levelo_inurba_marseille","lat":43.33736,"lon":5.37477,"is_reserved":false,"is_disabled":false,"rental_uris":{"android":"levelo://app?vid=3e79250c-7764-488c-b465-61fd16d31170","ios":"levelo://app?vid=3e79250c-7764-488c-b465-61fd16d31170"},"vehicle_type_id":"4","last_reported":1722103869,"current_range_meters":28400,"station_id":"","pricing_plan_id":"cebpf4jnsgd1na2vs0mg"},{"bike_id":"6ff48f3c-927a-470d-a08e-7714539082f0","system_id":"levelo_inurba_marseille","lat":43.33737,"lon":5.37474,"is_reserved":false,"is_disabled":false,"rental_uris":{"android":"levelo://app?vid=6ff48f3c-927a-470d-a08e-7714539082f0","ios":"levelo://app?vid=6ff48f3c-927a-470d-a08e-7714539082f0"},"vehicle_type_id":"4","last_reported":1722103869,"current_range_meters":3200,"station_id":"","pricing_plan_id":"cebpf4jnsgd1na2vs0mg"},{"bike_id":"74602364-977c-4545-b639-14f51bfb7808","system_id":"levelo_inurba_marseille","lat":43.301117,"lon":5.398795,"is_reserved":false,"is_disabled":false,"rental_uris":{"android":"levelo://app?vid=74602364-977c-4545-b639-14f51bfb7808","ios":"levelo://app?vid=74602364-977c-4545-b639-14f51bfb7808"},"vehicle_type_id":"4","last_reported":1722103869,"current_range_meters":17200,"station_id":"ce4bh0h2rcd13ifvqd40","pricing_plan_id":"cebpf4jnsgd1na2vs0mg"},{"bike_id":"e92bf1d5-b1ca-44cd-9b31-a0496082825d","system_id":"levelo_inurba_marseille","lat":43.33733,"lon":5.37507,"is_reserved":false,"is_disabled":false,"rental_uris":{"android":"levelo://app?vid=e92bf1d5-b1ca-44cd-9b31-a0496082825d","ios":"levelo://app?vid=e92bf1d5-b1ca-44cd-9b31-a0496082825d"},"vehicle_type_id":"4","last_reported":1722103869,"current_range_meters":28400,"station_id":"","pricing_plan_id":"cebpf4jnsgd1na2vs0mg"},{"bike_id":"0aa226e6-2195-431b-bdc4-34bf44420451","system_id":"levelo_inurba_marseille","lat":43.337467,"lon":5.374397,"is_reserved":false,"is_disabled":false,"rental_uris":{"android":"levelo://app?vid=0aa226e6-2195-431b-bdc4-34bf44420451","ios":"levelo://app?vid=0aa226e6-2195-431b-bdc4-34bf44420451"},"vehicle_type_id":"4","last_reported":1722103869,"current_range_meters":26400,"station_id":"","pricing_plan_id":"cebpf4jnsgd1na2vs0mg"},{"bike_id":"f8e8dd66-c7d6-4bd0-91ac-ef4274ae24f3","system_id":"levelo_inurba_marseille","lat":43.337413,"lon":5.37473,"is_reserved":false,"is_disabled":false,"rental_uris":{"android":"levelo://app?vid=f8e8dd66-c7d6-4bd0-91ac-ef4274ae24f3","ios":"levelo://app?vid=f8e8dd66-c7d6-4bd0-91ac-ef4274ae24f3"},"vehicle_type_id":"4","last_reported":1722103869,"current_range_meters":20800,"station_id":"","pricing_plan_id":"cebpf4jnsgd1na2vs0mg"},{"bike_id":"20a7bf81-31fd-4cb5-b454-68d5314a31b8","system_id":"levelo_inurba_marseille","lat":43.337424,"lon":5.374685,"is_reserved":false,"is_disabled":false,"rental_uris":{"android":"levelo://app?vid=20a7bf81-31fd-4cb5-b454-68d5314a31b8","ios":"levelo://app?vid=20a7bf81-31fd-4cb5-b454-68d5314a31b8"},"vehicle_type_id":"4","last_reported":1722103869,"current_range_meters":30000,"station_id":"","pricing_plan_id":"cebpf4jnsgd1na2vs0mg"},{"bike_id":"28ff567c-281c-4a43-913e-e1206badf942","system_id":"levelo_inurba_marseille","lat":43.337427,"lon":5.374715,"is_reserved":false,"is_disabled":false,"rental_uris":{"android":"levelo://app?vid=28ff567c-281c-4a43-913e-e1206badf942","ios":"levelo://app?vid=28ff567c-281c-4a43-913e-e1206badf942"},"vehicle_type_id":"4","last_reported":1722103869,"current_range_meters":24800,"station_id":"","pricing_plan_id":"cebpf4jnsgd1na2vs0mg"},{"bike_id":"6cf0c176-f7c0-4e29-a014-f3a3b29e1d2a","system_id":"levelo_inurba_marseille","lat":43.337489,"lon":5.374463,"is_reserved":false,"is_disabled":false,"rental_uris":{"android":"levelo://app?vid=6cf0c176-f7c0-4e29-a014-f3a3b29e1d2a","ios":"levelo://app?vid=6cf0c176-f7c0-4e29-a014-f3a3b29e1d2a"},"vehicle_type_id":"4","last_reported":1722103869,"current_range_meters":28000,"station_id":"","pricing_plan_id":"cebpf4jnsgd1na2vs0mg"},{"bike_id":"e08e2e0a-c486-412e-89e6-5cc0ef6ea031","system_id":"levelo_inurba_marseille","lat":43.309371,"lon":5.401449,"is_reserved":false,"is_disabled":false,"rental_uris":{"android":"levelo://app?vid=e08e2e0a-c486-412e-89e6-5cc0ef6ea031","ios":"levelo://app?vid=e08e2e0a-c486-412e-89e6-5cc0ef6ea031"},"vehicle_type_id":"4","last_reported":1722103869,"current_range_meters":0,"station_id":"ce4bgvp2rcd13ifvqct0","pricing_plan_id":"cebpf4jnsgd1na2vs0mg"},{"bike_id":"a5b6b108-5abf-4594-be2e-63b64fd46dce","system_id":"levelo_inurba_marseille","lat":43.312609,"lon":5.401662,"is_reserved":false,"is_disabled":false,"rental_uris":{"android":"levelo://app?vid=a5b6b108-5abf-4594-be2e-63b64fd46dce","ios":"levelo://app?vid=a5b6b108-5abf-4594-be2e-63b64fd46dce"},"vehicle_type_id":"4","last_reported":1722103869,"current_range_meters":31200,"station_id":"ce4bh092rcd13ifvqd30","pricing_plan_id":"cebpf4jnsgd1na2vs0mg"},{"bike_id":"f0338c4f-2f14-449f-abf8-25e44f36ca55","system_id":"levelo_inurba_marseille","lat":43.337503,"lon":5.374507,"is_reserved":false,"is_disabled":false,"rental_uris":{"android":"levelo://app?vid=f0338c4f-2f14-449f-abf8-25e44f36ca55","ios":"levelo://app?vid=f0338c4f-2f14-449f-abf8-25e44f36ca55"},"vehicle_type_id":"4","last_reported":1722103869,"current_range_meters":28800,"station_id":"","pricing_plan_id":"cebpf4jnsgd1na2vs0mg"},{"bike_id":"76073e5f-e4ea-4ba1-96d8-fa98eb9b413c","system_id":"levelo_inurba_marseille","lat":43.312609,"lon":5.401662,"is_reserved":false,"is_disabled":false,"rental_uris":{"android":"levelo://app?vid=76073e5f-e4ea-4ba1-96d8-fa98eb9b413c","ios":"levelo://app?vid=76073e5f-e4ea-4ba1-96d8-fa98eb9b413c"},"vehicle_type_id":"4","last_reported":1722103869,"current_range_meters":31200,"station_id":"ce4bh092rcd13ifvqd30","pricing_plan_id":"cebpf4jnsgd1na2vs0mg"},{"bike_id":"149ad317-2977-4c2d-b9af-065d2c29d5b4","system_id":"levelo_inurba_marseille","lat":43.287808,"lon":5.373669,"is_reserved":false,"is_disabled":false,"rental_uris":{"android":"levelo://app?vid=149ad317-2977-4c2d-b9af-065d2c29d5b4","ios":"levelo://app?vid=149ad317-2977-4c2d-b9af-065d2c29d5b4"},"vehicle_type_id":"4","last_reported":1722103869,"current_range_meters":16400,"station_id":"","pricing_plan_id":"cebpf4jnsgd1na2vs0mg"},{"bike_id":"ce2a281f-6b17-464e-8289-d463ea4cfa07","system_id":"levelo_inurba_marseille","lat":43.337553,"lon":5.374554,"is_reserved":false,"is_disabled":false,"rental_uris":{"android":"levelo://app?vid=ce2a281f-6b17-464e-8289-d463ea4cfa07","ios":"levelo://app?vid=ce2a281f-6b17-464e-8289-d463ea4cfa07"},"vehicle_type_id":"4","last_reported":1722103869,"current_range_meters":29200,"station_id":"","pricing_plan_id":"cebpf4jnsgd1na2vs0mg"},{"bike_id":"98418c1b-b867-4b1b-ad79-c0beef42828a","system_id":"levelo_inurba_marseille","lat":43.28774,"lon":5.37338,"is_reserved":false,"is_disabled":false,"rental_uris":{"android":"levelo://app?vid=98418c1b-b867-4b1b-ad79-c0beef42828a","ios":"levelo://app?vid=98418c1b-b867-4b1b-ad79-c0beef42828a"},"vehicle_type_id":"4","last_reported":1722103869,"current_range_meters":5200,"station_id":"","pricing_plan_id":"cebpf4jnsgd1na2vs0mg"},{"bike_id":"30362bbd-433e-4425-8387-4c609c31d8fb","system_id":"levelo_inurba_marseille","lat":43.30642,"lon":5.401031,"is_reserved":false,"is_disabled":false,"rental_uris":{"android":"levelo://app?vid=30362bbd-433e-4425-8387-4c609c31d8fb","ios":"levelo://app?vid=30362bbd-433e-4425-8387-4c609c31d8fb"},"vehicle_type_id":"4","last_reported":1722103869,"current_range_meters":0,"station_id":"ce4bh112rcd13ifvqda0","pricing_plan_id":"cebpf4jnsgd1na2vs0mg"},{"bike_id":"b9d59321-cae1-4db4-a127-ab4347429dc3","system_id":"levelo_inurba_marseille","lat":43.30648,"lon":5.40086,"is_reserved":false,"is_disabled":false,"rental_uris":{"android":"levelo://app?vid=b9d59321-cae1-4db4-a127-ab4347429dc3","ios":"levelo://app?vid=b9d59321-cae1-4db4-a127-ab4347429dc3"},"vehicle_type_id":"4","last_reported":1722103869,"current_range_meters":0,"station_id":"ce4bh112rcd13ifvqda0","pricing_plan_id":"cebpf4jnsgd1na2vs0mg"},{"bike_id":"95bc334d-d9f9-474f-a145-07d794c97feb","system_id":"levelo_inurba_marseille","lat":43.286961,"lon":5.373785,"is_reserved":false,"is_disabled":false,"rental_uris":{"android":"levelo://app?vid=95bc334d-d9f9-474f-a145-07d794c97feb","ios":"levelo://app?vid=95bc334d-d9f9-474f-a145-07d794c97feb"},"vehicle_type_id":"4","last_reported":1722103869,"current_range_meters":4800,"station_id":"ce4bh3p2rcd13ifvqdq0","pricing_plan_id":"cebpf4jnsgd1na2vs0mg"},{"bike_id":"b4737434-81ce-4e48-9595-8959667baf91","system_id":"levelo_inurba_marseille","lat":43.309589,"lon":5.390258,"is_reserved":false,"is_disabled":false,"rental_uris":{"android":"levelo://app?vid=b4737434-81ce-4e48-9595-8959667baf91","ios":"levelo://app?vid=b4737434-81ce-4e48-9595-8959667baf91"},"vehicle_type_id":"4","last_reported":1722103869,"current_range_meters":26400,"station_id":"ce4bgup2rcd13ifvqco0","pricing_plan_id":"cebpf4jnsgd1na2vs0mg"},{"bike_id":"5bd3f9b5-dc56-4ebf-a0e6-b3348ce6820c","system_id":"levelo_inurba_marseille","lat":43.298681,"lon":5.397225,"is_reserved":false,"is_disabled":false,"rental_uris":{"android":"levelo://app?vid=5bd3f9b5-dc56-4ebf-a0e6-b3348ce6820c","ios":"levelo://app?vid=5bd3f9b5-dc56-4ebf-a0e6-b3348ce6820c"},"vehicle_type_id":"4","last_reported":1722103869,"current_range_meters":18000,"station_id":"ce4bh0h2rcd13ifvqd50","pricing_plan_id":"cebpf4jnsgd1na2vs0mg"},{"bike_id":"5e78ea2f-a84a-43b0-9a60-16732253fbc0","system_id":"levelo_inurba_marseille","lat":43.286961,"lon":5.373785,"is_reserved":false,"is_disabled":false,"rental_uris":{"android":"levelo://app?vid=5e78ea2f-a84a-43b0-9a60-16732253fbc0","ios":"levelo://app?vid=5e78ea2f-a84a-43b0-9a60-16732253fbc0"},"vehicle_type_id":"4","last_reported":1722103869,"current_range_meters":5200,"station_id":"ce4bh3p2rcd13ifvqdq0","pricing_plan_id":"cebpf4jnsgd1na2vs0mg"},{"bike_id":"f004bfca-a5d3-4c99-bc7d-af8bb48e4948","system_id":"levelo_inurba_marseille","lat":43.286961,"lon":5.373785,"is_reserved":false,"is_disabled":false,"rental_uris":{"android":"levelo://app?vid=f004bfca-a5d3-4c99-bc7d-af8bb48e4948","ios":"levelo://app?vid=f004bfca-a5d3-4c99-bc7d-af8bb48e4948"},"vehicle_type_id":"4","last_reported":1722103869,"current_range_meters":24800,"station_id":"ce4bh3p2rcd13ifvqdq0","pricing_plan_id":"cebpf4jnsgd1na2vs0mg"},{"bike_id":"c0697130-181b-4ade-be30-9285ab5cd90b","system_id":"levelo_inurba_marseille","lat":43.28699,"lon":5.37389,"is_reserved":false,"is_disabled":false,"rental_uris":{"android":"levelo://app?vid=c0697130-181b-4ade-be30-9285ab5cd90b","ios":"levelo://app?vid=c0697130-181b-4ade-be30-9285ab5cd90b"},"vehicle_type_id":"4","last_reported":1722103869,"current_range_meters":7200,"station_id":"ce4bh3p2rcd13ifvqdq0","pricing_plan_id":"cebpf4jnsgd1na2vs0mg"},{"bike_id":"efc299f0-d085-4207-95d4-c8226d2bc67c","system_id":"levelo_inurba_marseille","lat":43.290336,"lon":5.386425,"is_reserved":false,"is_disabled":false,"rental_uris":{"android":"levelo://app?vid=efc299f0-d085-4207-95d4-c8226d2bc67c","ios":"levelo://app?vid=efc299f0-d085-4207-95d4-c8226d2bc67c"},"vehicle_type_id":"4","last_reported":1722103869,"current_range_meters":18800,"station_id":"ce4bh4p2rcd13ifvqe0g","pricing_plan_id":"cebpf4jnsgd1na2vs0mg"},{"bike_id":"f97582dc-f45b-4947-8fab-e4776c91d3d0","system_id":"levelo_inurba_marseille","lat":43.286561,"lon":5.36353,"is_reserved":false,"is_disabled":false,"rental_uris":{"android":"levelo://app?vid=f97582dc-f45b-4947-8fab-e4776c91d3d0","ios":"levelo://app?vid=f97582dc-f45b-4947-8fab-e4776c91d3d0"},"vehicle_type_id":"4","last_reported":1722103869,"current_range_meters":0,"station_id":"ce4bhah2rcd13ifvqej0","pricing_plan_id":"cebpf4jnsgd1na2vs0mg"},{"bike_id":"5a6637ee-76b2-4c3d-b789-66be144e2467","system_id":"levelo_inurba_marseille","lat":43.289307,"lon":5.38406,"is_reserved":false,"is_disabled":false,"rental_uris":{"android":"levelo://app?vid=5a6637ee-76b2-4c3d-b789-66be144e2467","ios":"levelo://app?vid=5a6637ee-76b2-4c3d-b789-66be144e2467"},"vehicle_type_id":"4","last_reported":1722103869,"current_range_meters":30400,"station_id":"ce4bh612rcd13ifvqe6g","pricing_plan_id":"cebpf4jnsgd1na2vs0mg"},{"bike_id":"dc394573-23c1-4c0f-827d-b02ce33bc551","system_id":"levelo_inurba_marseille","lat":43.2903,"lon":5.38636,"is_reserved":false,"is_disabled":false,"rental_uris":{"android":"levelo://app?vid=dc394573-23c1-4c0f-827d-b02ce33bc551","ios":"levelo://app?vid=dc394573-23c1-4c0f-827d-b02ce33bc551"},"vehicle_type_id":"4","last_reported":1722103869,"current_range_meters":0,"station_id":"ce4bh4p2rcd13ifvqe0g","pricing_plan_id":"cebpf4jnsgd1na2vs0mg"},{"bike_id":"eca8ecaa-d9e4-4344-be56-d7c25b391f1f","system_id":"levelo_inurba_marseille","lat":43.29032,"lon":5.38651,"is_reserved":false,"is_disabled":false,"rental_uris":{"android":"levelo://app?vid=eca8ecaa-d9e4-4344-be56-d7c25b391f1f","ios":"levelo://app?vid=eca8ecaa-d9e4-4344-be56-d7c25b391f1f"},"vehicle_type_id":"4","last_reported":1722103869,"current_range_meters":5200,"station_id":"ce4bh4p2rcd13ifvqe0g","pricing_plan_id":"cebpf4jnsgd1na2vs0mg"},{"bike_id":"c9872cac-76ba-497f-a4b0-1c61b020dd60","system_id":"levelo_inurba_marseille","lat":43.29027,"lon":5.38643,"is_reserved":false,"is_disabled":false,"rental_uris":{"android":"levelo://app?vid=c9872cac-76ba-497f-a4b0-1c61b020dd60","ios":"levelo://app?vid=c9872cac-76ba-497f-a4b0-1c61b020dd60"},"vehicle_type_id":"4","last_reported":1722103869,"current_range_meters":0,"station_id":"ce4bh4p2rcd13ifvqe0g","pricing_plan_id":"cebpf4jnsgd1na2vs0mg"},{"bike_id":"29566d55-691d-4fe6-a741-471310b1ece3","system_id":"levelo_inurba_marseille","lat":43.290336,"lon":5.386425,"is_reserved":false,"is_disabled":false,"rental_uris":{"android":"levelo://app?vid=29566d55-691d-4fe6-a741-471310b1ece3","ios":"levelo://app?vid=29566d55-691d-4fe6-a741-471310b1ece3"},"vehicle_type_id":"4","last_reported":1722103869,"current_range_meters":10800,"station_id":"ce4bh4p2rcd13ifvqe0g","pricing_plan_id":"cebpf4jnsgd1na2vs0mg"},{"bike_id":"bd6f5b1b-7da0-4756-8e55-3ac68d165d24","system_id":"levelo_inurba_marseille","lat":43.289307,"lon":5.38406,"is_reserved":false,"is_disabled":false,"rental_uris":{"android":"levelo://app?vid=bd6f5b1b-7da0-4756-8e55-3ac68d165d24","ios":"levelo://app?vid=bd6f5b1b-7da0-4756-8e55-3ac68d165d24"},"vehicle_type_id":"4","last_reported":1722103869,"current_range_meters":2400,"station_id":"ce4bh612rcd13ifvqe6g","pricing_plan_id":"cebpf4jnsgd1na2vs0mg"},{"bike_id":"7f73a8b7-f135-49aa-a7db-b25ce773d6d3","system_id":"levelo_inurba_marseille","lat":43.289307,"lon":5.38406,"is_reserved":false,"is_disabled":false,"rental_uris":{"android":"levelo://app?vid=7f73a8b7-f135-49aa-a7db-b25ce773d6d3","ios":"levelo://app?vid=7f73a8b7-f135-49aa-a7db-b25ce773d6d3"},"vehicle_type_id":"4","last_reported":1722103869,"current_range_meters":28800,"station_id":"ce4bh612rcd13ifvqe6g","pricing_plan_id":"cebpf4jnsgd1na2vs0mg"},{"bike_id":"3763db07-4d23-48ff-b72e-8a299dbe159d","system_id":"levelo_inurba_marseille","lat":43.290336,"lon":5.386425,"is_reserved":false,"is_disabled":false,"rental_uris":{"android":"levelo://app?vid=3763db07-4d23-48ff-b72e-8a299dbe159d","ios":"levelo://app?vid=3763db07-4d23-48ff-b72e-8a299dbe159d"},"vehicle_type_id":"4","last_reported":1722103869,"current_range_meters":8800,"station_id":"ce4bh4p2rcd13ifvqe0g","pricing_plan_id":"cebpf4jnsgd1na2vs0mg"},{"bike_id":"ce8f32c6-4cc4-466f-9c92-39cd0ec7b093","system_id":"levelo_inurba_marseille","lat":43.286039,"lon":5.370679,"is_reserved":false,"is_disabled":false,"rental_uris":{"android":"levelo://app?vid=ce8f32c6-4cc4-466f-9c92-39cd0ec7b093","ios":"levelo://app?vid=ce8f32c6-4cc4-466f-9c92-39cd0ec7b093"},"vehicle_type_id":"4","last_reported":1722103869,"current_range_meters":6400,"station_id":"ce4bht12rcd13ifvqi60","pricing_plan_id":"cebpf4jnsgd1na2vs0mg"},{"bike_id":"81ec6328-9713-4b26-97a8-25a792d01fe7","system_id":"levelo_inurba_marseille","lat":43.28613,"lon":5.37055,"is_reserved":false,"is_disabled":false,"rental_uris":{"android":"levelo://app?vid=81ec6328-9713-4b26-97a8-25a792d01fe7","ios":"levelo://app?vid=81ec6328-9713-4b26-97a8-25a792d01fe7"},"vehicle_type_id":"4","last_reported":1722103869,"current_range_meters":0,"station_id":"ce4bht12rcd13ifvqi60","pricing_plan_id":"cebpf4jnsgd1na2vs0mg"},{"bike_id":"2333a0f0-fc52-443e-897e-9172066c225a","system_id":"levelo_inurba_marseille","lat":43.286039,"lon":5.370679,"is_reserved":false,"is_disabled":false,"rental_uris":{"android":"levelo://app?vid=2333a0f0-fc52-443e-897e-9172066c225a","ios":"levelo://app?vid=2333a0f0-fc52-443e-897e-9172066c225a"},"vehicle_type_id":"4","last_reported":1722103869,"current_range_meters":0,"station_id":"ce4bht12rcd13ifvqi60","pricing_plan_id":"cebpf4jnsgd1na2vs0mg"},{"bike_id":"21f45e9a-7d20-450b-8f12-3d96701d53ed","system_id":"levelo_inurba_marseille","lat":43.314013,"lon":5.403994,"is_reserved":false,"is_disabled":false,"rental_uris":{"android":"levelo://app?vid=21f45e9a-7d20-450b-8f12-3d96701d53ed","ios":"levelo://app?vid=21f45e9a-7d20-450b-8f12-3d96701d53ed"},"vehicle_type_id":"4","last_reported":1722103869,"current_range_meters":0,"station_id":"","pricing_plan_id":"cebpf4jnsgd1na2vs0mg"},{"bike_id":"176feb70-7ff2-4f2b-b52b-c514a50a0ae6","system_id":"levelo_inurba_marseille","lat":43.287198,"lon":5.379422,"is_reserved":false,"is_disabled":false,"rental_uris":{"android":"levelo://app?vid=176feb70-7ff2-4f2b-b52b-c514a50a0ae6","ios":"levelo://app?vid=176feb70-7ff2-4f2b-b52b-c514a50a0ae6"},"vehicle_type_id":"4","last_reported":1722103869,"current_range_meters":0,"station_id":"ce4bh9p2rcd13ifvqec0","pricing_plan_id":"cebpf4jnsgd1na2vs0mg"},{"bike_id":"9559d29a-ec44-4857-ad06-be96f9bd5b4b","system_id":"levelo_inurba_marseille","lat":43.291994,"lon":5.392907,"is_reserved":false,"is_disabled":false,"rental_uris":{"android":"levelo://app?vid=9559d29a-ec44-4857-ad06-be96f9bd5b4b","ios":"levelo://app?vid=9559d29a-ec44-4857-ad06-be96f9bd5b4b"},"vehicle_type_id":"4","last_reported":1722103869,"current_range_meters":19200,"station_id":"ce4bh192rcd13ifvqdd0","pricing_plan_id":"cebpf4jnsgd1na2vs0mg"},{"bike_id":"35cd0426-5b46-4bc1-8b68-861a2c4e5eed","system_id":"levelo_inurba_marseille","lat":43.291994,"lon":5.392907,"is_reserved":false,"is_disabled":false,"rental_uris":{"android":"levelo://app?vid=35cd0426-5b46-4bc1-8b68-861a2c4e5eed","ios":"levelo://app?vid=35cd0426-5b46-4bc1-8b68-861a2c4e5eed"},"vehicle_type_id":"4","last_reported":1722103869,"current_range_meters":2000,"station_id":"ce4bh192rcd13ifvqdd0","pricing_plan_id":"cebpf4jnsgd1na2vs0mg"},{"bike_id":"8eed2cb9-b526-47fa-8dd7-dc0736aeff56","system_id":"levelo_inurba_marseille","lat":43.291994,"lon":5.392907,"is_reserved":false,"is_disabled":false,"rental_uris":{"android":"levelo://app?vid=8eed2cb9-b526-47fa-8dd7-dc0736aeff56","ios":"levelo://app?vid=8eed2cb9-b526-47fa-8dd7-dc0736aeff56"},"vehicle_type_id":"4","last_reported":1722103869,"current_range_meters":2400,"station_id":"ce4bh192rcd13ifvqdd0","pricing_plan_id":"cebpf4jnsgd1na2vs0mg"},{"bike_id":"fa6670c5-b4d8-4742-8a1d-1946ba420618","system_id":"levelo_inurba_marseille","lat":43.284534,"lon":5.358662,"is_reserved":false,"is_disabled":false,"rental_uris":{"android":"levelo://app?vid=fa6670c5-b4d8-4742-8a1d-1946ba420618","ios":"levelo://app?vid=fa6670c5-b4d8-4742-8a1d-1946ba420618"},"vehicle_type_id":"4","last_reported":1722103869,"current_range_meters":1600,"station_id":"ce4bhah2rcd13ifvqei0","pricing_plan_id":"cebpf4jnsgd1na2vs0mg"},{"bike_id":"4155c4be-b93d-49b7-86ad-c3bf6270891f","system_id":"levelo_inurba_marseille","lat":43.28618,"lon":5.35094,"is_reserved":false,"is_disabled":false,"rental_uris":{"android":"levelo://app?vid=4155c4be-b93d-49b7-86ad-c3bf6270891f","ios":"levelo://app?vid=4155c4be-b93d-49b7-86ad-c3bf6270891f"},"vehicle_type_id":"4","last_reported":1722103869,"current_range_meters":0,"station_id":"ce4bhch2rcd13ifvqeug","pricing_plan_id":"cebpf4jnsgd1na2vs0mg"},{"bike_id":"50c66b7a-f914-4f14-90be-181a271aca65","system_id":"levelo_inurba_marseille","lat":43.285856,"lon":5.350771,"is_reserved":false,"is_disabled":false,"rental_uris":{"android":"levelo://app?vid=50c66b7a-f914-4f14-90be-181a271aca65","ios":"levelo://app?vid=50c66b7a-f914-4f14-90be-181a271aca65"},"vehicle_type_id":"4","last_reported":1722103869,"current_range_meters":2400,"station_id":"ce4bhch2rcd13ifvqeug","pricing_plan_id":"cebpf4jnsgd1na2vs0mg"},{"bike_id":"426eb0d3-d284-41d1-9bd3-c081a308346b","system_id":"levelo_inurba_marseille","lat":43.285856,"lon":5.350771,"is_reserved":false,"is_disabled":false,"rental_uris":{"android":"levelo://app?vid=426eb0d3-d284-41d1-9bd3-c081a308346b","ios":"levelo://app?vid=426eb0d3-d284-41d1-9bd3-c081a308346b"},"vehicle_type_id":"4","last_reported":1722103869,"current_range_meters":10000,"station_id":"ce4bhch2rcd13ifvqeug","pricing_plan_id":"cebpf4jnsgd1na2vs0mg"},{"bike_id":"22fe6251-9c57-4e9d-bc5c-9c6a486aaf88","system_id":"levelo_inurba_marseille","lat":43.286133,"lon":5.35099,"is_reserved":false,"is_disabled":false,"rental_uris":{"android":"levelo://app?vid=22fe6251-9c57-4e9d-bc5c-9c6a486aaf88","ios":"levelo://app?vid=22fe6251-9c57-4e9d-bc5c-9c6a486aaf88"},"vehicle_type_id":"4","last_reported":1722103869,"current_range_meters":400,"station_id":"ce4bhch2rcd13ifvqeug","pricing_plan_id":"cebpf4jnsgd1na2vs0mg"},{"bike_id":"f359cb9c-8f02-44fd-a48d-f93c7627a08d","system_id":"levelo_inurba_marseille","lat":43.283998,"lon":5.375062,"is_reserved":false,"is_disabled":false,"rental_uris":{"android":"levelo://app?vid=f359cb9c-8f02-44fd-a48d-f93c7627a08d","ios":"levelo://app?vid=f359cb9c-8f02-44fd-a48d-f93c7627a08d"},"vehicle_type_id":"4","last_reported":1722103869,"current_range_meters":16400,"station_id":"ce4bh412rcd13ifvqds0","pricing_plan_id":"cebpf4jnsgd1na2vs0mg"},{"bike_id":"ee162a5c-928a-4074-b42d-5537e772ce27","system_id":"levelo_inurba_marseille","lat":43.283998,"lon":5.375062,"is_reserved":false,"is_disabled":false,"rental_uris":{"android":"levelo://app?vid=ee162a5c-928a-4074-b42d-5537e772ce27","ios":"levelo://app?vid=ee162a5c-928a-4074-b42d-5537e772ce27"},"vehicle_type_id":"4","last_reported":1722103869,"current_range_meters":8000,"station_id":"ce4bh412rcd13ifvqds0","pricing_plan_id":"cebpf4jnsgd1na2vs0mg"},{"bike_id":"628643cf-976a-432c-8f72-4a3f247ab48d","system_id":"levelo_inurba_marseille","lat":43.283998,"lon":5.375062,"is_reserved":false,"is_disabled":false,"rental_uris":{"android":"levelo://app?vid=628643cf-976a-432c-8f72-4a3f247ab48d","ios":"levelo://app?vid=628643cf-976a-432c-8f72-4a3f247ab48d"},"vehicle_type_id":"4","last_reported":1722103869,"current_range_meters":15200,"station_id":"ce4bh412rcd13ifvqds0","pricing_plan_id":"cebpf4jnsgd1na2vs0mg"},{"bike_id":"a7081b04-d960-4274-b704-af2c44c2731d","system_id":"levelo_inurba_marseille","lat":43.283998,"lon":5.375062,"is_reserved":false,"is_disabled":false,"rental_uris":{"android":"levelo://app?vid=a7081b04-d960-4274-b704-af2c44c2731d","ios":"levelo://app?vid=a7081b04-d960-4274-b704-af2c44c2731d"},"vehicle_type_id":"4","last_reported":1722103869,"current_range_meters":4400,"station_id":"ce4bh412rcd13ifvqds0","pricing_plan_id":"cebpf4jnsgd1na2vs0mg"},{"bike_id":"83048516-2fe1-4122-ba59-b47b717a1925","system_id":"levelo_inurba_marseille","lat":43.28506,"lon":5.38029,"is_reserved":false,"is_disabled":false,"rental_uris":{"android":"levelo://app?vid=83048516-2fe1-4122-ba59-b47b717a1925","ios":"levelo://app?vid=83048516-2fe1-4122-ba59-b47b717a1925"},"vehicle_type_id":"4","last_reported":1722103869,"current_range_meters":9200,"station_id":"","pricing_plan_id":"cebpf4jnsgd1na2vs0mg"},{"bike_id":"da459a7d-2d81-471f-96a6-e5d8819bb998","system_id":"levelo_inurba_marseille","lat":43.29572,"lon":5.39982,"is_reserved":false,"is_disabled":false,"rental_uris":{"android":"levelo://app?vid=da459a7d-2d81-471f-96a6-e5d8819bb998","ios":"levelo://app?vid=da459a7d-2d81-471f-96a6-e5d8819bb998"},"vehicle_type_id":"4","last_reported":1722103869,"current_range_meters":0,"station_id":"ce4bh312rcd13ifvqdj0","pricing_plan_id":"cebpf4jnsgd1na2vs0mg"},{"bike_id":"e8080547-572f-47d1-bde8-ffc26f12c275","system_id":"levelo_inurba_marseille","lat":43.299539,"lon":5.403313,"is_reserved":false,"is_disabled":false,"rental_uris":{"android":"levelo://app?vid=e8080547-572f-47d1-bde8-ffc26f12c275","ios":"levelo://app?vid=e8080547-572f-47d1-bde8-ffc26f12c275"},"vehicle_type_id":"4","last_reported":1722103869,"current_range_meters":800,"station_id":"","pricing_plan_id":"cebpf4jnsgd1na2vs0mg"},{"bike_id":"12a4ad3c-3e33-490f-92cf-9bb2e05a9d6c","system_id":"levelo_inurba_marseille","lat":43.28681,"lon":5.38663,"is_reserved":false,"is_disabled":false,"rental_uris":{"android":"levelo://app?vid=12a4ad3c-3e33-490f-92cf-9bb2e05a9d6c","ios":"levelo://app?vid=12a4ad3c-3e33-490f-92cf-9bb2e05a9d6c"},"vehicle_type_id":"4","last_reported":1722103869,"current_range_meters":0,"station_id":"ce4bh492rcd13ifvqdug","pricing_plan_id":"cebpf4jnsgd1na2vs0mg"},{"bike_id":"097c4531-583a-4247-8256-29fca7197aa4","system_id":"levelo_inurba_marseille","lat":43.28679,"lon":5.38661,"is_reserved":false,"is_disabled":false,"rental_uris":{"android":"levelo://app?vid=097c4531-583a-4247-8256-29fca7197aa4","ios":"levelo://app?vid=097c4531-583a-4247-8256-29fca7197aa4"},"vehicle_type_id":"4","last_reported":1722103869,"current_range_meters":0,"station_id":"ce4bh492rcd13ifvqdug","pricing_plan_id":"cebpf4jnsgd1na2vs0mg"},{"bike_id":"b92245eb-623a-43c1-8958-b77e9b5b26cf","system_id":"levelo_inurba_marseille","lat":43.286595,"lon":5.386795,"is_reserved":false,"is_disabled":false,"rental_uris":{"android":"levelo://app?vid=b92245eb-623a-43c1-8958-b77e9b5b26cf","ios":"levelo://app?vid=b92245eb-623a-43c1-8958-b77e9b5b26cf"},