{"last_updated":1748013013,"ttl":60,"version":"2.2","data":{"bikes":[{"bike_id":"c0b9fd4f-e181-46ce-b0bf-f5119973334f","system_id":"levelo_inurba_marseille","lat":43.33771,"lon":5.37424,"is_reserved":false,"is_disabled":true,"rental_uris":{"android":"levelo://app?vid=c0b9fd4f-e181-46ce-b0bf-f5119973334f","ios":"levelo://app?vid=c0b9fd4f-e181-46ce-b0bf-f5119973334f"},"vehicle_type_id":"4","last_reported":1748013014,"current_range_meters":0,"station_id":"","pricing_plan_id":"cebpf4jnsgd1na2vs0mg"},{"bike_id":"d4150556-b601-4cc0-b77e-49c2d38938cf","system_id":"levelo_inurba_marseille","lat":43.28873,"lon":5.45499,"is_reserved":false,"is_disabled":true,"rental_uris":{"android":"levelo://app?vid=d4150556-b601-4cc0-b77e-49c2d38938cf","ios":"levelo://app?vid=d4150556-b601-4cc0-b77e-49c2d38938cf"},"vehicle_type_id":"4","last_reported":1748013014,"current_range_meters":0,"station_id":"","pricing_plan_id":"cebpf4jnsgd1na2vs0mg"},{"bike_id":"e8162579-a5ad-485f-ad83-fec8a2ebe7e1","system_id":"levelo_inurba_marseille","lat":43.26832,"lon":5.39114,"is_reserved":false,"is_disabled":true,"rental_uris":{"android":"levelo://app?vid=e8162579-a5ad-485f-ad83-fec8a2ebe7e1","ios":"levelo://app?vid=e8162579-a5ad-485f-ad83-fec8a2ebe7e1"},"vehicle_type_id":"4","last_reported":1748013014,"current_range_meters":0,"station_id":"","pricing_plan_id":"cebpf4jnsgd1na2vs0mg"},{"bike_id":"c4b55004-c014-4bfa-a092-f7c7649b87ca","system_id":"levelo_inurba_marseille","lat":43.2629,"lon":5.39297,"is_reserved":false,"is_disabled":true,"rental_uris":{"android":"levelo://app?vid=c4b55004-c014-4bfa-a092-f7c7649b87ca","ios":"levelo://app?vid=c4b55004-c014-4bfa-a092-f7c7649b87ca"},"vehicle_type_id":"4","last_reported":1748013014,"current_range_meters":0,"station_id":"","pricing_plan_id":"cebpf4jnsgd1na2vs0mg"},{"bike_id":"a9d86a3e-ff61-4b3c-b1d6-cb137b96f17c","system_id":"levelo_inurba_marseille","lat":43.28892,"lon":5.43052,"is_reserved":false,"is_disabled":true,"rental_uris":{"android":"levelo://app?vid=a9d86a3e-ff61-4b3c-b1d6-cb137b96f17c","ios":"levelo://app?vid=a9d86a3e-ff61-4b3c-b1d6-cb137b96f17c"},"vehicle_type_id":"4","last_reported":1748013014,"current_range_meters":0,"station_id":"","pricing_plan_id":"cebpf4jnsgd1na2vs0mg"},{"bike_id":"15dcdbbd-a41e-43eb-9ed6-26ec15ce7a50","system_id":"levelo_inurba_marseille","lat":43.21414,"lon":5.34119,"is_reserved":false,"is_disabled":true,"rental_uris":{"android":"levelo://app?vid=15dcdbbd-a41e-43eb-9ed6-26ec15ce7a50","ios":"levelo://app?vid=15dcdbbd-a41e-43eb-9ed6-26ec15ce7a50"},"vehicle_type_id":"4","last_reported":1748013014,"current_range_meters":0,"station_id":"","pricing_plan_id":"cebpf4jnsgd1na2vs0mg"},{"bike_id":"e9dd3aa4-b5e7-4480-926d-d7f537719bfa","system_id":"levelo_inurba_marseille","lat":43.230331,"lon":5.401847,"is_reserved":false,"is_disabled":true,"rental_uris":{"android":"levelo://app?vid=e9dd3aa4-b5e7-4480-926d-d7f537719bfa","ios":"levelo://app?vid=e9dd3aa4-b5e7-4480-926d-d7f537719bfa"},"vehicle_type_id":"4","last_reported":1748013014,"current_range_meters":0,"station_id":"","pricing_plan_id":"cebpf4jnsgd1na2vs0mg"},{"bike_id":"6e09294d-09ff-478a-951d-9edb62c170c1","system_id":"levelo_inurba_marseille","lat":43.3014,"lon":5.38775,"is_reserved":false,"is_disabled":true,"rental_uris":{"android":"levelo://app?vid=6e09294d-09ff-478a-951d-9edb62c170c1","ios":"levelo://app?vid=6e09294d-09ff-478a-951d-9edb62c170c1"},"vehicle_type_id":"4","last_reported":1748013014,"current_range_meters":0,"station_id":"ce4bghh2rcd13ifvqb60","pricing_plan_id":"cebpf4jnsgd1na2vs0mg"},{"bike_id":"54c0d45a-194e-464c-b01f-71303cd31cf7","system_id":"levelo_inurba_marseille","lat":43.29532,"lon":5.38552,"is_reserved":false,"is_disabled":true,"rental_uris":{"android":"levelo://app?vid=54c0d45a-194e-464c-b01f-71303cd31cf7","ios":"levelo://app?vid=54c0d45a-194e-464c-b01f-71303cd31cf7"},"vehicle_type_id":"4","last_reported":1748013014,"current_range_meters":0,"station_id":"ce4bgih2rcd13ifvqba0","pricing_plan_id":"cebpf4jnsgd1na2vs0mg"},{"bike_id":"d9cd29b7-ff84-4d5e-9474-8352a8e04eb3","system_id":"levelo_inurba_marseille","lat":43.30147,"lon":5.38079,"is_reserved":false,"is_disabled":true,"rental_uris":{"android":"levelo://app?vid=d9cd29b7-ff84-4d5e-9474-8352a8e04eb3","ios":"levelo://app?vid=d9cd29b7-ff84-4d5e-9474-8352a8e04eb3"},"vehicle_type_id":"4","last_reported":1748013014,"current_range_meters":0,"station_id":"ce4bgjp2rcd13ifvqbh0","pricing_plan_id":"cebpf4jnsgd1na2vs0mg"},{"bike_id":"d4c7b5c5-32a3-43f9-a264-253532404aee","system_id":"levelo_inurba_marseille","lat":43.301392,"lon":5.374151,"is_reserved":false,"is_disabled":true,"rental_uris":{"android":"levelo://app?vid=d4c7b5c5-32a3-43f9-a264-253532404aee","ios":"levelo://app?vid=d4c7b5c5-32a3-43f9-a264-253532404aee"},"vehicle_type_id":"4","last_reported":1748013014,"current_range_meters":0,"station_id":"ce4bgs92rcd13ifvqcc0","pricing_plan_id":"cebpf4jnsgd1na2vs0mg"},{"bike_id":"0fb4a5d4-2ddb-4cbe-bc2e-8f33b902e909","system_id":"levelo_inurba_marseille","lat":43.30276,"lon":5.37695,"is_reserved":false,"is_disabled":true,"rental_uris":{"android":"levelo://app?vid=0fb4a5d4-2ddb-4cbe-bc2e-8f33b902e909","ios":"levelo://app?vid=0fb4a5d4-2ddb-4cbe-bc2e-8f33b902e909"},"vehicle_type_id":"4","last_reported":1748013014,"current_range_meters":0,"station_id":"ce4bguh2rcd13ifvqcj0","pricing_plan_id":"cebpf4jnsgd1na2vs0mg"},{"bike_id":"f3bda7fe-d0ab-4653-bd2b-080e635c5c7c","system_id":"levelo_inurba_marseille","lat":43.29791,"lon":5.40403,"is_reserved":false,"is_disabled":true,"rental_uris":{"android":"levelo://app?vid=f3bda7fe-d0ab-4653-bd2b-080e635c5c7c","ios":"levelo://app?vid=f3bda7fe-d0ab-4653-bd2b-080e635c5c7c"},"vehicle_type_id":"4","last_reported":1748013014,"current_range_meters":0,"station_id":"ce4bh112rcd13ifvqd90","pricing_plan_id":"cebpf4jnsgd1na2vs0mg"},{"bike_id":"ea51b4f7-f6ce-4938-bcc3-1cf0c8039d89","system_id":"levelo_inurba_marseille","lat":43.29037,"lon":5.39962,"is_reserved":false,"is_disabled":true,"rental_uris":{"android":"levelo://app?vid=ea51b4f7-f6ce-4938-bcc3-1cf0c8039d89","ios":"levelo://app?vid=ea51b4f7-f6ce-4938-bcc3-1cf0c8039d89"},"vehicle_type_id":"4","last_reported":1748013014,"current_range_meters":0,"station_id":"ce4bh392rcd13ifvqdm0","pricing_plan_id":"cebpf4jnsgd1na2vs0mg"},{"bike_id":"df41d20e-76cb-4c8e-ae05-7f7fa8c0d34e","system_id":"levelo_inurba_marseille","lat":43.28353,"lon":5.38104,"is_reserved":false,"is_disabled":true,"rental_uris":{"android":"levelo://app?vid=df41d20e-76cb-4c8e-ae05-7f7fa8c0d34e","ios":"levelo://app?vid=df41d20e-76cb-4c8e-ae05-7f7fa8c0d34e"},"vehicle_type_id":"4","last_reported":1748013014,"current_range_meters":0,"station_id":"ce4bh412rcd13ifvqdr0","pricing_plan_id":"cebpf4jnsgd1na2vs0mg"},{"bike_id":"36bb8af3-92d2-4df9-97c2-ab0175a7cb9d","system_id":"levelo_inurba_marseille","lat":43.29257,"lon":5.38434,"is_reserved":false,"is_disabled":true,"rental_uris":{"android":"levelo://app?vid=36bb8af3-92d2-4df9-97c2-ab0175a7cb9d","ios":"levelo://app?vid=36bb8af3-92d2-4df9-97c2-ab0175a7cb9d"},"vehicle_type_id":"4","last_reported":1748013014,"current_range_meters":0,"station_id":"ce4bh692rcd13ifvqea0","pricing_plan_id":"cebpf4jnsgd1na2vs0mg"},{"bike_id":"6afcdc58-f5d7-43b9-9f61-5517b0029cf4","system_id":"levelo_inurba_marseille","lat":43.28037,"lon":5.36951,"is_reserved":false,"is_disabled":true,"rental_uris":{"android":"levelo://app?vid=6afcdc58-f5d7-43b9-9f61-5517b0029cf4","ios":"levelo://app?vid=6afcdc58-f5d7-43b9-9f61-5517b0029cf4"},"vehicle_type_id":"4","last_reported":1748013014,"current_range_meters":0,"station_id":"ce4bha12rcd13ifvqef0","pricing_plan_id":"cebpf4jnsgd1na2vs0mg"},{"bike_id":"02bc823b-9277-409f-a36d-18fb29a0ece1","system_id":"levelo_inurba_marseille","lat":43.273793,"lon":5.362697,"is_reserved":false,"is_disabled":true,"rental_uris":{"android":"levelo://app?vid=02bc823b-9277-409f-a36d-18fb29a0ece1","ios":"levelo://app?vid=02bc823b-9277-409f-a36d-18fb29a0ece1"},"vehicle_type_id":"4","last_reported":1748013014,"current_range_meters":0,"station_id":"ce4bhbh2rcd13ifvqeo0","pricing_plan_id":"cebpf4jnsgd1na2vs0mg"},{"bike_id":"d0c1667c-20f5-413c-b34a-4af00ea1246e","system_id":"levelo_inurba_marseille","lat":43.26037,"lon":5.3755,"is_reserved":false,"is_disabled":true,"rental_uris":{"android":"levelo://app?vid=d0c1667c-20f5-413c-b34a-4af00ea1246e","ios":"levelo://app?vid=d0c1667c-20f5-413c-b34a-4af00ea1246e"},"vehicle_type_id":"4","last_reported":1748013014,"current_range_meters":0,"station_id":"ce4bhgh2rcd13ifvqfa0","pricing_plan_id":"cebpf4jnsgd1na2vs0mg"},{"bike_id":"56516221-a409-4cf6-a7b7-a64cbf5e2881","system_id":"levelo_inurba_marseille","lat":43.26192,"lon":5.3745,"is_reserved":false,"is_disabled":true,"rental_uris":{"android":"levelo://app?vid=56516221-a409-4cf6-a7b7-a64cbf5e2881","ios":"levelo://app?vid=56516221-a409-4cf6-a7b7-a64cbf5e2881"},"vehicle_type_id":"4","last_reported":1748013014,"current_range_meters":0,"station_id":"ce4bhgp2rcd13ifvqfc0","pricing_plan_id":"cebpf4jnsgd1na2vs0mg"},{"bike_id":"8902fde1-6e3c-4168-8755-d26b58074a05","system_id":"levelo_inurba_marseille","lat":43.24388,"lon":5.3707,"is_reserved":false,"is_disabled":true,"rental_uris":{"android":"levelo://app?vid=8902fde1-6e3c-4168-8755-d26b58074a05","ios":"levelo://app?vid=8902fde1-6e3c-4168-8755-d26b58074a05"},"vehicle_type_id":"4","last_reported":1748013014,"current_range_meters":0,"station_id":"ce4bhhh2rcd13ifvqfk0","pricing_plan_id":"cebpf4jnsgd1na2vs0mg"},{"bike_id":"f3e640b3-b200-4bc6-afeb-094a1123ea18","system_id":"levelo_inurba_marseille","lat":43.28001,"lon":5.40013,"is_reserved":false,"is_disabled":true,"rental_uris":{"android":"levelo://app?vid=f3e640b3-b200-4bc6-afeb-094a1123ea18","ios":"levelo://app?vid=f3e640b3-b200-4bc6-afeb-094a1123ea18"},"vehicle_type_id":"4","last_reported":1748013014,"current_range_meters":0,"station_id":"ce4bho92rcd13ifvqh4g","pricing_plan_id":"cebpf4jnsgd1na2vs0mg"},{"bike_id":"b2c71905-3c29-4b09-aa95-4b870c550ce7","system_id":"levelo_inurba_marseille","lat":43.33021,"lon":5.39039,"is_reserved":false,"is_disabled":true,"rental_uris":{"android":"levelo://app?vid=b2c71905-3c29-4b09-aa95-4b870c550ce7","ios":"levelo://app?vid=b2c71905-3c29-4b09-aa95-4b870c550ce7"},"vehicle_type_id":"4","last_reported":1748013014,"current_range_meters":0,"station_id":"ce4bhr92rcd13ifvqhrg","pricing_plan_id":"cebpf4jnsgd1na2vs0mg"},{"bike_id":"308ff11b-ba8e-479b-be5d-eab702b96837","system_id":"levelo_inurba_marseille","lat":43.28843,"lon":5.39317,"is_reserved":false,"is_disabled":true,"rental_uris":{"android":"levelo://app?vid=308ff11b-ba8e-479b-be5d-eab702b96837","ios":"levelo://app?vid=308ff11b-ba8e-479b-be5d-eab702b96837"},"vehicle_type_id":"4","last_reported":1748013014,"current_range_meters":400,"station_id":"ce4bh2p2rcd13ifvqdi0","pricing_plan_id":"cebpf4jnsgd1na2vs0mg"},{"bike_id":"f895e5ea-2241-4b26-b834-cc0733e4d980","system_id":"levelo_inurba_marseille","lat":43.273132,"lon":5.390762,"is_reserved":false,"is_disabled":true,"rental_uris":{"android":"levelo://app?vid=f895e5ea-2241-4b26-b834-cc0733e4d980","ios":"levelo://app?vid=f895e5ea-2241-4b26-b834-cc0733e4d980"},"vehicle_type_id":"4","last_reported":1748013014,"current_range_meters":400,"station_id":"ce4bhgp2rcd13ifvqfe0","pricing_plan_id":"cebpf4jnsgd1na2vs0mg"},{"bike_id":"0bd25845-40a0-4559-b13c-f2716869e457","system_id":"levelo_inurba_marseille","lat":43.27941,"lon":5.41054,"is_reserved":false,"is_disabled":true,"rental_uris":{"android":"levelo://app?vid=0bd25845-40a0-4559-b13c-f2716869e457","ios":"levelo://app?vid=0bd25845-40a0-4559-b13c-f2716869e457"},"vehicle_type_id":"4","last_reported":1748013014,"current_range_meters":400,"station_id":"ce4bhnp2rcd13ifvqh0g","pricing_plan_id":"cebpf4jnsgd1na2vs0mg"},{"bike_id":"679cd485-7024-4c2e-b087-83dea675500f","system_id":"levelo_inurba_marseille","lat":43.32365,"lon":5.38884,"is_reserved":false,"is_disabled":true,"rental_uris":{"android":"levelo://app?vid=679cd485-7024-4c2e-b087-83dea675500f","ios":"levelo://app?vid=679cd485-7024-4c2e-b087-83dea675500f"},"vehicle_type_id":"4","last_reported":1748013014,"current_range_meters":400,"station_id":"ce4bhqp2rcd13ifvqhog","pricing_plan_id":"cebpf4jnsgd1na2vs0mg"},{"bike_id":"5f101d6f-9e60-4e30-b619-e05cb65c4662","system_id":"levelo_inurba_marseille","lat":43.2546,"lon":5.37442,"is_reserved":false,"is_disabled":true,"rental_uris":{"android":"levelo://app?vid=5f101d6f-9e60-4e30-b619-e05cb65c4662","ios":"levelo://app?vid=5f101d6f-9e60-4e30-b619-e05cb65c4662"},"vehicle_type_id":"4","last_reported":1748013014,"current_range_meters":800,"station_id":"","pricing_plan_id":"cebpf4jnsgd1na2vs0mg"},{"bike_id":"5232c3b9-29e2-4dc6-aead-9610a66df11d","system_id":"levelo_inurba_marseille","lat":43.29578,"lon":5.37523,"is_reserved":false,"is_disabled":true,"rental_uris":{"android":"levelo://app?vid=5232c3b9-29e2-4dc6-aead-9610a66df11d","ios":"levelo://app?vid=5232c3b9-29e2-4dc6-aead-9610a66df11d"},"vehicle_type_id":"4","last_reported":1748013014,"current_range_meters":800,"station_id":"ce4bgh92rcd13ifvqb50","pricing_plan_id":"cebpf4jnsgd1na2vs0mg"},{"bike_id":"0e20f54a-76ed-4e3a-84ab-508c250aa71e","system_id":"levelo_inurba_marseille","lat":43.29527,"lon":5.38552,"is_reserved":false,"is_disabled":true,"rental_uris":{"android":"levelo://app?vid=0e20f54a-76ed-4e3a-84ab-508c250aa71e","ios":"levelo://app?vid=0e20f54a-76ed-4e3a-84ab-508c250aa71e"},"vehicle_type_id":"4","last_reported":1748013014,"current_range_meters":800,"station_id":"ce4bgih2rcd13ifvqba0","pricing_plan_id":"cebpf4jnsgd1na2vs0mg"},{"bike_id":"f974e9b4-0d98-4f35-8e85-aaa6ab8ef74a","system_id":"levelo_inurba_marseille","lat":43.29877,"lon":5.38909,"is_reserved":false,"is_disabled":true,"rental_uris":{"android":"levelo://app?vid=f974e9b4-0d98-4f35-8e85-aaa6ab8ef74a","ios":"levelo://app?vid=f974e9b4-0d98-4f35-8e85-aaa6ab8ef74a"},"vehicle_type_id":"4","last_reported":1748013014,"current_range_meters":800,"station_id":"ce4bh392rcd13ifvqdl0","pricing_plan_id":"cebpf4jnsgd1na2vs0mg"},{"bike_id":"0ab236af-9274-44b7-ad43-619c4b2df6c8","system_id":"levelo_inurba_marseille","lat":43.29684,"lon":5.37636,"is_reserved":false,"is_disabled":true,"rental_uris":{"android":"levelo://app?vid=0ab236af-9274-44b7-ad43-619c4b2df6c8","ios":"levelo://app?vid=0ab236af-9274-44b7-ad43-619c4b2df6c8"},"vehicle_type_id":"4","last_reported":1748013014,"current_range_meters":1200,"station_id":"ce4bgkh2rcd13ifvqbl0","pricing_plan_id":"cebpf4jnsgd1na2vs0mg"},{"bike_id":"f36b39fb-9d59-4236-96e4-0a316d9511d6","system_id":"levelo_inurba_marseille","lat":43.29041,"lon":5.39961,"is_reserved":false,"is_disabled":true,"rental_uris":{"android":"levelo://app?vid=f36b39fb-9d59-4236-96e4-0a316d9511d6","ios":"levelo://app?vid=f36b39fb-9d59-4236-96e4-0a316d9511d6"},"vehicle_type_id":"4","last_reported":1748013014,"current_range_meters":1200,"station_id":"ce4bh392rcd13ifvqdm0","pricing_plan_id":"cebpf4jnsgd1na2vs0mg"},{"bike_id":"1733f6a5-1a7a-4a6e-98af-122a5b7013cd","system_id":"levelo_inurba_marseille","lat":43.27982,"lon":5.38764,"is_reserved":false,"is_disabled":false,"rental_uris":{"android":"levelo://app?vid=1733f6a5-1a7a-4a6e-98af-122a5b7013cd","ios":"levelo://app?vid=1733f6a5-1a7a-4a6e-98af-122a5b7013cd"},"vehicle_type_id":"4","last_reported":1748013014,"current_range_meters":1200,"station_id":"ce4bhg12rcd13ifvqf80","pricing_plan_id":"cebpf4jnsgd1na2vs0mg"},{"bike_id":"2fee538f-0159-4a32-b845-f36c9d44a61a","system_id":"levelo_inurba_marseille","lat":43.272023,"lon":5.391683,"is_reserved":false,"is_disabled":true,"rental_uris":{"android":"levelo://app?vid=2fee538f-0159-4a32-b845-f36c9d44a61a","ios":"levelo://app?vid=2fee538f-0159-4a32-b845-f36c9d44a61a"},"vehicle_type_id":"4","last_reported":1748013014,"current_range_meters":1200,"station_id":"ce4bhhp2rcd13ifvqfm0","pricing_plan_id":"cebpf4jnsgd1na2vs0mg"},{"bike_id":"dea94bae-0219-4b6d-bdb8-7a77b2ca5afd","system_id":"levelo_inurba_marseille","lat":43.26924,"lon":5.40277,"is_reserved":false,"is_disabled":true,"rental_uris":{"android":"levelo://app?vid=dea94bae-0219-4b6d-bdb8-7a77b2ca5afd","ios":"levelo://app?vid=dea94bae-0219-4b6d-bdb8-7a77b2ca5afd"},"vehicle_type_id":"4","last_reported":1748013014,"current_range_meters":1200,"station_id":"cjm6bp8fraef2m0cb0m0","pricing_plan_id":"cebpf4jnsgd1na2vs0mg"},{"bike_id":"77afe3b0-ad99-452f-9f27-90191bb31817","system_id":"levelo_inurba_marseille","lat":43.29615,"lon":5.37716,"is_reserved":false,"is_disabled":true,"rental_uris":{"android":"levelo://app?vid=77afe3b0-ad99-452f-9f27-90191bb31817","ios":"levelo://app?vid=77afe3b0-ad99-452f-9f27-90191bb31817"},"vehicle_type_id":"4","last_reported":1748013014,"current_range_meters":1600,"station_id":"ce4bgi92rcd13ifvqb90","pricing_plan_id":"cebpf4jnsgd1na2vs0mg"},{"bike_id":"5158809a-b980-421a-a09f-087d809ca096","system_id":"levelo_inurba_marseille","lat":43.29705,"lon":5.37708,"is_reserved":false,"is_disabled":true,"rental_uris":{"android":"levelo://app?vid=5158809a-b980-421a-a09f-087d809ca096","ios":"levelo://app?vid=5158809a-b980-421a-a09f-087d809ca096"},"vehicle_type_id":"4","last_reported":1748013014,"current_range_meters":1600,"station_id":"ce4bgkh2rcd13ifvqbl0","pricing_plan_id":"cebpf4jnsgd1na2vs0mg"},{"bike_id":"6dfa4ab0-7179-45de-b806-4eab6e2f4720","system_id":"levelo_inurba_marseille","lat":43.29032,"lon":5.38651,"is_reserved":false,"is_disabled":true,"rental_uris":{"android":"levelo://app?vid=6dfa4ab0-7179-45de-b806-4eab6e2f4720","ios":"levelo://app?vid=6dfa4ab0-7179-45de-b806-4eab6e2f4720"},"vehicle_type_id":"4","last_reported":1748013014,"current_range_meters":1600,"station_id":"ce4bh4p2rcd13ifvqe0g","pricing_plan_id":"cebpf4jnsgd1na2vs0mg"},{"bike_id":"b40cff87-e048-4c3a-9e26-c568b3f48b0f","system_id":"levelo_inurba_marseille","lat":43.28997,"lon":5.38127,"is_reserved":false,"is_disabled":true,"rental_uris":{"android":"levelo://app?vid=b40cff87-e048-4c3a-9e26-c568b3f48b0f","ios":"levelo://app?vid=b40cff87-e048-4c3a-9e26-c568b3f48b0f"},"vehicle_type_id":"4","last_reported":1748013014,"current_range_meters":1600,"station_id":"ce4bh4p2rcd13ifvqe1g","pricing_plan_id":"cebpf4jnsgd1na2vs0mg"},{"bike_id":"509884c4-e380-4a23-8212-d4bdb5d7697f","system_id":"levelo_inurba_marseille","lat":43.28399,"lon":5.37508,"is_reserved":false,"is_disabled":true,"rental_uris":{"android":"levelo://app?vid=509884c4-e380-4a23-8212-d4bdb5d7697f","ios":"levelo://app?vid=509884c4-e380-4a23-8212-d4bdb5d7697f"},"vehicle_type_id":"4","last_reported":1748013014,"current_range_meters":2000,"station_id":"ce4bh412rcd13ifvqds0","pricing_plan_id":"cebpf4jnsgd1na2vs0mg"},{"bike_id":"35b1c0d5-b2a3-43e5-8446-51f2ece5bb6b","system_id":"levelo_inurba_marseille","lat":43.2465,"lon":5.38894,"is_reserved":false,"is_disabled":true,"rental_uris":{"android":"levelo://app?vid=35b1c0d5-b2a3-43e5-8446-51f2ece5bb6b","ios":"levelo://app?vid=35b1c0d5-b2a3-43e5-8446-51f2ece5bb6b"},"vehicle_type_id":"4","last_reported":1748013014,"current_range_meters":2000,"station_id":"ce4bhg12rcd13ifvqf60","pricing_plan_id":"cebpf4jnsgd1na2vs0mg"},{"bike_id":"7da032af-6c12-4a74-b660-6560243dbd1d","system_id":"levelo_inurba_marseille","lat":43.30417,"lon":5.41289,"is_reserved":false,"is_disabled":false,"rental_uris":{"android":"levelo://app?vid=7da032af-6c12-4a74-b660-6560243dbd1d","ios":"levelo://app?vid=7da032af-6c12-4a74-b660-6560243dbd1d"},"vehicle_type_id":"4","last_reported":1748013014,"current_range_meters":2000,"station_id":"ce4bhop2rcd13ifvqh8g","pricing_plan_id":"cebpf4jnsgd1na2vs0mg"},{"bike_id":"72ef6648-d7d1-4fc2-8cf7-99b520e0cc5c","system_id":"levelo_inurba_marseille","lat":43.304596,"lon":5.37906,"is_reserved":false,"is_disabled":false,"rental_uris":{"android":"levelo://app?vid=72ef6648-d7d1-4fc2-8cf7-99b520e0cc5c","ios":"levelo://app?vid=72ef6648-d7d1-4fc2-8cf7-99b520e0cc5c"},"vehicle_type_id":"4","last_reported":1748013014,"current_range_meters":2800,"station_id":"ce4bgup2rcd13ifvqcn0","pricing_plan_id":"cebpf4jnsgd1na2vs0mg"},{"bike_id":"912b8074-de66-4aa6-a51a-dcca5ed37aa4","system_id":"levelo_inurba_marseille","lat":43.295227,"lon":5.393971,"is_reserved":false,"is_disabled":true,"rental_uris":{"android":"levelo://app?vid=912b8074-de66-4aa6-a51a-dcca5ed37aa4","ios":"levelo://app?vid=912b8074-de66-4aa6-a51a-dcca5ed37aa4"},"vehicle_type_id":"4","last_reported":1748013014,"current_range_meters":2800,"station_id":"ce4bh292rcd13ifvqdf0","pricing_plan_id":"cebpf4jnsgd1na2vs0mg"},{"bike_id":"2b8df584-f91f-4872-a585-64be2d5e6a39","system_id":"levelo_inurba_marseille","lat":43.256921,"lon":5.410779,"is_reserved":false,"is_disabled":false,"rental_uris":{"android":"levelo://app?vid=2b8df584-f91f-4872-a585-64be2d5e6a39","ios":"levelo://app?vid=2b8df584-f91f-4872-a585-64be2d5e6a39"},"vehicle_type_id":"4","last_reported":1748013014,"current_range_meters":2800,"station_id":"ce4bhkp2rcd13ifvqgd0","pricing_plan_id":"cebpf4jnsgd1na2vs0mg"},{"bike_id":"54e4b086-1d0d-46a7-b1bc-1ecae5d19ff7","system_id":"levelo_inurba_marseille","lat":43.30535,"lon":5.368,"is_reserved":false,"is_disabled":false,"rental_uris":{"android":"levelo://app?vid=54e4b086-1d0d-46a7-b1bc-1ecae5d19ff7","ios":"levelo://app?vid=54e4b086-1d0d-46a7-b1bc-1ecae5d19ff7"},"vehicle_type_id":"4","last_reported":1748013014,"current_range_meters":3200,"station_id":"","pricing_plan_id":"cebpf4jnsgd1na2vs0mg"},{"bike_id":"38c9e1d0-57c8-4449-9d5c-fceb4ae62e38","system_id":"levelo_inurba_marseille","lat":43.30927,"lon":5.40154,"is_reserved":false,"is_disabled":false,"rental_uris":{"android":"levelo://app?vid=38c9e1d0-57c8-4449-9d5c-fceb4ae62e38","ios":"levelo://app?vid=38c9e1d0-57c8-4449-9d5c-fceb4ae62e38"},"vehicle_type_id":"4","last_reported":1748013014,"current_range_meters":3200,"station_id":"ce4bgvp2rcd13ifvqct0","pricing_plan_id":"cebpf4jnsgd1na2vs0mg"},{"bike_id":"18e82329-520d-4823-bbfc-e9e1a3df0e75","system_id":"levelo_inurba_marseille","lat":43.29256,"lon":5.38437,"is_reserved":false,"is_disabled":false,"rental_uris":{"android":"levelo://app?vid=18e82329-520d-4823-bbfc-e9e1a3df0e75","ios":"levelo://app?vid=18e82329-520d-4823-bbfc-e9e1a3df0e75"},"vehicle_type_id":"4","last_reported":1748013014,"current_range_meters":3200,"station_id":"ce4bh692rcd13ifvqea0","pricing_plan_id":"cebpf4jnsgd1na2vs0mg"},{"bike_id":"d18ff656-dfc4-4b26-9c6d-fbfd25a4e356","system_id":"levelo_inurba_marseille","lat":43.27315,"lon":5.39098,"is_reserved":false,"is_disabled":false,"rental_uris":{"android":"levelo://app?vid=d18ff656-dfc4-4b26-9c6d-fbfd25a4e356","ios":"levelo://app?vid=d18ff656-dfc4-4b26-9c6d-fbfd25a4e356"},"vehicle_type_id":"4","last_reported":1748013014,"current_range_meters":3200,"station_id":"ce4bhgp2rcd13ifvqfe0","pricing_plan_id":"cebpf4jnsgd1na2vs0mg"},{"bike_id":"c3c7ae58-40dc-49fe-91c8-045c830c98b8","system_id":"levelo_inurba_marseille","lat":43.3194,"lon":5.44963,"is_reserved":false,"is_disabled":false,"rental_uris":{"android":"levelo://app?vid=c3c7ae58-40dc-49fe-91c8-045c830c98b8","ios":"levelo://app?vid=c3c7ae58-40dc-49fe-91c8-045c830c98b8"},"vehicle_type_id":"4","last_reported":1748013014,"current_range_meters":3600,"station_id":"","pricing_plan_id":"cebpf4jnsgd1na2vs0mg"},{"bike_id":"04dc075f-fa6d-4648-87ef-e5bb806815ef","system_id":"levelo_inurba_marseille","lat":43.283321,"lon":5.381046,"is_reserved":false,"is_disabled":false,"rental_uris":{"android":"levelo://app?vid=04dc075f-fa6d-4648-87ef-e5bb806815ef","ios":"levelo://app?vid=04dc075f-fa6d-4648-87ef-e5bb806815ef"},"vehicle_type_id":"4","last_reported":1748013014,"current_range_meters":3600,"station_id":"ce4bh412rcd13ifvqdr0","pricing_plan_id":"cebpf4jnsgd1na2vs0mg"},{"bike_id":"fd0ffa9c-b1e2-4c5e-821f-2048fa845957","system_id":"levelo_inurba_marseille","lat":43.27441,"lon":5.39406,"is_reserved":false,"is_disabled":false,"rental_uris":{"android":"levelo://app?vid=fd0ffa9c-b1e2-4c5e-821f-2048fa845957","ios":"levelo://app?vid=fd0ffa9c-b1e2-4c5e-821f-2048fa845957"},"vehicle_type_id":"4","last_reported":1748013014,"current_range_meters":3600,"station_id":"ce4bhdp2rcd13ifvqf20","pricing_plan_id":"cebpf4jnsgd1na2vs0mg"},{"bike_id":"90c667ab-28e0-43bd-a854-060ba0f89c0a","system_id":"levelo_inurba_marseille","lat":43.2558,"lon":5.3823,"is_reserved":false,"is_disabled":false,"rental_uris":{"android":"levelo://app?vid=90c667ab-28e0-43bd-a854-060ba0f89c0a","ios":"levelo://app?vid=90c667ab-28e0-43bd-a854-060ba0f89c0a"},"vehicle_type_id":"4","last_reported":1748013014,"current_range_meters":3600,"station_id":"ce4bhih2rcd13ifvqfs0","pricing_plan_id":"cebpf4jnsgd1na2vs0mg"},{"bike_id":"3fe3d6c4-138a-47df-b6b4-e6f19e8f7d46","system_id":"levelo_inurba_marseille","lat":43.21404,"lon":5.34125,"is_reserved":false,"is_disabled":false,"rental_uris":{"android":"levelo://app?vid=3fe3d6c4-138a-47df-b6b4-e6f19e8f7d46","ios":"levelo://app?vid=3fe3d6c4-138a-47df-b6b4-e6f19e8f7d46"},"vehicle_type_id":"4","last_reported":1748013014,"current_range_meters":4000,"station_id":"","pricing_plan_id":"cebpf4jnsgd1na2vs0mg"},{"bike_id":"0b8c5c0c-fdf0-4cbc-b86a-04fc6bba9a2d","system_id":"levelo_inurba_marseille","lat":43.32096,"lon":5.3677,"is_reserved":false,"is_disabled":false,"rental_uris":{"android":"levelo://app?vid=0b8c5c0c-fdf0-4cbc-b86a-04fc6bba9a2d","ios":"levelo://app?vid=0b8c5c0c-fdf0-4cbc-b86a-04fc6bba9a2d"},"vehicle_type_id":"4","last_reported":1748013014,"current_range_meters":4000,"station_id":"ce4bhrh2rcd13ifvqhug","pricing_plan_id":"cebpf4jnsgd1na2vs0mg"},{"bike_id":"a322dcd1-3c13-4d6f-8ebd-fc99b3b27444","system_id":"levelo_inurba_marseille","lat":43.26545,"lon":5.40323,"is_reserved":false,"is_disabled":false,"rental_uris":{"android":"levelo://app?vid=a322dcd1-3c13-4d6f-8ebd-fc99b3b27444","ios":"levelo://app?vid=a322dcd1-3c13-4d6f-8ebd-fc99b3b27444"},"vehicle_type_id":"4","last_reported":1748013014,"current_range_meters":4400,"station_id":"","pricing_plan_id":"cebpf4jnsgd1na2vs0mg"},{"bike_id":"22b0ff3f-f254-4eca-8a85-d7ac627e8fb1","system_id":"levelo_inurba_marseille","lat":43.2706,"lon":5.40266,"is_reserved":false,"is_disabled":false,"rental_uris":{"android":"levelo://app?vid=22b0ff3f-f254-4eca-8a85-d7ac627e8fb1","ios":"levelo://app?vid=22b0ff3f-f254-4eca-8a85-d7ac627e8fb1"},"vehicle_type_id":"4","last_reported":1748013014,"current_range_meters":4400,"station_id":"ce4bhk92rcd13ifvqgc0","pricing_plan_id":"cebpf4jnsgd1na2vs0mg"},{"bike_id":"ad4d8099-03a6-43ca-966f-189fb83ff678","system_id":"levelo_inurba_marseille","lat":43.312685,"lon":5.37395,"is_reserved":false,"is_disabled":false,"rental_uris":{"android":"levelo://app?vid=ad4d8099-03a6-43ca-966f-189fb83ff678","ios":"levelo://app?vid=ad4d8099-03a6-43ca-966f-189fb83ff678"},"vehicle_type_id":"4","last_reported":1748013014,"current_range_meters":4800,"station_id":"","pricing_plan_id":"cebpf4jnsgd1na2vs0mg"},{"bike_id":"f9fb40c0-1fcd-48cb-8e26-3f2dc0fb2451","system_id":"levelo_inurba_marseille","lat":43.33751,"lon":5.37509,"is_reserved":false,"is_disabled":false,"rental_uris":{"android":"levelo://app?vid=f9fb40c0-1fcd-48cb-8e26-3f2dc0fb2451","ios":"levelo://app?vid=f9fb40c0-1fcd-48cb-8e26-3f2dc0fb2451"},"vehicle_type_id":"4","last_reported":1748013014,"current_range_meters":4800,"station_id":"","pricing_plan_id":"cebpf4jnsgd1na2vs0mg"},{"bike_id":"3c4785be-3edf-45de-944a-b52cf8ebdfc2","system_id":"levelo_inurba_marseille","lat":43.30545,"lon":5.36517,"is_reserved":false,"is_disabled":false,"rental_uris":{"android":"levelo://app?vid=3c4785be-3edf-45de-944a-b52cf8ebdfc2","ios":"levelo://app?vid=3c4785be-3edf-45de-944a-b52cf8ebdfc2"},"vehicle_type_id":"4","last_reported":1748013014,"current_range_meters":4800,"station_id":"ce4bgs12rcd13ifvqcag","pricing_plan_id":"cebpf4jnsgd1na2vs0mg"},{"bike_id":"d843aeca-c239-41c8-a7f5-a4054814d595","system_id":"levelo_inurba_marseille","lat":43.30543,"lon":5.3653,"is_reserved":false,"is_disabled":false,"rental_uris":{"android":"levelo://app?vid=d843aeca-c239-41c8-a7f5-a4054814d595","ios":"levelo://app?vid=d843aeca-c239-41c8-a7f5-a4054814d595"},"vehicle_type_id":"4","last_reported":1748013014,"current_range_meters":4800,"station_id":"ce4bgs12rcd13ifvqcag","pricing_plan_id":"cebpf4jnsgd1na2vs0mg"},{"bike_id":"c02a253d-47f6-4f81-8fda-402b8ff42145","system_id":"levelo_inurba_marseille","lat":43.30094,"lon":5.39078,"is_reserved":false,"is_disabled":false,"rental_uris":{"android":"levelo://app?vid=c02a253d-47f6-4f81-8fda-402b8ff42145","ios":"levelo://app?vid=c02a253d-47f6-4f81-8fda-402b8ff42145"},"vehicle_type_id":"4","last_reported":1748013014,"current_range_meters":4800,"station_id":"ce4bh192rcd13ifvqdb0","pricing_plan_id":"cebpf4jnsgd1na2vs0mg"},{"bike_id":"8d3e35d8-0655-4f06-840f-ed46c5d4e729","system_id":"levelo_inurba_marseille","lat":43.29204,"lon":5.3932,"is_reserved":false,"is_disabled":false,"rental_uris":{"android":"levelo://app?vid=8d3e35d8-0655-4f06-840f-ed46c5d4e729","ios":"levelo://app?vid=8d3e35d8-0655-4f06-840f-ed46c5d4e729"},"vehicle_type_id":"4","last_reported":1748013014,"current_range_meters":4800,"station_id":"ce4bh192rcd13ifvqdd0","pricing_plan_id":"cebpf4jnsgd1na2vs0mg"},{"bike_id":"bc6ae244-3bca-46d5-8359-8094b0277461","system_id":"levelo_inurba_marseille","lat":43.28342,"lon":5.38112,"is_reserved":false,"is_disabled":false,"rental_uris":{"android":"levelo://app?vid=bc6ae244-3bca-46d5-8359-8094b0277461","ios":"levelo://app?vid=bc6ae244-3bca-46d5-8359-8094b0277461"},"vehicle_type_id":"4","last_reported":1748013014,"current_range_meters":4800,"station_id":"ce4bh412rcd13ifvqdr0","pricing_plan_id":"cebpf4jnsgd1na2vs0mg"},{"bike_id":"59f10329-c5ed-4b9e-9c35-ad3f68156a4a","system_id":"levelo_inurba_marseille","lat":43.24806,"lon":5.37456,"is_reserved":false,"is_disabled":false,"rental_uris":{"android":"levelo://app?vid=59f10329-c5ed-4b9e-9c35-ad3f68156a4a","ios":"levelo://app?vid=59f10329-c5ed-4b9e-9c35-ad3f68156a4a"},"vehicle_type_id":"4","last_reported":1748013014,"current_range_meters":4800,"station_id":"ce4bhgh2rcd13ifvqfb0","pricing_plan_id":"cebpf4jnsgd1na2vs0mg"},{"bike_id":"2e08963c-5213-4382-909a-c0dca78e56b7","system_id":"levelo_inurba_marseille","lat":43.27175,"lon":5.41,"is_reserved":false,"is_disabled":false,"rental_uris":{"android":"levelo://app?vid=2e08963c-5213-4382-909a-c0dca78e56b7","ios":"levelo://app?vid=2e08963c-5213-4382-909a-c0dca78e56b7"},"vehicle_type_id":"4","last_reported":1748013014,"current_range_meters":4800,"station_id":"ce4bhl12rcd13ifvqgf0","pricing_plan_id":"cebpf4jnsgd1na2vs0mg"},{"bike_id":"48800ab2-b831-424f-be8f-9c9ac89057c8","system_id":"levelo_inurba_marseille","lat":43.27965,"lon":5.41583,"is_reserved":false,"is_disabled":false,"rental_uris":{"android":"levelo://app?vid=48800ab2-b831-424f-be8f-9c9ac89057c8","ios":"levelo://app?vid=48800ab2-b831-424f-be8f-9c9ac89057c8"},"vehicle_type_id":"4","last_reported":1748013014,"current_range_meters":4800,"station_id":"ce4bho12rcd13ifvqh1g","pricing_plan_id":"cebpf4jnsgd1na2vs0mg"},{"bike_id":"85537cc8-1f9e-491d-8aee-3d0b329e7164","system_id":"levelo_inurba_marseille","lat":43.24161,"lon":5.36415,"is_reserved":false,"is_disabled":false,"rental_uris":{"android":"levelo://app?vid=85537cc8-1f9e-491d-8aee-3d0b329e7164","ios":"levelo://app?vid=85537cc8-1f9e-491d-8aee-3d0b329e7164"},"vehicle_type_id":"4","last_reported":1748013014,"current_range_meters":4800,"station_id":"cpo36qri1sfpv3e86is0","pricing_plan_id":"cebpf4jnsgd1na2vs0mg"},{"bike_id":"cd2b9d97-3676-4c83-8e3b-aa4857457d9a","system_id":"levelo_inurba_marseille","lat":43.31498,"lon":5.37037,"is_reserved":false,"is_disabled":false,"rental_uris":{"android":"levelo://app?vid=cd2b9d97-3676-4c83-8e3b-aa4857457d9a","ios":"levelo://app?vid=cd2b9d97-3676-4c83-8e3b-aa4857457d9a"},"vehicle_type_id":"4","last_reported":1748013014,"current_range_meters":5600,"station_id":"","pricing_plan_id":"cebpf4jnsgd1na2vs0mg"},{"bike_id":"80842943-5dcf-4644-a6ed-377466c13a1d","system_id":"levelo_inurba_marseille","lat":43.29309,"lon":5.37168,"is_reserved":false,"is_disabled":false,"rental_uris":{"android":"levelo://app?vid=80842943-5dcf-4644-a6ed-377466c13a1d","ios":"levelo://app?vid=80842943-5dcf-4644-a6ed-377466c13a1d"},"vehicle_type_id":"4","last_reported":1748013014,"current_range_meters":5600,"station_id":"ce4bgh92rcd13ifvqb40","pricing_plan_id":"cebpf4jnsgd1na2vs0mg"},{"bike_id":"cdd5a31c-d9f9-4c7b-9346-bfc7c02b6735","system_id":"levelo_inurba_marseille","lat":43.30122,"lon":5.39908,"is_reserved":false,"is_disabled":false,"rental_uris":{"android":"levelo://app?vid=cdd5a31c-d9f9-4c7b-9346-bfc7c02b6735","ios":"levelo://app?vid=cdd5a31c-d9f9-4c7b-9346-bfc7c02b6735"},"vehicle_type_id":"4","last_reported":1748013014,"current_range_meters":5600,"station_id":"ce4bh0h2rcd13ifvqd40","pricing_plan_id":"cebpf4jnsgd1na2vs0mg"},{"bike_id":"2c4fc065-bad1-4bcb-94f9-e969f6e218bb","system_id":"levelo_inurba_marseille","lat":43.23177,"lon":5.39986,"is_reserved":false,"is_disabled":false,"rental_uris":{"android":"levelo://app?vid=2c4fc065-bad1-4bcb-94f9-e969f6e218bb","ios":"levelo://app?vid=2c4fc065-bad1-4bcb-94f9-e969f6e218bb"},"vehicle_type_id":"4","last_reported":1748013014,"current_range_meters":5600,"station_id":"ce4bhn12rcd13ifvqgqg","pricing_plan_id":"cebpf4jnsgd1na2vs0mg"},{"bike_id":"ba2ed00e-b121-4fc7-956c-3d27969d13ac","system_id":"levelo_inurba_marseille","lat":43.26804,"lon":5.4027,"is_reserved":false,"is_disabled":false,"rental_uris":{"android":"levelo://app?vid=ba2ed00e-b121-4fc7-956c-3d27969d13ac","ios":"levelo://app?vid=ba2ed00e-b121-4fc7-956c-3d27969d13ac"},"vehicle_type_id":"4","last_reported":1748013014,"current_range_meters":5600,"station_id":"ce501612rcd8frsf0b60","pricing_plan_id":"cebpf4jnsgd1na2vs0mg"},{"bike_id":"753cdaa9-3bc1-4cc5-ada2-26be3e495045","system_id":"levelo_inurba_marseille","lat":43.24167,"lon":5.36394,"is_reserved":false,"is_disabled":false,"rental_uris":{"android":"levelo://app?vid=753cdaa9-3bc1-4cc5-ada2-26be3e495045","ios":"levelo://app?vid=753cdaa9-3bc1-4cc5-ada2-26be3e495045"},"vehicle_type_id":"4","last_reported":1748013014,"current_range_meters":5600,"station_id":"cpo36qri1sfpv3e86is0","pricing_plan_id":"cebpf4jnsgd1na2vs0mg"},{"bike_id":"27653dcd-dec9-4f13-b172-8968c20c1725","system_id":"levelo_inurba_marseille","lat":43.238564,"lon":5.430993,"is_reserved":false,"is_disabled":false,"rental_uris":{"android":"levelo://app?vid=27653dcd-dec9-4f13-b172-8968c20c1725","ios":"levelo://app?vid=27653dcd-dec9-4f13-b172-8968c20c1725"},"vehicle_type_id":"4","last_reported":1748013014,"current_range_meters":6000,"station_id":"","pricing_plan_id":"cebpf4jnsgd1na2vs0mg"},{"bike_id":"ede11b82-c647-494c-b7de-ea76113354db","system_id":"levelo_inurba_marseille","lat":43.28565,"lon":5.39495,"is_reserved":false,"is_disabled":false,"rental_uris":{"android":"levelo://app?vid=ede11b82-c647-494c-b7de-ea76113354db","ios":"levelo://app?vid=ede11b82-c647-494c-b7de-ea76113354db"},"vehicle_type_id":"4","last_reported":1748013014,"current_range_meters":6000,"station_id":"ce4bh292rcd13ifvqdg0","pricing_plan_id":"cebpf4jnsgd1na2vs0mg"},{"bike_id":"3381e0ec-d1dc-402b-a483-7c07872cbdf4","system_id":"levelo_inurba_marseille","lat":43.267754,"lon":5.394147,"is_reserved":false,"is_disabled":false,"rental_uris":{"android":"levelo://app?vid=3381e0ec-d1dc-402b-a483-7c07872cbdf4","ios":"levelo://app?vid=3381e0ec-d1dc-402b-a483-7c07872cbdf4"},"vehicle_type_id":"4","last_reported":1748013014,"current_range_meters":6000,"station_id":"ce4bhh12rcd13ifvqfg0","pricing_plan_id":"cebpf4jnsgd1na2vs0mg"},{"bike_id":"2beacbd4-9ba8-4aa5-99c8-d3c30bd9fb89","system_id":"levelo_inurba_marseille","lat":43.28009,"lon":5.40043,"is_reserved":false,"is_disabled":false,"rental_uris":{"android":"levelo://app?vid=2beacbd4-9ba8-4aa5-99c8-d3c30bd9fb89","ios":"levelo://app?vid=2beacbd4-9ba8-4aa5-99c8-d3c30bd9fb89"},"vehicle_type_id":"4","last_reported":1748013014,"current_range_meters":6000,"station_id":"ce4bho92rcd13ifvqh4g","pricing_plan_id":"cebpf4jnsgd1na2vs0mg"},{"bike_id":"7363e93b-ebdd-4a5f-9b19-959ff6fd921f","system_id":"levelo_inurba_marseille","lat":43.31724,"lon":5.37284,"is_reserved":false,"is_disabled":false,"rental_uris":{"android":"levelo://app?vid=7363e93b-ebdd-4a5f-9b19-959ff6fd921f","ios":"levelo://app?vid=7363e93b-ebdd-4a5f-9b19-959ff6fd921f"},"vehicle_type_id":"4","last_reported":1748013014,"current_range_meters":6400,"station_id":"","pricing_plan_id":"cebpf4jnsgd1na2vs0mg"},{"bike_id":"13e4f602-d3ec-43db-b118-5500ba583434","system_id":"levelo_inurba_marseille","lat":43.28972,"lon":5.37829,"is_reserved":false,"is_disabled":false,"rental_uris":{"android":"levelo://app?vid=13e4f602-d3ec-43db-b118-5500ba583434","ios":"levelo://app?vid=13e4f602-d3ec-43db-b118-5500ba583434"},"vehicle_type_id":"4","last_reported":1748013014,"current_range_meters":6400,"station_id":"ce4bh9p2rcd13ifvqed0","pricing_plan_id":"cebpf4jnsgd1na2vs0mg"},{"bike_id":"f8ddd1fd-9e36-4b98-85bc-ce5f06c82ebd","system_id":"levelo_inurba_marseille","lat":43.283733,"lon":5.38639,"is_reserved":false,"is_disabled":false,"rental_uris":{"android":"levelo://app?vid=f8ddd1fd-9e36-4b98-85bc-ce5f06c82ebd","ios":"levelo://app?vid=f8ddd1fd-9e36-4b98-85bc-ce5f06c82ebd"},"vehicle_type_id":"4","last_reported":1748013014,"current_range_meters":6400,"station_id":"ce4bhap2rcd13ifvqek0","pricing_plan_id":"cebpf4jnsgd1na2vs0mg"},{"bike_id":"0a5f9cb4-da6c-406b-a161-0c772196d854","system_id":"levelo_inurba_marseille","lat":43.27205,"lon":5.39185,"is_reserved":false,"is_disabled":false,"rental_uris":{"android":"levelo://app?vid=0a5f9cb4-da6c-406b-a161-0c772196d854","ios":"levelo://app?vid=0a5f9cb4-da6c-406b-a161-0c772196d854"},"vehicle_type_id":"4","last_reported":1748013014,"current_range_meters":6400,"station_id":"ce4bhhp2rcd13ifvqfm0","pricing_plan_id":"cebpf4jnsgd1na2vs0mg"},{"bike_id":"5754523d-15a4-4297-b33a-3586b262bed2","system_id":"levelo_inurba_marseille","lat":43.30853,"lon":5.37185,"is_reserved":false,"is_disabled":false,"rental_uris":{"android":"levelo://app?vid=5754523d-15a4-4297-b33a-3586b262bed2","ios":"levelo://app?vid=5754523d-15a4-4297-b33a-3586b262bed2"},"vehicle_type_id":"4","last_reported":1748013014,"current_range_meters":6800,"station_id":"","pricing_plan_id":"cebpf4jnsgd1na2vs0mg"},{"bike_id":"31110881-d64f-45f8-9810-bbf84a002836","system_id":"levelo_inurba_marseille","lat":43.28327,"lon":5.46164,"is_reserved":false,"is_disabled":false,"rental_uris":{"android":"levelo://app?vid=31110881-d64f-45f8-9810-bbf84a002836","ios":"levelo://app?vid=31110881-d64f-45f8-9810-bbf84a002836"},"vehicle_type_id":"4","last_reported":1748013014,"current_range_meters":6800,"station_id":"","pricing_plan_id":"cebpf4jnsgd1na2vs0mg"},{"bike_id":"5457838b-2871-48c7-8baf-661e32fadaa8","system_id":"levelo_inurba_marseille","lat":43.295797,"lon":5.375064,"is_reserved":false,"is_disabled":false,"rental_uris":{"android":"levelo://app?vid=5457838b-2871-48c7-8baf-661e32fadaa8","ios":"levelo://app?vid=5457838b-2871-48c7-8baf-661e32fadaa8"},"vehicle_type_id":"4","last_reported":1748013014,"current_range_meters":6800,"station_id":"ce4bgh92rcd13ifvqb50","pricing_plan_id":"cebpf4jnsgd1na2vs0mg"},{"bike_id":"d65fd23c-c548-4e42-b692-9cdaefb9a37a","system_id":"levelo_inurba_marseille","lat":43.284636,"lon":5.358883,"is_reserved":false,"is_disabled":false,"rental_uris":{"android":"levelo://app?vid=d65fd23c-c548-4e42-b692-9cdaefb9a37a","ios":"levelo://app?vid=d65fd23c-c548-4e42-b692-9cdaefb9a37a"},"vehicle_type_id":"4","last_reported":1748013014,"current_range_meters":6800,"station_id":"ce4bhah2rcd13ifvqei0","pricing_plan_id":"cebpf4jnsgd1na2vs0mg"},{"bike_id":"67c8eedf-239b-4ccf-a198-acf094b120ac","system_id":"levelo_inurba_marseille","lat":43.24996,"lon":5.38933,"is_reserved":false,"is_disabled":false,"rental_uris":{"android":"levelo://app?vid=67c8eedf-239b-4ccf-a198-acf094b120ac","ios":"levelo://app?vid=67c8eedf-239b-4ccf-a198-acf094b120ac"},"vehicle_type_id":"4","last_reported":1748013014,"current_range_meters":6800,"station_id":"ce4bhgp2rcd13ifvqfd0","pricing_plan_id":"cebpf4jnsgd1na2vs0mg"},{"bike_id":"a0cde3a7-50a2-44c7-a70d-38c4d6cba42c","system_id":"levelo_inurba_marseille","lat":43.2781,"lon":5.4071,"is_reserved":false,"is_disabled":false,"rental_uris":{"android":"levelo://app?vid=a0cde3a7-50a2-44c7-a70d-38c4d6cba42c","ios":"levelo://app?vid=a0cde3a7-50a2-44c7-a70d-38c4d6cba42c"},"vehicle_type_id":"4","last_reported":1748013014,"current_range_meters":6800,"station_id":"ce4bhnh2rcd13ifvqgtg","pricing_plan_id":"cebpf4jnsgd1na2vs0mg"},{"bike_id":"93a344e6-8243-4070-bf43-270634e364fe","system_id":"levelo_inurba_marseille","lat":43.279975,"lon":5.400113,"is_reserved":false,"is_disabled":false,"rental_uris":{"android":"levelo://app?vid=93a344e6-8243-4070-bf43-270634e364fe","ios":"levelo://app?vid=93a344e6-8243-4070-bf43-270634e364fe"},"vehicle_type_id":"4","last_reported":1748013014,"current_range_meters":6800,"station_id":"ce4bho92rcd13ifvqh4g","pricing_plan_id":"cebpf4jnsgd1na2vs0mg"},{"bike_id":"895fec85-4848-4820-b938-243da6ee2367","system_id":"levelo_inurba_marseille","lat":43.304598,"lon":5.379112,"is_reserved":false,"is_disabled":false,"rental_uris":{"android":"levelo://app?vid=895fec85-4848-4820-b938-243da6ee2367","ios":"levelo://app?vid=895fec85-4848-4820-b938-243da6ee2367"},"vehicle_type_id":"4","last_reported":1748013014,"current_range_meters":6800,"station_id":"ce4bhs12rcd13ifvqhvg","pricing_plan_id":"cebpf4jnsgd1na2vs0mg"},{"bike_id":"d256c6a4-d35b-4c32-b7db-2bac8ab63b70","system_id":"levelo_inurba_marseille","lat":43.23191,"lon":5.35552,"is_reserved":false,"is_disabled":false,"rental_uris":{"android":"levelo://app?vid=d256c6a4-d35b-4c32-b7db-2bac8ab63b70","ios":"levelo://app?vid=d256c6a4-d35b-4c32-b7db-2bac8ab63b70"},"vehicle_type_id":"4","last_reported":1748013014,"current_range_meters":6800,"station_id":"ce4bhu92rcd13ifvqi70","pricing_plan_id":"cebpf4jnsgd1na2vs0mg"},{"bike_id":"950cad50-4e47-43b4-ba8e-d97ac6386634","system_id":"levelo_inurba_marseille","lat":43.255774,"lon":5.382209,"is_reserved":false,"is_disabled":false,"rental_uris":{"android":"levelo://app?vid=950cad50-4e47-43b4-ba8e-d97ac6386634","ios":"levelo://app?vid=950cad50-4e47-43b4-ba8e-d97ac6386634"},"vehicle_type_id":"4","last_reported":1748013014,"current_range_meters":7200,"station_id":"","pricing_plan_id":"cebpf4jnsgd1na2vs0mg"},{"bike_id":"409bb449-f970-4173-870d-d9a198797495","system_id":"levelo_inurba_marseille","lat":43.30899,"lon":5.36843,"is_reserved":false,"is_disabled":false,"rental_uris":{"android":"levelo://app?vid=409bb449-f970-4173-870d-d9a198797495","ios":"levelo://app?vid=409bb449-f970-4173-870d-d9a198797495"},"vehicle_type_id":"4","last_reported":1748013014,"current_range_meters":7200,"station_id":"ce4bgn92rcd13ifvqbvg","pricing_plan_id":"cebpf4jnsgd1na2vs0mg"},{"bike_id":"aadc0102-3df5-455b-84ea-cfe7438c4386","system_id":"levelo_inurba_marseille","lat":43.308,"lon":5.38165,"is_reserved":false,"is_disabled":false,"rental_uris":{"android":"levelo://app?vid=aadc0102-3df5-455b-84ea-cfe7438c4386","ios":"levelo://app?vid=aadc0102-3df5-455b-84ea-cfe7438c4386"},"vehicle_type_id":"4","last_reported":1748013014,"current_range_meters":7200,"station_id":"ce4bgt12rcd13ifvqce0","pricing_plan_id":"cebpf4jnsgd1na2vs0mg"},{"bike_id":"2ca7a36d-f94a-4a75-8083-db0f9063bb08","system_id":"levelo_inurba_marseille","lat":43.251,"lon":5.39534,"is_reserved":false,"is_disabled":false,"rental_uris":{"android":"levelo://app?vid=2ca7a36d-f94a-4a75-8083-db0f9063bb08","ios":"levelo://app?vid=2ca7a36d-f94a-4a75-8083-db0f9063bb08"},"vehicle_type_id":"4","last_reported":1748013014,"current_range_meters":7200,"station_id":"ce4bhm12rcd13ifvqgkg","pricing_plan_id":"cebpf4jnsgd1na2vs0mg"},{"bike_id":"e8c9c08f-e38f-48c2-9e9b-2383dddb8e6c","system_id":"levelo_inurba_marseille","lat":43.291261,"lon":5.382963,"is_reserved":false,"is_disabled":false,"rental_uris":{"android":"levelo://app?vid=e8c9c08f-e38f-48c2-9e9b-2383dddb8e6c","ios":"levelo://app?vid=e8c9c08f-e38f-48c2-9e9b-2383dddb8e6c"},"vehicle_type_id":"4","last_reported":1748013014,"current_range_meters":8000,"station_id":"","pricing_plan_id":"cebpf4jnsgd1na2vs0mg"},{"bike_id":"30d49d23-f08a-4506-b918-c39e5ce750b9","system_id":"levelo_inurba_marseille","lat":43.267334,"lon":5.402844,"is_reserved":false,"is_disabled":false,"rental_uris":{"android":"levelo://app?vid=30d49d23-f08a-4506-b918-c39e5ce750b9","ios":"levelo://app?vid=30d49d23-f08a-4506-b918-c39e5ce750b9"},"vehicle_type_id":"4","last_reported":1748013014,"current_range_meters":8000,"station_id":"","pricing_plan_id":"cebpf4jnsgd1na2vs0mg"},{"bike_id":"7dfdfdc8-9c79-46b6-9a4b-924773b53f29","system_id":"levelo_inurba_marseille","lat":43.26898,"lon":5.39157,"is_reserved":false,"is_disabled":false,"rental_uris":{"android":"levelo://app?vid=7dfdfdc8-9c79-46b6-9a4b-924773b53f29","ios":"levelo://app?vid=7dfdfdc8-9c79-46b6-9a4b-924773b53f29"},"vehicle_type_id":"4","last_reported":1748013014,"current_range_meters":8000,"station_id":"","pricing_plan_id":"cebpf4jnsgd1na2vs0mg"},{"bike_id":"0f398e0e-bb20-439b-ae08-91dc046f1d54","system_id":"levelo_inurba_marseille","lat":43.29794,"lon":5.38096,"is_reserved":false,"is_disabled":false,"rental_uris":{"android":"levelo://app?vid=0f398e0e-bb20-439b-ae08-91dc046f1d54","ios":"levelo://app?vid=0f398e0e-bb20-439b-ae08-91dc046f1d54"},"vehicle_type_id":"4","last_reported":1748013014,"current_range_meters":8000,"station_id":"ce4bgip2rcd13ifvqbb0","pricing_plan_id":"cebpf4jnsgd1na2vs0mg"},{"bike_id":"fb184825-7545-4125-881c-db432628f545","system_id":"levelo_inurba_marseille","lat":43.293834,"lon":5.387209,"is_reserved":false,"is_disabled":false,"rental_uris":{"android":"levelo://app?vid=fb184825-7545-4125-881c-db432628f545","ios":"levelo://app?vid=fb184825-7545-4125-881c-db432628f545"},"vehicle_type_id":"4","last_reported":1748013014,"current_range_meters":8000,"station_id":"ce4bh2h2rcd13ifvqdh0","pricing_plan_id":"cebpf4jnsgd1na2vs0mg"},{"bike_id":"f971f413-d411-4cd4-bc18-bcc1d4892883","system_id":"levelo_inurba_marseille","lat":43.24994,"lon":5.38939,"is_reserved":false,"is_disabled":false,"rental_uris":{"android":"levelo://app?vid=f971f413-d411-4cd4-bc18-bcc1d4892883","ios":"levelo://app?vid=f971f413-d411-4cd4-bc18-bcc1d4892883"},"vehicle_type_id":"4","last_reported":1748013014,"current_range_meters":8000,"station_id":"ce4bhgp2rcd13ifvqfd0","pricing_plan_id":"cebpf4jnsgd1na2vs0mg"},{"bike_id":"465bfad6-881d-4b18-a954-f01adf651f92","system_id":"levelo_inurba_marseille","lat":43.26201,"lon":5.37936,"is_reserved":false,"is_disabled":false,"rental_uris":{"android":"levelo://app?vid=465bfad6-881d-4b18-a954-f01adf651f92","ios":"levelo://app?vid=465bfad6-881d-4b18-a954-f01adf651f92"},"vehicle_type_id":"4","last_reported":1748013014,"current_range_meters":8000,"station_id":"ce4bhjp2rcd13ifvqg90","pricing_plan_id":"cebpf4jnsgd1na2vs0mg"},{"bike_id":"9e80041f-72df-4074-9716-7020a24f8ea2","system_id":"levelo_inurba_marseille","lat":43.26205,"lon":5.379212,"is_reserved":false,"is_disabled":false,"rental_uris":{"android":"levelo://app?vid=9e80041f-72df-4074-9716-7020a24f8ea2","ios":"levelo://app?vid=9e80041f-72df-4074-9716-7020a24f8ea2"},"vehicle_type_id":"4","last_reported":1748013014,"current_range_meters":8000,"station_id":"ce4bhjp2rcd13ifvqg90","pricing_plan_id":"cebpf4jnsgd1na2vs0mg"},{"bike_id":"0b5ac608-76bb-4ac4-800a-6e2489e613a5","system_id":"levelo_inurba_marseille","lat":43.27174,"lon":5.40993,"is_reserved":false,"is_disabled":false,"rental_uris":{"android":"levelo://app?vid=0b5ac608-76bb-4ac4-800a-6e2489e613a5","ios":"levelo://app?vid=0b5ac608-76bb-4ac4-800a-6e2489e613a5"},"vehicle_type_id":"4","last_reported":1748013014,"current_range_meters":8000,"station_id":"ce4bhl12rcd13ifvqgf0","pricing_plan_id":"cebpf4jnsgd1na2vs0mg"},{"bike_id":"05f2b326-fb53-492f-8c36-68f3a95a4851","system_id":"levelo_inurba_marseille","lat":43.24546,"lon":5.39521,"is_reserved":false,"is_disabled":false,"rental_uris":{"android":"levelo://app?vid=05f2b326-fb53-492f-8c36-68f3a95a4851","ios":"levelo://app?vid=05f2b326-fb53-492f-8c36-68f3a95a4851"},"vehicle_type_id":"4","last_reported":1748013014,"current_range_meters":8000,"station_id":"ce4bhlp2rcd13ifvqgjg","pricing_plan_id":"cebpf4jnsgd1na2vs0mg"},{"bike_id":"06845a22-939f-484e-a130-8564ac8baaa1","system_id":"levelo_inurba_marseille","lat":43.286561,"lon":5.399354,"is_reserved":false,"is_disabled":false,"rental_uris":{"android":"levelo://app?vid=06845a22-939f-484e-a130-8564ac8baaa1","ios":"levelo://app?vid=06845a22-939f-484e-a130-8564ac8baaa1"},"vehicle_type_id":"4","last_reported":1748013014,"current_range_meters":8000,"station_id":"ce4bho92rcd13ifvqh3g","pricing_plan_id":"cebpf4jnsgd1na2vs0mg"},{"bike_id":"c9cd7eb1-6b24-41c9-9923-d954abb09000","system_id":"levelo_inurba_marseille","lat":43.31166,"lon":5.38722,"is_reserved":false,"is_disabled":false,"rental_uris":{"android":"levelo://app?vid=c9cd7eb1-6b24-41c9-9923-d954abb09000","ios":"levelo://app?vid=c9cd7eb1-6b24-41c9-9923-d954abb09000"},"vehicle_type_id":"4","last_reported":1748013014,"current_range_meters":8400,"station_id":"ce4bgv12rcd13ifvqcp0","pricing_plan_id":"cebpf4jnsgd1na2vs0mg"},{"bike_id":"dc4f3499-643b-4320-99bc-ef2c0c731aef","system_id":"levelo_inurba_marseille","lat":43.27312,"lon":5.39089,"is_reserved":false,"is_disabled":false,"rental_uris":{"android":"levelo://app?vid=dc4f3499-643b-4320-99bc-ef2c0c731aef","ios":"levelo://app?vid=dc4f3499-643b-4320-99bc-ef2c0c731aef"},"vehicle_type_id":"4","last_reported":1748013014,"current_range_meters":8400,"station_id":"ce4bhgp2rcd13ifvqfe0","pricing_plan_id":"cebpf4jnsgd1na2vs0mg"},{"bike_id":"f54aa60c-88e2-4878-b735-0e5293e904ab","system_id":"levelo_inurba_marseille","lat":43.32357,"lon":5.40643,"is_reserved":false,"is_disabled":false,"rental_uris":{"android":"levelo://app?vid=f54aa60c-88e2-4878-b735-0e5293e904ab","ios":"levelo://app?vid=f54aa60c-88e2-4878-b735-0e5293e904ab"},"vehicle_type_id":"4","last_reported":1748013014,"current_range_meters":8400,"station_id":"ce4bhq92rcd13ifvqhjg","pricing_plan_id":"cebpf4jnsgd1na2vs0mg"},{"bike_id":"c2ea5a9c-8fd7-40ac-8515-427466010d70","system_id":"levelo_inurba_marseille","lat":43.3212,"lon":5.3676,"is_reserved":false,"is_disabled":false,"rental_uris":{"android":"levelo://app?vid=c2ea5a9c-8fd7-40ac-8515-427466010d70","ios":"levelo://app?vid=c2ea5a9c-8fd7-40ac-8515-427466010d70"},"vehicle_type_id":"4","last_reported":1748013014,"current_range_meters":8400,"station_id":"ce4bhrh2rcd13ifvqhug","pricing_plan_id":"cebpf4jnsgd1na2vs0mg"},{"bike_id":"14feda73-7baf-4b64-8ae9-79f4fe7d4a5f","system_id":"levelo_inurba_marseille","lat":43.323724,"lon":5.367613,"is_reserved":false,"is_disabled":false,"rental_uris":{"android":"levelo://app?vid=14feda73-7baf-4b64-8ae9-79f4fe7d4a5f","ios":"levelo://app?vid=14feda73-7baf-4b64-8ae9-79f4fe7d4a5f"},"vehicle_type_id":"4","last_reported":1748013014,"current_range_meters":8400,"station_id":"ce4bhsh2rcd13ifvqi2g","pricing_plan_id":"cebpf4jnsgd1na2vs0mg"},{"bike_id":"780d44ea-9dfa-4892-93ef-998d12415c0d","system_id":"levelo_inurba_marseille","lat":43.26933,"lon":5.40266,"is_reserved":false,"is_disabled":false,"rental_uris":{"android":"levelo://app?vid=780d44ea-9dfa-4892-93ef-998d12415c0d","ios":"levelo://app?vid=780d44ea-9dfa-4892-93ef-998d12415c0d"},"vehicle_type_id":"4","last_reported":1748013014,"current_range_meters":8400,"station_id":"cjm6bp8fraef2m0cb0m0","pricing_plan_id":"cebpf4jnsgd1na2vs0mg"},{"bike_id":"9a0a5324-ab32-4a83-926b-c1d016ce8a78","system_id":"levelo_inurba_marseille","lat":43.30298,"lon":5.36907,"is_reserved":false,"is_disabled":false,"rental_uris":{"android":"levelo://app?vid=9a0a5324-ab32-4a83-926b-c1d016ce8a78","ios":"levelo://app?vid=9a0a5324-ab32-4a83-926b-c1d016ce8a78"},"vehicle_type_id":"4","last_reported":1748013014,"current_range_meters":8800,"station_id":"ce4bgqh2rcd13ifvqc5g","pricing_plan_id":"cebpf4jnsgd1na2vs0mg"},{"bike_id":"584fdcbd-4a28-4c96-a2c3-e69cb1cfb63b","system_id":"levelo_inurba_marseille","lat":43.30334,"lon":5.36893,"is_reserved":false,"is_disabled":false,"rental_uris":{"android":"levelo://app?vid=584fdcbd-4a28-4c96-a2c3-e69cb1cfb63b","ios":"levelo://app?vid=584fdcbd-4a28-4c96-a2c3-e69cb1cfb63b"},"vehicle_type_id":"4","last_reported":1748013014,"current_range_meters":8800,"station_id":"ce4bgqh2rcd13ifvqc5g","pricing_plan_id":"cebpf4jnsgd1na2vs0mg"},{"bike_id":"23bf4107-03bb-4d80-a9d8-fb385ff1e9bd","system_id":"levelo_inurba_marseille","lat":43.304596,"lon":5.379073,"is_reserved":false,"is_disabled":false,"rental_uris":{"android":"levelo://app?vid=23bf4107-03bb-4d80-a9d8-fb385ff1e9bd","ios":"levelo://app?vid=23bf4107-03bb-4d80-a9d8-fb385ff1e9bd"},"vehicle_type_id":"4","last_reported":1748013014,"current_range_meters":8800,"station_id":"ce4bgup2rcd13ifvqcn0","pricing_plan_id":"cebpf4jnsgd1na2vs0mg"},{"bike_id":"38408e3a-ebc2-4c87-9f64-449a6d82f626","system_id":"levelo_inurba_marseille","lat":43.31176,"lon":5.38721,"is_reserved":false,"is_disabled":false,"rental_uris":{"android":"levelo://app?vid=38408e3a-ebc2-4c87-9f64-449a6d82f626","ios":"levelo://app?vid=38408e3a-ebc2-4c87-9f64-449a6d82f626"},"vehicle_type_id":"4","last_reported":1748013014,"current_range_meters":8800,"station_id":"ce4bgv12rcd13ifvqcp0","pricing_plan_id":"cebpf4jnsgd1na2vs0mg"},{"bike_id":"402ed904-db60-4c05-b539-9f6f8537f806","system_id":"levelo_inurba_marseille","lat":43.28419,"lon":5.34987,"is_reserved":false,"is_disabled":false,"rental_uris":{"android":"levelo://app?vid=402ed904-db60-4c05-b539-9f6f8537f806","ios":"levelo://app?vid=402ed904-db60-4c05-b539-9f6f8537f806"},"vehicle_type_id":"4","last_reported":1748013014,"current_range_meters":8800,"station_id":"ce4bhbh2rcd13ifvqepg","pricing_plan_id":"cebpf4jnsgd1na2vs0mg"},{"bike_id":"68bfc4cb-61ab-43c3-ab88-17645cafe6e7","system_id":"levelo_inurba_marseille","lat":43.31742,"lon":5.37595,"is_reserved":false,"is_disabled":false,"rental_uris":{"android":"levelo://app?vid=68bfc4cb-61ab-43c3-ab88-17645cafe6e7","ios":"levelo://app?vid=68bfc4cb-61ab-43c3-ab88-17645cafe6e7"},"vehicle_type_id":"4","last_reported":1748013014,"current_range_meters":9200,"station_id":"","pricing_plan_id":"cebpf4jnsgd1na2vs0mg"},{"bike_id":"84bf1ae0-ecd3-4235-a250-1420cce20a72","system_id":"levelo_inurba_marseille","lat":43.24646,"lon":5.3889,"is_reserved":false,"is_disabled":false,"rental_uris":{"android":"levelo://app?vid=84bf1ae0-ecd3-4235-a250-1420cce20a72","ios":"levelo://app?vid=84bf1ae0-ecd3-4235-a250-1420cce20a72"},"vehicle_type_id":"4","last_reported":1748013014,"current_range_meters":9200,"station_id":"ce4bhg12rcd13ifvqf60","pricing_plan_id":"cebpf4jnsgd1na2vs0mg"},{"bike_id":"ef4e10c1-a3cb-4a4d-a1c4-e3f822c92b75","system_id":"levelo_inurba_marseille","lat":43.28621,"lon":5.37069,"is_reserved":false,"is_disabled":false,"rental_uris":{"android":"levelo://app?vid=ef4e10c1-a3cb-4a4d-a1c4-e3f822c92b75","ios":"levelo://app?vid=ef4e10c1-a3cb-4a4d-a1c4-e3f822c92b75"},"vehicle_type_id":"4","last_reported":1748013014,"current_range_meters":9200,"station_id":"ce4bht12rcd13ifvqi60","pricing_plan_id":"cebpf4jnsgd1na2vs0mg"},{"bike_id":"2d5f7454-a4a6-4e8b-9495-8d6b94c61ba5","system_id":"levelo_inurba_marseille","lat":43.22934,"lon":5.35377,"is_reserved":false,"is_disabled":false,"rental_uris":{"android":"levelo://app?vid=2d5f7454-a4a6-4e8b-9495-8d6b94c61ba5","ios":"levelo://app?vid=2d5f7454-a4a6-4e8b-9495-8d6b94c61ba5"},"vehicle_type_id":"4","last_reported":1748013014,"current_range_meters":9200,"station_id":"cpo3532slgdg3j2ikp40","pricing_plan_id":"cebpf4jnsgd1na2vs0mg"},{"bike_id":"18ca849a-bab9-472d-80e2-f3856fcd9684","system_id":"levelo_inurba_marseille","lat":43.2396,"lon":5.36639,"is_reserved":false,"is_disabled":false,"rental_uris":{"android":"levelo://app?vid=18ca849a-bab9-472d-80e2-f3856fcd9684","ios":"levelo://app?vid=18ca849a-bab9-472d-80e2-f3856fcd9684"},"vehicle_type_id":"4","last_reported":1748013014,"current_range_meters":9600,"station_id":"ce4bhi12rcd13ifvqfp0","pricing_plan_id":"cebpf4jnsgd1na2vs0mg"},{"bike_id":"e3e19b90-9823-4b53-b8a7-4c599b3176c2","system_id":"levelo_inurba_marseille","lat":43.25101,"lon":5.40342,"is_reserved":false,"is_disabled":false,"rental_uris":{"android":"levelo://app?vid=e3e19b90-9823-4b53-b8a7-4c599b3176c2","ios":"levelo://app?vid=e3e19b90-9823-4b53-b8a7-4c599b3176c2"},"vehicle_type_id":"4","last_reported":1748013014,"current_range_meters":9600,"station_id":"ce4bhlh2rcd13ifvqgig","pricing_plan_id":"cebpf4jnsgd1na2vs0mg"},{"bike_id":"4b63e35c-d60f-40b7-a046-8ac2772fac2f","system_id":"levelo_inurba_marseille","lat":43.25086,"lon":5.39537,"is_reserved":false,"is_disabled":false,"rental_uris":{"android":"levelo://app?vid=4b63e35c-d60f-40b7-a046-8ac2772fac2f","ios":"levelo://app?vid=4b63e35c-d60f-40b7-a046-8ac2772fac2f"},"vehicle_type_id":"4","last_reported":1748013014,"current_range_meters":9600,"station_id":"ce4bhm12rcd13ifvqgkg","pricing_plan_id":"cebpf4jnsgd1na2vs0mg"},{"bike_id":"6abb9ab4-3976-4e3e-b994-f2f72ee02055","system_id":"levelo_inurba_marseille","lat":43.29977,"lon":5.36549,"is_reserved":false,"is_disabled":false,"rental_uris":{"android":"levelo://app?vid=6abb9ab4-3976-4e3e-b994-f2f72ee02055","ios":"levelo://app?vid=6abb9ab4-3976-4e3e-b994-f2f72ee02055"},"vehicle_type_id":"4","last_reported":1748013014,"current_range_meters":10000,"station_id":"","pricing_plan_id":"cebpf4jnsgd1na2vs0mg"},{"bike_id":"198a986d-0823-47aa-8869-3f4a886723c2","system_id":"levelo_inurba_marseille","lat":43.29708,"lon":5.36614,"is_reserved":false,"is_disabled":false,"rental_uris":{"android":"levelo://app?vid=198a986d-0823-47aa-8869-3f4a886723c2","ios":"levelo://app?vid=198a986d-0823-47aa-8869-3f4a886723c2"},"vehicle_type_id":"4","last_reported":1748013014,"current_range_meters":10000,"station_id":"ce4bgn12rcd13ifvqbt0","pricing_plan_id":"cebpf4jnsgd1na2vs0mg"},{"bike_id":"2bbc31a7-e650-472b-bbde-fad05e6ea6d6","system_id":"levelo_inurba_marseille","lat":43.29414,"lon":5.38625,"is_reserved":false,"is_disabled":false,"rental_uris":{"android":"levelo://app?vid=2bbc31a7-e650-472b-bbde-fad05e6ea6d6","ios":"levelo://app?vid=2bbc31a7-e650-472b-bbde-fad05e6ea6d6"},"vehicle_type_id":"4","last_reported":1748013014,"current_range_meters":10000,"station_id":"ce4bh2h2rcd13ifvqdh0","pricing_plan_id":"cebpf4jnsgd1na2vs0mg"},{"bike_id":"c1ac9fb7-70bc-4e3f-8629-20a7b41c63c4","system_id":"levelo_inurba_marseille","lat":43.27354,"lon":5.36224,"is_reserved":false,"is_disabled":false,"rental_uris":{"android":"levelo://app?vid=c1ac9fb7-70bc-4e3f-8629-20a7b41c63c4","ios":"levelo://app?vid=c1ac9fb7-70bc-4e3f-8629-20a7b41c63c4"},"vehicle_type_id":"4","last_reported":1748013014,"current_range_meters":10000,"station_id":"ce4bhbh2rcd13ifvqeo0","pricing_plan_id":"cebpf4jnsgd1na2vs0mg"},{"bike_id":"1f8f2cf8-e258-4b66-9b66-66da44b9c55c","system_id":"levelo_inurba_marseille","lat":43.30989,"lon":5.40222,"is_reserved":false,"is_disabled":false,"rental_uris":{"android":"levelo://app?vid=1f8f2cf8-e258-4b66-9b66-66da44b9c55c","ios":"levelo://app?vid=1f8f2cf8-e258-4b66-9b66-66da44b9c55c"},"vehicle_type_id":"4","last_reported":1748013014,"current_range_meters":10800,"station_id":"","pricing_plan_id":"cebpf4jnsgd1na2vs0mg"},{"bike_id":"1df8d42d-6dcc-4f18-a8fa-8c8a600a0fc9","system_id":"levelo_inurba_marseille","lat":43.28274,"lon":5.35073,"is_reserved":false,"is_disabled":false,"rental_uris":{"android":"levelo://app?vid=1df8d42d-6dcc-4f18-a8fa-8c8a600a0fc9","ios":"levelo://app?vid=1df8d42d-6dcc-4f18-a8fa-8c8a600a0fc9"},"vehicle_type_id":"4","last_reported":1748013014,"current_range_meters":10800,"station_id":"ce4bhbp2rcd13ifvqerg","pricing_plan_id":"cebpf4jnsgd1na2vs0mg"},{"bike_id":"627b58c0-6cf2-41ea-aa7e-adf47c8cf98f","system_id":"levelo_inurba_marseille","lat":43.25729,"lon":5.41109,"is_reserved":false,"is_disabled":false,"rental_uris":{"android":"levelo://app?vid=627b58c0-6cf2-41ea-aa7e-adf47c8cf98f","ios":"levelo://app?vid=627b58c0-6cf2-41ea-aa7e-adf47c8cf98f"},"vehicle_type_id":"4","last_reported":1748013014,"current_range_meters":10800,"station_id":"ce4bhkp2rcd13ifvqgd0","pricing_plan_id":"cebpf4jnsgd1na2vs0mg"},{"bike_id":"8e779e34-fa97-419b-9fd0-272ea9be9d2d","system_id":"levelo_inurba_marseille","lat":43.27175,"lon":5.40997,"is_reserved":false,"is_disabled":false,"rental_uris":{"android":"levelo://app?vid=8e779e34-fa97-419b-9fd0-272ea9be9d2d","ios":"levelo://app?vid=8e779e34-fa97-419b-9fd0-272ea9be9d2d"},"vehicle_type_id":"4","last_reported":1748013014,"current_range_meters":10800,"station_id":"ce4bhl12rcd13ifvqgf0","pricing_plan_id":"cebpf4jnsgd1na2vs0mg"},{"bike_id":"8001c173-93b6-4a53-97aa-177fbc32ca2a","system_id":"levelo_inurba_marseille","lat":43.33723,"lon":5.39183,"is_reserved":false,"is_disabled":false,"rental_uris":{"android":"levelo://app?vid=8001c173-93b6-4a53-97aa-177fbc32ca2a","ios":"levelo://app?vid=8001c173-93b6-4a53-97aa-177fbc32ca2a"},"vehicle_type_id":"4","last_reported":1748013014,"current_range_meters":10800,"station_id":"ce4bhr92rcd13ifvqhsg","pricing_plan_id":"cebpf4jnsgd1na2vs0mg"},{"bike_id":"0562b351-0b60-4279-bf89-edd7a5403448","system_id":"levelo_inurba_marseille","lat":43.29592,"lon":5.381,"is_reserved":false,"is_disabled":false,"rental_uris":{"android":"levelo://app?vid=0562b351-0b60-4279-bf89-edd7a5403448","ios":"levelo://app?vid=0562b351-0b60-4279-bf89-edd7a5403448"},"vehicle_type_id":"4","last_reported":1748013014,"current_range_meters":11200,"station_id":"ce4bgl12rcd13ifvqbo0","pricing_plan_id":"cebpf4jnsgd1na2vs0mg"},{"bike_id":"bbaa5508-352a-4362-b3e9-b359ede651de","system_id":"levelo_inurba_marseille","lat":43.303124,"lon":5.369049,"is_reserved":false,"is_disabled":false,"rental_uris":{"android":"levelo://app?vid=bbaa5508-352a-4362-b3e9-b359ede651de","ios":"levelo://app?vid=bbaa5508-352a-4362-b3e9-b359ede651de"},"vehicle_type_id":"4","last_reported":1748013014,"current_range_meters":11200,"station_id":"ce4bgqh2rcd13ifvqc5g","pricing_plan_id":"cebpf4jnsgd1na2vs0mg"},{"bike_id":"2a83a116-839b-470d-a314-10c6f390a9c6","system_id":"levelo_inurba_marseille","lat":43.25508,"lon":5.37672,"is_reserved":false,"is_disabled":false,"rental_uris":{"android":"levelo://app?vid=2a83a116-839b-470d-a314-10c6f390a9c6","ios":"levelo://app?vid=2a83a116-839b-470d-a314-10c6f390a9c6"},"vehicle_type_id":"4","last_reported":1748013014,"current_range_meters":11200,"station_id":"ce4bhh12rcd13ifvqff0","pricing_plan_id":"cebpf4jnsgd1na2vs0mg"},{"bike_id":"c62db757-8a05-4f94-bc99-78e9db95ca0a","system_id":"levelo_inurba_marseille","lat":43.27199,"lon":5.39166,"is_reserved":false,"is_disabled":false,"rental_uris":{"android":"levelo://app?vid=c62db757-8a05-4f94-bc99-78e9db95ca0a","ios":"levelo://app?vid=c62db757-8a05-4f94-bc99-78e9db95ca0a"},"vehicle_type_id":"4","last_reported":1748013014,"current_range_meters":11200,"station_id":"ce4bhhp2rcd13ifvqfm0","pricing_plan_id":"cebpf4jnsgd1na2vs0mg"},{"bike_id":"5336ba5f-3e2a-4279-ad2f-c49aaef340dd","system_id":"levelo_inurba_marseille","lat":43.27202,"lon":5.39168,"is_reserved":false,"is_disabled":false,"rental_uris":{"android":"levelo://app?vid=5336ba5f-3e2a-4279-ad2f-c49aaef340dd","ios":"levelo://app?vid=5336ba5f-3e2a-4279-ad2f-c49aaef340dd"},"vehicle_type_id":"4","last_reported":1748013014,"current_range_meters":11200,"station_id":"ce4bhhp2rcd13ifvqfm0","pricing_plan_id":"cebpf4jnsgd1na2vs0mg"},{"bike_id":"6dde22b3-be2c-4353-838d-05c85608e4d3","system_id":"levelo_inurba_marseille","lat":43.323626,"lon":5.367543,"is_reserved":false,"is_disabled":false,"rental_uris":{"android":"levelo://app?vid=6dde22b3-be2c-4353-838d-05c85608e4d3","ios":"levelo://app?vid=6dde22b3-be2c-4353-838d-05c85608e4d3"},"vehicle_type_id":"4","last_reported":1748013014,"current_range_meters":11200,"station_id":"ce4bhsh2rcd13ifvqi2g","pricing_plan_id":"cebpf4jnsgd1na2vs0mg"},{"bike_id":"d2f29ebd-1991-418e-8a4f-2fcfbba0200c","system_id":"levelo_inurba_marseille","lat":43.30818,"lon":5.36882,"is_reserved":false,"is_disabled":false,"rental_uris":{"android":"levelo://app?vid=d2f29ebd-1991-418e-8a4f-2fcfbba0200c","ios":"levelo://app?vid=d2f29ebd-1991-418e-8a4f-2fcfbba0200c"},"vehicle_type_id":"4","last_reported":1748013014,"current_range_meters":11600,"station_id":"","pricing_plan_id":"cebpf4jnsgd1na2vs0mg"},{"bike_id":"f19540e4-a503-4065-bf27-338af467f770","system_id":"levelo_inurba_marseille","lat":43.31061,"lon":5.38355,"is_reserved":false,"is_disabled":false,"rental_uris":{"android":"levelo://app?vid=f19540e4-a503-4065-bf27-338af467f770","ios":"levelo://app?vid=f19540e4-a503-4065-bf27-338af467f770"},"vehicle_type_id":"4","last_reported":1748013014,"current_range_meters":11600,"station_id":"ce4bgv92rcd13ifvqcr0","pricing_plan_id":"cebpf4jnsgd1na2vs0mg"},{"bike_id":"3741d7e0-f2d3-4324-8f60-8f4bfb372bfa","system_id":"levelo_inurba_marseille","lat":43.28281,"lon":5.35089,"is_reserved":false,"is_disabled":false,"rental_uris":{"android":"levelo://app?vid=3741d7e0-f2d3-4324-8f60-8f4bfb372bfa","ios":"levelo://app?vid=3741d7e0-f2d3-4324-8f60-8f4bfb372bfa"},"vehicle_type_id":"4","last_reported":1748013014,"current_range_meters":11600,"station_id":"ce4bhbp2rcd13ifvqerg","pricing_plan_id":"cebpf4jnsgd1na2vs0mg"},{"bike_id":"8fb3d020-e972-4c5a-8b3c-2532003681bf","system_id":"levelo_inurba_marseille","lat":43.2862,"lon":5.35109,"is_reserved":false,"is_disabled":false,"rental_uris":{"android":"levelo://app?vid=8fb3d020-e972-4c5a-8b3c-2532003681bf","ios":"levelo://app?vid=8fb3d020-e972-4c5a-8b3c-2532003681bf"},"vehicle_type_id":"4","last_reported":1748013014,"current_range_meters":11600,"station_id":"ce4bhch2rcd13ifvqeug","pricing_plan_id":"cebpf4jnsgd1na2vs0mg"},{"bike_id":"e2264334-0397-4bbd-8f8d-e26f1f5a17eb","system_id":"levelo_inurba_marseille","lat":43.28158,"lon":5.42644,"is_reserved":false,"is_disabled":false,"rental_uris":{"android":"levelo://app?vid=e2264334-0397-4bbd-8f8d-e26f1f5a17eb","ios":"levelo://app?vid=e2264334-0397-4bbd-8f8d-e26f1f5a17eb"},"vehicle_type_id":"4","last_reported":1748013014,"current_range_meters":11600,"station_id":"ce4bhnh2rcd13ifvqgug","pricing_plan_id":"cebpf4jnsgd1na2vs0mg"},{"bike_id":"b10acc13-4e30-4326-9a0c-2f5b30785370","system_id":"levelo_inurba_marseille","lat":43.280837,"lon":5.39662,"is_reserved":false,"is_disabled":false,"rental_uris":{"android":"levelo://app?vid=b10acc13-4e30-4326-9a0c-2f5b30785370","ios":"levelo://app?vid=b10acc13-4e30-4326-9a0c-2f5b30785370"},"vehicle_type_id":"4","last_reported":1748013014,"current_range_meters":11600,"station_id":"ce4bho12rcd13ifvqh2g","pricing_plan_id":"cebpf4jnsgd1na2vs0mg"},{"bike_id":"e37819ed-ebfb-4841-b970-f10ff6d4891f","system_id":"levelo_inurba_marseille","lat":43.321068,"lon":5.367728,"is_reserved":false,"is_disabled":false,"rental_uris":{"android":"levelo://app?vid=e37819ed-ebfb-4841-b970-f10ff6d4891f","ios":"levelo://app?vid=e37819ed-ebfb-4841-b970-f10ff6d4891f"},"vehicle_type_id":"4","last_reported":1748013014,"current_range_meters":11600,"station_id":"ce4bhrh2rcd13ifvqhug","pricing_plan_id":"cebpf4jnsgd1na2vs0mg"},{"bike_id":"1e164eaf-2ffb-4814-9442-b43f6b5c9f80","system_id":"levelo_inurba_marseille","lat":43.24151,"lon":5.36424,"is_reserved":false,"is_disabled":false,"rental_uris":{"android":"levelo://app?vid=1e164eaf-2ffb-4814-9442-b43f6b5c9f80","ios":"levelo://app?vid=1e164eaf-2ffb-4814-9442-b43f6b5c9f80"},"vehicle_type_id":"4","last_reported":1748013014,"current_range_meters":11600,"station_id":"cpo36qri1sfpv3e86is0","pricing_plan_id":"cebpf4jnsgd1na2vs0mg"},{"bike_id":"2f20db23-756b-4239-b62a-cee2b2ad9484","system_id":"levelo_inurba_marseille","lat":43.30787,"lon":5.37645,"is_reserved":false,"is_disabled":false,"rental_uris":{"android":"levelo://app?vid=2f20db23-756b-4239-b62a-cee2b2ad9484","ios":"levelo://app?vid=2f20db23-756b-4239-b62a-cee2b2ad9484"},"vehicle_type_id":"4","last_reported":1748013014,"current_range_meters":12000,"station_id":"ce4bgv92rcd13ifvqcq0","pricing_plan_id":"cebpf4jnsgd1na2vs0mg"},{"bike_id":"868cbb19-a526-4d52-82d0-ae920123d8a9","system_id":"levelo_inurba_marseille","lat":43.28412,"lon":5.34992,"is_reserved":false,"is_disabled":false,"rental_uris":{"android":"levelo://app?vid=868cbb19-a526-4d52-82d0-ae920123d8a9","ios":"levelo://app?vid=868cbb19-a526-4d52-82d0-ae920123d8a9"},"vehicle_type_id":"4","last_reported":1748013014,"current_range_meters":12000,"station_id":"ce4bhbh2rcd13ifvqepg","pricing_plan_id":"cebpf4jnsgd1na2vs0mg"},{"bike_id":"6ccd95da-1cc6-4157-bce9-bf8faefeead4","system_id":"levelo_inurba_marseille","lat":43.28424,"lon":5.34958,"is_reserved":false,"is_disabled":false,"rental_uris":{"android":"levelo://app?vid=6ccd95da-1cc6-4157-bce9-bf8faefeead4","ios":"levelo://app?vid=6ccd95da-1cc6-4157-bce9-bf8faefeead4"},"vehicle_type_id":"4","last_reported":1748013014,"current_range_meters":12000,"station_id":"ce4bhbh2rcd13ifvqepg","pricing_plan_id":"cebpf4jnsgd1na2vs0mg"},{"bike_id":"4f7e7691-2525-44ff-a293-086b1a75f283","system_id":"levelo_inurba_marseille","lat":43.261954,"lon":5.374565,"is_reserved":false,"is_disabled":false,"rental_uris":{"android":"levelo://app?vid=4f7e7691-2525-44ff-a293-086b1a75f283","ios":"levelo://app?vid=4f7e7691-2525-44ff-a293-086b1a75f283"},"vehicle_type_id":"4","last_reported":1748013014,"current_range_meters":12000,"station_id":"ce4bhgp2rcd13ifvqfc0","pricing_plan_id":"cebpf4jnsgd1na2vs0mg"},{"bike_id":"2ea50577-1176-467c-8d1f-ce07d6571fb8","system_id":"levelo_inurba_marseille","lat":43.231909,"lon":5.355555,"is_reserved":false,"is_disabled":false,"rental_uris":{"android":"levelo://app?vid=2ea50577-1176-467c-8d1f-ce07d6571fb8","ios":"levelo://app?vid=2ea50577-1176-467c-8d1f-ce07d6571fb8"},"vehicle_type_id":"4","last_reported":1748013014,"current_range_meters":12000,"station_id":"ce4bhu92rcd13ifvqi70","pricing_plan_id":"cebpf4jnsgd1na2vs0mg"},{"bike_id":"6372a70b-7952-45e8-980a-03f7291e5e80","system_id":"levelo_inurba_marseille","lat":43.23069,"lon":5.35495,"is_reserved":false,"is_disabled":false,"rental_uris":{"android":"levelo://app?vid=6372a70b-7952-45e8-980a-03f7291e5e80","ios":"levelo://app?vid=6372a70b-7952-45e8-980a-03f7291e5e80"},"vehicle_type_id":"4","last_reported":1748013014,"current_range_meters":12000,"station_id":"cpo3342slgdg3j2ifvpg","pricing_plan_id":"cebpf4jnsgd1na2vs0mg"},{"bike_id":"13638be8-9f42-40a3-b7f5-0f9ddf4a0fbf","system_id":"levelo_inurba_marseille","lat":43.33782,"lon":5.39194,"is_reserved":false,"is_disabled":false,"rental_uris":{"android":"levelo://app?vid=13638be8-9f42-40a3-b7f5-0f9ddf4a0fbf","ios":"levelo://app?vid=13638be8-9f42-40a3-b7f5-0f9ddf4a0fbf"},"vehicle_type_id":"4","last_reported":1748013014,"current_range_meters":12400,"station_id":"","pricing_plan_id":"cebpf4jnsgd1na2vs0mg"},{"bike_id":"060fcdb6-7412-4014-95e0-a64932c6fb60","system_id":"levelo_inurba_marseille","lat":43.30801,"lon":5.38169,"is_reserved":false,"is_disabled":false,"rental_uris":{"android":"levelo://app?vid=060fcdb6-7412-4014-95e0-a64932c6fb60","ios":"levelo://app?vid=060fcdb6-7412-4014-95e0-a64932c6fb60"},"vehicle_type_id":"4","last_reported":1748013014,"current_range_meters":12400,"station_id":"ce4bgt12rcd13ifvqce0","pricing_plan_id":"cebpf4jnsgd1na2vs0mg"},{"bike_id":"a8f87bfb-cdc5-4def-a7c5-e07f030e9dae","system_id":"levelo_inurba_marseille","lat":43.28265,"lon":5.35061,"is_reserved":false,"is_disabled":false,"rental_uris":{"android":"levelo://app?vid=a8f87bfb-cdc5-4def-a7c5-e07f030e9dae","ios":"levelo://app?vid=a8f87bfb-cdc5-4def-a7c5-e07f030e9dae"},"vehicle_type_id":"4","last_reported":1748013014,"current_range_meters":12400,"station_id":"ce4bhbp2rcd13ifvqerg","pricing_plan_id":"cebpf4jnsgd1na2vs0mg"},{"bike_id":"cacf60b0-0f1d-4a30-bcb2-b172f45f20e9","system_id":"levelo_inurba_marseille","lat":43.28613,"lon":5.35116,"is_reserved":false,"is_disabled":false,"rental_uris":{"android":"levelo://app?vid=cacf60b0-0f1d-4a30-bcb2-b172f45f20e9","ios":"levelo://app?vid=cacf60b0-0f1d-4a30-bcb2-b172f45f20e9"},"vehicle_type_id":"4","last_reported":1748013014,"current_range_meters":12400,"station_id":"ce4bhch2rcd13ifvqeug","pricing_plan_id":"cebpf4jnsgd1na2vs0mg"},{"bike_id":"fa529a29-8d21-4f13-9783-e1708a99c344","system_id":"levelo_inurba_marseille","lat":43.246516,"lon":5.388955,"is_reserved":false,"is_disabled":false,"rental_uris":{"android":"levelo://app?vid=fa529a29-8d21-4f13-9783-e1708a99c344","ios":"levelo://app?vid=fa529a29-8d21-4f13-9783-e1708a99c344"},"vehicle_type_id":"4","last_reported":1748013014,"current_range_meters":12400,"station_id":"ce4bhlh2rcd13ifvqgig","pricing_plan_id":"cebpf4jnsgd1na2vs0mg"},{"bike_id":"f84e7850-4e38-4a2f-8058-4b5888bcc49b","system_id":"levelo_inurba_marseille","lat":43.32094,"lon":5.3676,"is_reserved":false,"is_disabled":false,"rental_uris":{"android":"levelo://app?vid=f84e7850-4e38-4a2f-8058-4b5888bcc49b","ios":"levelo://app?vid=f84e7850-4e38-4a2f-8058-4b5888bcc49b"},"vehicle_type_id":"4","last_reported":1748013014,"current_range_meters":12400,"station_id":"ce4bhrh2rcd13ifvqhug","pricing_plan_id":"cebpf4jnsgd1na2vs0mg"},{"bike_id":"760429cd-16f5-4a3c-b23e-73c9ce2e5270","system_id":"levelo_inurba_marseille","lat":43.267982,"lon":5.4027,"is_reserved":false,"is_disabled":false,"rental_uris":{"android":"levelo://app?vid=760429cd-16f5-4a3c-b23e-73c9ce2e5270","ios":"levelo://app?vid=760429cd-16f5-4a3c-b23e-73c9ce2e5270"},"vehicle_type_id":"4","last_reported":1748013014,"current_range_meters":12400,"station_id":"ce501612rcd8frsf0b60","pricing_plan_id":"cebpf4jnsgd1na2vs0mg"},{"bike_id":"1c18ce5f-170e-4348-a7e1-0b74d18faa63","system_id":"levelo_inurba_marseille","lat":43.30917,"lon":5.36828,"is_reserved":false,"is_disabled":false,"rental_uris":{"android":"levelo://app?vid=1c18ce5f-170e-4348-a7e1-0b74d18faa63","ios":"levelo://app?vid=1c18ce5f-170e-4348-a7e1-0b74d18faa63"},"vehicle_type_id":"4","last_reported":1748013014,"current_range_meters":12800,"station_id":"ce4bgn92rcd13ifvqbvg","pricing_plan_id":"cebpf4jnsgd1na2vs0mg"},{"bike_id":"1f48d63d-214f-47a5-aec1-756f96763932","system_id":"levelo_inurba_marseille","lat":43.30459,"lon":5.379,"is_reserved":false,"is_disabled":false,"rental_uris":{"android":"levelo://app?vid=1f48d63d-214f-47a5-aec1-756f96763932","ios":"levelo://app?vid=1f48d63d-214f-47a5-aec1-756f96763932"},"vehicle_type_id":"4","last_reported":1748013014,"current_range_meters":12800,"station_id":"ce4bgup2rcd13ifvqcn0","pricing_plan_id":"cebpf4jnsgd1na2vs0mg"},{"bike_id":"b0640a78-90cb-46d7-b8c3-88e46102fb78","system_id":"levelo_inurba_marseille","lat":43.31066,"lon":5.38356,"is_reserved":false,"is_disabled":false,"rental_uris":{"android":"levelo://app?vid=b0640a78-90cb-46d7-b8c3-88e46102fb78","ios":"levelo://app?vid=b0640a78-90cb-46d7-b8c3-88e46102fb78"},"vehicle_type_id":"4","last_reported":1748013014,"current_range_meters":12800,"station_id":"ce4bgv92rcd13ifvqcr0","pricing_plan_id":"cebpf4jnsgd1na2vs0mg"},{"bike_id":"e608c901-bf66-41d7-a7fc-4deb7fb0f14b","system_id":"levelo_inurba_marseille","lat":43.290466,"lon":5.359193,"is_reserved":false,"is_disabled":false,"rental_uris":{"android":"levelo://app?vid=e608c901-bf66-41d7-a7fc-4deb7fb0f14b","ios":"levelo://app?vid=e608c901-bf66-41d7-a7fc-4deb7fb0f14b"},"vehicle_type_id":"4","last_reported":1748013014,"current_range_meters":12800,"station_id":"ce4bha92rcd13ifvqeg0","pricing_plan_id":"cebpf4jnsgd1na2vs0mg"},{"bike_id":"8933e858-2854-460a-be42-86c4d7d12336","system_id":"levelo_inurba_marseille","lat":43.27549,"lon":5.38442,"is_reserved":false,"is_disabled":false,"rental_uris":{"android":"levelo://app?vid=8933e858-2854-460a-be42-86c4d7d12336","ios":"levelo://app?vid=8933e858-2854-460a-be42-86c4d7d12336"},"vehicle_type_id":"4","last_reported":1748013014,"current_range_meters":12800,"station_id":"ce4bhh92rcd13ifvqfi0","pricing_plan_id":"cebpf4jnsgd1na2vs0mg"},{"bike_id":"06879af9-597a-4b00-8d1a-0a939e00ab2b","system_id":"levelo_inurba_marseille","lat":43.23962,"lon":5.36628,"is_reserved":false,"is_disabled":false,"rental_uris":{"android":"levelo://app?vid=06879af9-597a-4b00-8d1a-0a939e00ab2b","ios":"levelo://app?vid=06879af9-597a-4b00-8d1a-0a939e00ab2b"},"vehicle_type_id":"4","last_reported":1748013014,"current_range_meters":12800,"station_id":"ce4bhi12rcd13ifvqfp0","pricing_plan_id":"cebpf4jnsgd1na2vs0mg"},{"bike_id":"093024a2-15c8-4b50-a553-45329f927269","system_id":"levelo_inurba_marseille","lat":43.28208,"lon":5.39038,"is_reserved":false,"is_disabled":false,"rental_uris":{"android":"levelo://app?vid=093024a2-15c8-4b50-a553-45329f927269","ios":"levelo://app?vid=093024a2-15c8-4b50-a553-45329f927269"},"vehicle_type_id":"4","last_reported":1748013014,"current_range_meters":13600,"station_id":"","pricing_plan_id":"cebpf4jnsgd1na2vs0mg"},{"bike_id":"0a3d6e60-c4d4-45e7-bbee-78328f2d9cff","system_id":"levelo_inurba_marseille","lat":43.29197,"lon":5.35806,"is_reserved":false,"is_disabled":false,"rental_uris":{"android":"levelo://app?vid=0a3d6e60-c4d4-45e7-bbee-78328f2d9cff","ios":"levelo://app?vid=0a3d6e60-c4d4-45e7-bbee-78328f2d9cff"},"vehicle_type_id":"4","last_reported":1748013014,"current_range_meters":13600,"station_id":"ce4bhb12rcd13ifvqel0","pricing_plan_id":"cebpf4jnsgd1na2vs0mg"},{"bike_id":"3ddcee48-216c-47de-bd09-e9cfd95a2262","system_id":"levelo_inurba_marseille","lat":43.251233,"lon":5.403385,"is_reserved":false,"is_disabled":false,"rental_uris":{"android":"levelo://app?vid=3ddcee48-216c-47de-bd09-e9cfd95a2262","ios":"levelo://app?vid=3ddcee48-216c-47de-bd09-e9cfd95a2262"},"vehicle_type_id":"4","last_reported":1748013014,"current_range_meters":13600,"station_id":"ce4bhlh2rcd13ifvqgig","pricing_plan_id":"cebpf4jnsgd1na2vs0mg"},{"bike_id":"17010815-2f2a-42dd-a512-f9d0897cd5fa","system_id":"levelo_inurba_marseille","lat":43.28425,"lon":5.39162,"is_reserved":false,"is_disabled":false,"rental_uris":{"android":"levelo://app?vid=17010815-2f2a-42dd-a512-f9d0897cd5fa","ios":"levelo://app?vid=17010815-2f2a-42dd-a512-f9d0897cd5fa"},"vehicle_type_id":"4","last_reported":1748013014,"current_range_meters":13600,"station_id":"ce4bhoh2rcd13ifvqh5g","pricing_plan_id":"cebpf4jnsgd1na2vs0mg"},{"bike_id":"a9094a3e-21db-4a84-aa35-b5932f8a226b","system_id":"levelo_inurba_marseille","lat":43.29864,"lon":5.39735,"is_reserved":false,"is_disabled":false,"rental_uris":{"android":"levelo://app?vid=a9094a3e-21db-4a84-aa35-b5932f8a226b","ios":"levelo://app?vid=a9094a3e-21db-4a84-aa35-b5932f8a226b"},"vehicle_type_id":"4","last_reported":1748013014,"current_range_meters":14000,"station_id":"ce4bh0h2rcd13ifvqd50","pricing_plan_id":"cebpf4jnsgd1na2vs0mg"},{"bike_id":"d321cecc-32e7-4378-b800-f563882f9b55","system_id":"levelo_inurba_marseille","lat":43.243916,"lon":5.370608,"is_reserved":false,"is_disabled":false,"rental_uris":{"android":"levelo://app?vid=d321cecc-32e7-4378-b800-f563882f9b55","ios":"levelo://app?vid=d321cecc-32e7-4378-b800-f563882f9b55"},"vehicle_type_id":"4","last_reported":1748013014,"current_range_meters":14000,"station_id":"ce4bhhh2rcd13ifvqfk0","pricing_plan_id":"cebpf4jnsgd1na2vs0mg"},{"bike_id":"f9b8de3e-f216-4a97-a31c-9c85d23db479","system_id":"levelo_inurba_marseille","lat":43.286461,"lon":5.351747,"is_reserved":false,"is_disabled":false,"rental_uris":{"android":"levelo://app?vid=f9b8de3e-f216-4a97-a31c-9c85d23db479","ios":"levelo://app?vid=f9b8de3e-f216-4a97-a31c-9c85d23db479"},"vehicle_type_id":"4","last_reported":1748013014,"current_range_meters":14400,"station_id":"","pricing_plan_id":"cebpf4jnsgd1na2vs0mg"},{"bike_id":"9167dad4-647b-4513-b30e-638f2acafda0","system_id":"levelo_inurba_marseille","lat":43.295316,"lon":5.385491,"is_reserved":false,"is_disabled":false,"rental_uris":{"android":"levelo://app?vid=9167dad4-647b-4513-b30e-638f2acafda0","ios":"levelo://app?vid=9167dad4-647b-4513-b30e-638f2acafda0"},"vehicle_type_id":"4","last_reported":1748013014,"current_range_meters":14400,"station_id":"ce4bgih2rcd13ifvqba0","pricing_plan_id":"cebpf4jnsgd1na2vs0mg"},{"bike_id":"2ac33c53-bd8d-4093-ae7a-1b917fbad639","system_id":"levelo_inurba_marseille","lat":43.2885,"lon":5.35863,"is_reserved":false,"is_disabled":false,"rental_uris":{"android":"levelo://app?vid=2ac33c53-bd8d-4093-ae7a-1b917fbad639","ios":"levelo://app?vid=2ac33c53-bd8d-4093-ae7a-1b917fbad639"},"vehicle_type_id":"4","last_reported":1748013014,"current_range_meters":14400,"station_id":"ce4bhb12rcd13ifvqem0","pricing_plan_id":"cebpf4jnsgd1na2vs0mg"},{"bike_id":"4ea2045a-2a00-4b8c-90b1-fb4e61e1237a","system_id":"levelo_inurba_marseille","lat":43.26064,"lon":5.39399,"is_reserved":false,"is_disabled":false,"rental_uris":{"android":"levelo://app?vid=4ea2045a-2a00-4b8c-90b1-fb4e61e1237a","ios":"levelo://app?vid=4ea2045a-2a00-4b8c-90b1-fb4e61e1237a"},"vehicle_type_id":"4","last_reported":1748013014,"current_range_meters":14400,"station_id":"ce4bhh92rcd13ifvqfj0","pricing_plan_id":"cebpf4jnsgd1na2vs0mg"},{"bike_id":"bed28a03-b908-4e85-a6f2-c3d3e4ead109","system_id":"levelo_inurba_marseille","lat":43.28153,"lon":5.42648,"is_reserved":false,"is_disabled":false,"rental_uris":{"android":"levelo://app?vid=bed28a03-b908-4e85-a6f2-c3d3e4ead109","ios":"levelo://app?vid=bed28a03-b908-4e85-a6f2-c3d3e4ead109"},"vehicle_type_id":"4","last_reported":1748013014,"current_range_meters":14800,"station_id":"ce4bhnh2rcd13ifvqgug","pricing_plan_id":"cebpf4jnsgd1na2vs0mg"},{"bike_id":"32232c2e-5158-4f56-bdad-c27d240ecf28","system_id":"levelo_inurba_marseille","lat":43.269427,"lon":5.402629,"is_reserved":false,"is_disabled":false,"rental_uris":{"android":"levelo://app?vid=32232c2e-5158-4f56-bdad-c27d240ecf28","ios":"levelo://app?vid=32232c2e-5158-4f56-bdad-c27d240ecf28"},"vehicle_type_id":"4","last_reported":1748013014,"current_range_meters":14800,"station_id":"cjm6bp8fraef2m0cb0m0","pricing_plan_id":"cebpf4jnsgd1na2vs0mg"},{"bike_id":"fc8c72ad-ca61-42c6-ae90-f61b57e45328","system_id":"levelo_inurba_marseille","lat":43.27905,"lon":5.41879,"is_reserved":false,"is_disabled":false,"rental_uris":{"android":"levelo://app?vid=fc8c72ad-ca61-42c6-ae90-f61b57e45328","ios":"levelo://app?vid=fc8c72ad-ca61-42c6-ae90-f61b57e45328"},"vehicle_type_id":"4","last_reported":1748013014,"current_range_meters":15200,"station_id":"","pricing_plan_id":"cebpf4jnsgd1na2vs0mg"},{"bike_id":"01c0716b-8957-4246-bdf6-67b363ea8382","system_id":"levelo_inurba_marseille","lat":43.28623,"lon":5.35099,"is_reserved":false,"is_disabled":false,"rental_uris":{"android":"levelo://app?vid=01c0716b-8957-4246-bdf6-67b363ea8382","ios":"levelo://app?vid=01c0716b-8957-4246-bdf6-67b363ea8382"},"vehicle_type_id":"4","last_reported":1748013014,"current_range_meters":15200,"station_id":"ce4bhch2rcd13ifvqeug","pricing_plan_id":"cebpf4jnsgd1na2vs0mg"},{"bike_id":"27f4180b-434b-4cb2-854e-3d43bf0e1b28","system_id":"levelo_inurba_marseille","lat":43.27209,"lon":5.391782,"is_reserved":false,"is_disabled":false,"rental_uris":{"android":"levelo://app?vid=27f4180b-434b-4cb2-854e-3d43bf0e1b28","ios":"levelo://app?vid=27f4180b-434b-4cb2-854e-3d43bf0e1b28"},"vehicle_type_id":"4","last_reported":1748013014,"current_range_meters":15200,"station_id":"ce4bhhp2rcd13ifvqfm0","pricing_plan_id":"cebpf4jnsgd1na2vs0mg"},{"bike_id":"293d61e5-2bb1-407f-9e33-e203d0ecedbf","system_id":"levelo_inurba_marseille","lat":43.28017,"lon":5.39987,"is_reserved":false,"is_disabled":false,"rental_uris":{"android":"levelo://app?vid=293d61e5-2bb1-407f-9e33-e203d0ecedbf","ios":"levelo://app?vid=293d61e5-2bb1-407f-9e33-e203d0ecedbf"},"vehicle_type_id":"4","last_reported":1748013014,"current_range_meters":15200,"station_id":"ce4bho92rcd13ifvqh4g","pricing_plan_id":"cebpf4jnsgd1na2vs0mg"},{"bike_id":"b959a865-fc01-4964-9b1d-7e25b047370d","system_id":"levelo_inurba_marseille","lat":43.23228,"lon":5.3557,"is_reserved":false,"is_disabled":false,"rental_uris":{"android":"levelo://app?vid=b959a865-fc01-4964-9b1d-7e25b047370d","ios":"levelo://app?vid=b959a865-fc01-4964-9b1d-7e25b047370d"},"vehicle_type_id":"4","last_reported":1748013014,"current_range_meters":15200,"station_id":"ce4bhu92rcd13ifvqi70","pricing_plan_id":"cebpf4jnsgd1na2vs0mg"},{"bike_id":"75e91607-f093-41b1-947a-69b62fe724b6","system_id":"levelo_inurba_marseille","lat":43.34685,"lon":5.34578,"is_reserved":false,"is_disabled":false,"rental_uris":{"android":"levelo://app?vid=75e91607-f093-41b1-947a-69b62fe724b6","ios":"levelo://app?vid=75e91607-f093-41b1-947a-69b62fe724b6"},"vehicle_type_id":"4","last_reported":1748013014,"current_range_meters":16000,"station_id":"","pricing_plan_id":"cebpf4jnsgd1na2vs0mg"},{"bike_id":"6e5a158f-7f1d-4312-9977-ede4602769a5","system_id":"levelo_inurba_marseille","lat":43.282162,"lon":5.390585,"is_reserved":false,"is_disabled":false,"rental_uris":{"android":"levelo://app?vid=6e5a158f-7f1d-4312-9977-ede4602769a5","ios":"levelo://app?vid=6e5a158f-7f1d-4312-9977-ede4602769a5"},"vehicle_type_id":"4","last_reported":1748013014,"current_range_meters":16000,"station_id":"","pricing_plan_id":"cebpf4jnsgd1na2vs0mg"},{"bike_id":"1312caad-1dc0-4942-84ff-1417c0902972","system_id":"levelo_inurba_marseille","lat":43.29535,"lon":5.38558,"is_reserved":false,"is_disabled":false,"rental_uris":{"android":"levelo://app?vid=1312caad-1dc0-4942-84ff-1417c0902972","ios":"levelo://app?vid=1312caad-1dc0-4942-84ff-1417c0902972"},"vehicle_type_id":"4","last_reported":1748013014,"current_range_meters":16000,"station_id":"ce4bgih2rcd13ifvqba0","pricing_plan_id":"cebpf4jnsgd1na2vs0mg"},{"bike_id":"8bf531c8-63c9-4599-a836-ffb8cfe6db01","system_id":"levelo_inurba_marseille","lat":43.24164,"lon":5.36408,"is_reserved":false,"is_disabled":false,"rental_uris":{"android":"levelo://app?vid=8bf531c8-63c9-4599-a836-ffb8cfe6db01","ios":"levelo://app?vid=8bf531c8-63c9-4599-a836-ffb8cfe6db01"},"vehicle_type_id":"4","last_reported":1748013014,"current_range_meters":16000,"station_id":"cpo36qri1sfpv3e86is0","pricing_plan_id":"cebpf4jnsgd1na2vs0mg"},{"bike_id":"913f8320-f8e4-48e1-8fd1-306e0de0b645","system_id":"levelo_inurba_marseille","lat":43.28232,"lon":5.39074,"is_reserved":false,"is_disabled":false,"rental_uris":{"android":"levelo://app?vid=913f8320-f8e4-48e1-8fd1-306e0de0b645","ios":"levelo://app?vid=913f8320-f8e4-48e1-8fd1-306e0de0b645"},"vehicle_type_id":"4","last_reported":1748013014,"current_range_meters":16400,"station_id":"","pricing_plan_id":"cebpf4jnsgd1na2vs0mg"},{"bike_id":"d4a24075-3436-4205-bc50-01e9dc17c6ea","system_id":"levelo_inurba_marseille","lat":43.282,"lon":5.39054,"is_reserved":false,"is_disabled":false,"rental_uris":{"android":"levelo://app?vid=d4a24075-3436-4205-bc50-01e9dc17c6ea","ios":"levelo://app?vid=d4a24075-3436-4205-bc50-01e9dc17c6ea"},"vehicle_type_id":"4","last_reported":1748013014,"current_range_meters":16400,"station_id":"","pricing_plan_id":"cebpf4jnsgd1na2vs0mg"},{"bike_id":"f19becd1-f82d-4a20-9187-060fb78f1e82","system_id":"levelo_inurba_marseille","lat":43.30598,"lon":5.37227,"is_reserved":false,"is_disabled":false,"rental_uris":{"android":"levelo://app?vid=f19becd1-f82d-4a20-9187-060fb78f1e82","ios":"levelo://app?vid=f19becd1-f82d-4a20-9187-060fb78f1e82"},"vehicle_type_id":"4","last_reported":1748013014,"current_range_meters":16400,"station_id":"ce4bgqh2rcd13ifvqc4g","pricing_plan_id":"cebpf4jnsgd1na2vs0mg"},{"bike_id":"744c3750-2e58-4e7a-b2ab-c40974a043d4","system_id":"levelo_inurba_marseille","lat":43.30459,"lon":5.37902,"is_reserved":false,"is_disabled":false,"rental_uris":{"android":"levelo://app?vid=744c3750-2e58-4e7a-b2ab-c40974a043d4","ios":"levelo://app?vid=744c3750-2e58-4e7a-b2ab-c40974a043d4"},"vehicle_type_id":"4","last_reported":1748013014,"current_range_meters":16400,"station_id":"ce4bgup2rcd13ifvqcn0","pricing_plan_id":"cebpf4jnsgd1na2vs0mg"},{"bike_id":"206ab3ff-e460-4d34-8005-584148e52aae","system_id":"levelo_inurba_marseille","lat":43.29541,"lon":5.39039,"is_reserved":false,"is_disabled":false,"rental_uris":{"android":"levelo://app?vid=206ab3ff-e460-4d34-8005-584148e52aae","ios":"levelo://app?vid=206ab3ff-e460-4d34-8005-584148e52aae"},"vehicle_type_id":"4","last_reported":1748013014,"current_range_meters":16400,"station_id":"ce4bh3p2rcd13ifvqdp0","pricing_plan_id":"cebpf4jnsgd1na2vs0mg"},{"bike_id":"d303e727-939b-4ec5-8262-b61295e39131","system_id":"levelo_inurba_marseille","lat":43.28615,"lon":5.35108,"is_reserved":false,"is_disabled":false,"rental_uris":{"android":"levelo://app?vid=d303e727-939b-4ec5-8262-b61295e39131","ios":"levelo://app?vid=d303e727-939b-4ec5-8262-b61295e39131"},"vehicle_type_id":"4","last_reported":1748013014,"current_range_meters":16400,"station_id":"ce4bhch2rcd13ifvqeug","pricing_plan_id":"cebpf4jnsgd1na2vs0mg"},{"bike_id":"eb8b7ed2-c602-4d4a-81b8-af65c9f98d6e","system_id":"levelo_inurba_marseille","lat":43.29688,"lon":5.3731,"is_reserved":false,"is_disabled":false,"rental_uris":{"android":"levelo://app?vid=eb8b7ed2-c602-4d4a-81b8-af65c9f98d6e","ios":"levelo://app?vid=eb8b7ed2-c602-4d4a-81b8-af65c9f98d6e"},"vehicle_type_id":"4","last_reported":1748013014,"current_range_meters":16800,"station_id":"ce4bgk12rcd13ifvqbj0","pricing_plan_id":"cebpf4jnsgd1na2vs0mg"},{"bike_id":"1c960faf-d0f3-4e63-9b21-e35f107e1861","system_id":"levelo_inurba_marseille","lat":43.23981,"lon":5.3662,"is_reserved":false,"is_disabled":false,"rental_uris":{"android":"levelo://app?vid=1c960faf-d0f3-4e63-9b21-e35f107e1861","ios":"levelo://app?vid=1c960faf-d0f3-4e63-9b21-e35f107e1861"},"vehicle_type_id":"4","last_reported":1748013014,"current_range_meters":16800,"station_id":"ce4bhi12rcd13ifvqfp0","pricing_plan_id":"cebpf4jnsgd1na2vs0mg"},{"bike_id":"d9b81980-3a84-4a28-8d9c-2158d8becdc5","system_id":"levelo_inurba_marseille","lat":43.28974,"lon":5.37834,"is_reserved":false,"is_disabled":false,"rental_uris":{"android":"levelo://app?vid=d9b81980-3a84-4a28-8d9c-2158d8becdc5","ios":"levelo://app?vid=d9b81980-3a84-4a28-8d9c-2158d8becdc5"},"vehicle_type_id":"4","last_reported":1748013014,"current_range_meters":17200,"station_id":"ce4bh9p2rcd13ifvqed0","pricing_plan_id":"cebpf4jnsgd1na2vs0mg"},{"bike_id":"ed90be4b-56f8-4c4d-ab95-cd6e25922d04","system_id":"levelo_inurba_marseille","lat":43.25491,"lon":5.37655,"is_reserved":false,"is_disabled":false,"rental_uris":{"android":"levelo://app?vid=ed90be4b-56f8-4c4d-ab95-cd6e25922d04","ios":"levelo://app?vid=ed90be4b-56f8-4c4d-ab95-cd6e25922d04"},"vehicle_type_id":"4","last_reported":1748013014,"current_range_meters":17200,"station_id":"ce4bhh12rcd13ifvqff0","pricing_plan_id":"cebpf4jnsgd1na2vs0mg"},{"bike_id":"7fd131a4-6c0b-43b1-b910-144d336812bc","system_id":"levelo_inurba_marseille","lat":43.25086,"lon":5.3951,"is_reserved":false,"is_disabled":false,"rental_uris":{"android":"levelo://app?vid=7fd131a4-6c0b-43b1-b910-144d336812bc","ios":"levelo://app?vid=7fd131a4-6c0b-43b1-b910-144d336812bc"},"vehicle_type_id":"4","last_reported":1748013014,"current_range_meters":17200,"station_id":"ce4bhm12rcd13ifvqgkg","pricing_plan_id":"cebpf4jnsgd1na2vs0mg"},{"bike_id":"18b477e9-9ed5-45d5-a587-ef89178f2efd","system_id":"levelo_inurba_marseille","lat":43.29782,"lon":5.39342,"is_reserved":false,"is_disabled":false,"rental_uris":{"android":"levelo://app?vid=18b477e9-9ed5-45d5-a587-ef89178f2efd","ios":"levelo://app?vid=18b477e9-9ed5-45d5-a587-ef89178f2efd"},"vehicle_type_id":"4","last_reported":1748013014,"current_range_meters":17200,"station_id":"chh1huq6cuj3fo74tm60","pricing_plan_id":"cebpf4jnsgd1na2vs0mg"},{"bike_id":"6d7c935a-591a-4e31-aa91-6b540699765a","system_id":"levelo_inurba_marseille","lat":43.22945,"lon":5.35382,"is_reserved":false,"is_disabled":false,"rental_uris":{"android":"levelo://app?vid=6d7c935a-591a-4e31-aa91-6b540699765a","ios":"levelo://app?vid=6d7c935a-591a-4e31-aa91-6b540699765a"},"vehicle_type_id":"4","last_reported":1748013014,"current_range_meters":17200,"station_id":"cpo3532slgdg3j2ikp40","pricing_plan_id":"cebpf4jnsgd1na2vs0mg"},{"bike_id":"6ca315be-8e3b-463e-b7be-4e43fa870472","system_id":"levelo_inurba_marseille","lat":43.29003,"lon":5.35611,"is_reserved":false,"is_disabled":false,"rental_uris":{"android":"levelo://app?vid=6ca315be-8e3b-463e-b7be-4e43fa870472","ios":"levelo://app?vid=6ca315be-8e3b-463e-b7be-4e43fa870472"},"vehicle_type_id":"4","last_reported":1748013014,"current_range_meters":17600,"station_id":"ce4bhb92rcd13ifvqen0","pricing_plan_id":"cebpf4jnsgd1na2vs0mg"},{"bike_id":"8e1f5fe8-e514-4fd5-b4ef-31aae23aea99","system_id":"levelo_inurba_marseille","lat":43.269293,"lon":5.40278,"is_reserved":false,"is_disabled":false,"rental_uris":{"android":"levelo://app?vid=8e1f5fe8-e514-4fd5-b4ef-31aae23aea99","ios":"levelo://app?vid=8e1f5fe8-e514-4fd5-b4ef-31aae23aea99"},"vehicle_type_id":"4","last_reported":1748013014,"current_range_meters":17600,"station_id":"cjm6bp8fraef2m0cb0m0","pricing_plan_id":"cebpf4jnsgd1na2vs0mg"},{"bike_id":"8928326c-648b-48ca-ac72-50af7132758b","system_id":"levelo_inurba_marseille","lat":43.229294,"lon":5.353832,"is_reserved":false,"is_disabled":false,"rental_uris":{"android":"levelo://app?vid=8928326c-648b-48ca-ac72-50af7132758b","ios":"levelo://app?vid=8928326c-648b-48ca-ac72-50af7132758b"},"vehicle_type_id":"4","last_reported":1748013014,"current_range_meters":17600,"station_id":"cpo3532slgdg3j2ikp40","pricing_plan_id":"cebpf4jnsgd1na2vs0mg"},{"bike_id":"034ce18b-54c7-419d-bc93-0f5693aec2ed","system_id":"levelo_inurba_marseille","lat":43.229302,"lon":5.353975,"is_reserved":false,"is_disabled":false,"rental_uris":{"android":"levelo://app?vid=034ce18b-54c7-419d-bc93-0f5693aec2ed","ios":"levelo://app?vid=034ce18b-54c7-419d-bc93-0f5693aec2ed"},"vehicle_type_id":"4","last_reported":1748013014,"current_range_meters":17600,"station_id":"cpo3532slgdg3j2ikp40","pricing_plan_id":"cebpf4jnsgd1na2vs0mg"},{"bike_id":"da453a88-f81b-4e0f-9781-5a7f6c1d364c","system_id":"levelo_inurba_marseille","lat":43.337499,"lon":5.374469,"is_reserved":false,"is_disabled":false,"rental_uris":{"android":"levelo://app?vid=da453a88-f81b-4e0f-9781-5a7f6c1d364c","ios":"levelo://app?vid=da453a88-f81b-4e0f-9781-5a7f6c1d364c"},"vehicle_type_id":"4","last_reported":1748013014,"current_range_meters":18000,"station_id":"","pricing_plan_id":"cebpf4jnsgd1na2vs0mg"},{"bike_id":"88ac5a91-56d3-4573-b0f2-5c6bbb7d986b","system_id":"levelo_inurba_marseille","lat":43.26058,"lon":5.39658,"is_reserved":false,"is_disabled":false,"rental_uris":{"android":"levelo://app?vid=88ac5a91-56d3-4573-b0f2-5c6bbb7d986b","ios":"levelo://app?vid=88ac5a91-56d3-4573-b0f2-5c6bbb7d986b"},"vehicle_type_id":"4","last_reported":1748013014,"current_range_meters":18000,"station_id":"","pricing_plan_id":"cebpf4jnsgd1na2vs0mg"},{"bike_id":"246a303d-65ef-49e6-9e50-2e37cf092749","system_id":"levelo_inurba_marseille","lat":43.25296,"lon":5.392377,"is_reserved":false,"is_disabled":false,"rental_uris":{"android":"levelo://app?vid=246a303d-65ef-49e6-9e50-2e37cf092749","ios":"levelo://app?vid=246a303d-65ef-49e6-9e50-2e37cf092749"},"vehicle_type_id":"4","last_reported":1748013014,"current_range_meters":18000,"station_id":"","pricing_plan_id":"cebpf4jnsgd1na2vs0mg"},{"bike_id":"ab4c1540-4f28-4e56-9029-5eb9511434a8","system_id":"levelo_inurba_marseille","lat":43.331061,"lon":5.381194,"is_reserved":false,"is_disabled":false,"rental_uris":{"android":"levelo://app?vid=ab4c1540-4f28-4e56-9029-5eb9511434a8","ios":"levelo://app?vid=ab4c1540-4f28-4e56-9029-5eb9511434a8"},"vehicle_type_id":"4","last_reported":1748013014,"current_range_meters":18000,"station_id":"","pricing_plan_id":"cebpf4jnsgd1na2vs0mg"},{"bike_id":"302e549b-e343-4f24-bd80-f9df8d68c30d","system_id":"levelo_inurba_marseille","lat":43.307983,"lon":5.381437,"is_reserved":false,"is_disabled":false,"rental_uris":{"android":"levelo://app?vid=302e549b-e343-4f24-bd80-f9df8d68c30d","ios":"levelo://app?vid=302e549b-e343-4f24-bd80-f9df8d68c30d"},"vehicle_type_id":"4","last_reported":1748013014,"current_range_meters":18000,"station_id":"ce4bgt12rcd13ifvqce0","pricing_plan_id":"cebpf4jnsgd1na2vs0mg"},{"bike_id":"bf7678bb-7852-4df7-8640-78c39069b7c1","system_id":"levelo_inurba_marseille","lat":43.29208,"lon":5.3592,"is_reserved":false,"is_disabled":false,"rental_uris":{"android":"levelo://app?vid=bf7678bb-7852-4df7-8640-78c39069b7c1","ios":"levelo://app?vid=bf7678bb-7852-4df7-8640-78c39069b7c1"},"vehicle_type_id":"4","last_reported":1748013014,"current_range_meters":18000,"station_id":"ce4bhb12rcd13ifvqel0","pricing_plan_id":"cebpf4jnsgd1na2vs0mg"},{"bike_id":"edade6bb-cc32-4f07-b663-32fcb27f1b03","system_id":"levelo_inurba_marseille","lat":43.26571,"lon":5.39019,"is_reserved":false,"is_disabled":false,"rental_uris":{"android":"levelo://app?vid=edade6bb-cc32-4f07-b663-32fcb27f1b03","ios":"levelo://app?vid=edade6bb-cc32-4f07-b663-32fcb27f1b03"},"vehicle_type_id":"4","last_reported":1748013014,"current_range_meters":18000,"station_id":"ce4bhe12rcd13ifvqf30","pricing_plan_id":"cebpf4jnsgd1na2vs0mg"},{"bike_id":"1ecd6a5f-b496-4862-86bf-797f3b370d9a","system_id":"levelo_inurba_marseille","lat":43.32354,"lon":5.40624,"is_reserved":false,"is_disabled":false,"rental_uris":{"android":"levelo://app?vid=1ecd6a5f-b496-4862-86bf-797f3b370d9a","ios":"levelo://app?vid=1ecd6a5f-b496-4862-86bf-797f3b370d9a"},"vehicle_type_id":"4","last_reported":1748013014,"current_range_meters":18000,"station_id":"ce4bhq92rcd13ifvqhjg","pricing_plan_id":"cebpf4jnsgd1na2vs0mg"},{"bike_id":"be7cf37f-6408-44af-b536-525acb3ac200","system_id":"levelo_inurba_marseille","lat":43.297846,"lon":5.393414,"is_reserved":false,"is_disabled":false,"rental_uris":{"android":"levelo://app?vid=be7cf37f-6408-44af-b536-525acb3ac200","ios":"levelo://app?vid=be7cf37f-6408-44af-b536-525acb3ac200"},"vehicle_type_id":"4","last_reported":1748013014,"current_range_meters":18000,"station_id":"chh1huq6cuj3fo74tm60","pricing_plan_id":"cebpf4jnsgd1na2vs0mg"},{"bike_id":"44ddea2b-2b22-435b-92c2-8c595d90e51a","system_id":"levelo_inurba_marseille","lat":43.22964,"lon":5.3541,"is_reserved":false,"is_disabled":false,"rental_uris":{"android":"levelo://app?vid=44ddea2b-2b22-435b-92c2-8c595d90e51a","ios":"levelo://app?vid=44ddea2b-2b22-435b-92c2-8c595d90e51a"},"vehicle_type_id":"4","last_reported":1748013014,"current_range_meters":18000,"station_id":"cpo3532slgdg3j2ikp40","pricing_plan_id":"cebpf4jnsgd1na2vs0mg"},{"bike_id":"cddf2f19-cc43-405a-b7be-b92bc4bca49b","system_id":"levelo_inurba_marseille","lat":43.29033,"lon":5.38657,"is_reserved":false,"is_disabled":false,"rental_uris":{"android":"levelo://app?vid=cddf2f19-cc43-405a-b7be-b92bc4bca49b","ios":"levelo://app?vid=cddf2f19-cc43-405a-b7be-b92bc4bca49b"},"vehicle_type_id":"4","last_reported":1748013014,"current_range_meters":18800,"station_id":"ce4bh4p2rcd13ifvqe0g","pricing_plan_id":"cebpf4jnsgd1na2vs0mg"},{"bike_id":"f9bd3725-a52f-4288-9bf9-1c3c7bc36a80","system_id":"levelo_inurba_marseille","lat":43.28413,"lon":5.35001,"is_reserved":false,"is_disabled":false,"rental_uris":{"android":"levelo://app?vid=f9bd3725-a52f-4288-9bf9-1c3c7bc36a80","ios":"levelo://app?vid=f9bd3725-a52f-4288-9bf9-1c3c7bc36a80"},"vehicle_type_id":"4","last_reported":1748013014,"current_range_meters":18800,"station_id":"ce4bhbh2rcd13ifvqepg","pricing_plan_id":"cebpf4jnsgd1na2vs0mg"},{"bike_id":"ef0eb30f-83da-4280-8109-578b4925239a","system_id":"levelo_inurba_marseille","lat":43.286174,"lon":5.351025,"is_reserved":false,"is_disabled":false,"rental_uris":{"android":"levelo://app?vid=ef0eb30f-83da-4280-8109-578b4925239a","ios":"levelo://app?vid=ef0eb30f-83da-4280-8109-578b4925239a"},"vehicle_type_id":"4","last_reported":1748013014,"current_range_meters":18800,"station_id":"ce4bhch2rcd13ifvqeug","pricing_plan_id":"cebpf4jnsgd1na2vs0mg"},{"bike_id":"50434ef1-477f-476a-a888-9cdff4af5d2f","system_id":"levelo_inurba_marseille","lat":43.26958,"lon":5.38634,"is_reserved":false,"is_disabled":false,"rental_uris":{"android":"levelo://app?vid=50434ef1-477f-476a-a888-9cdff4af5d2f","ios":"levelo://app?vid=50434ef1-477f-476a-a888-9cdff4af5d2f"},"vehicle_type_id":"4","last_reported":1748013014,"current_range_meters":18800,"station_id":"ce4bhh92rcd13ifvqfh0","pricing_plan_id":"cebpf4jnsgd1na2vs0mg"},{"bike_id":"a804b073-e63c-477e-a35e-212bf8da2cdb","system_id":"levelo_inurba_marseille","lat":43.31079,"lon":5.4243,"is_reserved":false,"is_disabled":false,"rental_uris":{"android":"levelo://app?vid=a804b073-e63c-477e-a35e-212bf8da2cdb","ios":"levelo://app?vid=a804b073-e63c-477e-a35e-212bf8da2cdb"},"vehicle_type_id":"4","last_reported":1748013014,"current_range_meters":18800,"station_id":"ce4bhp92rcd13ifvqhag","pricing_plan_id":"cebpf4jnsgd1na2vs0mg"},{"bike_id":"448e8d14-ffce-45e8-8c16-36dfb0211c4e","system_id":"levelo_inurba_marseille","lat":43.32365,"lon":5.38886,"is_reserved":false,"is_disabled":false,"rental_uris":{"android":"levelo://app?vid=448e8d14-ffce-45e8-8c16-36dfb0211c4e","ios":"levelo://app?vid=448e8d14-ffce-45e8-8c16-36dfb0211c4e"},