{"last_updated":1718295068,"ttl":30,"version":"2.2","data":{"bikes":[{"bike_id":"9fff2846-e087-4d04-a497-e18710ea2ce7","system_id":"levelo_inurba_marseille","lat":43.314811,"lon":5.373103,"is_reserved":false,"is_disabled":false,"rental_uris":{"android":"levelo://app?vid=9fff2846-e087-4d04-a497-e18710ea2ce7","ios":"levelo://app?vid=9fff2846-e087-4d04-a497-e18710ea2ce7"},"vehicle_type_id":"4","last_reported":1718295068,"current_range_meters":0,"station_id":"ce4bgt12rcd13ifvqcd0","pricing_plan_id":"cebpf4jnsgd1na2vs0mg"},{"bike_id":"f3df4341-a96f-4778-9b40-ade875105d6c","system_id":"levelo_inurba_marseille","lat":43.314811,"lon":5.373103,"is_reserved":false,"is_disabled":false,"rental_uris":{"android":"levelo://app?vid=f3df4341-a96f-4778-9b40-ade875105d6c","ios":"levelo://app?vid=f3df4341-a96f-4778-9b40-ade875105d6c"},"vehicle_type_id":"4","last_reported":1718295068,"current_range_meters":11600,"station_id":"ce4bgt12rcd13ifvqcd0","pricing_plan_id":"cebpf4jnsgd1na2vs0mg"},{"bike_id":"e8982a7a-9106-4b3f-82ca-a6064c0f44f5","system_id":"levelo_inurba_marseille","lat":43.314811,"lon":5.373103,"is_reserved":false,"is_disabled":false,"rental_uris":{"android":"levelo://app?vid=e8982a7a-9106-4b3f-82ca-a6064c0f44f5","ios":"levelo://app?vid=e8982a7a-9106-4b3f-82ca-a6064c0f44f5"},"vehicle_type_id":"4","last_reported":1718295068,"current_range_meters":4800,"station_id":"ce4bgt12rcd13ifvqcd0","pricing_plan_id":"cebpf4jnsgd1na2vs0mg"},{"bike_id":"6d526626-f568-47cf-b5f2-e94673620c32","system_id":"levelo_inurba_marseille","lat":43.31489,"lon":5.37308,"is_reserved":false,"is_disabled":false,"rental_uris":{"android":"levelo://app?vid=6d526626-f568-47cf-b5f2-e94673620c32","ios":"levelo://app?vid=6d526626-f568-47cf-b5f2-e94673620c32"},"vehicle_type_id":"4","last_reported":1718295068,"current_range_meters":4400,"station_id":"ce4bgt12rcd13ifvqcd0","pricing_plan_id":"cebpf4jnsgd1na2vs0mg"},{"bike_id":"0531cb21-7a50-49c1-8dde-0ff8ba03f2b2","system_id":"levelo_inurba_marseille","lat":43.314811,"lon":5.373104,"is_reserved":false,"is_disabled":false,"rental_uris":{"android":"levelo://app?vid=0531cb21-7a50-49c1-8dde-0ff8ba03f2b2","ios":"levelo://app?vid=0531cb21-7a50-49c1-8dde-0ff8ba03f2b2"},"vehicle_type_id":"4","last_reported":1718295068,"current_range_meters":27600,"station_id":"ce4bgt12rcd13ifvqcd0","pricing_plan_id":"cebpf4jnsgd1na2vs0mg"},{"bike_id":"82779d9a-853d-4cbe-91ad-4e56032e6c29","system_id":"levelo_inurba_marseille","lat":43.314811,"lon":5.373104,"is_reserved":false,"is_disabled":false,"rental_uris":{"android":"levelo://app?vid=82779d9a-853d-4cbe-91ad-4e56032e6c29","ios":"levelo://app?vid=82779d9a-853d-4cbe-91ad-4e56032e6c29"},"vehicle_type_id":"4","last_reported":1718295068,"current_range_meters":0,"station_id":"ce4bgt12rcd13ifvqcd0","pricing_plan_id":"cebpf4jnsgd1na2vs0mg"},{"bike_id":"1d2c92b3-b2f8-472e-9373-ef05b8404b64","system_id":"levelo_inurba_marseille","lat":43.314811,"lon":5.373103,"is_reserved":false,"is_disabled":false,"rental_uris":{"android":"levelo://app?vid=1d2c92b3-b2f8-472e-9373-ef05b8404b64","ios":"levelo://app?vid=1d2c92b3-b2f8-472e-9373-ef05b8404b64"},"vehicle_type_id":"4","last_reported":1718295068,"current_range_meters":14000,"station_id":"ce4bgt12rcd13ifvqcd0","pricing_plan_id":"cebpf4jnsgd1na2vs0mg"},{"bike_id":"31b49be8-766f-461f-af9b-b065b064b981","system_id":"levelo_inurba_marseille","lat":43.314811,"lon":5.373104,"is_reserved":false,"is_disabled":false,"rental_uris":{"android":"levelo://app?vid=31b49be8-766f-461f-af9b-b065b064b981","ios":"levelo://app?vid=31b49be8-766f-461f-af9b-b065b064b981"},"vehicle_type_id":"4","last_reported":1718295068,"current_range_meters":11200,"station_id":"ce4bgt12rcd13ifvqcd0","pricing_plan_id":"cebpf4jnsgd1na2vs0mg"},{"bike_id":"aa65d318-e0f8-4db3-8d70-c9af5cca9cce","system_id":"levelo_inurba_marseille","lat":43.30557,"lon":5.36721,"is_reserved":false,"is_disabled":false,"rental_uris":{"android":"levelo://app?vid=aa65d318-e0f8-4db3-8d70-c9af5cca9cce","ios":"levelo://app?vid=aa65d318-e0f8-4db3-8d70-c9af5cca9cce"},"vehicle_type_id":"4","last_reported":1718295068,"current_range_meters":0,"station_id":"ce4bgrp2rcd13ifvqc9g","pricing_plan_id":"cebpf4jnsgd1na2vs0mg"},{"bike_id":"f4995406-2556-467f-a5fc-aa4ce97a4928","system_id":"levelo_inurba_marseille","lat":43.30537,"lon":5.367345,"is_reserved":false,"is_disabled":false,"rental_uris":{"android":"levelo://app?vid=f4995406-2556-467f-a5fc-aa4ce97a4928","ios":"levelo://app?vid=f4995406-2556-467f-a5fc-aa4ce97a4928"},"vehicle_type_id":"4","last_reported":1718295068,"current_range_meters":4400,"station_id":"ce4bgrp2rcd13ifvqc9g","pricing_plan_id":"cebpf4jnsgd1na2vs0mg"},{"bike_id":"b1416edc-f9c1-4d04-862f-3493ada45db2","system_id":"levelo_inurba_marseille","lat":43.305706,"lon":5.365654,"is_reserved":false,"is_disabled":false,"rental_uris":{"android":"levelo://app?vid=b1416edc-f9c1-4d04-862f-3493ada45db2","ios":"levelo://app?vid=b1416edc-f9c1-4d04-862f-3493ada45db2"},"vehicle_type_id":"4","last_reported":1718295068,"current_range_meters":800,"station_id":"ce4bgs12rcd13ifvqcag","pricing_plan_id":"cebpf4jnsgd1na2vs0mg"},{"bike_id":"dfa7b674-af0b-4e85-bdc6-59a388429636","system_id":"levelo_inurba_marseille","lat":43.30283,"lon":5.36878,"is_reserved":false,"is_disabled":false,"rental_uris":{"android":"levelo://app?vid=dfa7b674-af0b-4e85-bdc6-59a388429636","ios":"levelo://app?vid=dfa7b674-af0b-4e85-bdc6-59a388429636"},"vehicle_type_id":"4","last_reported":1718295068,"current_range_meters":8800,"station_id":"","pricing_plan_id":"cebpf4jnsgd1na2vs0mg"},{"bike_id":"abd3f0ce-c6ea-488c-9dab-5e84a5d28020","system_id":"levelo_inurba_marseille","lat":43.3153,"lon":5.38038,"is_reserved":false,"is_disabled":false,"rental_uris":{"android":"levelo://app?vid=abd3f0ce-c6ea-488c-9dab-5e84a5d28020","ios":"levelo://app?vid=abd3f0ce-c6ea-488c-9dab-5e84a5d28020"},"vehicle_type_id":"4","last_reported":1718295068,"current_range_meters":18000,"station_id":"ce4bhsp2rcd13ifvqi50","pricing_plan_id":"cebpf4jnsgd1na2vs0mg"},{"bike_id":"1f067e65-d96a-4bf7-b927-8071b57519ea","system_id":"levelo_inurba_marseille","lat":43.3153,"lon":5.38038,"is_reserved":false,"is_disabled":false,"rental_uris":{"android":"levelo://app?vid=1f067e65-d96a-4bf7-b927-8071b57519ea","ios":"levelo://app?vid=1f067e65-d96a-4bf7-b927-8071b57519ea"},"vehicle_type_id":"4","last_reported":1718295068,"current_range_meters":10800,"station_id":"ce4bhsp2rcd13ifvqi50","pricing_plan_id":"cebpf4jnsgd1na2vs0mg"},{"bike_id":"b6118095-6df8-4822-96b1-23264067271e","system_id":"levelo_inurba_marseille","lat":43.315289,"lon":5.380349,"is_reserved":false,"is_disabled":false,"rental_uris":{"android":"levelo://app?vid=b6118095-6df8-4822-96b1-23264067271e","ios":"levelo://app?vid=b6118095-6df8-4822-96b1-23264067271e"},"vehicle_type_id":"4","last_reported":1718295068,"current_range_meters":5200,"station_id":"ce4bhsp2rcd13ifvqi50","pricing_plan_id":"cebpf4jnsgd1na2vs0mg"},{"bike_id":"d5f8e2b3-8f1f-4381-b6f1-69a0f5ef252d","system_id":"levelo_inurba_marseille","lat":43.301939,"lon":5.366286,"is_reserved":false,"is_disabled":false,"rental_uris":{"android":"levelo://app?vid=d5f8e2b3-8f1f-4381-b6f1-69a0f5ef252d","ios":"levelo://app?vid=d5f8e2b3-8f1f-4381-b6f1-69a0f5ef252d"},"vehicle_type_id":"4","last_reported":1718295068,"current_range_meters":15600,"station_id":"ce4bgrh2rcd13ifvqc8g","pricing_plan_id":"cebpf4jnsgd1na2vs0mg"},{"bike_id":"d07e785e-6dee-49ab-be39-6f1cdc861e0e","system_id":"levelo_inurba_marseille","lat":43.301939,"lon":5.366286,"is_reserved":false,"is_disabled":false,"rental_uris":{"android":"levelo://app?vid=d07e785e-6dee-49ab-be39-6f1cdc861e0e","ios":"levelo://app?vid=d07e785e-6dee-49ab-be39-6f1cdc861e0e"},"vehicle_type_id":"4","last_reported":1718295068,"current_range_meters":14400,"station_id":"ce4bgrh2rcd13ifvqc8g","pricing_plan_id":"cebpf4jnsgd1na2vs0mg"},{"bike_id":"efb4ab73-27a7-49a0-8d87-2d01367044b4","system_id":"levelo_inurba_marseille","lat":43.30188,"lon":5.36628,"is_reserved":false,"is_disabled":false,"rental_uris":{"android":"levelo://app?vid=efb4ab73-27a7-49a0-8d87-2d01367044b4","ios":"levelo://app?vid=efb4ab73-27a7-49a0-8d87-2d01367044b4"},"vehicle_type_id":"4","last_reported":1718295068,"current_range_meters":26000,"station_id":"","pricing_plan_id":"cebpf4jnsgd1na2vs0mg"},{"bike_id":"3de49d17-86a3-41c3-8ae8-c5cf0bc3569a","system_id":"levelo_inurba_marseille","lat":43.30174,"lon":5.36626,"is_reserved":false,"is_disabled":false,"rental_uris":{"android":"levelo://app?vid=3de49d17-86a3-41c3-8ae8-c5cf0bc3569a","ios":"levelo://app?vid=3de49d17-86a3-41c3-8ae8-c5cf0bc3569a"},"vehicle_type_id":"4","last_reported":1718295068,"current_range_meters":0,"station_id":"ce4bgrh2rcd13ifvqc8g","pricing_plan_id":"cebpf4jnsgd1na2vs0mg"},{"bike_id":"948e6cbc-6844-461a-bd79-f19c9fc8ecd4","system_id":"levelo_inurba_marseille","lat":43.308012,"lon":5.381511,"is_reserved":false,"is_disabled":false,"rental_uris":{"android":"levelo://app?vid=948e6cbc-6844-461a-bd79-f19c9fc8ecd4","ios":"levelo://app?vid=948e6cbc-6844-461a-bd79-f19c9fc8ecd4"},"vehicle_type_id":"4","last_reported":1718295068,"current_range_meters":0,"station_id":"ce4bgt12rcd13ifvqce0","pricing_plan_id":"cebpf4jnsgd1na2vs0mg"},{"bike_id":"431f1068-9b02-4c11-b507-6fba9571907d","system_id":"levelo_inurba_marseille","lat":43.304606,"lon":5.379026,"is_reserved":false,"is_disabled":false,"rental_uris":{"android":"levelo://app?vid=431f1068-9b02-4c11-b507-6fba9571907d","ios":"levelo://app?vid=431f1068-9b02-4c11-b507-6fba9571907d"},"vehicle_type_id":"4","last_reported":1718295068,"current_range_meters":0,"station_id":"ce4bgup2rcd13ifvqcn0","pricing_plan_id":"cebpf4jnsgd1na2vs0mg"},{"bike_id":"89c4131e-373e-4a53-9fac-73d213c0c046","system_id":"levelo_inurba_marseille","lat":43.324771,"lon":5.36557,"is_reserved":false,"is_disabled":false,"rental_uris":{"android":"levelo://app?vid=89c4131e-373e-4a53-9fac-73d213c0c046","ios":"levelo://app?vid=89c4131e-373e-4a53-9fac-73d213c0c046"},"vehicle_type_id":"4","last_reported":1718295068,"current_range_meters":14400,"station_id":"ce4bhs12rcd13ifvqhvg","pricing_plan_id":"cebpf4jnsgd1na2vs0mg"},{"bike_id":"5be4b990-c8c4-4614-b242-e15f3664177a","system_id":"levelo_inurba_marseille","lat":43.324771,"lon":5.36557,"is_reserved":false,"is_disabled":false,"rental_uris":{"android":"levelo://app?vid=5be4b990-c8c4-4614-b242-e15f3664177a","ios":"levelo://app?vid=5be4b990-c8c4-4614-b242-e15f3664177a"},"vehicle_type_id":"4","last_reported":1718295068,"current_range_meters":13600,"station_id":"ce4bhs12rcd13ifvqhvg","pricing_plan_id":"cebpf4jnsgd1na2vs0mg"},{"bike_id":"511c518a-f6d2-4ffa-b235-90b75af5e615","system_id":"levelo_inurba_marseille","lat":43.324771,"lon":5.36557,"is_reserved":false,"is_disabled":false,"rental_uris":{"android":"levelo://app?vid=511c518a-f6d2-4ffa-b235-90b75af5e615","ios":"levelo://app?vid=511c518a-f6d2-4ffa-b235-90b75af5e615"},"vehicle_type_id":"4","last_reported":1718295068,"current_range_meters":14800,"station_id":"ce4bhs12rcd13ifvqhvg","pricing_plan_id":"cebpf4jnsgd1na2vs0mg"},{"bike_id":"55f18821-3924-464d-9e7f-ffb838150c38","system_id":"levelo_inurba_marseille","lat":43.324771,"lon":5.36557,"is_reserved":false,"is_disabled":false,"rental_uris":{"android":"levelo://app?vid=55f18821-3924-464d-9e7f-ffb838150c38","ios":"levelo://app?vid=55f18821-3924-464d-9e7f-ffb838150c38"},"vehicle_type_id":"4","last_reported":1718295068,"current_range_meters":0,"station_id":"ce4bhs12rcd13ifvqhvg","pricing_plan_id":"cebpf4jnsgd1na2vs0mg"},{"bike_id":"6d4fbdf9-b77e-40d4-b711-147d26ec3d92","system_id":"levelo_inurba_marseille","lat":43.324771,"lon":5.36557,"is_reserved":false,"is_disabled":false,"rental_uris":{"android":"levelo://app?vid=6d4fbdf9-b77e-40d4-b711-147d26ec3d92","ios":"levelo://app?vid=6d4fbdf9-b77e-40d4-b711-147d26ec3d92"},"vehicle_type_id":"4","last_reported":1718295068,"current_range_meters":6400,"station_id":"ce4bhs12rcd13ifvqhvg","pricing_plan_id":"cebpf4jnsgd1na2vs0mg"},{"bike_id":"58419a0f-118d-4f45-9ac7-aae8039e1893","system_id":"levelo_inurba_marseille","lat":43.324771,"lon":5.36557,"is_reserved":false,"is_disabled":false,"rental_uris":{"android":"levelo://app?vid=58419a0f-118d-4f45-9ac7-aae8039e1893","ios":"levelo://app?vid=58419a0f-118d-4f45-9ac7-aae8039e1893"},"vehicle_type_id":"4","last_reported":1718295068,"current_range_meters":24000,"station_id":"ce4bhs12rcd13ifvqhvg","pricing_plan_id":"cebpf4jnsgd1na2vs0mg"},{"bike_id":"3273d515-b01d-4214-b20a-10459751b171","system_id":"levelo_inurba_marseille","lat":43.324771,"lon":5.36557,"is_reserved":false,"is_disabled":false,"rental_uris":{"android":"levelo://app?vid=3273d515-b01d-4214-b20a-10459751b171","ios":"levelo://app?vid=3273d515-b01d-4214-b20a-10459751b171"},"vehicle_type_id":"4","last_reported":1718295068,"current_range_meters":10000,"station_id":"ce4bhs12rcd13ifvqhvg","pricing_plan_id":"cebpf4jnsgd1na2vs0mg"},{"bike_id":"feeac2dc-693e-4ae6-8cdb-6f0dcc701dc6","system_id":"levelo_inurba_marseille","lat":43.324771,"lon":5.36557,"is_reserved":false,"is_disabled":false,"rental_uris":{"android":"levelo://app?vid=feeac2dc-693e-4ae6-8cdb-6f0dcc701dc6","ios":"levelo://app?vid=feeac2dc-693e-4ae6-8cdb-6f0dcc701dc6"},"vehicle_type_id":"4","last_reported":1718295068,"current_range_meters":28400,"station_id":"ce4bhs12rcd13ifvqhvg","pricing_plan_id":"cebpf4jnsgd1na2vs0mg"},{"bike_id":"9d8d6f44-38de-44be-8639-c02166f293b3","system_id":"levelo_inurba_marseille","lat":43.324771,"lon":5.36557,"is_reserved":false,"is_disabled":false,"rental_uris":{"android":"levelo://app?vid=9d8d6f44-38de-44be-8639-c02166f293b3","ios":"levelo://app?vid=9d8d6f44-38de-44be-8639-c02166f293b3"},"vehicle_type_id":"4","last_reported":1718295068,"current_range_meters":10000,"station_id":"ce4bhs12rcd13ifvqhvg","pricing_plan_id":"cebpf4jnsgd1na2vs0mg"},{"bike_id":"02f7ce58-e8a0-4068-85c7-b7685229a92f","system_id":"levelo_inurba_marseille","lat":43.324771,"lon":5.36557,"is_reserved":false,"is_disabled":false,"rental_uris":{"android":"levelo://app?vid=02f7ce58-e8a0-4068-85c7-b7685229a92f","ios":"levelo://app?vid=02f7ce58-e8a0-4068-85c7-b7685229a92f"},"vehicle_type_id":"4","last_reported":1718295068,"current_range_meters":11600,"station_id":"ce4bhs12rcd13ifvqhvg","pricing_plan_id":"cebpf4jnsgd1na2vs0mg"},{"bike_id":"0366c31a-9aa0-44c3-8030-acc2445d356e","system_id":"levelo_inurba_marseille","lat":43.301429,"lon":5.37413,"is_reserved":false,"is_disabled":false,"rental_uris":{"android":"levelo://app?vid=0366c31a-9aa0-44c3-8030-acc2445d356e","ios":"levelo://app?vid=0366c31a-9aa0-44c3-8030-acc2445d356e"},"vehicle_type_id":"4","last_reported":1718295068,"current_range_meters":23200,"station_id":"ce4bgs92rcd13ifvqcc0","pricing_plan_id":"cebpf4jnsgd1na2vs0mg"},{"bike_id":"76cb65a1-5dd1-4554-9256-579da5c71db9","system_id":"levelo_inurba_marseille","lat":43.31074,"lon":5.38353,"is_reserved":false,"is_disabled":false,"rental_uris":{"android":"levelo://app?vid=76cb65a1-5dd1-4554-9256-579da5c71db9","ios":"levelo://app?vid=76cb65a1-5dd1-4554-9256-579da5c71db9"},"vehicle_type_id":"4","last_reported":1718295068,"current_range_meters":0,"station_id":"ce4bgv92rcd13ifvqcr0","pricing_plan_id":"cebpf4jnsgd1na2vs0mg"},{"bike_id":"b151bdde-c5a5-41c3-9a48-6fc7fe898e25","system_id":"levelo_inurba_marseille","lat":43.30146,"lon":5.37421,"is_reserved":false,"is_disabled":false,"rental_uris":{"android":"levelo://app?vid=b151bdde-c5a5-41c3-9a48-6fc7fe898e25","ios":"levelo://app?vid=b151bdde-c5a5-41c3-9a48-6fc7fe898e25"},"vehicle_type_id":"4","last_reported":1718295068,"current_range_meters":4400,"station_id":"ce4bgs92rcd13ifvqcc0","pricing_plan_id":"cebpf4jnsgd1na2vs0mg"},{"bike_id":"dc663e9e-69ec-46ad-8d53-e3d28e0ba7b3","system_id":"levelo_inurba_marseille","lat":43.319935,"lon":5.381699,"is_reserved":false,"is_disabled":false,"rental_uris":{"android":"levelo://app?vid=dc663e9e-69ec-46ad-8d53-e3d28e0ba7b3","ios":"levelo://app?vid=dc663e9e-69ec-46ad-8d53-e3d28e0ba7b3"},"vehicle_type_id":"4","last_reported":1718295068,"current_range_meters":17600,"station_id":"ce4bhr12rcd13ifvqhpg","pricing_plan_id":"cebpf4jnsgd1na2vs0mg"},{"bike_id":"c14e2cca-9f82-4dac-8058-a130e9a1a887","system_id":"levelo_inurba_marseille","lat":43.319935,"lon":5.381699,"is_reserved":false,"is_disabled":false,"rental_uris":{"android":"levelo://app?vid=c14e2cca-9f82-4dac-8058-a130e9a1a887","ios":"levelo://app?vid=c14e2cca-9f82-4dac-8058-a130e9a1a887"},"vehicle_type_id":"4","last_reported":1718295068,"current_range_meters":0,"station_id":"ce4bhr12rcd13ifvqhpg","pricing_plan_id":"cebpf4jnsgd1na2vs0mg"},{"bike_id":"1b044118-06b5-4175-a608-7fc3ed8c406b","system_id":"levelo_inurba_marseille","lat":43.32002,"lon":5.38153,"is_reserved":false,"is_disabled":false,"rental_uris":{"android":"levelo://app?vid=1b044118-06b5-4175-a608-7fc3ed8c406b","ios":"levelo://app?vid=1b044118-06b5-4175-a608-7fc3ed8c406b"},"vehicle_type_id":"4","last_reported":1718295068,"current_range_meters":0,"station_id":"ce4bhr12rcd13ifvqhpg","pricing_plan_id":"cebpf4jnsgd1na2vs0mg"},{"bike_id":"89b389ca-ea80-47f6-a0de-dca6d4a912ae","system_id":"levelo_inurba_marseille","lat":43.299724,"lon":5.371829,"is_reserved":false,"is_disabled":false,"rental_uris":{"android":"levelo://app?vid=89b389ca-ea80-47f6-a0de-dca6d4a912ae","ios":"levelo://app?vid=89b389ca-ea80-47f6-a0de-dca6d4a912ae"},"vehicle_type_id":"4","last_reported":1718295068,"current_range_meters":4000,"station_id":"ce4bgr92rcd13ifvqc7g","pricing_plan_id":"cebpf4jnsgd1na2vs0mg"},{"bike_id":"ee91032f-a65a-4445-a391-06c8dcb9b1eb","system_id":"levelo_inurba_marseille","lat":43.29982,"lon":5.37179,"is_reserved":false,"is_disabled":false,"rental_uris":{"android":"levelo://app?vid=ee91032f-a65a-4445-a391-06c8dcb9b1eb","ios":"levelo://app?vid=ee91032f-a65a-4445-a391-06c8dcb9b1eb"},"vehicle_type_id":"4","last_reported":1718295068,"current_range_meters":8400,"station_id":"ce4bgr92rcd13ifvqc7g","pricing_plan_id":"cebpf4jnsgd1na2vs0mg"},{"bike_id":"61269d4c-9045-4c78-8b1a-64137afc058a","system_id":"levelo_inurba_marseille","lat":43.29939,"lon":5.36535,"is_reserved":false,"is_disabled":false,"rental_uris":{"android":"levelo://app?vid=61269d4c-9045-4c78-8b1a-64137afc058a","ios":"levelo://app?vid=61269d4c-9045-4c78-8b1a-64137afc058a"},"vehicle_type_id":"4","last_reported":1718295068,"current_range_meters":16400,"station_id":"ce4bgm92rcd13ifvqbr0","pricing_plan_id":"cebpf4jnsgd1na2vs0mg"},{"bike_id":"ee993830-c7df-405e-b22e-534267d3ce08","system_id":"levelo_inurba_marseille","lat":43.299222,"lon":5.365554,"is_reserved":false,"is_disabled":false,"rental_uris":{"android":"levelo://app?vid=ee993830-c7df-405e-b22e-534267d3ce08","ios":"levelo://app?vid=ee993830-c7df-405e-b22e-534267d3ce08"},"vehicle_type_id":"4","last_reported":1718295068,"current_range_meters":9600,"station_id":"ce4bgm92rcd13ifvqbr0","pricing_plan_id":"cebpf4jnsgd1na2vs0mg"},{"bike_id":"b3149bf0-2ce2-414c-9e5b-9bb7e3edbb2c","system_id":"levelo_inurba_marseille","lat":43.299724,"lon":5.371829,"is_reserved":false,"is_disabled":false,"rental_uris":{"android":"levelo://app?vid=b3149bf0-2ce2-414c-9e5b-9bb7e3edbb2c","ios":"levelo://app?vid=b3149bf0-2ce2-414c-9e5b-9bb7e3edbb2c"},"vehicle_type_id":"4","last_reported":1718295068,"current_range_meters":4000,"station_id":"ce4bgr92rcd13ifvqc7g","pricing_plan_id":"cebpf4jnsgd1na2vs0mg"},{"bike_id":"ac88d9f4-66b2-4fc0-b66d-b66d89413566","system_id":"levelo_inurba_marseille","lat":43.305389,"lon":5.383693,"is_reserved":false,"is_disabled":false,"rental_uris":{"android":"levelo://app?vid=ac88d9f4-66b2-4fc0-b66d-b66d89413566","ios":"levelo://app?vid=ac88d9f4-66b2-4fc0-b66d-b66d89413566"},"vehicle_type_id":"4","last_reported":1718295068,"current_range_meters":6000,"station_id":"ce4bgg92rcd13ifvqb30","pricing_plan_id":"cebpf4jnsgd1na2vs0mg"},{"bike_id":"8af8f6f8-6633-4c41-8018-bed5cef6c54c","system_id":"levelo_inurba_marseille","lat":43.298433,"lon":5.362774,"is_reserved":false,"is_disabled":false,"rental_uris":{"android":"levelo://app?vid=8af8f6f8-6633-4c41-8018-bed5cef6c54c","ios":"levelo://app?vid=8af8f6f8-6633-4c41-8018-bed5cef6c54c"},"vehicle_type_id":"4","last_reported":1718295068,"current_range_meters":800,"station_id":"ce4bgpp2rcd13ifvqc3g","pricing_plan_id":"cebpf4jnsgd1na2vs0mg"},{"bike_id":"0be1291d-f02c-4303-b1df-bd61c877f33b","system_id":"levelo_inurba_marseille","lat":43.298433,"lon":5.362774,"is_reserved":false,"is_disabled":false,"rental_uris":{"android":"levelo://app?vid=0be1291d-f02c-4303-b1df-bd61c877f33b","ios":"levelo://app?vid=0be1291d-f02c-4303-b1df-bd61c877f33b"},"vehicle_type_id":"4","last_reported":1718295068,"current_range_meters":20800,"station_id":"ce4bgpp2rcd13ifvqc3g","pricing_plan_id":"cebpf4jnsgd1na2vs0mg"},{"bike_id":"73162478-3d25-4069-8e83-755706d9a852","system_id":"levelo_inurba_marseille","lat":43.298433,"lon":5.362774,"is_reserved":false,"is_disabled":false,"rental_uris":{"android":"levelo://app?vid=73162478-3d25-4069-8e83-755706d9a852","ios":"levelo://app?vid=73162478-3d25-4069-8e83-755706d9a852"},"vehicle_type_id":"4","last_reported":1718295068,"current_range_meters":7600,"station_id":"ce4bgpp2rcd13ifvqc3g","pricing_plan_id":"cebpf4jnsgd1na2vs0mg"},{"bike_id":"ffbfb003-63bb-4e35-8243-a5025714bcea","system_id":"levelo_inurba_marseille","lat":43.31071,"lon":5.38683,"is_reserved":false,"is_disabled":false,"rental_uris":{"android":"levelo://app?vid=ffbfb003-63bb-4e35-8243-a5025714bcea","ios":"levelo://app?vid=ffbfb003-63bb-4e35-8243-a5025714bcea"},"vehicle_type_id":"4","last_reported":1718295068,"current_range_meters":10400,"station_id":"","pricing_plan_id":"cebpf4jnsgd1na2vs0mg"},{"bike_id":"d8bff899-0992-4369-b382-e454f3eeb817","system_id":"levelo_inurba_marseille","lat":43.305364,"lon":5.384119,"is_reserved":false,"is_disabled":false,"rental_uris":{"android":"levelo://app?vid=d8bff899-0992-4369-b382-e454f3eeb817","ios":"levelo://app?vid=d8bff899-0992-4369-b382-e454f3eeb817"},"vehicle_type_id":"4","last_reported":1718295068,"current_range_meters":19600,"station_id":"ce4bgg92rcd13ifvqb30","pricing_plan_id":"cebpf4jnsgd1na2vs0mg"},{"bike_id":"4c4dff6c-46f4-4419-9a19-2f8b248d0acf","system_id":"levelo_inurba_marseille","lat":43.299243,"lon":5.374807,"is_reserved":false,"is_disabled":false,"rental_uris":{"android":"levelo://app?vid=4c4dff6c-46f4-4419-9a19-2f8b248d0acf","ios":"levelo://app?vid=4c4dff6c-46f4-4419-9a19-2f8b248d0acf"},"vehicle_type_id":"4","last_reported":1718295068,"current_range_meters":30400,"station_id":"ce4bgjh2rcd13ifvqbg0","pricing_plan_id":"cebpf4jnsgd1na2vs0mg"},{"bike_id":"d136f7dd-9557-47c0-8fce-276fe20d3f5a","system_id":"levelo_inurba_marseille","lat":43.297794,"lon":5.370888,"is_reserved":false,"is_disabled":false,"rental_uris":{"android":"levelo://app?vid=d136f7dd-9557-47c0-8fce-276fe20d3f5a","ios":"levelo://app?vid=d136f7dd-9557-47c0-8fce-276fe20d3f5a"},"vehicle_type_id":"4","last_reported":1718295068,"current_range_meters":4800,"station_id":"ce4bgop2rcd13ifvqc1g","pricing_plan_id":"cebpf4jnsgd1na2vs0mg"},{"bike_id":"dc2a440e-aaf6-41df-9b73-a3af7f9032fa","system_id":"levelo_inurba_marseille","lat":43.297882,"lon":5.371304,"is_reserved":false,"is_disabled":false,"rental_uris":{"android":"levelo://app?vid=dc2a440e-aaf6-41df-9b73-a3af7f9032fa","ios":"levelo://app?vid=dc2a440e-aaf6-41df-9b73-a3af7f9032fa"},"vehicle_type_id":"4","last_reported":1718295068,"current_range_meters":22800,"station_id":"ce4bgop2rcd13ifvqc1g","pricing_plan_id":"cebpf4jnsgd1na2vs0mg"},{"bike_id":"d460f91c-a8b5-4b7a-8a9f-cb05a28a5386","system_id":"levelo_inurba_marseille","lat":43.322872,"lon":5.382756,"is_reserved":false,"is_disabled":false,"rental_uris":{"android":"levelo://app?vid=d460f91c-a8b5-4b7a-8a9f-cb05a28a5386","ios":"levelo://app?vid=d460f91c-a8b5-4b7a-8a9f-cb05a28a5386"},"vehicle_type_id":"4","last_reported":1718295068,"current_range_meters":18800,"station_id":"ce4bhr12rcd13ifvqhqg","pricing_plan_id":"cebpf4jnsgd1na2vs0mg"},{"bike_id":"4b475360-1664-422f-bb6b-8d52e94464e5","system_id":"levelo_inurba_marseille","lat":43.322872,"lon":5.382756,"is_reserved":false,"is_disabled":false,"rental_uris":{"android":"levelo://app?vid=4b475360-1664-422f-bb6b-8d52e94464e5","ios":"levelo://app?vid=4b475360-1664-422f-bb6b-8d52e94464e5"},"vehicle_type_id":"4","last_reported":1718295068,"current_range_meters":4400,"station_id":"ce4bhr12rcd13ifvqhqg","pricing_plan_id":"cebpf4jnsgd1na2vs0mg"},{"bike_id":"55c7ce89-3c79-4cd5-9c5b-80244f47ba3d","system_id":"levelo_inurba_marseille","lat":43.32289,"lon":5.38277,"is_reserved":false,"is_disabled":false,"rental_uris":{"android":"levelo://app?vid=55c7ce89-3c79-4cd5-9c5b-80244f47ba3d","ios":"levelo://app?vid=55c7ce89-3c79-4cd5-9c5b-80244f47ba3d"},"vehicle_type_id":"4","last_reported":1718295068,"current_range_meters":15600,"station_id":"ce4bhr12rcd13ifvqhqg","pricing_plan_id":"cebpf4jnsgd1na2vs0mg"},{"bike_id":"06312afb-5ce3-489f-98d0-827271fc0e89","system_id":"levelo_inurba_marseille","lat":43.297163,"lon":5.365866,"is_reserved":false,"is_disabled":false,"rental_uris":{"android":"levelo://app?vid=06312afb-5ce3-489f-98d0-827271fc0e89","ios":"levelo://app?vid=06312afb-5ce3-489f-98d0-827271fc0e89"},"vehicle_type_id":"4","last_reported":1718295068,"current_range_meters":16000,"station_id":"ce4bgn12rcd13ifvqbt0","pricing_plan_id":"cebpf4jnsgd1na2vs0mg"},{"bike_id":"9a8bcfde-9ba0-4ca3-a9cd-b55ab07f382e","system_id":"levelo_inurba_marseille","lat":43.322872,"lon":5.382756,"is_reserved":false,"is_disabled":false,"rental_uris":{"android":"levelo://app?vid=9a8bcfde-9ba0-4ca3-a9cd-b55ab07f382e","ios":"levelo://app?vid=9a8bcfde-9ba0-4ca3-a9cd-b55ab07f382e"},"vehicle_type_id":"4","last_reported":1718295068,"current_range_meters":30800,"station_id":"ce4bhr12rcd13ifvqhqg","pricing_plan_id":"cebpf4jnsgd1na2vs0mg"},{"bike_id":"60941c77-ffbd-4caa-a965-a458fda04f65","system_id":"levelo_inurba_marseille","lat":43.297163,"lon":5.365866,"is_reserved":false,"is_disabled":false,"rental_uris":{"android":"levelo://app?vid=60941c77-ffbd-4caa-a965-a458fda04f65","ios":"levelo://app?vid=60941c77-ffbd-4caa-a965-a458fda04f65"},"vehicle_type_id":"4","last_reported":1718295068,"current_range_meters":23200,"station_id":"ce4bgn12rcd13ifvqbt0","pricing_plan_id":"cebpf4jnsgd1na2vs0mg"},{"bike_id":"006ed2f9-9978-42e7-9e38-99475b69b5d7","system_id":"levelo_inurba_marseille","lat":43.297163,"lon":5.365866,"is_reserved":false,"is_disabled":false,"rental_uris":{"android":"levelo://app?vid=006ed2f9-9978-42e7-9e38-99475b69b5d7","ios":"levelo://app?vid=006ed2f9-9978-42e7-9e38-99475b69b5d7"},"vehicle_type_id":"4","last_reported":1718295068,"current_range_meters":24800,"station_id":"ce4bgn12rcd13ifvqbt0","pricing_plan_id":"cebpf4jnsgd1na2vs0mg"},{"bike_id":"64c6cbe0-bfb1-4c3b-ba28-ca8155087b1d","system_id":"levelo_inurba_marseille","lat":43.297163,"lon":5.365866,"is_reserved":false,"is_disabled":false,"rental_uris":{"android":"levelo://app?vid=64c6cbe0-bfb1-4c3b-ba28-ca8155087b1d","ios":"levelo://app?vid=64c6cbe0-bfb1-4c3b-ba28-ca8155087b1d"},"vehicle_type_id":"4","last_reported":1718295068,"current_range_meters":31200,"station_id":"ce4bgn12rcd13ifvqbt0","pricing_plan_id":"cebpf4jnsgd1na2vs0mg"},{"bike_id":"5bf18160-f256-4c78-9551-a39ebf7be630","system_id":"levelo_inurba_marseille","lat":43.297163,"lon":5.365866,"is_reserved":false,"is_disabled":false,"rental_uris":{"android":"levelo://app?vid=5bf18160-f256-4c78-9551-a39ebf7be630","ios":"levelo://app?vid=5bf18160-f256-4c78-9551-a39ebf7be630"},"vehicle_type_id":"4","last_reported":1718295068,"current_range_meters":19600,"station_id":"ce4bgn12rcd13ifvqbt0","pricing_plan_id":"cebpf4jnsgd1na2vs0mg"},{"bike_id":"c0060f42-4a77-435d-a05d-e7d5f804e05b","system_id":"levelo_inurba_marseille","lat":43.297163,"lon":5.365866,"is_reserved":false,"is_disabled":false,"rental_uris":{"android":"levelo://app?vid=c0060f42-4a77-435d-a05d-e7d5f804e05b","ios":"levelo://app?vid=c0060f42-4a77-435d-a05d-e7d5f804e05b"},"vehicle_type_id":"4","last_reported":1718295068,"current_range_meters":5600,"station_id":"ce4bgn12rcd13ifvqbt0","pricing_plan_id":"cebpf4jnsgd1na2vs0mg"},{"bike_id":"1254adf3-a9da-4ed8-807f-9fbc9a54bef8","system_id":"levelo_inurba_marseille","lat":43.297163,"lon":5.365866,"is_reserved":false,"is_disabled":false,"rental_uris":{"android":"levelo://app?vid=1254adf3-a9da-4ed8-807f-9fbc9a54bef8","ios":"levelo://app?vid=1254adf3-a9da-4ed8-807f-9fbc9a54bef8"},"vehicle_type_id":"4","last_reported":1718295068,"current_range_meters":1600,"station_id":"ce4bgn12rcd13ifvqbt0","pricing_plan_id":"cebpf4jnsgd1na2vs0mg"},{"bike_id":"8aa5b92e-e5c4-487c-b41b-b90b26ab089b","system_id":"levelo_inurba_marseille","lat":43.29705,"lon":5.36605,"is_reserved":false,"is_disabled":false,"rental_uris":{"android":"levelo://app?vid=8aa5b92e-e5c4-487c-b41b-b90b26ab089b","ios":"levelo://app?vid=8aa5b92e-e5c4-487c-b41b-b90b26ab089b"},"vehicle_type_id":"4","last_reported":1718295068,"current_range_meters":24000,"station_id":"ce4bgn12rcd13ifvqbt0","pricing_plan_id":"cebpf4jnsgd1na2vs0mg"},{"bike_id":"9b449bda-485a-4aa2-adfe-36c2463db181","system_id":"levelo_inurba_marseille","lat":43.297163,"lon":5.365866,"is_reserved":false,"is_disabled":false,"rental_uris":{"android":"levelo://app?vid=9b449bda-485a-4aa2-adfe-36c2463db181","ios":"levelo://app?vid=9b449bda-485a-4aa2-adfe-36c2463db181"},"vehicle_type_id":"4","last_reported":1718295068,"current_range_meters":25200,"station_id":"ce4bgn12rcd13ifvqbt0","pricing_plan_id":"cebpf4jnsgd1na2vs0mg"},{"bike_id":"25e3e616-9f6c-4f34-b03c-292d81e633b2","system_id":"levelo_inurba_marseille","lat":43.2968,"lon":5.37291,"is_reserved":false,"is_disabled":false,"rental_uris":{"android":"levelo://app?vid=25e3e616-9f6c-4f34-b03c-292d81e633b2","ios":"levelo://app?vid=25e3e616-9f6c-4f34-b03c-292d81e633b2"},"vehicle_type_id":"4","last_reported":1718295068,"current_range_meters":8800,"station_id":"ce4bgk12rcd13ifvqbj0","pricing_plan_id":"cebpf4jnsgd1na2vs0mg"},{"bike_id":"eb56b9ec-d07c-4ef7-a5ca-eea1662ea4e9","system_id":"levelo_inurba_marseille","lat":43.296251,"lon":5.371726,"is_reserved":false,"is_disabled":false,"rental_uris":{"android":"levelo://app?vid=eb56b9ec-d07c-4ef7-a5ca-eea1662ea4e9","ios":"levelo://app?vid=eb56b9ec-d07c-4ef7-a5ca-eea1662ea4e9"},"vehicle_type_id":"4","last_reported":1718295068,"current_range_meters":6000,"station_id":"ce4bgnh2rcd13ifvqc0g","pricing_plan_id":"cebpf4jnsgd1na2vs0mg"},{"bike_id":"16d8060f-8f4a-452f-ae2b-96ea11babd53","system_id":"levelo_inurba_marseille","lat":43.29573,"lon":5.367355,"is_reserved":false,"is_disabled":false,"rental_uris":{"android":"levelo://app?vid=16d8060f-8f4a-452f-ae2b-96ea11babd53","ios":"levelo://app?vid=16d8060f-8f4a-452f-ae2b-96ea11babd53"},"vehicle_type_id":"4","last_reported":1718295068,"current_range_meters":2800,"station_id":"ce4bgph2rcd13ifvqc2g","pricing_plan_id":"cebpf4jnsgd1na2vs0mg"},{"bike_id":"3113e42a-0f69-4588-b25d-09e6e81faa1e","system_id":"levelo_inurba_marseille","lat":43.29573,"lon":5.367355,"is_reserved":false,"is_disabled":false,"rental_uris":{"android":"levelo://app?vid=3113e42a-0f69-4588-b25d-09e6e81faa1e","ios":"levelo://app?vid=3113e42a-0f69-4588-b25d-09e6e81faa1e"},"vehicle_type_id":"4","last_reported":1718295068,"current_range_meters":6400,"station_id":"ce4bgph2rcd13ifvqc2g","pricing_plan_id":"cebpf4jnsgd1na2vs0mg"},{"bike_id":"cd340e00-a327-47a3-b248-eb0c8afa8521","system_id":"levelo_inurba_marseille","lat":43.29573,"lon":5.367355,"is_reserved":false,"is_disabled":false,"rental_uris":{"android":"levelo://app?vid=cd340e00-a327-47a3-b248-eb0c8afa8521","ios":"levelo://app?vid=cd340e00-a327-47a3-b248-eb0c8afa8521"},"vehicle_type_id":"4","last_reported":1718295068,"current_range_meters":0,"station_id":"ce4bgph2rcd13ifvqc2g","pricing_plan_id":"cebpf4jnsgd1na2vs0mg"},{"bike_id":"fa0947b1-c2f8-4ff2-b14b-58ad1347d196","system_id":"levelo_inurba_marseille","lat":43.296131,"lon":5.370773,"is_reserved":false,"is_disabled":false,"rental_uris":{"android":"levelo://app?vid=fa0947b1-c2f8-4ff2-b14b-58ad1347d196","ios":"levelo://app?vid=fa0947b1-c2f8-4ff2-b14b-58ad1347d196"},"vehicle_type_id":"4","last_reported":1718295068,"current_range_meters":7200,"station_id":"ce4bgnh2rcd13ifvqc0g","pricing_plan_id":"cebpf4jnsgd1na2vs0mg"},{"bike_id":"ce63096a-dedb-4a33-8515-2c19381f391c","system_id":"levelo_inurba_marseille","lat":43.29573,"lon":5.367355,"is_reserved":false,"is_disabled":false,"rental_uris":{"android":"levelo://app?vid=ce63096a-dedb-4a33-8515-2c19381f391c","ios":"levelo://app?vid=ce63096a-dedb-4a33-8515-2c19381f391c"},"vehicle_type_id":"4","last_reported":1718295068,"current_range_meters":32000,"station_id":"ce4bgph2rcd13ifvqc2g","pricing_plan_id":"cebpf4jnsgd1na2vs0mg"},{"bike_id":"4857ea51-cdf7-4aa8-a3bb-43e42666c95b","system_id":"levelo_inurba_marseille","lat":43.296131,"lon":5.370773,"is_reserved":false,"is_disabled":false,"rental_uris":{"android":"levelo://app?vid=4857ea51-cdf7-4aa8-a3bb-43e42666c95b","ios":"levelo://app?vid=4857ea51-cdf7-4aa8-a3bb-43e42666c95b"},"vehicle_type_id":"4","last_reported":1718295068,"current_range_meters":21600,"station_id":"ce4bgnh2rcd13ifvqc0g","pricing_plan_id":"cebpf4jnsgd1na2vs0mg"},{"bike_id":"a026b0c8-9ad2-43c9-a5be-ffd60f6658e3","system_id":"levelo_inurba_marseille","lat":43.296131,"lon":5.370791,"is_reserved":false,"is_disabled":false,"rental_uris":{"android":"levelo://app?vid=a026b0c8-9ad2-43c9-a5be-ffd60f6658e3","ios":"levelo://app?vid=a026b0c8-9ad2-43c9-a5be-ffd60f6658e3"},"vehicle_type_id":"4","last_reported":1718295068,"current_range_meters":4800,"station_id":"ce4bgnh2rcd13ifvqc0g","pricing_plan_id":"cebpf4jnsgd1na2vs0mg"},{"bike_id":"0542f742-dae4-4ede-9f11-4ea889f81bca","system_id":"levelo_inurba_marseille","lat":43.29573,"lon":5.367355,"is_reserved":false,"is_disabled":false,"rental_uris":{"android":"levelo://app?vid=0542f742-dae4-4ede-9f11-4ea889f81bca","ios":"levelo://app?vid=0542f742-dae4-4ede-9f11-4ea889f81bca"},"vehicle_type_id":"4","last_reported":1718295068,"current_range_meters":18800,"station_id":"ce4bgph2rcd13ifvqc2g","pricing_plan_id":"cebpf4jnsgd1na2vs0mg"},{"bike_id":"b47da0fc-1c57-4503-9394-2ba3631915b8","system_id":"levelo_inurba_marseille","lat":43.29577,"lon":5.36736,"is_reserved":false,"is_disabled":false,"rental_uris":{"android":"levelo://app?vid=b47da0fc-1c57-4503-9394-2ba3631915b8","ios":"levelo://app?vid=b47da0fc-1c57-4503-9394-2ba3631915b8"},"vehicle_type_id":"4","last_reported":1718295068,"current_range_meters":1600,"station_id":"ce4bgph2rcd13ifvqc2g","pricing_plan_id":"cebpf4jnsgd1na2vs0mg"},{"bike_id":"32202fa4-1228-4a33-80b4-9c4f071fbca2","system_id":"levelo_inurba_marseille","lat":43.29774,"lon":5.37817,"is_reserved":false,"is_disabled":false,"rental_uris":{"android":"levelo://app?vid=32202fa4-1228-4a33-80b4-9c4f071fbca2","ios":"levelo://app?vid=32202fa4-1228-4a33-80b4-9c4f071fbca2"},"vehicle_type_id":"4","last_reported":1718295068,"current_range_meters":0,"station_id":"","pricing_plan_id":"cebpf4jnsgd1na2vs0mg"},{"bike_id":"8db5da9f-b915-4d77-9b1c-09d3c91f923d","system_id":"levelo_inurba_marseille","lat":43.317557,"lon":5.390173,"is_reserved":false,"is_disabled":false,"rental_uris":{"android":"levelo://app?vid=8db5da9f-b915-4d77-9b1c-09d3c91f923d","ios":"levelo://app?vid=8db5da9f-b915-4d77-9b1c-09d3c91f923d"},"vehicle_type_id":"4","last_reported":1718295068,"current_range_meters":10400,"station_id":"ce4bhqp2rcd13ifvqhng","pricing_plan_id":"cebpf4jnsgd1na2vs0mg"},{"bike_id":"b419d36a-c18c-44c0-84c1-a04866a6d650","system_id":"levelo_inurba_marseille","lat":43.298037,"lon":5.381066,"is_reserved":false,"is_disabled":false,"rental_uris":{"android":"levelo://app?vid=b419d36a-c18c-44c0-84c1-a04866a6d650","ios":"levelo://app?vid=b419d36a-c18c-44c0-84c1-a04866a6d650"},"vehicle_type_id":"4","last_reported":1718295068,"current_range_meters":31200,"station_id":"ce4bgip2rcd13ifvqbb0","pricing_plan_id":"cebpf4jnsgd1na2vs0mg"},{"bike_id":"99ce96a5-4e02-4d7f-bdad-ba438f78497a","system_id":"levelo_inurba_marseille","lat":43.298037,"lon":5.381066,"is_reserved":false,"is_disabled":false,"rental_uris":{"android":"levelo://app?vid=99ce96a5-4e02-4d7f-bdad-ba438f78497a","ios":"levelo://app?vid=99ce96a5-4e02-4d7f-bdad-ba438f78497a"},"vehicle_type_id":"4","last_reported":1718295068,"current_range_meters":30000,"station_id":"ce4bgip2rcd13ifvqbb0","pricing_plan_id":"cebpf4jnsgd1na2vs0mg"},{"bike_id":"d51789ea-eb04-4e0b-b0d1-a567aa1af80c","system_id":"levelo_inurba_marseille","lat":43.304606,"lon":5.379026,"is_reserved":false,"is_disabled":false,"rental_uris":{"android":"levelo://app?vid=d51789ea-eb04-4e0b-b0d1-a567aa1af80c","ios":"levelo://app?vid=d51789ea-eb04-4e0b-b0d1-a567aa1af80c"},"vehicle_type_id":"4","last_reported":1718295068,"current_range_meters":5600,"station_id":"ce4bgup2rcd13ifvqcn0","pricing_plan_id":"cebpf4jnsgd1na2vs0mg"},{"bike_id":"96c9ce83-4609-4e61-b56c-6345e6d9be72","system_id":"levelo_inurba_marseille","lat":43.295748,"lon":5.37522,"is_reserved":false,"is_disabled":false,"rental_uris":{"android":"levelo://app?vid=96c9ce83-4609-4e61-b56c-6345e6d9be72","ios":"levelo://app?vid=96c9ce83-4609-4e61-b56c-6345e6d9be72"},"vehicle_type_id":"4","last_reported":1718295068,"current_range_meters":0,"station_id":"ce4bgh92rcd13ifvqb50","pricing_plan_id":"cebpf4jnsgd1na2vs0mg"},{"bike_id":"8e24147d-977e-4922-a523-cefb3dffacc6","system_id":"levelo_inurba_marseille","lat":43.295748,"lon":5.37522,"is_reserved":false,"is_disabled":false,"rental_uris":{"android":"levelo://app?vid=8e24147d-977e-4922-a523-cefb3dffacc6","ios":"levelo://app?vid=8e24147d-977e-4922-a523-cefb3dffacc6"},"vehicle_type_id":"4","last_reported":1718295068,"current_range_meters":11200,"station_id":"ce4bgh92rcd13ifvqb50","pricing_plan_id":"cebpf4jnsgd1na2vs0mg"},{"bike_id":"cbeb3477-a5cf-41bb-9ee6-eb3375e58194","system_id":"levelo_inurba_marseille","lat":43.304274,"lon":5.388873,"is_reserved":false,"is_disabled":false,"rental_uris":{"android":"levelo://app?vid=cbeb3477-a5cf-41bb-9ee6-eb3375e58194","ios":"levelo://app?vid=cbeb3477-a5cf-41bb-9ee6-eb3375e58194"},"vehicle_type_id":"4","last_reported":1718295068,"current_range_meters":22000,"station_id":"ce4bgk12rcd13ifvqbi0","pricing_plan_id":"cebpf4jnsgd1na2vs0mg"},{"bike_id":"14919ee6-2f13-404a-95d2-19eecf04aca5","system_id":"levelo_inurba_marseille","lat":43.298037,"lon":5.381066,"is_reserved":false,"is_disabled":false,"rental_uris":{"android":"levelo://app?vid=14919ee6-2f13-404a-95d2-19eecf04aca5","ios":"levelo://app?vid=14919ee6-2f13-404a-95d2-19eecf04aca5"},"vehicle_type_id":"4","last_reported":1718295068,"current_range_meters":10000,"station_id":"ce4bgip2rcd13ifvqbb0","pricing_plan_id":"cebpf4jnsgd1na2vs0mg"},{"bike_id":"46f54cfa-e90d-4fcd-8466-8f4bf6a89dab","system_id":"levelo_inurba_marseille","lat":43.295748,"lon":5.37522,"is_reserved":false,"is_disabled":false,"rental_uris":{"android":"levelo://app?vid=46f54cfa-e90d-4fcd-8466-8f4bf6a89dab","ios":"levelo://app?vid=46f54cfa-e90d-4fcd-8466-8f4bf6a89dab"},"vehicle_type_id":"4","last_reported":1718295068,"current_range_meters":24000,"station_id":"ce4bgh92rcd13ifvqb50","pricing_plan_id":"cebpf4jnsgd1na2vs0mg"},{"bike_id":"2c527ec3-507f-46c2-868a-9cbd5a2281bd","system_id":"levelo_inurba_marseille","lat":43.298037,"lon":5.381066,"is_reserved":false,"is_disabled":false,"rental_uris":{"android":"levelo://app?vid=2c527ec3-507f-46c2-868a-9cbd5a2281bd","ios":"levelo://app?vid=2c527ec3-507f-46c2-868a-9cbd5a2281bd"},"vehicle_type_id":"4","last_reported":1718295068,"current_range_meters":30800,"station_id":"ce4bgip2rcd13ifvqbb0","pricing_plan_id":"cebpf4jnsgd1na2vs0mg"},{"bike_id":"d4271334-3be9-438b-8c7a-956254795e79","system_id":"levelo_inurba_marseille","lat":43.296277,"lon":5.377108,"is_reserved":false,"is_disabled":false,"rental_uris":{"android":"levelo://app?vid=d4271334-3be9-438b-8c7a-956254795e79","ios":"levelo://app?vid=d4271334-3be9-438b-8c7a-956254795e79"},"vehicle_type_id":"4","last_reported":1718295068,"current_range_meters":26800,"station_id":"ce4bgi92rcd13ifvqb90","pricing_plan_id":"cebpf4jnsgd1na2vs0mg"},{"bike_id":"ded6bf30-08c0-45d2-a164-7bc078b575f5","system_id":"levelo_inurba_marseille","lat":43.296263,"lon":5.377094,"is_reserved":false,"is_disabled":false,"rental_uris":{"android":"levelo://app?vid=ded6bf30-08c0-45d2-a164-7bc078b575f5","ios":"levelo://app?vid=ded6bf30-08c0-45d2-a164-7bc078b575f5"},"vehicle_type_id":"4","last_reported":1718295068,"current_range_meters":0,"station_id":"ce4bgi92rcd13ifvqb90","pricing_plan_id":"cebpf4jnsgd1na2vs0mg"},{"bike_id":"22985d28-a102-45fd-9923-3a070d07c11d","system_id":"levelo_inurba_marseille","lat":43.304274,"lon":5.388873,"is_reserved":false,"is_disabled":false,"rental_uris":{"android":"levelo://app?vid=22985d28-a102-45fd-9923-3a070d07c11d","ios":"levelo://app?vid=22985d28-a102-45fd-9923-3a070d07c11d"},"vehicle_type_id":"4","last_reported":1718295068,"current_range_meters":0,"station_id":"ce4bgk12rcd13ifvqbi0","pricing_plan_id":"cebpf4jnsgd1na2vs0mg"},{"bike_id":"19ab4dfa-5ddd-4a9e-8226-b29a57cbfcc0","system_id":"levelo_inurba_marseille","lat":43.295279,"lon":5.375048,"is_reserved":false,"is_disabled":false,"rental_uris":{"android":"levelo://app?vid=19ab4dfa-5ddd-4a9e-8226-b29a57cbfcc0","ios":"levelo://app?vid=19ab4dfa-5ddd-4a9e-8226-b29a57cbfcc0"},"vehicle_type_id":"4","last_reported":1718295068,"current_range_meters":3600,"station_id":"ce4bgkp2rcd13ifvqbmg","pricing_plan_id":"cebpf4jnsgd1na2vs0mg"},{"bike_id":"76547ec4-952a-4f31-ad2e-a508f80cb6b0","system_id":"levelo_inurba_marseille","lat":43.299707,"lon":5.384859,"is_reserved":false,"is_disabled":false,"rental_uris":{"android":"levelo://app?vid=76547ec4-952a-4f31-ad2e-a508f80cb6b0","ios":"levelo://app?vid=76547ec4-952a-4f31-ad2e-a508f80cb6b0"},"vehicle_type_id":"4","last_reported":1718295068,"current_range_meters":800,"station_id":"ce4bgj92rcd13ifvqbd0","pricing_plan_id":"cebpf4jnsgd1na2vs0mg"},{"bike_id":"78615857-2ff2-4696-ba39-330cc1a68af3","system_id":"levelo_inurba_marseille","lat":43.299724,"lon":5.384848,"is_reserved":false,"is_disabled":false,"rental_uris":{"android":"levelo://app?vid=78615857-2ff2-4696-ba39-330cc1a68af3","ios":"levelo://app?vid=78615857-2ff2-4696-ba39-330cc1a68af3"},"vehicle_type_id":"4","last_reported":1718295068,"current_range_meters":400,"station_id":"ce4bgj92rcd13ifvqbd0","pricing_plan_id":"cebpf4jnsgd1na2vs0mg"},{"bike_id":"ea505d16-f4be-4580-8125-b879848bf23c","system_id":"levelo_inurba_marseille","lat":43.295279,"lon":5.375048,"is_reserved":false,"is_disabled":false,"rental_uris":{"android":"levelo://app?vid=ea505d16-f4be-4580-8125-b879848bf23c","ios":"levelo://app?vid=ea505d16-f4be-4580-8125-b879848bf23c"},"vehicle_type_id":"4","last_reported":1718295068,"current_range_meters":29600,"station_id":"ce4bgkp2rcd13ifvqbmg","pricing_plan_id":"cebpf4jnsgd1na2vs0mg"},{"bike_id":"ca2dc6f4-6648-4c88-9534-fba834e967fc","system_id":"levelo_inurba_marseille","lat":43.295279,"lon":5.375048,"is_reserved":false,"is_disabled":false,"rental_uris":{"android":"levelo://app?vid=ca2dc6f4-6648-4c88-9534-fba834e967fc","ios":"levelo://app?vid=ca2dc6f4-6648-4c88-9534-fba834e967fc"},"vehicle_type_id":"4","last_reported":1718295068,"current_range_meters":30000,"station_id":"ce4bgkp2rcd13ifvqbmg","pricing_plan_id":"cebpf4jnsgd1na2vs0mg"},{"bike_id":"eb3571ce-e13d-4162-9844-6212dcb4a924","system_id":"levelo_inurba_marseille","lat":43.32367,"lon":5.388836,"is_reserved":false,"is_disabled":false,"rental_uris":{"android":"levelo://app?vid=eb3571ce-e13d-4162-9844-6212dcb4a924","ios":"levelo://app?vid=eb3571ce-e13d-4162-9844-6212dcb4a924"},"vehicle_type_id":"4","last_reported":1718295068,"current_range_meters":14400,"station_id":"ce4bhqp2rcd13ifvqhog","pricing_plan_id":"cebpf4jnsgd1na2vs0mg"},{"bike_id":"3a40ce28-29b3-45fb-b0ca-b67dc7c4402d","system_id":"levelo_inurba_marseille","lat":43.32365,"lon":5.38891,"is_reserved":false,"is_disabled":false,"rental_uris":{"android":"levelo://app?vid=3a40ce28-29b3-45fb-b0ca-b67dc7c4402d","ios":"levelo://app?vid=3a40ce28-29b3-45fb-b0ca-b67dc7c4402d"},"vehicle_type_id":"4","last_reported":1718295068,"current_range_meters":16800,"station_id":"ce4bhqp2rcd13ifvqhog","pricing_plan_id":"cebpf4jnsgd1na2vs0mg"},{"bike_id":"17326e77-7531-42a1-9c25-741c3e01313e","system_id":"levelo_inurba_marseille","lat":43.29602,"lon":5.381084,"is_reserved":false,"is_disabled":false,"rental_uris":{"android":"levelo://app?vid=17326e77-7531-42a1-9c25-741c3e01313e","ios":"levelo://app?vid=17326e77-7531-42a1-9c25-741c3e01313e"},"vehicle_type_id":"4","last_reported":1718295068,"current_range_meters":14400,"station_id":"ce4bgl12rcd13ifvqbo0","pricing_plan_id":"cebpf4jnsgd1na2vs0mg"},{"bike_id":"85414e07-56f2-4c7c-afdc-239e182df1b7","system_id":"levelo_inurba_marseille","lat":43.29602,"lon":5.381084,"is_reserved":false,"is_disabled":false,"rental_uris":{"android":"levelo://app?vid=85414e07-56f2-4c7c-afdc-239e182df1b7","ios":"levelo://app?vid=85414e07-56f2-4c7c-afdc-239e182df1b7"},"vehicle_type_id":"4","last_reported":1718295068,"current_range_meters":10400,"station_id":"ce4bgl12rcd13ifvqbo0","pricing_plan_id":"cebpf4jnsgd1na2vs0mg"},{"bike_id":"8ed5d686-5096-4c76-b86c-a9b3a5738522","system_id":"levelo_inurba_marseille","lat":43.29602,"lon":5.381084,"is_reserved":false,"is_disabled":false,"rental_uris":{"android":"levelo://app?vid=8ed5d686-5096-4c76-b86c-a9b3a5738522","ios":"levelo://app?vid=8ed5d686-5096-4c76-b86c-a9b3a5738522"},"vehicle_type_id":"4","last_reported":1718295068,"current_range_meters":15600,"station_id":"ce4bgl12rcd13ifvqbo0","pricing_plan_id":"cebpf4jnsgd1na2vs0mg"},{"bike_id":"bd6cc042-4104-4ea8-9896-8555d9caba74","system_id":"levelo_inurba_marseille","lat":43.29314,"lon":5.37189,"is_reserved":false,"is_disabled":false,"rental_uris":{"android":"levelo://app?vid=bd6cc042-4104-4ea8-9896-8555d9caba74","ios":"levelo://app?vid=bd6cc042-4104-4ea8-9896-8555d9caba74"},"vehicle_type_id":"4","last_reported":1718295068,"current_range_meters":0,"station_id":"ce4bgh92rcd13ifvqb40","pricing_plan_id":"cebpf4jnsgd1na2vs0mg"},{"bike_id":"7d05ac8b-ffaa-48f7-95c5-2a318fb43950","system_id":"levelo_inurba_marseille","lat":43.29306,"lon":5.37177,"is_reserved":false,"is_disabled":false,"rental_uris":{"android":"levelo://app?vid=7d05ac8b-ffaa-48f7-95c5-2a318fb43950","ios":"levelo://app?vid=7d05ac8b-ffaa-48f7-95c5-2a318fb43950"},"vehicle_type_id":"4","last_reported":1718295068,"current_range_meters":29600,"station_id":"ce4bgh92rcd13ifvqb40","pricing_plan_id":"cebpf4jnsgd1na2vs0mg"},{"bike_id":"d1d8f40a-b964-4f7e-811f-a717240c66f5","system_id":"levelo_inurba_marseille","lat":43.293009,"lon":5.374584,"is_reserved":false,"is_disabled":false,"rental_uris":{"android":"levelo://app?vid=d1d8f40a-b964-4f7e-811f-a717240c66f5","ios":"levelo://app?vid=d1d8f40a-b964-4f7e-811f-a717240c66f5"},"vehicle_type_id":"4","last_reported":1718295068,"current_range_meters":0,"station_id":"ce4bgi12rcd13ifvqb70","pricing_plan_id":"cebpf4jnsgd1na2vs0mg"},{"bike_id":"de14436b-5248-4848-80b3-e3decdc051f7","system_id":"levelo_inurba_marseille","lat":43.2936,"lon":5.37835,"is_reserved":false,"is_disabled":false,"rental_uris":{"android":"levelo://app?vid=de14436b-5248-4848-80b3-e3decdc051f7","ios":"levelo://app?vid=de14436b-5248-4848-80b3-e3decdc051f7"},"vehicle_type_id":"4","last_reported":1718295068,"current_range_meters":0,"station_id":"ce4bgjh2rcd13ifvqbf0","pricing_plan_id":"cebpf4jnsgd1na2vs0mg"},{"bike_id":"4cbf93b6-3296-46d1-a17e-c8a967064425","system_id":"levelo_inurba_marseille","lat":43.292311,"lon":5.360731,"is_reserved":false,"is_disabled":false,"rental_uris":{"android":"levelo://app?vid=4cbf93b6-3296-46d1-a17e-c8a967064425","ios":"levelo://app?vid=4cbf93b6-3296-46d1-a17e-c8a967064425"},"vehicle_type_id":"4","last_reported":1718295068,"current_range_meters":6000,"station_id":"ce4bhbh2rcd13ifvqeqg","pricing_plan_id":"cebpf4jnsgd1na2vs0mg"},{"bike_id":"3c387e5a-9e9e-44a0-a8e9-2dc53a34f192","system_id":"levelo_inurba_marseille","lat":43.292311,"lon":5.360731,"is_reserved":false,"is_disabled":false,"rental_uris":{"android":"levelo://app?vid=3c387e5a-9e9e-44a0-a8e9-2dc53a34f192","ios":"levelo://app?vid=3c387e5a-9e9e-44a0-a8e9-2dc53a34f192"},"vehicle_type_id":"4","last_reported":1718295068,"current_range_meters":23600,"station_id":"ce4bhbh2rcd13ifvqeqg","pricing_plan_id":"cebpf4jnsgd1na2vs0mg"},{"bike_id":"a426fcc2-fcb1-4906-8a81-1c76fe89fd7d","system_id":"levelo_inurba_marseille","lat":43.30085,"lon":5.390856,"is_reserved":false,"is_disabled":false,"rental_uris":{"android":"levelo://app?vid=a426fcc2-fcb1-4906-8a81-1c76fe89fd7d","ios":"levelo://app?vid=a426fcc2-fcb1-4906-8a81-1c76fe89fd7d"},"vehicle_type_id":"4","last_reported":1718295068,"current_range_meters":0,"station_id":"ce4bh192rcd13ifvqdb0","pricing_plan_id":"cebpf4jnsgd1na2vs0mg"},{"bike_id":"71ca20ba-d659-48f8-b32f-5b151cd85ef0","system_id":"levelo_inurba_marseille","lat":43.29228,"lon":5.360647,"is_reserved":false,"is_disabled":false,"rental_uris":{"android":"levelo://app?vid=71ca20ba-d659-48f8-b32f-5b151cd85ef0","ios":"levelo://app?vid=71ca20ba-d659-48f8-b32f-5b151cd85ef0"},"vehicle_type_id":"4","last_reported":1718295068,"current_range_meters":22000,"station_id":"ce4bhbh2rcd13ifvqeqg","pricing_plan_id":"cebpf4jnsgd1na2vs0mg"},{"bike_id":"80ecb474-92c7-4b3e-9c37-c0815188028a","system_id":"levelo_inurba_marseille","lat":43.292311,"lon":5.360731,"is_reserved":false,"is_disabled":false,"rental_uris":{"android":"levelo://app?vid=80ecb474-92c7-4b3e-9c37-c0815188028a","ios":"levelo://app?vid=80ecb474-92c7-4b3e-9c37-c0815188028a"},"vehicle_type_id":"4","last_reported":1718295068,"current_range_meters":30400,"station_id":"ce4bhbh2rcd13ifvqeqg","pricing_plan_id":"cebpf4jnsgd1na2vs0mg"},{"bike_id":"213ef39b-fa41-4670-92b8-e02521fc807c","system_id":"levelo_inurba_marseille","lat":43.292311,"lon":5.360731,"is_reserved":false,"is_disabled":false,"rental_uris":{"android":"levelo://app?vid=213ef39b-fa41-4670-92b8-e02521fc807c","ios":"levelo://app?vid=213ef39b-fa41-4670-92b8-e02521fc807c"},"vehicle_type_id":"4","last_reported":1718295068,"current_range_meters":24000,"station_id":"ce4bhbh2rcd13ifvqeqg","pricing_plan_id":"cebpf4jnsgd1na2vs0mg"},{"bike_id":"7920e57e-a17f-4a26-8d72-b4ad75f80542","system_id":"levelo_inurba_marseille","lat":43.292311,"lon":5.360731,"is_reserved":false,"is_disabled":false,"rental_uris":{"android":"levelo://app?vid=7920e57e-a17f-4a26-8d72-b4ad75f80542","ios":"levelo://app?vid=7920e57e-a17f-4a26-8d72-b4ad75f80542"},"vehicle_type_id":"4","last_reported":1718295068,"current_range_meters":21200,"station_id":"ce4bhbh2rcd13ifvqeqg","pricing_plan_id":"cebpf4jnsgd1na2vs0mg"},{"bike_id":"9dfc7b26-0caf-443a-99ae-46bec941935f","system_id":"levelo_inurba_marseille","lat":43.292311,"lon":5.360731,"is_reserved":false,"is_disabled":false,"rental_uris":{"android":"levelo://app?vid=9dfc7b26-0caf-443a-99ae-46bec941935f","ios":"levelo://app?vid=9dfc7b26-0caf-443a-99ae-46bec941935f"},"vehicle_type_id":"4","last_reported":1718295068,"current_range_meters":31200,"station_id":"ce4bhbh2rcd13ifvqeqg","pricing_plan_id":"cebpf4jnsgd1na2vs0mg"},{"bike_id":"99101c98-cc6e-43cc-ab2c-0b29cae80a33","system_id":"levelo_inurba_marseille","lat":43.29225,"lon":5.360667,"is_reserved":false,"is_disabled":false,"rental_uris":{"android":"levelo://app?vid=99101c98-cc6e-43cc-ab2c-0b29cae80a33","ios":"levelo://app?vid=99101c98-cc6e-43cc-ab2c-0b29cae80a33"},"vehicle_type_id":"4","last_reported":1718295068,"current_range_meters":24800,"station_id":"ce4bhbh2rcd13ifvqeqg","pricing_plan_id":"cebpf4jnsgd1na2vs0mg"},{"bike_id":"83efcae5-d6eb-458f-b299-da9dc046ec85","system_id":"levelo_inurba_marseille","lat":43.30085,"lon":5.390856,"is_reserved":false,"is_disabled":false,"rental_uris":{"android":"levelo://app?vid=83efcae5-d6eb-458f-b299-da9dc046ec85","ios":"levelo://app?vid=83efcae5-d6eb-458f-b299-da9dc046ec85"},"vehicle_type_id":"4","last_reported":1718295068,"current_range_meters":5600,"station_id":"ce4bh192rcd13ifvqdb0","pricing_plan_id":"cebpf4jnsgd1na2vs0mg"},{"bike_id":"50703226-397c-4ba8-a2a7-4ce2a5d83cef","system_id":"levelo_inurba_marseille","lat":43.292311,"lon":5.360731,"is_reserved":false,"is_disabled":false,"rental_uris":{"android":"levelo://app?vid=50703226-397c-4ba8-a2a7-4ce2a5d83cef","ios":"levelo://app?vid=50703226-397c-4ba8-a2a7-4ce2a5d83cef"},"vehicle_type_id":"4","last_reported":1718295068,"current_range_meters":31600,"station_id":"ce4bhbh2rcd13ifvqeqg","pricing_plan_id":"cebpf4jnsgd1na2vs0mg"},{"bike_id":"54bdae1a-9367-417b-8143-ccb94d4b31dd","system_id":"levelo_inurba_marseille","lat":43.30085,"lon":5.390856,"is_reserved":false,"is_disabled":false,"rental_uris":{"android":"levelo://app?vid=54bdae1a-9367-417b-8143-ccb94d4b31dd","ios":"levelo://app?vid=54bdae1a-9367-417b-8143-ccb94d4b31dd"},"vehicle_type_id":"4","last_reported":1718295068,"current_range_meters":0,"station_id":"ce4bh192rcd13ifvqdb0","pricing_plan_id":"cebpf4jnsgd1na2vs0mg"},{"bike_id":"2897dc44-b354-4bbe-a7d8-d79b608655d5","system_id":"levelo_inurba_marseille","lat":43.309038,"lon":5.396546,"is_reserved":false,"is_disabled":false,"rental_uris":{"android":"levelo://app?vid=2897dc44-b354-4bbe-a7d8-d79b608655d5","ios":"levelo://app?vid=2897dc44-b354-4bbe-a7d8-d79b608655d5"},"vehicle_type_id":"4","last_reported":1718295068,"current_range_meters":800,"station_id":"ce4bh012rcd13ifvqcv0","pricing_plan_id":"cebpf4jnsgd1na2vs0mg"},{"bike_id":"6a965047-88bd-47fa-9c2f-461e703a078c","system_id":"levelo_inurba_marseille","lat":43.292005,"lon":5.357875,"is_reserved":false,"is_disabled":false,"rental_uris":{"android":"levelo://app?vid=6a965047-88bd-47fa-9c2f-461e703a078c","ios":"levelo://app?vid=6a965047-88bd-47fa-9c2f-461e703a078c"},"vehicle_type_id":"4","last_reported":1718295068,"current_range_meters":7600,"station_id":"ce4bhb12rcd13ifvqel0","pricing_plan_id":"cebpf4jnsgd1na2vs0mg"},{"bike_id":"7be73d60-0ecc-4820-aadf-ee45b061eb3c","system_id":"levelo_inurba_marseille","lat":43.292005,"lon":5.357875,"is_reserved":false,"is_disabled":false,"rental_uris":{"android":"levelo://app?vid=7be73d60-0ecc-4820-aadf-ee45b061eb3c","ios":"levelo://app?vid=7be73d60-0ecc-4820-aadf-ee45b061eb3c"},"vehicle_type_id":"4","last_reported":1718295068,"current_range_meters":3600,"station_id":"ce4bhb12rcd13ifvqel0","pricing_plan_id":"cebpf4jnsgd1na2vs0mg"},{"bike_id":"e9870c76-e390-4ee3-bf63-c3a7d40032cd","system_id":"levelo_inurba_marseille","lat":43.313291,"lon":5.396838,"is_reserved":false,"is_disabled":false,"rental_uris":{"android":"levelo://app?vid=e9870c76-e390-4ee3-bf63-c3a7d40032cd","ios":"levelo://app?vid=e9870c76-e390-4ee3-bf63-c3a7d40032cd"},"vehicle_type_id":"4","last_reported":1718295068,"current_range_meters":6400,"station_id":"ce4bgvp2rcd13ifvqcu0","pricing_plan_id":"cebpf4jnsgd1na2vs0mg"},{"bike_id":"a43e00b1-f370-4bdf-95e1-3384edd9f169","system_id":"levelo_inurba_marseille","lat":43.291994,"lon":5.357886,"is_reserved":false,"is_disabled":false,"rental_uris":{"android":"levelo://app?vid=a43e00b1-f370-4bdf-95e1-3384edd9f169","ios":"levelo://app?vid=a43e00b1-f370-4bdf-95e1-3384edd9f169"},"vehicle_type_id":"4","last_reported":1718295068,"current_range_meters":24800,"station_id":"ce4bhb12rcd13ifvqel0","pricing_plan_id":"cebpf4jnsgd1na2vs0mg"},{"bike_id":"647aa416-7dad-4459-98b7-b8dd9f629949","system_id":"levelo_inurba_marseille","lat":43.313291,"lon":5.396838,"is_reserved":false,"is_disabled":false,"rental_uris":{"android":"levelo://app?vid=647aa416-7dad-4459-98b7-b8dd9f629949","ios":"levelo://app?vid=647aa416-7dad-4459-98b7-b8dd9f629949"},"vehicle_type_id":"4","last_reported":1718295068,"current_range_meters":3200,"station_id":"ce4bgvp2rcd13ifvqcu0","pricing_plan_id":"cebpf4jnsgd1na2vs0mg"},{"bike_id":"3082e5ff-2771-4ddd-a0d0-70e7dfe7417a","system_id":"levelo_inurba_marseille","lat":43.313291,"lon":5.396838,"is_reserved":false,"is_disabled":false,"rental_uris":{"android":"levelo://app?vid=3082e5ff-2771-4ddd-a0d0-70e7dfe7417a","ios":"levelo://app?vid=3082e5ff-2771-4ddd-a0d0-70e7dfe7417a"},"vehicle_type_id":"4","last_reported":1718295068,"current_range_meters":28000,"station_id":"ce4bgvp2rcd13ifvqcu0","pricing_plan_id":"cebpf4jnsgd1na2vs0mg"},{"bike_id":"602920fa-4feb-49eb-ac83-8aab5158b560","system_id":"levelo_inurba_marseille","lat":43.313291,"lon":5.396838,"is_reserved":false,"is_disabled":false,"rental_uris":{"android":"levelo://app?vid=602920fa-4feb-49eb-ac83-8aab5158b560","ios":"levelo://app?vid=602920fa-4feb-49eb-ac83-8aab5158b560"},"vehicle_type_id":"4","last_reported":1718295068,"current_range_meters":11600,"station_id":"ce4bgvp2rcd13ifvqcu0","pricing_plan_id":"cebpf4jnsgd1na2vs0mg"},{"bike_id":"815808bb-d9ad-4d5d-b8da-15c2f827e4f1","system_id":"levelo_inurba_marseille","lat":43.30886,"lon":5.39648,"is_reserved":false,"is_disabled":false,"rental_uris":{"android":"levelo://app?vid=815808bb-d9ad-4d5d-b8da-15c2f827e4f1","ios":"levelo://app?vid=815808bb-d9ad-4d5d-b8da-15c2f827e4f1"},"vehicle_type_id":"4","last_reported":1718295068,"current_range_meters":0,"station_id":"ce4bh012rcd13ifvqcv0","pricing_plan_id":"cebpf4jnsgd1na2vs0mg"},{"bike_id":"a76c1760-7b50-4a60-b809-1f27e9e3bb4a","system_id":"levelo_inurba_marseille","lat":43.313291,"lon":5.396838,"is_reserved":false,"is_disabled":false,"rental_uris":{"android":"levelo://app?vid=a76c1760-7b50-4a60-b809-1f27e9e3bb4a","ios":"levelo://app?vid=a76c1760-7b50-4a60-b809-1f27e9e3bb4a"},"vehicle_type_id":"4","last_reported":1718295068,"current_range_meters":14800,"station_id":"ce4bgvp2rcd13ifvqcu0","pricing_plan_id":"cebpf4jnsgd1na2vs0mg"},{"bike_id":"b7c479cc-2eca-484e-8f74-65f1104aa549","system_id":"levelo_inurba_marseille","lat":43.309038,"lon":5.396546,"is_reserved":false,"is_disabled":false,"rental_uris":{"android":"levelo://app?vid=b7c479cc-2eca-484e-8f74-65f1104aa549","ios":"levelo://app?vid=b7c479cc-2eca-484e-8f74-65f1104aa549"},"vehicle_type_id":"4","last_reported":1718295068,"current_range_meters":11600,"station_id":"ce4bh012rcd13ifvqcv0","pricing_plan_id":"cebpf4jnsgd1na2vs0mg"},{"bike_id":"1b9ce2a4-543d-479a-a51e-8923fb42e707","system_id":"levelo_inurba_marseille","lat":43.29529,"lon":5.385581,"is_reserved":false,"is_disabled":false,"rental_uris":{"android":"levelo://app?vid=1b9ce2a4-543d-479a-a51e-8923fb42e707","ios":"levelo://app?vid=1b9ce2a4-543d-479a-a51e-8923fb42e707"},"vehicle_type_id":"4","last_reported":1718295068,"current_range_meters":31600,"station_id":"ce4bgih2rcd13ifvqba0","pricing_plan_id":"cebpf4jnsgd1na2vs0mg"},{"bike_id":"d559fd35-98d7-4a97-80be-775820949a4f","system_id":"levelo_inurba_marseille","lat":43.309047,"lon":5.396551,"is_reserved":false,"is_disabled":false,"rental_uris":{"android":"levelo://app?vid=d559fd35-98d7-4a97-80be-775820949a4f","ios":"levelo://app?vid=d559fd35-98d7-4a97-80be-775820949a4f"},"vehicle_type_id":"4","last_reported":1718295068,"current_range_meters":1600,"station_id":"ce4bh012rcd13ifvqcv0","pricing_plan_id":"cebpf4jnsgd1na2vs0mg"},{"bike_id":"2eeaa17c-5b82-4c95-b05a-1779e987aac5","system_id":"levelo_inurba_marseille","lat":43.29529,"lon":5.385581,"is_reserved":false,"is_disabled":false,"rental_uris":{"android":"levelo://app?vid=2eeaa17c-5b82-4c95-b05a-1779e987aac5","ios":"levelo://app?vid=2eeaa17c-5b82-4c95-b05a-1779e987aac5"},"vehicle_type_id":"4","last_reported":1718295068,"current_range_meters":16000,"station_id":"ce4bgih2rcd13ifvqba0","pricing_plan_id":"cebpf4jnsgd1na2vs0mg"},{"bike_id":"aaba0558-a9d4-46bf-97ab-9d21b4e01698","system_id":"levelo_inurba_marseille","lat":43.302008,"lon":5.394694,"is_reserved":false,"is_disabled":false,"rental_uris":{"android":"levelo://app?vid=aaba0558-a9d4-46bf-97ab-9d21b4e01698","ios":"levelo://app?vid=aaba0558-a9d4-46bf-97ab-9d21b4e01698"},"vehicle_type_id":"4","last_reported":1718295068,"current_range_meters":17600,"station_id":"ce4bh0p2rcd13ifvqd70","pricing_plan_id":"cebpf4jnsgd1na2vs0mg"},{"bike_id":"c537da2c-c679-431b-afaf-e667c4ad602e","system_id":"levelo_inurba_marseille","lat":43.290624,"lon":5.359245,"is_reserved":false,"is_disabled":false,"rental_uris":{"android":"levelo://app?vid=c537da2c-c679-431b-afaf-e667c4ad602e","ios":"levelo://app?vid=c537da2c-c679-431b-afaf-e667c4ad602e"},"vehicle_type_id":"4","last_reported":1718295068,"current_range_meters":31200,"station_id":"ce4bha92rcd13ifvqeg0","pricing_plan_id":"cebpf4jnsgd1na2vs0mg"},{"bike_id":"d72a8a84-405b-497b-adc4-c0ed1ce1fbe0","system_id":"levelo_inurba_marseille","lat":43.290624,"lon":5.359245,"is_reserved":false,"is_disabled":false,"rental_uris":{"android":"levelo://app?vid=d72a8a84-405b-497b-adc4-c0ed1ce1fbe0","ios":"levelo://app?vid=d72a8a84-405b-497b-adc4-c0ed1ce1fbe0"},"vehicle_type_id":"4","last_reported":1718295068,"current_range_meters":24000,"station_id":"ce4bha92rcd13ifvqeg0","pricing_plan_id":"cebpf4jnsgd1na2vs0mg"},{"bike_id":"ec1f52a2-289c-45c0-9624-cc11ea1610c1","system_id":"levelo_inurba_marseille","lat":43.290624,"lon":5.359245,"is_reserved":false,"is_disabled":false,"rental_uris":{"android":"levelo://app?vid=ec1f52a2-289c-45c0-9624-cc11ea1610c1","ios":"levelo://app?vid=ec1f52a2-289c-45c0-9624-cc11ea1610c1"},"vehicle_type_id":"4","last_reported":1718295068,"current_range_meters":14400,"station_id":"ce4bha92rcd13ifvqeg0","pricing_plan_id":"cebpf4jnsgd1na2vs0mg"},{"bike_id":"713781df-231e-46b0-94b8-b0f34665caf7","system_id":"levelo_inurba_marseille","lat":43.294153,"lon":5.386305,"is_reserved":false,"is_disabled":false,"rental_uris":{"android":"levelo://app?vid=713781df-231e-46b0-94b8-b0f34665caf7","ios":"levelo://app?vid=713781df-231e-46b0-94b8-b0f34665caf7"},"vehicle_type_id":"4","last_reported":1718295068,"current_range_meters":24000,"station_id":"ce4bh2h2rcd13ifvqdh0","pricing_plan_id":"cebpf4jnsgd1na2vs0mg"},{"bike_id":"8268450e-af63-4198-9407-aaa3e40ad45b","system_id":"levelo_inurba_marseille","lat":43.294162,"lon":5.386292,"is_reserved":false,"is_disabled":false,"rental_uris":{"android":"levelo://app?vid=8268450e-af63-4198-9407-aaa3e40ad45b","ios":"levelo://app?vid=8268450e-af63-4198-9407-aaa3e40ad45b"},"vehicle_type_id":"4","last_reported":1718295068,"current_range_meters":4800,"station_id":"ce4bh2h2rcd13ifvqdh0","pricing_plan_id":"cebpf4jnsgd1na2vs0mg"},{"bike_id":"5b694591-b5fa-466d-a3fa-61460ed0b5d8","system_id":"levelo_inurba_marseille","lat":43.294153,"lon":5.386305,"is_reserved":false,"is_disabled":false,"rental_uris":{"android":"levelo://app?vid=5b694591-b5fa-466d-a3fa-61460ed0b5d8","ios":"levelo://app?vid=5b694591-b5fa-466d-a3fa-61460ed0b5d8"},"vehicle_type_id":"4","last_reported":1718295068,"current_range_meters":10000,"station_id":"ce4bh2h2rcd13ifvqdh0","pricing_plan_id":"cebpf4jnsgd1na2vs0mg"},{"bike_id":"aa9b79e3-57a9-49ff-aec4-cb7ade313f3c","system_id":"levelo_inurba_marseille","lat":43.294162,"lon":5.386292,"is_reserved":false,"is_disabled":false,"rental_uris":{"android":"levelo://app?vid=aa9b79e3-57a9-49ff-aec4-cb7ade313f3c","ios":"levelo://app?vid=aa9b79e3-57a9-49ff-aec4-cb7ade313f3c"},"vehicle_type_id":"4","last_reported":1718295068,"current_range_meters":16800,"station_id":"ce4bh2h2rcd13ifvqdh0","pricing_plan_id":"cebpf4jnsgd1na2vs0mg"},{"bike_id":"c992db3f-65de-4a7e-be30-dbc92386be3b","system_id":"levelo_inurba_marseille","lat":43.309076,"lon":5.368465,"is_reserved":false,"is_disabled":false,"rental_uris":{"android":"levelo://app?vid=c992db3f-65de-4a7e-be30-dbc92386be3b","ios":"levelo://app?vid=c992db3f-65de-4a7e-be30-dbc92386be3b"},"vehicle_type_id":"4","last_reported":1718295068,"current_range_meters":10800,"station_id":"ce4bgn92rcd13ifvqbvg","pricing_plan_id":"cebpf4jnsgd1na2vs0mg"},{"bike_id":"4903d781-022b-4384-bbac-148891aa5c58","system_id":"levelo_inurba_marseille","lat":43.294153,"lon":5.386305,"is_reserved":false,"is_disabled":false,"rental_uris":{"android":"levelo://app?vid=4903d781-022b-4384-bbac-148891aa5c58","ios":"levelo://app?vid=4903d781-022b-4384-bbac-148891aa5c58"},"vehicle_type_id":"4","last_reported":1718295068,"current_range_meters":4000,"station_id":"ce4bh2h2rcd13ifvqdh0","pricing_plan_id":"cebpf4jnsgd1na2vs0mg"},{"bike_id":"ba829467-83b1-4496-a94f-13c89c668b40","system_id":"levelo_inurba_marseille","lat":43.289184,"lon":5.366408,"is_reserved":false,"is_disabled":false,"rental_uris":{"android":"levelo://app?vid=ba829467-83b1-4496-a94f-13c89c668b40","ios":"levelo://app?vid=ba829467-83b1-4496-a94f-13c89c668b40"},"vehicle_type_id":"4","last_reported":1718295068,"current_range_meters":2800,"station_id":"ce4bhap2rcd13ifvqek0","pricing_plan_id":"cebpf4jnsgd1na2vs0mg"},{"bike_id":"0c857e20-820b-49cd-8c35-5d8ceacdb93f","system_id":"levelo_inurba_marseille","lat":43.294153,"lon":5.386305,"is_reserved":false,"is_disabled":false,"rental_uris":{"android":"levelo://app?vid=0c857e20-820b-49cd-8c35-5d8ceacdb93f","ios":"levelo://app?vid=0c857e20-820b-49cd-8c35-5d8ceacdb93f"},"vehicle_type_id":"4","last_reported":1718295068,"current_range_meters":6400,"station_id":"ce4bh2h2rcd13ifvqdh0","pricing_plan_id":"cebpf4jnsgd1na2vs0mg"},{"bike_id":"90498354-7882-48e2-b140-64c089a26804","system_id":"levelo_inurba_marseille","lat":43.289184,"lon":5.366408,"is_reserved":false,"is_disabled":false,"rental_uris":{"android":"levelo://app?vid=90498354-7882-48e2-b140-64c089a26804","ios":"levelo://app?vid=90498354-7882-48e2-b140-64c089a26804"},"vehicle_type_id":"4","last_reported":1718295068,"current_range_meters":0,"station_id":"ce4bhap2rcd13ifvqek0","pricing_plan_id":"cebpf4jnsgd1na2vs0mg"},{"bike_id":"ad3390a9-0afd-415c-a789-17d4534499b7","system_id":"levelo_inurba_marseille","lat":43.289184,"lon":5.366408,"is_reserved":false,"is_disabled":false,"rental_uris":{"android":"levelo://app?vid=ad3390a9-0afd-415c-a789-17d4534499b7","ios":"levelo://app?vid=ad3390a9-0afd-415c-a789-17d4534499b7"},"vehicle_type_id":"4","last_reported":1718295068,"current_range_meters":12000,"station_id":"ce4bhap2rcd13ifvqek0","pricing_plan_id":"cebpf4jnsgd1na2vs0mg"},{"bike_id":"305d0d5f-3f89-4e51-9b4f-bcb98d6783f5","system_id":"levelo_inurba_marseille","lat":43.289184,"lon":5.366408,"is_reserved":false,"is_disabled":false,"rental_uris":{"android":"levelo://app?vid=305d0d5f-3f89-4e51-9b4f-bcb98d6783f5","ios":"levelo://app?vid=305d0d5f-3f89-4e51-9b4f-bcb98d6783f5"},"vehicle_type_id":"4","last_reported":1718295068,"current_range_meters":5200,"station_id":"ce4bhap2rcd13ifvqek0","pricing_plan_id":"cebpf4jnsgd1na2vs0mg"},{"bike_id":"6a3e04c1-56b9-4fd8-b84f-56bed7115420","system_id":"levelo_inurba_marseille","lat":43.294162,"lon":5.386292,"is_reserved":false,"is_disabled":false,"rental_uris":{"android":"levelo://app?vid=6a3e04c1-56b9-4fd8-b84f-56bed7115420","ios":"levelo://app?vid=6a3e04c1-56b9-4fd8-b84f-56bed7115420"},"vehicle_type_id":"4","last_reported":1718295068,"current_range_meters":20800,"station_id":"ce4bh2h2rcd13ifvqdh0","pricing_plan_id":"cebpf4jnsgd1na2vs0mg"},{"bike_id":"633ee258-5796-4e6b-96bc-91fc8e44f0d5","system_id":"levelo_inurba_marseille","lat":43.294162,"lon":5.386292,"is_reserved":false,"is_disabled":false,"rental_uris":{"android":"levelo://app?vid=633ee258-5796-4e6b-96bc-91fc8e44f0d5","ios":"levelo://app?vid=633ee258-5796-4e6b-96bc-91fc8e44f0d5"},"vehicle_type_id":"4","last_reported":1718295068,"current_range_meters":0,"station_id":"ce4bh2h2rcd13ifvqdh0","pricing_plan_id":"cebpf4jnsgd1na2vs0mg"},{"bike_id":"cb36732b-02ca-4c02-a620-f0dc5448237a","system_id":"levelo_inurba_marseille","lat":43.289184,"lon":5.366408,"is_reserved":false,"is_disabled":false,"rental_uris":{"android":"levelo://app?vid=cb36732b-02ca-4c02-a620-f0dc5448237a","ios":"levelo://app?vid=cb36732b-02ca-4c02-a620-f0dc5448237a"},"vehicle_type_id":"4","last_reported":1718295068,"current_range_meters":29600,"station_id":"ce4bhap2rcd13ifvqek0","pricing_plan_id":"cebpf4jnsgd1na2vs0mg"},{"bike_id":"6a477767-2769-41e9-afa3-ffa09b1e19fc","system_id":"levelo_inurba_marseille","lat":43.289468,"lon":5.363719,"is_reserved":false,"is_disabled":false,"rental_uris":{"android":"levelo://app?vid=6a477767-2769-41e9-afa3-ffa09b1e19fc","ios":"levelo://app?vid=6a477767-2769-41e9-afa3-ffa09b1e19fc"},"vehicle_type_id":"4","last_reported":1718295068,"current_range_meters":9200,"station_id":"ce4bhc92rcd13ifvqetg","pricing_plan_id":"cebpf4jnsgd1na2vs0mg"},{"bike_id":"a1c5bc21-2317-495a-8b06-7df4fb60a27d","system_id":"levelo_inurba_marseille","lat":43.2941,"lon":5.38634,"is_reserved":false,"is_disabled":false,"rental_uris":{"android":"levelo://app?vid=a1c5bc21-2317-495a-8b06-7df4fb60a27d","ios":"levelo://app?vid=a1c5bc21-2317-495a-8b06-7df4fb60a27d"},"vehicle_type_id":"4","last_reported":1718295068,"current_range_meters":6000,"station_id":"ce4bh2h2rcd13ifvqdh0","pricing_plan_id":"cebpf4jnsgd1na2vs0mg"},{"bike_id":"04cb96eb-e18a-4db3-985a-d1cdfe128af6","system_id":"levelo_inurba_marseille","lat":43.289468,"lon":5.363719,"is_reserved":false,"is_disabled":false,"rental_uris":{"android":"levelo://app?vid=04cb96eb-e18a-4db3-985a-d1cdfe128af6","ios":"levelo://app?vid=04cb96eb-e18a-4db3-985a-d1cdfe128af6"},"vehicle_type_id":"4","last_reported":1718295068,"current_range_meters":4000,"station_id":"ce4bhc92rcd13ifvqetg","pricing_plan_id":"cebpf4jnsgd1na2vs0mg"},{"bike_id":"3dadd920-6cbc-48c5-bd56-c7649217fc88","system_id":"levelo_inurba_marseille","lat":43.289468,"lon":5.363719,"is_reserved":false,"is_disabled":false,"rental_uris":{"android":"levelo://app?vid=3dadd920-6cbc-48c5-bd56-c7649217fc88","ios":"levelo://app?vid=3dadd920-6cbc-48c5-bd56-c7649217fc88"},"vehicle_type_id":"4","last_reported":1718295068,"current_range_meters":19200,"station_id":"ce4bhc92rcd13ifvqetg","pricing_plan_id":"cebpf4jnsgd1na2vs0mg"},{"bike_id":"fbd7e617-eb50-4d4a-bb72-a3c428cc42a0","system_id":"levelo_inurba_marseille","lat":43.289468,"lon":5.363719,"is_reserved":false,"is_disabled":false,"rental_uris":{"android":"levelo://app?vid=fbd7e617-eb50-4d4a-bb72-a3c428cc42a0","ios":"levelo://app?vid=fbd7e617-eb50-4d4a-bb72-a3c428cc42a0"},"vehicle_type_id":"4","last_reported":1718295068,"current_range_meters":0,"station_id":"ce4bhc92rcd13ifvqetg","pricing_plan_id":"cebpf4jnsgd1na2vs0mg"},{"bike_id":"5344597d-8bd4-4998-bce6-6b65fdf4e1a0","system_id":"levelo_inurba_marseille","lat":43.292644,"lon":5.384257,"is_reserved":false,"is_disabled":false,"rental_uris":{"android":"levelo://app?vid=5344597d-8bd4-4998-bce6-6b65fdf4e1a0","ios":"levelo://app?vid=5344597d-8bd4-4998-bce6-6b65fdf4e1a0"},"vehicle_type_id":"4","last_reported":1718295068,"current_range_meters":16000,"station_id":"ce4bh692rcd13ifvqea0","pricing_plan_id":"cebpf4jnsgd1na2vs0mg"},{"bike_id":"4966effb-7ab2-44ff-bb4b-504ac0be0b0d","system_id":"levelo_inurba_marseille","lat":43.29263,"lon":5.38445,"is_reserved":false,"is_disabled":false,"rental_uris":{"android":"levelo://app?vid=4966effb-7ab2-44ff-bb4b-504ac0be0b0d","ios":"levelo://app?vid=4966effb-7ab2-44ff-bb4b-504ac0be0b0d"},"vehicle_type_id":"4","last_reported":1718295068,"current_range_meters":4400,"station_id":"","pricing_plan_id":"cebpf4jnsgd1na2vs0mg"},{"bike_id":"233f5018-55aa-4cd8-9079-e42f3f86ef57","system_id":"levelo_inurba_marseille","lat":43.29012,"lon":5.35623,"is_reserved":false,"is_disabled":false,"rental_uris":{"android":"levelo://app?vid=233f5018-55aa-4cd8-9079-e42f3f86ef57","ios":"levelo://app?vid=233f5018-55aa-4cd8-9079-e42f3f86ef57"},"vehicle_type_id":"4","last_reported":1718295068,"current_range_meters":0,"station_id":"ce4bhb92rcd13ifvqen0","pricing_plan_id":"cebpf4jnsgd1na2vs0mg"},{"bike_id":"be1f25cb-6aaf-488e-a3c5-ee342f05dd87","system_id":"levelo_inurba_marseille","lat":43.29008,"lon":5.35614,"is_reserved":false,"is_disabled":false,"rental_uris":{"android":"levelo://app?vid=be1f25cb-6aaf-488e-a3c5-ee342f05dd87","ios":"levelo://app?vid=be1f25cb-6aaf-488e-a3c5-ee342f05dd87"},"vehicle_type_id":"4","last_reported":1718295068,"current_range_meters":0,"station_id":"ce4bhb92rcd13ifvqen0","pricing_plan_id":"cebpf4jnsgd1na2vs0mg"},{"bike_id":"c31ebd0a-db1f-4d27-9dd1-baeccd6b5117","system_id":"levelo_inurba_marseille","lat":43.290103,"lon":5.356114,"is_reserved":false,"is_disabled":false,"rental_uris":{"android":"levelo://app?vid=c31ebd0a-db1f-4d27-9dd1-baeccd6b5117","ios":"levelo://app?vid=c31ebd0a-db1f-4d27-9dd1-baeccd6b5117"},"vehicle_type_id":"4","last_reported":1718295068,"current_range_meters":7200,"station_id":"ce4bhb92rcd13ifvqen0","pricing_plan_id":"cebpf4jnsgd1na2vs0mg"},{"bike_id":"6720f99b-1488-4e45-baeb-9650ba88459f","system_id":"levelo_inurba_marseille","lat":43.290104,"lon":5.356111,"is_reserved":false,"is_disabled":false,"rental_uris":{"android":"levelo://app?vid=6720f99b-1488-4e45-baeb-9650ba88459f","ios":"levelo://app?vid=6720f99b-1488-4e45-baeb-9650ba88459f"},"vehicle_type_id":"4","last_reported":1718295068,"current_range_meters":8800,"station_id":"ce4bhb92rcd13ifvqen0","pricing_plan_id":"cebpf4jnsgd1na2vs0mg"},{"bike_id":"aa2e3cac-575f-4c0e-8e24-4627c407b94f","system_id":"levelo_inurba_marseille","lat":43.295169,"lon":5.390426,"is_reserved":false,"is_disabled":false,"rental_uris":{"android":"levelo://app?vid=aa2e3cac-575f-4c0e-8e24-4627c407b94f","ios":"levelo://app?vid=aa2e3cac-575f-4c0e-8e24-4627c407b94f"},"vehicle_type_id":"4","last_reported":1718295068,"current_range_meters":16800,"station_id":"ce4bh3p2rcd13ifvqdp0","pricing_plan_id":"cebpf4jnsgd1na2vs0mg"},{"bike_id":"19b6b27c-0b51-48fb-9d16-cbb6d43d501d","system_id":"levelo_inurba_marseille","lat":43.29778,"lon":5.39333,"is_reserved":false,"is_disabled":false,"rental_uris":{"android":"levelo://app?vid=19b6b27c-0b51-48fb-9d16-cbb6d43d501d","ios":"levelo://app?vid=19b6b27c-0b51-48fb-9d16-cbb6d43d501d"},"vehicle_type_id":"4","last_reported":1718295068,"current_range_meters":9600,"station_id":"chh1huq6cuj3fo74tm60","pricing_plan_id":"cebpf4jnsgd1na2vs0mg"},{"bike_id":"a01f1bc8-3862-40e2-afe0-ecffb2cfef46","system_id":"levelo_inurba_marseille","lat":43.29774,"lon":5.39333,"is_reserved":false,"is_disabled":false,"rental_uris":{"android":"levelo://app?vid=a01f1bc8-3862-40e2-afe0-ecffb2cfef46","ios":"levelo://app?vid=a01f1bc8-3862-40e2-afe0-ecffb2cfef46"},"vehicle_type_id":"4","last_reported":1718295068,"current_range_meters":0,"station_id":"chh1huq6cuj3fo74tm60","pricing_plan_id":"cebpf4jnsgd1na2vs0mg"},{"bike_id":"a4ebcc61-0620-4d96-8ce2-22de6db1fad3","system_id":"levelo_inurba_marseille","lat":43.295169,"lon":5.390426,"is_reserved":false,"is_disabled":false,"rental_uris":{"android":"levelo://app?vid=a4ebcc61-0620-4d96-8ce2-22de6db1fad3","ios":"levelo://app?vid=a4ebcc61-0620-4d96-8ce2-22de6db1fad3"},"vehicle_type_id":"4","last_reported":1718295068,"current_range_meters":30400,"station_id":"ce4bh3p2rcd13ifvqdp0","pricing_plan_id":"cebpf4jnsgd1na2vs0mg"},{"bike_id":"545a17ed-b70a-46b2-be22-3affd1bc61bc","system_id":"levelo_inurba_marseille","lat":43.297815,"lon":5.393548,"is_reserved":false,"is_disabled":false,"rental_uris":{"android":"levelo://app?vid=545a17ed-b70a-46b2-be22-3affd1bc61bc","ios":"levelo://app?vid=545a17ed-b70a-46b2-be22-3affd1bc61bc"},"vehicle_type_id":"4","last_reported":1718295068,"current_range_meters":22400,"station_id":"chh1huq6cuj3fo74tm60","pricing_plan_id":"cebpf4jnsgd1na2vs0mg"},{"bike_id":"30aab9a0-efba-4c26-90b2-23360f5fe589","system_id":"levelo_inurba_marseille","lat":43.33022,"lon":5.39036,"is_reserved":false,"is_disabled":false,"rental_uris":{"android":"levelo://app?vid=30aab9a0-efba-4c26-90b2-23360f5fe589","ios":"levelo://app?vid=30aab9a0-efba-4c26-90b2-23360f5fe589"},"vehicle_type_id":"4","last_reported":1718295068,"current_range_meters":3200,"station_id":"ce4bhr92rcd13ifvqhrg","pricing_plan_id":"cebpf4jnsgd1na2vs0mg"},{"bike_id":"71f87f10-ceb0-4d79-82f2-390651b28faa","system_id":"levelo_inurba_marseille","lat":43.330442,"lon":5.389148,"is_reserved":false,"is_disabled":false,"rental_uris":{"android":"levelo://app?vid=71f87f10-ceb0-4d79-82f2-390651b28faa","ios":"levelo://app?vid=71f87f10-ceb0-4d79-82f2-390651b28faa"},"vehicle_type_id":"4","last_reported":1718295068,"current_range_meters":3600,"station_id":"ce4bhr92rcd13ifvqhrg","pricing_plan_id":"cebpf4jnsgd1na2vs0mg"},{"bike_id":"dcf02a2b-ac16-4f89-b920-53ef1d57afd1","system_id":"levelo_inurba_marseille","lat":43.28977,"lon":5.37846,"is_reserved":false,"is_disabled":false,"rental_uris":{"android":"levelo://app?vid=dcf02a2b-ac16-4f89-b920-53ef1d57afd1","ios":"levelo://app?vid=dcf02a2b-ac16-4f89-b920-53ef1d57afd1"},"vehicle_type_id":"4","last_reported":1718295068,"current_range_meters":15600,"station_id":"","pricing_plan_id":"cebpf4jnsgd1na2vs0mg"},{"bike_id":"f9325fb6-419e-4b59-b54b-f68da2612deb","system_id":"levelo_inurba_marseille","lat":43.29523,"lon":5.39043,"is_reserved":false,"is_disabled":false,"rental_uris":{"android":"levelo://app?vid=f9325fb6-419e-4b59-b54b-f68da2612deb","ios":"levelo://app?vid=f9325fb6-419e-4b59-b54b-f68da2612deb"},"vehicle_type_id":"4","last_reported":1718295068,"current_range_meters":11600,"station_id":"ce4bh3p2rcd13ifvqdp0","pricing_plan_id":"cebpf4jnsgd1na2vs0mg"},{"bike_id":"1c1132f6-4945-4e5f-ae33-c9297d40a7db","system_id":"levelo_inurba_marseille","lat":43.33024,"lon":5.39046,"is_reserved":false,"is_disabled":false,"rental_uris":{"android":"levelo://app?vid=1c1132f6-4945-4e5f-ae33-c9297d40a7db","ios":"levelo://app?vid=1c1132f6-4945-4e5f-ae33-c9297d40a7db"},"vehicle_type_id":"4","last_reported":1718295068,"current_range_meters":0,"station_id":"ce4bhr92rcd13ifvqhrg","pricing_plan_id":"cebpf4jnsgd1na2vs0mg"},{"bike_id":"34f6320b-8453-4e6d-a325-b7d5a1462db4","system_id":"levelo_inurba_marseille","lat":43.295169,"lon":5.390426,"is_reserved":false,"is_disabled":false,"rental_uris":{"android":"levelo://app?vid=34f6320b-8453-4e6d-a325-b7d5a1462db4","ios":"levelo://app?vid=34f6320b-8453-4e6d-a325-b7d5a1462db4"},"vehicle_type_id":"4","last_reported":1718295068,"current_range_meters":6800,"station_id":"ce4bh3p2rcd13ifvqdp0","pricing_plan_id":"cebpf4jnsgd1na2vs0mg"},{"bike_id":"5b8c59c6-7b7f-49c4-9488-0c58c7883f92","system_id":"levelo_inurba_marseille","lat":43.29031,"lon":5.38137,"is_reserved":false,"is_disabled":false,"rental_uris":{"android":"levelo://app?vid=5b8c59c6-7b7f-49c4-9488-0c58c7883f92","ios":"levelo://app?vid=5b8c59c6-7b7f-49c4-9488-0c58c7883f92"},"vehicle_type_id":"4","last_reported":1718295068,"current_range_meters":4000,"station_id":"","pricing_plan_id":"cebpf4jnsgd1na2vs0mg"},{"bike_id":"bc18c315-1320-491e-8fdb-bdc51714e56e","system_id":"levelo_inurba_marseille","lat":43.28856,"lon":5.358371,"is_reserved":false,"is_disabled":false,"rental_uris":{"android":"levelo://app?vid=bc18c315-1320-491e-8fdb-bdc51714e56e","ios":"levelo://app?vid=bc18c315-1320-491e-8fdb-bdc51714e56e"},"vehicle_type_id":"4","last_reported":1718295068,"current_range_meters":23200,"station_id":"ce4bhb12rcd13ifvqem0","pricing_plan_id":"cebpf4jnsgd1na2vs0mg"},{"bike_id":"c2629619-ae5c-4abe-9615-cb87b1e093d4","system_id":"levelo_inurba_marseille","lat":43.28856,"lon":5.358371,"is_reserved":false,"is_disabled":false,"rental_uris":{"android":"levelo://app?vid=c2629619-ae5c-4abe-9615-cb87b1e093d4","ios":"levelo://app?vid=c2629619-ae5c-4abe-9615-cb87b1e093d4"},"vehicle_type_id":"4","last_reported":1718295068,"current_range_meters":14400,"station_id":"ce4bhb12rcd13ifvqem0","pricing_plan_id":"cebpf4jnsgd1na2vs0mg"},{"bike_id":"2222d109-517b-46b7-9c91-b1b4ec80e3dc","system_id":"levelo_inurba_marseille","lat":43.312609,"lon":5.401662,"is_reserved":false,"is_disabled":false,"rental_uris":{"android":"levelo://app?vid=2222d109-517b-46b7-9c91-b1b4ec80e3dc","ios":"levelo://app?vid=2222d109-517b-46b7-9c91-b1b4ec80e3dc"},"vehicle_type_id":"4","last_reported":1718295068,"current_range_meters":16400,"station_id":"ce4bh092rcd13ifvqd30","pricing_plan_id":"cebpf4jnsgd1na2vs0mg"},{"bike_id":"23eb40a7-ede7-428c-ae33-f35eeecddfc6","system_id":"levelo_inurba_marseille","lat":43.312609,"lon":5.401662,"is_reserved":false,"is_disabled":false,"rental_uris":{"android":"levelo://app?vid=23eb40a7-ede7-428c-ae33-f35eeecddfc6","ios":"levelo://app?vid=23eb40a7-ede7-428c-ae33-f35eeecddfc6"},"vehicle_type_id":"4","last_reported":1718295068,"current_range_meters":11600,"station_id":"ce4bh092rcd13ifvqd30","pricing_plan_id":"cebpf4jnsgd1na2vs0mg"},{"bike_id":"4b8c81ef-6032-438b-b222-32bf5c2e1049","system_id":"levelo_inurba_marseille","lat":43.3375,"lon":5.3748,"is_reserved":false,"is_disabled":false,"rental_uris":{"android":"levelo://app?vid=4b8c81ef-6032-438b-b222-32bf5c2e1049","ios":"levelo://app?vid=4b8c81ef-6032-438b-b222-32bf5c2e1049"},"vehicle_type_id":"4","last_reported":1718295068,"current_range_meters":26800,"station_id":"","pricing_plan_id":"cebpf4jnsgd1na2vs0mg"},{"bike_id":"450bd678-ea63-4f57-96d2-7c49fca05f18","system_id":"levelo_inurba_marseille","lat":43.30657,"lon":5.40086,"is_reserved":false,"is_disabled":false,"rental_uris":{"android":"levelo://app?vid=450bd678-ea63-4f57-96d2-7c49fca05f18","ios":"levelo://app?vid=450bd678-ea63-4f57-96d2-7c49fca05f18"},"vehicle_type_id":"4","last_reported":1718295068,"current_range_meters":0,"station_id":"ce4bh112rcd13ifvqda0","pricing_plan_id":"cebpf4jnsgd1na2vs0mg"},{"bike_id":"75b870bc-fb95-494b-a064-5c25029e330e","system_id":"levelo_inurba_marseille","lat":43.28727,"lon":5.36078,"is_reserved":false,"is_disabled":false,"rental_uris":{"android":"levelo://app?vid=75b870bc-fb95-494b-a064-5c25029e330e","ios":"levelo://app?vid=75b870bc-fb95-494b-a064-5c25029e330e"},"vehicle_type_id":"4","last_reported":1718295068,"current_range_meters":2400,"station_id":"cki0cbj6b192h4jlfktg","pricing_plan_id":"cebpf4jnsgd1na2vs0mg"},{"bike_id":"7c6fae67-7d58-486a-a7b3-590df377c6e9","system_id":"levelo_inurba_marseille","lat":43.301117,"lon":5.398795,"is_reserved":false,"is_disabled":false,"rental_uris":{"android":"levelo://app?vid=7c6fae67-7d58-486a-a7b3-590df377c6e9","ios":"levelo://app?vid=7c6fae67-7d58-486a-a7b3-590df377c6e9"},"vehicle_type_id":"4","last_reported":1718295068,"current_range_meters":6400,"station_id":"ce4bh0h2rcd13ifvqd40","pricing_plan_id":"cebpf4jnsgd1na2vs0mg"},{"bike_id":"bdfd81a6-d9c1-4f74-ad5d-6e0a9de615b6","system_id":"levelo_inurba_marseille","lat":43.28732,"lon":5.36093,"is_reserved":false,"is_disabled":false,"rental_uris":{"android":"levelo://app?vid=bdfd81a6-d9c1-4f74-ad5d-6e0a9de615b6","ios":"levelo://app?vid=bdfd81a6-d9c1-4f74-ad5d-6e0a9de615b6"},"vehicle_type_id":"4","last_reported":1718295068,"current_range_meters":31200,"station_id":"cki0cbj6b192h4jlfktg","pricing_plan_id":"cebpf4jnsgd1na2vs0mg"},{"bike_id":"33cff556-1d89-44a1-9377-a05ee8ca9a33","system_id":"levelo_inurba_marseille","lat":43.28732,"lon":5.36083,"is_reserved":false,"is_disabled":false,"rental_uris":{"android":"levelo://app?vid=33cff556-1d89-44a1-9377-a05ee8ca9a33","ios":"levelo://app?vid=33cff556-1d89-44a1-9377-a05ee8ca9a33"},"vehicle_type_id":"4","last_reported":1718295068,"current_range_meters":10800,"station_id":"cki0cbj6b192h4jlfktg","pricing_plan_id":"cebpf4jnsgd1na2vs0mg"},{"bike_id":"1d6d9214-ff37-4591-84a9-a19d9441396b","system_id":"levelo_inurba_marseille","lat":43.28725,"lon":5.361,"is_reserved":false,"is_disabled":false,"rental_uris":{"android":"levelo://app?vid=1d6d9214-ff37-4591-84a9-a19d9441396b","ios":"levelo://app?vid=1d6d9214-ff37-4591-84a9-a19d9441396b"},"vehicle_type_id":"4","last_reported":1718295068,"current_range_meters":8400,"station_id":"cki0cbj6b192h4jlfktg","pricing_plan_id":"cebpf4jnsgd1na2vs0mg"},{"bike_id":"a9a9e42a-4afb-4096-8ea9-1d9235c715c4","system_id":"levelo_inurba_marseille","lat":43.28727,"lon":5.36078,"is_reserved":false,"is_disabled":false,"rental_uris":{"android":"levelo://app?vid=a9a9e42a-4afb-4096-8ea9-1d9235c715c4","ios":"levelo://app?vid=a9a9e42a-4afb-4096-8ea9-1d9235c715c4"},"vehicle_type_id":"4","last_reported":1718295068,"current_range_meters":25600,"station_id":"cki0cbj6b192h4jlfktg","pricing_plan_id":"cebpf4jnsgd1na2vs0mg"},{"bike_id":"00585536-4aab-4b1b-bd24-92d7c281dccd","system_id":"levelo_inurba_marseille","lat":43.301117,"lon":5.398795,"is_reserved":false,"is_disabled":false,"rental_uris":{"android":"levelo://app?vid=00585536-4aab-4b1b-bd24-92d7c281dccd","ios":"levelo://app?vid=00585536-4aab-4b1b-bd24-92d7c281dccd"},"vehicle_type_id":"4","last_reported":1718295068,"current_range_meters":15200,"station_id":"ce4bh0h2rcd13ifvqd40","pricing_plan_id":"cebpf4jnsgd1na2vs0mg"},{"bike_id":"eeacb832-4bb5-488d-8285-92119edc1d38","system_id":"levelo_inurba_marseille","lat":43.28727,"lon":5.36078,"is_reserved":false,"is_disabled":false,"rental_uris":{"android":"levelo://app?vid=eeacb832-4bb5-488d-8285-92119edc1d38","ios":"levelo://app?vid=eeacb832-4bb5-488d-8285-92119edc1d38"},"vehicle_type_id":"4","last_reported":1718295068,"current_range_meters":6800,"station_id":"cki0cbj6b192h4jlfktg","pricing_plan_id":"cebpf4jnsgd1na2vs0mg"},{"bike_id":"06a2cf82-3a3a-4fe7-8b3a-961b7345fc68","system_id":"levelo_inurba_marseille","lat":43.286591,"lon":5.363346,"is_reserved":false,"is_disabled":false,"rental_uris":{"android":"levelo://app?vid=06a2cf82-3a3a-4fe7-8b3a-961b7345fc68","ios":"levelo://app?vid=06a2cf82-3a3a-4fe7-8b3a-961b7345fc68"},"vehicle_type_id":"4","last_reported":1718295068,"current_range_meters":13200,"station_id":"ce4bhah2rcd13ifvqej0","pricing_plan_id":"cebpf4jnsgd1na2vs0mg"},{"bike_id":"da6d1910-a0fc-4168-aacb-9053e28797d6","system_id":"levelo_inurba_marseille","lat":43.28664,"lon":5.36345,"is_reserved":false,"is_disabled":false,"rental_uris":{"android":"levelo://app?vid=da6d1910-a0fc-4168-aacb-9053e28797d6","ios":"levelo://app?vid=da6d1910-a0fc-4168-aacb-9053e28797d6"},"vehicle_type_id":"4","last_reported":1718295068,"current_range_meters":31600,"station_id":"","pricing_plan_id":"cebpf4jnsgd1na2vs0mg"},{"bike_id":"eaa60362-f452-4364-92d5-0abbfc6ec54f","system_id":"levelo_inurba_marseille","lat":43.286591,"lon":5.363346,"is_reserved":false,"is_disabled":false,"rental_uris":{"android":"levelo://app?vid=eaa60362-f452-4364-92d5-0abbfc6ec54f","ios":"levelo://app?vid=eaa60362-f452-4364-92d5-0abbfc6ec54f"},"vehicle_type_id":"4","last_reported":1718295068,"current_range_meters":29200,"station_id":"ce4bhah2rcd13ifvqej0","pricing_plan_id":"cebpf4jnsgd1na2vs0mg"},{"bike_id":"e9ccb7a9-a35c-454b-b04d-fd482effe4df","system_id":"levelo_inurba_marseille","lat":43.295196,"lon":5.39397,"is_reserved":false,"is_disabled":false,"rental_uris":{"android":"levelo://app?vid=e9ccb7a9-a35c-454b-b04d-fd482effe4df","ios":"levelo://app?vid=e9ccb7a9-a35c-454b-b04d-fd482effe4df"},"vehicle_type_id":"4","last_reported":1718295068,"current_range_meters":26800,"station_id":"ce4bh292rcd13ifvqdf0","pricing_plan_id":"cebpf4jnsgd1na2vs0mg"},{"bike_id":"48cffd0c-3fde-459b-a9fa-fe2fa8563ee5","system_id":"levelo_inurba_marseille","lat":43.298681,"lon":5.397225,"is_reserved":false,"is_disabled":false,"rental_uris":{"android":"levelo://app?vid=48cffd0c-3fde-459b-a9fa-fe2fa8563ee5","ios":"levelo://app?vid=48cffd0c-3fde-459b-a9fa-fe2fa8563ee5"},"vehicle_type_id":"4","last_reported":1718295068,"current_range_meters":6400,"station_id":"ce4bh0h2rcd13ifvqd50","pricing_plan_id":"cebpf4jnsgd1na2vs0mg"},{"bike_id":"0beb8600-4c63-40ca-aca9-094c6888291f","system_id":"levelo_inurba_marseille","lat":43.295196,"lon":5.39397,"is_reserved":false,"is_disabled":false,"rental_uris":{"android":"levelo://app?vid=0beb8600-4c63-40ca-aca9-094c6888291f","ios":"levelo://app?vid=0beb8600-4c63-40ca-aca9-094c6888291f"},"vehicle_type_id":"4","last_reported":1718295068,"current_range_meters":8000,"station_id":"ce4bh292rcd13ifvqdf0","pricing_plan_id":"cebpf4jnsgd1na2vs0mg"},{"bike_id":"4d259478-1c1d-475c-b80c-32414977fe3c","system_id":"levelo_inurba_marseille","lat":43.286593,"lon":5.363346,"is_reserved":false,"is_disabled":false,"rental_uris":{"android":"levelo://app?vid=4d259478-1c1d-475c-b80c-32414977fe3c","ios":"levelo://app?vid=4d259478-1c1d-475c-b80c-32414977fe3c"},"vehicle_type_id":"4","last_reported":1718295068,"current_range_meters":22800,"station_id":"ce4bhah2rcd13ifvqej0","pricing_plan_id":"cebpf4jnsgd1na2vs0mg"},{"bike_id":"fbe38444-6c99-4c0a-bd04-bbbc7ff5c683","system_id":"levelo_inurba_marseille","lat":43.295196,"lon":5.39397,"is_reserved":false,"is_disabled":false,"rental_uris":{"android":"levelo://app?vid=fbe38444-6c99-4c0a-bd04-bbbc7ff5c683","ios":"levelo://app?vid=fbe38444-6c99-4c0a-bd04-bbbc7ff5c683"},"vehicle_type_id":"4","last_reported":1718295068,"current_range_meters":12800,"station_id":"ce4bh292rcd13ifvqdf0","pricing_plan_id":"cebpf4jnsgd1na2vs0mg"},{"bike_id":"3c3ba8b9-51b6-41f1-9752-e371c24f1388","system_id":"levelo_inurba_marseille","lat":43.295194,"lon":5.39397,"is_reserved":false,"is_disabled":false,"rental_uris":{"android":"levelo://app?vid=3c3ba8b9-51b6-41f1-9752-e371c24f1388","ios":"levelo://app?vid=3c3ba8b9-51b6-41f1-9752-e371c24f1388"},"vehicle_type_id":"4","last_reported":1718295068,"current_range_meters":0,"station_id":"ce4bh292rcd13ifvqdf0","pricing_plan_id":"cebpf4jnsgd1na2vs0mg"},{"bike_id":"da2297d0-1153-4c00-a1e2-4c7398200764","system_id":"levelo_inurba_marseille","lat":43.295196,"lon":5.39397,"is_reserved":false,"is_disabled":false,"rental_uris":{"android":"levelo://app?vid=da2297d0-1153-4c00-a1e2-4c7398200764","ios":"levelo://app?vid=da2297d0-1153-4c00-a1e2-4c7398200764"},"vehicle_type_id":"4","last_reported":1718295068,"current_range_meters":31600,"station_id":"ce4bh292rcd13ifvqdf0","pricing_plan_id":"cebpf4jnsgd1na2vs0mg"},{"bike_id":"8398adaa-d792-4f76-bdd5-38dd728e92a2","system_id":"levelo_inurba_marseille","lat":43.289307,"lon":5.38406,"is_reserved":false,"is_disabled":false,"rental_uris":{"android":"levelo://app?vid=8398adaa-d792-4f76-bdd5-38dd728e92a2","ios":"levelo://app?vid=8398adaa-d792-4f76-bdd5-38dd728e92a2"},"vehicle_type_id":"4","last_reported":1718295068,"current_range_meters":6800,"station_id":"ce4bh612rcd13ifvqe6g","pricing_plan_id":"cebpf4jnsgd1na2vs0mg"},{"bike_id":"d2ac3dae-c370-4965-a251-b9dc9246c09a","system_id":"levelo_inurba_marseille","lat":43.302759,"lon":5.400793,"is_reserved":false,"is_disabled":false,"rental_uris":{"android":"levelo://app?vid=d2ac3dae-c370-4965-a251-b9dc9246c09a","ios":"levelo://app?vid=d2ac3dae-c370-4965-a251-b9dc9246c09a"},"vehicle_type_id":"4","last_reported":1718295068,"current_range_meters":20400,"station_id":"ce4bgvh2rcd13ifvqcs0","pricing_plan_id":"cebpf4jnsgd1na2vs0mg"},{"bike_id":"6700f24b-ee0b-4313-8010-ef77b85b53b5","system_id":"levelo_inurba_marseille","lat":43.29031,"lon":5.38651,"is_reserved":false,"is_disabled":false,"rental_uris":{"android":"levelo://app?vid=6700f24b-ee0b-4313-8010-ef77b85b53b5","ios":"levelo://app?vid=6700f24b-ee0b-4313-8010-ef77b85b53b5"},"vehicle_type_id":"4","last_reported":1718295068,"current_range_meters":15200,"station_id":"","pricing_plan_id":"cebpf4jnsgd1na2vs0mg"},{"bike_id":"1a3d4007-bb18-4e16-92f2-38d84eaf936e","system_id":"levelo_inurba_marseille","lat":43.290336,"lon":5.386425,"is_reserved":false,"is_disabled":false,"rental_uris":{"android":"levelo://app?vid=1a3d4007-bb18-4e16-92f2-38d84eaf936e","ios":"levelo://app?vid=1a3d4007-bb18-4e16-92f2-38d84eaf936e"},"vehicle_type_id":"4","last_reported":1718295068,"current_range_meters":16800,"station_id":"ce4bh4p2rcd13ifvqe0g","pricing_plan_id":"cebpf4jnsgd1na2vs0mg"},{"bike_id":"28bfae69-16f3-45f2-ad43-93a45a2b52b0","system_id":"levelo_inurba_marseille","lat":43.290336,"lon":5.386425,"is_reserved":false,"is_disabled":false,"rental_uris":{"android":"levelo://app?vid=28bfae69-16f3-45f2-ad43-93a45a2b52b0","ios":"levelo://app?vid=28bfae69-16f3-45f2-ad43-93a45a2b52b0"},"vehicle_type_id":"4","last_reported":1718295068,"current_range_meters":28400,"station_id":"ce4bh4p2rcd13ifvqe0g","pricing_plan_id":"cebpf4jnsgd1na2vs0mg"},{"bike_id":"bef091c3-9f13-478d-a847-49c2d5f47505","system_id":"levelo_inurba_marseille","lat":43.286039,"lon":5.370681,"is_reserved":false,"is_disabled":false,"rental_uris":{"android":"levelo://app?vid=bef091c3-9f13-478d-a847-49c2d5f47505","ios":"levelo://app?vid=bef091c3-9f13-478d-a847-49c2d5f47505"},"vehicle_type_id":"4","last_reported":1718295068,"current_range_meters":10000,"station_id":"ce4bht12rcd13ifvqi60","pricing_plan_id":"cebpf4jnsgd1na2vs0mg"},{"bike_id":"dbeb1f13-035d-4335-aaf2-1b45507cedcf","system_id":"levelo_inurba_marseille","lat":43.286039,"lon":5.370681,"is_reserved":false,"is_disabled":false,"rental_uris":{"android":"levelo://app?vid=dbeb1f13-035d-4335-aaf2-1b45507cedcf","ios":"levelo://app?vid=dbeb1f13-035d-4335-aaf2-1b45507cedcf"},"vehicle_type_id":"4","last_reported":1718295068,"current_range_meters":21600,"station_id":"ce4bht12rcd13ifvqi60","pricing_plan_id":"cebpf4jnsgd1na2vs0mg"},{"bike_id":"37900605-ede0-4b74-a3bd-6569701cfff3","system_id":"levelo_inurba_marseille","lat":43.286039,"lon":5.370681,"is_reserved":false,"is_disabled":false,"rental_uris":{"android":"levelo://app?vid=37900605-ede0-4b74-a3bd-6569701cfff3","ios":"levelo://app?vid=37900605-ede0-4b74-a3bd-6569701cfff3"},"vehicle_type_id":"4","last_reported":1718295068,"current_range_meters":0,"station_id":"ce4bht12rcd13ifvqi60","pricing_plan_id":"cebpf4jnsgd1na2vs0mg"},{"bike_id":"d8579005-fef7-41b1-bcd7-7a4024d6cd38","system_id":"levelo_inurba_marseille","lat":43.2872,"lon":5.37947,"is_reserved":false,"is_disabled":false,"rental_uris":{"android":"levelo://app?vid=d8579005-fef7-41b1-bcd7-7a4024d6cd38","ios":"levelo://app?vid=d8579005-fef7-41b1-bcd7-7a4024d6cd38"},"vehicle_type_id":"4","last_reported":1718295068,"current_range_meters":24000,"station_id":"ce4bh9p2rcd13ifvqec0","pricing_plan_id":"cebpf4jnsgd1na2vs0mg"},{"bike_id":"c3dee79a-849b-460f-94ce-1eb52ddd8ea0","system_id":"levelo_inurba_marseille","lat":43.2897,"lon":5.3876,"is_reserved":false,"is_disabled":false,"rental_uris":{"android":"levelo://app?vid=c3dee79a-849b-460f-94ce-1eb52ddd8ea0","ios":"levelo://app?vid=c3dee79a-849b-460f-94ce-1eb52ddd8ea0"},"vehicle_type_id":"4","last_reported":1718295068,"current_range_meters":20800,"station_id":"","pricing_plan_id":"cebpf4jnsgd1na2vs0mg"},{"bike_id":"5fe5e389-2bd5-47aa-965a-1a094b92678c","system_id":"levelo_inurba_marseille","lat":43.316821,"lon":5.404737,"is_reserved":false,"is_disabled":false,"rental_uris":{"android":"levelo://app?vid=5fe5e389-2bd5-47aa-965a-1a094b92678c","ios":"levelo://app?vid=5fe5e389-2bd5-47aa-965a-1a094b92678c"},"vehicle_type_id":"4","last_reported":1718295068,"current_range_meters":4800,"station_id":"ce4bh012rcd13ifvqd00","pricing_plan_id":"cebpf4jnsgd1na2vs0mg"},{"bike_id":"54df217f-caaa-45c0-bfcc-913480fca7ba","system_id":"levelo_inurba_marseille","lat":43.291994,"lon":5.392907,"is_reserved":false,"is_disabled":false,"rental_uris":{"android":"levelo://app?vid=54df217f-caaa-45c0-bfcc-913480fca7ba","ios":"levelo://app?vid=54df217f-caaa-45c0-bfcc-913480fca7ba"},"vehicle_type_id":"4","last_reported":1718295068,"current_range_meters":29600,"station_id":"ce4bh192rcd13ifvqdd0","pricing_plan_id":"cebpf4jnsgd1na2vs0mg"},{"bike_id":"a807c4d3-3cfd-471a-aa24-8b058d829919","system_id":"levelo_inurba_marseille","lat":43.284538,"lon":5.358657,"is_reserved":false,"is_disabled":false,"rental_uris":{"android":"levelo://app?vid=a807c4d3-3cfd-471a-aa24-8b058d829919","ios":"levelo://app?vid=a807c4d3-3cfd-471a-aa24-8b058d829919"},"vehicle_type_id":"4","last_reported":1718295068,"current_range_meters":4400,"station_id":"ce4bhah2rcd13ifvqei0","pricing_plan_id":"cebpf4jnsgd1na2vs0mg"},{"bike_id":"13cb7aef-4d4d-4320-909a-ec90326ff751","system_id":"levelo_inurba_marseille","lat":43.284538,"lon":5.358657,"is_reserved":false,"is_disabled":false,"rental_uris":{"android":"levelo://app?vid=13cb7aef-4d4d-4320-909a-ec90326ff751","ios":"levelo://app?vid=13cb7aef-4d4d-4320-909a-ec90326ff751"},"vehicle_type_id":"4","last_reported":1718295068,"current_range_meters":8000,"station_id":"ce4bhah2rcd13ifvqei0","pricing_plan_id":"cebpf4jnsgd1na2vs0mg"},{"bike_id":"6b7be1da-7d6f-4ca9-83fd-85b8a7ab00dc","system_id":"levelo_inurba_marseille","lat":43.28461,"lon":5.358953,"is_reserved":false,"is_disabled":false,"rental_uris":{"android":"levelo://app?vid=6b7be1da-7d6f-4ca9-83fd-85b8a7ab00dc","ios":"levelo://app?vid=6b7be1da-7d6f-4ca9-83fd-85b8a7ab00dc"},"vehicle_type_id":"4","last_reported":1718295068,"current_range_meters":0,"station_id":"ce4bhah2rcd13ifvqei0","pricing_plan_id":"cebpf4jnsgd1na2vs0mg"},{"bike_id":"425a835e-34f6-455e-8ac6-ba7202f56c85","system_id":"levelo_inurba_marseille","lat":43.28461,"lon":5.35886,"is_reserved":false,"is_disabled":false,"rental_uris":{"android":"levelo://app?vid=425a835e-34f6-455e-8ac6-ba7202f56c85","ios":"levelo://app?vid=425a835e-34f6-455e-8ac6-ba7202f56c85"},"vehicle_type_id":"4","last_reported":1718295068,"current_range_meters":0,"station_id":"ce4bhah2rcd13ifvqei0","pricing_plan_id":"cebpf4jnsgd1na2vs0mg"},{"bike_id":"8d4a684e-ce4b-4946-bdf9-3beea2a478d1","system_id":"levelo_inurba_marseille","lat":43.28458,"lon":5.35898,"is_reserved":false,"is_disabled":false,"rental_uris":{"android":"levelo://app?vid=8d4a684e-ce4b-4946-bdf9-3beea2a478d1","ios":"levelo://app?vid=8d4a684e-ce4b-4946-bdf9-3beea2a478d1"},"vehicle_type_id":"4","last_reported":1718295068,"current_range_meters":22000,"station_id":"ce4bhah2rcd13ifvqei0","pricing_plan_id":"cebpf4jnsgd1na2vs0mg"},{"bike_id":"edfa2378-2594-44f2-9cd0-451febe07584","system_id":"levelo_inurba_marseille","lat":43.294314,"lon":5.397498,"is_reserved":false,"is_disabled":false,"rental_uris":{"android":"levelo://app?vid=edfa2378-2594-44f2-9cd0-451febe07584","ios":"levelo://app?vid=edfa2378-2594-44f2-9cd0-451febe07584"},"vehicle_type_id":"4","last_reported":1718295068,"current_range_meters":16000,"station_id":"ce4bh3h2rcd13ifvqdo0","pricing_plan_id":"cebpf4jnsgd1na2vs0mg"},{"bike_id":"9befa77f-977e-493d-96a5-aa8a9084f1c3","system_id":"levelo_inurba_marseille","lat":43.294314,"lon":5.397498,"is_reserved":false,"is_disabled":false,"rental_uris":{"android":"levelo://app?vid=9befa77f-977e-493d-96a5-aa8a9084f1c3","ios":"levelo://app?vid=9befa77f-977e-493d-96a5-aa8a9084f1c3"},"vehicle_type_id":"4","last_reported":1718295068,"current_range_meters":17200,"station_id":"ce4bh3h2rcd13ifvqdo0","pricing_plan_id":"cebpf4jnsgd1na2vs0mg"},{"bike_id":"e9e14bed-538e-436b-ae8f-24b74aeaa2e5","system_id":"levelo_inurba_marseille","lat":43.284534,"lon":5.358662,"is_reserved":false,"is_disabled":false,"rental_uris":{"android":"levelo://app?vid=e9e14bed-538e-436b-ae8f-24b74aeaa2e5","ios":"levelo://app?vid=e9e14bed-538e-436b-ae8f-24b74aeaa2e5"},"vehicle_type_id":"4","last_reported":1718295068,"current_range_meters":15600,"station_id":"ce4bhah2rcd13ifvqei0","pricing_plan_id":"cebpf4jnsgd1na2vs0mg"},{"bike_id":"56f3e9ea-9007-4480-876e-c67021de91b6","system_id":"levelo_inurba_marseille","lat":43.28621,"lon":5.35113,"is_reserved":false,"is_disabled":false,"rental_uris":{"android":"levelo://app?vid=56f3e9ea-9007-4480-876e-c67021de91b6","ios":"levelo://app?vid=56f3e9ea-9007-4480-876e-c67021de91b6"},"vehicle_type_id":"4","last_reported":1718295068,"current_range_meters":31200,"station_id":"ce4bhch2rcd13ifvqeug","pricing_plan_id":"cebpf4jnsgd1na2vs0mg"},{"bike_id":"6408625b-3fd3-4bac-8236-52fe5ecfa79e","system_id":"levelo_inurba_marseille","lat":43.294314,"lon":5.397498,"is_reserved":false,"is_disabled":false,"rental_uris":{"android":"levelo://app?vid=6408625b-3fd3-4bac-8236-52fe5ecfa79e","ios":"levelo://app?vid=6408625b-3fd3-4bac-8236-52fe5ecfa79e"},"vehicle_type_id":"4","last_reported":1718295068,"current_range_meters":1200,"station_id":"ce4bh3h2rcd13ifvqdo0","pricing_plan_id":"cebpf4jnsgd1na2vs0mg"},{"bike_id":"f96129bc-2c54-463c-80f2-f0cbe350beef","system_id":"levelo_inurba_marseille","lat":43.286195,"lon":5.35117,"is_reserved":false,"is_disabled":false,"rental_uris":{"android":"levelo://app?vid=f96129bc-2c54-463c-80f2-f0cbe350beef","ios":"levelo://app?vid=f96129bc-2c54-463c-80f2-f0cbe350beef"},"vehicle_type_id":"4","last_reported":1718295068,"current_range_meters":6000,"station_id":"","pricing_plan_id":"cebpf4jnsgd1na2vs0mg"},{"bike_id":"f942caba-4196-42dc-bf77-fb8e1ea6a004","system_id":"levelo_inurba_marseille","lat":43.28624,"lon":5.35099,"is_reserved":false,"is_disabled":false,"rental_uris":{"android":"levelo://app?vid=f942caba-4196-42dc-bf77-fb8e1ea6a004","ios":"levelo://app?vid=f942caba-4196-42dc-bf77-fb8e1ea6a004"},"vehicle_type_id":"4","last_reported":1718295068,"current_range_meters":29600,"station_id":"ce4bhch2rcd13ifvqeug","pricing_plan_id":"cebpf4jnsgd1na2vs0mg"},{"bike_id":"3a8cf665-345a-47da-b827-568a39955155","system_id":"levelo_inurba_marseille","lat":43.28622,"lon":5.35104,"is_reserved":false,"is_disabled":false,"rental_uris":{"android":"levelo://app?vid=3a8cf665-345a-47da-b827-568a39955155","ios":"levelo://app?vid=3a8cf665-345a-47da-b827-568a39955155"},"vehicle_type_id":"4","last_reported":1718295068,"current_range_meters":22400,"station_id":"ce4bhch2rcd13ifvqeug","pricing_plan_id":"cebpf4jnsgd1na2vs0mg"},