{"last_updated":1750266657,"ttl":60,"version":"2.2","data":{"bikes":[{"bike_id":"3da29fb8-fc97-44c6-b9ac-31dd456b2fd4","system_id":"levelo_inurba_marseille","lat":43.33771,"lon":5.37424,"is_reserved":false,"is_disabled":true,"rental_uris":{"android":"levelo://app?vid=3da29fb8-fc97-44c6-b9ac-31dd456b2fd4","ios":"levelo://app?vid=3da29fb8-fc97-44c6-b9ac-31dd456b2fd4"},"vehicle_type_id":"4","last_reported":1750266657,"current_range_meters":0,"station_id":"","pricing_plan_id":"cebpf4jnsgd1na2vs0mg"},{"bike_id":"01861ad8-a8d7-4be6-816e-651927c87584","system_id":"levelo_inurba_marseille","lat":43.33751,"lon":5.37456,"is_reserved":false,"is_disabled":true,"rental_uris":{"android":"levelo://app?vid=01861ad8-a8d7-4be6-816e-651927c87584","ios":"levelo://app?vid=01861ad8-a8d7-4be6-816e-651927c87584"},"vehicle_type_id":"4","last_reported":1750266657,"current_range_meters":0,"station_id":"","pricing_plan_id":"cebpf4jnsgd1na2vs0mg"},{"bike_id":"dbfce7a3-3423-4296-b193-a177dea644ac","system_id":"levelo_inurba_marseille","lat":43.27282,"lon":5.41625,"is_reserved":false,"is_disabled":true,"rental_uris":{"android":"levelo://app?vid=dbfce7a3-3423-4296-b193-a177dea644ac","ios":"levelo://app?vid=dbfce7a3-3423-4296-b193-a177dea644ac"},"vehicle_type_id":"4","last_reported":1750266657,"current_range_meters":0,"station_id":"","pricing_plan_id":"cebpf4jnsgd1na2vs0mg"},{"bike_id":"eff675e9-75ca-47c9-bd95-5090bc060d4f","system_id":"levelo_inurba_marseille","lat":43.34033,"lon":5.3611,"is_reserved":false,"is_disabled":true,"rental_uris":{"android":"levelo://app?vid=eff675e9-75ca-47c9-bd95-5090bc060d4f","ios":"levelo://app?vid=eff675e9-75ca-47c9-bd95-5090bc060d4f"},"vehicle_type_id":"4","last_reported":1750266657,"current_range_meters":0,"station_id":"","pricing_plan_id":"cebpf4jnsgd1na2vs0mg"},{"bike_id":"d2bd57c8-6b64-48db-ad24-5398eb3fd9d6","system_id":"levelo_inurba_marseille","lat":43.337444,"lon":5.374475,"is_reserved":false,"is_disabled":true,"rental_uris":{"android":"levelo://app?vid=d2bd57c8-6b64-48db-ad24-5398eb3fd9d6","ios":"levelo://app?vid=d2bd57c8-6b64-48db-ad24-5398eb3fd9d6"},"vehicle_type_id":"4","last_reported":1750266657,"current_range_meters":0,"station_id":"","pricing_plan_id":"cebpf4jnsgd1na2vs0mg"},{"bike_id":"62a493c7-4534-4419-ad43-0582de34a72a","system_id":"levelo_inurba_marseille","lat":43.21366,"lon":5.355183,"is_reserved":false,"is_disabled":true,"rental_uris":{"android":"levelo://app?vid=62a493c7-4534-4419-ad43-0582de34a72a","ios":"levelo://app?vid=62a493c7-4534-4419-ad43-0582de34a72a"},"vehicle_type_id":"4","last_reported":1750266657,"current_range_meters":0,"station_id":"","pricing_plan_id":"cebpf4jnsgd1na2vs0mg"},{"bike_id":"b9e37238-9abe-4b8b-b932-edaee33a7e59","system_id":"levelo_inurba_marseille","lat":43.27495,"lon":5.39012,"is_reserved":false,"is_disabled":true,"rental_uris":{"android":"levelo://app?vid=b9e37238-9abe-4b8b-b932-edaee33a7e59","ios":"levelo://app?vid=b9e37238-9abe-4b8b-b932-edaee33a7e59"},"vehicle_type_id":"4","last_reported":1750266657,"current_range_meters":0,"station_id":"","pricing_plan_id":"cebpf4jnsgd1na2vs0mg"},{"bike_id":"cba28a02-9f06-41dd-8645-e3bd321e07ba","system_id":"levelo_inurba_marseille","lat":43.2876,"lon":5.38708,"is_reserved":false,"is_disabled":true,"rental_uris":{"android":"levelo://app?vid=cba28a02-9f06-41dd-8645-e3bd321e07ba","ios":"levelo://app?vid=cba28a02-9f06-41dd-8645-e3bd321e07ba"},"vehicle_type_id":"4","last_reported":1750266657,"current_range_meters":0,"station_id":"","pricing_plan_id":"cebpf4jnsgd1na2vs0mg"},{"bike_id":"dba623ec-664c-4621-8832-8f9cf82566ea","system_id":"levelo_inurba_marseille","lat":43.2803,"lon":5.3686,"is_reserved":false,"is_disabled":true,"rental_uris":{"android":"levelo://app?vid=dba623ec-664c-4621-8832-8f9cf82566ea","ios":"levelo://app?vid=dba623ec-664c-4621-8832-8f9cf82566ea"},"vehicle_type_id":"4","last_reported":1750266657,"current_range_meters":0,"station_id":"","pricing_plan_id":"cebpf4jnsgd1na2vs0mg"},{"bike_id":"8ad9234e-001a-4549-8bba-9baf2ef98804","system_id":"levelo_inurba_marseille","lat":43.27413,"lon":5.39797,"is_reserved":false,"is_disabled":true,"rental_uris":{"android":"levelo://app?vid=8ad9234e-001a-4549-8bba-9baf2ef98804","ios":"levelo://app?vid=8ad9234e-001a-4549-8bba-9baf2ef98804"},"vehicle_type_id":"4","last_reported":1750266657,"current_range_meters":0,"station_id":"","pricing_plan_id":"cebpf4jnsgd1na2vs0mg"},{"bike_id":"ddf470bc-7dc9-4a99-a339-d9ae733e34d6","system_id":"levelo_inurba_marseille","lat":43.33448,"lon":5.40083,"is_reserved":false,"is_disabled":true,"rental_uris":{"android":"levelo://app?vid=ddf470bc-7dc9-4a99-a339-d9ae733e34d6","ios":"levelo://app?vid=ddf470bc-7dc9-4a99-a339-d9ae733e34d6"},"vehicle_type_id":"4","last_reported":1750266657,"current_range_meters":0,"station_id":"","pricing_plan_id":"cebpf4jnsgd1na2vs0mg"},{"bike_id":"f6856bde-c087-417e-98d5-459a2a731cea","system_id":"levelo_inurba_marseille","lat":43.2175,"lon":5.346,"is_reserved":false,"is_disabled":true,"rental_uris":{"android":"levelo://app?vid=f6856bde-c087-417e-98d5-459a2a731cea","ios":"levelo://app?vid=f6856bde-c087-417e-98d5-459a2a731cea"},"vehicle_type_id":"4","last_reported":1750266657,"current_range_meters":0,"station_id":"","pricing_plan_id":"cebpf4jnsgd1na2vs0mg"},{"bike_id":"93af304b-67b5-47b8-a3fd-e0775f7cde8c","system_id":"levelo_inurba_marseille","lat":43.215301,"lon":5.347406,"is_reserved":false,"is_disabled":true,"rental_uris":{"android":"levelo://app?vid=93af304b-67b5-47b8-a3fd-e0775f7cde8c","ios":"levelo://app?vid=93af304b-67b5-47b8-a3fd-e0775f7cde8c"},"vehicle_type_id":"4","last_reported":1750266657,"current_range_meters":0,"station_id":"","pricing_plan_id":"cebpf4jnsgd1na2vs0mg"},{"bike_id":"d6609b4f-333b-43c1-9ebe-8726f5e76e88","system_id":"levelo_inurba_marseille","lat":43.337444,"lon":5.374475,"is_reserved":false,"is_disabled":true,"rental_uris":{"android":"levelo://app?vid=d6609b4f-333b-43c1-9ebe-8726f5e76e88","ios":"levelo://app?vid=d6609b4f-333b-43c1-9ebe-8726f5e76e88"},"vehicle_type_id":"4","last_reported":1750266657,"current_range_meters":0,"station_id":"","pricing_plan_id":"cebpf4jnsgd1na2vs0mg"},{"bike_id":"57c83ce1-960e-466a-b6c5-d93bc130c53a","system_id":"levelo_inurba_marseille","lat":43.24907,"lon":5.39003,"is_reserved":false,"is_disabled":true,"rental_uris":{"android":"levelo://app?vid=57c83ce1-960e-466a-b6c5-d93bc130c53a","ios":"levelo://app?vid=57c83ce1-960e-466a-b6c5-d93bc130c53a"},"vehicle_type_id":"4","last_reported":1750266657,"current_range_meters":0,"station_id":"","pricing_plan_id":"cebpf4jnsgd1na2vs0mg"},{"bike_id":"41e07387-4a2e-4dd8-8f58-a7a708e5f066","system_id":"levelo_inurba_marseille","lat":43.26246,"lon":5.37219,"is_reserved":false,"is_disabled":true,"rental_uris":{"android":"levelo://app?vid=41e07387-4a2e-4dd8-8f58-a7a708e5f066","ios":"levelo://app?vid=41e07387-4a2e-4dd8-8f58-a7a708e5f066"},"vehicle_type_id":"4","last_reported":1750266657,"current_range_meters":0,"station_id":"","pricing_plan_id":"cebpf4jnsgd1na2vs0mg"},{"bike_id":"ed4d8c4b-e0e4-4c8f-8b19-8fced453b808","system_id":"levelo_inurba_marseille","lat":43.30134,"lon":5.38786,"is_reserved":false,"is_disabled":true,"rental_uris":{"android":"levelo://app?vid=ed4d8c4b-e0e4-4c8f-8b19-8fced453b808","ios":"levelo://app?vid=ed4d8c4b-e0e4-4c8f-8b19-8fced453b808"},"vehicle_type_id":"4","last_reported":1750266657,"current_range_meters":0,"station_id":"ce4bghh2rcd13ifvqb60","pricing_plan_id":"cebpf4jnsgd1na2vs0mg"},{"bike_id":"daec0a24-b128-49e2-9f95-68e380d5fc31","system_id":"levelo_inurba_marseille","lat":43.27617,"lon":5.36109,"is_reserved":false,"is_disabled":true,"rental_uris":{"android":"levelo://app?vid=daec0a24-b128-49e2-9f95-68e380d5fc31","ios":"levelo://app?vid=daec0a24-b128-49e2-9f95-68e380d5fc31"},"vehicle_type_id":"4","last_reported":1750266657,"current_range_meters":0,"station_id":"ce4bgj92rcd13ifvqbe0","pricing_plan_id":"cebpf4jnsgd1na2vs0mg"},{"bike_id":"4bf02b76-284e-4b07-b924-f442c19f8a96","system_id":"levelo_inurba_marseille","lat":43.29596,"lon":5.38107,"is_reserved":false,"is_disabled":true,"rental_uris":{"android":"levelo://app?vid=4bf02b76-284e-4b07-b924-f442c19f8a96","ios":"levelo://app?vid=4bf02b76-284e-4b07-b924-f442c19f8a96"},"vehicle_type_id":"4","last_reported":1750266657,"current_range_meters":0,"station_id":"ce4bgl12rcd13ifvqbo0","pricing_plan_id":"cebpf4jnsgd1na2vs0mg"},{"bike_id":"b1a7a914-c91a-4e43-bbf2-438f6c69d3a2","system_id":"levelo_inurba_marseille","lat":43.30137,"lon":5.39855,"is_reserved":false,"is_disabled":true,"rental_uris":{"android":"levelo://app?vid=b1a7a914-c91a-4e43-bbf2-438f6c69d3a2","ios":"levelo://app?vid=b1a7a914-c91a-4e43-bbf2-438f6c69d3a2"},"vehicle_type_id":"4","last_reported":1750266657,"current_range_meters":0,"station_id":"ce4bh0h2rcd13ifvqd40","pricing_plan_id":"cebpf4jnsgd1na2vs0mg"},{"bike_id":"3de4bb19-58ef-4ce1-99a6-dce8e670756b","system_id":"levelo_inurba_marseille","lat":43.28701,"lon":5.37397,"is_reserved":false,"is_disabled":true,"rental_uris":{"android":"levelo://app?vid=3de4bb19-58ef-4ce1-99a6-dce8e670756b","ios":"levelo://app?vid=3de4bb19-58ef-4ce1-99a6-dce8e670756b"},"vehicle_type_id":"4","last_reported":1750266657,"current_range_meters":0,"station_id":"ce4bh3p2rcd13ifvqdq0","pricing_plan_id":"cebpf4jnsgd1na2vs0mg"},{"bike_id":"3bb4538a-9379-4d8f-ae43-c141e6506e22","system_id":"levelo_inurba_marseille","lat":43.283337,"lon":5.389154,"is_reserved":false,"is_disabled":true,"rental_uris":{"android":"levelo://app?vid=3bb4538a-9379-4d8f-ae43-c141e6506e22","ios":"levelo://app?vid=3bb4538a-9379-4d8f-ae43-c141e6506e22"},"vehicle_type_id":"4","last_reported":1750266657,"current_range_meters":0,"station_id":"ce4bh512rcd13ifvqe3g","pricing_plan_id":"cebpf4jnsgd1na2vs0mg"},{"bike_id":"ae9f59e6-b1a8-426e-a7e2-b622ab56bfe4","system_id":"levelo_inurba_marseille","lat":43.29255,"lon":5.38445,"is_reserved":false,"is_disabled":true,"rental_uris":{"android":"levelo://app?vid=ae9f59e6-b1a8-426e-a7e2-b622ab56bfe4","ios":"levelo://app?vid=ae9f59e6-b1a8-426e-a7e2-b622ab56bfe4"},"vehicle_type_id":"4","last_reported":1750266657,"current_range_meters":0,"station_id":"ce4bh692rcd13ifvqea0","pricing_plan_id":"cebpf4jnsgd1na2vs0mg"},{"bike_id":"9579d238-6476-4504-9c82-158169e9f0c2","system_id":"levelo_inurba_marseille","lat":43.28039,"lon":5.36946,"is_reserved":false,"is_disabled":true,"rental_uris":{"android":"levelo://app?vid=9579d238-6476-4504-9c82-158169e9f0c2","ios":"levelo://app?vid=9579d238-6476-4504-9c82-158169e9f0c2"},"vehicle_type_id":"4","last_reported":1750266657,"current_range_meters":0,"station_id":"ce4bha12rcd13ifvqef0","pricing_plan_id":"cebpf4jnsgd1na2vs0mg"},{"bike_id":"d4763505-79ce-466c-9e59-d70b5e25cdfc","system_id":"levelo_inurba_marseille","lat":43.27376,"lon":5.36259,"is_reserved":false,"is_disabled":true,"rental_uris":{"android":"levelo://app?vid=d4763505-79ce-466c-9e59-d70b5e25cdfc","ios":"levelo://app?vid=d4763505-79ce-466c-9e59-d70b5e25cdfc"},"vehicle_type_id":"4","last_reported":1750266657,"current_range_meters":0,"station_id":"ce4bhbh2rcd13ifvqeo0","pricing_plan_id":"cebpf4jnsgd1na2vs0mg"},{"bike_id":"a8253738-69fa-4c62-8c75-824ad2557298","system_id":"levelo_inurba_marseille","lat":43.29222,"lon":5.36056,"is_reserved":false,"is_disabled":true,"rental_uris":{"android":"levelo://app?vid=a8253738-69fa-4c62-8c75-824ad2557298","ios":"levelo://app?vid=a8253738-69fa-4c62-8c75-824ad2557298"},"vehicle_type_id":"4","last_reported":1750266657,"current_range_meters":0,"station_id":"ce4bhbh2rcd13ifvqeqg","pricing_plan_id":"cebpf4jnsgd1na2vs0mg"},{"bike_id":"5ba4f936-d07b-411c-a0bb-c07ce9279069","system_id":"levelo_inurba_marseille","lat":43.29222,"lon":5.36061,"is_reserved":false,"is_disabled":true,"rental_uris":{"android":"levelo://app?vid=5ba4f936-d07b-411c-a0bb-c07ce9279069","ios":"levelo://app?vid=5ba4f936-d07b-411c-a0bb-c07ce9279069"},"vehicle_type_id":"4","last_reported":1750266657,"current_range_meters":0,"station_id":"ce4bhbh2rcd13ifvqeqg","pricing_plan_id":"cebpf4jnsgd1na2vs0mg"},{"bike_id":"48d42306-cbd9-43d3-ac50-55ad42d2d915","system_id":"levelo_inurba_marseille","lat":43.28256,"lon":5.35061,"is_reserved":false,"is_disabled":true,"rental_uris":{"android":"levelo://app?vid=48d42306-cbd9-43d3-ac50-55ad42d2d915","ios":"levelo://app?vid=48d42306-cbd9-43d3-ac50-55ad42d2d915"},"vehicle_type_id":"4","last_reported":1750266657,"current_range_meters":0,"station_id":"ce4bhbp2rcd13ifvqerg","pricing_plan_id":"cebpf4jnsgd1na2vs0mg"},{"bike_id":"83a46d59-27ef-4cab-a54c-af13b8a48a65","system_id":"levelo_inurba_marseille","lat":43.28615,"lon":5.35105,"is_reserved":false,"is_disabled":true,"rental_uris":{"android":"levelo://app?vid=83a46d59-27ef-4cab-a54c-af13b8a48a65","ios":"levelo://app?vid=83a46d59-27ef-4cab-a54c-af13b8a48a65"},"vehicle_type_id":"4","last_reported":1750266657,"current_range_meters":0,"station_id":"ce4bhch2rcd13ifvqeug","pricing_plan_id":"cebpf4jnsgd1na2vs0mg"},{"bike_id":"5a063966-a838-4702-9d39-d767a1955c2a","system_id":"levelo_inurba_marseille","lat":43.27936,"lon":5.38712,"is_reserved":false,"is_disabled":true,"rental_uris":{"android":"levelo://app?vid=5a063966-a838-4702-9d39-d767a1955c2a","ios":"levelo://app?vid=5a063966-a838-4702-9d39-d767a1955c2a"},"vehicle_type_id":"4","last_reported":1750266657,"current_range_meters":0,"station_id":"ce4bhg12rcd13ifvqf80","pricing_plan_id":"cebpf4jnsgd1na2vs0mg"},{"bike_id":"2fe74759-1948-4f6b-90c3-7702df5a28ac","system_id":"levelo_inurba_marseille","lat":43.24805,"lon":5.37454,"is_reserved":false,"is_disabled":true,"rental_uris":{"android":"levelo://app?vid=2fe74759-1948-4f6b-90c3-7702df5a28ac","ios":"levelo://app?vid=2fe74759-1948-4f6b-90c3-7702df5a28ac"},"vehicle_type_id":"4","last_reported":1750266657,"current_range_meters":0,"station_id":"ce4bhgh2rcd13ifvqfb0","pricing_plan_id":"cebpf4jnsgd1na2vs0mg"},{"bike_id":"fc3e9f7c-02c7-48d9-af16-8c0731bb2d63","system_id":"levelo_inurba_marseille","lat":43.25488,"lon":5.37644,"is_reserved":false,"is_disabled":true,"rental_uris":{"android":"levelo://app?vid=fc3e9f7c-02c7-48d9-af16-8c0731bb2d63","ios":"levelo://app?vid=fc3e9f7c-02c7-48d9-af16-8c0731bb2d63"},"vehicle_type_id":"4","last_reported":1750266657,"current_range_meters":0,"station_id":"ce4bhh12rcd13ifvqff0","pricing_plan_id":"cebpf4jnsgd1na2vs0mg"},{"bike_id":"ae44ee64-b73c-48b1-8468-a9bdab0474a0","system_id":"levelo_inurba_marseille","lat":43.239784,"lon":5.366445,"is_reserved":false,"is_disabled":true,"rental_uris":{"android":"levelo://app?vid=ae44ee64-b73c-48b1-8468-a9bdab0474a0","ios":"levelo://app?vid=ae44ee64-b73c-48b1-8468-a9bdab0474a0"},"vehicle_type_id":"4","last_reported":1750266657,"current_range_meters":0,"station_id":"ce4bhi12rcd13ifvqfp0","pricing_plan_id":"cebpf4jnsgd1na2vs0mg"},{"bike_id":"744c54ea-4f8e-40f0-851f-017cc532b001","system_id":"levelo_inurba_marseille","lat":43.25119,"lon":5.40319,"is_reserved":false,"is_disabled":true,"rental_uris":{"android":"levelo://app?vid=744c54ea-4f8e-40f0-851f-017cc532b001","ios":"levelo://app?vid=744c54ea-4f8e-40f0-851f-017cc532b001"},"vehicle_type_id":"4","last_reported":1750266657,"current_range_meters":0,"station_id":"ce4bhlh2rcd13ifvqgig","pricing_plan_id":"cebpf4jnsgd1na2vs0mg"},{"bike_id":"c2af95fd-48c7-4214-96ff-23456cf9c505","system_id":"levelo_inurba_marseille","lat":43.23158,"lon":5.43705,"is_reserved":false,"is_disabled":true,"rental_uris":{"android":"levelo://app?vid=c2af95fd-48c7-4214-96ff-23456cf9c505","ios":"levelo://app?vid=c2af95fd-48c7-4214-96ff-23456cf9c505"},"vehicle_type_id":"4","last_reported":1750266657,"current_range_meters":0,"station_id":"ce4bhmp2rcd13ifvqgog","pricing_plan_id":"cebpf4jnsgd1na2vs0mg"},{"bike_id":"7ed4528b-db1f-4713-8e38-948cd77dd08b","system_id":"levelo_inurba_marseille","lat":43.297793,"lon":5.393418,"is_reserved":false,"is_disabled":true,"rental_uris":{"android":"levelo://app?vid=7ed4528b-db1f-4713-8e38-948cd77dd08b","ios":"levelo://app?vid=7ed4528b-db1f-4713-8e38-948cd77dd08b"},"vehicle_type_id":"4","last_reported":1750266657,"current_range_meters":0,"station_id":"chh1huq6cuj3fo74tm60","pricing_plan_id":"cebpf4jnsgd1na2vs0mg"},{"bike_id":"bc81a397-aae3-4e78-aa3e-c9b45e8bd116","system_id":"levelo_inurba_marseille","lat":43.33993,"lon":5.40671,"is_reserved":false,"is_disabled":true,"rental_uris":{"android":"levelo://app?vid=bc81a397-aae3-4e78-aa3e-c9b45e8bd116","ios":"levelo://app?vid=bc81a397-aae3-4e78-aa3e-c9b45e8bd116"},"vehicle_type_id":"4","last_reported":1750266657,"current_range_meters":400,"station_id":"","pricing_plan_id":"cebpf4jnsgd1na2vs0mg"},{"bike_id":"a7890f6e-be46-43c8-897e-f7723d64e017","system_id":"levelo_inurba_marseille","lat":43.271222,"lon":5.392296,"is_reserved":false,"is_disabled":true,"rental_uris":{"android":"levelo://app?vid=a7890f6e-be46-43c8-897e-f7723d64e017","ios":"levelo://app?vid=a7890f6e-be46-43c8-897e-f7723d64e017"},"vehicle_type_id":"4","last_reported":1750266657,"current_range_meters":400,"station_id":"","pricing_plan_id":"cebpf4jnsgd1na2vs0mg"},{"bike_id":"290c2111-8e4b-4459-be94-83b6ac081f7d","system_id":"levelo_inurba_marseille","lat":43.29627,"lon":5.40595,"is_reserved":false,"is_disabled":true,"rental_uris":{"android":"levelo://app?vid=290c2111-8e4b-4459-be94-83b6ac081f7d","ios":"levelo://app?vid=290c2111-8e4b-4459-be94-83b6ac081f7d"},"vehicle_type_id":"4","last_reported":1750266657,"current_range_meters":400,"station_id":"ce4bh0h2rcd13ifvqd60","pricing_plan_id":"cebpf4jnsgd1na2vs0mg"},{"bike_id":"3175ca17-aa04-4e2c-991a-75d581c1e7fb","system_id":"levelo_inurba_marseille","lat":43.29006,"lon":5.3561,"is_reserved":false,"is_disabled":true,"rental_uris":{"android":"levelo://app?vid=3175ca17-aa04-4e2c-991a-75d581c1e7fb","ios":"levelo://app?vid=3175ca17-aa04-4e2c-991a-75d581c1e7fb"},"vehicle_type_id":"4","last_reported":1750266657,"current_range_meters":400,"station_id":"ce4bhb92rcd13ifvqen0","pricing_plan_id":"cebpf4jnsgd1na2vs0mg"},{"bike_id":"86e093fc-1723-40ce-9960-e588d4e8d4d8","system_id":"levelo_inurba_marseille","lat":43.2657,"lon":5.39016,"is_reserved":false,"is_disabled":true,"rental_uris":{"android":"levelo://app?vid=86e093fc-1723-40ce-9960-e588d4e8d4d8","ios":"levelo://app?vid=86e093fc-1723-40ce-9960-e588d4e8d4d8"},"vehicle_type_id":"4","last_reported":1750266657,"current_range_meters":400,"station_id":"ce4bhe12rcd13ifvqf30","pricing_plan_id":"cebpf4jnsgd1na2vs0mg"},{"bike_id":"6aa6dc97-3986-4f6f-b98f-9df054f7b007","system_id":"levelo_inurba_marseille","lat":43.24646,"lon":5.38901,"is_reserved":false,"is_disabled":true,"rental_uris":{"android":"levelo://app?vid=6aa6dc97-3986-4f6f-b98f-9df054f7b007","ios":"levelo://app?vid=6aa6dc97-3986-4f6f-b98f-9df054f7b007"},"vehicle_type_id":"4","last_reported":1750266657,"current_range_meters":400,"station_id":"ce4bhg12rcd13ifvqf60","pricing_plan_id":"cebpf4jnsgd1na2vs0mg"},{"bike_id":"274b257a-c768-45cd-9003-d1c15fdcea04","system_id":"levelo_inurba_marseille","lat":43.23189,"lon":5.39976,"is_reserved":false,"is_disabled":true,"rental_uris":{"android":"levelo://app?vid=274b257a-c768-45cd-9003-d1c15fdcea04","ios":"levelo://app?vid=274b257a-c768-45cd-9003-d1c15fdcea04"},"vehicle_type_id":"4","last_reported":1750266657,"current_range_meters":400,"station_id":"ce4bhn12rcd13ifvqgqg","pricing_plan_id":"cebpf4jnsgd1na2vs0mg"},{"bike_id":"b9d124f1-7b90-4eed-94ac-973f6853d2ce","system_id":"levelo_inurba_marseille","lat":43.24066,"lon":5.37747,"is_reserved":false,"is_disabled":true,"rental_uris":{"android":"levelo://app?vid=b9d124f1-7b90-4eed-94ac-973f6853d2ce","ios":"levelo://app?vid=b9d124f1-7b90-4eed-94ac-973f6853d2ce"},"vehicle_type_id":"4","last_reported":1750266657,"current_range_meters":400,"station_id":"ce4bhnp2rcd13ifvqgvg","pricing_plan_id":"cebpf4jnsgd1na2vs0mg"},{"bike_id":"d5a29cea-7ed8-4f49-8d6c-ab65fb9b9ffc","system_id":"levelo_inurba_marseille","lat":43.2319,"lon":5.35559,"is_reserved":false,"is_disabled":true,"rental_uris":{"android":"levelo://app?vid=d5a29cea-7ed8-4f49-8d6c-ab65fb9b9ffc","ios":"levelo://app?vid=d5a29cea-7ed8-4f49-8d6c-ab65fb9b9ffc"},"vehicle_type_id":"4","last_reported":1750266657,"current_range_meters":400,"station_id":"ce4bhu92rcd13ifvqi70","pricing_plan_id":"cebpf4jnsgd1na2vs0mg"},{"bike_id":"b6d27190-b949-4a3d-816f-d496cdfa6600","system_id":"levelo_inurba_marseille","lat":43.212,"lon":5.350613,"is_reserved":false,"is_disabled":true,"rental_uris":{"android":"levelo://app?vid=b6d27190-b949-4a3d-816f-d496cdfa6600","ios":"levelo://app?vid=b6d27190-b949-4a3d-816f-d496cdfa6600"},"vehicle_type_id":"4","last_reported":1750266657,"current_range_meters":400,"station_id":"st_cvj6sg6p6f1abm77japg","pricing_plan_id":"cebpf4jnsgd1na2vs0mg"},{"bike_id":"4ae929dc-7753-4e20-b5c5-0451a569a32c","system_id":"levelo_inurba_marseille","lat":43.31325,"lon":5.39682,"is_reserved":false,"is_disabled":true,"rental_uris":{"android":"levelo://app?vid=4ae929dc-7753-4e20-b5c5-0451a569a32c","ios":"levelo://app?vid=4ae929dc-7753-4e20-b5c5-0451a569a32c"},"vehicle_type_id":"4","last_reported":1750266657,"current_range_meters":800,"station_id":"ce4bgvp2rcd13ifvqcu0","pricing_plan_id":"cebpf4jnsgd1na2vs0mg"},{"bike_id":"d435f34b-3861-4916-91e9-23b34b9d7fb6","system_id":"levelo_inurba_marseille","lat":43.30426,"lon":5.39751,"is_reserved":false,"is_disabled":true,"rental_uris":{"android":"levelo://app?vid=d435f34b-3861-4916-91e9-23b34b9d7fb6","ios":"levelo://app?vid=d435f34b-3861-4916-91e9-23b34b9d7fb6"},"vehicle_type_id":"4","last_reported":1750266657,"current_range_meters":800,"station_id":"ce4bh092rcd13ifvqd20","pricing_plan_id":"cebpf4jnsgd1na2vs0mg"},{"bike_id":"8fde05cf-04ad-42ad-ae82-56aa7cb5fa03","system_id":"levelo_inurba_marseille","lat":43.28839,"lon":5.39325,"is_reserved":false,"is_disabled":true,"rental_uris":{"android":"levelo://app?vid=8fde05cf-04ad-42ad-ae82-56aa7cb5fa03","ios":"levelo://app?vid=8fde05cf-04ad-42ad-ae82-56aa7cb5fa03"},"vehicle_type_id":"4","last_reported":1750266657,"current_range_meters":800,"station_id":"ce4bh2p2rcd13ifvqdi0","pricing_plan_id":"cebpf4jnsgd1na2vs0mg"},{"bike_id":"e9836099-d211-462e-8f8d-18b102ddd501","system_id":"levelo_inurba_marseille","lat":43.273753,"lon":5.362604,"is_reserved":false,"is_disabled":false,"rental_uris":{"android":"levelo://app?vid=e9836099-d211-462e-8f8d-18b102ddd501","ios":"levelo://app?vid=e9836099-d211-462e-8f8d-18b102ddd501"},"vehicle_type_id":"4","last_reported":1750266657,"current_range_meters":800,"station_id":"ce4bhbh2rcd13ifvqeo0","pricing_plan_id":"cebpf4jnsgd1na2vs0mg"},{"bike_id":"ca0eb338-cee1-49b3-9154-3055d72d06bf","system_id":"levelo_inurba_marseille","lat":43.273727,"lon":5.362608,"is_reserved":false,"is_disabled":true,"rental_uris":{"android":"levelo://app?vid=ca0eb338-cee1-49b3-9154-3055d72d06bf","ios":"levelo://app?vid=ca0eb338-cee1-49b3-9154-3055d72d06bf"},"vehicle_type_id":"4","last_reported":1750266657,"current_range_meters":800,"station_id":"ce4bhbh2rcd13ifvqeo0","pricing_plan_id":"cebpf4jnsgd1na2vs0mg"},{"bike_id":"21cd4e37-84e8-4a77-973a-9fe97b1fa22f","system_id":"levelo_inurba_marseille","lat":43.28177,"lon":5.42641,"is_reserved":false,"is_disabled":true,"rental_uris":{"android":"levelo://app?vid=21cd4e37-84e8-4a77-973a-9fe97b1fa22f","ios":"levelo://app?vid=21cd4e37-84e8-4a77-973a-9fe97b1fa22f"},"vehicle_type_id":"4","last_reported":1750266657,"current_range_meters":800,"station_id":"ce4bhnh2rcd13ifvqgug","pricing_plan_id":"cebpf4jnsgd1na2vs0mg"},{"bike_id":"410aa7ba-2e28-467e-813c-91aee5dd0924","system_id":"levelo_inurba_marseille","lat":43.3136,"lon":5.38495,"is_reserved":false,"is_disabled":true,"rental_uris":{"android":"levelo://app?vid=410aa7ba-2e28-467e-813c-91aee5dd0924","ios":"levelo://app?vid=410aa7ba-2e28-467e-813c-91aee5dd0924"},"vehicle_type_id":"4","last_reported":1750266657,"current_range_meters":1200,"station_id":"ce4bgt92rcd13ifvqcf0","pricing_plan_id":"cebpf4jnsgd1na2vs0mg"},{"bike_id":"ebe3adaa-35d4-4ac3-ba23-7a7d3ed7ad80","system_id":"levelo_inurba_marseille","lat":43.29866,"lon":5.39734,"is_reserved":false,"is_disabled":true,"rental_uris":{"android":"levelo://app?vid=ebe3adaa-35d4-4ac3-ba23-7a7d3ed7ad80","ios":"levelo://app?vid=ebe3adaa-35d4-4ac3-ba23-7a7d3ed7ad80"},"vehicle_type_id":"4","last_reported":1750266657,"current_range_meters":1200,"station_id":"ce4bh0h2rcd13ifvqd50","pricing_plan_id":"cebpf4jnsgd1na2vs0mg"},{"bike_id":"88e88316-3c30-4337-9401-406b7f350b0c","system_id":"levelo_inurba_marseille","lat":43.30085,"lon":5.39098,"is_reserved":false,"is_disabled":true,"rental_uris":{"android":"levelo://app?vid=88e88316-3c30-4337-9401-406b7f350b0c","ios":"levelo://app?vid=88e88316-3c30-4337-9401-406b7f350b0c"},"vehicle_type_id":"4","last_reported":1750266657,"current_range_meters":1200,"station_id":"ce4bh192rcd13ifvqdb0","pricing_plan_id":"cebpf4jnsgd1na2vs0mg"},{"bike_id":"bf9bbd64-94b1-4c17-91d5-eb6f5d721876","system_id":"levelo_inurba_marseille","lat":43.26563,"lon":5.37269,"is_reserved":false,"is_disabled":true,"rental_uris":{"android":"levelo://app?vid=bf9bbd64-94b1-4c17-91d5-eb6f5d721876","ios":"levelo://app?vid=bf9bbd64-94b1-4c17-91d5-eb6f5d721876"},"vehicle_type_id":"4","last_reported":1750266657,"current_range_meters":1200,"station_id":"ce4bhg12rcd13ifvqf70","pricing_plan_id":"cebpf4jnsgd1na2vs0mg"},{"bike_id":"b2a92dae-8506-4bec-be6c-3b7313213eb9","system_id":"levelo_inurba_marseille","lat":43.23153,"lon":5.43712,"is_reserved":false,"is_disabled":true,"rental_uris":{"android":"levelo://app?vid=b2a92dae-8506-4bec-be6c-3b7313213eb9","ios":"levelo://app?vid=b2a92dae-8506-4bec-be6c-3b7313213eb9"},"vehicle_type_id":"4","last_reported":1750266657,"current_range_meters":1200,"station_id":"ce4bhmp2rcd13ifvqgog","pricing_plan_id":"cebpf4jnsgd1na2vs0mg"},{"bike_id":"2395248d-0fef-4e4f-ba8e-f8283c94ae53","system_id":"levelo_inurba_marseille","lat":43.31251,"lon":5.394953,"is_reserved":false,"is_disabled":true,"rental_uris":{"android":"levelo://app?vid=2395248d-0fef-4e4f-ba8e-f8283c94ae53","ios":"levelo://app?vid=2395248d-0fef-4e4f-ba8e-f8283c94ae53"},"vehicle_type_id":"4","last_reported":1750266657,"current_range_meters":1600,"station_id":"","pricing_plan_id":"cebpf4jnsgd1na2vs0mg"},{"bike_id":"1e295ab5-b14a-418d-a493-b2f675684700","system_id":"levelo_inurba_marseille","lat":43.28401,"lon":5.37514,"is_reserved":false,"is_disabled":true,"rental_uris":{"android":"levelo://app?vid=1e295ab5-b14a-418d-a493-b2f675684700","ios":"levelo://app?vid=1e295ab5-b14a-418d-a493-b2f675684700"},"vehicle_type_id":"4","last_reported":1750266657,"current_range_meters":1600,"station_id":"ce4bh412rcd13ifvqds0","pricing_plan_id":"cebpf4jnsgd1na2vs0mg"},{"bike_id":"6f1fd33e-c7a3-41bc-8ec7-2675c75ff37e","system_id":"levelo_inurba_marseille","lat":43.28693,"lon":5.38643,"is_reserved":false,"is_disabled":true,"rental_uris":{"android":"levelo://app?vid=6f1fd33e-c7a3-41bc-8ec7-2675c75ff37e","ios":"levelo://app?vid=6f1fd33e-c7a3-41bc-8ec7-2675c75ff37e"},"vehicle_type_id":"4","last_reported":1750266657,"current_range_meters":1600,"station_id":"ce4bh492rcd13ifvqdug","pricing_plan_id":"cebpf4jnsgd1na2vs0mg"},{"bike_id":"f2a6ff1d-b6fb-40df-ba4c-55879894787a","system_id":"levelo_inurba_marseille","lat":43.29031,"lon":5.38647,"is_reserved":false,"is_disabled":false,"rental_uris":{"android":"levelo://app?vid=f2a6ff1d-b6fb-40df-ba4c-55879894787a","ios":"levelo://app?vid=f2a6ff1d-b6fb-40df-ba4c-55879894787a"},"vehicle_type_id":"4","last_reported":1750266657,"current_range_meters":1600,"station_id":"ce4bh4p2rcd13ifvqe0g","pricing_plan_id":"cebpf4jnsgd1na2vs0mg"},{"bike_id":"dccb4cc0-0943-4a38-b15e-54ba25c43bb6","system_id":"levelo_inurba_marseille","lat":43.28923,"lon":5.38399,"is_reserved":false,"is_disabled":true,"rental_uris":{"android":"levelo://app?vid=dccb4cc0-0943-4a38-b15e-54ba25c43bb6","ios":"levelo://app?vid=dccb4cc0-0943-4a38-b15e-54ba25c43bb6"},"vehicle_type_id":"4","last_reported":1750266657,"current_range_meters":1600,"station_id":"ce4bh612rcd13ifvqe6g","pricing_plan_id":"cebpf4jnsgd1na2vs0mg"},{"bike_id":"830c7b2f-f9d5-459b-9252-c990758e6bf2","system_id":"levelo_inurba_marseille","lat":43.24545,"lon":5.39517,"is_reserved":false,"is_disabled":true,"rental_uris":{"android":"levelo://app?vid=830c7b2f-f9d5-459b-9252-c990758e6bf2","ios":"levelo://app?vid=830c7b2f-f9d5-459b-9252-c990758e6bf2"},"vehicle_type_id":"4","last_reported":1750266657,"current_range_meters":1600,"station_id":"ce4bhlp2rcd13ifvqgjg","pricing_plan_id":"cebpf4jnsgd1na2vs0mg"},{"bike_id":"47196f00-388f-4b3b-a4de-3dba126cd107","system_id":"levelo_inurba_marseille","lat":43.24374,"lon":5.41162,"is_reserved":false,"is_disabled":true,"rental_uris":{"android":"levelo://app?vid=47196f00-388f-4b3b-a4de-3dba126cd107","ios":"levelo://app?vid=47196f00-388f-4b3b-a4de-3dba126cd107"},"vehicle_type_id":"4","last_reported":1750266657,"current_range_meters":2000,"station_id":"","pricing_plan_id":"cebpf4jnsgd1na2vs0mg"},{"bike_id":"4f8305b7-9aa9-41ab-ac48-d9ee375cfa31","system_id":"levelo_inurba_marseille","lat":43.30259,"lon":5.40082,"is_reserved":false,"is_disabled":true,"rental_uris":{"android":"levelo://app?vid=4f8305b7-9aa9-41ab-ac48-d9ee375cfa31","ios":"levelo://app?vid=4f8305b7-9aa9-41ab-ac48-d9ee375cfa31"},"vehicle_type_id":"4","last_reported":1750266657,"current_range_meters":2000,"station_id":"ce4bgvh2rcd13ifvqcs0","pricing_plan_id":"cebpf4jnsgd1na2vs0mg"},{"bike_id":"b654f8b1-face-4906-a079-3ef19bf960e0","system_id":"levelo_inurba_marseille","lat":43.28036,"lon":5.36939,"is_reserved":false,"is_disabled":true,"rental_uris":{"android":"levelo://app?vid=b654f8b1-face-4906-a079-3ef19bf960e0","ios":"levelo://app?vid=b654f8b1-face-4906-a079-3ef19bf960e0"},"vehicle_type_id":"4","last_reported":1750266657,"current_range_meters":2000,"station_id":"ce4bha12rcd13ifvqef0","pricing_plan_id":"cebpf4jnsgd1na2vs0mg"},{"bike_id":"5550c7fd-860b-47ca-a68b-17d7b2092691","system_id":"levelo_inurba_marseille","lat":43.28418,"lon":5.34993,"is_reserved":false,"is_disabled":true,"rental_uris":{"android":"levelo://app?vid=5550c7fd-860b-47ca-a68b-17d7b2092691","ios":"levelo://app?vid=5550c7fd-860b-47ca-a68b-17d7b2092691"},"vehicle_type_id":"4","last_reported":1750266657,"current_range_meters":2000,"station_id":"ce4bhbh2rcd13ifvqepg","pricing_plan_id":"cebpf4jnsgd1na2vs0mg"},{"bike_id":"68f32392-c093-4294-9014-42fcb4c32388","system_id":"levelo_inurba_marseille","lat":43.29276,"lon":5.36839,"is_reserved":false,"is_disabled":true,"rental_uris":{"android":"levelo://app?vid=68f32392-c093-4294-9014-42fcb4c32388","ios":"levelo://app?vid=68f32392-c093-4294-9014-42fcb4c32388"},"vehicle_type_id":"4","last_reported":1750266657,"current_range_meters":2000,"station_id":"ce4bhbp2rcd13ifvqesg","pricing_plan_id":"cebpf4jnsgd1na2vs0mg"},{"bike_id":"2d0e786e-8316-4e2f-afb1-545c6ed9140c","system_id":"levelo_inurba_marseille","lat":43.266809,"lon":5.382699,"is_reserved":false,"is_disabled":true,"rental_uris":{"android":"levelo://app?vid=2d0e786e-8316-4e2f-afb1-545c6ed9140c","ios":"levelo://app?vid=2d0e786e-8316-4e2f-afb1-545c6ed9140c"},"vehicle_type_id":"4","last_reported":1750266657,"current_range_meters":2000,"station_id":"ce4bhg92rcd13ifvqf90","pricing_plan_id":"cebpf4jnsgd1na2vs0mg"},{"bike_id":"92084240-9f93-454c-8a1b-2e08de38e65f","system_id":"levelo_inurba_marseille","lat":43.26193,"lon":5.37447,"is_reserved":false,"is_disabled":true,"rental_uris":{"android":"levelo://app?vid=92084240-9f93-454c-8a1b-2e08de38e65f","ios":"levelo://app?vid=92084240-9f93-454c-8a1b-2e08de38e65f"},"vehicle_type_id":"4","last_reported":1750266657,"current_range_meters":2000,"station_id":"ce4bhgp2rcd13ifvqfc0","pricing_plan_id":"cebpf4jnsgd1na2vs0mg"},{"bike_id":"1e387e7a-f17b-4e3c-b6d5-a76268541ad3","system_id":"levelo_inurba_marseille","lat":43.24173,"lon":5.39729,"is_reserved":false,"is_disabled":true,"rental_uris":{"android":"levelo://app?vid=1e387e7a-f17b-4e3c-b6d5-a76268541ad3","ios":"levelo://app?vid=1e387e7a-f17b-4e3c-b6d5-a76268541ad3"},"vehicle_type_id":"4","last_reported":1750266657,"current_range_meters":2000,"station_id":"ce4bhn12rcd13ifvqgpg","pricing_plan_id":"cebpf4jnsgd1na2vs0mg"},{"bike_id":"ac1c17be-32dc-4449-8610-ca5bfe2cd501","system_id":"levelo_inurba_marseille","lat":43.33754,"lon":5.37456,"is_reserved":false,"is_disabled":false,"rental_uris":{"android":"levelo://app?vid=ac1c17be-32dc-4449-8610-ca5bfe2cd501","ios":"levelo://app?vid=ac1c17be-32dc-4449-8610-ca5bfe2cd501"},"vehicle_type_id":"4","last_reported":1750266657,"current_range_meters":2800,"station_id":"","pricing_plan_id":"cebpf4jnsgd1na2vs0mg"},{"bike_id":"33e9c9da-1cc0-4262-ad00-281d3e3f35fc","system_id":"levelo_inurba_marseille","lat":43.33774,"lon":5.37465,"is_reserved":false,"is_disabled":false,"rental_uris":{"android":"levelo://app?vid=33e9c9da-1cc0-4262-ad00-281d3e3f35fc","ios":"levelo://app?vid=33e9c9da-1cc0-4262-ad00-281d3e3f35fc"},"vehicle_type_id":"4","last_reported":1750266657,"current_range_meters":2800,"station_id":"","pricing_plan_id":"cebpf4jnsgd1na2vs0mg"},{"bike_id":"ac3e0d6a-979d-4d71-bc66-af9d75fad7ae","system_id":"levelo_inurba_marseille","lat":43.28856,"lon":5.35862,"is_reserved":false,"is_disabled":false,"rental_uris":{"android":"levelo://app?vid=ac3e0d6a-979d-4d71-bc66-af9d75fad7ae","ios":"levelo://app?vid=ac3e0d6a-979d-4d71-bc66-af9d75fad7ae"},"vehicle_type_id":"4","last_reported":1750266657,"current_range_meters":2800,"station_id":"ce4bhb12rcd13ifvqem0","pricing_plan_id":"cebpf4jnsgd1na2vs0mg"},{"bike_id":"04b4d201-877d-40df-a588-6b56c320394a","system_id":"levelo_inurba_marseille","lat":43.261919,"lon":5.374479,"is_reserved":false,"is_disabled":false,"rental_uris":{"android":"levelo://app?vid=04b4d201-877d-40df-a588-6b56c320394a","ios":"levelo://app?vid=04b4d201-877d-40df-a588-6b56c320394a"},"vehicle_type_id":"4","last_reported":1750266657,"current_range_meters":2800,"station_id":"ce4bhgp2rcd13ifvqfc0","pricing_plan_id":"cebpf4jnsgd1na2vs0mg"},{"bike_id":"cf99eff4-5f4c-4a20-9993-a641979afbd6","system_id":"levelo_inurba_marseille","lat":43.25576,"lon":5.38224,"is_reserved":false,"is_disabled":false,"rental_uris":{"android":"levelo://app?vid=cf99eff4-5f4c-4a20-9993-a641979afbd6","ios":"levelo://app?vid=cf99eff4-5f4c-4a20-9993-a641979afbd6"},"vehicle_type_id":"4","last_reported":1750266657,"current_range_meters":2800,"station_id":"ce4bhih2rcd13ifvqfs0","pricing_plan_id":"cebpf4jnsgd1na2vs0mg"},{"bike_id":"084f82a6-1eca-4985-a6bb-ea29e2a327b4","system_id":"levelo_inurba_marseille","lat":43.309486,"lon":5.40602,"is_reserved":false,"is_disabled":false,"rental_uris":{"android":"levelo://app?vid=084f82a6-1eca-4985-a6bb-ea29e2a327b4","ios":"levelo://app?vid=084f82a6-1eca-4985-a6bb-ea29e2a327b4"},"vehicle_type_id":"4","last_reported":1750266657,"current_range_meters":3200,"station_id":"","pricing_plan_id":"cebpf4jnsgd1na2vs0mg"},{"bike_id":"97f01d7b-3f47-40a9-8e83-e4610e77291c","system_id":"levelo_inurba_marseille","lat":43.28454,"lon":5.35886,"is_reserved":false,"is_disabled":false,"rental_uris":{"android":"levelo://app?vid=97f01d7b-3f47-40a9-8e83-e4610e77291c","ios":"levelo://app?vid=97f01d7b-3f47-40a9-8e83-e4610e77291c"},"vehicle_type_id":"4","last_reported":1750266657,"current_range_meters":3200,"station_id":"ce4bhah2rcd13ifvqei0","pricing_plan_id":"cebpf4jnsgd1na2vs0mg"},{"bike_id":"e2e64d91-5db9-4792-afa6-41b441231943","system_id":"levelo_inurba_marseille","lat":43.28171,"lon":5.42634,"is_reserved":false,"is_disabled":false,"rental_uris":{"android":"levelo://app?vid=e2e64d91-5db9-4792-afa6-41b441231943","ios":"levelo://app?vid=e2e64d91-5db9-4792-afa6-41b441231943"},"vehicle_type_id":"4","last_reported":1750266657,"current_range_meters":3200,"station_id":"ce4bhnh2rcd13ifvqgug","pricing_plan_id":"cebpf4jnsgd1na2vs0mg"},{"bike_id":"317519c0-af08-4b82-b2f8-8fdf35f688d6","system_id":"levelo_inurba_marseille","lat":43.28007,"lon":5.40009,"is_reserved":false,"is_disabled":false,"rental_uris":{"android":"levelo://app?vid=317519c0-af08-4b82-b2f8-8fdf35f688d6","ios":"levelo://app?vid=317519c0-af08-4b82-b2f8-8fdf35f688d6"},"vehicle_type_id":"4","last_reported":1750266657,"current_range_meters":3200,"station_id":"ce4bho92rcd13ifvqh4g","pricing_plan_id":"cebpf4jnsgd1na2vs0mg"},{"bike_id":"fe753a6d-0961-441e-b4a4-a4fa5974f5cc","system_id":"levelo_inurba_marseille","lat":43.2119,"lon":5.35059,"is_reserved":false,"is_disabled":false,"rental_uris":{"android":"levelo://app?vid=fe753a6d-0961-441e-b4a4-a4fa5974f5cc","ios":"levelo://app?vid=fe753a6d-0961-441e-b4a4-a4fa5974f5cc"},"vehicle_type_id":"4","last_reported":1750266657,"current_range_meters":3200,"station_id":"st_cvj6sg6p6f1abm77japg","pricing_plan_id":"cebpf4jnsgd1na2vs0mg"},{"bike_id":"196d36c1-2800-4f7a-9fbc-8ae3d839a492","system_id":"levelo_inurba_marseille","lat":43.30932,"lon":5.3728,"is_reserved":false,"is_disabled":false,"rental_uris":{"android":"levelo://app?vid=196d36c1-2800-4f7a-9fbc-8ae3d839a492","ios":"levelo://app?vid=196d36c1-2800-4f7a-9fbc-8ae3d839a492"},"vehicle_type_id":"4","last_reported":1750266657,"current_range_meters":3600,"station_id":"","pricing_plan_id":"cebpf4jnsgd1na2vs0mg"},{"bike_id":"4887427e-0250-457d-bacd-3965aa7c5837","system_id":"levelo_inurba_marseille","lat":43.30216,"lon":5.39463,"is_reserved":false,"is_disabled":false,"rental_uris":{"android":"levelo://app?vid=4887427e-0250-457d-bacd-3965aa7c5837","ios":"levelo://app?vid=4887427e-0250-457d-bacd-3965aa7c5837"},"vehicle_type_id":"4","last_reported":1750266657,"current_range_meters":3600,"station_id":"ce4bh0p2rcd13ifvqd70","pricing_plan_id":"cebpf4jnsgd1na2vs0mg"},{"bike_id":"27c50a20-dbe5-4cbb-b57d-2883659ca2e6","system_id":"levelo_inurba_marseille","lat":43.2549,"lon":5.37647,"is_reserved":false,"is_disabled":false,"rental_uris":{"android":"levelo://app?vid=27c50a20-dbe5-4cbb-b57d-2883659ca2e6","ios":"levelo://app?vid=27c50a20-dbe5-4cbb-b57d-2883659ca2e6"},"vehicle_type_id":"4","last_reported":1750266657,"current_range_meters":3600,"station_id":"ce4bhh12rcd13ifvqff0","pricing_plan_id":"cebpf4jnsgd1na2vs0mg"},{"bike_id":"065131c5-6a1c-4df0-8b97-9487a9129177","system_id":"levelo_inurba_marseille","lat":43.24172,"lon":5.39725,"is_reserved":false,"is_disabled":false,"rental_uris":{"android":"levelo://app?vid=065131c5-6a1c-4df0-8b97-9487a9129177","ios":"levelo://app?vid=065131c5-6a1c-4df0-8b97-9487a9129177"},"vehicle_type_id":"4","last_reported":1750266657,"current_range_meters":3600,"station_id":"ce4bhn12rcd13ifvqgpg","pricing_plan_id":"cebpf4jnsgd1na2vs0mg"},{"bike_id":"4b45bc1a-5d40-407d-b3d3-0b91e3d6de3c","system_id":"levelo_inurba_marseille","lat":43.24168,"lon":5.36396,"is_reserved":false,"is_disabled":false,"rental_uris":{"android":"levelo://app?vid=4b45bc1a-5d40-407d-b3d3-0b91e3d6de3c","ios":"levelo://app?vid=4b45bc1a-5d40-407d-b3d3-0b91e3d6de3c"},"vehicle_type_id":"4","last_reported":1750266657,"current_range_meters":3600,"station_id":"cpo36qri1sfpv3e86is0","pricing_plan_id":"cebpf4jnsgd1na2vs0mg"},{"bike_id":"dcf38cf0-7284-4775-add2-8c5f9927b31c","system_id":"levelo_inurba_marseille","lat":43.25476,"lon":5.37866,"is_reserved":false,"is_disabled":false,"rental_uris":{"android":"levelo://app?vid=dcf38cf0-7284-4775-add2-8c5f9927b31c","ios":"levelo://app?vid=dcf38cf0-7284-4775-add2-8c5f9927b31c"},"vehicle_type_id":"4","last_reported":1750266657,"current_range_meters":4000,"station_id":"","pricing_plan_id":"cebpf4jnsgd1na2vs0mg"},{"bike_id":"7bd78ce1-6599-4874-abdf-102a0d5ab3c7","system_id":"levelo_inurba_marseille","lat":43.27373,"lon":5.36255,"is_reserved":false,"is_disabled":false,"rental_uris":{"android":"levelo://app?vid=7bd78ce1-6599-4874-abdf-102a0d5ab3c7","ios":"levelo://app?vid=7bd78ce1-6599-4874-abdf-102a0d5ab3c7"},"vehicle_type_id":"4","last_reported":1750266657,"current_range_meters":4000,"station_id":"ce4bhbh2rcd13ifvqeo0","pricing_plan_id":"cebpf4jnsgd1na2vs0mg"},{"bike_id":"e2cb1ff0-ba11-4326-9c73-b0037f9b4fea","system_id":"levelo_inurba_marseille","lat":43.2841,"lon":5.34998,"is_reserved":false,"is_disabled":false,"rental_uris":{"android":"levelo://app?vid=e2cb1ff0-ba11-4326-9c73-b0037f9b4fea","ios":"levelo://app?vid=e2cb1ff0-ba11-4326-9c73-b0037f9b4fea"},"vehicle_type_id":"4","last_reported":1750266657,"current_range_meters":4000,"station_id":"ce4bhbh2rcd13ifvqepg","pricing_plan_id":"cebpf4jnsgd1na2vs0mg"},{"bike_id":"84c97ad7-7f76-43a2-a032-9f559935b5a5","system_id":"levelo_inurba_marseille","lat":43.30144,"lon":5.37416,"is_reserved":false,"is_disabled":false,"rental_uris":{"android":"levelo://app?vid=84c97ad7-7f76-43a2-a032-9f559935b5a5","ios":"levelo://app?vid=84c97ad7-7f76-43a2-a032-9f559935b5a5"},"vehicle_type_id":"4","last_reported":1750266657,"current_range_meters":4400,"station_id":"ce4bgs92rcd13ifvqcc0","pricing_plan_id":"cebpf4jnsgd1na2vs0mg"},{"bike_id":"f39dfffc-94d5-42bd-8627-ffdf9c95cc83","system_id":"levelo_inurba_marseille","lat":43.27371,"lon":5.36258,"is_reserved":false,"is_disabled":false,"rental_uris":{"android":"levelo://app?vid=f39dfffc-94d5-42bd-8627-ffdf9c95cc83","ios":"levelo://app?vid=f39dfffc-94d5-42bd-8627-ffdf9c95cc83"},"vehicle_type_id":"4","last_reported":1750266657,"current_range_meters":4400,"station_id":"ce4bhbh2rcd13ifvqeo0","pricing_plan_id":"cebpf4jnsgd1na2vs0mg"},{"bike_id":"73ce3b4f-f100-4c63-992b-2b2261d92646","system_id":"levelo_inurba_marseille","lat":43.25573,"lon":5.38226,"is_reserved":false,"is_disabled":false,"rental_uris":{"android":"levelo://app?vid=73ce3b4f-f100-4c63-992b-2b2261d92646","ios":"levelo://app?vid=73ce3b4f-f100-4c63-992b-2b2261d92646"},"vehicle_type_id":"4","last_reported":1750266657,"current_range_meters":4400,"station_id":"ce4bhih2rcd13ifvqfs0","pricing_plan_id":"cebpf4jnsgd1na2vs0mg"},{"bike_id":"6ba80795-26da-43fa-ab60-6831760385ff","system_id":"levelo_inurba_marseille","lat":43.32571,"lon":5.41974,"is_reserved":false,"is_disabled":false,"rental_uris":{"android":"levelo://app?vid=6ba80795-26da-43fa-ab60-6831760385ff","ios":"levelo://app?vid=6ba80795-26da-43fa-ab60-6831760385ff"},"vehicle_type_id":"4","last_reported":1750266657,"current_range_meters":4800,"station_id":"","pricing_plan_id":"cebpf4jnsgd1na2vs0mg"},{"bike_id":"8bb1b490-e506-4d13-b4e3-42a420d05d10","system_id":"levelo_inurba_marseille","lat":43.28456,"lon":5.35894,"is_reserved":false,"is_disabled":false,"rental_uris":{"android":"levelo://app?vid=8bb1b490-e506-4d13-b4e3-42a420d05d10","ios":"levelo://app?vid=8bb1b490-e506-4d13-b4e3-42a420d05d10"},"vehicle_type_id":"4","last_reported":1750266657,"current_range_meters":4800,"station_id":"ce4bhah2rcd13ifvqei0","pricing_plan_id":"cebpf4jnsgd1na2vs0mg"},{"bike_id":"421a2331-bc7b-48b1-9411-f13e5755b611","system_id":"levelo_inurba_marseille","lat":43.2862,"lon":5.35095,"is_reserved":false,"is_disabled":false,"rental_uris":{"android":"levelo://app?vid=421a2331-bc7b-48b1-9411-f13e5755b611","ios":"levelo://app?vid=421a2331-bc7b-48b1-9411-f13e5755b611"},"vehicle_type_id":"4","last_reported":1750266657,"current_range_meters":4800,"station_id":"ce4bhch2rcd13ifvqeug","pricing_plan_id":"cebpf4jnsgd1na2vs0mg"},{"bike_id":"d56aa260-4f3d-40ac-a0e9-de07f9a72198","system_id":"levelo_inurba_marseille","lat":43.25574,"lon":5.38235,"is_reserved":false,"is_disabled":false,"rental_uris":{"android":"levelo://app?vid=d56aa260-4f3d-40ac-a0e9-de07f9a72198","ios":"levelo://app?vid=d56aa260-4f3d-40ac-a0e9-de07f9a72198"},"vehicle_type_id":"4","last_reported":1750266657,"current_range_meters":4800,"station_id":"ce4bhih2rcd13ifvqfs0","pricing_plan_id":"cebpf4jnsgd1na2vs0mg"},{"bike_id":"e4f0ca4f-a218-4392-9ee8-a3c155c48fbd","system_id":"levelo_inurba_marseille","lat":43.269435,"lon":5.402384,"is_reserved":false,"is_disabled":false,"rental_uris":{"android":"levelo://app?vid=e4f0ca4f-a218-4392-9ee8-a3c155c48fbd","ios":"levelo://app?vid=e4f0ca4f-a218-4392-9ee8-a3c155c48fbd"},"vehicle_type_id":"4","last_reported":1750266657,"current_range_meters":4800,"station_id":"cjm6bp8fraef2m0cb0m0","pricing_plan_id":"cebpf4jnsgd1na2vs0mg"},{"bike_id":"e03a6d42-f362-4878-ab56-4b5afba95b0c","system_id":"levelo_inurba_marseille","lat":43.31493,"lon":5.36887,"is_reserved":false,"is_disabled":false,"rental_uris":{"android":"levelo://app?vid=e03a6d42-f362-4878-ab56-4b5afba95b0c","ios":"levelo://app?vid=e03a6d42-f362-4878-ab56-4b5afba95b0c"},"vehicle_type_id":"4","last_reported":1750266657,"current_range_meters":5600,"station_id":"","pricing_plan_id":"cebpf4jnsgd1na2vs0mg"},{"bike_id":"fb7f0fca-328c-4590-8315-5fcf92aa068d","system_id":"levelo_inurba_marseille","lat":43.3377,"lon":5.37458,"is_reserved":false,"is_disabled":false,"rental_uris":{"android":"levelo://app?vid=fb7f0fca-328c-4590-8315-5fcf92aa068d","ios":"levelo://app?vid=fb7f0fca-328c-4590-8315-5fcf92aa068d"},"vehicle_type_id":"4","last_reported":1750266657,"current_range_meters":5600,"station_id":"","pricing_plan_id":"cebpf4jnsgd1na2vs0mg"},{"bike_id":"e1af7624-b6c8-4398-932e-bb4e5dd36774","system_id":"levelo_inurba_marseille","lat":43.31272,"lon":5.40166,"is_reserved":false,"is_disabled":false,"rental_uris":{"android":"levelo://app?vid=e1af7624-b6c8-4398-932e-bb4e5dd36774","ios":"levelo://app?vid=e1af7624-b6c8-4398-932e-bb4e5dd36774"},"vehicle_type_id":"4","last_reported":1750266657,"current_range_meters":5600,"station_id":"ce4bh092rcd13ifvqd30","pricing_plan_id":"cebpf4jnsgd1na2vs0mg"},{"bike_id":"8c5bbbe8-dcf4-4c62-8ae5-19704d7095d7","system_id":"levelo_inurba_marseille","lat":43.28709,"lon":5.37368,"is_reserved":false,"is_disabled":false,"rental_uris":{"android":"levelo://app?vid=8c5bbbe8-dcf4-4c62-8ae5-19704d7095d7","ios":"levelo://app?vid=8c5bbbe8-dcf4-4c62-8ae5-19704d7095d7"},"vehicle_type_id":"4","last_reported":1750266657,"current_range_meters":5600,"station_id":"ce4bh3p2rcd13ifvqdq0","pricing_plan_id":"cebpf4jnsgd1na2vs0mg"},{"bike_id":"2fb8c855-0135-4548-97a2-2598b1047775","system_id":"levelo_inurba_marseille","lat":43.284716,"lon":5.374517,"is_reserved":false,"is_disabled":false,"rental_uris":{"android":"levelo://app?vid=2fb8c855-0135-4548-97a2-2598b1047775","ios":"levelo://app?vid=2fb8c855-0135-4548-97a2-2598b1047775"},"vehicle_type_id":"4","last_reported":1750266657,"current_range_meters":5600,"station_id":"ce4bh692rcd13ifvqe90","pricing_plan_id":"cebpf4jnsgd1na2vs0mg"},{"bike_id":"623f41ce-84e7-44ea-bf95-cbaccbbf8599","system_id":"levelo_inurba_marseille","lat":43.28022,"lon":5.3695,"is_reserved":false,"is_disabled":false,"rental_uris":{"android":"levelo://app?vid=623f41ce-84e7-44ea-bf95-cbaccbbf8599","ios":"levelo://app?vid=623f41ce-84e7-44ea-bf95-cbaccbbf8599"},"vehicle_type_id":"4","last_reported":1750266657,"current_range_meters":5600,"station_id":"ce4bha12rcd13ifvqef0","pricing_plan_id":"cebpf4jnsgd1na2vs0mg"},{"bike_id":"c89a8120-e1f3-49f2-aa9b-db385944bb43","system_id":"levelo_inurba_marseille","lat":43.26498,"lon":5.39541,"is_reserved":false,"is_disabled":false,"rental_uris":{"android":"levelo://app?vid=c89a8120-e1f3-49f2-aa9b-db385944bb43","ios":"levelo://app?vid=c89a8120-e1f3-49f2-aa9b-db385944bb43"},"vehicle_type_id":"4","last_reported":1750266657,"current_range_meters":5600,"station_id":"ce4bhi12rcd13ifvqfq0","pricing_plan_id":"cebpf4jnsgd1na2vs0mg"},{"bike_id":"99ab12e0-7a33-4256-8b27-98c06db4badb","system_id":"levelo_inurba_marseille","lat":43.26226,"lon":5.40438,"is_reserved":false,"is_disabled":false,"rental_uris":{"android":"levelo://app?vid=99ab12e0-7a33-4256-8b27-98c06db4badb","ios":"levelo://app?vid=99ab12e0-7a33-4256-8b27-98c06db4badb"},"vehicle_type_id":"4","last_reported":1750266657,"current_range_meters":5600,"station_id":"ce4bhmh2rcd13ifvqgmg","pricing_plan_id":"cebpf4jnsgd1na2vs0mg"},{"bike_id":"0c2732ce-a727-46b0-af5a-af7ba2098b27","system_id":"levelo_inurba_marseille","lat":43.33776,"lon":5.37471,"is_reserved":false,"is_disabled":false,"rental_uris":{"android":"levelo://app?vid=0c2732ce-a727-46b0-af5a-af7ba2098b27","ios":"levelo://app?vid=0c2732ce-a727-46b0-af5a-af7ba2098b27"},"vehicle_type_id":"4","last_reported":1750266657,"current_range_meters":6000,"station_id":"","pricing_plan_id":"cebpf4jnsgd1na2vs0mg"},{"bike_id":"8bcf3213-c613-49a5-9864-a7bb1a1db2a7","system_id":"levelo_inurba_marseille","lat":43.286072,"lon":5.351123,"is_reserved":false,"is_disabled":false,"rental_uris":{"android":"levelo://app?vid=8bcf3213-c613-49a5-9864-a7bb1a1db2a7","ios":"levelo://app?vid=8bcf3213-c613-49a5-9864-a7bb1a1db2a7"},"vehicle_type_id":"4","last_reported":1750266657,"current_range_meters":6000,"station_id":"ce4bhch2rcd13ifvqeug","pricing_plan_id":"cebpf4jnsgd1na2vs0mg"},{"bike_id":"533587b5-4e16-4471-8fba-397797feda77","system_id":"levelo_inurba_marseille","lat":43.23178,"lon":5.39989,"is_reserved":false,"is_disabled":false,"rental_uris":{"android":"levelo://app?vid=533587b5-4e16-4471-8fba-397797feda77","ios":"levelo://app?vid=533587b5-4e16-4471-8fba-397797feda77"},"vehicle_type_id":"4","last_reported":1750266657,"current_range_meters":6000,"station_id":"ce4bhn12rcd13ifvqgqg","pricing_plan_id":"cebpf4jnsgd1na2vs0mg"},{"bike_id":"9386b0af-930b-4f92-ba93-7b50828b4056","system_id":"levelo_inurba_marseille","lat":43.28921,"lon":5.36395,"is_reserved":false,"is_disabled":false,"rental_uris":{"android":"levelo://app?vid=9386b0af-930b-4f92-ba93-7b50828b4056","ios":"levelo://app?vid=9386b0af-930b-4f92-ba93-7b50828b4056"},"vehicle_type_id":"4","last_reported":1750266657,"current_range_meters":6400,"station_id":"ce4bhc92rcd13ifvqetg","pricing_plan_id":"cebpf4jnsgd1na2vs0mg"},{"bike_id":"8d066f9a-7167-4a05-a35f-b0aced802ab5","system_id":"levelo_inurba_marseille","lat":43.28163,"lon":5.42646,"is_reserved":false,"is_disabled":false,"rental_uris":{"android":"levelo://app?vid=8d066f9a-7167-4a05-a35f-b0aced802ab5","ios":"levelo://app?vid=8d066f9a-7167-4a05-a35f-b0aced802ab5"},"vehicle_type_id":"4","last_reported":1750266657,"current_range_meters":6400,"station_id":"ce4bhnh2rcd13ifvqgug","pricing_plan_id":"cebpf4jnsgd1na2vs0mg"},{"bike_id":"64b8b83e-503a-4015-b7c1-3bd9b6c0bb97","system_id":"levelo_inurba_marseille","lat":43.30372,"lon":5.45142,"is_reserved":false,"is_disabled":false,"rental_uris":{"android":"levelo://app?vid=64b8b83e-503a-4015-b7c1-3bd9b6c0bb97","ios":"levelo://app?vid=64b8b83e-503a-4015-b7c1-3bd9b6c0bb97"},"vehicle_type_id":"4","last_reported":1750266657,"current_range_meters":6800,"station_id":"","pricing_plan_id":"cebpf4jnsgd1na2vs0mg"},{"bike_id":"9b03d009-01d4-4c17-a747-c0155e97351d","system_id":"levelo_inurba_marseille","lat":43.30944,"lon":5.39033,"is_reserved":false,"is_disabled":false,"rental_uris":{"android":"levelo://app?vid=9b03d009-01d4-4c17-a747-c0155e97351d","ios":"levelo://app?vid=9b03d009-01d4-4c17-a747-c0155e97351d"},"vehicle_type_id":"4","last_reported":1750266657,"current_range_meters":6800,"station_id":"ce4bgup2rcd13ifvqco0","pricing_plan_id":"cebpf4jnsgd1na2vs0mg"},{"bike_id":"03b1af3e-ec58-4d23-b262-b7ad7fb88b9c","system_id":"levelo_inurba_marseille","lat":43.3093,"lon":5.40151,"is_reserved":false,"is_disabled":false,"rental_uris":{"android":"levelo://app?vid=03b1af3e-ec58-4d23-b262-b7ad7fb88b9c","ios":"levelo://app?vid=03b1af3e-ec58-4d23-b262-b7ad7fb88b9c"},"vehicle_type_id":"4","last_reported":1750266657,"current_range_meters":6800,"station_id":"ce4bgvp2rcd13ifvqct0","pricing_plan_id":"cebpf4jnsgd1na2vs0mg"},{"bike_id":"13603010-4ba6-45d8-8742-faf7a41367fa","system_id":"levelo_inurba_marseille","lat":43.29269,"lon":5.38372,"is_reserved":false,"is_disabled":false,"rental_uris":{"android":"levelo://app?vid=13603010-4ba6-45d8-8742-faf7a41367fa","ios":"levelo://app?vid=13603010-4ba6-45d8-8742-faf7a41367fa"},"vehicle_type_id":"4","last_reported":1750266657,"current_range_meters":6800,"station_id":"ce4bh692rcd13ifvqea0","pricing_plan_id":"cebpf4jnsgd1na2vs0mg"},{"bike_id":"1a2775a4-17dd-4ebd-922f-f32649b713b4","system_id":"levelo_inurba_marseille","lat":43.28035,"lon":5.36948,"is_reserved":false,"is_disabled":false,"rental_uris":{"android":"levelo://app?vid=1a2775a4-17dd-4ebd-922f-f32649b713b4","ios":"levelo://app?vid=1a2775a4-17dd-4ebd-922f-f32649b713b4"},"vehicle_type_id":"4","last_reported":1750266657,"current_range_meters":6800,"station_id":"ce4bha12rcd13ifvqef0","pricing_plan_id":"cebpf4jnsgd1na2vs0mg"},{"bike_id":"9d6798fd-17cf-4bc3-807a-85e526881dc7","system_id":"levelo_inurba_marseille","lat":43.24808,"lon":5.37454,"is_reserved":false,"is_disabled":false,"rental_uris":{"android":"levelo://app?vid=9d6798fd-17cf-4bc3-807a-85e526881dc7","ios":"levelo://app?vid=9d6798fd-17cf-4bc3-807a-85e526881dc7"},"vehicle_type_id":"4","last_reported":1750266657,"current_range_meters":6800,"station_id":"ce4bhgh2rcd13ifvqfb0","pricing_plan_id":"cebpf4jnsgd1na2vs0mg"},{"bike_id":"3eb862ed-6dd3-43ae-ad5b-49496a394629","system_id":"levelo_inurba_marseille","lat":43.24387,"lon":5.37062,"is_reserved":false,"is_disabled":false,"rental_uris":{"android":"levelo://app?vid=3eb862ed-6dd3-43ae-ad5b-49496a394629","ios":"levelo://app?vid=3eb862ed-6dd3-43ae-ad5b-49496a394629"},"vehicle_type_id":"4","last_reported":1750266657,"current_range_meters":6800,"station_id":"ce4bhhh2rcd13ifvqfk0","pricing_plan_id":"cebpf4jnsgd1na2vs0mg"},{"bike_id":"820df921-69fc-426c-b325-82acf4918bb0","system_id":"levelo_inurba_marseille","lat":43.30604,"lon":5.372023,"is_reserved":false,"is_disabled":false,"rental_uris":{"android":"levelo://app?vid=820df921-69fc-426c-b325-82acf4918bb0","ios":"levelo://app?vid=820df921-69fc-426c-b325-82acf4918bb0"},"vehicle_type_id":"4","last_reported":1750266657,"current_range_meters":7200,"station_id":"ce4bgqh2rcd13ifvqc4g","pricing_plan_id":"cebpf4jnsgd1na2vs0mg"},{"bike_id":"6432083d-c42f-4775-b880-8fc9c3fbe519","system_id":"levelo_inurba_marseille","lat":43.29263,"lon":5.36855,"is_reserved":false,"is_disabled":false,"rental_uris":{"android":"levelo://app?vid=6432083d-c42f-4775-b880-8fc9c3fbe519","ios":"levelo://app?vid=6432083d-c42f-4775-b880-8fc9c3fbe519"},"vehicle_type_id":"4","last_reported":1750266657,"current_range_meters":7200,"station_id":"ce4bhbp2rcd13ifvqesg","pricing_plan_id":"cebpf4jnsgd1na2vs0mg"},{"bike_id":"4a137fe3-b53d-4034-9af7-dce372e101a9","system_id":"levelo_inurba_marseille","lat":43.260273,"lon":5.375472,"is_reserved":false,"is_disabled":false,"rental_uris":{"android":"levelo://app?vid=4a137fe3-b53d-4034-9af7-dce372e101a9","ios":"levelo://app?vid=4a137fe3-b53d-4034-9af7-dce372e101a9"},"vehicle_type_id":"4","last_reported":1750266657,"current_range_meters":7200,"station_id":"ce4bhgh2rcd13ifvqfa0","pricing_plan_id":"cebpf4jnsgd1na2vs0mg"},{"bike_id":"499cac35-ba00-499e-b15b-64773a7d708e","system_id":"levelo_inurba_marseille","lat":43.240767,"lon":5.377535,"is_reserved":false,"is_disabled":false,"rental_uris":{"android":"levelo://app?vid=499cac35-ba00-499e-b15b-64773a7d708e","ios":"levelo://app?vid=499cac35-ba00-499e-b15b-64773a7d708e"},"vehicle_type_id":"4","last_reported":1750266657,"current_range_meters":7200,"station_id":"ce4bhnp2rcd13ifvqgvg","pricing_plan_id":"cebpf4jnsgd1na2vs0mg"},{"bike_id":"c71db535-f7ab-4cc6-aeac-3830737f47f1","system_id":"levelo_inurba_marseille","lat":43.30233,"lon":5.39517,"is_reserved":false,"is_disabled":false,"rental_uris":{"android":"levelo://app?vid=c71db535-f7ab-4cc6-aeac-3830737f47f1","ios":"levelo://app?vid=c71db535-f7ab-4cc6-aeac-3830737f47f1"},"vehicle_type_id":"4","last_reported":1750266657,"current_range_meters":8000,"station_id":"","pricing_plan_id":"cebpf4jnsgd1na2vs0mg"},{"bike_id":"884efa12-ce77-4eba-9082-28398d130c75","system_id":"levelo_inurba_marseille","lat":43.30752,"lon":5.41056,"is_reserved":false,"is_disabled":false,"rental_uris":{"android":"levelo://app?vid=884efa12-ce77-4eba-9082-28398d130c75","ios":"levelo://app?vid=884efa12-ce77-4eba-9082-28398d130c75"},"vehicle_type_id":"4","last_reported":1750266657,"current_range_meters":8000,"station_id":"","pricing_plan_id":"cebpf4jnsgd1na2vs0mg"},{"bike_id":"6f3a0055-18ce-456d-886f-5dd53c809fc5","system_id":"levelo_inurba_marseille","lat":43.26783,"lon":5.42546,"is_reserved":false,"is_disabled":false,"rental_uris":{"android":"levelo://app?vid=6f3a0055-18ce-456d-886f-5dd53c809fc5","ios":"levelo://app?vid=6f3a0055-18ce-456d-886f-5dd53c809fc5"},"vehicle_type_id":"4","last_reported":1750266657,"current_range_meters":8000,"station_id":"","pricing_plan_id":"cebpf4jnsgd1na2vs0mg"},{"bike_id":"94bcc58f-7023-41cb-871b-3595da7eac8b","system_id":"levelo_inurba_marseille","lat":43.33141,"lon":5.38156,"is_reserved":false,"is_disabled":false,"rental_uris":{"android":"levelo://app?vid=94bcc58f-7023-41cb-871b-3595da7eac8b","ios":"levelo://app?vid=94bcc58f-7023-41cb-871b-3595da7eac8b"},"vehicle_type_id":"4","last_reported":1750266657,"current_range_meters":8000,"station_id":"","pricing_plan_id":"cebpf4jnsgd1na2vs0mg"},{"bike_id":"27285e5f-5dec-41f1-83be-f52109dbbc7d","system_id":"levelo_inurba_marseille","lat":43.27998,"lon":5.40004,"is_reserved":false,"is_disabled":false,"rental_uris":{"android":"levelo://app?vid=27285e5f-5dec-41f1-83be-f52109dbbc7d","ios":"levelo://app?vid=27285e5f-5dec-41f1-83be-f52109dbbc7d"},"vehicle_type_id":"4","last_reported":1750266657,"current_range_meters":8000,"station_id":"ce4bho92rcd13ifvqh4g","pricing_plan_id":"cebpf4jnsgd1na2vs0mg"},{"bike_id":"b5002037-f4b0-4634-8bc4-796d0c74810e","system_id":"levelo_inurba_marseille","lat":43.2439,"lon":5.41153,"is_reserved":false,"is_disabled":false,"rental_uris":{"android":"levelo://app?vid=b5002037-f4b0-4634-8bc4-796d0c74810e","ios":"levelo://app?vid=b5002037-f4b0-4634-8bc4-796d0c74810e"},"vehicle_type_id":"4","last_reported":1750266657,"current_range_meters":8400,"station_id":"","pricing_plan_id":"cebpf4jnsgd1na2vs0mg"},{"bike_id":"d8f4e644-fa3b-44f3-8c77-5acd58316b1c","system_id":"levelo_inurba_marseille","lat":43.284,"lon":5.34991,"is_reserved":false,"is_disabled":false,"rental_uris":{"android":"levelo://app?vid=d8f4e644-fa3b-44f3-8c77-5acd58316b1c","ios":"levelo://app?vid=d8f4e644-fa3b-44f3-8c77-5acd58316b1c"},"vehicle_type_id":"4","last_reported":1750266657,"current_range_meters":8400,"station_id":"ce4bhbh2rcd13ifvqepg","pricing_plan_id":"cebpf4jnsgd1na2vs0mg"},{"bike_id":"5c81de1f-c7b5-46ab-b5b0-d01e862d8145","system_id":"levelo_inurba_marseille","lat":43.28257,"lon":5.35073,"is_reserved":false,"is_disabled":false,"rental_uris":{"android":"levelo://app?vid=5c81de1f-c7b5-46ab-b5b0-d01e862d8145","ios":"levelo://app?vid=5c81de1f-c7b5-46ab-b5b0-d01e862d8145"},"vehicle_type_id":"4","last_reported":1750266657,"current_range_meters":8400,"station_id":"ce4bhbp2rcd13ifvqerg","pricing_plan_id":"cebpf4jnsgd1na2vs0mg"},{"bike_id":"60fb08a4-2554-498e-9982-50871e6cb637","system_id":"levelo_inurba_marseille","lat":43.28278,"lon":5.35071,"is_reserved":false,"is_disabled":false,"rental_uris":{"android":"levelo://app?vid=60fb08a4-2554-498e-9982-50871e6cb637","ios":"levelo://app?vid=60fb08a4-2554-498e-9982-50871e6cb637"},"vehicle_type_id":"4","last_reported":1750266657,"current_range_meters":8400,"station_id":"ce4bhbp2rcd13ifvqerg","pricing_plan_id":"cebpf4jnsgd1na2vs0mg"},{"bike_id":"907317be-68b4-47bf-97c9-800abf2c38cf","system_id":"levelo_inurba_marseille","lat":43.30375,"lon":5.42488,"is_reserved":false,"is_disabled":false,"rental_uris":{"android":"levelo://app?vid=907317be-68b4-47bf-97c9-800abf2c38cf","ios":"levelo://app?vid=907317be-68b4-47bf-97c9-800abf2c38cf"},"vehicle_type_id":"4","last_reported":1750266657,"current_range_meters":8400,"station_id":"ce4bhoh2rcd13ifvqh6g","pricing_plan_id":"cebpf4jnsgd1na2vs0mg"},{"bike_id":"75fd588d-acfb-46e9-8dd8-1fb428c7a2d5","system_id":"levelo_inurba_marseille","lat":43.33802,"lon":5.37464,"is_reserved":false,"is_disabled":false,"rental_uris":{"android":"levelo://app?vid=75fd588d-acfb-46e9-8dd8-1fb428c7a2d5","ios":"levelo://app?vid=75fd588d-acfb-46e9-8dd8-1fb428c7a2d5"},"vehicle_type_id":"4","last_reported":1750266657,"current_range_meters":8800,"station_id":"","pricing_plan_id":"cebpf4jnsgd1na2vs0mg"},{"bike_id":"2eb3a7b9-7c90-4bd9-b0f2-e7ed70f4e45b","system_id":"levelo_inurba_marseille","lat":43.284061,"lon":5.349768,"is_reserved":false,"is_disabled":false,"rental_uris":{"android":"levelo://app?vid=2eb3a7b9-7c90-4bd9-b0f2-e7ed70f4e45b","ios":"levelo://app?vid=2eb3a7b9-7c90-4bd9-b0f2-e7ed70f4e45b"},"vehicle_type_id":"4","last_reported":1750266657,"current_range_meters":8800,"station_id":"","pricing_plan_id":"cebpf4jnsgd1na2vs0mg"},{"bike_id":"2a22835e-2732-4f10-ba17-ca5167605045","system_id":"levelo_inurba_marseille","lat":43.28262,"lon":5.35061,"is_reserved":false,"is_disabled":false,"rental_uris":{"android":"levelo://app?vid=2a22835e-2732-4f10-ba17-ca5167605045","ios":"levelo://app?vid=2a22835e-2732-4f10-ba17-ca5167605045"},"vehicle_type_id":"4","last_reported":1750266657,"current_range_meters":8800,"station_id":"ce4bhbp2rcd13ifvqerg","pricing_plan_id":"cebpf4jnsgd1na2vs0mg"},{"bike_id":"1fa0ce4e-ee39-4481-ab81-9d6203bf51fd","system_id":"levelo_inurba_marseille","lat":43.28262,"lon":5.35078,"is_reserved":false,"is_disabled":false,"rental_uris":{"android":"levelo://app?vid=1fa0ce4e-ee39-4481-ab81-9d6203bf51fd","ios":"levelo://app?vid=1fa0ce4e-ee39-4481-ab81-9d6203bf51fd"},"vehicle_type_id":"4","last_reported":1750266657,"current_range_meters":8800,"station_id":"ce4bhbp2rcd13ifvqerg","pricing_plan_id":"cebpf4jnsgd1na2vs0mg"},{"bike_id":"83cfee7d-980d-496a-98c8-745c7e44c68d","system_id":"levelo_inurba_marseille","lat":43.32877,"lon":5.39083,"is_reserved":false,"is_disabled":false,"rental_uris":{"android":"levelo://app?vid=83cfee7d-980d-496a-98c8-745c7e44c68d","ios":"levelo://app?vid=83cfee7d-980d-496a-98c8-745c7e44c68d"},"vehicle_type_id":"4","last_reported":1750266657,"current_range_meters":9200,"station_id":"","pricing_plan_id":"cebpf4jnsgd1na2vs0mg"},{"bike_id":"45c98038-d5bd-44c9-a349-e8a86d84b4c7","system_id":"levelo_inurba_marseille","lat":43.28183,"lon":5.42584,"is_reserved":false,"is_disabled":false,"rental_uris":{"android":"levelo://app?vid=45c98038-d5bd-44c9-a349-e8a86d84b4c7","ios":"levelo://app?vid=45c98038-d5bd-44c9-a349-e8a86d84b4c7"},"vehicle_type_id":"4","last_reported":1750266657,"current_range_meters":9200,"station_id":"","pricing_plan_id":"cebpf4jnsgd1na2vs0mg"},{"bike_id":"2bff7311-bdc0-4fb4-9492-4eff81344bc1","system_id":"levelo_inurba_marseille","lat":43.21749,"lon":5.34594,"is_reserved":false,"is_disabled":false,"rental_uris":{"android":"levelo://app?vid=2bff7311-bdc0-4fb4-9492-4eff81344bc1","ios":"levelo://app?vid=2bff7311-bdc0-4fb4-9492-4eff81344bc1"},"vehicle_type_id":"4","last_reported":1750266657,"current_range_meters":9200,"station_id":"","pricing_plan_id":"cebpf4jnsgd1na2vs0mg"},{"bike_id":"d8643b93-79dd-4efd-9f62-5d5dfe05dddb","system_id":"levelo_inurba_marseille","lat":43.29256,"lon":5.40905,"is_reserved":false,"is_disabled":false,"rental_uris":{"android":"levelo://app?vid=d8643b93-79dd-4efd-9f62-5d5dfe05dddb","ios":"levelo://app?vid=d8643b93-79dd-4efd-9f62-5d5dfe05dddb"},"vehicle_type_id":"4","last_reported":1750266657,"current_range_meters":9200,"station_id":"ce4bh192rcd13ifvqdc0","pricing_plan_id":"cebpf4jnsgd1na2vs0mg"},{"bike_id":"66dbc151-066a-461f-a55f-dd041350aa6d","system_id":"levelo_inurba_marseille","lat":43.312714,"lon":5.386273,"is_reserved":false,"is_disabled":false,"rental_uris":{"android":"levelo://app?vid=66dbc151-066a-461f-a55f-dd041350aa6d","ios":"levelo://app?vid=66dbc151-066a-461f-a55f-dd041350aa6d"},"vehicle_type_id":"4","last_reported":1750266657,"current_range_meters":9200,"station_id":"ce4bhch2rcd13ifvqeug","pricing_plan_id":"cebpf4jnsgd1na2vs0mg"},{"bike_id":"56dd7471-75c4-4c21-ada1-d4e016b57c27","system_id":"levelo_inurba_marseille","lat":43.26539,"lon":5.3728,"is_reserved":false,"is_disabled":false,"rental_uris":{"android":"levelo://app?vid=56dd7471-75c4-4c21-ada1-d4e016b57c27","ios":"levelo://app?vid=56dd7471-75c4-4c21-ada1-d4e016b57c27"},"vehicle_type_id":"4","last_reported":1750266657,"current_range_meters":9200,"station_id":"ce4bhg12rcd13ifvqf70","pricing_plan_id":"cebpf4jnsgd1na2vs0mg"},{"bike_id":"b8c45a9a-f085-4d69-ac26-707a175df787","system_id":"levelo_inurba_marseille","lat":43.23187,"lon":5.39979,"is_reserved":false,"is_disabled":false,"rental_uris":{"android":"levelo://app?vid=b8c45a9a-f085-4d69-ac26-707a175df787","ios":"levelo://app?vid=b8c45a9a-f085-4d69-ac26-707a175df787"},"vehicle_type_id":"4","last_reported":1750266657,"current_range_meters":9200,"station_id":"ce4bhn12rcd13ifvqgqg","pricing_plan_id":"cebpf4jnsgd1na2vs0mg"},{"bike_id":"5045dd0e-61cd-4730-835a-9a7f104bb8fe","system_id":"levelo_inurba_marseille","lat":43.30329,"lon":5.40427,"is_reserved":false,"is_disabled":false,"rental_uris":{"android":"levelo://app?vid=5045dd0e-61cd-4730-835a-9a7f104bb8fe","ios":"levelo://app?vid=5045dd0e-61cd-4730-835a-9a7f104bb8fe"},"vehicle_type_id":"4","last_reported":1750266657,"current_range_meters":9600,"station_id":"ce4bh012rcd13ifvqd10","pricing_plan_id":"cebpf4jnsgd1na2vs0mg"},{"bike_id":"73ff1506-5889-42fd-8a9d-c124403b84ab","system_id":"levelo_inurba_marseille","lat":43.273772,"lon":5.362361,"is_reserved":false,"is_disabled":false,"rental_uris":{"android":"levelo://app?vid=73ff1506-5889-42fd-8a9d-c124403b84ab","ios":"levelo://app?vid=73ff1506-5889-42fd-8a9d-c124403b84ab"},"vehicle_type_id":"4","last_reported":1750266657,"current_range_meters":9600,"station_id":"ce4bhbh2rcd13ifvqeo0","pricing_plan_id":"cebpf4jnsgd1na2vs0mg"},{"bike_id":"e6f9a8b0-6bce-4526-9d7b-0e1996e2e693","system_id":"levelo_inurba_marseille","lat":43.28413,"lon":5.34984,"is_reserved":false,"is_disabled":false,"rental_uris":{"android":"levelo://app?vid=e6f9a8b0-6bce-4526-9d7b-0e1996e2e693","ios":"levelo://app?vid=e6f9a8b0-6bce-4526-9d7b-0e1996e2e693"},"vehicle_type_id":"4","last_reported":1750266657,"current_range_meters":9600,"station_id":"ce4bhbh2rcd13ifvqepg","pricing_plan_id":"cebpf4jnsgd1na2vs0mg"},{"bike_id":"f23876d6-a9f0-4c75-a97c-f15eb06b5682","system_id":"levelo_inurba_marseille","lat":43.292307,"lon":5.360656,"is_reserved":false,"is_disabled":false,"rental_uris":{"android":"levelo://app?vid=f23876d6-a9f0-4c75-a97c-f15eb06b5682","ios":"levelo://app?vid=f23876d6-a9f0-4c75-a97c-f15eb06b5682"},"vehicle_type_id":"4","last_reported":1750266657,"current_range_meters":9600,"station_id":"ce4bhbh2rcd13ifvqeqg","pricing_plan_id":"cebpf4jnsgd1na2vs0mg"},{"bike_id":"568730d0-876c-40c7-be41-cef3747ce893","system_id":"levelo_inurba_marseille","lat":43.28154,"lon":5.42641,"is_reserved":false,"is_disabled":false,"rental_uris":{"android":"levelo://app?vid=568730d0-876c-40c7-be41-cef3747ce893","ios":"levelo://app?vid=568730d0-876c-40c7-be41-cef3747ce893"},"vehicle_type_id":"4","last_reported":1750266657,"current_range_meters":9600,"station_id":"ce4bhnh2rcd13ifvqgug","pricing_plan_id":"cebpf4jnsgd1na2vs0mg"},{"bike_id":"093c8931-a494-481d-bd0d-9f40864a932a","system_id":"levelo_inurba_marseille","lat":43.28397,"lon":5.37518,"is_reserved":false,"is_disabled":false,"rental_uris":{"android":"levelo://app?vid=093c8931-a494-481d-bd0d-9f40864a932a","ios":"levelo://app?vid=093c8931-a494-481d-bd0d-9f40864a932a"},"vehicle_type_id":"4","last_reported":1750266657,"current_range_meters":10000,"station_id":"ce4bh412rcd13ifvqds0","pricing_plan_id":"cebpf4jnsgd1na2vs0mg"},{"bike_id":"0c7f5b3b-ae76-416f-aa73-0ea90cbb8103","system_id":"levelo_inurba_marseille","lat":43.28419,"lon":5.3498,"is_reserved":false,"is_disabled":false,"rental_uris":{"android":"levelo://app?vid=0c7f5b3b-ae76-416f-aa73-0ea90cbb8103","ios":"levelo://app?vid=0c7f5b3b-ae76-416f-aa73-0ea90cbb8103"},"vehicle_type_id":"4","last_reported":1750266657,"current_range_meters":10000,"station_id":"ce4bhbh2rcd13ifvqepg","pricing_plan_id":"cebpf4jnsgd1na2vs0mg"},{"bike_id":"3d6b54b7-663f-4a23-ba5a-334a23646269","system_id":"levelo_inurba_marseille","lat":43.23187,"lon":5.39981,"is_reserved":false,"is_disabled":false,"rental_uris":{"android":"levelo://app?vid=3d6b54b7-663f-4a23-ba5a-334a23646269","ios":"levelo://app?vid=3d6b54b7-663f-4a23-ba5a-334a23646269"},"vehicle_type_id":"4","last_reported":1750266657,"current_range_meters":10000,"station_id":"ce4bhn12rcd13ifvqgqg","pricing_plan_id":"cebpf4jnsgd1na2vs0mg"},{"bike_id":"c284610c-47f1-48c8-b8ce-93daf1404376","system_id":"levelo_inurba_marseille","lat":43.24168,"lon":5.36398,"is_reserved":false,"is_disabled":false,"rental_uris":{"android":"levelo://app?vid=c284610c-47f1-48c8-b8ce-93daf1404376","ios":"levelo://app?vid=c284610c-47f1-48c8-b8ce-93daf1404376"},"vehicle_type_id":"4","last_reported":1750266657,"current_range_meters":10000,"station_id":"cpo36qri1sfpv3e86is0","pricing_plan_id":"cebpf4jnsgd1na2vs0mg"},{"bike_id":"de0f7c2b-5974-4035-a240-8ed367c0e3f3","system_id":"levelo_inurba_marseille","lat":43.319641,"lon":5.37627,"is_reserved":false,"is_disabled":false,"rental_uris":{"android":"levelo://app?vid=de0f7c2b-5974-4035-a240-8ed367c0e3f3","ios":"levelo://app?vid=de0f7c2b-5974-4035-a240-8ed367c0e3f3"},"vehicle_type_id":"4","last_reported":1750266657,"current_range_meters":10800,"station_id":"","pricing_plan_id":"cebpf4jnsgd1na2vs0mg"},{"bike_id":"8bdb2c6a-591a-4960-b5ed-805bab55ca73","system_id":"levelo_inurba_marseille","lat":43.28249,"lon":5.35076,"is_reserved":false,"is_disabled":false,"rental_uris":{"android":"levelo://app?vid=8bdb2c6a-591a-4960-b5ed-805bab55ca73","ios":"levelo://app?vid=8bdb2c6a-591a-4960-b5ed-805bab55ca73"},"vehicle_type_id":"4","last_reported":1750266657,"current_range_meters":10800,"station_id":"ce4bhbp2rcd13ifvqerg","pricing_plan_id":"cebpf4jnsgd1na2vs0mg"},{"bike_id":"103096e4-ad17-4db0-a09f-c27dd36f1567","system_id":"levelo_inurba_marseille","lat":43.28612,"lon":5.350978,"is_reserved":false,"is_disabled":false,"rental_uris":{"android":"levelo://app?vid=103096e4-ad17-4db0-a09f-c27dd36f1567","ios":"levelo://app?vid=103096e4-ad17-4db0-a09f-c27dd36f1567"},"vehicle_type_id":"4","last_reported":1750266657,"current_range_meters":10800,"station_id":"ce4bhch2rcd13ifvqeug","pricing_plan_id":"cebpf4jnsgd1na2vs0mg"},{"bike_id":"c5419b15-e123-48c7-a538-c8117ef169d1","system_id":"levelo_inurba_marseille","lat":43.28157,"lon":5.426357,"is_reserved":false,"is_disabled":false,"rental_uris":{"android":"levelo://app?vid=c5419b15-e123-48c7-a538-c8117ef169d1","ios":"levelo://app?vid=c5419b15-e123-48c7-a538-c8117ef169d1"},"vehicle_type_id":"4","last_reported":1750266657,"current_range_meters":10800,"station_id":"ce4bhnh2rcd13ifvqgug","pricing_plan_id":"cebpf4jnsgd1na2vs0mg"},{"bike_id":"8d952564-e644-46c7-a1d8-8c827fd24bb9","system_id":"levelo_inurba_marseille","lat":43.24077,"lon":5.37754,"is_reserved":false,"is_disabled":false,"rental_uris":{"android":"levelo://app?vid=8d952564-e644-46c7-a1d8-8c827fd24bb9","ios":"levelo://app?vid=8d952564-e644-46c7-a1d8-8c827fd24bb9"},"vehicle_type_id":"4","last_reported":1750266657,"current_range_meters":10800,"station_id":"ce4bhnp2rcd13ifvqgvg","pricing_plan_id":"cebpf4jnsgd1na2vs0mg"},{"bike_id":"dd540525-4ae1-4885-9110-8f1a0279bba0","system_id":"levelo_inurba_marseille","lat":43.28258,"lon":5.35087,"is_reserved":false,"is_disabled":false,"rental_uris":{"android":"levelo://app?vid=dd540525-4ae1-4885-9110-8f1a0279bba0","ios":"levelo://app?vid=dd540525-4ae1-4885-9110-8f1a0279bba0"},"vehicle_type_id":"4","last_reported":1750266657,"current_range_meters":11200,"station_id":"ce4bhbp2rcd13ifvqerg","pricing_plan_id":"cebpf4jnsgd1na2vs0mg"},{"bike_id":"cb2f90a5-a732-4057-be50-72234397df93","system_id":"levelo_inurba_marseille","lat":43.28264,"lon":5.35077,"is_reserved":false,"is_disabled":false,"rental_uris":{"android":"levelo://app?vid=cb2f90a5-a732-4057-be50-72234397df93","ios":"levelo://app?vid=cb2f90a5-a732-4057-be50-72234397df93"},"vehicle_type_id":"4","last_reported":1750266657,"current_range_meters":11200,"station_id":"ce4bhbp2rcd13ifvqerg","pricing_plan_id":"cebpf4jnsgd1na2vs0mg"},{"bike_id":"3518210a-6d90-482f-a11b-11cb7c94acd1","system_id":"levelo_inurba_marseille","lat":43.26483,"lon":5.39234,"is_reserved":false,"is_disabled":false,"rental_uris":{"android":"levelo://app?vid=3518210a-6d90-482f-a11b-11cb7c94acd1","ios":"levelo://app?vid=3518210a-6d90-482f-a11b-11cb7c94acd1"},"vehicle_type_id":"4","last_reported":1750266657,"current_range_meters":11600,"station_id":"","pricing_plan_id":"cebpf4jnsgd1na2vs0mg"},{"bike_id":"1779e88a-59bf-445e-bfa3-0e97cfcc6574","system_id":"levelo_inurba_marseille","lat":43.27309,"lon":5.39074,"is_reserved":false,"is_disabled":false,"rental_uris":{"android":"levelo://app?vid=1779e88a-59bf-445e-bfa3-0e97cfcc6574","ios":"levelo://app?vid=1779e88a-59bf-445e-bfa3-0e97cfcc6574"},"vehicle_type_id":"4","last_reported":1750266657,"current_range_meters":11600,"station_id":"ce4bhgp2rcd13ifvqfe0","pricing_plan_id":"cebpf4jnsgd1na2vs0mg"},{"bike_id":"c23d6014-6858-4f81-9521-6d88d9ba5a61","system_id":"levelo_inurba_marseille","lat":43.23965,"lon":5.36633,"is_reserved":false,"is_disabled":false,"rental_uris":{"android":"levelo://app?vid=c23d6014-6858-4f81-9521-6d88d9ba5a61","ios":"levelo://app?vid=c23d6014-6858-4f81-9521-6d88d9ba5a61"},"vehicle_type_id":"4","last_reported":1750266657,"current_range_meters":11600,"station_id":"ce4bhi12rcd13ifvqfp0","pricing_plan_id":"cebpf4jnsgd1na2vs0mg"},{"bike_id":"8d51e8f0-064d-4e7d-b529-362917d0d915","system_id":"levelo_inurba_marseille","lat":43.28153,"lon":5.42637,"is_reserved":false,"is_disabled":false,"rental_uris":{"android":"levelo://app?vid=8d51e8f0-064d-4e7d-b529-362917d0d915","ios":"levelo://app?vid=8d51e8f0-064d-4e7d-b529-362917d0d915"},"vehicle_type_id":"4","last_reported":1750266657,"current_range_meters":11600,"station_id":"ce4bhnh2rcd13ifvqgug","pricing_plan_id":"cebpf4jnsgd1na2vs0mg"},{"bike_id":"d0d768f0-d8ed-4314-a1e0-d589be70f783","system_id":"levelo_inurba_marseille","lat":43.32389,"lon":5.40648,"is_reserved":false,"is_disabled":false,"rental_uris":{"android":"levelo://app?vid=d0d768f0-d8ed-4314-a1e0-d589be70f783","ios":"levelo://app?vid=d0d768f0-d8ed-4314-a1e0-d589be70f783"},"vehicle_type_id":"4","last_reported":1750266657,"current_range_meters":12000,"station_id":"","pricing_plan_id":"cebpf4jnsgd1na2vs0mg"},{"bike_id":"a5c0eca6-0a75-4353-941c-2563cb6f5966","system_id":"levelo_inurba_marseille","lat":43.27374,"lon":5.36255,"is_reserved":false,"is_disabled":false,"rental_uris":{"android":"levelo://app?vid=a5c0eca6-0a75-4353-941c-2563cb6f5966","ios":"levelo://app?vid=a5c0eca6-0a75-4353-941c-2563cb6f5966"},"vehicle_type_id":"4","last_reported":1750266657,"current_range_meters":12000,"station_id":"ce4bhbh2rcd13ifvqeo0","pricing_plan_id":"cebpf4jnsgd1na2vs0mg"},{"bike_id":"2c853b6d-254e-442b-80eb-aeb8b48ea442","system_id":"levelo_inurba_marseille","lat":43.28397,"lon":5.34986,"is_reserved":false,"is_disabled":false,"rental_uris":{"android":"levelo://app?vid=2c853b6d-254e-442b-80eb-aeb8b48ea442","ios":"levelo://app?vid=2c853b6d-254e-442b-80eb-aeb8b48ea442"},"vehicle_type_id":"4","last_reported":1750266657,"current_range_meters":12000,"station_id":"ce4bhbh2rcd13ifvqepg","pricing_plan_id":"cebpf4jnsgd1na2vs0mg"},{"bike_id":"f96fac91-fcd6-4cf6-94db-3fb959156263","system_id":"levelo_inurba_marseille","lat":43.28263,"lon":5.35084,"is_reserved":false,"is_disabled":false,"rental_uris":{"android":"levelo://app?vid=f96fac91-fcd6-4cf6-94db-3fb959156263","ios":"levelo://app?vid=f96fac91-fcd6-4cf6-94db-3fb959156263"},"vehicle_type_id":"4","last_reported":1750266657,"current_range_meters":12000,"station_id":"ce4bhbp2rcd13ifvqerg","pricing_plan_id":"cebpf4jnsgd1na2vs0mg"},{"bike_id":"d56b4825-d3f0-4bea-82fb-e1a074b7b489","system_id":"levelo_inurba_marseille","lat":43.2826,"lon":5.35079,"is_reserved":false,"is_disabled":false,"rental_uris":{"android":"levelo://app?vid=d56b4825-d3f0-4bea-82fb-e1a074b7b489","ios":"levelo://app?vid=d56b4825-d3f0-4bea-82fb-e1a074b7b489"},"vehicle_type_id":"4","last_reported":1750266657,"current_range_meters":12000,"station_id":"ce4bhbp2rcd13ifvqerg","pricing_plan_id":"cebpf4jnsgd1na2vs0mg"},{"bike_id":"79d0495e-dadd-4017-9f52-33cead7318f6","system_id":"levelo_inurba_marseille","lat":43.28964,"lon":5.364903,"is_reserved":false,"is_disabled":false,"rental_uris":{"android":"levelo://app?vid=79d0495e-dadd-4017-9f52-33cead7318f6","ios":"levelo://app?vid=79d0495e-dadd-4017-9f52-33cead7318f6"},"vehicle_type_id":"4","last_reported":1750266657,"current_range_meters":12000,"station_id":"ce4bhc92rcd13ifvqetg","pricing_plan_id":"cebpf4jnsgd1na2vs0mg"},{"bike_id":"b2ba0d07-f1e0-4d50-8e5d-ad0559d46a08","system_id":"levelo_inurba_marseille","lat":43.26194,"lon":5.37932,"is_reserved":false,"is_disabled":false,"rental_uris":{"android":"levelo://app?vid=b2ba0d07-f1e0-4d50-8e5d-ad0559d46a08","ios":"levelo://app?vid=b2ba0d07-f1e0-4d50-8e5d-ad0559d46a08"},"vehicle_type_id":"4","last_reported":1750266657,"current_range_meters":12000,"station_id":"ce4bhjp2rcd13ifvqg90","pricing_plan_id":"cebpf4jnsgd1na2vs0mg"},{"bike_id":"afd32feb-85c3-4629-9049-28b88f65377e","system_id":"levelo_inurba_marseille","lat":43.217175,"lon":5.345717,"is_reserved":false,"is_disabled":false,"rental_uris":{"android":"levelo://app?vid=afd32feb-85c3-4629-9049-28b88f65377e","ios":"levelo://app?vid=afd32feb-85c3-4629-9049-28b88f65377e"},"vehicle_type_id":"4","last_reported":1750266657,"current_range_meters":12000,"station_id":"cpo3532slgdg3j2ikp40","pricing_plan_id":"cebpf4jnsgd1na2vs0mg"},{"bike_id":"4b8da722-ee9e-48a4-a5e5-3a8a10364708","system_id":"levelo_inurba_marseille","lat":43.31219,"lon":5.37805,"is_reserved":false,"is_disabled":false,"rental_uris":{"android":"levelo://app?vid=4b8da722-ee9e-48a4-a5e5-3a8a10364708","ios":"levelo://app?vid=4b8da722-ee9e-48a4-a5e5-3a8a10364708"},"vehicle_type_id":"4","last_reported":1750266657,"current_range_meters":12400,"station_id":"","pricing_plan_id":"cebpf4jnsgd1na2vs0mg"},{"bike_id":"0dedb6f6-6801-483b-bfb8-9cd4533d158f","system_id":"levelo_inurba_marseille","lat":43.31144,"lon":5.38087,"is_reserved":false,"is_disabled":false,"rental_uris":{"android":"levelo://app?vid=0dedb6f6-6801-483b-bfb8-9cd4533d158f","ios":"levelo://app?vid=0dedb6f6-6801-483b-bfb8-9cd4533d158f"},"vehicle_type_id":"4","last_reported":1750266657,"current_range_meters":12400,"station_id":"","pricing_plan_id":"cebpf4jnsgd1na2vs0mg"},{"bike_id":"507d14ef-c922-4d3e-be5f-2c7aaef4c043","system_id":"levelo_inurba_marseille","lat":43.28256,"lon":5.35101,"is_reserved":false,"is_disabled":false,"rental_uris":{"android":"levelo://app?vid=507d14ef-c922-4d3e-be5f-2c7aaef4c043","ios":"levelo://app?vid=507d14ef-c922-4d3e-be5f-2c7aaef4c043"},"vehicle_type_id":"4","last_reported":1750266657,"current_range_meters":12400,"station_id":"ce4bhbp2rcd13ifvqerg","pricing_plan_id":"cebpf4jnsgd1na2vs0mg"},{"bike_id":"b9740617-416c-49ef-a593-d345aa13726b","system_id":"levelo_inurba_marseille","lat":43.27022,"lon":5.43112,"is_reserved":false,"is_disabled":false,"rental_uris":{"android":"levelo://app?vid=b9740617-416c-49ef-a593-d345aa13726b","ios":"levelo://app?vid=b9740617-416c-49ef-a593-d345aa13726b"},"vehicle_type_id":"4","last_reported":1750266657,"current_range_meters":12800,"station_id":"","pricing_plan_id":"cebpf4jnsgd1na2vs0mg"},{"bike_id":"b77a62fd-d5ac-41da-9797-a0ae84a81e3f","system_id":"levelo_inurba_marseille","lat":43.31075,"lon":5.38359,"is_reserved":false,"is_disabled":false,"rental_uris":{"android":"levelo://app?vid=b77a62fd-d5ac-41da-9797-a0ae84a81e3f","ios":"levelo://app?vid=b77a62fd-d5ac-41da-9797-a0ae84a81e3f"},"vehicle_type_id":"4","last_reported":1750266657,"current_range_meters":12800,"station_id":"ce4bgv92rcd13ifvqcr0","pricing_plan_id":"cebpf4jnsgd1na2vs0mg"},{"bike_id":"9fef4c82-a2ea-422f-805e-0d7c5494cee9","system_id":"levelo_inurba_marseille","lat":43.24806,"lon":5.37456,"is_reserved":false,"is_disabled":false,"rental_uris":{"android":"levelo://app?vid=9fef4c82-a2ea-422f-805e-0d7c5494cee9","ios":"levelo://app?vid=9fef4c82-a2ea-422f-805e-0d7c5494cee9"},"vehicle_type_id":"4","last_reported":1750266657,"current_range_meters":12800,"station_id":"ce4bhgh2rcd13ifvqfb0","pricing_plan_id":"cebpf4jnsgd1na2vs0mg"},{"bike_id":"9ea565d2-db7e-453f-a034-d7575831de86","system_id":"levelo_inurba_marseille","lat":43.29562,"lon":5.42283,"is_reserved":false,"is_disabled":false,"rental_uris":{"android":"levelo://app?vid=9ea565d2-db7e-453f-a034-d7575831de86","ios":"levelo://app?vid=9ea565d2-db7e-453f-a034-d7575831de86"},"vehicle_type_id":"4","last_reported":1750266657,"current_range_meters":12800,"station_id":"ce4bhph2rcd13ifvqhdg","pricing_plan_id":"cebpf4jnsgd1na2vs0mg"},{"bike_id":"155ad7b8-dc29-4ca8-bdc8-582add5147a8","system_id":"levelo_inurba_marseille","lat":43.28249,"lon":5.35093,"is_reserved":false,"is_disabled":false,"rental_uris":{"android":"levelo://app?vid=155ad7b8-dc29-4ca8-bdc8-582add5147a8","ios":"levelo://app?vid=155ad7b8-dc29-4ca8-bdc8-582add5147a8"},"vehicle_type_id":"4","last_reported":1750266657,"current_range_meters":13600,"station_id":"ce4bhbp2rcd13ifvqerg","pricing_plan_id":"cebpf4jnsgd1na2vs0mg"},{"bike_id":"9e2cb4c9-1993-4c88-9990-1e43ceea0297","system_id":"levelo_inurba_marseille","lat":43.28262,"lon":5.35084,"is_reserved":false,"is_disabled":false,"rental_uris":{"android":"levelo://app?vid=9e2cb4c9-1993-4c88-9990-1e43ceea0297","ios":"levelo://app?vid=9e2cb4c9-1993-4c88-9990-1e43ceea0297"},"vehicle_type_id":"4","last_reported":1750266657,"current_range_meters":13600,"station_id":"ce4bhbp2rcd13ifvqerg","pricing_plan_id":"cebpf4jnsgd1na2vs0mg"},{"bike_id":"56084ee7-25d3-4876-8fe0-e631097d5df1","system_id":"levelo_inurba_marseille","lat":43.25576,"lon":5.38226,"is_reserved":false,"is_disabled":false,"rental_uris":{"android":"levelo://app?vid=56084ee7-25d3-4876-8fe0-e631097d5df1","ios":"levelo://app?vid=56084ee7-25d3-4876-8fe0-e631097d5df1"},"vehicle_type_id":"4","last_reported":1750266657,"current_range_meters":13600,"station_id":"ce4bhih2rcd13ifvqfs0","pricing_plan_id":"cebpf4jnsgd1na2vs0mg"},{"bike_id":"44dd0901-6cbc-4d9a-8f73-7f6f2418a56f","system_id":"levelo_inurba_marseille","lat":43.31325,"lon":5.39686,"is_reserved":false,"is_disabled":false,"rental_uris":{"android":"levelo://app?vid=44dd0901-6cbc-4d9a-8f73-7f6f2418a56f","ios":"levelo://app?vid=44dd0901-6cbc-4d9a-8f73-7f6f2418a56f"},"vehicle_type_id":"4","last_reported":1750266657,"current_range_meters":14000,"station_id":"ce4bgvp2rcd13ifvqcu0","pricing_plan_id":"cebpf4jnsgd1na2vs0mg"},{"bike_id":"aec5601f-c162-44a5-ad90-413f0171a71e","system_id":"levelo_inurba_marseille","lat":43.28259,"lon":5.35064,"is_reserved":false,"is_disabled":false,"rental_uris":{"android":"levelo://app?vid=aec5601f-c162-44a5-ad90-413f0171a71e","ios":"levelo://app?vid=aec5601f-c162-44a5-ad90-413f0171a71e"},"vehicle_type_id":"4","last_reported":1750266657,"current_range_meters":14000,"station_id":"ce4bhbp2rcd13ifvqerg","pricing_plan_id":"cebpf4jnsgd1na2vs0mg"},{"bike_id":"1d736a35-5730-48b2-9ab6-3de2ce5da7a4","system_id":"levelo_inurba_marseille","lat":43.28151,"lon":5.42648,"is_reserved":false,"is_disabled":false,"rental_uris":{"android":"levelo://app?vid=1d736a35-5730-48b2-9ab6-3de2ce5da7a4","ios":"levelo://app?vid=1d736a35-5730-48b2-9ab6-3de2ce5da7a4"},"vehicle_type_id":"4","last_reported":1750266657,"current_range_meters":14000,"station_id":"ce4bhnh2rcd13ifvqgug","pricing_plan_id":"cebpf4jnsgd1na2vs0mg"},{"bike_id":"ff899b15-fdd1-4c2d-9023-b38ebd1a6335","system_id":"levelo_inurba_marseille","lat":43.23192,"lon":5.35551,"is_reserved":false,"is_disabled":false,"rental_uris":{"android":"levelo://app?vid=ff899b15-fdd1-4c2d-9023-b38ebd1a6335","ios":"levelo://app?vid=ff899b15-fdd1-4c2d-9023-b38ebd1a6335"},"vehicle_type_id":"4","last_reported":1750266657,"current_range_meters":14000,"station_id":"ce4bhu92rcd13ifvqi70","pricing_plan_id":"cebpf4jnsgd1na2vs0mg"},{"bike_id":"268aafb4-1331-426c-97bc-a7d6564caeb6","system_id":"levelo_inurba_marseille","lat":43.32933,"lon":5.37919,"is_reserved":false,"is_disabled":false,"rental_uris":{"android":"levelo://app?vid=268aafb4-1331-426c-97bc-a7d6564caeb6","ios":"levelo://app?vid=268aafb4-1331-426c-97bc-a7d6564caeb6"},"vehicle_type_id":"4","last_reported":1750266657,"current_range_meters":14400,"station_id":"","pricing_plan_id":"cebpf4jnsgd1na2vs0mg"},{"bike_id":"e5593aca-80e8-4c6a-a8f5-14b2adb06804","system_id":"levelo_inurba_marseille","lat":43.2922,"lon":5.36071,"is_reserved":false,"is_disabled":false,"rental_uris":{"android":"levelo://app?vid=e5593aca-80e8-4c6a-a8f5-14b2adb06804","ios":"levelo://app?vid=e5593aca-80e8-4c6a-a8f5-14b2adb06804"},"vehicle_type_id":"4","last_reported":1750266657,"current_range_meters":14400,"station_id":"ce4bhbh2rcd13ifvqeqg","pricing_plan_id":"cebpf4jnsgd1na2vs0mg"},{"bike_id":"df4e2464-49cf-4137-a654-97f7634a7442","system_id":"levelo_inurba_marseille","lat":43.24392,"lon":5.37059,"is_reserved":false,"is_disabled":false,"rental_uris":{"android":"levelo://app?vid=df4e2464-49cf-4137-a654-97f7634a7442","ios":"levelo://app?vid=df4e2464-49cf-4137-a654-97f7634a7442"},"vehicle_type_id":"4","last_reported":1750266657,"current_range_meters":14400,"station_id":"ce4bhhh2rcd13ifvqfk0","pricing_plan_id":"cebpf4jnsgd1na2vs0mg"},{"bike_id":"9d2a90e7-394f-41d8-ae49-77712a22ee78","system_id":"levelo_inurba_marseille","lat":43.25416,"lon":5.37728,"is_reserved":false,"is_disabled":false,"rental_uris":{"android":"levelo://app?vid=9d2a90e7-394f-41d8-ae49-77712a22ee78","ios":"levelo://app?vid=9d2a90e7-394f-41d8-ae49-77712a22ee78"},"vehicle_type_id":"4","last_reported":1750266657,"current_range_meters":14800,"station_id":"","pricing_plan_id":"cebpf4jnsgd1na2vs0mg"},{"bike_id":"80b25b1e-ae9d-4532-96ff-2d177cda8073","system_id":"levelo_inurba_marseille","lat":43.28615,"lon":5.35079,"is_reserved":false,"is_disabled":false,"rental_uris":{"android":"levelo://app?vid=80b25b1e-ae9d-4532-96ff-2d177cda8073","ios":"levelo://app?vid=80b25b1e-ae9d-4532-96ff-2d177cda8073"},"vehicle_type_id":"4","last_reported":1750266657,"current_range_meters":14800,"station_id":"ce4bhch2rcd13ifvqeug","pricing_plan_id":"cebpf4jnsgd1na2vs0mg"},{"bike_id":"975d7472-abaa-40d3-8524-613626275fdc","system_id":"levelo_inurba_marseille","lat":43.23203,"lon":5.35549,"is_reserved":false,"is_disabled":false,"rental_uris":{"android":"levelo://app?vid=975d7472-abaa-40d3-8524-613626275fdc","ios":"levelo://app?vid=975d7472-abaa-40d3-8524-613626275fdc"},"vehicle_type_id":"4","last_reported":1750266657,"current_range_meters":14800,"station_id":"ce4bhu92rcd13ifvqi70","pricing_plan_id":"cebpf4jnsgd1na2vs0mg"},{"bike_id":"2d436c77-2599-42be-ae7a-ea700afefca6","system_id":"levelo_inurba_marseille","lat":43.24166,"lon":5.36391,"is_reserved":false,"is_disabled":false,"rental_uris":{"android":"levelo://app?vid=2d436c77-2599-42be-ae7a-ea700afefca6","ios":"levelo://app?vid=2d436c77-2599-42be-ae7a-ea700afefca6"},"vehicle_type_id":"4","last_reported":1750266657,"current_range_meters":14800,"station_id":"cpo36qri1sfpv3e86is0","pricing_plan_id":"cebpf4jnsgd1na2vs0mg"},{"bike_id":"441a6de5-2efc-4a73-a575-fc46c4c3e35f","system_id":"levelo_inurba_marseille","lat":43.28378,"lon":5.3863,"is_reserved":false,"is_disabled":false,"rental_uris":{"android":"levelo://app?vid=441a6de5-2efc-4a73-a575-fc46c4c3e35f","ios":"levelo://app?vid=441a6de5-2efc-4a73-a575-fc46c4c3e35f"},"vehicle_type_id":"4","last_reported":1750266657,"current_range_meters":15200,"station_id":"ce4bh492rcd13ifvqdvg","pricing_plan_id":"cebpf4jnsgd1na2vs0mg"},{"bike_id":"7408ce09-7f52-4ef0-8aef-a2cb816967f3","system_id":"levelo_inurba_marseille","lat":43.28406,"lon":5.3499,"is_reserved":false,"is_disabled":false,"rental_uris":{"android":"levelo://app?vid=7408ce09-7f52-4ef0-8aef-a2cb816967f3","ios":"levelo://app?vid=7408ce09-7f52-4ef0-8aef-a2cb816967f3"},"vehicle_type_id":"4","last_reported":1750266657,"current_range_meters":15200,"station_id":"ce4bhbh2rcd13ifvqepg","pricing_plan_id":"cebpf4jnsgd1na2vs0mg"},{"bike_id":"9637a346-4b0e-40cd-9fce-b2ca02d9432c","system_id":"levelo_inurba_marseille","lat":43.28617,"lon":5.35104,"is_reserved":false,"is_disabled":false,"rental_uris":{"android":"levelo://app?vid=9637a346-4b0e-40cd-9fce-b2ca02d9432c","ios":"levelo://app?vid=9637a346-4b0e-40cd-9fce-b2ca02d9432c"},"vehicle_type_id":"4","last_reported":1750266657,"current_range_meters":15200,"station_id":"ce4bhch2rcd13ifvqeug","pricing_plan_id":"cebpf4jnsgd1na2vs0mg"},{"bike_id":"bb64fb62-15c9-4e59-ac3c-dd85f5e614f5","system_id":"levelo_inurba_marseille","lat":43.26558,"lon":5.3728,"is_reserved":false,"is_disabled":false,"rental_uris":{"android":"levelo://app?vid=bb64fb62-15c9-4e59-ac3c-dd85f5e614f5","ios":"levelo://app?vid=bb64fb62-15c9-4e59-ac3c-dd85f5e614f5"},"vehicle_type_id":"4","last_reported":1750266657,"current_range_meters":15200,"station_id":"ce4bhg12rcd13ifvqf70","pricing_plan_id":"cebpf4jnsgd1na2vs0mg"},{"bike_id":"5816b96f-3a6f-4e75-af71-00bf5cb797dd","system_id":"levelo_inurba_marseille","lat":43.279978,"lon":5.40008,"is_reserved":false,"is_disabled":false,"rental_uris":{"android":"levelo://app?vid=5816b96f-3a6f-4e75-af71-00bf5cb797dd","ios":"levelo://app?vid=5816b96f-3a6f-4e75-af71-00bf5cb797dd"},"vehicle_type_id":"4","last_reported":1750266657,"current_range_meters":15200,"station_id":"ce4bho92rcd13ifvqh4g","pricing_plan_id":"cebpf4jnsgd1na2vs0mg"},{"bike_id":"65be88d8-1132-4ab5-8053-668d0c8dc5a6","system_id":"levelo_inurba_marseille","lat":43.22949,"lon":5.35393,"is_reserved":false,"is_disabled":false,"rental_uris":{"android":"levelo://app?vid=65be88d8-1132-4ab5-8053-668d0c8dc5a6","ios":"levelo://app?vid=65be88d8-1132-4ab5-8053-668d0c8dc5a6"},"vehicle_type_id":"4","last_reported":1750266657,"current_range_meters":15200,"station_id":"cpo3532slgdg3j2ikp40","pricing_plan_id":"cebpf4jnsgd1na2vs0mg"},{"bike_id":"eaaa9fcd-34d4-4d0b-8f90-fbf605a0610f","system_id":"levelo_inurba_marseille","lat":43.21196,"lon":5.35071,"is_reserved":false,"is_disabled":false,"rental_uris":{"android":"levelo://app?vid=eaaa9fcd-34d4-4d0b-8f90-fbf605a0610f","ios":"levelo://app?vid=eaaa9fcd-34d4-4d0b-8f90-fbf605a0610f"},"vehicle_type_id":"4","last_reported":1750266657,"current_range_meters":15200,"station_id":"st_cvj6sg6p6f1abm77japg","pricing_plan_id":"cebpf4jnsgd1na2vs0mg"},{"bike_id":"3eb9992a-e24a-4ed3-bd44-5e035e6e973e","system_id":"levelo_inurba_marseille","lat":43.3127,"lon":5.37879,"is_reserved":false,"is_disabled":false,"rental_uris":{"android":"levelo://app?vid=3eb9992a-e24a-4ed3-bd44-5e035e6e973e","ios":"levelo://app?vid=3eb9992a-e24a-4ed3-bd44-5e035e6e973e"},"vehicle_type_id":"4","last_reported":1750266657,"current_range_meters":16000,"station_id":"","pricing_plan_id":"cebpf4jnsgd1na2vs0mg"},{"bike_id":"f025e0b0-8595-426c-b214-cb9b74c5fcfd","system_id":"levelo_inurba_marseille","lat":43.321984,"lon":5.405762,"is_reserved":false,"is_disabled":false,"rental_uris":{"android":"levelo://app?vid=f025e0b0-8595-426c-b214-cb9b74c5fcfd","ios":"levelo://app?vid=f025e0b0-8595-426c-b214-cb9b74c5fcfd"},"vehicle_type_id":"4","last_reported":1750266657,"current_range_meters":16000,"station_id":"","pricing_plan_id":"cebpf4jnsgd1na2vs0mg"},{"bike_id":"233a4760-e2b8-4bf8-9aa1-b4bc97629e72","system_id":"levelo_inurba_marseille","lat":43.28598,"lon":5.351053,"is_reserved":false,"is_disabled":false,"rental_uris":{"android":"levelo://app?vid=233a4760-e2b8-4bf8-9aa1-b4bc97629e72","ios":"levelo://app?vid=233a4760-e2b8-4bf8-9aa1-b4bc97629e72"},"vehicle_type_id":"4","last_reported":1750266657,"current_range_meters":16000,"station_id":"","pricing_plan_id":"cebpf4jnsgd1na2vs0mg"},{"bike_id":"56fdfc4e-979c-4ed5-9885-57018d76de79","system_id":"levelo_inurba_marseille","lat":43.2935,"lon":5.42836,"is_reserved":false,"is_disabled":false,"rental_uris":{"android":"levelo://app?vid=56fdfc4e-979c-4ed5-9885-57018d76de79","ios":"levelo://app?vid=56fdfc4e-979c-4ed5-9885-57018d76de79"},"vehicle_type_id":"4","last_reported":1750266657,"current_range_meters":16000,"station_id":"","pricing_plan_id":"cebpf4jnsgd1na2vs0mg"},{"bike_id":"4cc89d5f-6541-4acc-be15-64e333e65f27","system_id":"levelo_inurba_marseille","lat":43.30914,"lon":5.36843,"is_reserved":false,"is_disabled":false,"rental_uris":{"android":"levelo://app?vid=4cc89d5f-6541-4acc-be15-64e333e65f27","ios":"levelo://app?vid=4cc89d5f-6541-4acc-be15-64e333e65f27"},"vehicle_type_id":"4","last_reported":1750266657,"current_range_meters":16000,"station_id":"ce4bgn92rcd13ifvqbvg","pricing_plan_id":"cebpf4jnsgd1na2vs0mg"},{"bike_id":"8ba7bc78-22ab-4d8f-b036-407692242ea6","system_id":"levelo_inurba_marseille","lat":43.28455,"lon":5.35897,"is_reserved":false,"is_disabled":false,"rental_uris":{"android":"levelo://app?vid=8ba7bc78-22ab-4d8f-b036-407692242ea6","ios":"levelo://app?vid=8ba7bc78-22ab-4d8f-b036-407692242ea6"},"vehicle_type_id":"4","last_reported":1750266657,"current_range_meters":16000,"station_id":"ce4bhah2rcd13ifvqei0","pricing_plan_id":"cebpf4jnsgd1na2vs0mg"},{"bike_id":"87a7e052-ec35-4146-8d00-dc2cb30af42c","system_id":"levelo_inurba_marseille","lat":43.28614,"lon":5.35095,"is_reserved":false,"is_disabled":false,"rental_uris":{"android":"levelo://app?vid=87a7e052-ec35-4146-8d00-dc2cb30af42c","ios":"levelo://app?vid=87a7e052-ec35-4146-8d00-dc2cb30af42c"},"vehicle_type_id":"4","last_reported":1750266657,"current_range_meters":16000,"station_id":"ce4bhch2rcd13ifvqeug","pricing_plan_id":"cebpf4jnsgd1na2vs0mg"},{"bike_id":"3847d2ff-15eb-483d-984e-a6e229b95c7e","system_id":"levelo_inurba_marseille","lat":43.26214,"lon":5.3744,"is_reserved":false,"is_disabled":false,"rental_uris":{"android":"levelo://app?vid=3847d2ff-15eb-483d-984e-a6e229b95c7e","ios":"levelo://app?vid=3847d2ff-15eb-483d-984e-a6e229b95c7e"},"vehicle_type_id":"4","last_reported":1750266657,"current_range_meters":16000,"station_id":"ce4bhgp2rcd13ifvqfc0","pricing_plan_id":"cebpf4jnsgd1na2vs0mg"},{"bike_id":"85bf809a-e6ea-4d06-b20c-3ead18f5cc40","system_id":"levelo_inurba_marseille","lat":43.25571,"lon":5.38236,"is_reserved":false,"is_disabled":false,"rental_uris":{"android":"levelo://app?vid=85bf809a-e6ea-4d06-b20c-3ead18f5cc40","ios":"levelo://app?vid=85bf809a-e6ea-4d06-b20c-3ead18f5cc40"},"vehicle_type_id":"4","last_reported":1750266657,"current_range_meters":16000,"station_id":"ce4bhih2rcd13ifvqfs0","pricing_plan_id":"cebpf4jnsgd1na2vs0mg"},{"bike_id":"e921cee3-b8ce-4c00-b7eb-8ab335b5e125","system_id":"levelo_inurba_marseille","lat":43.30206,"lon":5.42275,"is_reserved":false,"is_disabled":false,"rental_uris":{"android":"levelo://app?vid=e921cee3-b8ce-4c00-b7eb-8ab335b5e125","ios":"levelo://app?vid=e921cee3-b8ce-4c00-b7eb-8ab335b5e125"},"vehicle_type_id":"4","last_reported":1750266657,"current_range_meters":16400,"station_id":"","pricing_plan_id":"cebpf4jnsgd1na2vs0mg"},{"bike_id":"29ea011c-1ea3-4e46-bcb7-f65d38fe452d","system_id":"levelo_inurba_marseille","lat":43.28392,"lon":5.34989,"is_reserved":false,"is_disabled":false,"rental_uris":{"android":"levelo://app?vid=29ea011c-1ea3-4e46-bcb7-f65d38fe452d","ios":"levelo://app?vid=29ea011c-1ea3-4e46-bcb7-f65d38fe452d"},"vehicle_type_id":"4","last_reported":1750266657,"current_range_meters":16400,"station_id":"ce4bhbh2rcd13ifvqepg","pricing_plan_id":"cebpf4jnsgd1na2vs0mg"},{"bike_id":"b5e801da-6f42-404a-8dec-f6fc0337070f","system_id":"levelo_inurba_marseille","lat":43.28407,"lon":5.34987,"is_reserved":false,"is_disabled":false,"rental_uris":{"android":"levelo://app?vid=b5e801da-6f42-404a-8dec-f6fc0337070f","ios":"levelo://app?vid=b5e801da-6f42-404a-8dec-f6fc0337070f"},"vehicle_type_id":"4","last_reported":1750266657,"current_range_meters":16400,"station_id":"ce4bhbh2rcd13ifvqepg","pricing_plan_id":"cebpf4jnsgd1na2vs0mg"},{"bike_id":"e7dad37e-e27e-45a3-98af-53555fde6281","system_id":"levelo_inurba_marseille","lat":43.28272,"lon":5.35072,"is_reserved":false,"is_disabled":false,"rental_uris":{"android":"levelo://app?vid=e7dad37e-e27e-45a3-98af-53555fde6281","ios":"levelo://app?vid=e7dad37e-e27e-45a3-98af-53555fde6281"},"vehicle_type_id":"4","last_reported":1750266657,"current_range_meters":16400,"station_id":"ce4bhbp2rcd13ifvqerg","pricing_plan_id":"cebpf4jnsgd1na2vs0mg"},{"bike_id":"3d818747-3770-45b2-9c35-472ea6ac4550","system_id":"levelo_inurba_marseille","lat":43.28612,"lon":5.35107,"is_reserved":false,"is_disabled":false,"rental_uris":{"android":"levelo://app?vid=3d818747-3770-45b2-9c35-472ea6ac4550","ios":"levelo://app?vid=3d818747-3770-45b2-9c35-472ea6ac4550"},"vehicle_type_id":"4","last_reported":1750266657,"current_range_meters":16400,"station_id":"ce4bhch2rcd13ifvqeug","pricing_plan_id":"cebpf4jnsgd1na2vs0mg"},{"bike_id":"5960303c-6ba2-4b42-b233-edc7bfea1825","system_id":"levelo_inurba_marseille","lat":43.23074,"lon":5.35493,"is_reserved":false,"is_disabled":false,"rental_uris":{"android":"levelo://app?vid=5960303c-6ba2-4b42-b233-edc7bfea1825","ios":"levelo://app?vid=5960303c-6ba2-4b42-b233-edc7bfea1825"},"vehicle_type_id":"4","last_reported":1750266657,"current_range_meters":16400,"station_id":"cpo3342slgdg3j2ifvpg","pricing_plan_id":"cebpf4jnsgd1na2vs0mg"},{"bike_id":"a698d91f-655d-4164-a932-a635f904b56f","system_id":"levelo_inurba_marseille","lat":43.28021,"lon":5.35274,"is_reserved":false,"is_disabled":false,"rental_uris":{"android":"levelo://app?vid=a698d91f-655d-4164-a932-a635f904b56f","ios":"levelo://app?vid=a698d91f-655d-4164-a932-a635f904b56f"},"vehicle_type_id":"4","last_reported":1750266657,"current_range_meters":16800,"station_id":"","pricing_plan_id":"cebpf4jnsgd1na2vs0mg"},{"bike_id":"092dee0e-5c68-4681-9910-bf998c009662","system_id":"levelo_inurba_marseille","lat":43.286177,"lon":5.351077,"is_reserved":false,"is_disabled":false,"rental_uris":{"android":"levelo://app?vid=092dee0e-5c68-4681-9910-bf998c009662","ios":"levelo://app?vid=092dee0e-5c68-4681-9910-bf998c009662"},"vehicle_type_id":"4","last_reported":1750266657,"current_range_meters":16800,"station_id":"ce4bhch2rcd13ifvqeug","pricing_plan_id":"cebpf4jnsgd1na2vs0mg"},{"bike_id":"f57c3844-b35c-4829-beb0-bce318ebc4f4","system_id":"levelo_inurba_marseille","lat":43.286168,"lon":5.351048,"is_reserved":false,"is_disabled":false,"rental_uris":{"android":"levelo://app?vid=f57c3844-b35c-4829-beb0-bce318ebc4f4","ios":"levelo://app?vid=f57c3844-b35c-4829-beb0-bce318ebc4f4"},"vehicle_type_id":"4","last_reported":1750266657,"current_range_meters":16800,"station_id":"ce4bhch2rcd13ifvqeug","pricing_plan_id":"cebpf4jnsgd1na2vs0mg"},{"bike_id":"d9019b3c-1833-4ce9-b57c-c9b8f751ac1d","system_id":"levelo_inurba_marseille","lat":43.24798,"lon":5.37451,"is_reserved":false,"is_disabled":false,"rental_uris":{"android":"levelo://app?vid=d9019b3c-1833-4ce9-b57c-c9b8f751ac1d","ios":"levelo://app?vid=d9019b3c-1833-4ce9-b57c-c9b8f751ac1d"},"vehicle_type_id":"4","last_reported":1750266657,"current_range_meters":16800,"station_id":"ce4bhgh2rcd13ifvqfb0","pricing_plan_id":"cebpf4jnsgd1na2vs0mg"},{"bike_id":"dcd59257-0c5f-40bb-b5d5-815485f3cd06","system_id":"levelo_inurba_marseille","lat":43.26226,"lon":5.40449,"is_reserved":false,"is_disabled":false,"rental_uris":{"android":"levelo://app?vid=dcd59257-0c5f-40bb-b5d5-815485f3cd06","ios":"levelo://app?vid=dcd59257-0c5f-40bb-b5d5-815485f3cd06"},"vehicle_type_id":"4","last_reported":1750266657,"current_range_meters":16800,"station_id":"ce4bhmh2rcd13ifvqgmg","pricing_plan_id":"cebpf4jnsgd1na2vs0mg"},{"bike_id":"bd3b5614-3691-4068-a141-5a420596d7ec","system_id":"levelo_inurba_marseille","lat":43.281558,"lon":5.426342,"is_reserved":false,"is_disabled":false,"rental_uris":{"android":"levelo://app?vid=bd3b5614-3691-4068-a141-5a420596d7ec","ios":"levelo://app?vid=bd3b5614-3691-4068-a141-5a420596d7ec"},"vehicle_type_id":"4","last_reported":1750266657,"current_range_meters":16800,"station_id":"ce4bhnh2rcd13ifvqgug","pricing_plan_id":"cebpf4jnsgd1na2vs0mg"},{"bike_id":"a004d7f2-75e1-49e9-b073-ad13bcf23d1e","system_id":"levelo_inurba_marseille","lat":43.23202,"lon":5.35544,"is_reserved":false,"is_disabled":false,"rental_uris":{"android":"levelo://app?vid=a004d7f2-75e1-49e9-b073-ad13bcf23d1e","ios":"levelo://app?vid=a004d7f2-75e1-49e9-b073-ad13bcf23d1e"},"vehicle_type_id":"4","last_reported":1750266657,"current_range_meters":16800,"station_id":"ce4bhu92rcd13ifvqi70","pricing_plan_id":"cebpf4jnsgd1na2vs0mg"},{"bike_id":"744f0163-1137-46db-835e-c2dc58d25488","system_id":"levelo_inurba_marseille","lat":43.22945,"lon":5.35377,"is_reserved":false,"is_disabled":false,"rental_uris":{"android":"levelo://app?vid=744f0163-1137-46db-835e-c2dc58d25488","ios":"levelo://app?vid=744f0163-1137-46db-835e-c2dc58d25488"},"vehicle_type_id":"4","last_reported":1750266657,"current_range_meters":16800,"station_id":"cpo3532slgdg3j2ikp40","pricing_plan_id":"cebpf4jnsgd1na2vs0mg"},{"bike_id":"4b6b2a2b-d3c4-4663-8ea1-de4eff39b7b2","system_id":"levelo_inurba_marseille","lat":43.2119,"lon":5.3507,"is_reserved":false,"is_disabled":false,"rental_uris":{"android":"levelo://app?vid=4b6b2a2b-d3c4-4663-8ea1-de4eff39b7b2","ios":"levelo://app?vid=4b6b2a2b-d3c4-4663-8ea1-de4eff39b7b2"},