{"last_updated":1684598844,"ttl":30,"version":"2.2","data":{"bikes":[{"bike_id":"7bdf4c5f-5855-4aae-93f1-1f2abb30b761","system_id":"levelo_inurba_marseille","lat":43.31341,"lon":5.367098,"is_reserved":false,"is_disabled":false,"rental_uris":{"android":"levelo://app?vid=7bdf4c5f-5855-4aae-93f1-1f2abb30b761","ios":"levelo://app?vid=7bdf4c5f-5855-4aae-93f1-1f2abb30b761"},"vehicle_type_id":"4","last_reported":1684598844,"current_range_meters":31600,"station_id":"ce4bgr92rcd13ifvqc6g","pricing_plan_id":"free"},{"bike_id":"c11e8c0d-8f2e-4468-9d4a-529348fce7ac","system_id":"levelo_inurba_marseille","lat":43.31341,"lon":5.367098,"is_reserved":false,"is_disabled":false,"rental_uris":{"android":"levelo://app?vid=c11e8c0d-8f2e-4468-9d4a-529348fce7ac","ios":"levelo://app?vid=c11e8c0d-8f2e-4468-9d4a-529348fce7ac"},"vehicle_type_id":"4","last_reported":1684598844,"current_range_meters":31200,"station_id":"ce4bgr92rcd13ifvqc6g","pricing_plan_id":"free"},{"bike_id":"423051dc-23e3-41ae-a453-4e9c309d34ab","system_id":"levelo_inurba_marseille","lat":43.31341,"lon":5.367098,"is_reserved":false,"is_disabled":false,"rental_uris":{"android":"levelo://app?vid=423051dc-23e3-41ae-a453-4e9c309d34ab","ios":"levelo://app?vid=423051dc-23e3-41ae-a453-4e9c309d34ab"},"vehicle_type_id":"4","last_reported":1684598844,"current_range_meters":31600,"station_id":"ce4bgr92rcd13ifvqc6g","pricing_plan_id":"free"},{"bike_id":"31a6a8f8-35fd-49f7-9a38-8e1123c1c126","system_id":"levelo_inurba_marseille","lat":43.31341,"lon":5.367098,"is_reserved":false,"is_disabled":false,"rental_uris":{"android":"levelo://app?vid=31a6a8f8-35fd-49f7-9a38-8e1123c1c126","ios":"levelo://app?vid=31a6a8f8-35fd-49f7-9a38-8e1123c1c126"},"vehicle_type_id":"4","last_reported":1684598844,"current_range_meters":28800,"station_id":"ce4bgr92rcd13ifvqc6g","pricing_plan_id":"free"},{"bike_id":"32b74d7b-e2eb-4609-add9-6dc4e28a0ff3","system_id":"levelo_inurba_marseille","lat":43.313391,"lon":5.36706,"is_reserved":false,"is_disabled":false,"rental_uris":{"android":"levelo://app?vid=32b74d7b-e2eb-4609-add9-6dc4e28a0ff3","ios":"levelo://app?vid=32b74d7b-e2eb-4609-add9-6dc4e28a0ff3"},"vehicle_type_id":"4","last_reported":1684598844,"current_range_meters":27200,"station_id":"ce4bgr92rcd13ifvqc6g","pricing_plan_id":"free"},{"bike_id":"a1c981e9-b61a-4f92-9da3-bc88edc1cf4a","system_id":"levelo_inurba_marseille","lat":43.31341,"lon":5.367098,"is_reserved":false,"is_disabled":false,"rental_uris":{"android":"levelo://app?vid=a1c981e9-b61a-4f92-9da3-bc88edc1cf4a","ios":"levelo://app?vid=a1c981e9-b61a-4f92-9da3-bc88edc1cf4a"},"vehicle_type_id":"4","last_reported":1684598844,"current_range_meters":30400,"station_id":"ce4bgr92rcd13ifvqc6g","pricing_plan_id":"free"},{"bike_id":"20fde61d-aed5-41e0-9434-8916e3d5604c","system_id":"levelo_inurba_marseille","lat":43.31238,"lon":5.36844,"is_reserved":false,"is_disabled":false,"rental_uris":{"android":"levelo://app?vid=20fde61d-aed5-41e0-9434-8916e3d5604c","ios":"levelo://app?vid=20fde61d-aed5-41e0-9434-8916e3d5604c"},"vehicle_type_id":"4","last_reported":1684598844,"current_range_meters":31200,"station_id":"ce4bgl92rcd13ifvqbq0","pricing_plan_id":"free"},{"bike_id":"4052371d-0b40-45a2-a6cf-9cf2875c3212","system_id":"levelo_inurba_marseille","lat":43.31236,"lon":5.36857,"is_reserved":false,"is_disabled":false,"rental_uris":{"android":"levelo://app?vid=4052371d-0b40-45a2-a6cf-9cf2875c3212","ios":"levelo://app?vid=4052371d-0b40-45a2-a6cf-9cf2875c3212"},"vehicle_type_id":"4","last_reported":1684598844,"current_range_meters":30400,"station_id":"ce4bgl92rcd13ifvqbq0","pricing_plan_id":"free"},{"bike_id":"79dc37ee-0d88-4a2b-81de-8f86b0985009","system_id":"levelo_inurba_marseille","lat":43.312239,"lon":5.368562,"is_reserved":false,"is_disabled":false,"rental_uris":{"android":"levelo://app?vid=79dc37ee-0d88-4a2b-81de-8f86b0985009","ios":"levelo://app?vid=79dc37ee-0d88-4a2b-81de-8f86b0985009"},"vehicle_type_id":"4","last_reported":1684598844,"current_range_meters":31600,"station_id":"ce4bgl92rcd13ifvqbq0","pricing_plan_id":"free"},{"bike_id":"02e41708-8beb-4995-b683-23c8aadcac8b","system_id":"levelo_inurba_marseille","lat":43.312239,"lon":5.368562,"is_reserved":false,"is_disabled":false,"rental_uris":{"android":"levelo://app?vid=02e41708-8beb-4995-b683-23c8aadcac8b","ios":"levelo://app?vid=02e41708-8beb-4995-b683-23c8aadcac8b"},"vehicle_type_id":"4","last_reported":1684598844,"current_range_meters":28000,"station_id":"ce4bgl92rcd13ifvqbq0","pricing_plan_id":"free"},{"bike_id":"686f6868-6048-4068-a64e-9bfcece3c84d","system_id":"levelo_inurba_marseille","lat":43.309076,"lon":5.368465,"is_reserved":false,"is_disabled":false,"rental_uris":{"android":"levelo://app?vid=686f6868-6048-4068-a64e-9bfcece3c84d","ios":"levelo://app?vid=686f6868-6048-4068-a64e-9bfcece3c84d"},"vehicle_type_id":"4","last_reported":1684598844,"current_range_meters":31600,"station_id":"ce4bgn92rcd13ifvqbvg","pricing_plan_id":"free"},{"bike_id":"ae814c00-ed67-4862-b562-0558e11ab3c1","system_id":"levelo_inurba_marseille","lat":43.309076,"lon":5.368465,"is_reserved":false,"is_disabled":false,"rental_uris":{"android":"levelo://app?vid=ae814c00-ed67-4862-b562-0558e11ab3c1","ios":"levelo://app?vid=ae814c00-ed67-4862-b562-0558e11ab3c1"},"vehicle_type_id":"4","last_reported":1684598844,"current_range_meters":30400,"station_id":"ce4bgn92rcd13ifvqbvg","pricing_plan_id":"free"},{"bike_id":"e91937b0-da17-46d0-ba39-a4caf0133c9c","system_id":"levelo_inurba_marseille","lat":43.309076,"lon":5.368465,"is_reserved":false,"is_disabled":false,"rental_uris":{"android":"levelo://app?vid=e91937b0-da17-46d0-ba39-a4caf0133c9c","ios":"levelo://app?vid=e91937b0-da17-46d0-ba39-a4caf0133c9c"},"vehicle_type_id":"4","last_reported":1684598844,"current_range_meters":29200,"station_id":"ce4bgn92rcd13ifvqbvg","pricing_plan_id":"free"},{"bike_id":"d734d8f3-6c46-49d1-9671-0ad92bcd2953","system_id":"levelo_inurba_marseille","lat":43.314811,"lon":5.373103,"is_reserved":false,"is_disabled":false,"rental_uris":{"android":"levelo://app?vid=d734d8f3-6c46-49d1-9671-0ad92bcd2953","ios":"levelo://app?vid=d734d8f3-6c46-49d1-9671-0ad92bcd2953"},"vehicle_type_id":"4","last_reported":1684598844,"current_range_meters":31200,"station_id":"ce4bgt12rcd13ifvqcd0","pricing_plan_id":"free"},{"bike_id":"46a958db-deea-4536-9495-95f4bcdc056c","system_id":"levelo_inurba_marseille","lat":43.314811,"lon":5.373103,"is_reserved":false,"is_disabled":false,"rental_uris":{"android":"levelo://app?vid=46a958db-deea-4536-9495-95f4bcdc056c","ios":"levelo://app?vid=46a958db-deea-4536-9495-95f4bcdc056c"},"vehicle_type_id":"4","last_reported":1684598844,"current_range_meters":32000,"station_id":"ce4bgt12rcd13ifvqcd0","pricing_plan_id":"free"},{"bike_id":"6ca69b6f-42e7-45a5-a4a3-1d63b3381e4b","system_id":"levelo_inurba_marseille","lat":43.314811,"lon":5.373104,"is_reserved":false,"is_disabled":false,"rental_uris":{"android":"levelo://app?vid=6ca69b6f-42e7-45a5-a4a3-1d63b3381e4b","ios":"levelo://app?vid=6ca69b6f-42e7-45a5-a4a3-1d63b3381e4b"},"vehicle_type_id":"4","last_reported":1684598844,"current_range_meters":31600,"station_id":"ce4bgt12rcd13ifvqcd0","pricing_plan_id":"free"},{"bike_id":"a859eca8-c92d-499c-b94d-3fa3b6fe3d94","system_id":"levelo_inurba_marseille","lat":43.314811,"lon":5.373104,"is_reserved":false,"is_disabled":false,"rental_uris":{"android":"levelo://app?vid=a859eca8-c92d-499c-b94d-3fa3b6fe3d94","ios":"levelo://app?vid=a859eca8-c92d-499c-b94d-3fa3b6fe3d94"},"vehicle_type_id":"4","last_reported":1684598844,"current_range_meters":31600,"station_id":"ce4bgt12rcd13ifvqcd0","pricing_plan_id":"free"},{"bike_id":"9d24faaf-5c29-4e94-896c-1ae6942c7ab3","system_id":"levelo_inurba_marseille","lat":43.314811,"lon":5.373103,"is_reserved":false,"is_disabled":false,"rental_uris":{"android":"levelo://app?vid=9d24faaf-5c29-4e94-896c-1ae6942c7ab3","ios":"levelo://app?vid=9d24faaf-5c29-4e94-896c-1ae6942c7ab3"},"vehicle_type_id":"4","last_reported":1684598844,"current_range_meters":31600,"station_id":"ce4bgt12rcd13ifvqcd0","pricing_plan_id":"free"},{"bike_id":"216d5b2c-006a-476d-b0b4-4dee0ac788c7","system_id":"levelo_inurba_marseille","lat":43.314811,"lon":5.373103,"is_reserved":false,"is_disabled":false,"rental_uris":{"android":"levelo://app?vid=216d5b2c-006a-476d-b0b4-4dee0ac788c7","ios":"levelo://app?vid=216d5b2c-006a-476d-b0b4-4dee0ac788c7"},"vehicle_type_id":"4","last_reported":1684598844,"current_range_meters":32000,"station_id":"ce4bgt12rcd13ifvqcd0","pricing_plan_id":"free"},{"bike_id":"f1430af0-7f1d-41ac-a330-5ec023bd4fa5","system_id":"levelo_inurba_marseille","lat":43.314811,"lon":5.373103,"is_reserved":false,"is_disabled":false,"rental_uris":{"android":"levelo://app?vid=f1430af0-7f1d-41ac-a330-5ec023bd4fa5","ios":"levelo://app?vid=f1430af0-7f1d-41ac-a330-5ec023bd4fa5"},"vehicle_type_id":"4","last_reported":1684598844,"current_range_meters":12800,"station_id":"ce4bgt12rcd13ifvqcd0","pricing_plan_id":"free"},{"bike_id":"306387f1-7539-458d-9c7c-1d3f902480fc","system_id":"levelo_inurba_marseille","lat":43.314811,"lon":5.373103,"is_reserved":false,"is_disabled":false,"rental_uris":{"android":"levelo://app?vid=306387f1-7539-458d-9c7c-1d3f902480fc","ios":"levelo://app?vid=306387f1-7539-458d-9c7c-1d3f902480fc"},"vehicle_type_id":"4","last_reported":1684598844,"current_range_meters":19200,"station_id":"ce4bgt12rcd13ifvqcd0","pricing_plan_id":"free"},{"bike_id":"876b705d-96aa-468b-82ef-d54b9c24ec65","system_id":"levelo_inurba_marseille","lat":43.314811,"lon":5.373103,"is_reserved":false,"is_disabled":false,"rental_uris":{"android":"levelo://app?vid=876b705d-96aa-468b-82ef-d54b9c24ec65","ios":"levelo://app?vid=876b705d-96aa-468b-82ef-d54b9c24ec65"},"vehicle_type_id":"4","last_reported":1684598844,"current_range_meters":12800,"station_id":"ce4bgt12rcd13ifvqcd0","pricing_plan_id":"free"},{"bike_id":"3b9abfcf-be2e-4603-9fb4-bc0ab9d2eaa7","system_id":"levelo_inurba_marseille","lat":43.308614,"lon":5.372098,"is_reserved":false,"is_disabled":false,"rental_uris":{"android":"levelo://app?vid=3b9abfcf-be2e-4603-9fb4-bc0ab9d2eaa7","ios":"levelo://app?vid=3b9abfcf-be2e-4603-9fb4-bc0ab9d2eaa7"},"vehicle_type_id":"4","last_reported":1684598844,"current_range_meters":16400,"station_id":"ce4bguh2rcd13ifvqckg","pricing_plan_id":"free"},{"bike_id":"02a09556-2f47-49c5-8bf9-be795f0b545b","system_id":"levelo_inurba_marseille","lat":43.305706,"lon":5.365654,"is_reserved":false,"is_disabled":false,"rental_uris":{"android":"levelo://app?vid=02a09556-2f47-49c5-8bf9-be795f0b545b","ios":"levelo://app?vid=02a09556-2f47-49c5-8bf9-be795f0b545b"},"vehicle_type_id":"4","last_reported":1684598844,"current_range_meters":24000,"station_id":"ce4bgs12rcd13ifvqcag","pricing_plan_id":"free"},{"bike_id":"888754eb-c7df-4a92-b8eb-50dffae73d7e","system_id":"levelo_inurba_marseille","lat":43.305706,"lon":5.365654,"is_reserved":false,"is_disabled":false,"rental_uris":{"android":"levelo://app?vid=888754eb-c7df-4a92-b8eb-50dffae73d7e","ios":"levelo://app?vid=888754eb-c7df-4a92-b8eb-50dffae73d7e"},"vehicle_type_id":"4","last_reported":1684598844,"current_range_meters":2400,"station_id":"ce4bgs12rcd13ifvqcag","pricing_plan_id":"free"},{"bike_id":"3e764068-0c0e-4053-9d84-292d9942519b","system_id":"levelo_inurba_marseille","lat":43.305989,"lon":5.37225,"is_reserved":false,"is_disabled":false,"rental_uris":{"android":"levelo://app?vid=3e764068-0c0e-4053-9d84-292d9942519b","ios":"levelo://app?vid=3e764068-0c0e-4053-9d84-292d9942519b"},"vehicle_type_id":"4","last_reported":1684598844,"current_range_meters":16800,"station_id":"ce4bgqh2rcd13ifvqc4g","pricing_plan_id":"free"},{"bike_id":"c2d5b29b-5894-450c-89bc-d48feb8d795f","system_id":"levelo_inurba_marseille","lat":43.311131,"lon":5.377651,"is_reserved":false,"is_disabled":false,"rental_uris":{"android":"levelo://app?vid=c2d5b29b-5894-450c-89bc-d48feb8d795f","ios":"levelo://app?vid=c2d5b29b-5894-450c-89bc-d48feb8d795f"},"vehicle_type_id":"4","last_reported":1684598844,"current_range_meters":11600,"station_id":"ce4bgt92rcd13ifvqcg0","pricing_plan_id":"free"},{"bike_id":"3c6df333-5c32-416c-ae7d-8bb180309f1e","system_id":"levelo_inurba_marseille","lat":43.311131,"lon":5.377651,"is_reserved":false,"is_disabled":false,"rental_uris":{"android":"levelo://app?vid=3c6df333-5c32-416c-ae7d-8bb180309f1e","ios":"levelo://app?vid=3c6df333-5c32-416c-ae7d-8bb180309f1e"},"vehicle_type_id":"4","last_reported":1684598844,"current_range_meters":21600,"station_id":"ce4bgt92rcd13ifvqcg0","pricing_plan_id":"free"},{"bike_id":"e58fedb9-a57d-4be1-8ab0-757e8b5b800f","system_id":"levelo_inurba_marseille","lat":43.31709,"lon":5.37653,"is_reserved":false,"is_disabled":false,"rental_uris":{"android":"levelo://app?vid=e58fedb9-a57d-4be1-8ab0-757e8b5b800f","ios":"levelo://app?vid=e58fedb9-a57d-4be1-8ab0-757e8b5b800f"},"vehicle_type_id":"4","last_reported":1684598844,"current_range_meters":4400,"station_id":"","pricing_plan_id":"free"},{"bike_id":"3fdf3590-377d-4457-aec6-c56425f43c68","system_id":"levelo_inurba_marseille","lat":43.31719,"lon":5.37664,"is_reserved":false,"is_disabled":false,"rental_uris":{"android":"levelo://app?vid=3fdf3590-377d-4457-aec6-c56425f43c68","ios":"levelo://app?vid=3fdf3590-377d-4457-aec6-c56425f43c68"},"vehicle_type_id":"4","last_reported":1684598844,"current_range_meters":400,"station_id":"","pricing_plan_id":"free"},{"bike_id":"906de340-506a-4f05-9639-8551c35c3cf4","system_id":"levelo_inurba_marseille","lat":43.317075,"lon":5.377367,"is_reserved":false,"is_disabled":false,"rental_uris":{"android":"levelo://app?vid=906de340-506a-4f05-9639-8551c35c3cf4","ios":"levelo://app?vid=906de340-506a-4f05-9639-8551c35c3cf4"},"vehicle_type_id":"4","last_reported":1684598844,"current_range_meters":29600,"station_id":"ce4bgth2rcd13ifvqch0","pricing_plan_id":"free"},{"bike_id":"1882916f-80f8-41b8-b1de-6c334bcf1f0b","system_id":"levelo_inurba_marseille","lat":43.317075,"lon":5.377367,"is_reserved":false,"is_disabled":false,"rental_uris":{"android":"levelo://app?vid=1882916f-80f8-41b8-b1de-6c334bcf1f0b","ios":"levelo://app?vid=1882916f-80f8-41b8-b1de-6c334bcf1f0b"},"vehicle_type_id":"4","last_reported":1684598844,"current_range_meters":31600,"station_id":"ce4bgth2rcd13ifvqch0","pricing_plan_id":"free"},{"bike_id":"9f53324e-4118-4eb1-ae1f-c18ea90a6e62","system_id":"levelo_inurba_marseille","lat":43.31716,"lon":5.37755,"is_reserved":false,"is_disabled":false,"rental_uris":{"android":"levelo://app?vid=9f53324e-4118-4eb1-ae1f-c18ea90a6e62","ios":"levelo://app?vid=9f53324e-4118-4eb1-ae1f-c18ea90a6e62"},"vehicle_type_id":"4","last_reported":1684598844,"current_range_meters":29200,"station_id":"ce4bgth2rcd13ifvqch0","pricing_plan_id":"free"},{"bike_id":"a2e52e89-4351-4904-995e-8b042307d396","system_id":"levelo_inurba_marseille","lat":43.317075,"lon":5.377367,"is_reserved":false,"is_disabled":false,"rental_uris":{"android":"levelo://app?vid=a2e52e89-4351-4904-995e-8b042307d396","ios":"levelo://app?vid=a2e52e89-4351-4904-995e-8b042307d396"},"vehicle_type_id":"4","last_reported":1684598844,"current_range_meters":9600,"station_id":"ce4bgth2rcd13ifvqch0","pricing_plan_id":"free"},{"bike_id":"c27523af-0050-40ba-86ce-6f147ab29d86","system_id":"levelo_inurba_marseille","lat":43.317075,"lon":5.377367,"is_reserved":false,"is_disabled":false,"rental_uris":{"android":"levelo://app?vid=c27523af-0050-40ba-86ce-6f147ab29d86","ios":"levelo://app?vid=c27523af-0050-40ba-86ce-6f147ab29d86"},"vehicle_type_id":"4","last_reported":1684598844,"current_range_meters":14000,"station_id":"ce4bgth2rcd13ifvqch0","pricing_plan_id":"free"},{"bike_id":"bb4d4ae5-9acd-4f8c-af44-7cae1efbdb2f","system_id":"levelo_inurba_marseille","lat":43.29602,"lon":5.381084,"is_reserved":false,"is_disabled":false,"rental_uris":{"android":"levelo://app?vid=bb4d4ae5-9acd-4f8c-af44-7cae1efbdb2f","ios":"levelo://app?vid=bb4d4ae5-9acd-4f8c-af44-7cae1efbdb2f"},"vehicle_type_id":"4","last_reported":1684598844,"current_range_meters":23200,"station_id":"ce4bgl12rcd13ifvqbo0","pricing_plan_id":"free"},{"bike_id":"0078ed9e-b1d3-4be5-b1d3-1bb4b000cc58","system_id":"levelo_inurba_marseille","lat":43.303046,"lon":5.368981,"is_reserved":false,"is_disabled":false,"rental_uris":{"android":"levelo://app?vid=0078ed9e-b1d3-4be5-b1d3-1bb4b000cc58","ios":"levelo://app?vid=0078ed9e-b1d3-4be5-b1d3-1bb4b000cc58"},"vehicle_type_id":"4","last_reported":1684598844,"current_range_meters":19600,"station_id":"ce4bgqh2rcd13ifvqc5g","pricing_plan_id":"free"},{"bike_id":"773fd0c3-c41e-47f6-87e4-02a6b753aa16","system_id":"levelo_inurba_marseille","lat":43.303046,"lon":5.368981,"is_reserved":false,"is_disabled":false,"rental_uris":{"android":"levelo://app?vid=773fd0c3-c41e-47f6-87e4-02a6b753aa16","ios":"levelo://app?vid=773fd0c3-c41e-47f6-87e4-02a6b753aa16"},"vehicle_type_id":"4","last_reported":1684598844,"current_range_meters":22000,"station_id":"ce4bgqh2rcd13ifvqc5g","pricing_plan_id":"free"},{"bike_id":"5192cc1a-7ddf-413c-9e2e-1b16a3fad126","system_id":"levelo_inurba_marseille","lat":43.303046,"lon":5.368981,"is_reserved":false,"is_disabled":false,"rental_uris":{"android":"levelo://app?vid=5192cc1a-7ddf-413c-9e2e-1b16a3fad126","ios":"levelo://app?vid=5192cc1a-7ddf-413c-9e2e-1b16a3fad126"},"vehicle_type_id":"4","last_reported":1684598844,"current_range_meters":29600,"station_id":"ce4bgqh2rcd13ifvqc5g","pricing_plan_id":"free"},{"bike_id":"752d47ae-6d5c-4077-8a80-524f92481ff9","system_id":"levelo_inurba_marseille","lat":43.30308,"lon":5.36919,"is_reserved":false,"is_disabled":false,"rental_uris":{"android":"levelo://app?vid=752d47ae-6d5c-4077-8a80-524f92481ff9","ios":"levelo://app?vid=752d47ae-6d5c-4077-8a80-524f92481ff9"},"vehicle_type_id":"4","last_reported":1684598844,"current_range_meters":26400,"station_id":"ce4bgqh2rcd13ifvqc5g","pricing_plan_id":"free"},{"bike_id":"ab20cd49-961a-48e1-846d-65b515192c98","system_id":"levelo_inurba_marseille","lat":43.315289,"lon":5.380349,"is_reserved":false,"is_disabled":false,"rental_uris":{"android":"levelo://app?vid=ab20cd49-961a-48e1-846d-65b515192c98","ios":"levelo://app?vid=ab20cd49-961a-48e1-846d-65b515192c98"},"vehicle_type_id":"4","last_reported":1684598844,"current_range_meters":31600,"station_id":"ce4bhsp2rcd13ifvqi50","pricing_plan_id":"free"},{"bike_id":"6cef0f68-c55e-4c13-ac0e-9ddb93e38dd6","system_id":"levelo_inurba_marseille","lat":43.315289,"lon":5.380349,"is_reserved":false,"is_disabled":false,"rental_uris":{"android":"levelo://app?vid=6cef0f68-c55e-4c13-ac0e-9ddb93e38dd6","ios":"levelo://app?vid=6cef0f68-c55e-4c13-ac0e-9ddb93e38dd6"},"vehicle_type_id":"4","last_reported":1684598844,"current_range_meters":20000,"station_id":"ce4bhsp2rcd13ifvqi50","pricing_plan_id":"free"},{"bike_id":"759d092a-9aee-4e39-8d64-c1b7b866e975","system_id":"levelo_inurba_marseille","lat":43.315293,"lon":5.380349,"is_reserved":false,"is_disabled":false,"rental_uris":{"android":"levelo://app?vid=759d092a-9aee-4e39-8d64-c1b7b866e975","ios":"levelo://app?vid=759d092a-9aee-4e39-8d64-c1b7b866e975"},"vehicle_type_id":"4","last_reported":1684598844,"current_range_meters":29200,"station_id":"ce4bhsp2rcd13ifvqi50","pricing_plan_id":"free"},{"bike_id":"f9460b76-bd73-4919-8eb0-0d6d6b7e025b","system_id":"levelo_inurba_marseille","lat":43.315293,"lon":5.380349,"is_reserved":false,"is_disabled":false,"rental_uris":{"android":"levelo://app?vid=f9460b76-bd73-4919-8eb0-0d6d6b7e025b","ios":"levelo://app?vid=f9460b76-bd73-4919-8eb0-0d6d6b7e025b"},"vehicle_type_id":"4","last_reported":1684598844,"current_range_meters":14800,"station_id":"ce4bhsp2rcd13ifvqi50","pricing_plan_id":"free"},{"bike_id":"c0fc9ba2-97ca-44ad-94ee-801e394fc084","system_id":"levelo_inurba_marseille","lat":43.301939,"lon":5.366286,"is_reserved":false,"is_disabled":false,"rental_uris":{"android":"levelo://app?vid=c0fc9ba2-97ca-44ad-94ee-801e394fc084","ios":"levelo://app?vid=c0fc9ba2-97ca-44ad-94ee-801e394fc084"},"vehicle_type_id":"4","last_reported":1684598844,"current_range_meters":29600,"station_id":"ce4bgrh2rcd13ifvqc8g","pricing_plan_id":"free"},{"bike_id":"ce946b32-ff37-4209-8d97-f9d3f923712f","system_id":"levelo_inurba_marseille","lat":43.308012,"lon":5.381511,"is_reserved":false,"is_disabled":false,"rental_uris":{"android":"levelo://app?vid=ce946b32-ff37-4209-8d97-f9d3f923712f","ios":"levelo://app?vid=ce946b32-ff37-4209-8d97-f9d3f923712f"},"vehicle_type_id":"4","last_reported":1684598844,"current_range_meters":19200,"station_id":"ce4bgt12rcd13ifvqce0","pricing_plan_id":"free"},{"bike_id":"43eab4f9-af4a-44d1-80c2-9adf6ea8dc4e","system_id":"levelo_inurba_marseille","lat":43.30464,"lon":5.37897,"is_reserved":false,"is_disabled":false,"rental_uris":{"android":"levelo://app?vid=43eab4f9-af4a-44d1-80c2-9adf6ea8dc4e","ios":"levelo://app?vid=43eab4f9-af4a-44d1-80c2-9adf6ea8dc4e"},"vehicle_type_id":"4","last_reported":1684598844,"current_range_meters":25600,"station_id":"ce4bgup2rcd13ifvqcn0","pricing_plan_id":"free"},{"bike_id":"df634721-f2a3-4f9d-8197-d7da6eee01c7","system_id":"levelo_inurba_marseille","lat":43.30466,"lon":5.37906,"is_reserved":false,"is_disabled":false,"rental_uris":{"android":"levelo://app?vid=df634721-f2a3-4f9d-8197-d7da6eee01c7","ios":"levelo://app?vid=df634721-f2a3-4f9d-8197-d7da6eee01c7"},"vehicle_type_id":"4","last_reported":1684598844,"current_range_meters":27200,"station_id":"ce4bgup2rcd13ifvqcn0","pricing_plan_id":"free"},{"bike_id":"6e51f503-ac6e-432c-bd63-6498705dcf5d","system_id":"levelo_inurba_marseille","lat":43.30462,"lon":5.37901,"is_reserved":false,"is_disabled":false,"rental_uris":{"android":"levelo://app?vid=6e51f503-ac6e-432c-bd63-6498705dcf5d","ios":"levelo://app?vid=6e51f503-ac6e-432c-bd63-6498705dcf5d"},"vehicle_type_id":"4","last_reported":1684598844,"current_range_meters":31200,"station_id":"ce4bgup2rcd13ifvqcn0","pricing_plan_id":"free"},{"bike_id":"e764740a-f089-4ab0-a09b-911654ea93b2","system_id":"levelo_inurba_marseille","lat":43.304606,"lon":5.379026,"is_reserved":false,"is_disabled":false,"rental_uris":{"android":"levelo://app?vid=e764740a-f089-4ab0-a09b-911654ea93b2","ios":"levelo://app?vid=e764740a-f089-4ab0-a09b-911654ea93b2"},"vehicle_type_id":"4","last_reported":1684598844,"current_range_meters":28000,"station_id":"ce4bgup2rcd13ifvqcn0","pricing_plan_id":"free"},{"bike_id":"80c7a140-df26-4ccc-a133-cc7eaa8777e1","system_id":"levelo_inurba_marseille","lat":43.313571,"lon":5.384829,"is_reserved":false,"is_disabled":false,"rental_uris":{"android":"levelo://app?vid=80c7a140-df26-4ccc-a133-cc7eaa8777e1","ios":"levelo://app?vid=80c7a140-df26-4ccc-a133-cc7eaa8777e1"},"vehicle_type_id":"4","last_reported":1684598844,"current_range_meters":25200,"station_id":"ce4bgt92rcd13ifvqcf0","pricing_plan_id":"free"},{"bike_id":"2f2020b1-321b-453d-8bf5-9afc3447a05a","system_id":"levelo_inurba_marseille","lat":43.313571,"lon":5.384829,"is_reserved":false,"is_disabled":false,"rental_uris":{"android":"levelo://app?vid=2f2020b1-321b-453d-8bf5-9afc3447a05a","ios":"levelo://app?vid=2f2020b1-321b-453d-8bf5-9afc3447a05a"},"vehicle_type_id":"4","last_reported":1684598844,"current_range_meters":13200,"station_id":"ce4bgt92rcd13ifvqcf0","pricing_plan_id":"free"},{"bike_id":"b7e960be-48d9-47b9-a197-044876a70be4","system_id":"levelo_inurba_marseille","lat":43.313571,"lon":5.384829,"is_reserved":false,"is_disabled":false,"rental_uris":{"android":"levelo://app?vid=b7e960be-48d9-47b9-a197-044876a70be4","ios":"levelo://app?vid=b7e960be-48d9-47b9-a197-044876a70be4"},"vehicle_type_id":"4","last_reported":1684598844,"current_range_meters":29600,"station_id":"ce4bgt92rcd13ifvqcf0","pricing_plan_id":"free"},{"bike_id":"f2975edf-2865-418c-9e05-a6c178c53a8f","system_id":"levelo_inurba_marseille","lat":43.299222,"lon":5.365554,"is_reserved":false,"is_disabled":false,"rental_uris":{"android":"levelo://app?vid=f2975edf-2865-418c-9e05-a6c178c53a8f","ios":"levelo://app?vid=f2975edf-2865-418c-9e05-a6c178c53a8f"},"vehicle_type_id":"4","last_reported":1684598844,"current_range_meters":14400,"station_id":"ce4bgm92rcd13ifvqbr0","pricing_plan_id":"free"},{"bike_id":"ea0ef2e1-4cf3-4814-a9f9-122a4698329e","system_id":"levelo_inurba_marseille","lat":43.29928,"lon":5.36551,"is_reserved":false,"is_disabled":false,"rental_uris":{"android":"levelo://app?vid=ea0ef2e1-4cf3-4814-a9f9-122a4698329e","ios":"levelo://app?vid=ea0ef2e1-4cf3-4814-a9f9-122a4698329e"},"vehicle_type_id":"4","last_reported":1684598844,"current_range_meters":23600,"station_id":"ce4bgm92rcd13ifvqbr0","pricing_plan_id":"free"},{"bike_id":"1e424faf-5990-49d9-9ca8-b7def094f955","system_id":"levelo_inurba_marseille","lat":43.29573,"lon":5.367355,"is_reserved":false,"is_disabled":false,"rental_uris":{"android":"levelo://app?vid=1e424faf-5990-49d9-9ca8-b7def094f955","ios":"levelo://app?vid=1e424faf-5990-49d9-9ca8-b7def094f955"},"vehicle_type_id":"4","last_reported":1684598844,"current_range_meters":24000,"station_id":"ce4bgph2rcd13ifvqc2g","pricing_plan_id":"free"},{"bike_id":"80f05152-3bba-48fb-8357-a5ce030743be","system_id":"levelo_inurba_marseille","lat":43.298433,"lon":5.362774,"is_reserved":false,"is_disabled":false,"rental_uris":{"android":"levelo://app?vid=80f05152-3bba-48fb-8357-a5ce030743be","ios":"levelo://app?vid=80f05152-3bba-48fb-8357-a5ce030743be"},"vehicle_type_id":"4","last_reported":1684598844,"current_range_meters":29200,"station_id":"ce4bgpp2rcd13ifvqc3g","pricing_plan_id":"free"},{"bike_id":"ee20782b-ef17-43fe-8e50-6b751cc7e9f1","system_id":"levelo_inurba_marseille","lat":43.299243,"lon":5.37481,"is_reserved":false,"is_disabled":false,"rental_uris":{"android":"levelo://app?vid=ee20782b-ef17-43fe-8e50-6b751cc7e9f1","ios":"levelo://app?vid=ee20782b-ef17-43fe-8e50-6b751cc7e9f1"},"vehicle_type_id":"4","last_reported":1684598844,"current_range_meters":29200,"station_id":"ce4bgjh2rcd13ifvqbg0","pricing_plan_id":"free"},{"bike_id":"aa7ff445-8562-4b4b-b18c-16a6ff539ecf","system_id":"levelo_inurba_marseille","lat":43.29852,"lon":5.36284,"is_reserved":false,"is_disabled":false,"rental_uris":{"android":"levelo://app?vid=aa7ff445-8562-4b4b-b18c-16a6ff539ecf","ios":"levelo://app?vid=aa7ff445-8562-4b4b-b18c-16a6ff539ecf"},"vehicle_type_id":"4","last_reported":1684598844,"current_range_meters":24000,"station_id":"ce4bgpp2rcd13ifvqc3g","pricing_plan_id":"free"},{"bike_id":"320ab738-dfa6-4ea6-9993-531b5553048f","system_id":"levelo_inurba_marseille","lat":43.298433,"lon":5.362774,"is_reserved":false,"is_disabled":false,"rental_uris":{"android":"levelo://app?vid=320ab738-dfa6-4ea6-9993-531b5553048f","ios":"levelo://app?vid=320ab738-dfa6-4ea6-9993-531b5553048f"},"vehicle_type_id":"4","last_reported":1684598844,"current_range_meters":32000,"station_id":"ce4bgpp2rcd13ifvqc3g","pricing_plan_id":"free"},{"bike_id":"17758178-c0e1-4742-a332-e2df57be5107","system_id":"levelo_inurba_marseille","lat":43.29935,"lon":5.37478,"is_reserved":false,"is_disabled":false,"rental_uris":{"android":"levelo://app?vid=17758178-c0e1-4742-a332-e2df57be5107","ios":"levelo://app?vid=17758178-c0e1-4742-a332-e2df57be5107"},"vehicle_type_id":"4","last_reported":1684598844,"current_range_meters":24000,"station_id":"ce4bgjh2rcd13ifvqbg0","pricing_plan_id":"free"},{"bike_id":"03f61aa8-dd38-4b6b-b039-96ac3fa905c4","system_id":"levelo_inurba_marseille","lat":43.299243,"lon":5.37481,"is_reserved":false,"is_disabled":false,"rental_uris":{"android":"levelo://app?vid=03f61aa8-dd38-4b6b-b039-96ac3fa905c4","ios":"levelo://app?vid=03f61aa8-dd38-4b6b-b039-96ac3fa905c4"},"vehicle_type_id":"4","last_reported":1684598844,"current_range_meters":26000,"station_id":"ce4bgjh2rcd13ifvqbg0","pricing_plan_id":"free"},{"bike_id":"ed8d5811-c415-478c-b30e-895653ab7ccc","system_id":"levelo_inurba_marseille","lat":43.298433,"lon":5.362774,"is_reserved":false,"is_disabled":false,"rental_uris":{"android":"levelo://app?vid=ed8d5811-c415-478c-b30e-895653ab7ccc","ios":"levelo://app?vid=ed8d5811-c415-478c-b30e-895653ab7ccc"},"vehicle_type_id":"4","last_reported":1684598844,"current_range_meters":31200,"station_id":"ce4bgpp2rcd13ifvqc3g","pricing_plan_id":"free"},{"bike_id":"a31aff0a-c4e7-4d22-a2f7-60a11282f7ea","system_id":"levelo_inurba_marseille","lat":43.298433,"lon":5.362774,"is_reserved":false,"is_disabled":false,"rental_uris":{"android":"levelo://app?vid=a31aff0a-c4e7-4d22-a2f7-60a11282f7ea","ios":"levelo://app?vid=a31aff0a-c4e7-4d22-a2f7-60a11282f7ea"},"vehicle_type_id":"4","last_reported":1684598844,"current_range_meters":20400,"station_id":"ce4bgpp2rcd13ifvqc3g","pricing_plan_id":"free"},{"bike_id":"38bf2caf-492c-420a-8f64-c673a10130f0","system_id":"levelo_inurba_marseille","lat":43.298433,"lon":5.362774,"is_reserved":false,"is_disabled":false,"rental_uris":{"android":"levelo://app?vid=38bf2caf-492c-420a-8f64-c673a10130f0","ios":"levelo://app?vid=38bf2caf-492c-420a-8f64-c673a10130f0"},"vehicle_type_id":"4","last_reported":1684598844,"current_range_meters":31600,"station_id":"ce4bgpp2rcd13ifvqc3g","pricing_plan_id":"free"},{"bike_id":"6a37c2f6-9a0c-4fce-9917-dd86d0698391","system_id":"levelo_inurba_marseille","lat":43.298433,"lon":5.362774,"is_reserved":false,"is_disabled":false,"rental_uris":{"android":"levelo://app?vid=6a37c2f6-9a0c-4fce-9917-dd86d0698391","ios":"levelo://app?vid=6a37c2f6-9a0c-4fce-9917-dd86d0698391"},"vehicle_type_id":"4","last_reported":1684598844,"current_range_meters":31600,"station_id":"ce4bgpp2rcd13ifvqc3g","pricing_plan_id":"free"},{"bike_id":"9c0ded32-e85d-497c-98fb-6e6b16fbf002","system_id":"levelo_inurba_marseille","lat":43.311722,"lon":5.387247,"is_reserved":false,"is_disabled":false,"rental_uris":{"android":"levelo://app?vid=9c0ded32-e85d-497c-98fb-6e6b16fbf002","ios":"levelo://app?vid=9c0ded32-e85d-497c-98fb-6e6b16fbf002"},"vehicle_type_id":"4","last_reported":1684598844,"current_range_meters":10400,"station_id":"ce4bgv12rcd13ifvqcp0","pricing_plan_id":"free"},{"bike_id":"9e378d0f-f50e-4b68-901b-f9db900d227a","system_id":"levelo_inurba_marseille","lat":43.311722,"lon":5.387247,"is_reserved":false,"is_disabled":false,"rental_uris":{"android":"levelo://app?vid=9e378d0f-f50e-4b68-901b-f9db900d227a","ios":"levelo://app?vid=9e378d0f-f50e-4b68-901b-f9db900d227a"},"vehicle_type_id":"4","last_reported":1684598844,"current_range_meters":28800,"station_id":"ce4bgv12rcd13ifvqcp0","pricing_plan_id":"free"},{"bike_id":"c4eb8d17-b5a1-488f-9c3a-d021dd2f9859","system_id":"levelo_inurba_marseille","lat":43.311722,"lon":5.387247,"is_reserved":false,"is_disabled":false,"rental_uris":{"android":"levelo://app?vid=c4eb8d17-b5a1-488f-9c3a-d021dd2f9859","ios":"levelo://app?vid=c4eb8d17-b5a1-488f-9c3a-d021dd2f9859"},"vehicle_type_id":"4","last_reported":1684598844,"current_range_meters":0,"station_id":"ce4bgv12rcd13ifvqcp0","pricing_plan_id":"free"},{"bike_id":"baccddb9-da8e-42fc-958a-9e99316a1d47","system_id":"levelo_inurba_marseille","lat":43.299243,"lon":5.37481,"is_reserved":false,"is_disabled":false,"rental_uris":{"android":"levelo://app?vid=baccddb9-da8e-42fc-958a-9e99316a1d47","ios":"levelo://app?vid=baccddb9-da8e-42fc-958a-9e99316a1d47"},"vehicle_type_id":"4","last_reported":1684598844,"current_range_meters":32000,"station_id":"ce4bgjh2rcd13ifvqbg0","pricing_plan_id":"free"},{"bike_id":"f12fab9a-1b59-4dc1-97a4-ee5758c1503c","system_id":"levelo_inurba_marseille","lat":43.311722,"lon":5.387247,"is_reserved":false,"is_disabled":false,"rental_uris":{"android":"levelo://app?vid=f12fab9a-1b59-4dc1-97a4-ee5758c1503c","ios":"levelo://app?vid=f12fab9a-1b59-4dc1-97a4-ee5758c1503c"},"vehicle_type_id":"4","last_reported":1684598844,"current_range_meters":20000,"station_id":"ce4bgv12rcd13ifvqcp0","pricing_plan_id":"free"},{"bike_id":"634cef22-4695-47ca-963e-8a9b9d64a5c6","system_id":"levelo_inurba_marseille","lat":43.299243,"lon":5.37481,"is_reserved":false,"is_disabled":false,"rental_uris":{"android":"levelo://app?vid=634cef22-4695-47ca-963e-8a9b9d64a5c6","ios":"levelo://app?vid=634cef22-4695-47ca-963e-8a9b9d64a5c6"},"vehicle_type_id":"4","last_reported":1684598844,"current_range_meters":29600,"station_id":"ce4bgjh2rcd13ifvqbg0","pricing_plan_id":"free"},{"bike_id":"3fcf494f-7944-4d95-86c5-c09ce8aacb81","system_id":"levelo_inurba_marseille","lat":43.298433,"lon":5.362774,"is_reserved":false,"is_disabled":false,"rental_uris":{"android":"levelo://app?vid=3fcf494f-7944-4d95-86c5-c09ce8aacb81","ios":"levelo://app?vid=3fcf494f-7944-4d95-86c5-c09ce8aacb81"},"vehicle_type_id":"4","last_reported":1684598844,"current_range_meters":19600,"station_id":"ce4bgpp2rcd13ifvqc3g","pricing_plan_id":"free"},{"bike_id":"71a7cd51-c98e-4b63-902f-c2f5a808a065","system_id":"levelo_inurba_marseille","lat":43.32772,"lon":5.36709,"is_reserved":false,"is_disabled":false,"rental_uris":{"android":"levelo://app?vid=71a7cd51-c98e-4b63-902f-c2f5a808a065","ios":"levelo://app?vid=71a7cd51-c98e-4b63-902f-c2f5a808a065"},"vehicle_type_id":"4","last_reported":1684598844,"current_range_meters":22400,"station_id":"","pricing_plan_id":"free"},{"bike_id":"f6125cd9-9865-47e7-b252-332a74b0e971","system_id":"levelo_inurba_marseille","lat":43.29803,"lon":5.37103,"is_reserved":false,"is_disabled":false,"rental_uris":{"android":"levelo://app?vid=f6125cd9-9865-47e7-b252-332a74b0e971","ios":"levelo://app?vid=f6125cd9-9865-47e7-b252-332a74b0e971"},"vehicle_type_id":"4","last_reported":1684598844,"current_range_meters":29200,"station_id":"","pricing_plan_id":"free"},{"bike_id":"f3dca833-0d78-473c-8932-aba6100d2cc4","system_id":"levelo_inurba_marseille","lat":43.29798,"lon":5.37102,"is_reserved":false,"is_disabled":false,"rental_uris":{"android":"levelo://app?vid=f3dca833-0d78-473c-8932-aba6100d2cc4","ios":"levelo://app?vid=f3dca833-0d78-473c-8932-aba6100d2cc4"},"vehicle_type_id":"4","last_reported":1684598844,"current_range_meters":22400,"station_id":"ce4bgop2rcd13ifvqc1g","pricing_plan_id":"free"},{"bike_id":"5cf7ffc9-a389-4209-a251-5b3b341d543c","system_id":"levelo_inurba_marseille","lat":43.297794,"lon":5.370888,"is_reserved":false,"is_disabled":false,"rental_uris":{"android":"levelo://app?vid=5cf7ffc9-a389-4209-a251-5b3b341d543c","ios":"levelo://app?vid=5cf7ffc9-a389-4209-a251-5b3b341d543c"},"vehicle_type_id":"4","last_reported":1684598844,"current_range_meters":31600,"station_id":"ce4bgop2rcd13ifvqc1g","pricing_plan_id":"free"},{"bike_id":"3a71f41b-23a8-4407-ba65-e6ca37d7f313","system_id":"levelo_inurba_marseille","lat":43.29793,"lon":5.37105,"is_reserved":false,"is_disabled":false,"rental_uris":{"android":"levelo://app?vid=3a71f41b-23a8-4407-ba65-e6ca37d7f313","ios":"levelo://app?vid=3a71f41b-23a8-4407-ba65-e6ca37d7f313"},"vehicle_type_id":"4","last_reported":1684598844,"current_range_meters":28000,"station_id":"ce4bgop2rcd13ifvqc1g","pricing_plan_id":"free"},{"bike_id":"c93f1c63-b12b-4280-a8de-ee4084296d56","system_id":"levelo_inurba_marseille","lat":43.29791,"lon":5.37104,"is_reserved":false,"is_disabled":false,"rental_uris":{"android":"levelo://app?vid=c93f1c63-b12b-4280-a8de-ee4084296d56","ios":"levelo://app?vid=c93f1c63-b12b-4280-a8de-ee4084296d56"},"vehicle_type_id":"4","last_reported":1684598844,"current_range_meters":21600,"station_id":"ce4bgop2rcd13ifvqc1g","pricing_plan_id":"free"},{"bike_id":"41a2b8f0-2bb4-48af-b01a-5624103b582f","system_id":"levelo_inurba_marseille","lat":43.29787,"lon":5.37099,"is_reserved":false,"is_disabled":false,"rental_uris":{"android":"levelo://app?vid=41a2b8f0-2bb4-48af-b01a-5624103b582f","ios":"levelo://app?vid=41a2b8f0-2bb4-48af-b01a-5624103b582f"},"vehicle_type_id":"4","last_reported":1684598844,"current_range_meters":22000,"station_id":"ce4bgop2rcd13ifvqc1g","pricing_plan_id":"free"},{"bike_id":"a0a50b81-6598-4356-8ea6-b61b7284341b","system_id":"levelo_inurba_marseille","lat":43.29784,"lon":5.37106,"is_reserved":false,"is_disabled":false,"rental_uris":{"android":"levelo://app?vid=a0a50b81-6598-4356-8ea6-b61b7284341b","ios":"levelo://app?vid=a0a50b81-6598-4356-8ea6-b61b7284341b"},"vehicle_type_id":"4","last_reported":1684598844,"current_range_meters":18400,"station_id":"ce4bgop2rcd13ifvqc1g","pricing_plan_id":"free"},{"bike_id":"07470856-d175-4611-8770-68425acc54c5","system_id":"levelo_inurba_marseille","lat":43.29783,"lon":5.37102,"is_reserved":false,"is_disabled":false,"rental_uris":{"android":"levelo://app?vid=07470856-d175-4611-8770-68425acc54c5","ios":"levelo://app?vid=07470856-d175-4611-8770-68425acc54c5"},"vehicle_type_id":"4","last_reported":1684598844,"current_range_meters":21200,"station_id":"ce4bgop2rcd13ifvqc1g","pricing_plan_id":"free"},{"bike_id":"5cd7b71f-c4c6-429f-88a7-e63ae86ec05d","system_id":"levelo_inurba_marseille","lat":43.29726,"lon":5.36615,"is_reserved":false,"is_disabled":false,"rental_uris":{"android":"levelo://app?vid=5cd7b71f-c4c6-429f-88a7-e63ae86ec05d","ios":"levelo://app?vid=5cd7b71f-c4c6-429f-88a7-e63ae86ec05d"},"vehicle_type_id":"4","last_reported":1684598844,"current_range_meters":24000,"station_id":"","pricing_plan_id":"free"},{"bike_id":"7177c238-b634-4673-afd7-106280721fc5","system_id":"levelo_inurba_marseille","lat":43.29723,"lon":5.36625,"is_reserved":false,"is_disabled":false,"rental_uris":{"android":"levelo://app?vid=7177c238-b634-4673-afd7-106280721fc5","ios":"levelo://app?vid=7177c238-b634-4673-afd7-106280721fc5"},"vehicle_type_id":"4","last_reported":1684598844,"current_range_meters":25200,"station_id":"","pricing_plan_id":"free"},{"bike_id":"bd0cd171-ddc8-443f-ad52-c3c60e0946fd","system_id":"levelo_inurba_marseille","lat":43.29722,"lon":5.36623,"is_reserved":false,"is_disabled":false,"rental_uris":{"android":"levelo://app?vid=bd0cd171-ddc8-443f-ad52-c3c60e0946fd","ios":"levelo://app?vid=bd0cd171-ddc8-443f-ad52-c3c60e0946fd"},"vehicle_type_id":"4","last_reported":1684598844,"current_range_meters":4000,"station_id":"","pricing_plan_id":"free"},{"bike_id":"a7fb6a73-9ebf-4b56-938e-67995ffda768","system_id":"levelo_inurba_marseille","lat":43.328371,"lon":5.366909,"is_reserved":false,"is_disabled":false,"rental_uris":{"android":"levelo://app?vid=a7fb6a73-9ebf-4b56-938e-67995ffda768","ios":"levelo://app?vid=a7fb6a73-9ebf-4b56-938e-67995ffda768"},"vehicle_type_id":"4","last_reported":1684598844,"current_range_meters":31200,"station_id":"ce4bhs92rcd13ifvqi0g","pricing_plan_id":"free"},{"bike_id":"9d891959-73d6-4c5c-ad12-227228d64e9d","system_id":"levelo_inurba_marseille","lat":43.328371,"lon":5.366909,"is_reserved":false,"is_disabled":false,"rental_uris":{"android":"levelo://app?vid=9d891959-73d6-4c5c-ad12-227228d64e9d","ios":"levelo://app?vid=9d891959-73d6-4c5c-ad12-227228d64e9d"},"vehicle_type_id":"4","last_reported":1684598844,"current_range_meters":20800,"station_id":"ce4bhs92rcd13ifvqi0g","pricing_plan_id":"free"},{"bike_id":"411c53dc-8a67-493a-b123-b1e299cae53c","system_id":"levelo_inurba_marseille","lat":43.328371,"lon":5.366909,"is_reserved":false,"is_disabled":false,"rental_uris":{"android":"levelo://app?vid=411c53dc-8a67-493a-b123-b1e299cae53c","ios":"levelo://app?vid=411c53dc-8a67-493a-b123-b1e299cae53c"},"vehicle_type_id":"4","last_reported":1684598844,"current_range_meters":31200,"station_id":"ce4bhs92rcd13ifvqi0g","pricing_plan_id":"free"},{"bike_id":"27955cc2-1f6e-4990-84bb-52646cbea3f5","system_id":"levelo_inurba_marseille","lat":43.29718,"lon":5.36613,"is_reserved":false,"is_disabled":false,"rental_uris":{"android":"levelo://app?vid=27955cc2-1f6e-4990-84bb-52646cbea3f5","ios":"levelo://app?vid=27955cc2-1f6e-4990-84bb-52646cbea3f5"},"vehicle_type_id":"4","last_reported":1684598844,"current_range_meters":18400,"station_id":"","pricing_plan_id":"free"},{"bike_id":"fb24a851-46e9-40c8-914f-4c0bfc6aa435","system_id":"levelo_inurba_marseille","lat":43.328371,"lon":5.366909,"is_reserved":false,"is_disabled":false,"rental_uris":{"android":"levelo://app?vid=fb24a851-46e9-40c8-914f-4c0bfc6aa435","ios":"levelo://app?vid=fb24a851-46e9-40c8-914f-4c0bfc6aa435"},"vehicle_type_id":"4","last_reported":1684598844,"current_range_meters":2000,"station_id":"ce4bhs92rcd13ifvqi0g","pricing_plan_id":"free"},{"bike_id":"de338054-150d-4f92-8ba2-f43c70283500","system_id":"levelo_inurba_marseille","lat":43.328371,"lon":5.366909,"is_reserved":false,"is_disabled":false,"rental_uris":{"android":"levelo://app?vid=de338054-150d-4f92-8ba2-f43c70283500","ios":"levelo://app?vid=de338054-150d-4f92-8ba2-f43c70283500"},"vehicle_type_id":"4","last_reported":1684598844,"current_range_meters":20400,"station_id":"ce4bhs92rcd13ifvqi0g","pricing_plan_id":"free"},{"bike_id":"fccfd339-db22-4277-bdd0-196f87e474ac","system_id":"levelo_inurba_marseille","lat":43.328371,"lon":5.366909,"is_reserved":false,"is_disabled":false,"rental_uris":{"android":"levelo://app?vid=fccfd339-db22-4277-bdd0-196f87e474ac","ios":"levelo://app?vid=fccfd339-db22-4277-bdd0-196f87e474ac"},"vehicle_type_id":"4","last_reported":1684598844,"current_range_meters":23200,"station_id":"ce4bhs92rcd13ifvqi0g","pricing_plan_id":"free"},{"bike_id":"bced0c1a-95c2-4986-b6d9-e055a1331248","system_id":"levelo_inurba_marseille","lat":43.328371,"lon":5.366909,"is_reserved":false,"is_disabled":false,"rental_uris":{"android":"levelo://app?vid=bced0c1a-95c2-4986-b6d9-e055a1331248","ios":"levelo://app?vid=bced0c1a-95c2-4986-b6d9-e055a1331248"},"vehicle_type_id":"4","last_reported":1684598844,"current_range_meters":31200,"station_id":"ce4bhs92rcd13ifvqi0g","pricing_plan_id":"free"},{"bike_id":"f97920a2-e4af-4546-becc-af0c52c2dab8","system_id":"levelo_inurba_marseille","lat":43.29711,"lon":5.36618,"is_reserved":false,"is_disabled":false,"rental_uris":{"android":"levelo://app?vid=f97920a2-e4af-4546-becc-af0c52c2dab8","ios":"levelo://app?vid=f97920a2-e4af-4546-becc-af0c52c2dab8"},"vehicle_type_id":"4","last_reported":1684598844,"current_range_meters":20000,"station_id":"","pricing_plan_id":"free"},{"bike_id":"548efb9d-91f7-4f61-af0e-8e48476c6371","system_id":"levelo_inurba_marseille","lat":43.328371,"lon":5.366909,"is_reserved":false,"is_disabled":false,"rental_uris":{"android":"levelo://app?vid=548efb9d-91f7-4f61-af0e-8e48476c6371","ios":"levelo://app?vid=548efb9d-91f7-4f61-af0e-8e48476c6371"},"vehicle_type_id":"4","last_reported":1684598844,"current_range_meters":17600,"station_id":"ce4bhs92rcd13ifvqi0g","pricing_plan_id":"free"},{"bike_id":"a10d20a8-090c-4977-8302-b75d6d4c0794","system_id":"levelo_inurba_marseille","lat":43.2968,"lon":5.37291,"is_reserved":false,"is_disabled":false,"rental_uris":{"android":"levelo://app?vid=a10d20a8-090c-4977-8302-b75d6d4c0794","ios":"levelo://app?vid=a10d20a8-090c-4977-8302-b75d6d4c0794"},"vehicle_type_id":"4","last_reported":1684598844,"current_range_meters":31200,"station_id":"ce4bgk12rcd13ifvqbj0","pricing_plan_id":"free"},{"bike_id":"0217cea3-1210-4f38-a7bd-3c15dcd8a9b9","system_id":"levelo_inurba_marseille","lat":43.2968,"lon":5.37291,"is_reserved":false,"is_disabled":false,"rental_uris":{"android":"levelo://app?vid=0217cea3-1210-4f38-a7bd-3c15dcd8a9b9","ios":"levelo://app?vid=0217cea3-1210-4f38-a7bd-3c15dcd8a9b9"},"vehicle_type_id":"4","last_reported":1684598844,"current_range_meters":28400,"station_id":"ce4bgk12rcd13ifvqbj0","pricing_plan_id":"free"},{"bike_id":"8fd9343a-2fcc-420f-86ef-27715ca38bbc","system_id":"levelo_inurba_marseille","lat":43.2968,"lon":5.37291,"is_reserved":false,"is_disabled":false,"rental_uris":{"android":"levelo://app?vid=8fd9343a-2fcc-420f-86ef-27715ca38bbc","ios":"levelo://app?vid=8fd9343a-2fcc-420f-86ef-27715ca38bbc"},"vehicle_type_id":"4","last_reported":1684598844,"current_range_meters":28400,"station_id":"ce4bgk12rcd13ifvqbj0","pricing_plan_id":"free"},{"bike_id":"018b85d9-1f3f-4e4b-8baa-c745c0b04bb0","system_id":"levelo_inurba_marseille","lat":43.2968,"lon":5.37291,"is_reserved":false,"is_disabled":false,"rental_uris":{"android":"levelo://app?vid=018b85d9-1f3f-4e4b-8baa-c745c0b04bb0","ios":"levelo://app?vid=018b85d9-1f3f-4e4b-8baa-c745c0b04bb0"},"vehicle_type_id":"4","last_reported":1684598844,"current_range_meters":28800,"station_id":"ce4bgk12rcd13ifvqbj0","pricing_plan_id":"free"},{"bike_id":"9428382f-f8d8-43ea-8dce-6c96c2d3e1a1","system_id":"levelo_inurba_marseille","lat":43.296129,"lon":5.370777,"is_reserved":false,"is_disabled":false,"rental_uris":{"android":"levelo://app?vid=9428382f-f8d8-43ea-8dce-6c96c2d3e1a1","ios":"levelo://app?vid=9428382f-f8d8-43ea-8dce-6c96c2d3e1a1"},"vehicle_type_id":"4","last_reported":1684598844,"current_range_meters":8000,"station_id":"ce4bgnh2rcd13ifvqc0g","pricing_plan_id":"free"},{"bike_id":"14060c1f-51a9-426a-86f0-e4083e7e25f7","system_id":"levelo_inurba_marseille","lat":43.296131,"lon":5.370791,"is_reserved":false,"is_disabled":false,"rental_uris":{"android":"levelo://app?vid=14060c1f-51a9-426a-86f0-e4083e7e25f7","ios":"levelo://app?vid=14060c1f-51a9-426a-86f0-e4083e7e25f7"},"vehicle_type_id":"4","last_reported":1684598844,"current_range_meters":31200,"station_id":"ce4bgnh2rcd13ifvqc0g","pricing_plan_id":"free"},{"bike_id":"1a70e888-756f-4b2b-8101-40121b4fd2d5","system_id":"levelo_inurba_marseille","lat":43.296129,"lon":5.370777,"is_reserved":false,"is_disabled":false,"rental_uris":{"android":"levelo://app?vid=1a70e888-756f-4b2b-8101-40121b4fd2d5","ios":"levelo://app?vid=1a70e888-756f-4b2b-8101-40121b4fd2d5"},"vehicle_type_id":"4","last_reported":1684598844,"current_range_meters":30400,"station_id":"ce4bgnh2rcd13ifvqc0g","pricing_plan_id":"free"},{"bike_id":"ee6619ff-faea-4d23-a990-697445c25ee4","system_id":"levelo_inurba_marseille","lat":43.296131,"lon":5.370773,"is_reserved":false,"is_disabled":false,"rental_uris":{"android":"levelo://app?vid=ee6619ff-faea-4d23-a990-697445c25ee4","ios":"levelo://app?vid=ee6619ff-faea-4d23-a990-697445c25ee4"},"vehicle_type_id":"4","last_reported":1684598844,"current_range_meters":14000,"station_id":"ce4bgnh2rcd13ifvqc0g","pricing_plan_id":"free"},{"bike_id":"961d69b5-7e0e-44c4-a861-e1ee014eb732","system_id":"levelo_inurba_marseille","lat":43.29573,"lon":5.367355,"is_reserved":false,"is_disabled":false,"rental_uris":{"android":"levelo://app?vid=961d69b5-7e0e-44c4-a861-e1ee014eb732","ios":"levelo://app?vid=961d69b5-7e0e-44c4-a861-e1ee014eb732"},"vehicle_type_id":"4","last_reported":1684598844,"current_range_meters":31600,"station_id":"ce4bgph2rcd13ifvqc2g","pricing_plan_id":"free"},{"bike_id":"6dbde9a3-2bd1-4af4-ac15-87072668b57a","system_id":"levelo_inurba_marseille","lat":43.296131,"lon":5.370773,"is_reserved":false,"is_disabled":false,"rental_uris":{"android":"levelo://app?vid=6dbde9a3-2bd1-4af4-ac15-87072668b57a","ios":"levelo://app?vid=6dbde9a3-2bd1-4af4-ac15-87072668b57a"},"vehicle_type_id":"4","last_reported":1684598844,"current_range_meters":24000,"station_id":"ce4bgnh2rcd13ifvqc0g","pricing_plan_id":"free"},{"bike_id":"50d173d1-18ff-41f7-9eb8-ae9dc916a04c","system_id":"levelo_inurba_marseille","lat":43.296131,"lon":5.370791,"is_reserved":false,"is_disabled":false,"rental_uris":{"android":"levelo://app?vid=50d173d1-18ff-41f7-9eb8-ae9dc916a04c","ios":"levelo://app?vid=50d173d1-18ff-41f7-9eb8-ae9dc916a04c"},"vehicle_type_id":"4","last_reported":1684598844,"current_range_meters":28400,"station_id":"ce4bgnh2rcd13ifvqc0g","pricing_plan_id":"free"},{"bike_id":"8cb3327b-b1d9-45b2-a8ec-a509cdc59380","system_id":"levelo_inurba_marseille","lat":43.296129,"lon":5.370777,"is_reserved":false,"is_disabled":false,"rental_uris":{"android":"levelo://app?vid=8cb3327b-b1d9-45b2-a8ec-a509cdc59380","ios":"levelo://app?vid=8cb3327b-b1d9-45b2-a8ec-a509cdc59380"},"vehicle_type_id":"4","last_reported":1684598844,"current_range_meters":29200,"station_id":"ce4bgnh2rcd13ifvqc0g","pricing_plan_id":"free"},{"bike_id":"8c1ec357-0bbb-42b9-9a40-1859fc95bd78","system_id":"levelo_inurba_marseille","lat":43.296131,"lon":5.370773,"is_reserved":false,"is_disabled":false,"rental_uris":{"android":"levelo://app?vid=8c1ec357-0bbb-42b9-9a40-1859fc95bd78","ios":"levelo://app?vid=8c1ec357-0bbb-42b9-9a40-1859fc95bd78"},"vehicle_type_id":"4","last_reported":1684598844,"current_range_meters":18800,"station_id":"ce4bgnh2rcd13ifvqc0g","pricing_plan_id":"free"},{"bike_id":"1d0998d3-da8c-4aed-96f0-608a1f7a49d9","system_id":"levelo_inurba_marseille","lat":43.29573,"lon":5.367355,"is_reserved":false,"is_disabled":false,"rental_uris":{"android":"levelo://app?vid=1d0998d3-da8c-4aed-96f0-608a1f7a49d9","ios":"levelo://app?vid=1d0998d3-da8c-4aed-96f0-608a1f7a49d9"},"vehicle_type_id":"4","last_reported":1684598844,"current_range_meters":31600,"station_id":"ce4bgph2rcd13ifvqc2g","pricing_plan_id":"free"},{"bike_id":"b569ec74-d11d-481e-9e33-1df8b84cca6b","system_id":"levelo_inurba_marseille","lat":43.29573,"lon":5.367355,"is_reserved":false,"is_disabled":false,"rental_uris":{"android":"levelo://app?vid=b569ec74-d11d-481e-9e33-1df8b84cca6b","ios":"levelo://app?vid=b569ec74-d11d-481e-9e33-1df8b84cca6b"},"vehicle_type_id":"4","last_reported":1684598844,"current_range_meters":31600,"station_id":"ce4bgph2rcd13ifvqc2g","pricing_plan_id":"free"},{"bike_id":"73f32961-c496-44ae-9f73-ac17ebf7395e","system_id":"levelo_inurba_marseille","lat":43.296129,"lon":5.370777,"is_reserved":false,"is_disabled":false,"rental_uris":{"android":"levelo://app?vid=73f32961-c496-44ae-9f73-ac17ebf7395e","ios":"levelo://app?vid=73f32961-c496-44ae-9f73-ac17ebf7395e"},"vehicle_type_id":"4","last_reported":1684598844,"current_range_meters":22800,"station_id":"ce4bgnh2rcd13ifvqc0g","pricing_plan_id":"free"},{"bike_id":"8405bdfc-0ab3-4ee0-815a-c82025309ccb","system_id":"levelo_inurba_marseille","lat":43.29573,"lon":5.367355,"is_reserved":false,"is_disabled":false,"rental_uris":{"android":"levelo://app?vid=8405bdfc-0ab3-4ee0-815a-c82025309ccb","ios":"levelo://app?vid=8405bdfc-0ab3-4ee0-815a-c82025309ccb"},"vehicle_type_id":"4","last_reported":1684598844,"current_range_meters":18400,"station_id":"ce4bgph2rcd13ifvqc2g","pricing_plan_id":"free"},{"bike_id":"9b4a3b98-0cbd-4cb7-a0b1-73b12ce4ec36","system_id":"levelo_inurba_marseille","lat":43.299028,"lon":5.381509,"is_reserved":false,"is_disabled":false,"rental_uris":{"android":"levelo://app?vid=9b4a3b98-0cbd-4cb7-a0b1-73b12ce4ec36","ios":"levelo://app?vid=9b4a3b98-0cbd-4cb7-a0b1-73b12ce4ec36"},"vehicle_type_id":"4","last_reported":1684598844,"current_range_meters":18400,"station_id":"ce4bgj12rcd13ifvqbc0","pricing_plan_id":"free"},{"bike_id":"9600fd8e-0f23-4283-9ca6-4b336c34aa71","system_id":"levelo_inurba_marseille","lat":43.299028,"lon":5.381509,"is_reserved":false,"is_disabled":false,"rental_uris":{"android":"levelo://app?vid=9600fd8e-0f23-4283-9ca6-4b336c34aa71","ios":"levelo://app?vid=9600fd8e-0f23-4283-9ca6-4b336c34aa71"},"vehicle_type_id":"4","last_reported":1684598844,"current_range_meters":28400,"station_id":"ce4bgj12rcd13ifvqbc0","pricing_plan_id":"free"},{"bike_id":"fb93c5a0-9bd3-4259-a605-c6520d0c8359","system_id":"levelo_inurba_marseille","lat":43.31758,"lon":5.39013,"is_reserved":false,"is_disabled":false,"rental_uris":{"android":"levelo://app?vid=fb93c5a0-9bd3-4259-a605-c6520d0c8359","ios":"levelo://app?vid=fb93c5a0-9bd3-4259-a605-c6520d0c8359"},"vehicle_type_id":"4","last_reported":1684598844,"current_range_meters":26000,"station_id":"ce4bhqp2rcd13ifvqhng","pricing_plan_id":"free"},{"bike_id":"7ccdf964-879f-4af8-bcb9-0bfc70a2cad2","system_id":"levelo_inurba_marseille","lat":43.317557,"lon":5.390173,"is_reserved":false,"is_disabled":false,"rental_uris":{"android":"levelo://app?vid=7ccdf964-879f-4af8-bcb9-0bfc70a2cad2","ios":"levelo://app?vid=7ccdf964-879f-4af8-bcb9-0bfc70a2cad2"},"vehicle_type_id":"4","last_reported":1684598844,"current_range_meters":22400,"station_id":"ce4bhqp2rcd13ifvqhng","pricing_plan_id":"free"},{"bike_id":"e4053292-5222-41bd-82e1-22699b26d48e","system_id":"levelo_inurba_marseille","lat":43.317557,"lon":5.390173,"is_reserved":false,"is_disabled":false,"rental_uris":{"android":"levelo://app?vid=e4053292-5222-41bd-82e1-22699b26d48e","ios":"levelo://app?vid=e4053292-5222-41bd-82e1-22699b26d48e"},"vehicle_type_id":"4","last_reported":1684598844,"current_range_meters":14800,"station_id":"ce4bhqp2rcd13ifvqhng","pricing_plan_id":"free"},{"bike_id":"308b9c79-bd84-4e52-8df1-b9e114b2c86d","system_id":"levelo_inurba_marseille","lat":43.298037,"lon":5.381066,"is_reserved":false,"is_disabled":false,"rental_uris":{"android":"levelo://app?vid=308b9c79-bd84-4e52-8df1-b9e114b2c86d","ios":"levelo://app?vid=308b9c79-bd84-4e52-8df1-b9e114b2c86d"},"vehicle_type_id":"4","last_reported":1684598844,"current_range_meters":16000,"station_id":"ce4bgip2rcd13ifvqbb0","pricing_plan_id":"free"},{"bike_id":"b81aeee4-a083-4b8d-94b7-006b6f4ac65f","system_id":"levelo_inurba_marseille","lat":43.298037,"lon":5.381066,"is_reserved":false,"is_disabled":false,"rental_uris":{"android":"levelo://app?vid=b81aeee4-a083-4b8d-94b7-006b6f4ac65f","ios":"levelo://app?vid=b81aeee4-a083-4b8d-94b7-006b6f4ac65f"},"vehicle_type_id":"4","last_reported":1684598844,"current_range_meters":30400,"station_id":"ce4bgip2rcd13ifvqbb0","pricing_plan_id":"free"},{"bike_id":"f635f0ef-1480-4566-87b2-f0d790c0d06a","system_id":"levelo_inurba_marseille","lat":43.298037,"lon":5.381066,"is_reserved":false,"is_disabled":false,"rental_uris":{"android":"levelo://app?vid=f635f0ef-1480-4566-87b2-f0d790c0d06a","ios":"levelo://app?vid=f635f0ef-1480-4566-87b2-f0d790c0d06a"},"vehicle_type_id":"4","last_reported":1684598844,"current_range_meters":31600,"station_id":"ce4bgip2rcd13ifvqbb0","pricing_plan_id":"free"},{"bike_id":"191b14ff-e703-4094-92d2-d4d06ba88b21","system_id":"levelo_inurba_marseille","lat":43.295748,"lon":5.37522,"is_reserved":false,"is_disabled":false,"rental_uris":{"android":"levelo://app?vid=191b14ff-e703-4094-92d2-d4d06ba88b21","ios":"levelo://app?vid=191b14ff-e703-4094-92d2-d4d06ba88b21"},"vehicle_type_id":"4","last_reported":1684598844,"current_range_meters":7600,"station_id":"ce4bgh92rcd13ifvqb50","pricing_plan_id":"free"},{"bike_id":"cd200062-53e4-4753-bf86-c3c1a99349ca","system_id":"levelo_inurba_marseille","lat":43.298037,"lon":5.381066,"is_reserved":false,"is_disabled":false,"rental_uris":{"android":"levelo://app?vid=cd200062-53e4-4753-bf86-c3c1a99349ca","ios":"levelo://app?vid=cd200062-53e4-4753-bf86-c3c1a99349ca"},"vehicle_type_id":"4","last_reported":1684598844,"current_range_meters":28000,"station_id":"ce4bgip2rcd13ifvqbb0","pricing_plan_id":"free"},{"bike_id":"bbab7d84-ae80-4874-ac8f-3858361879c1","system_id":"levelo_inurba_marseille","lat":43.295748,"lon":5.37522,"is_reserved":false,"is_disabled":false,"rental_uris":{"android":"levelo://app?vid=bbab7d84-ae80-4874-ac8f-3858361879c1","ios":"levelo://app?vid=bbab7d84-ae80-4874-ac8f-3858361879c1"},"vehicle_type_id":"4","last_reported":1684598844,"current_range_meters":14800,"station_id":"ce4bgh92rcd13ifvqb50","pricing_plan_id":"free"},{"bike_id":"853363c0-44b2-4540-a4e0-1a2f1c2e6a56","system_id":"levelo_inurba_marseille","lat":43.295748,"lon":5.37522,"is_reserved":false,"is_disabled":false,"rental_uris":{"android":"levelo://app?vid=853363c0-44b2-4540-a4e0-1a2f1c2e6a56","ios":"levelo://app?vid=853363c0-44b2-4540-a4e0-1a2f1c2e6a56"},"vehicle_type_id":"4","last_reported":1684598844,"current_range_meters":14400,"station_id":"ce4bgh92rcd13ifvqb50","pricing_plan_id":"free"},{"bike_id":"e512a454-d084-4dfd-a090-a7513f839053","system_id":"levelo_inurba_marseille","lat":43.295748,"lon":5.37522,"is_reserved":false,"is_disabled":false,"rental_uris":{"android":"levelo://app?vid=e512a454-d084-4dfd-a090-a7513f839053","ios":"levelo://app?vid=e512a454-d084-4dfd-a090-a7513f839053"},"vehicle_type_id":"4","last_reported":1684598844,"current_range_meters":26400,"station_id":"ce4bgh92rcd13ifvqb50","pricing_plan_id":"free"},{"bike_id":"386b2de9-8f63-442e-9f23-ea3ea1946249","system_id":"levelo_inurba_marseille","lat":43.29626,"lon":5.37717,"is_reserved":false,"is_disabled":false,"rental_uris":{"android":"levelo://app?vid=386b2de9-8f63-442e-9f23-ea3ea1946249","ios":"levelo://app?vid=386b2de9-8f63-442e-9f23-ea3ea1946249"},"vehicle_type_id":"4","last_reported":1684598844,"current_range_meters":9200,"station_id":"ce4bgi92rcd13ifvqb90","pricing_plan_id":"free"},{"bike_id":"f86bcd51-8aa1-4105-91e0-51ad114d2c28","system_id":"levelo_inurba_marseille","lat":43.29529,"lon":5.385581,"is_reserved":false,"is_disabled":false,"rental_uris":{"android":"levelo://app?vid=f86bcd51-8aa1-4105-91e0-51ad114d2c28","ios":"levelo://app?vid=f86bcd51-8aa1-4105-91e0-51ad114d2c28"},"vehicle_type_id":"4","last_reported":1684598844,"current_range_meters":18000,"station_id":"ce4bgih2rcd13ifvqba0","pricing_plan_id":"free"},{"bike_id":"1ec61cb4-6693-4d46-b4f6-7978a848a46e","system_id":"levelo_inurba_marseille","lat":43.295748,"lon":5.37522,"is_reserved":false,"is_disabled":false,"rental_uris":{"android":"levelo://app?vid=1ec61cb4-6693-4d46-b4f6-7978a848a46e","ios":"levelo://app?vid=1ec61cb4-6693-4d46-b4f6-7978a848a46e"},"vehicle_type_id":"4","last_reported":1684598844,"current_range_meters":0,"station_id":"ce4bgh92rcd13ifvqb50","pricing_plan_id":"free"},{"bike_id":"d85975a9-e466-4132-9dea-de0e0327661e","system_id":"levelo_inurba_marseille","lat":43.296277,"lon":5.377108,"is_reserved":false,"is_disabled":false,"rental_uris":{"android":"levelo://app?vid=d85975a9-e466-4132-9dea-de0e0327661e","ios":"levelo://app?vid=d85975a9-e466-4132-9dea-de0e0327661e"},"vehicle_type_id":"4","last_reported":1684598844,"current_range_meters":22400,"station_id":"ce4bgi92rcd13ifvqb90","pricing_plan_id":"free"},{"bike_id":"cdaafd20-5dbd-436c-8bdc-f9b2322cb1b6","system_id":"levelo_inurba_marseille","lat":43.29551,"lon":5.37553,"is_reserved":false,"is_disabled":false,"rental_uris":{"android":"levelo://app?vid=cdaafd20-5dbd-436c-8bdc-f9b2322cb1b6","ios":"levelo://app?vid=cdaafd20-5dbd-436c-8bdc-f9b2322cb1b6"},"vehicle_type_id":"4","last_reported":1684598844,"current_range_meters":27200,"station_id":"ce4bgh92rcd13ifvqb50","pricing_plan_id":"free"},{"bike_id":"584b2422-bd9e-4ba5-88f4-f220773a4778","system_id":"levelo_inurba_marseille","lat":43.299707,"lon":5.384859,"is_reserved":false,"is_disabled":false,"rental_uris":{"android":"levelo://app?vid=584b2422-bd9e-4ba5-88f4-f220773a4778","ios":"levelo://app?vid=584b2422-bd9e-4ba5-88f4-f220773a4778"},"vehicle_type_id":"4","last_reported":1684598844,"current_range_meters":30000,"station_id":"ce4bgj92rcd13ifvqbd0","pricing_plan_id":"free"},{"bike_id":"a5153643-42d3-45bb-a03d-3bbd2156b83b","system_id":"levelo_inurba_marseille","lat":43.29971,"lon":5.38489,"is_reserved":false,"is_disabled":false,"rental_uris":{"android":"levelo://app?vid=a5153643-42d3-45bb-a03d-3bbd2156b83b","ios":"levelo://app?vid=a5153643-42d3-45bb-a03d-3bbd2156b83b"},"vehicle_type_id":"4","last_reported":1684598844,"current_range_meters":20400,"station_id":"ce4bgj92rcd13ifvqbd0","pricing_plan_id":"free"},{"bike_id":"b3aa5b6f-608a-4a46-95b9-cabde7034491","system_id":"levelo_inurba_marseille","lat":43.295279,"lon":5.375048,"is_reserved":false,"is_disabled":false,"rental_uris":{"android":"levelo://app?vid=b3aa5b6f-608a-4a46-95b9-cabde7034491","ios":"levelo://app?vid=b3aa5b6f-608a-4a46-95b9-cabde7034491"},"vehicle_type_id":"4","last_reported":1684598844,"current_range_meters":26400,"station_id":"ce4bgkp2rcd13ifvqbmg","pricing_plan_id":"free"},{"bike_id":"5ca9e1cb-3479-47af-967b-997d1d1dc65c","system_id":"levelo_inurba_marseille","lat":43.29969,"lon":5.38498,"is_reserved":false,"is_disabled":false,"rental_uris":{"android":"levelo://app?vid=5ca9e1cb-3479-47af-967b-997d1d1dc65c","ios":"levelo://app?vid=5ca9e1cb-3479-47af-967b-997d1d1dc65c"},"vehicle_type_id":"4","last_reported":1684598844,"current_range_meters":19200,"station_id":"ce4bgj92rcd13ifvqbd0","pricing_plan_id":"free"},{"bike_id":"ba827236-c337-4e35-8e30-402f5d820002","system_id":"levelo_inurba_marseille","lat":43.29968,"lon":5.38499,"is_reserved":false,"is_disabled":false,"rental_uris":{"android":"levelo://app?vid=ba827236-c337-4e35-8e30-402f5d820002","ios":"levelo://app?vid=ba827236-c337-4e35-8e30-402f5d820002"},"vehicle_type_id":"4","last_reported":1684598844,"current_range_meters":21200,"station_id":"ce4bgj92rcd13ifvqbd0","pricing_plan_id":"free"},{"bike_id":"14274225-05c5-467a-9df3-e11850780ac9","system_id":"levelo_inurba_marseille","lat":43.29975,"lon":5.38511,"is_reserved":false,"is_disabled":false,"rental_uris":{"android":"levelo://app?vid=14274225-05c5-467a-9df3-e11850780ac9","ios":"levelo://app?vid=14274225-05c5-467a-9df3-e11850780ac9"},"vehicle_type_id":"4","last_reported":1684598844,"current_range_meters":24400,"station_id":"ce4bgj92rcd13ifvqbd0","pricing_plan_id":"free"},{"bike_id":"0833bfd1-4c72-4028-aace-af61a6b37bdd","system_id":"levelo_inurba_marseille","lat":43.29967,"lon":5.38502,"is_reserved":false,"is_disabled":false,"rental_uris":{"android":"levelo://app?vid=0833bfd1-4c72-4028-aace-af61a6b37bdd","ios":"levelo://app?vid=0833bfd1-4c72-4028-aace-af61a6b37bdd"},"vehicle_type_id":"4","last_reported":1684598844,"current_range_meters":25200,"station_id":"ce4bgj92rcd13ifvqbd0","pricing_plan_id":"free"},{"bike_id":"fb3c6a7b-c86d-4888-b251-610af1a235c6","system_id":"levelo_inurba_marseille","lat":43.29963,"lon":5.385,"is_reserved":false,"is_disabled":false,"rental_uris":{"android":"levelo://app?vid=fb3c6a7b-c86d-4888-b251-610af1a235c6","ios":"levelo://app?vid=fb3c6a7b-c86d-4888-b251-610af1a235c6"},"vehicle_type_id":"4","last_reported":1684598844,"current_range_meters":0,"station_id":"ce4bgj92rcd13ifvqbd0","pricing_plan_id":"free"},{"bike_id":"67e8de49-d1f7-402c-a935-e2da720f03fa","system_id":"levelo_inurba_marseille","lat":43.29962,"lon":5.38502,"is_reserved":false,"is_disabled":false,"rental_uris":{"android":"levelo://app?vid=67e8de49-d1f7-402c-a935-e2da720f03fa","ios":"levelo://app?vid=67e8de49-d1f7-402c-a935-e2da720f03fa"},"vehicle_type_id":"4","last_reported":1684598844,"current_range_meters":31200,"station_id":"ce4bgj92rcd13ifvqbd0","pricing_plan_id":"free"},{"bike_id":"c9967e02-4339-439d-a8f6-ba4b4fe6d8a3","system_id":"levelo_inurba_marseille","lat":43.29968,"lon":5.38511,"is_reserved":false,"is_disabled":false,"rental_uris":{"android":"levelo://app?vid=c9967e02-4339-439d-a8f6-ba4b4fe6d8a3","ios":"levelo://app?vid=c9967e02-4339-439d-a8f6-ba4b4fe6d8a3"},"vehicle_type_id":"4","last_reported":1684598844,"current_range_meters":7200,"station_id":"ce4bgj92rcd13ifvqbd0","pricing_plan_id":"free"},{"bike_id":"f9c212a4-e795-444d-b76b-1424a589d79f","system_id":"levelo_inurba_marseille","lat":43.29963,"lon":5.38505,"is_reserved":false,"is_disabled":false,"rental_uris":{"android":"levelo://app?vid=f9c212a4-e795-444d-b76b-1424a589d79f","ios":"levelo://app?vid=f9c212a4-e795-444d-b76b-1424a589d79f"},"vehicle_type_id":"4","last_reported":1684598844,"current_range_meters":25600,"station_id":"ce4bgj92rcd13ifvqbd0","pricing_plan_id":"free"},{"bike_id":"6dfa0a37-64d7-4a31-9db6-a144f5230009","system_id":"levelo_inurba_marseille","lat":43.29961,"lon":5.38504,"is_reserved":false,"is_disabled":false,"rental_uris":{"android":"levelo://app?vid=6dfa0a37-64d7-4a31-9db6-a144f5230009","ios":"levelo://app?vid=6dfa0a37-64d7-4a31-9db6-a144f5230009"},"vehicle_type_id":"4","last_reported":1684598844,"current_range_meters":17600,"station_id":"ce4bgj92rcd13ifvqbd0","pricing_plan_id":"free"},{"bike_id":"e267f340-98f6-4e1c-9dff-034ba5864fb0","system_id":"levelo_inurba_marseille","lat":43.32365,"lon":5.38876,"is_reserved":false,"is_disabled":false,"rental_uris":{"android":"levelo://app?vid=e267f340-98f6-4e1c-9dff-034ba5864fb0","ios":"levelo://app?vid=e267f340-98f6-4e1c-9dff-034ba5864fb0"},"vehicle_type_id":"4","last_reported":1684598844,"current_range_meters":7200,"station_id":"ce4bhqp2rcd13ifvqhog","pricing_plan_id":"free"},{"bike_id":"4ac8d894-44aa-44fe-a5bc-75ed68bed853","system_id":"levelo_inurba_marseille","lat":43.32363,"lon":5.38878,"is_reserved":false,"is_disabled":false,"rental_uris":{"android":"levelo://app?vid=4ac8d894-44aa-44fe-a5bc-75ed68bed853","ios":"levelo://app?vid=4ac8d894-44aa-44fe-a5bc-75ed68bed853"},"vehicle_type_id":"4","last_reported":1684598844,"current_range_meters":20800,"station_id":"ce4bhqp2rcd13ifvqhog","pricing_plan_id":"free"},{"bike_id":"5aa8bf14-824f-4a38-a4b7-43747be759d9","system_id":"levelo_inurba_marseille","lat":43.32363,"lon":5.3888,"is_reserved":false,"is_disabled":false,"rental_uris":{"android":"levelo://app?vid=5aa8bf14-824f-4a38-a4b7-43747be759d9","ios":"levelo://app?vid=5aa8bf14-824f-4a38-a4b7-43747be759d9"},"vehicle_type_id":"4","last_reported":1684598844,"current_range_meters":26400,"station_id":"ce4bhqp2rcd13ifvqhog","pricing_plan_id":"free"},{"bike_id":"e8f92355-1751-48f1-9009-ce20d1dfd819","system_id":"levelo_inurba_marseille","lat":43.3237,"lon":5.38883,"is_reserved":false,"is_disabled":false,"rental_uris":{"android":"levelo://app?vid=e8f92355-1751-48f1-9009-ce20d1dfd819","ios":"levelo://app?vid=e8f92355-1751-48f1-9009-ce20d1dfd819"},"vehicle_type_id":"4","last_reported":1684598844,"current_range_meters":21200,"station_id":"ce4bhqp2rcd13ifvqhog","pricing_plan_id":"free"},{"bike_id":"54116cb7-e06e-44b7-b6c6-7288ee4c40a3","system_id":"levelo_inurba_marseille","lat":43.32369,"lon":5.38884,"is_reserved":false,"is_disabled":false,"rental_uris":{"android":"levelo://app?vid=54116cb7-e06e-44b7-b6c6-7288ee4c40a3","ios":"levelo://app?vid=54116cb7-e06e-44b7-b6c6-7288ee4c40a3"},"vehicle_type_id":"4","last_reported":1684598844,"current_range_meters":3200,"station_id":"ce4bhqp2rcd13ifvqhog","pricing_plan_id":"free"},{"bike_id":"e780e3fe-94de-4fae-8bab-e69ab2ce2560","system_id":"levelo_inurba_marseille","lat":43.32367,"lon":5.388836,"is_reserved":false,"is_disabled":false,"rental_uris":{"android":"levelo://app?vid=e780e3fe-94de-4fae-8bab-e69ab2ce2560","ios":"levelo://app?vid=e780e3fe-94de-4fae-8bab-e69ab2ce2560"},"vehicle_type_id":"4","last_reported":1684598844,"current_range_meters":27200,"station_id":"ce4bhqp2rcd13ifvqhog","pricing_plan_id":"free"},{"bike_id":"01d401da-ad68-4b2e-a4ac-24f3f8771d91","system_id":"levelo_inurba_marseille","lat":43.32367,"lon":5.388836,"is_reserved":false,"is_disabled":false,"rental_uris":{"android":"levelo://app?vid=01d401da-ad68-4b2e-a4ac-24f3f8771d91","ios":"levelo://app?vid=01d401da-ad68-4b2e-a4ac-24f3f8771d91"},"vehicle_type_id":"4","last_reported":1684598844,"current_range_meters":25200,"station_id":"ce4bhqp2rcd13ifvqhog","pricing_plan_id":"free"},{"bike_id":"d2bfe2f0-091f-48b4-a3d6-c19a5f89b88e","system_id":"levelo_inurba_marseille","lat":43.32367,"lon":5.388836,"is_reserved":false,"is_disabled":false,"rental_uris":{"android":"levelo://app?vid=d2bfe2f0-091f-48b4-a3d6-c19a5f89b88e","ios":"levelo://app?vid=d2bfe2f0-091f-48b4-a3d6-c19a5f89b88e"},"vehicle_type_id":"4","last_reported":1684598844,"current_range_meters":17600,"station_id":"ce4bhqp2rcd13ifvqhog","pricing_plan_id":"free"},{"bike_id":"46ef847f-4559-4e5b-ad03-9d076c4f2477","system_id":"levelo_inurba_marseille","lat":43.29602,"lon":5.381084,"is_reserved":false,"is_disabled":false,"rental_uris":{"android":"levelo://app?vid=46ef847f-4559-4e5b-ad03-9d076c4f2477","ios":"levelo://app?vid=46ef847f-4559-4e5b-ad03-9d076c4f2477"},"vehicle_type_id":"4","last_reported":1684598844,"current_range_meters":12800,"station_id":"ce4bgl12rcd13ifvqbo0","pricing_plan_id":"free"},{"bike_id":"6e08ddc6-4a2d-41da-ad3a-29eed0a7772b","system_id":"levelo_inurba_marseille","lat":43.29601,"lon":5.381084,"is_reserved":false,"is_disabled":false,"rental_uris":{"android":"levelo://app?vid=6e08ddc6-4a2d-41da-ad3a-29eed0a7772b","ios":"levelo://app?vid=6e08ddc6-4a2d-41da-ad3a-29eed0a7772b"},"vehicle_type_id":"4","last_reported":1684598844,"current_range_meters":29600,"station_id":"ce4bgl12rcd13ifvqbo0","pricing_plan_id":"free"},{"bike_id":"1bb617bd-b2cf-4843-a2ee-09f007dac09d","system_id":"levelo_inurba_marseille","lat":43.29601,"lon":5.381084,"is_reserved":false,"is_disabled":false,"rental_uris":{"android":"levelo://app?vid=1bb617bd-b2cf-4843-a2ee-09f007dac09d","ios":"levelo://app?vid=1bb617bd-b2cf-4843-a2ee-09f007dac09d"},"vehicle_type_id":"4","last_reported":1684598844,"current_range_meters":30000,"station_id":"ce4bgl12rcd13ifvqbo0","pricing_plan_id":"free"},{"bike_id":"841a3943-2dfc-4de3-89ba-cc35a41e6f96","system_id":"levelo_inurba_marseille","lat":43.29601,"lon":5.381084,"is_reserved":false,"is_disabled":false,"rental_uris":{"android":"levelo://app?vid=841a3943-2dfc-4de3-89ba-cc35a41e6f96","ios":"levelo://app?vid=841a3943-2dfc-4de3-89ba-cc35a41e6f96"},"vehicle_type_id":"4","last_reported":1684598844,"current_range_meters":28400,"station_id":"ce4bgl12rcd13ifvqbo0","pricing_plan_id":"free"},{"bike_id":"048ad76f-cf49-443f-97fe-53eaef1a6394","system_id":"levelo_inurba_marseille","lat":43.29601,"lon":5.381084,"is_reserved":false,"is_disabled":false,"rental_uris":{"android":"levelo://app?vid=048ad76f-cf49-443f-97fe-53eaef1a6394","ios":"levelo://app?vid=048ad76f-cf49-443f-97fe-53eaef1a6394"},"vehicle_type_id":"4","last_reported":1684598844,"current_range_meters":26000,"station_id":"ce4bgl12rcd13ifvqbo0","pricing_plan_id":"free"},{"bike_id":"40f6fd33-cc30-4aa5-b9a8-7a9f9663af0c","system_id":"levelo_inurba_marseille","lat":43.29602,"lon":5.38108,"is_reserved":false,"is_disabled":false,"rental_uris":{"android":"levelo://app?vid=40f6fd33-cc30-4aa5-b9a8-7a9f9663af0c","ios":"levelo://app?vid=40f6fd33-cc30-4aa5-b9a8-7a9f9663af0c"},"vehicle_type_id":"4","last_reported":1684598844,"current_range_meters":10400,"station_id":"ce4bgl12rcd13ifvqbo0","pricing_plan_id":"free"},{"bike_id":"9d4a523c-4236-4d29-a467-a285d6b1a309","system_id":"levelo_inurba_marseille","lat":43.29321,"lon":5.37172,"is_reserved":false,"is_disabled":false,"rental_uris":{"android":"levelo://app?vid=9d4a523c-4236-4d29-a467-a285d6b1a309","ios":"levelo://app?vid=9d4a523c-4236-4d29-a467-a285d6b1a309"},"vehicle_type_id":"4","last_reported":1684598844,"current_range_meters":15600,"station_id":"ce4bgh92rcd13ifvqb40","pricing_plan_id":"free"},{"bike_id":"715dd391-22f7-4436-82aa-3dbe12939a8b","system_id":"levelo_inurba_marseille","lat":43.2931,"lon":5.37172,"is_reserved":false,"is_disabled":false,"rental_uris":{"android":"levelo://app?vid=715dd391-22f7-4436-82aa-3dbe12939a8b","ios":"levelo://app?vid=715dd391-22f7-4436-82aa-3dbe12939a8b"},"vehicle_type_id":"4","last_reported":1684598844,"current_range_meters":16000,"station_id":"ce4bgh92rcd13ifvqb40","pricing_plan_id":"free"},{"bike_id":"215bedff-a316-4949-ac9c-85974188ad5a","system_id":"levelo_inurba_marseille","lat":43.293249,"lon":5.371578,"is_reserved":false,"is_disabled":false,"rental_uris":{"android":"levelo://app?vid=215bedff-a316-4949-ac9c-85974188ad5a","ios":"levelo://app?vid=215bedff-a316-4949-ac9c-85974188ad5a"},"vehicle_type_id":"4","last_reported":1684598844,"current_range_meters":20000,"station_id":"ce4bgh92rcd13ifvqb40","pricing_plan_id":"free"},{"bike_id":"55d9a625-f125-4d1c-a60e-993556512075","system_id":"levelo_inurba_marseille","lat":43.29308,"lon":5.37181,"is_reserved":false,"is_disabled":false,"rental_uris":{"android":"levelo://app?vid=55d9a625-f125-4d1c-a60e-993556512075","ios":"levelo://app?vid=55d9a625-f125-4d1c-a60e-993556512075"},"vehicle_type_id":"4","last_reported":1684598844,"current_range_meters":16000,"station_id":"ce4bgh92rcd13ifvqb40","pricing_plan_id":"free"},{"bike_id":"2bf3ece4-f6ce-4f0e-a74d-ca3713bba45b","system_id":"levelo_inurba_marseille","lat":43.29307,"lon":5.37176,"is_reserved":false,"is_disabled":false,"rental_uris":{"android":"levelo://app?vid=2bf3ece4-f6ce-4f0e-a74d-ca3713bba45b","ios":"levelo://app?vid=2bf3ece4-f6ce-4f0e-a74d-ca3713bba45b"},"vehicle_type_id":"4","last_reported":1684598844,"current_range_meters":5200,"station_id":"ce4bgh92rcd13ifvqb40","pricing_plan_id":"free"},{"bike_id":"7a4eebc5-1a14-43de-b6dd-582067bb3298","system_id":"levelo_inurba_marseille","lat":43.29304,"lon":5.37177,"is_reserved":false,"is_disabled":false,"rental_uris":{"android":"levelo://app?vid=7a4eebc5-1a14-43de-b6dd-582067bb3298","ios":"levelo://app?vid=7a4eebc5-1a14-43de-b6dd-582067bb3298"},"vehicle_type_id":"4","last_reported":1684598844,"current_range_meters":2400,"station_id":"","pricing_plan_id":"free"},{"bike_id":"789a3544-c16c-4698-aafc-1f5a444f81de","system_id":"levelo_inurba_marseille","lat":43.292749,"lon":5.368398,"is_reserved":false,"is_disabled":false,"rental_uris":{"android":"levelo://app?vid=789a3544-c16c-4698-aafc-1f5a444f81de","ios":"levelo://app?vid=789a3544-c16c-4698-aafc-1f5a444f81de"},"vehicle_type_id":"4","last_reported":1684598844,"current_range_meters":28000,"station_id":"ce4bhbp2rcd13ifvqesg","pricing_plan_id":"free"},{"bike_id":"3973048a-351d-4180-b2b2-f6a58a9b0f41","system_id":"levelo_inurba_marseille","lat":43.302992,"lon":5.392136,"is_reserved":false,"is_disabled":false,"rental_uris":{"android":"levelo://app?vid=3973048a-351d-4180-b2b2-f6a58a9b0f41","ios":"levelo://app?vid=3973048a-351d-4180-b2b2-f6a58a9b0f41"},"vehicle_type_id":"4","last_reported":1684598844,"current_range_meters":15200,"station_id":"ce4bgkh2rcd13ifvqbk0","pricing_plan_id":"free"},{"bike_id":"9f143d8c-6570-4edd-a0f4-e03c957890d2","system_id":"levelo_inurba_marseille","lat":43.302992,"lon":5.392136,"is_reserved":false,"is_disabled":false,"rental_uris":{"android":"levelo://app?vid=9f143d8c-6570-4edd-a0f4-e03c957890d2","ios":"levelo://app?vid=9f143d8c-6570-4edd-a0f4-e03c957890d2"},"vehicle_type_id":"4","last_reported":1684598844,"current_range_meters":23200,"station_id":"ce4bgkh2rcd13ifvqbk0","pricing_plan_id":"free"},{"bike_id":"a6866917-dd8b-4212-a01f-8c6d15213116","system_id":"levelo_inurba_marseille","lat":43.293009,"lon":5.374584,"is_reserved":false,"is_disabled":false,"rental_uris":{"android":"levelo://app?vid=a6866917-dd8b-4212-a01f-8c6d15213116","ios":"levelo://app?vid=a6866917-dd8b-4212-a01f-8c6d15213116"},"vehicle_type_id":"4","last_reported":1684598844,"current_range_meters":26800,"station_id":"ce4bgi12rcd13ifvqb70","pricing_plan_id":"free"},{"bike_id":"df81c9f7-85cf-41e5-8f92-02112c8dcb5f","system_id":"levelo_inurba_marseille","lat":43.302992,"lon":5.392136,"is_reserved":false,"is_disabled":false,"rental_uris":{"android":"levelo://app?vid=df81c9f7-85cf-41e5-8f92-02112c8dcb5f","ios":"levelo://app?vid=df81c9f7-85cf-41e5-8f92-02112c8dcb5f"},"vehicle_type_id":"4","last_reported":1684598844,"current_range_meters":16000,"station_id":"ce4bgkh2rcd13ifvqbk0","pricing_plan_id":"free"},{"bike_id":"31ba607c-cf6c-4113-90a3-b65575c5fcce","system_id":"levelo_inurba_marseille","lat":43.302992,"lon":5.392136,"is_reserved":false,"is_disabled":false,"rental_uris":{"android":"levelo://app?vid=31ba607c-cf6c-4113-90a3-b65575c5fcce","ios":"levelo://app?vid=31ba607c-cf6c-4113-90a3-b65575c5fcce"},"vehicle_type_id":"4","last_reported":1684598844,"current_range_meters":31600,"station_id":"ce4bgkh2rcd13ifvqbk0","pricing_plan_id":"free"},{"bike_id":"bf933622-abb5-48aa-b4a4-8caf4023933c","system_id":"levelo_inurba_marseille","lat":43.302992,"lon":5.392136,"is_reserved":false,"is_disabled":false,"rental_uris":{"android":"levelo://app?vid=bf933622-abb5-48aa-b4a4-8caf4023933c","ios":"levelo://app?vid=bf933622-abb5-48aa-b4a4-8caf4023933c"},"vehicle_type_id":"4","last_reported":1684598844,"current_range_meters":29600,"station_id":"ce4bgkh2rcd13ifvqbk0","pricing_plan_id":"free"},{"bike_id":"4c83c171-6eff-47ce-8402-7ac618bdf758","system_id":"levelo_inurba_marseille","lat":43.30085,"lon":5.390856,"is_reserved":false,"is_disabled":false,"rental_uris":{"android":"levelo://app?vid=4c83c171-6eff-47ce-8402-7ac618bdf758","ios":"levelo://app?vid=4c83c171-6eff-47ce-8402-7ac618bdf758"},"vehicle_type_id":"4","last_reported":1684598844,"current_range_meters":26800,"station_id":"ce4bh192rcd13ifvqdb0","pricing_plan_id":"free"},{"bike_id":"6c9b281a-dcaf-47d0-aff1-582228173fb2","system_id":"levelo_inurba_marseille","lat":43.300852,"lon":5.390859,"is_reserved":false,"is_disabled":false,"rental_uris":{"android":"levelo://app?vid=6c9b281a-dcaf-47d0-aff1-582228173fb2","ios":"levelo://app?vid=6c9b281a-dcaf-47d0-aff1-582228173fb2"},"vehicle_type_id":"4","last_reported":1684598844,"current_range_meters":27200,"station_id":"ce4bh192rcd13ifvqdb0","pricing_plan_id":"free"},{"bike_id":"609ad5e6-5337-4deb-be22-8943895e7c77","system_id":"levelo_inurba_marseille","lat":43.298764,"lon":5.388973,"is_reserved":false,"is_disabled":false,"rental_uris":{"android":"levelo://app?vid=609ad5e6-5337-4deb-be22-8943895e7c77","ios":"levelo://app?vid=609ad5e6-5337-4deb-be22-8943895e7c77"},"vehicle_type_id":"4","last_reported":1684598844,"current_range_meters":26000,"station_id":"ce4bh392rcd13ifvqdl0","pricing_plan_id":"free"},{"bike_id":"6b3968f9-042c-4506-9de3-e0baae21eb94","system_id":"levelo_inurba_marseille","lat":43.292663,"lon":5.376394,"is_reserved":false,"is_disabled":false,"rental_uris":{"android":"levelo://app?vid=6b3968f9-042c-4506-9de3-e0baae21eb94","ios":"levelo://app?vid=6b3968f9-042c-4506-9de3-e0baae21eb94"},"vehicle_type_id":"4","last_reported":1684598844,"current_range_meters":23200,"station_id":"ce4bgi12rcd13ifvqb80","pricing_plan_id":"free"},{"bike_id":"734d3108-d469-4678-a552-8b6b171e70b5","system_id":"levelo_inurba_marseille","lat":43.29173,"lon":5.37144,"is_reserved":false,"is_disabled":false,"rental_uris":{"android":"levelo://app?vid=734d3108-d469-4678-a552-8b6b171e70b5","ios":"levelo://app?vid=734d3108-d469-4678-a552-8b6b171e70b5"},"vehicle_type_id":"4","last_reported":1684598844,"current_range_meters":20800,"station_id":"ce4bha92rcd13ifvqeh0","pricing_plan_id":"free"},{"bike_id":"c8ef83c5-27a2-4ec0-9b6a-a7dd536e3bfe","system_id":"levelo_inurba_marseille","lat":43.298764,"lon":5.388973,"is_reserved":false,"is_disabled":false,"rental_uris":{"android":"levelo://app?vid=c8ef83c5-27a2-4ec0-9b6a-a7dd536e3bfe","ios":"levelo://app?vid=c8ef83c5-27a2-4ec0-9b6a-a7dd536e3bfe"},"vehicle_type_id":"4","last_reported":1684598844,"current_range_meters":5200,"station_id":"ce4bh392rcd13ifvqdl0","pricing_plan_id":"free"},{"bike_id":"168820a3-5cc1-445c-b7de-2ed9f6dcf6a5","system_id":"levelo_inurba_marseille","lat":43.298764,"lon":5.388973,"is_reserved":false,"is_disabled":false,"rental_uris":{"android":"levelo://app?vid=168820a3-5cc1-445c-b7de-2ed9f6dcf6a5","ios":"levelo://app?vid=168820a3-5cc1-445c-b7de-2ed9f6dcf6a5"},"vehicle_type_id":"4","last_reported":1684598844,"current_range_meters":0,"station_id":"ce4bh392rcd13ifvqdl0","pricing_plan_id":"free"},{"bike_id":"ace46423-b036-418b-803f-f47fcaafc038","system_id":"levelo_inurba_marseille","lat":43.291675,"lon":5.371583,"is_reserved":false,"is_disabled":false,"rental_uris":{"android":"levelo://app?vid=ace46423-b036-418b-803f-f47fcaafc038","ios":"levelo://app?vid=ace46423-b036-418b-803f-f47fcaafc038"},"vehicle_type_id":"4","last_reported":1684598844,"current_range_meters":10400,"station_id":"ce4bha92rcd13ifvqeh0","pricing_plan_id":"free"},{"bike_id":"eb4d0981-ca67-45ad-b33e-011e9b94b7c7","system_id":"levelo_inurba_marseille","lat":43.291994,"lon":5.357886,"is_reserved":false,"is_disabled":false,"rental_uris":{"android":"levelo://app?vid=eb4d0981-ca67-45ad-b33e-011e9b94b7c7","ios":"levelo://app?vid=eb4d0981-ca67-45ad-b33e-011e9b94b7c7"},"vehicle_type_id":"4","last_reported":1684598844,"current_range_meters":30000,"station_id":"ce4bhb12rcd13ifvqel0","pricing_plan_id":"free"},{"bike_id":"7bd616d9-1de0-4f44-beec-c18f87869800","system_id":"levelo_inurba_marseille","lat":43.30891,"lon":5.3963,"is_reserved":false,"is_disabled":false,"rental_uris":{"android":"levelo://app?vid=7bd616d9-1de0-4f44-beec-c18f87869800","ios":"levelo://app?vid=7bd616d9-1de0-4f44-beec-c18f87869800"},"vehicle_type_id":"4","last_reported":1684598844,"current_range_meters":31200,"station_id":"ce4bh012rcd13ifvqcv0","pricing_plan_id":"free"},{"bike_id":"00b4637a-42e4-41c2-b306-4969effcc106","system_id":"levelo_inurba_marseille","lat":43.30892,"lon":5.39632,"is_reserved":false,"is_disabled":false,"rental_uris":{"android":"levelo://app?vid=00b4637a-42e4-41c2-b306-4969effcc106","ios":"levelo://app?vid=00b4637a-42e4-41c2-b306-4969effcc106"},"vehicle_type_id":"4","last_reported":1684598844,"current_range_meters":31200,"station_id":"ce4bh012rcd13ifvqcv0","pricing_plan_id":"free"},{"bike_id":"d2ae3085-2478-4856-a3eb-d79b11f9f3f2","system_id":"levelo_inurba_marseille","lat":43.30891,"lon":5.39634,"is_reserved":false,"is_disabled":false,"rental_uris":{"android":"levelo://app?vid=d2ae3085-2478-4856-a3eb-d79b11f9f3f2","ios":"levelo://app?vid=d2ae3085-2478-4856-a3eb-d79b11f9f3f2"},"vehicle_type_id":"4","last_reported":1684598844,"current_range_meters":4000,"station_id":"ce4bh012rcd13ifvqcv0","pricing_plan_id":"free"},{"bike_id":"83a54c1f-be2d-4315-8a6e-c23d1dea63b0","system_id":"levelo_inurba_marseille","lat":43.309038,"lon":5.396546,"is_reserved":false,"is_disabled":false,"rental_uris":{"android":"levelo://app?vid=83a54c1f-be2d-4315-8a6e-c23d1dea63b0","ios":"levelo://app?vid=83a54c1f-be2d-4315-8a6e-c23d1dea63b0"},"vehicle_type_id":"4","last_reported":1684598844,"current_range_meters":18800,"station_id":"ce4bh012rcd13ifvqcv0","pricing_plan_id":"free"},{"bike_id":"2b15815c-8301-4c7c-9ef7-e46bbd30ee94","system_id":"levelo_inurba_marseille","lat":43.291994,"lon":5.357886,"is_reserved":false,"is_disabled":false,"rental_uris":{"android":"levelo://app?vid=2b15815c-8301-4c7c-9ef7-e46bbd30ee94","ios":"levelo://app?vid=2b15815c-8301-4c7c-9ef7-e46bbd30ee94"},"vehicle_type_id":"4","last_reported":1684598844,"current_range_meters":29200,"station_id":"ce4bhb12rcd13ifvqel0","pricing_plan_id":"free"},{"bike_id":"277d0ef9-8202-4f24-b4a4-a89d43b5f795","system_id":"levelo_inurba_marseille","lat":43.29191,"lon":5.35799,"is_reserved":false,"is_disabled":false,"rental_uris":{"android":"levelo://app?vid=277d0ef9-8202-4f24-b4a4-a89d43b5f795","ios":"levelo://app?vid=277d0ef9-8202-4f24-b4a4-a89d43b5f795"},"vehicle_type_id":"4","last_reported":1684598844,"current_range_meters":20400,"station_id":"ce4bhb12rcd13ifvqel0","pricing_plan_id":"free"},{"bike_id":"ecc16877-74ab-4d01-a0cb-e79a366524a9","system_id":"levelo_inurba_marseille","lat":43.309038,"lon":5.396546,"is_reserved":false,"is_disabled":false,"rental_uris":{"android":"levelo://app?vid=ecc16877-74ab-4d01-a0cb-e79a366524a9","ios":"levelo://app?vid=ecc16877-74ab-4d01-a0cb-e79a366524a9"},"vehicle_type_id":"4","last_reported":1684598844,"current_range_meters":28400,"station_id":"ce4bh012rcd13ifvqcv0","pricing_plan_id":"free"},{"bike_id":"65e575fa-a358-41d8-a675-f34d67f48ecf","system_id":"levelo_inurba_marseille","lat":43.30891,"lon":5.39646,"is_reserved":false,"is_disabled":false,"rental_uris":{"android":"levelo://app?vid=65e575fa-a358-41d8-a675-f34d67f48ecf","ios":"levelo://app?vid=65e575fa-a358-41d8-a675-f34d67f48ecf"},"vehicle_type_id":"4","last_reported":1684598844,"current_range_meters":24800,"station_id":"ce4bh012rcd13ifvqcv0","pricing_plan_id":"free"},{"bike_id":"655308f3-f53d-4ff7-8177-35031161d832","system_id":"levelo_inurba_marseille","lat":43.31331,"lon":5.39693,"is_reserved":false,"is_disabled":false,"rental_uris":{"android":"levelo://app?vid=655308f3-f53d-4ff7-8177-35031161d832","ios":"levelo://app?vid=655308f3-f53d-4ff7-8177-35031161d832"},"vehicle_type_id":"4","last_reported":1684598844,"current_range_meters":22000,"station_id":"ce4bgvp2rcd13ifvqcu0","pricing_plan_id":"free"},{"bike_id":"560fb464-6bff-4314-aa59-c1cb6143d36c","system_id":"levelo_inurba_marseille","lat":43.309038,"lon":5.396546,"is_reserved":false,"is_disabled":false,"rental_uris":{"android":"levelo://app?vid=560fb464-6bff-4314-aa59-c1cb6143d36c","ios":"levelo://app?vid=560fb464-6bff-4314-aa59-c1cb6143d36c"},"vehicle_type_id":"4","last_reported":1684598844,"current_range_meters":22800,"station_id":"ce4bh012rcd13ifvqcv0","pricing_plan_id":"free"},{"bike_id":"3dfbee86-8840-47ba-a0f4-5fa0de4a284d","system_id":"levelo_inurba_marseille","lat":43.309038,"lon":5.396546,"is_reserved":false,"is_disabled":false,"rental_uris":{"android":"levelo://app?vid=3dfbee86-8840-47ba-a0f4-5fa0de4a284d","ios":"levelo://app?vid=3dfbee86-8840-47ba-a0f4-5fa0de4a284d"},"vehicle_type_id":"4","last_reported":1684598844,"current_range_meters":24000,"station_id":"ce4bh012rcd13ifvqcv0","pricing_plan_id":"free"},{"bike_id":"e08975c3-239f-4ef2-a1d8-851aa1feea44","system_id":"levelo_inurba_marseille","lat":43.313291,"lon":5.396838,"is_reserved":false,"is_disabled":false,"rental_uris":{"android":"levelo://app?vid=e08975c3-239f-4ef2-a1d8-851aa1feea44","ios":"levelo://app?vid=e08975c3-239f-4ef2-a1d8-851aa1feea44"},"vehicle_type_id":"4","last_reported":1684598844,"current_range_meters":5600,"station_id":"ce4bgvp2rcd13ifvqcu0","pricing_plan_id":"free"},{"bike_id":"bb8ea98a-28b9-4be7-95a5-4c82a7e01094","system_id":"levelo_inurba_marseille","lat":43.29529,"lon":5.385581,"is_reserved":false,"is_disabled":false,"rental_uris":{"android":"levelo://app?vid=bb8ea98a-28b9-4be7-95a5-4c82a7e01094","ios":"levelo://app?vid=bb8ea98a-28b9-4be7-95a5-4c82a7e01094"},"vehicle_type_id":"4","last_reported":1684598844,"current_range_meters":24800,"station_id":"ce4bgih2rcd13ifvqba0","pricing_plan_id":"free"},{"bike_id":"4eb0beed-14be-4983-88d9-dfc09b440871","system_id":"levelo_inurba_marseille","lat":43.29536,"lon":5.38529,"is_reserved":false,"is_disabled":false,"rental_uris":{"android":"levelo://app?vid=4eb0beed-14be-4983-88d9-dfc09b440871","ios":"levelo://app?vid=4eb0beed-14be-4983-88d9-dfc09b440871"},"vehicle_type_id":"4","last_reported":1684598844,"current_range_meters":31600,"station_id":"ce4bgih2rcd13ifvqba0","pricing_plan_id":"free"},{"bike_id":"5cceda14-0f37-4ad3-98af-caf2857f84c5","system_id":"levelo_inurba_marseille","lat":43.29529,"lon":5.385581,"is_reserved":false,"is_disabled":false,"rental_uris":{"android":"levelo://app?vid=5cceda14-0f37-4ad3-98af-caf2857f84c5","ios":"levelo://app?vid=5cceda14-0f37-4ad3-98af-caf2857f84c5"},"vehicle_type_id":"4","last_reported":1684598844,"current_range_meters":30000,"station_id":"ce4bgih2rcd13ifvqba0","pricing_plan_id":"free"},{"bike_id":"f3268f09-d994-406a-9340-8e1c7f831eb0","system_id":"levelo_inurba_marseille","lat":43.29529,"lon":5.385581,"is_reserved":false,"is_disabled":false,"rental_uris":{"android":"levelo://app?vid=f3268f09-d994-406a-9340-8e1c7f831eb0","ios":"levelo://app?vid=f3268f09-d994-406a-9340-8e1c7f831eb0"},"vehicle_type_id":"4","last_reported":1684598844,"current_range_meters":31600,"station_id":"ce4bgih2rcd13ifvqba0","pricing_plan_id":"free"},{"bike_id":"b14160e6-2de3-4031-a124-734dbf178b04","system_id":"levelo_inurba_marseille","lat":43.29529,"lon":5.385581,"is_reserved":false,"is_disabled":false,"rental_uris":{"android":"levelo://app?vid=b14160e6-2de3-4031-a124-734dbf178b04","ios":"levelo://app?vid=b14160e6-2de3-4031-a124-734dbf178b04"},"vehicle_type_id":"4","last_reported":1684598844,"current_range_meters":21200,"station_id":"ce4bgih2rcd13ifvqba0","pricing_plan_id":"free"},{"bike_id":"bed648ee-1c8d-4cc6-8be1-5c5205af9bad","system_id":"levelo_inurba_marseille","lat":43.29528,"lon":5.38546,"is_reserved":false,"is_disabled":false,"rental_uris":{"android":"levelo://app?vid=bed648ee-1c8d-4cc6-8be1-5c5205af9bad","ios":"levelo://app?vid=bed648ee-1c8d-4cc6-8be1-5c5205af9bad"},"vehicle_type_id":"4","last_reported":1684598844,"current_range_meters":6000,"station_id":"ce4bgih2rcd13ifvqba0","pricing_plan_id":"free"},{"bike_id":"152e4500-3230-4bdb-91de-438c5de70460","system_id":"levelo_inurba_marseille","lat":43.302008,"lon":5.394694,"is_reserved":false,"is_disabled":false,"rental_uris":{"android":"levelo://app?vid=152e4500-3230-4bdb-91de-438c5de70460","ios":"levelo://app?vid=152e4500-3230-4bdb-91de-438c5de70460"},"vehicle_type_id":"4","last_reported":1684598844,"current_range_meters":26400,"station_id":"ce4bh0p2rcd13ifvqd70","pricing_plan_id":"free"},{"bike_id":"88403678-38a3-4951-b908-e1d8ac38a4dc","system_id":"levelo_inurba_marseille","lat":43.302008,"lon":5.394694,"is_reserved":false,"is_disabled":false,"rental_uris":{"android":"levelo://app?vid=88403678-38a3-4951-b908-e1d8ac38a4dc","ios":"levelo://app?vid=88403678-38a3-4951-b908-e1d8ac38a4dc"},"vehicle_type_id":"4","last_reported":1684598844,"current_range_meters":30400,"station_id":"ce4bh0p2rcd13ifvqd70","pricing_plan_id":"free"},{"bike_id":"c7d171ec-ed5b-4ad3-b013-9d2d488a8971","system_id":"levelo_inurba_marseille","lat":43.302008,"lon":5.394694,"is_reserved":false,"is_disabled":false,"rental_uris":{"android":"levelo://app?vid=c7d171ec-ed5b-4ad3-b013-9d2d488a8971","ios":"levelo://app?vid=c7d171ec-ed5b-4ad3-b013-9d2d488a8971"},"vehicle_type_id":"4","last_reported":1684598844,"current_range_meters":24000,"station_id":"ce4bh0p2rcd13ifvqd70","pricing_plan_id":"free"},{"bike_id":"aabf9caa-fb2d-47ed-b0f4-13ff234df555","system_id":"levelo_inurba_marseille","lat":43.302008,"lon":5.394694,"is_reserved":false,"is_disabled":false,"rental_uris":{"android":"levelo://app?vid=aabf9caa-fb2d-47ed-b0f4-13ff234df555","ios":"levelo://app?vid=aabf9caa-fb2d-47ed-b0f4-13ff234df555"},"vehicle_type_id":"4","last_reported":1684598844,"current_range_meters":16800,"station_id":"ce4bh0p2rcd13ifvqd70","pricing_plan_id":"free"},{"bike_id":"21e7d252-72ce-4595-ab92-382775809899","system_id":"levelo_inurba_marseille","lat":43.290624,"lon":5.359245,"is_reserved":false,"is_disabled":false,"rental_uris":{"android":"levelo://app?vid=21e7d252-72ce-4595-ab92-382775809899","ios":"levelo://app?vid=21e7d252-72ce-4595-ab92-382775809899"},"vehicle_type_id":"4","last_reported":1684598844,"current_range_meters":22000,"station_id":"ce4bha92rcd13ifvqeg0","pricing_plan_id":"free"},{"bike_id":"d60aa202-0f55-490a-88fa-95e790f8997a","system_id":"levelo_inurba_marseille","lat":43.290631,"lon":5.359244,"is_reserved":false,"is_disabled":false,"rental_uris":{"android":"levelo://app?vid=d60aa202-0f55-490a-88fa-95e790f8997a","ios":"levelo://app?vid=d60aa202-0f55-490a-88fa-95e790f8997a"},"vehicle_type_id":"4","last_reported":1684598844,"current_range_meters":26000,"station_id":"ce4bha92rcd13ifvqeg0","pricing_plan_id":"free"},{"bike_id":"ea3dda86-ca78-4f46-8a20-d393ed6c0a7a","system_id":"levelo_inurba_marseille","lat":43.294162,"lon":5.386292,"is_reserved":false,"is_disabled":false,"rental_uris":{"android":"levelo://app?vid=ea3dda86-ca78-4f46-8a20-d393ed6c0a7a","ios":"levelo://app?vid=ea3dda86-ca78-4f46-8a20-d393ed6c0a7a"},"vehicle_type_id":"4","last_reported":1684598844,"current_range_meters":26800,"station_id":"ce4bh2h2rcd13ifvqdh0","pricing_plan_id":"free"},{"bike_id":"b21eae04-be64-4af9-8b8a-f480e65329c5","system_id":"levelo_inurba_marseille","lat":43.289184,"lon":5.366408,"is_reserved":false,"is_disabled":false,"rental_uris":{"android":"levelo://app?vid=b21eae04-be64-4af9-8b8a-f480e65329c5","ios":"levelo://app?vid=b21eae04-be64-4af9-8b8a-f480e65329c5"},"vehicle_type_id":"4","last_reported":1684598844,"current_range_meters":23600,"station_id":"ce4bhap2rcd13ifvqek0","pricing_plan_id":"free"},{"bike_id":"dad80986-3978-45f0-991e-98a634c68b32","system_id":"levelo_inurba_marseille","lat":43.294153,"lon":5.386305,"is_reserved":false,"is_disabled":false,"rental_uris":{"android":"levelo://app?vid=dad80986-3978-45f0-991e-98a634c68b32","ios":"levelo://app?vid=dad80986-3978-45f0-991e-98a634c68b32"},"vehicle_type_id":"4","last_reported":1684598844,"current_range_meters":10000,"station_id":"ce4bh2h2rcd13ifvqdh0","pricing_plan_id":"free"},{"bike_id":"09b9d192-b2d1-4574-b587-86d0c9821655","system_id":"levelo_inurba_marseille","lat":43.289184,"lon":5.366408,"is_reserved":false,"is_disabled":false,"rental_uris":{"android":"levelo://app?vid=09b9d192-b2d1-4574-b587-86d0c9821655","ios":"levelo://app?vid=09b9d192-b2d1-4574-b587-86d0c9821655"},"vehicle_type_id":"4","last_reported":1684598844,"current_range_meters":7600,"station_id":"ce4bhap2rcd13ifvqek0","pricing_plan_id":"free"},{"bike_id":"36ce4e2a-9e22-4064-b496-d4136d09960d","system_id":"levelo_inurba_marseille","lat":43.289184,"lon":5.366408,"is_reserved":false,"is_disabled":false,"rental_uris":{"android":"levelo://app?vid=36ce4e2a-9e22-4064-b496-d4136d09960d","ios":"levelo://app?vid=36ce4e2a-9e22-4064-b496-d4136d09960d"},"vehicle_type_id":"4","last_reported":1684598844,"current_range_meters":17600,"station_id":"ce4bhap2rcd13ifvqek0","pricing_plan_id":"free"},{"bike_id":"f4ba9800-9238-486b-bc2d-8e3a4492282e","system_id":"levelo_inurba_marseille","lat":43.289184,"lon":5.366408,"is_reserved":false,"is_disabled":false,"rental_uris":{"android":"levelo://app?vid=f4ba9800-9238-486b-bc2d-8e3a4492282e","ios":"levelo://app?vid=f4ba9800-9238-486b-bc2d-8e3a4492282e"},"vehicle_type_id":"4","last_reported":1684598844,"current_range_meters":12000,"station_id":"ce4bhap2rcd13ifvqek0","pricing_plan_id":"free"},{"bike_id":"668b097a-26f7-47d9-9f27-c77fda7c0739","system_id":"levelo_inurba_marseille","lat":43.289184,"lon":5.366408,"is_reserved":false,"is_disabled":false,"rental_uris":{"android":"levelo://app?vid=668b097a-26f7-47d9-9f27-c77fda7c0739","ios":"levelo://app?vid=668b097a-26f7-47d9-9f27-c77fda7c0739"},"vehicle_type_id":"4","last_reported":1684598844,"current_range_meters":14800,"station_id":"ce4bhap2rcd13ifvqek0","pricing_plan_id":"free"},{"bike_id":"4871afbd-2a5e-4b45-8369-7d8eb2c7331c","system_id":"levelo_inurba_marseille","lat":43.292642,"lon":5.384254,"is_reserved":false,"is_disabled":false,"rental_uris":{"android":"levelo://app?vid=4871afbd-2a5e-4b45-8369-7d8eb2c7331c","ios":"levelo://app?vid=4871afbd-2a5e-4b45-8369-7d8eb2c7331c"},"vehicle_type_id":"4","last_reported":1684598844,"current_range_meters":5200,"station_id":"ce4bh692rcd13ifvqea0","pricing_plan_id":"free"},{"bike_id":"82f2ac54-283a-447d-b650-2a7931e5cc4c","system_id":"levelo_inurba_marseille","lat":43.304296,"lon":5.397513,"is_reserved":false,"is_disabled":false,"rental_uris":{"android":"levelo://app?vid=82f2ac54-283a-447d-b650-2a7931e5cc4c","ios":"levelo://app?vid=82f2ac54-283a-447d-b650-2a7931e5cc4c"},"vehicle_type_id":"4","last_reported":1684598844,"current_range_meters":25200,"station_id":"ce4bh092rcd13ifvqd20","pricing_plan_id":"free"},{"bike_id":"d4e361c7-aa06-46de-81d9-15308ba71532","system_id":"levelo_inurba_marseille","lat":43.292642,"lon":5.384254,"is_reserved":false,"is_disabled":false,"rental_uris":{"android":"levelo://app?vid=d4e361c7-aa06-46de-81d9-15308ba71532","ios":"levelo://app?vid=d4e361c7-aa06-46de-81d9-15308ba71532"},"vehicle_type_id":"4","last_reported":1684598844,"current_range_meters":19200,"station_id":"ce4bh692rcd13ifvqea0","pricing_plan_id":"free"},{"bike_id":"e274e629-d74e-446e-aed1-cb37630743ca","system_id":"levelo_inurba_marseille","lat":43.304296,"lon":5.397513,"is_reserved":false,"is_disabled":false,"rental_uris":{"android":"levelo://app?vid=e274e629-d74e-446e-aed1-cb37630743ca","ios":"levelo://app?vid=e274e629-d74e-446e-aed1-cb37630743ca"},"vehicle_type_id":"4","last_reported":1684598844,"current_range_meters":28800,"station_id":"ce4bh092rcd13ifvqd20","pricing_plan_id":"free"},{"bike_id":"e4d7ad04-6964-4cc3-b5bd-f55ff5bf649a","system_id":"levelo_inurba_marseille","lat":43.304274,"lon":5.397513,"is_reserved":false,"is_disabled":false,"rental_uris":{"android":"levelo://app?vid=e4d7ad04-6964-4cc3-b5bd-f55ff5bf649a","ios":"levelo://app?vid=e4d7ad04-6964-4cc3-b5bd-f55ff5bf649a"},"vehicle_type_id":"4","last_reported":1684598844,"current_range_meters":24000,"station_id":"ce4bh092rcd13ifvqd20","pricing_plan_id":"free"},{"bike_id":"3a052c00-62d7-4ef3-b2f2-02d8d27f5c42","system_id":"levelo_inurba_marseille","lat":43.304274,"lon":5.397513,"is_reserved":false,"is_disabled":false,"rental_uris":{"android":"levelo://app?vid=3a052c00-62d7-4ef3-b2f2-02d8d27f5c42","ios":"levelo://app?vid=3a052c00-62d7-4ef3-b2f2-02d8d27f5c42"},"vehicle_type_id":"4","last_reported":1684598844,"current_range_meters":27200,"station_id":"ce4bh092rcd13ifvqd20","pricing_plan_id":"free"},{"bike_id":"c9385c13-f39c-460f-b6b2-99ec8d617571","system_id":"levelo_inurba_marseille","lat":43.304296,"lon":5.397513,"is_reserved":false,"is_disabled":false,"rental_uris":{"android":"levelo://app?vid=c9385c13-f39c-460f-b6b2-99ec8d617571","ios":"levelo://app?vid=c9385c13-f39c-460f-b6b2-99ec8d617571"},"vehicle_type_id":"4","last_reported":1684598844,"current_range_meters":0,"station_id":"ce4bh092rcd13ifvqd20","pricing_plan_id":"free"},{"bike_id":"228a2068-2e5e-4e5a-aba5-f7e681ae4aeb","system_id":"levelo_inurba_marseille","lat":43.304274,"lon":5.397513,"is_reserved":false,"is_disabled":false,"rental_uris":{"android":"levelo://app?vid=228a2068-2e5e-4e5a-aba5-f7e681ae4aeb","ios":"levelo://app?vid=228a2068-2e5e-4e5a-aba5-f7e681ae4aeb"},"vehicle_type_id":"4","last_reported":1684598844,"current_range_meters":17200,"station_id":"ce4bh092rcd13ifvqd20","pricing_plan_id":"free"},{"bike_id":"4fddac79-b8a0-47a9-9c6e-2d3755c608db","system_id":"levelo_inurba_marseille","lat":43.33043,"lon":5.38915,"is_reserved":false,"is_disabled":false,"rental_uris":{"android":"levelo://app?vid=4fddac79-b8a0-47a9-9c6e-2d3755c608db","ios":"levelo://app?vid=4fddac79-b8a0-47a9-9c6e-2d3755c608db"},"vehicle_type_id":"4","last_reported":1684598844,"current_range_meters":18400,"station_id":"ce4bhr92rcd13ifvqhrg","pricing_plan_id":"free"},{"bike_id":"96e0b596-e6f6-47a0-8171-9b893f754b00","system_id":"levelo_inurba_marseille","lat":43.33041,"lon":5.38919,"is_reserved":false,"is_disabled":false,"rental_uris":{"android":"levelo://app?vid=96e0b596-e6f6-47a0-8171-9b893f754b00","ios":"levelo://app?vid=96e0b596-e6f6-47a0-8171-9b893f754b00"},"vehicle_type_id":"4","last_reported":1684598844,"current_range_meters":14400,"station_id":"ce4bhr92rcd13ifvqhrg","pricing_plan_id":"free"},{"bike_id":"62dd3d9e-5195-47aa-bca0-3c538d4b633b","system_id":"levelo_inurba_marseille","lat":43.33042,"lon":5.38918,"is_reserved":false,"is_disabled":false,"rental_uris":{"android":"levelo://app?vid=62dd3d9e-5195-47aa-bca0-3c538d4b633b","ios":"levelo://app?vid=62dd3d9e-5195-47aa-bca0-3c538d4b633b"},"vehicle_type_id":"4","last_reported":1684598844,"current_range_meters":18800,"station_id":"ce4bhr92rcd13ifvqhrg","pricing_plan_id":"free"},{"bike_id":"a370176b-62ca-4524-a3a9-d5698318adc5","system_id":"levelo_inurba_marseille","lat":43.33044,"lon":5.38918,"is_reserved":false,"is_disabled":false,"rental_uris":{"android":"levelo://app?vid=a370176b-62ca-4524-a3a9-d5698318adc5","ios":"levelo://app?vid=a370176b-62ca-4524-a3a9-d5698318adc5"},"vehicle_type_id":"4","last_reported":1684598844,"current_range_meters":14800,"station_id":"ce4bhr92rcd13ifvqhrg","pricing_plan_id":"free"},{"bike_id":"414e54ce-ba22-4a4d-9806-b6e5e79532c5","system_id":"levelo_inurba_marseille","lat":43.33045,"lon":5.38918,"is_reserved":false,"is_disabled":false,"rental_uris":{"android":"levelo://app?vid=414e54ce-ba22-4a4d-9806-b6e5e79532c5","ios":"levelo://app?vid=414e54ce-ba22-4a4d-9806-b6e5e79532c5"},"vehicle_type_id":"4","last_reported":1684598844,"current_range_meters":24000,"station_id":"ce4bhr92rcd13ifvqhrg","pricing_plan_id":"free"},{"bike_id":"8b16e323-4f74-41b8-940c-5be9fb253fe1","system_id":"levelo_inurba_marseille","lat":43.33044,"lon":5.38921,"is_reserved":false,"is_disabled":false,"rental_uris":{"android":"levelo://app?vid=8b16e323-4f74-41b8-940c-5be9fb253fe1","ios":"levelo://app?vid=8b16e323-4f74-41b8-940c-5be9fb253fe1"},"vehicle_type_id":"4","last_reported":1684598844,"current_range_meters":20800,"station_id":"ce4bhr92rcd13ifvqhrg","pricing_plan_id":"free"},{"bike_id":"2d04834a-69a2-413f-9f4a-d7f214aac159","system_id":"levelo_inurba_marseille","lat":43.3304,"lon":5.38927,"is_reserved":false,"is_disabled":false,"rental_uris":{"android":"levelo://app?vid=2d04834a-69a2-413f-9f4a-d7f214aac159","ios":"levelo://app?vid=2d04834a-69a2-413f-9f4a-d7f214aac159"},"vehicle_type_id":"4","last_reported":1684598844,"current_range_meters":27600,"station_id":"ce4bhr92rcd13ifvqhrg","pricing_plan_id":"free"},{"bike_id":"0a6873dd-1e1a-44f7-98ca-bba49f513f42","system_id":"levelo_inurba_marseille","lat":43.290048,"lon":5.356172,"is_reserved":false,"is_disabled":false,"rental_uris":{"android":"levelo://app?vid=0a6873dd-1e1a-44f7-98ca-bba49f513f42","ios":"levelo://app?vid=0a6873dd-1e1a-44f7-98ca-bba49f513f42"},"vehicle_type_id":"4","last_reported":1684598844,"current_range_meters":27200,"station_id":"ce4bhbp2rcd13ifvqerg","pricing_plan_id":"free"},{"bike_id":"dc561eec-74b8-4a9d-8360-fde7940ea8ed","system_id":"levelo_inurba_marseille","lat":43.33046,"lon":5.38921,"is_reserved":false,"is_disabled":false,"rental_uris":{"android":"levelo://app?vid=dc561eec-74b8-4a9d-8360-fde7940ea8ed","ios":"levelo://app?vid=dc561eec-74b8-4a9d-8360-fde7940ea8ed"},"vehicle_type_id":"4","last_reported":1684598844,"current_range_meters":18400,"station_id":"ce4bhr92rcd13ifvqhrg","pricing_plan_id":"free"},