{"last_updated":1682770253,"ttl":30,"version":"2.2","data":{"bikes":[{"bike_id":"fe7eceaf-1cc9-4d9d-b7f9-036efcf6cf3b","system_id":"levelo_inurba_marseille","lat":43.313391,"lon":5.36706,"is_reserved":false,"is_disabled":false,"rental_uris":{"android":"levelo://app?vid=fe7eceaf-1cc9-4d9d-b7f9-036efcf6cf3b","ios":"levelo://app?vid=fe7eceaf-1cc9-4d9d-b7f9-036efcf6cf3b"},"vehicle_type_id":"4","last_reported":1682770254,"current_range_meters":23200,"station_id":"ce4bgr92rcd13ifvqc6g","pricing_plan_id":"free"},{"bike_id":"aa782952-a0b5-46a5-b31d-2539cb22d970","system_id":"levelo_inurba_marseille","lat":43.31341,"lon":5.367098,"is_reserved":false,"is_disabled":false,"rental_uris":{"android":"levelo://app?vid=aa782952-a0b5-46a5-b31d-2539cb22d970","ios":"levelo://app?vid=aa782952-a0b5-46a5-b31d-2539cb22d970"},"vehicle_type_id":"4","last_reported":1682770254,"current_range_meters":28800,"station_id":"ce4bgr92rcd13ifvqc6g","pricing_plan_id":"free"},{"bike_id":"d8dce9c0-3019-4a0d-8f70-a035209299ac","system_id":"levelo_inurba_marseille","lat":43.31225,"lon":5.36848,"is_reserved":false,"is_disabled":false,"rental_uris":{"android":"levelo://app?vid=d8dce9c0-3019-4a0d-8f70-a035209299ac","ios":"levelo://app?vid=d8dce9c0-3019-4a0d-8f70-a035209299ac"},"vehicle_type_id":"4","last_reported":1682770254,"current_range_meters":30800,"station_id":"ce4bgl92rcd13ifvqbq0","pricing_plan_id":"free"},{"bike_id":"d5ca90b1-e43e-491f-8077-18b53bf6f9d0","system_id":"levelo_inurba_marseille","lat":43.312239,"lon":5.368562,"is_reserved":false,"is_disabled":false,"rental_uris":{"android":"levelo://app?vid=d5ca90b1-e43e-491f-8077-18b53bf6f9d0","ios":"levelo://app?vid=d5ca90b1-e43e-491f-8077-18b53bf6f9d0"},"vehicle_type_id":"4","last_reported":1682770254,"current_range_meters":29200,"station_id":"ce4bgl92rcd13ifvqbq0","pricing_plan_id":"free"},{"bike_id":"8454dd60-bd10-44e1-abad-9879c7f27d8b","system_id":"levelo_inurba_marseille","lat":43.312239,"lon":5.368562,"is_reserved":false,"is_disabled":false,"rental_uris":{"android":"levelo://app?vid=8454dd60-bd10-44e1-abad-9879c7f27d8b","ios":"levelo://app?vid=8454dd60-bd10-44e1-abad-9879c7f27d8b"},"vehicle_type_id":"4","last_reported":1682770254,"current_range_meters":26000,"station_id":"ce4bgl92rcd13ifvqbq0","pricing_plan_id":"free"},{"bike_id":"37c36abb-0385-4691-9f90-3cec7eea4674","system_id":"levelo_inurba_marseille","lat":43.312239,"lon":5.368562,"is_reserved":false,"is_disabled":false,"rental_uris":{"android":"levelo://app?vid=37c36abb-0385-4691-9f90-3cec7eea4674","ios":"levelo://app?vid=37c36abb-0385-4691-9f90-3cec7eea4674"},"vehicle_type_id":"4","last_reported":1682770254,"current_range_meters":18000,"station_id":"ce4bgl92rcd13ifvqbq0","pricing_plan_id":"free"},{"bike_id":"d9900ebd-ada7-4847-a56f-21535424ce65","system_id":"levelo_inurba_marseille","lat":43.30914,"lon":5.36855,"is_reserved":false,"is_disabled":false,"rental_uris":{"android":"levelo://app?vid=d9900ebd-ada7-4847-a56f-21535424ce65","ios":"levelo://app?vid=d9900ebd-ada7-4847-a56f-21535424ce65"},"vehicle_type_id":"4","last_reported":1682770254,"current_range_meters":29200,"station_id":"ce4bgn92rcd13ifvqbvg","pricing_plan_id":"free"},{"bike_id":"caa53da6-7df5-4737-bda1-90a01bb0a3ef","system_id":"levelo_inurba_marseille","lat":43.30908,"lon":5.36845,"is_reserved":false,"is_disabled":false,"rental_uris":{"android":"levelo://app?vid=caa53da6-7df5-4737-bda1-90a01bb0a3ef","ios":"levelo://app?vid=caa53da6-7df5-4737-bda1-90a01bb0a3ef"},"vehicle_type_id":"4","last_reported":1682770254,"current_range_meters":31200,"station_id":"ce4bgn92rcd13ifvqbvg","pricing_plan_id":"free"},{"bike_id":"b3e0741c-b021-4eed-8173-e7998bef2f43","system_id":"levelo_inurba_marseille","lat":43.309076,"lon":5.368465,"is_reserved":false,"is_disabled":false,"rental_uris":{"android":"levelo://app?vid=b3e0741c-b021-4eed-8173-e7998bef2f43","ios":"levelo://app?vid=b3e0741c-b021-4eed-8173-e7998bef2f43"},"vehicle_type_id":"4","last_reported":1682770254,"current_range_meters":19600,"station_id":"ce4bgn92rcd13ifvqbvg","pricing_plan_id":"free"},{"bike_id":"505bec89-faf3-4ca8-b2a9-b3608fa8507b","system_id":"levelo_inurba_marseille","lat":43.309076,"lon":5.368465,"is_reserved":false,"is_disabled":false,"rental_uris":{"android":"levelo://app?vid=505bec89-faf3-4ca8-b2a9-b3608fa8507b","ios":"levelo://app?vid=505bec89-faf3-4ca8-b2a9-b3608fa8507b"},"vehicle_type_id":"4","last_reported":1682770254,"current_range_meters":22800,"station_id":"ce4bgn92rcd13ifvqbvg","pricing_plan_id":"free"},{"bike_id":"f6cfc24e-3737-4576-8f22-80c91619529d","system_id":"levelo_inurba_marseille","lat":43.309076,"lon":5.368465,"is_reserved":false,"is_disabled":false,"rental_uris":{"android":"levelo://app?vid=f6cfc24e-3737-4576-8f22-80c91619529d","ios":"levelo://app?vid=f6cfc24e-3737-4576-8f22-80c91619529d"},"vehicle_type_id":"4","last_reported":1682770254,"current_range_meters":29600,"station_id":"ce4bgn92rcd13ifvqbvg","pricing_plan_id":"free"},{"bike_id":"f78e6de5-7e81-427e-9422-d81b7dbadb78","system_id":"levelo_inurba_marseille","lat":43.309076,"lon":5.368465,"is_reserved":false,"is_disabled":false,"rental_uris":{"android":"levelo://app?vid=f78e6de5-7e81-427e-9422-d81b7dbadb78","ios":"levelo://app?vid=f78e6de5-7e81-427e-9422-d81b7dbadb78"},"vehicle_type_id":"4","last_reported":1682770254,"current_range_meters":28800,"station_id":"ce4bgn92rcd13ifvqbvg","pricing_plan_id":"free"},{"bike_id":"252b3448-2194-4b0b-895c-d86bae1f8994","system_id":"levelo_inurba_marseille","lat":43.309076,"lon":5.368465,"is_reserved":false,"is_disabled":false,"rental_uris":{"android":"levelo://app?vid=252b3448-2194-4b0b-895c-d86bae1f8994","ios":"levelo://app?vid=252b3448-2194-4b0b-895c-d86bae1f8994"},"vehicle_type_id":"4","last_reported":1682770254,"current_range_meters":24800,"station_id":"ce4bgn92rcd13ifvqbvg","pricing_plan_id":"free"},{"bike_id":"b2246375-2d42-434c-b38e-1cb80fac663c","system_id":"levelo_inurba_marseille","lat":43.314811,"lon":5.373103,"is_reserved":false,"is_disabled":false,"rental_uris":{"android":"levelo://app?vid=b2246375-2d42-434c-b38e-1cb80fac663c","ios":"levelo://app?vid=b2246375-2d42-434c-b38e-1cb80fac663c"},"vehicle_type_id":"4","last_reported":1682770254,"current_range_meters":3600,"station_id":"ce4bgt12rcd13ifvqcd0","pricing_plan_id":"free"},{"bike_id":"9bd8e97c-6ac0-4ae8-b970-63a02e512762","system_id":"levelo_inurba_marseille","lat":43.314811,"lon":5.373103,"is_reserved":false,"is_disabled":false,"rental_uris":{"android":"levelo://app?vid=9bd8e97c-6ac0-4ae8-b970-63a02e512762","ios":"levelo://app?vid=9bd8e97c-6ac0-4ae8-b970-63a02e512762"},"vehicle_type_id":"4","last_reported":1682770254,"current_range_meters":8400,"station_id":"ce4bgt12rcd13ifvqcd0","pricing_plan_id":"free"},{"bike_id":"826e881e-d9d1-4ba0-bcec-6bcacd693184","system_id":"levelo_inurba_marseille","lat":43.305368,"lon":5.367343,"is_reserved":false,"is_disabled":false,"rental_uris":{"android":"levelo://app?vid=826e881e-d9d1-4ba0-bcec-6bcacd693184","ios":"levelo://app?vid=826e881e-d9d1-4ba0-bcec-6bcacd693184"},"vehicle_type_id":"4","last_reported":1682770254,"current_range_meters":10800,"station_id":"ce4bgrp2rcd13ifvqc9g","pricing_plan_id":"free"},{"bike_id":"cc29ee61-cb8c-4a82-9112-890606e42270","system_id":"levelo_inurba_marseille","lat":43.305368,"lon":5.367343,"is_reserved":false,"is_disabled":false,"rental_uris":{"android":"levelo://app?vid=cc29ee61-cb8c-4a82-9112-890606e42270","ios":"levelo://app?vid=cc29ee61-cb8c-4a82-9112-890606e42270"},"vehicle_type_id":"4","last_reported":1682770254,"current_range_meters":30400,"station_id":"ce4bgrp2rcd13ifvqc9g","pricing_plan_id":"free"},{"bike_id":"e1868e95-da54-4553-95c2-ecb223318d96","system_id":"levelo_inurba_marseille","lat":43.305368,"lon":5.367343,"is_reserved":false,"is_disabled":false,"rental_uris":{"android":"levelo://app?vid=e1868e95-da54-4553-95c2-ecb223318d96","ios":"levelo://app?vid=e1868e95-da54-4553-95c2-ecb223318d96"},"vehicle_type_id":"4","last_reported":1682770254,"current_range_meters":29200,"station_id":"ce4bgrp2rcd13ifvqc9g","pricing_plan_id":"free"},{"bike_id":"7d5c435d-1563-4157-b4a6-1686fb575969","system_id":"levelo_inurba_marseille","lat":43.305368,"lon":5.367343,"is_reserved":false,"is_disabled":false,"rental_uris":{"android":"levelo://app?vid=7d5c435d-1563-4157-b4a6-1686fb575969","ios":"levelo://app?vid=7d5c435d-1563-4157-b4a6-1686fb575969"},"vehicle_type_id":"4","last_reported":1682770254,"current_range_meters":2000,"station_id":"ce4bgrp2rcd13ifvqc9g","pricing_plan_id":"free"},{"bike_id":"3d38dba8-9190-4fe5-9ff0-aac262169020","system_id":"levelo_inurba_marseille","lat":43.305706,"lon":5.365654,"is_reserved":false,"is_disabled":false,"rental_uris":{"android":"levelo://app?vid=3d38dba8-9190-4fe5-9ff0-aac262169020","ios":"levelo://app?vid=3d38dba8-9190-4fe5-9ff0-aac262169020"},"vehicle_type_id":"4","last_reported":1682770254,"current_range_meters":25200,"station_id":"ce4bgs12rcd13ifvqcag","pricing_plan_id":"free"},{"bike_id":"418c0aa0-a1a5-4cbb-b93b-b8342bb2ab8e","system_id":"levelo_inurba_marseille","lat":43.305368,"lon":5.367343,"is_reserved":false,"is_disabled":false,"rental_uris":{"android":"levelo://app?vid=418c0aa0-a1a5-4cbb-b93b-b8342bb2ab8e","ios":"levelo://app?vid=418c0aa0-a1a5-4cbb-b93b-b8342bb2ab8e"},"vehicle_type_id":"4","last_reported":1682770254,"current_range_meters":7600,"station_id":"ce4bgrp2rcd13ifvqc9g","pricing_plan_id":"free"},{"bike_id":"4b10b900-c349-4e95-8388-f2b6b118ee3d","system_id":"levelo_inurba_marseille","lat":43.305368,"lon":5.367343,"is_reserved":false,"is_disabled":false,"rental_uris":{"android":"levelo://app?vid=4b10b900-c349-4e95-8388-f2b6b118ee3d","ios":"levelo://app?vid=4b10b900-c349-4e95-8388-f2b6b118ee3d"},"vehicle_type_id":"4","last_reported":1682770254,"current_range_meters":0,"station_id":"ce4bgrp2rcd13ifvqc9g","pricing_plan_id":"free"},{"bike_id":"90e18f35-036c-4c55-a7fb-6ea9bb488d57","system_id":"levelo_inurba_marseille","lat":43.305368,"lon":5.367343,"is_reserved":false,"is_disabled":false,"rental_uris":{"android":"levelo://app?vid=90e18f35-036c-4c55-a7fb-6ea9bb488d57","ios":"levelo://app?vid=90e18f35-036c-4c55-a7fb-6ea9bb488d57"},"vehicle_type_id":"4","last_reported":1682770254,"current_range_meters":28400,"station_id":"ce4bgrp2rcd13ifvqc9g","pricing_plan_id":"free"},{"bike_id":"046a0142-f8e0-460d-880b-3cb0e96a1f97","system_id":"levelo_inurba_marseille","lat":43.305706,"lon":5.365654,"is_reserved":false,"is_disabled":false,"rental_uris":{"android":"levelo://app?vid=046a0142-f8e0-460d-880b-3cb0e96a1f97","ios":"levelo://app?vid=046a0142-f8e0-460d-880b-3cb0e96a1f97"},"vehicle_type_id":"4","last_reported":1682770254,"current_range_meters":24000,"station_id":"ce4bgs12rcd13ifvqcag","pricing_plan_id":"free"},{"bike_id":"2607c77c-2b13-49fd-8693-f5be395e419a","system_id":"levelo_inurba_marseille","lat":43.305706,"lon":5.365654,"is_reserved":false,"is_disabled":false,"rental_uris":{"android":"levelo://app?vid=2607c77c-2b13-49fd-8693-f5be395e419a","ios":"levelo://app?vid=2607c77c-2b13-49fd-8693-f5be395e419a"},"vehicle_type_id":"4","last_reported":1682770254,"current_range_meters":27200,"station_id":"ce4bgs12rcd13ifvqcag","pricing_plan_id":"free"},{"bike_id":"34458b22-b5fc-4729-aea1-1efb4ccfac10","system_id":"levelo_inurba_marseille","lat":43.305368,"lon":5.367343,"is_reserved":false,"is_disabled":false,"rental_uris":{"android":"levelo://app?vid=34458b22-b5fc-4729-aea1-1efb4ccfac10","ios":"levelo://app?vid=34458b22-b5fc-4729-aea1-1efb4ccfac10"},"vehicle_type_id":"4","last_reported":1682770254,"current_range_meters":11600,"station_id":"ce4bgrp2rcd13ifvqc9g","pricing_plan_id":"free"},{"bike_id":"5f28bfa2-d9d7-42b8-9c94-ef28ecdbb5bf","system_id":"levelo_inurba_marseille","lat":43.305706,"lon":5.365654,"is_reserved":false,"is_disabled":false,"rental_uris":{"android":"levelo://app?vid=5f28bfa2-d9d7-42b8-9c94-ef28ecdbb5bf","ios":"levelo://app?vid=5f28bfa2-d9d7-42b8-9c94-ef28ecdbb5bf"},"vehicle_type_id":"4","last_reported":1682770254,"current_range_meters":20000,"station_id":"ce4bgs12rcd13ifvqcag","pricing_plan_id":"free"},{"bike_id":"eae5b764-2e95-46ae-b821-0f9763315360","system_id":"levelo_inurba_marseille","lat":43.305706,"lon":5.365654,"is_reserved":false,"is_disabled":false,"rental_uris":{"android":"levelo://app?vid=eae5b764-2e95-46ae-b821-0f9763315360","ios":"levelo://app?vid=eae5b764-2e95-46ae-b821-0f9763315360"},"vehicle_type_id":"4","last_reported":1682770254,"current_range_meters":25600,"station_id":"ce4bgs12rcd13ifvqcag","pricing_plan_id":"free"},{"bike_id":"5cab1a5d-272a-4028-bc8a-111b2b6d8bb2","system_id":"levelo_inurba_marseille","lat":43.305706,"lon":5.365654,"is_reserved":false,"is_disabled":false,"rental_uris":{"android":"levelo://app?vid=5cab1a5d-272a-4028-bc8a-111b2b6d8bb2","ios":"levelo://app?vid=5cab1a5d-272a-4028-bc8a-111b2b6d8bb2"},"vehicle_type_id":"4","last_reported":1682770254,"current_range_meters":20000,"station_id":"ce4bgs12rcd13ifvqcag","pricing_plan_id":"free"},{"bike_id":"b90e075d-f628-47ef-9167-4114d0ecb648","system_id":"levelo_inurba_marseille","lat":43.305706,"lon":5.365654,"is_reserved":false,"is_disabled":false,"rental_uris":{"android":"levelo://app?vid=b90e075d-f628-47ef-9167-4114d0ecb648","ios":"levelo://app?vid=b90e075d-f628-47ef-9167-4114d0ecb648"},"vehicle_type_id":"4","last_reported":1682770254,"current_range_meters":9200,"station_id":"ce4bgs12rcd13ifvqcag","pricing_plan_id":"free"},{"bike_id":"a9284a89-a940-4d56-a8e3-3bcac9389ebf","system_id":"levelo_inurba_marseille","lat":43.305706,"lon":5.365654,"is_reserved":false,"is_disabled":false,"rental_uris":{"android":"levelo://app?vid=a9284a89-a940-4d56-a8e3-3bcac9389ebf","ios":"levelo://app?vid=a9284a89-a940-4d56-a8e3-3bcac9389ebf"},"vehicle_type_id":"4","last_reported":1682770254,"current_range_meters":30000,"station_id":"ce4bgs12rcd13ifvqcag","pricing_plan_id":"free"},{"bike_id":"fdfa82b9-da01-45da-9929-f2449c7922e9","system_id":"levelo_inurba_marseille","lat":43.305706,"lon":5.365654,"is_reserved":false,"is_disabled":false,"rental_uris":{"android":"levelo://app?vid=fdfa82b9-da01-45da-9929-f2449c7922e9","ios":"levelo://app?vid=fdfa82b9-da01-45da-9929-f2449c7922e9"},"vehicle_type_id":"4","last_reported":1682770254,"current_range_meters":9600,"station_id":"ce4bgs12rcd13ifvqcag","pricing_plan_id":"free"},{"bike_id":"238332d6-e82b-413d-a4b9-2f9abb870495","system_id":"levelo_inurba_marseille","lat":43.305706,"lon":5.365654,"is_reserved":false,"is_disabled":false,"rental_uris":{"android":"levelo://app?vid=238332d6-e82b-413d-a4b9-2f9abb870495","ios":"levelo://app?vid=238332d6-e82b-413d-a4b9-2f9abb870495"},"vehicle_type_id":"4","last_reported":1682770254,"current_range_meters":23600,"station_id":"ce4bgs12rcd13ifvqcag","pricing_plan_id":"free"},{"bike_id":"9f6fe429-10be-48fe-9e4a-8f605adf3c83","system_id":"levelo_inurba_marseille","lat":43.305706,"lon":5.365654,"is_reserved":false,"is_disabled":false,"rental_uris":{"android":"levelo://app?vid=9f6fe429-10be-48fe-9e4a-8f605adf3c83","ios":"levelo://app?vid=9f6fe429-10be-48fe-9e4a-8f605adf3c83"},"vehicle_type_id":"4","last_reported":1682770254,"current_range_meters":14800,"station_id":"ce4bgs12rcd13ifvqcag","pricing_plan_id":"free"},{"bike_id":"42e4ec84-8ede-4934-9c53-619fa14518b4","system_id":"levelo_inurba_marseille","lat":43.305706,"lon":5.365654,"is_reserved":false,"is_disabled":false,"rental_uris":{"android":"levelo://app?vid=42e4ec84-8ede-4934-9c53-619fa14518b4","ios":"levelo://app?vid=42e4ec84-8ede-4934-9c53-619fa14518b4"},"vehicle_type_id":"4","last_reported":1682770254,"current_range_meters":0,"station_id":"ce4bgs12rcd13ifvqcag","pricing_plan_id":"free"},{"bike_id":"2e5a460d-d4df-4f2f-ac0b-f7688e5c5a16","system_id":"levelo_inurba_marseille","lat":43.305706,"lon":5.365654,"is_reserved":false,"is_disabled":false,"rental_uris":{"android":"levelo://app?vid=2e5a460d-d4df-4f2f-ac0b-f7688e5c5a16","ios":"levelo://app?vid=2e5a460d-d4df-4f2f-ac0b-f7688e5c5a16"},"vehicle_type_id":"4","last_reported":1682770254,"current_range_meters":26400,"station_id":"ce4bgs12rcd13ifvqcag","pricing_plan_id":"free"},{"bike_id":"da99da5a-b5de-40f4-92ee-00f86d941430","system_id":"levelo_inurba_marseille","lat":43.305706,"lon":5.365654,"is_reserved":false,"is_disabled":false,"rental_uris":{"android":"levelo://app?vid=da99da5a-b5de-40f4-92ee-00f86d941430","ios":"levelo://app?vid=da99da5a-b5de-40f4-92ee-00f86d941430"},"vehicle_type_id":"4","last_reported":1682770254,"current_range_meters":22800,"station_id":"ce4bgs12rcd13ifvqcag","pricing_plan_id":"free"},{"bike_id":"e3c2f507-4531-48bd-aeea-02029cd9b5fe","system_id":"levelo_inurba_marseille","lat":43.305706,"lon":5.365654,"is_reserved":false,"is_disabled":false,"rental_uris":{"android":"levelo://app?vid=e3c2f507-4531-48bd-aeea-02029cd9b5fe","ios":"levelo://app?vid=e3c2f507-4531-48bd-aeea-02029cd9b5fe"},"vehicle_type_id":"4","last_reported":1682770254,"current_range_meters":23600,"station_id":"ce4bgs12rcd13ifvqcag","pricing_plan_id":"free"},{"bike_id":"d8cbe106-4a61-434d-9be5-1cb2f0d31915","system_id":"levelo_inurba_marseille","lat":43.305989,"lon":5.37225,"is_reserved":false,"is_disabled":false,"rental_uris":{"android":"levelo://app?vid=d8cbe106-4a61-434d-9be5-1cb2f0d31915","ios":"levelo://app?vid=d8cbe106-4a61-434d-9be5-1cb2f0d31915"},"vehicle_type_id":"4","last_reported":1682770254,"current_range_meters":29200,"station_id":"ce4bgqh2rcd13ifvqc4g","pricing_plan_id":"free"},{"bike_id":"d7fb9b44-72ed-4596-a332-eaafd71fbfa0","system_id":"levelo_inurba_marseille","lat":43.305989,"lon":5.37225,"is_reserved":false,"is_disabled":false,"rental_uris":{"android":"levelo://app?vid=d7fb9b44-72ed-4596-a332-eaafd71fbfa0","ios":"levelo://app?vid=d7fb9b44-72ed-4596-a332-eaafd71fbfa0"},"vehicle_type_id":"4","last_reported":1682770254,"current_range_meters":31200,"station_id":"ce4bgqh2rcd13ifvqc4g","pricing_plan_id":"free"},{"bike_id":"f58e1d2a-de97-4ea4-8456-b4cd0ab718d6","system_id":"levelo_inurba_marseille","lat":43.305989,"lon":5.37225,"is_reserved":false,"is_disabled":false,"rental_uris":{"android":"levelo://app?vid=f58e1d2a-de97-4ea4-8456-b4cd0ab718d6","ios":"levelo://app?vid=f58e1d2a-de97-4ea4-8456-b4cd0ab718d6"},"vehicle_type_id":"4","last_reported":1682770254,"current_range_meters":31200,"station_id":"ce4bgqh2rcd13ifvqc4g","pricing_plan_id":"free"},{"bike_id":"e7306b21-10f1-49c5-a148-19714c73d540","system_id":"levelo_inurba_marseille","lat":43.305989,"lon":5.37225,"is_reserved":false,"is_disabled":false,"rental_uris":{"android":"levelo://app?vid=e7306b21-10f1-49c5-a148-19714c73d540","ios":"levelo://app?vid=e7306b21-10f1-49c5-a148-19714c73d540"},"vehicle_type_id":"4","last_reported":1682770254,"current_range_meters":29600,"station_id":"ce4bgqh2rcd13ifvqc4g","pricing_plan_id":"free"},{"bike_id":"0f742916-af36-437e-a4f2-3c06e37a2556","system_id":"levelo_inurba_marseille","lat":43.305989,"lon":5.37225,"is_reserved":false,"is_disabled":false,"rental_uris":{"android":"levelo://app?vid=0f742916-af36-437e-a4f2-3c06e37a2556","ios":"levelo://app?vid=0f742916-af36-437e-a4f2-3c06e37a2556"},"vehicle_type_id":"4","last_reported":1682770254,"current_range_meters":23200,"station_id":"ce4bgqh2rcd13ifvqc4g","pricing_plan_id":"free"},{"bike_id":"445e410a-2002-4e60-b67f-0b5b13d60bb9","system_id":"levelo_inurba_marseille","lat":43.305989,"lon":5.37225,"is_reserved":false,"is_disabled":false,"rental_uris":{"android":"levelo://app?vid=445e410a-2002-4e60-b67f-0b5b13d60bb9","ios":"levelo://app?vid=445e410a-2002-4e60-b67f-0b5b13d60bb9"},"vehicle_type_id":"4","last_reported":1682770254,"current_range_meters":17200,"station_id":"ce4bgqh2rcd13ifvqc4g","pricing_plan_id":"free"},{"bike_id":"f1dee2e3-52a9-4478-88f0-fb9061f77714","system_id":"levelo_inurba_marseille","lat":43.305989,"lon":5.37225,"is_reserved":false,"is_disabled":false,"rental_uris":{"android":"levelo://app?vid=f1dee2e3-52a9-4478-88f0-fb9061f77714","ios":"levelo://app?vid=f1dee2e3-52a9-4478-88f0-fb9061f77714"},"vehicle_type_id":"4","last_reported":1682770254,"current_range_meters":31200,"station_id":"ce4bgqh2rcd13ifvqc4g","pricing_plan_id":"free"},{"bike_id":"6e8c14a3-ed1f-4158-8355-f61d1e449699","system_id":"levelo_inurba_marseille","lat":43.305989,"lon":5.37225,"is_reserved":false,"is_disabled":false,"rental_uris":{"android":"levelo://app?vid=6e8c14a3-ed1f-4158-8355-f61d1e449699","ios":"levelo://app?vid=6e8c14a3-ed1f-4158-8355-f61d1e449699"},"vehicle_type_id":"4","last_reported":1682770254,"current_range_meters":31200,"station_id":"ce4bgqh2rcd13ifvqc4g","pricing_plan_id":"free"},{"bike_id":"01c0a02f-0539-4e0d-807f-47aa3a9593ca","system_id":"levelo_inurba_marseille","lat":43.305989,"lon":5.37225,"is_reserved":false,"is_disabled":false,"rental_uris":{"android":"levelo://app?vid=01c0a02f-0539-4e0d-807f-47aa3a9593ca","ios":"levelo://app?vid=01c0a02f-0539-4e0d-807f-47aa3a9593ca"},"vehicle_type_id":"4","last_reported":1682770254,"current_range_meters":14000,"station_id":"ce4bgqh2rcd13ifvqc4g","pricing_plan_id":"free"},{"bike_id":"f78f6b0c-abf8-4dd4-9f38-a92a4badb5e3","system_id":"levelo_inurba_marseille","lat":43.305989,"lon":5.37225,"is_reserved":false,"is_disabled":false,"rental_uris":{"android":"levelo://app?vid=f78f6b0c-abf8-4dd4-9f38-a92a4badb5e3","ios":"levelo://app?vid=f78f6b0c-abf8-4dd4-9f38-a92a4badb5e3"},"vehicle_type_id":"4","last_reported":1682770254,"current_range_meters":30000,"station_id":"ce4bgqh2rcd13ifvqc4g","pricing_plan_id":"free"},{"bike_id":"2bbfe40d-adb1-4cf6-b06e-a77cff4b72f9","system_id":"levelo_inurba_marseille","lat":43.305989,"lon":5.37225,"is_reserved":false,"is_disabled":false,"rental_uris":{"android":"levelo://app?vid=2bbfe40d-adb1-4cf6-b06e-a77cff4b72f9","ios":"levelo://app?vid=2bbfe40d-adb1-4cf6-b06e-a77cff4b72f9"},"vehicle_type_id":"4","last_reported":1682770254,"current_range_meters":31200,"station_id":"ce4bgqh2rcd13ifvqc4g","pricing_plan_id":"free"},{"bike_id":"99f121e4-85b5-487f-9151-b1b76e25d364","system_id":"levelo_inurba_marseille","lat":43.31123,"lon":5.37758,"is_reserved":false,"is_disabled":false,"rental_uris":{"android":"levelo://app?vid=99f121e4-85b5-487f-9151-b1b76e25d364","ios":"levelo://app?vid=99f121e4-85b5-487f-9151-b1b76e25d364"},"vehicle_type_id":"4","last_reported":1682770254,"current_range_meters":29200,"station_id":"ce4bgt92rcd13ifvqcg0","pricing_plan_id":"free"},{"bike_id":"90e5bfee-1772-4800-89d1-96d59317ce55","system_id":"levelo_inurba_marseille","lat":43.31118,"lon":5.37757,"is_reserved":false,"is_disabled":false,"rental_uris":{"android":"levelo://app?vid=90e5bfee-1772-4800-89d1-96d59317ce55","ios":"levelo://app?vid=90e5bfee-1772-4800-89d1-96d59317ce55"},"vehicle_type_id":"4","last_reported":1682770254,"current_range_meters":29600,"station_id":"ce4bgt92rcd13ifvqcg0","pricing_plan_id":"free"},{"bike_id":"168969ff-08c9-4173-b70d-e9e2a5aee32c","system_id":"levelo_inurba_marseille","lat":43.311125,"lon":5.377624,"is_reserved":false,"is_disabled":false,"rental_uris":{"android":"levelo://app?vid=168969ff-08c9-4173-b70d-e9e2a5aee32c","ios":"levelo://app?vid=168969ff-08c9-4173-b70d-e9e2a5aee32c"},"vehicle_type_id":"4","last_reported":1682770254,"current_range_meters":30000,"station_id":"ce4bgt92rcd13ifvqcg0","pricing_plan_id":"free"},{"bike_id":"7cb65722-ec11-4840-85c9-43a64ab9e4ec","system_id":"levelo_inurba_marseille","lat":43.31117,"lon":5.37763,"is_reserved":false,"is_disabled":false,"rental_uris":{"android":"levelo://app?vid=7cb65722-ec11-4840-85c9-43a64ab9e4ec","ios":"levelo://app?vid=7cb65722-ec11-4840-85c9-43a64ab9e4ec"},"vehicle_type_id":"4","last_reported":1682770254,"current_range_meters":30400,"station_id":"ce4bgt92rcd13ifvqcg0","pricing_plan_id":"free"},{"bike_id":"d7ab96a8-1b90-40fe-84dd-0686490df9ae","system_id":"levelo_inurba_marseille","lat":43.317075,"lon":5.377367,"is_reserved":false,"is_disabled":false,"rental_uris":{"android":"levelo://app?vid=d7ab96a8-1b90-40fe-84dd-0686490df9ae","ios":"levelo://app?vid=d7ab96a8-1b90-40fe-84dd-0686490df9ae"},"vehicle_type_id":"4","last_reported":1682770254,"current_range_meters":30000,"station_id":"ce4bgth2rcd13ifvqch0","pricing_plan_id":"free"},{"bike_id":"c1eb048b-9d1e-49fd-a1d2-b6f0125f15d6","system_id":"levelo_inurba_marseille","lat":43.317075,"lon":5.377367,"is_reserved":false,"is_disabled":false,"rental_uris":{"android":"levelo://app?vid=c1eb048b-9d1e-49fd-a1d2-b6f0125f15d6","ios":"levelo://app?vid=c1eb048b-9d1e-49fd-a1d2-b6f0125f15d6"},"vehicle_type_id":"4","last_reported":1682770254,"current_range_meters":28800,"station_id":"ce4bgth2rcd13ifvqch0","pricing_plan_id":"free"},{"bike_id":"3d06f19d-ca29-4fb0-b046-bc2a5fa78dae","system_id":"levelo_inurba_marseille","lat":43.303046,"lon":5.368981,"is_reserved":false,"is_disabled":false,"rental_uris":{"android":"levelo://app?vid=3d06f19d-ca29-4fb0-b046-bc2a5fa78dae","ios":"levelo://app?vid=3d06f19d-ca29-4fb0-b046-bc2a5fa78dae"},"vehicle_type_id":"4","last_reported":1682770254,"current_range_meters":17200,"station_id":"ce4bgqh2rcd13ifvqc5g","pricing_plan_id":"free"},{"bike_id":"4eb91092-7719-4021-b9da-18afeab341a3","system_id":"levelo_inurba_marseille","lat":43.30309,"lon":5.36904,"is_reserved":false,"is_disabled":false,"rental_uris":{"android":"levelo://app?vid=4eb91092-7719-4021-b9da-18afeab341a3","ios":"levelo://app?vid=4eb91092-7719-4021-b9da-18afeab341a3"},"vehicle_type_id":"4","last_reported":1682770254,"current_range_meters":18000,"station_id":"ce4bgqh2rcd13ifvqc5g","pricing_plan_id":"free"},{"bike_id":"5cc835b2-9631-4d63-94eb-19b4f8885abd","system_id":"levelo_inurba_marseille","lat":43.31527,"lon":5.38034,"is_reserved":false,"is_disabled":false,"rental_uris":{"android":"levelo://app?vid=5cc835b2-9631-4d63-94eb-19b4f8885abd","ios":"levelo://app?vid=5cc835b2-9631-4d63-94eb-19b4f8885abd"},"vehicle_type_id":"4","last_reported":1682770254,"current_range_meters":27600,"station_id":"ce4bhsp2rcd13ifvqi50","pricing_plan_id":"free"},{"bike_id":"f7a260ce-fffc-4ba1-9a7b-4a94bfd9c17e","system_id":"levelo_inurba_marseille","lat":43.31587,"lon":5.38027,"is_reserved":false,"is_disabled":false,"rental_uris":{"android":"levelo://app?vid=f7a260ce-fffc-4ba1-9a7b-4a94bfd9c17e","ios":"levelo://app?vid=f7a260ce-fffc-4ba1-9a7b-4a94bfd9c17e"},"vehicle_type_id":"4","last_reported":1682770254,"current_range_meters":20400,"station_id":"","pricing_plan_id":"free"},{"bike_id":"b4c181db-552e-4d7d-a98e-24e68f4e6a2c","system_id":"levelo_inurba_marseille","lat":43.301939,"lon":5.366286,"is_reserved":false,"is_disabled":false,"rental_uris":{"android":"levelo://app?vid=b4c181db-552e-4d7d-a98e-24e68f4e6a2c","ios":"levelo://app?vid=b4c181db-552e-4d7d-a98e-24e68f4e6a2c"},"vehicle_type_id":"4","last_reported":1682770254,"current_range_meters":30400,"station_id":"ce4bgrh2rcd13ifvqc8g","pricing_plan_id":"free"},{"bike_id":"f204a1fe-9365-4cb8-b3a7-7be4718c4d04","system_id":"levelo_inurba_marseille","lat":43.301939,"lon":5.366286,"is_reserved":false,"is_disabled":false,"rental_uris":{"android":"levelo://app?vid=f204a1fe-9365-4cb8-b3a7-7be4718c4d04","ios":"levelo://app?vid=f204a1fe-9365-4cb8-b3a7-7be4718c4d04"},"vehicle_type_id":"4","last_reported":1682770254,"current_range_meters":17200,"station_id":"ce4bgrh2rcd13ifvqc8g","pricing_plan_id":"free"},{"bike_id":"a8456d9f-c1b6-4822-bd94-722dca8b1458","system_id":"levelo_inurba_marseille","lat":43.301939,"lon":5.366286,"is_reserved":false,"is_disabled":false,"rental_uris":{"android":"levelo://app?vid=a8456d9f-c1b6-4822-bd94-722dca8b1458","ios":"levelo://app?vid=a8456d9f-c1b6-4822-bd94-722dca8b1458"},"vehicle_type_id":"4","last_reported":1682770254,"current_range_meters":19600,"station_id":"ce4bgrh2rcd13ifvqc8g","pricing_plan_id":"free"},{"bike_id":"a4ad23b8-5bf7-45cf-9456-b97664f0d6f3","system_id":"levelo_inurba_marseille","lat":43.301939,"lon":5.366286,"is_reserved":false,"is_disabled":false,"rental_uris":{"android":"levelo://app?vid=a4ad23b8-5bf7-45cf-9456-b97664f0d6f3","ios":"levelo://app?vid=a4ad23b8-5bf7-45cf-9456-b97664f0d6f3"},"vehicle_type_id":"4","last_reported":1682770254,"current_range_meters":29200,"station_id":"ce4bgrh2rcd13ifvqc8g","pricing_plan_id":"free"},{"bike_id":"23da31ad-3774-436a-b1b0-563400f77aa9","system_id":"levelo_inurba_marseille","lat":43.30215,"lon":5.37109,"is_reserved":false,"is_disabled":false,"rental_uris":{"android":"levelo://app?vid=23da31ad-3774-436a-b1b0-563400f77aa9","ios":"levelo://app?vid=23da31ad-3774-436a-b1b0-563400f77aa9"},"vehicle_type_id":"4","last_reported":1682770254,"current_range_meters":1600,"station_id":"","pricing_plan_id":"free"},{"bike_id":"5d3126bd-a1b3-4bbe-90ff-331fa5d5c68a","system_id":"levelo_inurba_marseille","lat":43.30802,"lon":5.38146,"is_reserved":false,"is_disabled":false,"rental_uris":{"android":"levelo://app?vid=5d3126bd-a1b3-4bbe-90ff-331fa5d5c68a","ios":"levelo://app?vid=5d3126bd-a1b3-4bbe-90ff-331fa5d5c68a"},"vehicle_type_id":"4","last_reported":1682770254,"current_range_meters":31200,"station_id":"ce4bgt12rcd13ifvqce0","pricing_plan_id":"free"},{"bike_id":"997746f1-ebf9-40c4-9999-72ab931422a3","system_id":"levelo_inurba_marseille","lat":43.308012,"lon":5.381511,"is_reserved":false,"is_disabled":false,"rental_uris":{"android":"levelo://app?vid=997746f1-ebf9-40c4-9999-72ab931422a3","ios":"levelo://app?vid=997746f1-ebf9-40c4-9999-72ab931422a3"},"vehicle_type_id":"4","last_reported":1682770254,"current_range_meters":19200,"station_id":"ce4bgt12rcd13ifvqce0","pricing_plan_id":"free"},{"bike_id":"b3fd570d-be94-497b-b075-656d6539a3db","system_id":"levelo_inurba_marseille","lat":43.304606,"lon":5.379026,"is_reserved":false,"is_disabled":false,"rental_uris":{"android":"levelo://app?vid=b3fd570d-be94-497b-b075-656d6539a3db","ios":"levelo://app?vid=b3fd570d-be94-497b-b075-656d6539a3db"},"vehicle_type_id":"4","last_reported":1682770254,"current_range_meters":27600,"station_id":"ce4bgup2rcd13ifvqcn0","pricing_plan_id":"free"},{"bike_id":"4e2f21c8-980c-46c4-827f-11974ce69ed4","system_id":"levelo_inurba_marseille","lat":43.304606,"lon":5.379026,"is_reserved":false,"is_disabled":false,"rental_uris":{"android":"levelo://app?vid=4e2f21c8-980c-46c4-827f-11974ce69ed4","ios":"levelo://app?vid=4e2f21c8-980c-46c4-827f-11974ce69ed4"},"vehicle_type_id":"4","last_reported":1682770254,"current_range_meters":31200,"station_id":"ce4bgup2rcd13ifvqcn0","pricing_plan_id":"free"},{"bike_id":"83d636a3-b008-444f-b55a-645078800a3a","system_id":"levelo_inurba_marseille","lat":43.304606,"lon":5.379026,"is_reserved":false,"is_disabled":false,"rental_uris":{"android":"levelo://app?vid=83d636a3-b008-444f-b55a-645078800a3a","ios":"levelo://app?vid=83d636a3-b008-444f-b55a-645078800a3a"},"vehicle_type_id":"4","last_reported":1682770254,"current_range_meters":31200,"station_id":"ce4bgup2rcd13ifvqcn0","pricing_plan_id":"free"},{"bike_id":"8ecb2eae-bd7b-4cdf-b8ab-b9062eb43119","system_id":"levelo_inurba_marseille","lat":43.304606,"lon":5.379026,"is_reserved":false,"is_disabled":false,"rental_uris":{"android":"levelo://app?vid=8ecb2eae-bd7b-4cdf-b8ab-b9062eb43119","ios":"levelo://app?vid=8ecb2eae-bd7b-4cdf-b8ab-b9062eb43119"},"vehicle_type_id":"4","last_reported":1682770254,"current_range_meters":6400,"station_id":"ce4bgup2rcd13ifvqcn0","pricing_plan_id":"free"},{"bike_id":"d5d7e4cb-842b-4d72-8a21-8add40f87b99","system_id":"levelo_inurba_marseille","lat":43.304606,"lon":5.379026,"is_reserved":false,"is_disabled":false,"rental_uris":{"android":"levelo://app?vid=d5d7e4cb-842b-4d72-8a21-8add40f87b99","ios":"levelo://app?vid=d5d7e4cb-842b-4d72-8a21-8add40f87b99"},"vehicle_type_id":"4","last_reported":1682770254,"current_range_meters":31600,"station_id":"ce4bgup2rcd13ifvqcn0","pricing_plan_id":"free"},{"bike_id":"135c32fe-96f3-4896-8361-09159acf0e50","system_id":"levelo_inurba_marseille","lat":43.304606,"lon":5.379026,"is_reserved":false,"is_disabled":false,"rental_uris":{"android":"levelo://app?vid=135c32fe-96f3-4896-8361-09159acf0e50","ios":"levelo://app?vid=135c32fe-96f3-4896-8361-09159acf0e50"},"vehicle_type_id":"4","last_reported":1682770254,"current_range_meters":31200,"station_id":"ce4bgup2rcd13ifvqcn0","pricing_plan_id":"free"},{"bike_id":"51da33a5-e724-436b-9b38-4f5a5ba8aed7","system_id":"levelo_inurba_marseille","lat":43.304606,"lon":5.379026,"is_reserved":false,"is_disabled":false,"rental_uris":{"android":"levelo://app?vid=51da33a5-e724-436b-9b38-4f5a5ba8aed7","ios":"levelo://app?vid=51da33a5-e724-436b-9b38-4f5a5ba8aed7"},"vehicle_type_id":"4","last_reported":1682770254,"current_range_meters":27200,"station_id":"ce4bgup2rcd13ifvqcn0","pricing_plan_id":"free"},{"bike_id":"e31e4ba4-35f8-498b-887b-662a88281c7d","system_id":"levelo_inurba_marseille","lat":43.304606,"lon":5.379026,"is_reserved":false,"is_disabled":false,"rental_uris":{"android":"levelo://app?vid=e31e4ba4-35f8-498b-887b-662a88281c7d","ios":"levelo://app?vid=e31e4ba4-35f8-498b-887b-662a88281c7d"},"vehicle_type_id":"4","last_reported":1682770254,"current_range_meters":31200,"station_id":"ce4bgup2rcd13ifvqcn0","pricing_plan_id":"free"},{"bike_id":"683c95af-e3b2-4b46-ae93-06c5511caf00","system_id":"levelo_inurba_marseille","lat":43.303871,"lon":5.378318,"is_reserved":false,"is_disabled":false,"rental_uris":{"android":"levelo://app?vid=683c95af-e3b2-4b46-ae93-06c5511caf00","ios":"levelo://app?vid=683c95af-e3b2-4b46-ae93-06c5511caf00"},"vehicle_type_id":"4","last_reported":1682770254,"current_range_meters":0,"station_id":"","pricing_plan_id":"free"},{"bike_id":"e8b2faab-ee66-48e1-b757-8089021d7637","system_id":"levelo_inurba_marseille","lat":43.30741,"lon":5.38231,"is_reserved":false,"is_disabled":false,"rental_uris":{"android":"levelo://app?vid=e8b2faab-ee66-48e1-b757-8089021d7637","ios":"levelo://app?vid=e8b2faab-ee66-48e1-b757-8089021d7637"},"vehicle_type_id":"4","last_reported":1682770254,"current_range_meters":18400,"station_id":"","pricing_plan_id":"free"},{"bike_id":"02dd2b33-d032-4a90-81de-0e9fd35ee42f","system_id":"levelo_inurba_marseille","lat":43.30139,"lon":5.37412,"is_reserved":false,"is_disabled":false,"rental_uris":{"android":"levelo://app?vid=02dd2b33-d032-4a90-81de-0e9fd35ee42f","ios":"levelo://app?vid=02dd2b33-d032-4a90-81de-0e9fd35ee42f"},"vehicle_type_id":"4","last_reported":1682770254,"current_range_meters":11200,"station_id":"ce4bgs92rcd13ifvqcc0","pricing_plan_id":"free"},{"bike_id":"53234cdf-5ba1-4e92-9205-f7f2e8072582","system_id":"levelo_inurba_marseille","lat":43.30143,"lon":5.37413,"is_reserved":false,"is_disabled":false,"rental_uris":{"android":"levelo://app?vid=53234cdf-5ba1-4e92-9205-f7f2e8072582","ios":"levelo://app?vid=53234cdf-5ba1-4e92-9205-f7f2e8072582"},"vehicle_type_id":"4","last_reported":1682770254,"current_range_meters":30000,"station_id":"ce4bgs92rcd13ifvqcc0","pricing_plan_id":"free"},{"bike_id":"bc51b1d0-bcad-479d-80ef-003da1bd7f14","system_id":"levelo_inurba_marseille","lat":43.30143,"lon":5.37413,"is_reserved":false,"is_disabled":false,"rental_uris":{"android":"levelo://app?vid=bc51b1d0-bcad-479d-80ef-003da1bd7f14","ios":"levelo://app?vid=bc51b1d0-bcad-479d-80ef-003da1bd7f14"},"vehicle_type_id":"4","last_reported":1682770254,"current_range_meters":30000,"station_id":"ce4bgs92rcd13ifvqcc0","pricing_plan_id":"free"},{"bike_id":"2585a28f-28eb-4b6c-bec7-6790f41e6f02","system_id":"levelo_inurba_marseille","lat":43.30143,"lon":5.37413,"is_reserved":false,"is_disabled":false,"rental_uris":{"android":"levelo://app?vid=2585a28f-28eb-4b6c-bec7-6790f41e6f02","ios":"levelo://app?vid=2585a28f-28eb-4b6c-bec7-6790f41e6f02"},"vehicle_type_id":"4","last_reported":1682770254,"current_range_meters":10000,"station_id":"ce4bgs92rcd13ifvqcc0","pricing_plan_id":"free"},{"bike_id":"ba425f5d-de22-4f3c-b67f-39112f59b38f","system_id":"levelo_inurba_marseille","lat":43.30143,"lon":5.37413,"is_reserved":false,"is_disabled":false,"rental_uris":{"android":"levelo://app?vid=ba425f5d-de22-4f3c-b67f-39112f59b38f","ios":"levelo://app?vid=ba425f5d-de22-4f3c-b67f-39112f59b38f"},"vehicle_type_id":"4","last_reported":1682770254,"current_range_meters":26400,"station_id":"ce4bgs92rcd13ifvqcc0","pricing_plan_id":"free"},{"bike_id":"33b79688-afdf-435c-8a5f-0a2f6fd5515d","system_id":"levelo_inurba_marseille","lat":43.30143,"lon":5.37413,"is_reserved":false,"is_disabled":false,"rental_uris":{"android":"levelo://app?vid=33b79688-afdf-435c-8a5f-0a2f6fd5515d","ios":"levelo://app?vid=33b79688-afdf-435c-8a5f-0a2f6fd5515d"},"vehicle_type_id":"4","last_reported":1682770254,"current_range_meters":29200,"station_id":"ce4bgs92rcd13ifvqcc0","pricing_plan_id":"free"},{"bike_id":"a2a24fe0-13de-4441-ad4a-df77b6fe5b24","system_id":"levelo_inurba_marseille","lat":43.3013,"lon":5.37407,"is_reserved":false,"is_disabled":false,"rental_uris":{"android":"levelo://app?vid=a2a24fe0-13de-4441-ad4a-df77b6fe5b24","ios":"levelo://app?vid=a2a24fe0-13de-4441-ad4a-df77b6fe5b24"},"vehicle_type_id":"4","last_reported":1682770254,"current_range_meters":28000,"station_id":"ce4bgs92rcd13ifvqcc0","pricing_plan_id":"free"},{"bike_id":"c8814ce7-8e71-411d-aae0-15e80d5fb17e","system_id":"levelo_inurba_marseille","lat":43.30143,"lon":5.37413,"is_reserved":false,"is_disabled":false,"rental_uris":{"android":"levelo://app?vid=c8814ce7-8e71-411d-aae0-15e80d5fb17e","ios":"levelo://app?vid=c8814ce7-8e71-411d-aae0-15e80d5fb17e"},"vehicle_type_id":"4","last_reported":1682770254,"current_range_meters":30400,"station_id":"ce4bgs92rcd13ifvqcc0","pricing_plan_id":"free"},{"bike_id":"605da690-7b42-479a-bd9b-3ccac81e7bee","system_id":"levelo_inurba_marseille","lat":43.30143,"lon":5.37413,"is_reserved":false,"is_disabled":false,"rental_uris":{"android":"levelo://app?vid=605da690-7b42-479a-bd9b-3ccac81e7bee","ios":"levelo://app?vid=605da690-7b42-479a-bd9b-3ccac81e7bee"},"vehicle_type_id":"4","last_reported":1682770254,"current_range_meters":20400,"station_id":"ce4bgs92rcd13ifvqcc0","pricing_plan_id":"free"},{"bike_id":"b855e4a1-3ca2-4833-b2b4-9b31899ec1d8","system_id":"levelo_inurba_marseille","lat":43.30131,"lon":5.37421,"is_reserved":false,"is_disabled":false,"rental_uris":{"android":"levelo://app?vid=b855e4a1-3ca2-4833-b2b4-9b31899ec1d8","ios":"levelo://app?vid=b855e4a1-3ca2-4833-b2b4-9b31899ec1d8"},"vehicle_type_id":"4","last_reported":1682770254,"current_range_meters":17600,"station_id":"ce4bgs92rcd13ifvqcc0","pricing_plan_id":"free"},{"bike_id":"4d276edd-b6e9-4ae2-85f0-239860adc8b3","system_id":"levelo_inurba_marseille","lat":43.31282,"lon":5.38455,"is_reserved":false,"is_disabled":false,"rental_uris":{"android":"levelo://app?vid=4d276edd-b6e9-4ae2-85f0-239860adc8b3","ios":"levelo://app?vid=4d276edd-b6e9-4ae2-85f0-239860adc8b3"},"vehicle_type_id":"4","last_reported":1682770254,"current_range_meters":26000,"station_id":"","pricing_plan_id":"free"},{"bike_id":"1662184e-7805-4d5e-a59e-40b24614afb1","system_id":"levelo_inurba_marseille","lat":43.313571,"lon":5.384829,"is_reserved":false,"is_disabled":false,"rental_uris":{"android":"levelo://app?vid=1662184e-7805-4d5e-a59e-40b24614afb1","ios":"levelo://app?vid=1662184e-7805-4d5e-a59e-40b24614afb1"},"vehicle_type_id":"4","last_reported":1682770254,"current_range_meters":27600,"station_id":"ce4bgt92rcd13ifvqcf0","pricing_plan_id":"free"},{"bike_id":"06144697-a1a3-4dec-9f44-fb5c878db795","system_id":"levelo_inurba_marseille","lat":43.313571,"lon":5.384829,"is_reserved":false,"is_disabled":false,"rental_uris":{"android":"levelo://app?vid=06144697-a1a3-4dec-9f44-fb5c878db795","ios":"levelo://app?vid=06144697-a1a3-4dec-9f44-fb5c878db795"},"vehicle_type_id":"4","last_reported":1682770254,"current_range_meters":31200,"station_id":"ce4bgt92rcd13ifvqcf0","pricing_plan_id":"free"},{"bike_id":"898d6f56-1295-49d2-af0a-250ca3b7d32b","system_id":"levelo_inurba_marseille","lat":43.313571,"lon":5.384829,"is_reserved":false,"is_disabled":false,"rental_uris":{"android":"levelo://app?vid=898d6f56-1295-49d2-af0a-250ca3b7d32b","ios":"levelo://app?vid=898d6f56-1295-49d2-af0a-250ca3b7d32b"},"vehicle_type_id":"4","last_reported":1682770254,"current_range_meters":25600,"station_id":"ce4bgt92rcd13ifvqcf0","pricing_plan_id":"free"},{"bike_id":"4cf0b0c6-bcc6-468e-8e85-c569223051c3","system_id":"levelo_inurba_marseille","lat":43.313571,"lon":5.384829,"is_reserved":false,"is_disabled":false,"rental_uris":{"android":"levelo://app?vid=4cf0b0c6-bcc6-468e-8e85-c569223051c3","ios":"levelo://app?vid=4cf0b0c6-bcc6-468e-8e85-c569223051c3"},"vehicle_type_id":"4","last_reported":1682770254,"current_range_meters":31200,"station_id":"ce4bgt92rcd13ifvqcf0","pricing_plan_id":"free"},{"bike_id":"0074f3d1-fdaf-4b54-ab76-2c6862621ac1","system_id":"levelo_inurba_marseille","lat":43.31356,"lon":5.38501,"is_reserved":false,"is_disabled":false,"rental_uris":{"android":"levelo://app?vid=0074f3d1-fdaf-4b54-ab76-2c6862621ac1","ios":"levelo://app?vid=0074f3d1-fdaf-4b54-ab76-2c6862621ac1"},"vehicle_type_id":"4","last_reported":1682770254,"current_range_meters":29600,"station_id":"ce4bgt92rcd13ifvqcf0","pricing_plan_id":"free"},{"bike_id":"56d173d1-5c3e-4f80-a0f6-ffca7f90cc30","system_id":"levelo_inurba_marseille","lat":43.313571,"lon":5.384829,"is_reserved":false,"is_disabled":false,"rental_uris":{"android":"levelo://app?vid=56d173d1-5c3e-4f80-a0f6-ffca7f90cc30","ios":"levelo://app?vid=56d173d1-5c3e-4f80-a0f6-ffca7f90cc30"},"vehicle_type_id":"4","last_reported":1682770254,"current_range_meters":25600,"station_id":"ce4bgt92rcd13ifvqcf0","pricing_plan_id":"free"},{"bike_id":"ebf96f93-407d-4548-ace4-4fe13144bdc7","system_id":"levelo_inurba_marseille","lat":43.3136,"lon":5.38504,"is_reserved":false,"is_disabled":false,"rental_uris":{"android":"levelo://app?vid=ebf96f93-407d-4548-ace4-4fe13144bdc7","ios":"levelo://app?vid=ebf96f93-407d-4548-ace4-4fe13144bdc7"},"vehicle_type_id":"4","last_reported":1682770254,"current_range_meters":29200,"station_id":"ce4bgt92rcd13ifvqcf0","pricing_plan_id":"free"},{"bike_id":"f2ad688b-f7aa-4382-b0bd-e4b777474746","system_id":"levelo_inurba_marseille","lat":43.29937,"lon":5.36538,"is_reserved":false,"is_disabled":false,"rental_uris":{"android":"levelo://app?vid=f2ad688b-f7aa-4382-b0bd-e4b777474746","ios":"levelo://app?vid=f2ad688b-f7aa-4382-b0bd-e4b777474746"},"vehicle_type_id":"4","last_reported":1682770254,"current_range_meters":25600,"station_id":"ce4bgm92rcd13ifvqbr0","pricing_plan_id":"free"},{"bike_id":"d4564a0a-33d7-4c11-a75a-e4372bee6f35","system_id":"levelo_inurba_marseille","lat":43.29933,"lon":5.36538,"is_reserved":false,"is_disabled":false,"rental_uris":{"android":"levelo://app?vid=d4564a0a-33d7-4c11-a75a-e4372bee6f35","ios":"levelo://app?vid=d4564a0a-33d7-4c11-a75a-e4372bee6f35"},"vehicle_type_id":"4","last_reported":1682770254,"current_range_meters":30000,"station_id":"ce4bgm92rcd13ifvqbr0","pricing_plan_id":"free"},{"bike_id":"1638c4b7-d460-48f3-bf5c-91f8bf52d405","system_id":"levelo_inurba_marseille","lat":43.29933,"lon":5.36526,"is_reserved":false,"is_disabled":false,"rental_uris":{"android":"levelo://app?vid=1638c4b7-d460-48f3-bf5c-91f8bf52d405","ios":"levelo://app?vid=1638c4b7-d460-48f3-bf5c-91f8bf52d405"},"vehicle_type_id":"4","last_reported":1682770254,"current_range_meters":27200,"station_id":"ce4bgm92rcd13ifvqbr0","pricing_plan_id":"free"},{"bike_id":"d69d2569-cac8-4457-ab0b-02c2e2edcb89","system_id":"levelo_inurba_marseille","lat":43.29931,"lon":5.36534,"is_reserved":false,"is_disabled":false,"rental_uris":{"android":"levelo://app?vid=d69d2569-cac8-4457-ab0b-02c2e2edcb89","ios":"levelo://app?vid=d69d2569-cac8-4457-ab0b-02c2e2edcb89"},"vehicle_type_id":"4","last_reported":1682770254,"current_range_meters":18400,"station_id":"","pricing_plan_id":"free"},{"bike_id":"843f9816-8967-475d-a4f1-6ded6c9d0e0e","system_id":"levelo_inurba_marseille","lat":43.29929,"lon":5.36532,"is_reserved":false,"is_disabled":false,"rental_uris":{"android":"levelo://app?vid=843f9816-8967-475d-a4f1-6ded6c9d0e0e","ios":"levelo://app?vid=843f9816-8967-475d-a4f1-6ded6c9d0e0e"},"vehicle_type_id":"4","last_reported":1682770254,"current_range_meters":24000,"station_id":"ce4bgm92rcd13ifvqbr0","pricing_plan_id":"free"},{"bike_id":"f85c99ff-f4a1-4a72-9c46-f5ae2bc01094","system_id":"levelo_inurba_marseille","lat":43.29928,"lon":5.36539,"is_reserved":false,"is_disabled":false,"rental_uris":{"android":"levelo://app?vid=f85c99ff-f4a1-4a72-9c46-f5ae2bc01094","ios":"levelo://app?vid=f85c99ff-f4a1-4a72-9c46-f5ae2bc01094"},"vehicle_type_id":"4","last_reported":1682770254,"current_range_meters":30400,"station_id":"ce4bgm92rcd13ifvqbr0","pricing_plan_id":"free"},{"bike_id":"d36a14ab-4cd4-48b1-87a8-468581a33949","system_id":"levelo_inurba_marseille","lat":43.29849,"lon":5.36284,"is_reserved":false,"is_disabled":false,"rental_uris":{"android":"levelo://app?vid=d36a14ab-4cd4-48b1-87a8-468581a33949","ios":"levelo://app?vid=d36a14ab-4cd4-48b1-87a8-468581a33949"},"vehicle_type_id":"4","last_reported":1682770254,"current_range_meters":27200,"station_id":"ce4bgpp2rcd13ifvqc3g","pricing_plan_id":"free"},{"bike_id":"dcf28a03-0433-47bc-8c0a-f3062a36884e","system_id":"levelo_inurba_marseille","lat":43.29934,"lon":5.37475,"is_reserved":false,"is_disabled":false,"rental_uris":{"android":"levelo://app?vid=dcf28a03-0433-47bc-8c0a-f3062a36884e","ios":"levelo://app?vid=dcf28a03-0433-47bc-8c0a-f3062a36884e"},"vehicle_type_id":"4","last_reported":1682770254,"current_range_meters":21600,"station_id":"ce4bgjh2rcd13ifvqbg0","pricing_plan_id":"free"},{"bike_id":"3baf43d9-0024-43ac-b2f3-25ca18778e14","system_id":"levelo_inurba_marseille","lat":43.305364,"lon":5.384119,"is_reserved":false,"is_disabled":false,"rental_uris":{"android":"levelo://app?vid=3baf43d9-0024-43ac-b2f3-25ca18778e14","ios":"levelo://app?vid=3baf43d9-0024-43ac-b2f3-25ca18778e14"},"vehicle_type_id":"4","last_reported":1682770254,"current_range_meters":28000,"station_id":"ce4bgg92rcd13ifvqb30","pricing_plan_id":"free"},{"bike_id":"53114d7d-6fc4-4b30-a503-fcc34e906231","system_id":"levelo_inurba_marseille","lat":43.29848,"lon":5.36277,"is_reserved":false,"is_disabled":false,"rental_uris":{"android":"levelo://app?vid=53114d7d-6fc4-4b30-a503-fcc34e906231","ios":"levelo://app?vid=53114d7d-6fc4-4b30-a503-fcc34e906231"},"vehicle_type_id":"4","last_reported":1682770254,"current_range_meters":18000,"station_id":"ce4bgpp2rcd13ifvqc3g","pricing_plan_id":"free"},{"bike_id":"2fc980d0-ee40-4da0-bb14-13a291f5ff30","system_id":"levelo_inurba_marseille","lat":43.298433,"lon":5.362774,"is_reserved":false,"is_disabled":false,"rental_uris":{"android":"levelo://app?vid=2fc980d0-ee40-4da0-bb14-13a291f5ff30","ios":"levelo://app?vid=2fc980d0-ee40-4da0-bb14-13a291f5ff30"},"vehicle_type_id":"4","last_reported":1682770254,"current_range_meters":28400,"station_id":"ce4bgpp2rcd13ifvqc3g","pricing_plan_id":"free"},{"bike_id":"d337a286-9ce0-4cb5-98c9-6a909ab5a9f6","system_id":"levelo_inurba_marseille","lat":43.298433,"lon":5.362774,"is_reserved":false,"is_disabled":false,"rental_uris":{"android":"levelo://app?vid=d337a286-9ce0-4cb5-98c9-6a909ab5a9f6","ios":"levelo://app?vid=d337a286-9ce0-4cb5-98c9-6a909ab5a9f6"},"vehicle_type_id":"4","last_reported":1682770254,"current_range_meters":31200,"station_id":"ce4bgpp2rcd13ifvqc3g","pricing_plan_id":"free"},{"bike_id":"a5d41192-0279-4845-860f-b9f593c5b9ad","system_id":"levelo_inurba_marseille","lat":43.305364,"lon":5.384119,"is_reserved":false,"is_disabled":false,"rental_uris":{"android":"levelo://app?vid=a5d41192-0279-4845-860f-b9f593c5b9ad","ios":"levelo://app?vid=a5d41192-0279-4845-860f-b9f593c5b9ad"},"vehicle_type_id":"4","last_reported":1682770254,"current_range_meters":22800,"station_id":"ce4bgg92rcd13ifvqb30","pricing_plan_id":"free"},{"bike_id":"9e792e8e-6f53-45ab-9a2d-858fc8a59bcd","system_id":"levelo_inurba_marseille","lat":43.29846,"lon":5.36278,"is_reserved":false,"is_disabled":false,"rental_uris":{"android":"levelo://app?vid=9e792e8e-6f53-45ab-9a2d-858fc8a59bcd","ios":"levelo://app?vid=9e792e8e-6f53-45ab-9a2d-858fc8a59bcd"},"vehicle_type_id":"4","last_reported":1682770254,"current_range_meters":24000,"station_id":"ce4bgpp2rcd13ifvqc3g","pricing_plan_id":"free"},{"bike_id":"3fc451d2-dff5-4c25-a612-f21ef3edff74","system_id":"levelo_inurba_marseille","lat":43.29846,"lon":5.36276,"is_reserved":false,"is_disabled":false,"rental_uris":{"android":"levelo://app?vid=3fc451d2-dff5-4c25-a612-f21ef3edff74","ios":"levelo://app?vid=3fc451d2-dff5-4c25-a612-f21ef3edff74"},"vehicle_type_id":"4","last_reported":1682770254,"current_range_meters":30000,"station_id":"ce4bgpp2rcd13ifvqc3g","pricing_plan_id":"free"},{"bike_id":"b5f40982-5aae-4741-96d8-407cae553406","system_id":"levelo_inurba_marseille","lat":43.305364,"lon":5.384119,"is_reserved":false,"is_disabled":false,"rental_uris":{"android":"levelo://app?vid=b5f40982-5aae-4741-96d8-407cae553406","ios":"levelo://app?vid=b5f40982-5aae-4741-96d8-407cae553406"},"vehicle_type_id":"4","last_reported":1682770254,"current_range_meters":24800,"station_id":"ce4bgg92rcd13ifvqb30","pricing_plan_id":"free"},{"bike_id":"24f1bd48-0576-46c4-9554-b76585b8743c","system_id":"levelo_inurba_marseille","lat":43.305364,"lon":5.384119,"is_reserved":false,"is_disabled":false,"rental_uris":{"android":"levelo://app?vid=24f1bd48-0576-46c4-9554-b76585b8743c","ios":"levelo://app?vid=24f1bd48-0576-46c4-9554-b76585b8743c"},"vehicle_type_id":"4","last_reported":1682770254,"current_range_meters":22400,"station_id":"ce4bgg92rcd13ifvqb30","pricing_plan_id":"free"},{"bike_id":"17c12d03-1782-4a2b-8330-39c400721ce5","system_id":"levelo_inurba_marseille","lat":43.305364,"lon":5.384119,"is_reserved":false,"is_disabled":false,"rental_uris":{"android":"levelo://app?vid=17c12d03-1782-4a2b-8330-39c400721ce5","ios":"levelo://app?vid=17c12d03-1782-4a2b-8330-39c400721ce5"},"vehicle_type_id":"4","last_reported":1682770254,"current_range_meters":19600,"station_id":"ce4bgg92rcd13ifvqb30","pricing_plan_id":"free"},{"bike_id":"c03305b9-3cdf-4014-a128-2b5312ce740c","system_id":"levelo_inurba_marseille","lat":43.29844,"lon":5.36282,"is_reserved":false,"is_disabled":false,"rental_uris":{"android":"levelo://app?vid=c03305b9-3cdf-4014-a128-2b5312ce740c","ios":"levelo://app?vid=c03305b9-3cdf-4014-a128-2b5312ce740c"},"vehicle_type_id":"4","last_reported":1682770254,"current_range_meters":16400,"station_id":"ce4bgpp2rcd13ifvqc3g","pricing_plan_id":"free"},{"bike_id":"9c0ec151-c0a3-4ef9-9361-8725e8dc9dea","system_id":"levelo_inurba_marseille","lat":43.298433,"lon":5.362774,"is_reserved":false,"is_disabled":false,"rental_uris":{"android":"levelo://app?vid=9c0ec151-c0a3-4ef9-9361-8725e8dc9dea","ios":"levelo://app?vid=9c0ec151-c0a3-4ef9-9361-8725e8dc9dea"},"vehicle_type_id":"4","last_reported":1682770254,"current_range_meters":28800,"station_id":"ce4bgpp2rcd13ifvqc3g","pricing_plan_id":"free"},{"bike_id":"94c8bf57-7ad1-40be-93a1-023a8f66b9f5","system_id":"levelo_inurba_marseille","lat":43.29844,"lon":5.36279,"is_reserved":false,"is_disabled":false,"rental_uris":{"android":"levelo://app?vid=94c8bf57-7ad1-40be-93a1-023a8f66b9f5","ios":"levelo://app?vid=94c8bf57-7ad1-40be-93a1-023a8f66b9f5"},"vehicle_type_id":"4","last_reported":1682770254,"current_range_meters":23200,"station_id":"ce4bgpp2rcd13ifvqc3g","pricing_plan_id":"free"},{"bike_id":"cadce365-8706-4899-bfc3-23b462b69014","system_id":"levelo_inurba_marseille","lat":43.298433,"lon":5.362774,"is_reserved":false,"is_disabled":false,"rental_uris":{"android":"levelo://app?vid=cadce365-8706-4899-bfc3-23b462b69014","ios":"levelo://app?vid=cadce365-8706-4899-bfc3-23b462b69014"},"vehicle_type_id":"4","last_reported":1682770254,"current_range_meters":28000,"station_id":"ce4bgpp2rcd13ifvqc3g","pricing_plan_id":"free"},{"bike_id":"c20202bf-b532-4907-9084-9de9f674adf6","system_id":"levelo_inurba_marseille","lat":43.298433,"lon":5.362774,"is_reserved":false,"is_disabled":false,"rental_uris":{"android":"levelo://app?vid=c20202bf-b532-4907-9084-9de9f674adf6","ios":"levelo://app?vid=c20202bf-b532-4907-9084-9de9f674adf6"},"vehicle_type_id":"4","last_reported":1682770254,"current_range_meters":28400,"station_id":"ce4bgpp2rcd13ifvqc3g","pricing_plan_id":"free"},{"bike_id":"ed61a199-ec8d-42d9-8810-ea91103331d9","system_id":"levelo_inurba_marseille","lat":43.29844,"lon":5.36274,"is_reserved":false,"is_disabled":false,"rental_uris":{"android":"levelo://app?vid=ed61a199-ec8d-42d9-8810-ea91103331d9","ios":"levelo://app?vid=ed61a199-ec8d-42d9-8810-ea91103331d9"},"vehicle_type_id":"4","last_reported":1682770254,"current_range_meters":12400,"station_id":"ce4bgpp2rcd13ifvqc3g","pricing_plan_id":"free"},{"bike_id":"0f3fc2c0-6573-4e71-8958-062aac1d783d","system_id":"levelo_inurba_marseille","lat":43.298433,"lon":5.362774,"is_reserved":false,"is_disabled":false,"rental_uris":{"android":"levelo://app?vid=0f3fc2c0-6573-4e71-8958-062aac1d783d","ios":"levelo://app?vid=0f3fc2c0-6573-4e71-8958-062aac1d783d"},"vehicle_type_id":"4","last_reported":1682770254,"current_range_meters":20400,"station_id":"ce4bgpp2rcd13ifvqc3g","pricing_plan_id":"free"},{"bike_id":"50e50b1d-ce7f-4b1e-858f-a43af1c8aa00","system_id":"levelo_inurba_marseille","lat":43.298433,"lon":5.362774,"is_reserved":false,"is_disabled":false,"rental_uris":{"android":"levelo://app?vid=50e50b1d-ce7f-4b1e-858f-a43af1c8aa00","ios":"levelo://app?vid=50e50b1d-ce7f-4b1e-858f-a43af1c8aa00"},"vehicle_type_id":"4","last_reported":1682770254,"current_range_meters":31200,"station_id":"ce4bgpp2rcd13ifvqc3g","pricing_plan_id":"free"},{"bike_id":"b8199568-2749-4713-acc3-64dec26d4b61","system_id":"levelo_inurba_marseille","lat":43.298433,"lon":5.362774,"is_reserved":false,"is_disabled":false,"rental_uris":{"android":"levelo://app?vid=b8199568-2749-4713-acc3-64dec26d4b61","ios":"levelo://app?vid=b8199568-2749-4713-acc3-64dec26d4b61"},"vehicle_type_id":"4","last_reported":1682770254,"current_range_meters":6800,"station_id":"ce4bgpp2rcd13ifvqc3g","pricing_plan_id":"free"},{"bike_id":"7d3ce1ea-2737-477b-9299-e8c15fce7f7f","system_id":"levelo_inurba_marseille","lat":43.298433,"lon":5.362774,"is_reserved":false,"is_disabled":false,"rental_uris":{"android":"levelo://app?vid=7d3ce1ea-2737-477b-9299-e8c15fce7f7f","ios":"levelo://app?vid=7d3ce1ea-2737-477b-9299-e8c15fce7f7f"},"vehicle_type_id":"4","last_reported":1682770254,"current_range_meters":19200,"station_id":"ce4bgpp2rcd13ifvqc3g","pricing_plan_id":"free"},{"bike_id":"83e27216-e8aa-4517-ab63-bc886dc212c9","system_id":"levelo_inurba_marseille","lat":43.298433,"lon":5.362774,"is_reserved":false,"is_disabled":false,"rental_uris":{"android":"levelo://app?vid=83e27216-e8aa-4517-ab63-bc886dc212c9","ios":"levelo://app?vid=83e27216-e8aa-4517-ab63-bc886dc212c9"},"vehicle_type_id":"4","last_reported":1682770254,"current_range_meters":11600,"station_id":"ce4bgpp2rcd13ifvqc3g","pricing_plan_id":"free"},{"bike_id":"177ed4f7-5cba-4c5e-95e4-aada2246d0bb","system_id":"levelo_inurba_marseille","lat":43.299243,"lon":5.37481,"is_reserved":false,"is_disabled":false,"rental_uris":{"android":"levelo://app?vid=177ed4f7-5cba-4c5e-95e4-aada2246d0bb","ios":"levelo://app?vid=177ed4f7-5cba-4c5e-95e4-aada2246d0bb"},"vehicle_type_id":"4","last_reported":1682770254,"current_range_meters":16400,"station_id":"ce4bgjh2rcd13ifvqbg0","pricing_plan_id":"free"},{"bike_id":"a91b7ae2-8945-46e4-a5b0-f529ab7fb33d","system_id":"levelo_inurba_marseille","lat":43.298433,"lon":5.362774,"is_reserved":false,"is_disabled":false,"rental_uris":{"android":"levelo://app?vid=a91b7ae2-8945-46e4-a5b0-f529ab7fb33d","ios":"levelo://app?vid=a91b7ae2-8945-46e4-a5b0-f529ab7fb33d"},"vehicle_type_id":"4","last_reported":1682770254,"current_range_meters":27200,"station_id":"ce4bgpp2rcd13ifvqc3g","pricing_plan_id":"free"},{"bike_id":"d0288d2b-e077-467b-8847-fc309541033b","system_id":"levelo_inurba_marseille","lat":43.298433,"lon":5.362774,"is_reserved":false,"is_disabled":false,"rental_uris":{"android":"levelo://app?vid=d0288d2b-e077-467b-8847-fc309541033b","ios":"levelo://app?vid=d0288d2b-e077-467b-8847-fc309541033b"},"vehicle_type_id":"4","last_reported":1682770254,"current_range_meters":28800,"station_id":"ce4bgpp2rcd13ifvqc3g","pricing_plan_id":"free"},{"bike_id":"f654f604-fd56-4602-a0dd-726e00269a5e","system_id":"levelo_inurba_marseille","lat":43.305364,"lon":5.384119,"is_reserved":false,"is_disabled":false,"rental_uris":{"android":"levelo://app?vid=f654f604-fd56-4602-a0dd-726e00269a5e","ios":"levelo://app?vid=f654f604-fd56-4602-a0dd-726e00269a5e"},"vehicle_type_id":"4","last_reported":1682770254,"current_range_meters":16800,"station_id":"ce4bgg92rcd13ifvqb30","pricing_plan_id":"free"},{"bike_id":"18433da4-62bd-4a6d-9e50-781a17a8cdcc","system_id":"levelo_inurba_marseille","lat":43.29839,"lon":5.3627,"is_reserved":false,"is_disabled":false,"rental_uris":{"android":"levelo://app?vid=18433da4-62bd-4a6d-9e50-781a17a8cdcc","ios":"levelo://app?vid=18433da4-62bd-4a6d-9e50-781a17a8cdcc"},"vehicle_type_id":"4","last_reported":1682770254,"current_range_meters":20400,"station_id":"ce4bgpp2rcd13ifvqc3g","pricing_plan_id":"free"},{"bike_id":"ea1183ae-737e-44d9-9b33-f3919b5be2bd","system_id":"levelo_inurba_marseille","lat":43.31165,"lon":5.38704,"is_reserved":false,"is_disabled":false,"rental_uris":{"android":"levelo://app?vid=ea1183ae-737e-44d9-9b33-f3919b5be2bd","ios":"levelo://app?vid=ea1183ae-737e-44d9-9b33-f3919b5be2bd"},"vehicle_type_id":"4","last_reported":1682770254,"current_range_meters":30000,"station_id":"ce4bgv12rcd13ifvqcp0","pricing_plan_id":"free"},{"bike_id":"a0a7d70d-b73a-40a1-9e8a-220c2086f103","system_id":"levelo_inurba_marseille","lat":43.311722,"lon":5.387247,"is_reserved":false,"is_disabled":false,"rental_uris":{"android":"levelo://app?vid=a0a7d70d-b73a-40a1-9e8a-220c2086f103","ios":"levelo://app?vid=a0a7d70d-b73a-40a1-9e8a-220c2086f103"},"vehicle_type_id":"4","last_reported":1682770254,"current_range_meters":31200,"station_id":"ce4bgv12rcd13ifvqcp0","pricing_plan_id":"free"},{"bike_id":"4c3fb7ff-7e36-4aad-b340-5ec9edc62e21","system_id":"levelo_inurba_marseille","lat":43.31177,"lon":5.38707,"is_reserved":false,"is_disabled":false,"rental_uris":{"android":"levelo://app?vid=4c3fb7ff-7e36-4aad-b340-5ec9edc62e21","ios":"levelo://app?vid=4c3fb7ff-7e36-4aad-b340-5ec9edc62e21"},"vehicle_type_id":"4","last_reported":1682770254,"current_range_meters":4800,"station_id":"ce4bgv12rcd13ifvqcp0","pricing_plan_id":"free"},{"bike_id":"66dee718-35a4-453e-b27b-756fa6f69c2b","system_id":"levelo_inurba_marseille","lat":43.298433,"lon":5.362774,"is_reserved":false,"is_disabled":false,"rental_uris":{"android":"levelo://app?vid=66dee718-35a4-453e-b27b-756fa6f69c2b","ios":"levelo://app?vid=66dee718-35a4-453e-b27b-756fa6f69c2b"},"vehicle_type_id":"4","last_reported":1682770254,"current_range_meters":25600,"station_id":"ce4bgpp2rcd13ifvqc3g","pricing_plan_id":"free"},{"bike_id":"7bcaf7a4-faea-48a2-81ff-4e0b62266e93","system_id":"levelo_inurba_marseille","lat":43.311722,"lon":5.387247,"is_reserved":false,"is_disabled":false,"rental_uris":{"android":"levelo://app?vid=7bcaf7a4-faea-48a2-81ff-4e0b62266e93","ios":"levelo://app?vid=7bcaf7a4-faea-48a2-81ff-4e0b62266e93"},"vehicle_type_id":"4","last_reported":1682770254,"current_range_meters":31200,"station_id":"ce4bgv12rcd13ifvqcp0","pricing_plan_id":"free"},{"bike_id":"e04170d7-224b-43e8-9d86-a6dd53fc94e6","system_id":"levelo_inurba_marseille","lat":43.311722,"lon":5.387247,"is_reserved":false,"is_disabled":false,"rental_uris":{"android":"levelo://app?vid=e04170d7-224b-43e8-9d86-a6dd53fc94e6","ios":"levelo://app?vid=e04170d7-224b-43e8-9d86-a6dd53fc94e6"},"vehicle_type_id":"4","last_reported":1682770254,"current_range_meters":27600,"station_id":"ce4bgv12rcd13ifvqcp0","pricing_plan_id":"free"},{"bike_id":"1b99b2f3-2445-4fcc-9a9d-8dd1d2a8480a","system_id":"levelo_inurba_marseille","lat":43.311722,"lon":5.387247,"is_reserved":false,"is_disabled":false,"rental_uris":{"android":"levelo://app?vid=1b99b2f3-2445-4fcc-9a9d-8dd1d2a8480a","ios":"levelo://app?vid=1b99b2f3-2445-4fcc-9a9d-8dd1d2a8480a"},"vehicle_type_id":"4","last_reported":1682770254,"current_range_meters":31200,"station_id":"ce4bgv12rcd13ifvqcp0","pricing_plan_id":"free"},{"bike_id":"a2dad31a-5942-452d-a97b-9b571697360f","system_id":"levelo_inurba_marseille","lat":43.31171,"lon":5.38709,"is_reserved":false,"is_disabled":false,"rental_uris":{"android":"levelo://app?vid=a2dad31a-5942-452d-a97b-9b571697360f","ios":"levelo://app?vid=a2dad31a-5942-452d-a97b-9b571697360f"},"vehicle_type_id":"4","last_reported":1682770254,"current_range_meters":21600,"station_id":"ce4bgv12rcd13ifvqcp0","pricing_plan_id":"free"},{"bike_id":"1d137add-8aa5-4948-971b-abd78ffd4bba","system_id":"levelo_inurba_marseille","lat":43.298433,"lon":5.362774,"is_reserved":false,"is_disabled":false,"rental_uris":{"android":"levelo://app?vid=1d137add-8aa5-4948-971b-abd78ffd4bba","ios":"levelo://app?vid=1d137add-8aa5-4948-971b-abd78ffd4bba"},"vehicle_type_id":"4","last_reported":1682770254,"current_range_meters":30400,"station_id":"ce4bgpp2rcd13ifvqc3g","pricing_plan_id":"free"},{"bike_id":"ee968ea9-3b53-4f33-aead-1c3567633dd6","system_id":"levelo_inurba_marseille","lat":43.298433,"lon":5.362774,"is_reserved":false,"is_disabled":false,"rental_uris":{"android":"levelo://app?vid=ee968ea9-3b53-4f33-aead-1c3567633dd6","ios":"levelo://app?vid=ee968ea9-3b53-4f33-aead-1c3567633dd6"},"vehicle_type_id":"4","last_reported":1682770254,"current_range_meters":28800,"station_id":"ce4bgpp2rcd13ifvqc3g","pricing_plan_id":"free"},{"bike_id":"01b55c89-1506-4fa8-b7ea-4e93abb3aa06","system_id":"levelo_inurba_marseille","lat":43.31175,"lon":5.38711,"is_reserved":false,"is_disabled":false,"rental_uris":{"android":"levelo://app?vid=01b55c89-1506-4fa8-b7ea-4e93abb3aa06","ios":"levelo://app?vid=01b55c89-1506-4fa8-b7ea-4e93abb3aa06"},"vehicle_type_id":"4","last_reported":1682770254,"current_range_meters":8000,"station_id":"ce4bgv12rcd13ifvqcp0","pricing_plan_id":"free"},{"bike_id":"5f71867b-3a06-4d15-826a-68e7aa42a4c6","system_id":"levelo_inurba_marseille","lat":43.311722,"lon":5.387247,"is_reserved":false,"is_disabled":false,"rental_uris":{"android":"levelo://app?vid=5f71867b-3a06-4d15-826a-68e7aa42a4c6","ios":"levelo://app?vid=5f71867b-3a06-4d15-826a-68e7aa42a4c6"},"vehicle_type_id":"4","last_reported":1682770254,"current_range_meters":30400,"station_id":"ce4bgv12rcd13ifvqcp0","pricing_plan_id":"free"},{"bike_id":"f297c52d-a24d-4f2a-87ce-b7157dd44391","system_id":"levelo_inurba_marseille","lat":43.298433,"lon":5.362774,"is_reserved":false,"is_disabled":false,"rental_uris":{"android":"levelo://app?vid=f297c52d-a24d-4f2a-87ce-b7157dd44391","ios":"levelo://app?vid=f297c52d-a24d-4f2a-87ce-b7157dd44391"},"vehicle_type_id":"4","last_reported":1682770254,"current_range_meters":31600,"station_id":"ce4bgpp2rcd13ifvqc3g","pricing_plan_id":"free"},{"bike_id":"79ae1983-4bd4-487a-9895-e5122a3e9af9","system_id":"levelo_inurba_marseille","lat":43.311722,"lon":5.387247,"is_reserved":false,"is_disabled":false,"rental_uris":{"android":"levelo://app?vid=79ae1983-4bd4-487a-9895-e5122a3e9af9","ios":"levelo://app?vid=79ae1983-4bd4-487a-9895-e5122a3e9af9"},"vehicle_type_id":"4","last_reported":1682770254,"current_range_meters":31200,"station_id":"ce4bgv12rcd13ifvqcp0","pricing_plan_id":"free"},{"bike_id":"5741f1d8-bfe1-41f0-8861-505faec5f74d","system_id":"levelo_inurba_marseille","lat":43.298433,"lon":5.362774,"is_reserved":false,"is_disabled":false,"rental_uris":{"android":"levelo://app?vid=5741f1d8-bfe1-41f0-8861-505faec5f74d","ios":"levelo://app?vid=5741f1d8-bfe1-41f0-8861-505faec5f74d"},"vehicle_type_id":"4","last_reported":1682770254,"current_range_meters":14400,"station_id":"ce4bgpp2rcd13ifvqc3g","pricing_plan_id":"free"},{"bike_id":"9d89d866-becf-4802-b83b-b49895148dc1","system_id":"levelo_inurba_marseille","lat":43.299243,"lon":5.374807,"is_reserved":false,"is_disabled":false,"rental_uris":{"android":"levelo://app?vid=9d89d866-becf-4802-b83b-b49895148dc1","ios":"levelo://app?vid=9d89d866-becf-4802-b83b-b49895148dc1"},"vehicle_type_id":"4","last_reported":1682770254,"current_range_meters":20800,"station_id":"ce4bgjh2rcd13ifvqbg0","pricing_plan_id":"free"},{"bike_id":"db61c309-d30a-480c-a52d-907ad6c5d9d3","system_id":"levelo_inurba_marseille","lat":43.31171,"lon":5.38712,"is_reserved":false,"is_disabled":false,"rental_uris":{"android":"levelo://app?vid=db61c309-d30a-480c-a52d-907ad6c5d9d3","ios":"levelo://app?vid=db61c309-d30a-480c-a52d-907ad6c5d9d3"},"vehicle_type_id":"4","last_reported":1682770254,"current_range_meters":19200,"station_id":"ce4bgv12rcd13ifvqcp0","pricing_plan_id":"free"},{"bike_id":"0fbf79b9-b669-4f60-9d47-c99da8114d53","system_id":"levelo_inurba_marseille","lat":43.31165,"lon":5.38712,"is_reserved":false,"is_disabled":false,"rental_uris":{"android":"levelo://app?vid=0fbf79b9-b669-4f60-9d47-c99da8114d53","ios":"levelo://app?vid=0fbf79b9-b669-4f60-9d47-c99da8114d53"},"vehicle_type_id":"4","last_reported":1682770254,"current_range_meters":26400,"station_id":"ce4bgv12rcd13ifvqcp0","pricing_plan_id":"free"},{"bike_id":"b110afa3-3c43-4360-a16b-4f283ebe356c","system_id":"levelo_inurba_marseille","lat":43.299243,"lon":5.37481,"is_reserved":false,"is_disabled":false,"rental_uris":{"android":"levelo://app?vid=b110afa3-3c43-4360-a16b-4f283ebe356c","ios":"levelo://app?vid=b110afa3-3c43-4360-a16b-4f283ebe356c"},"vehicle_type_id":"4","last_reported":1682770254,"current_range_meters":31200,"station_id":"ce4bgjh2rcd13ifvqbg0","pricing_plan_id":"free"},{"bike_id":"52eb1c08-d2fe-4101-b7f2-a866d4679b3d","system_id":"levelo_inurba_marseille","lat":43.311722,"lon":5.387247,"is_reserved":false,"is_disabled":false,"rental_uris":{"android":"levelo://app?vid=52eb1c08-d2fe-4101-b7f2-a866d4679b3d","ios":"levelo://app?vid=52eb1c08-d2fe-4101-b7f2-a866d4679b3d"},"vehicle_type_id":"4","last_reported":1682770254,"current_range_meters":30400,"station_id":"ce4bgv12rcd13ifvqcp0","pricing_plan_id":"free"},{"bike_id":"2a2e895a-d06f-4171-8089-7b0c5c909b4c","system_id":"levelo_inurba_marseille","lat":43.311722,"lon":5.387247,"is_reserved":false,"is_disabled":false,"rental_uris":{"android":"levelo://app?vid=2a2e895a-d06f-4171-8089-7b0c5c909b4c","ios":"levelo://app?vid=2a2e895a-d06f-4171-8089-7b0c5c909b4c"},"vehicle_type_id":"4","last_reported":1682770254,"current_range_meters":31200,"station_id":"ce4bgv12rcd13ifvqcp0","pricing_plan_id":"free"},{"bike_id":"e1f5c470-a73c-473f-8793-abe4fa8c1e50","system_id":"levelo_inurba_marseille","lat":43.299243,"lon":5.37481,"is_reserved":false,"is_disabled":false,"rental_uris":{"android":"levelo://app?vid=e1f5c470-a73c-473f-8793-abe4fa8c1e50","ios":"levelo://app?vid=e1f5c470-a73c-473f-8793-abe4fa8c1e50"},"vehicle_type_id":"4","last_reported":1682770254,"current_range_meters":31600,"station_id":"ce4bgjh2rcd13ifvqbg0","pricing_plan_id":"free"},{"bike_id":"d4121490-b36a-4361-a9b5-ef655b1bbc1b","system_id":"levelo_inurba_marseille","lat":43.2991,"lon":5.37474,"is_reserved":false,"is_disabled":false,"rental_uris":{"android":"levelo://app?vid=d4121490-b36a-4361-a9b5-ef655b1bbc1b","ios":"levelo://app?vid=d4121490-b36a-4361-a9b5-ef655b1bbc1b"},"vehicle_type_id":"4","last_reported":1682770254,"current_range_meters":400,"station_id":"ce4bgjh2rcd13ifvqbg0","pricing_plan_id":"free"},{"bike_id":"bff01d71-e18e-4c5a-ab68-e56d46e40b70","system_id":"levelo_inurba_marseille","lat":43.299243,"lon":5.37481,"is_reserved":false,"is_disabled":false,"rental_uris":{"android":"levelo://app?vid=bff01d71-e18e-4c5a-ab68-e56d46e40b70","ios":"levelo://app?vid=bff01d71-e18e-4c5a-ab68-e56d46e40b70"},"vehicle_type_id":"4","last_reported":1682770254,"current_range_meters":31600,"station_id":"ce4bgjh2rcd13ifvqbg0","pricing_plan_id":"free"},{"bike_id":"257eaf00-5708-4f0d-bc73-9da9135de609","system_id":"levelo_inurba_marseille","lat":43.311722,"lon":5.387247,"is_reserved":false,"is_disabled":false,"rental_uris":{"android":"levelo://app?vid=257eaf00-5708-4f0d-bc73-9da9135de609","ios":"levelo://app?vid=257eaf00-5708-4f0d-bc73-9da9135de609"},"vehicle_type_id":"4","last_reported":1682770254,"current_range_meters":28000,"station_id":"ce4bgv12rcd13ifvqcp0","pricing_plan_id":"free"},{"bike_id":"295bf89a-7b1e-4e41-a924-4ce5cdc520ca","system_id":"levelo_inurba_marseille","lat":43.297774,"lon":5.370875,"is_reserved":false,"is_disabled":false,"rental_uris":{"android":"levelo://app?vid=295bf89a-7b1e-4e41-a924-4ce5cdc520ca","ios":"levelo://app?vid=295bf89a-7b1e-4e41-a924-4ce5cdc520ca"},"vehicle_type_id":"4","last_reported":1682770254,"current_range_meters":28400,"station_id":"ce4bgop2rcd13ifvqc1g","pricing_plan_id":"free"},{"bike_id":"3d589554-19c7-498c-9b06-ea374821d9dd","system_id":"levelo_inurba_marseille","lat":43.328371,"lon":5.366909,"is_reserved":false,"is_disabled":false,"rental_uris":{"android":"levelo://app?vid=3d589554-19c7-498c-9b06-ea374821d9dd","ios":"levelo://app?vid=3d589554-19c7-498c-9b06-ea374821d9dd"},"vehicle_type_id":"4","last_reported":1682770254,"current_range_meters":3200,"station_id":"ce4bhs92rcd13ifvqi0g","pricing_plan_id":"free"},{"bike_id":"08644927-eb7f-489d-9c7c-e0ff90f9ce50","system_id":"levelo_inurba_marseille","lat":43.328371,"lon":5.366909,"is_reserved":false,"is_disabled":false,"rental_uris":{"android":"levelo://app?vid=08644927-eb7f-489d-9c7c-e0ff90f9ce50","ios":"levelo://app?vid=08644927-eb7f-489d-9c7c-e0ff90f9ce50"},"vehicle_type_id":"4","last_reported":1682770254,"current_range_meters":24800,"station_id":"ce4bhs92rcd13ifvqi0g","pricing_plan_id":"free"},{"bike_id":"0f0a4223-dcf2-4b62-87ce-387671e76bee","system_id":"levelo_inurba_marseille","lat":43.328371,"lon":5.366909,"is_reserved":false,"is_disabled":false,"rental_uris":{"android":"levelo://app?vid=0f0a4223-dcf2-4b62-87ce-387671e76bee","ios":"levelo://app?vid=0f0a4223-dcf2-4b62-87ce-387671e76bee"},"vehicle_type_id":"4","last_reported":1682770254,"current_range_meters":26000,"station_id":"ce4bhs92rcd13ifvqi0g","pricing_plan_id":"free"},{"bike_id":"e5362430-c574-4d20-a937-d7b9f6439970","system_id":"levelo_inurba_marseille","lat":43.328371,"lon":5.366909,"is_reserved":false,"is_disabled":false,"rental_uris":{"android":"levelo://app?vid=e5362430-c574-4d20-a937-d7b9f6439970","ios":"levelo://app?vid=e5362430-c574-4d20-a937-d7b9f6439970"},"vehicle_type_id":"4","last_reported":1682770254,"current_range_meters":24800,"station_id":"ce4bhs92rcd13ifvqi0g","pricing_plan_id":"free"},{"bike_id":"b108af1c-52a2-4d66-842e-82203907ce31","system_id":"levelo_inurba_marseille","lat":43.32824,"lon":5.3668,"is_reserved":false,"is_disabled":false,"rental_uris":{"android":"levelo://app?vid=b108af1c-52a2-4d66-842e-82203907ce31","ios":"levelo://app?vid=b108af1c-52a2-4d66-842e-82203907ce31"},"vehicle_type_id":"4","last_reported":1682770254,"current_range_meters":24800,"station_id":"ce4bhs92rcd13ifvqi0g","pricing_plan_id":"free"},{"bike_id":"6aec0b92-f438-4158-b1a0-c8fef02f3b8c","system_id":"levelo_inurba_marseille","lat":43.328371,"lon":5.366909,"is_reserved":false,"is_disabled":false,"rental_uris":{"android":"levelo://app?vid=6aec0b92-f438-4158-b1a0-c8fef02f3b8c","ios":"levelo://app?vid=6aec0b92-f438-4158-b1a0-c8fef02f3b8c"},"vehicle_type_id":"4","last_reported":1682770254,"current_range_meters":4000,"station_id":"ce4bhs92rcd13ifvqi0g","pricing_plan_id":"free"},{"bike_id":"40722382-a264-43c9-a62c-84e2540e4858","system_id":"levelo_inurba_marseille","lat":43.328371,"lon":5.366909,"is_reserved":false,"is_disabled":false,"rental_uris":{"android":"levelo://app?vid=40722382-a264-43c9-a62c-84e2540e4858","ios":"levelo://app?vid=40722382-a264-43c9-a62c-84e2540e4858"},"vehicle_type_id":"4","last_reported":1682770254,"current_range_meters":19200,"station_id":"ce4bhs92rcd13ifvqi0g","pricing_plan_id":"free"},{"bike_id":"45907172-8581-46d8-8f9d-398fced94443","system_id":"levelo_inurba_marseille","lat":43.328371,"lon":5.366909,"is_reserved":false,"is_disabled":false,"rental_uris":{"android":"levelo://app?vid=45907172-8581-46d8-8f9d-398fced94443","ios":"levelo://app?vid=45907172-8581-46d8-8f9d-398fced94443"},"vehicle_type_id":"4","last_reported":1682770254,"current_range_meters":24800,"station_id":"ce4bhs92rcd13ifvqi0g","pricing_plan_id":"free"},{"bike_id":"d9827dac-fcd7-4cf7-bfcd-97aa0c35ee75","system_id":"levelo_inurba_marseille","lat":43.328371,"lon":5.366909,"is_reserved":false,"is_disabled":false,"rental_uris":{"android":"levelo://app?vid=d9827dac-fcd7-4cf7-bfcd-97aa0c35ee75","ios":"levelo://app?vid=d9827dac-fcd7-4cf7-bfcd-97aa0c35ee75"},"vehicle_type_id":"4","last_reported":1682770254,"current_range_meters":18000,"station_id":"ce4bhs92rcd13ifvqi0g","pricing_plan_id":"free"},{"bike_id":"72131f02-8298-4dda-b7e9-38703094e618","system_id":"levelo_inurba_marseille","lat":43.32826,"lon":5.36685,"is_reserved":false,"is_disabled":false,"rental_uris":{"android":"levelo://app?vid=72131f02-8298-4dda-b7e9-38703094e618","ios":"levelo://app?vid=72131f02-8298-4dda-b7e9-38703094e618"},"vehicle_type_id":"4","last_reported":1682770254,"current_range_meters":26800,"station_id":"ce4bhs92rcd13ifvqi0g","pricing_plan_id":"free"},{"bike_id":"e9c6e29d-7482-4781-86ae-e3bdd4a1a619","system_id":"levelo_inurba_marseille","lat":43.328371,"lon":5.366909,"is_reserved":false,"is_disabled":false,"rental_uris":{"android":"levelo://app?vid=e9c6e29d-7482-4781-86ae-e3bdd4a1a619","ios":"levelo://app?vid=e9c6e29d-7482-4781-86ae-e3bdd4a1a619"},"vehicle_type_id":"4","last_reported":1682770254,"current_range_meters":23600,"station_id":"ce4bhs92rcd13ifvqi0g","pricing_plan_id":"free"},{"bike_id":"b9d42b32-32e1-4084-8396-7d6973ac2dc1","system_id":"levelo_inurba_marseille","lat":43.30016,"lon":5.38001,"is_reserved":false,"is_disabled":false,"rental_uris":{"android":"levelo://app?vid=b9d42b32-32e1-4084-8396-7d6973ac2dc1","ios":"levelo://app?vid=b9d42b32-32e1-4084-8396-7d6973ac2dc1"},"vehicle_type_id":"4","last_reported":1682770254,"current_range_meters":12000,"station_id":"","pricing_plan_id":"free"},{"bike_id":"1f127f6f-ca15-487f-89ff-c26331d79060","system_id":"levelo_inurba_marseille","lat":43.32855,"lon":5.36765,"is_reserved":false,"is_disabled":false,"rental_uris":{"android":"levelo://app?vid=1f127f6f-ca15-487f-89ff-c26331d79060","ios":"levelo://app?vid=1f127f6f-ca15-487f-89ff-c26331d79060"},"vehicle_type_id":"4","last_reported":1682770254,"current_range_meters":15600,"station_id":"","pricing_plan_id":"free"},{"bike_id":"8c3f2389-5d6f-436d-bf8f-03bb8f5e76bd","system_id":"levelo_inurba_marseille","lat":43.32916,"lon":5.36692,"is_reserved":false,"is_disabled":false,"rental_uris":{"android":"levelo://app?vid=8c3f2389-5d6f-436d-bf8f-03bb8f5e76bd","ios":"levelo://app?vid=8c3f2389-5d6f-436d-bf8f-03bb8f5e76bd"},"vehicle_type_id":"4","last_reported":1682770254,"current_range_meters":4400,"station_id":"","pricing_plan_id":"free"},{"bike_id":"825f149d-cf98-43f8-8c4e-5fce1bd08fc2","system_id":"levelo_inurba_marseille","lat":43.2968,"lon":5.37291,"is_reserved":false,"is_disabled":false,"rental_uris":{"android":"levelo://app?vid=825f149d-cf98-43f8-8c4e-5fce1bd08fc2","ios":"levelo://app?vid=825f149d-cf98-43f8-8c4e-5fce1bd08fc2"},"vehicle_type_id":"4","last_reported":1682770254,"current_range_meters":23200,"station_id":"ce4bgk12rcd13ifvqbj0","pricing_plan_id":"free"},{"bike_id":"a9118968-5517-4a3f-995b-86e6e837b9ab","system_id":"levelo_inurba_marseille","lat":43.296131,"lon":5.370773,"is_reserved":false,"is_disabled":false,"rental_uris":{"android":"levelo://app?vid=a9118968-5517-4a3f-995b-86e6e837b9ab","ios":"levelo://app?vid=a9118968-5517-4a3f-995b-86e6e837b9ab"},"vehicle_type_id":"4","last_reported":1682770254,"current_range_meters":12000,"station_id":"ce4bgnh2rcd13ifvqc0g","pricing_plan_id":"free"},{"bike_id":"4ca3b6d9-2b83-4dd3-9b3a-b2d897ba0e83","system_id":"levelo_inurba_marseille","lat":43.296131,"lon":5.370791,"is_reserved":false,"is_disabled":false,"rental_uris":{"android":"levelo://app?vid=4ca3b6d9-2b83-4dd3-9b3a-b2d897ba0e83","ios":"levelo://app?vid=4ca3b6d9-2b83-4dd3-9b3a-b2d897ba0e83"},"vehicle_type_id":"4","last_reported":1682770254,"current_range_meters":27200,"station_id":"ce4bgnh2rcd13ifvqc0g","pricing_plan_id":"free"},{"bike_id":"366bb23e-e321-4a68-9fd3-3759d5ef036f","system_id":"levelo_inurba_marseille","lat":43.29621,"lon":5.3716,"is_reserved":false,"is_disabled":false,"rental_uris":{"android":"levelo://app?vid=366bb23e-e321-4a68-9fd3-3759d5ef036f","ios":"levelo://app?vid=366bb23e-e321-4a68-9fd3-3759d5ef036f"},"vehicle_type_id":"4","last_reported":1682770254,"current_range_meters":0,"station_id":"","pricing_plan_id":"free"},{"bike_id":"f80b3bd6-97e6-42a7-84b8-e48822735a74","system_id":"levelo_inurba_marseille","lat":43.296131,"lon":5.370791,"is_reserved":false,"is_disabled":false,"rental_uris":{"android":"levelo://app?vid=f80b3bd6-97e6-42a7-84b8-e48822735a74","ios":"levelo://app?vid=f80b3bd6-97e6-42a7-84b8-e48822735a74"},"vehicle_type_id":"4","last_reported":1682770254,"current_range_meters":14400,"station_id":"ce4bgnh2rcd13ifvqc0g","pricing_plan_id":"free"},{"bike_id":"5cd6594c-4877-460f-8d0e-4a45f797c8bc","system_id":"levelo_inurba_marseille","lat":43.296131,"lon":5.370773,"is_reserved":false,"is_disabled":false,"rental_uris":{"android":"levelo://app?vid=5cd6594c-4877-460f-8d0e-4a45f797c8bc","ios":"levelo://app?vid=5cd6594c-4877-460f-8d0e-4a45f797c8bc"},"vehicle_type_id":"4","last_reported":1682770254,"current_range_meters":13200,"station_id":"ce4bgnh2rcd13ifvqc0g","pricing_plan_id":"free"},{"bike_id":"778be564-ca5e-43a2-aa7e-2562a6cdcfd3","system_id":"levelo_inurba_marseille","lat":43.296131,"lon":5.370791,"is_reserved":false,"is_disabled":false,"rental_uris":{"android":"levelo://app?vid=778be564-ca5e-43a2-aa7e-2562a6cdcfd3","ios":"levelo://app?vid=778be564-ca5e-43a2-aa7e-2562a6cdcfd3"},"vehicle_type_id":"4","last_reported":1682770254,"current_range_meters":23200,"station_id":"ce4bgnh2rcd13ifvqc0g","pricing_plan_id":"free"},{"bike_id":"5f9cc222-91c4-42b2-8143-04fb51d40d80","system_id":"levelo_inurba_marseille","lat":43.296154,"lon":5.371557,"is_reserved":false,"is_disabled":false,"rental_uris":{"android":"levelo://app?vid=5f9cc222-91c4-42b2-8143-04fb51d40d80","ios":"levelo://app?vid=5f9cc222-91c4-42b2-8143-04fb51d40d80"},"vehicle_type_id":"4","last_reported":1682770254,"current_range_meters":18000,"station_id":"","pricing_plan_id":"free"},{"bike_id":"daa0bca5-4a96-40ae-88b0-dc93f883aaa5","system_id":"levelo_inurba_marseille","lat":43.296921,"lon":5.376579,"is_reserved":false,"is_disabled":false,"rental_uris":{"android":"levelo://app?vid=daa0bca5-4a96-40ae-88b0-dc93f883aaa5","ios":"levelo://app?vid=daa0bca5-4a96-40ae-88b0-dc93f883aaa5"},"vehicle_type_id":"4","last_reported":1682770254,"current_range_meters":24800,"station_id":"ce4bgkh2rcd13ifvqbl0","pricing_plan_id":"free"},{"bike_id":"e49ff215-08a7-44e0-9300-3e087b76d611","system_id":"levelo_inurba_marseille","lat":43.29909,"lon":5.38135,"is_reserved":false,"is_disabled":false,"rental_uris":{"android":"levelo://app?vid=e49ff215-08a7-44e0-9300-3e087b76d611","ios":"levelo://app?vid=e49ff215-08a7-44e0-9300-3e087b76d611"},"vehicle_type_id":"4","last_reported":1682770254,"current_range_meters":25600,"station_id":"ce4bgj12rcd13ifvqbc0","pricing_plan_id":"free"},{"bike_id":"6fc49bd8-b58e-4921-8ce9-fe2834ef2744","system_id":"levelo_inurba_marseille","lat":43.296921,"lon":5.376579,"is_reserved":false,"is_disabled":false,"rental_uris":{"android":"levelo://app?vid=6fc49bd8-b58e-4921-8ce9-fe2834ef2744","ios":"levelo://app?vid=6fc49bd8-b58e-4921-8ce9-fe2834ef2744"},"vehicle_type_id":"4","last_reported":1682770254,"current_range_meters":28000,"station_id":"ce4bgkh2rcd13ifvqbl0","pricing_plan_id":"free"},{"bike_id":"71623e23-4952-41a5-a158-024b0eab2add","system_id":"levelo_inurba_marseille","lat":43.29909,"lon":5.38141,"is_reserved":false,"is_disabled":false,"rental_uris":{"android":"levelo://app?vid=71623e23-4952-41a5-a158-024b0eab2add","ios":"levelo://app?vid=71623e23-4952-41a5-a158-024b0eab2add"},"vehicle_type_id":"4","last_reported":1682770254,"current_range_meters":24400,"station_id":"ce4bgj12rcd13ifvqbc0","pricing_plan_id":"free"},{"bike_id":"7ba6a3c1-05ea-44ae-a7c5-4ddf36b5fc92","system_id":"levelo_inurba_marseille","lat":43.309589,"lon":5.390258,"is_reserved":false,"is_disabled":false,"rental_uris":{"android":"levelo://app?vid=7ba6a3c1-05ea-44ae-a7c5-4ddf36b5fc92","ios":"levelo://app?vid=7ba6a3c1-05ea-44ae-a7c5-4ddf36b5fc92"},"vehicle_type_id":"4","last_reported":1682770254,"current_range_meters":15200,"station_id":"ce4bgup2rcd13ifvqco0","pricing_plan_id":"free"},{"bike_id":"aa9dbe83-7908-4e35-ba2a-74472fd651b2","system_id":"levelo_inurba_marseille","lat":43.299028,"lon":5.381509,"is_reserved":false,"is_disabled":false,"rental_uris":{"android":"levelo://app?vid=aa9dbe83-7908-4e35-ba2a-74472fd651b2","ios":"levelo://app?vid=aa9dbe83-7908-4e35-ba2a-74472fd651b2"},"vehicle_type_id":"4","last_reported":1682770254,"current_range_meters":30400,"station_id":"ce4bgj12rcd13ifvqbc0","pricing_plan_id":"free"},{"bike_id":"e934cf47-d581-40f0-88b6-9d68cc18de9e","system_id":"levelo_inurba_marseille","lat":43.299028,"lon":5.381509,"is_reserved":false,"is_disabled":false,"rental_uris":{"android":"levelo://app?vid=e934cf47-d581-40f0-88b6-9d68cc18de9e","ios":"levelo://app?vid=e934cf47-d581-40f0-88b6-9d68cc18de9e"},"vehicle_type_id":"4","last_reported":1682770254,"current_range_meters":30800,"station_id":"ce4bgj12rcd13ifvqbc0","pricing_plan_id":"free"},{"bike_id":"081d2e6b-92f3-4d07-abad-6512d94b5c39","system_id":"levelo_inurba_marseille","lat":43.299028,"lon":5.381509,"is_reserved":false,"is_disabled":false,"rental_uris":{"android":"levelo://app?vid=081d2e6b-92f3-4d07-abad-6512d94b5c39","ios":"levelo://app?vid=081d2e6b-92f3-4d07-abad-6512d94b5c39"},"vehicle_type_id":"4","last_reported":1682770254,"current_range_meters":31200,"station_id":"ce4bgj12rcd13ifvqbc0","pricing_plan_id":"free"},{"bike_id":"a50a24c7-0490-4f02-8875-e884d33ada6a","system_id":"levelo_inurba_marseille","lat":43.309589,"lon":5.390258,"is_reserved":false,"is_disabled":false,"rental_uris":{"android":"levelo://app?vid=a50a24c7-0490-4f02-8875-e884d33ada6a","ios":"levelo://app?vid=a50a24c7-0490-4f02-8875-e884d33ada6a"},"vehicle_type_id":"4","last_reported":1682770254,"current_range_meters":28800,"station_id":"ce4bgup2rcd13ifvqco0","pricing_plan_id":"free"},{"bike_id":"6158cffc-f00b-4a27-b170-e51812c47eed","system_id":"levelo_inurba_marseille","lat":43.299028,"lon":5.381509,"is_reserved":false,"is_disabled":false,"rental_uris":{"android":"levelo://app?vid=6158cffc-f00b-4a27-b170-e51812c47eed","ios":"levelo://app?vid=6158cffc-f00b-4a27-b170-e51812c47eed"},"vehicle_type_id":"4","last_reported":1682770254,"current_range_meters":25200,"station_id":"ce4bgj12rcd13ifvqbc0","pricing_plan_id":"free"},{"bike_id":"9328f984-8d99-4f46-bdeb-38d133dd6202","system_id":"levelo_inurba_marseille","lat":43.299028,"lon":5.381509,"is_reserved":false,"is_disabled":false,"rental_uris":{"android":"levelo://app?vid=9328f984-8d99-4f46-bdeb-38d133dd6202","ios":"levelo://app?vid=9328f984-8d99-4f46-bdeb-38d133dd6202"},"vehicle_type_id":"4","last_reported":1682770254,"current_range_meters":26400,"station_id":"ce4bgj12rcd13ifvqbc0","pricing_plan_id":"free"},{"bike_id":"d2141e91-6cea-404d-8e25-39e83856e3bd","system_id":"levelo_inurba_marseille","lat":43.309589,"lon":5.390258,"is_reserved":false,"is_disabled":false,"rental_uris":{"android":"levelo://app?vid=d2141e91-6cea-404d-8e25-39e83856e3bd","ios":"levelo://app?vid=d2141e91-6cea-404d-8e25-39e83856e3bd"},"vehicle_type_id":"4","last_reported":1682770254,"current_range_meters":23200,"station_id":"ce4bgup2rcd13ifvqco0","pricing_plan_id":"free"},{"bike_id":"8b561cbb-e8c5-4c98-9601-9f7dcca69883","system_id":"levelo_inurba_marseille","lat":43.296945,"lon":5.37696,"is_reserved":false,"is_disabled":false,"rental_uris":{"android":"levelo://app?vid=8b561cbb-e8c5-4c98-9601-9f7dcca69883","ios":"levelo://app?vid=8b561cbb-e8c5-4c98-9601-9f7dcca69883"},"vehicle_type_id":"4","last_reported":1682770254,"current_range_meters":17200,"station_id":"","pricing_plan_id":"free"},{"bike_id":"8424dc18-e9c4-48f6-ba07-72c6d5dec2a2","system_id":"levelo_inurba_marseille","lat":43.299028,"lon":5.381509,"is_reserved":false,"is_disabled":false,"rental_uris":{"android":"levelo://app?vid=8424dc18-e9c4-48f6-ba07-72c6d5dec2a2","ios":"levelo://app?vid=8424dc18-e9c4-48f6-ba07-72c6d5dec2a2"},"vehicle_type_id":"4","last_reported":1682770254,"current_range_meters":24800,"station_id":"ce4bgj12rcd13ifvqbc0","pricing_plan_id":"free"},{"bike_id":"b29d4033-92fa-46d9-acdc-32b1ff88f516","system_id":"levelo_inurba_marseille","lat":43.309589,"lon":5.390258,"is_reserved":false,"is_disabled":false,"rental_uris":{"android":"levelo://app?vid=b29d4033-92fa-46d9-acdc-32b1ff88f516","ios":"levelo://app?vid=b29d4033-92fa-46d9-acdc-32b1ff88f516"},"vehicle_type_id":"4","last_reported":1682770254,"current_range_meters":31200,"station_id":"ce4bgup2rcd13ifvqco0","pricing_plan_id":"free"},{"bike_id":"c69cdbe2-2120-41d7-937b-d0e1529d71ff","system_id":"levelo_inurba_marseille","lat":43.309589,"lon":5.390258,"is_reserved":false,"is_disabled":false,"rental_uris":{"android":"levelo://app?vid=c69cdbe2-2120-41d7-937b-d0e1529d71ff","ios":"levelo://app?vid=c69cdbe2-2120-41d7-937b-d0e1529d71ff"},"vehicle_type_id":"4","last_reported":1682770254,"current_range_meters":31200,"station_id":"ce4bgup2rcd13ifvqco0","pricing_plan_id":"free"},{"bike_id":"b7a8cac8-6970-4fb5-b718-c91f40e2a1da","system_id":"levelo_inurba_marseille","lat":43.298037,"lon":5.381066,"is_reserved":false,"is_disabled":false,"rental_uris":{"android":"levelo://app?vid=b7a8cac8-6970-4fb5-b718-c91f40e2a1da","ios":"levelo://app?vid=b7a8cac8-6970-4fb5-b718-c91f40e2a1da"},"vehicle_type_id":"4","last_reported":1682770254,"current_range_meters":31200,"station_id":"ce4bgip2rcd13ifvqbb0","pricing_plan_id":"free"},{"bike_id":"21801d89-2c4d-4c0c-a445-2495dc347a4d","system_id":"levelo_inurba_marseille","lat":43.298037,"lon":5.381066,"is_reserved":false,"is_disabled":false,"rental_uris":{"android":"levelo://app?vid=21801d89-2c4d-4c0c-a445-2495dc347a4d","ios":"levelo://app?vid=21801d89-2c4d-4c0c-a445-2495dc347a4d"},"vehicle_type_id":"4","last_reported":1682770254,"current_range_meters":31600,"station_id":"ce4bgip2rcd13ifvqbb0","pricing_plan_id":"free"},{"bike_id":"78d1acaf-fabc-4d7b-b16a-17bbc3af9358","system_id":"levelo_inurba_marseille","lat":43.298037,"lon":5.381066,"is_reserved":false,"is_disabled":false,"rental_uris":{"android":"levelo://app?vid=78d1acaf-fabc-4d7b-b16a-17bbc3af9358","ios":"levelo://app?vid=78d1acaf-fabc-4d7b-b16a-17bbc3af9358"},"vehicle_type_id":"4","last_reported":1682770254,"current_range_meters":26400,"station_id":"ce4bgip2rcd13ifvqbb0","pricing_plan_id":"free"},{"bike_id":"8ad17418-5ffb-4006-aff9-c917adff410a","system_id":"levelo_inurba_marseille","lat":43.298037,"lon":5.381066,"is_reserved":false,"is_disabled":false,"rental_uris":{"android":"levelo://app?vid=8ad17418-5ffb-4006-aff9-c917adff410a","ios":"levelo://app?vid=8ad17418-5ffb-4006-aff9-c917adff410a"},"vehicle_type_id":"4","last_reported":1682770254,"current_range_meters":29200,"station_id":"ce4bgip2rcd13ifvqbb0","pricing_plan_id":"free"},{"bike_id":"fe9101ce-78e1-4da9-8ab7-85b621b667f6","system_id":"levelo_inurba_marseille","lat":43.298037,"lon":5.381066,"is_reserved":false,"is_disabled":false,"rental_uris":{"android":"levelo://app?vid=fe9101ce-78e1-4da9-8ab7-85b621b667f6","ios":"levelo://app?vid=fe9101ce-78e1-4da9-8ab7-85b621b667f6"},"vehicle_type_id":"4","last_reported":1682770254,"current_range_meters":31200,"station_id":"ce4bgip2rcd13ifvqbb0","pricing_plan_id":"free"},{"bike_id":"dd482489-de91-4ad7-8d08-178f4d1bc4c0","system_id":"levelo_inurba_marseille","lat":43.29802,"lon":5.38096,"is_reserved":false,"is_disabled":false,"rental_uris":{"android":"levelo://app?vid=dd482489-de91-4ad7-8d08-178f4d1bc4c0","ios":"levelo://app?vid=dd482489-de91-4ad7-8d08-178f4d1bc4c0"},"vehicle_type_id":"4","last_reported":1682770254,"current_range_meters":2800,"station_id":"ce4bgip2rcd13ifvqbb0","pricing_plan_id":"free"},{"bike_id":"3f782b52-eadf-4cf4-a661-9ececa02e15f","system_id":"levelo_inurba_marseille","lat":43.298037,"lon":5.381066,"is_reserved":false,"is_disabled":false,"rental_uris":{"android":"levelo://app?vid=3f782b52-eadf-4cf4-a661-9ececa02e15f","ios":"levelo://app?vid=3f782b52-eadf-4cf4-a661-9ececa02e15f"},"vehicle_type_id":"4","last_reported":1682770254,"current_range_meters":31200,"station_id":"ce4bgip2rcd13ifvqbb0","pricing_plan_id":"free"},{"bike_id":"3359a418-264c-4838-9574-8476da296464","system_id":"levelo_inurba_marseille","lat":43.298037,"lon":5.381066,"is_reserved":false,"is_disabled":false,"rental_uris":{"android":"levelo://app?vid=3359a418-264c-4838-9574-8476da296464","ios":"levelo://app?vid=3359a418-264c-4838-9574-8476da296464"},"vehicle_type_id":"4","last_reported":1682770254,"current_range_meters":31200,"station_id":"ce4bgip2rcd13ifvqbb0","pricing_plan_id":"free"},{"bike_id":"e89d6125-f3d2-490e-b7be-0032fc9c8dcb","system_id":"levelo_inurba_marseille","lat":43.298037,"lon":5.381066,"is_reserved":false,"is_disabled":false,"rental_uris":{"android":"levelo://app?vid=e89d6125-f3d2-490e-b7be-0032fc9c8dcb","ios":"levelo://app?vid=e89d6125-f3d2-490e-b7be-0032fc9c8dcb"},"vehicle_type_id":"4","last_reported":1682770254,"current_range_meters":30400,"station_id":"ce4bgip2rcd13ifvqbb0","pricing_plan_id":"free"},{"bike_id":"da1310e9-af62-4c0c-9b7f-0463ef34a9ad","system_id":"levelo_inurba_marseille","lat":43.298037,"lon":5.381066,"is_reserved":false,"is_disabled":false,"rental_uris":{"android":"levelo://app?vid=da1310e9-af62-4c0c-9b7f-0463ef34a9ad","ios":"levelo://app?vid=da1310e9-af62-4c0c-9b7f-0463ef34a9ad"},"vehicle_type_id":"4","last_reported":1682770254,"current_range_meters":31200,"station_id":"ce4bgip2rcd13ifvqbb0","pricing_plan_id":"free"},{"bike_id":"9215b165-6ad1-442c-94ec-e43a63b9ca45","system_id":"levelo_inurba_marseille","lat":43.304278,"lon":5.388868,"is_reserved":false,"is_disabled":false,"rental_uris":{"android":"levelo://app?vid=9215b165-6ad1-442c-94ec-e43a63b9ca45","ios":"levelo://app?vid=9215b165-6ad1-442c-94ec-e43a63b9ca45"},"vehicle_type_id":"4","last_reported":1682770254,"current_range_meters":11600,"station_id":"ce4bgk12rcd13ifvqbi0","pricing_plan_id":"free"},{"bike_id":"a86c2a41-d567-4585-9acb-f0802ec040c6","system_id":"levelo_inurba_marseille","lat":43.296277,"lon":5.377108,"is_reserved":false,"is_disabled":false,"rental_uris":{"android":"levelo://app?vid=a86c2a41-d567-4585-9acb-f0802ec040c6","ios":"levelo://app?vid=a86c2a41-d567-4585-9acb-f0802ec040c6"},"vehicle_type_id":"4","last_reported":1682770254,"current_range_meters":31200,"station_id":"ce4bgi92rcd13ifvqb90","pricing_plan_id":"free"},{"bike_id":"6a37840a-6090-4c22-87e2-8f3a1d88b1b4","system_id":"levelo_inurba_marseille","lat":43.304278,"lon":5.388868,"is_reserved":false,"is_disabled":false,"rental_uris":{"android":"levelo://app?vid=6a37840a-6090-4c22-87e2-8f3a1d88b1b4","ios":"levelo://app?vid=6a37840a-6090-4c22-87e2-8f3a1d88b1b4"},"vehicle_type_id":"4","last_reported":1682770254,"current_range_meters":30800,"station_id":"ce4bgk12rcd13ifvqbi0","pricing_plan_id":"free"},{"bike_id":"141ebe3c-0102-4ca9-9601-b4d9c4cefd98","system_id":"levelo_inurba_marseille","lat":43.304278,"lon":5.388868,"is_reserved":false,"is_disabled":false,"rental_uris":{"android":"levelo://app?vid=141ebe3c-0102-4ca9-9601-b4d9c4cefd98","ios":"levelo://app?vid=141ebe3c-0102-4ca9-9601-b4d9c4cefd98"},"vehicle_type_id":"4","last_reported":1682770254,"current_range_meters":27200,"station_id":"ce4bgk12rcd13ifvqbi0","pricing_plan_id":"free"},{"bike_id":"596e7781-e132-46b7-8680-4f032ae48368","system_id":"levelo_inurba_marseille","lat":43.304274,"lon":5.388873,"is_reserved":false,"is_disabled":false,"rental_uris":{"android":"levelo://app?vid=596e7781-e132-46b7-8680-4f032ae48368","ios":"levelo://app?vid=596e7781-e132-46b7-8680-4f032ae48368"},"vehicle_type_id":"4","last_reported":1682770254,"current_range_meters":21600,"station_id":"ce4bgk12rcd13ifvqbi0","pricing_plan_id":"free"},{"bike_id":"080a2a9e-9f3e-4ad3-8d0a-f7d0390c0dc3","system_id":"levelo_inurba_marseille","lat":43.304278,"lon":5.388868,"is_reserved":false,"is_disabled":false,"rental_uris":{"android":"levelo://app?vid=080a2a9e-9f3e-4ad3-8d0a-f7d0390c0dc3","ios":"levelo://app?vid=080a2a9e-9f3e-4ad3-8d0a-f7d0390c0dc3"},"vehicle_type_id":"4","last_reported":1682770254,"current_range_meters":17600,"station_id":"ce4bgk12rcd13ifvqbi0","pricing_plan_id":"free"},{"bike_id":"ef18e0d7-1c05-44a2-b359-499c9c3bbcd9","system_id":"levelo_inurba_marseille","lat":43.304278,"lon":5.388868,"is_reserved":false,"is_disabled":false,"rental_uris":{"android":"levelo://app?vid=ef18e0d7-1c05-44a2-b359-499c9c3bbcd9","ios":"levelo://app?vid=ef18e0d7-1c05-44a2-b359-499c9c3bbcd9"},"vehicle_type_id":"4","last_reported":1682770254,"current_range_meters":14000,"station_id":"ce4bgk12rcd13ifvqbi0","pricing_plan_id":"free"},{"bike_id":"64f3b82c-b0ee-4049-addc-48defe1b2acc","system_id":"levelo_inurba_marseille","lat":43.304274,"lon":5.388873,"is_reserved":false,"is_disabled":false,"rental_uris":{"android":"levelo://app?vid=64f3b82c-b0ee-4049-addc-48defe1b2acc","ios":"levelo://app?vid=64f3b82c-b0ee-4049-addc-48defe1b2acc"},"vehicle_type_id":"4","last_reported":1682770254,"current_range_meters":10000,"station_id":"ce4bgk12rcd13ifvqbi0","pricing_plan_id":"free"},{"bike_id":"ce33f040-913a-4a0f-8f81-0f7b69df7be1","system_id":"levelo_inurba_marseille","lat":43.304274,"lon":5.388873,"is_reserved":false,"is_disabled":false,"rental_uris":{"android":"levelo://app?vid=ce33f040-913a-4a0f-8f81-0f7b69df7be1","ios":"levelo://app?vid=ce33f040-913a-4a0f-8f81-0f7b69df7be1"},"vehicle_type_id":"4","last_reported":1682770254,"current_range_meters":31200,"station_id":"ce4bgk12rcd13ifvqbi0","pricing_plan_id":"free"},{"bike_id":"8b37d0ab-5ffa-43af-95c7-31e8fddd4e72","system_id":"levelo_inurba_marseille","lat":43.29611,"lon":5.37697,"is_reserved":false,"is_disabled":false,"rental_uris":{"android":"levelo://app?vid=8b37d0ab-5ffa-43af-95c7-31e8fddd4e72","ios":"levelo://app?vid=8b37d0ab-5ffa-43af-95c7-31e8fddd4e72"},"vehicle_type_id":"4","last_reported":1682770254,"current_range_meters":11600,"station_id":"","pricing_plan_id":"free"},{"bike_id":"a048d13d-88a1-4f18-b813-9a28c66c3c29","system_id":"levelo_inurba_marseille","lat":43.299717,"lon":5.384845,"is_reserved":false,"is_disabled":false,"rental_uris":{"android":"levelo://app?vid=a048d13d-88a1-4f18-b813-9a28c66c3c29","ios":"levelo://app?vid=a048d13d-88a1-4f18-b813-9a28c66c3c29"},"vehicle_type_id":"4","last_reported":1682770254,"current_range_meters":5600,"station_id":"ce4bgj92rcd13ifvqbd0","pricing_plan_id":"free"},{"bike_id":"4877242a-25a6-4def-9dcc-f053ba1a34bb","system_id":"levelo_inurba_marseille","lat":43.299717,"lon":5.384845,"is_reserved":false,"is_disabled":false,"rental_uris":{"android":"levelo://app?vid=4877242a-25a6-4def-9dcc-f053ba1a34bb","ios":"levelo://app?vid=4877242a-25a6-4def-9dcc-f053ba1a34bb"},"vehicle_type_id":"4","last_reported":1682770254,"current_range_meters":3200,"station_id":"ce4bgj92rcd13ifvqbd0","pricing_plan_id":"free"},{"bike_id":"04c0efdf-097a-4848-9b2f-ae2fc1cc1c9d","system_id":"levelo_inurba_marseille","lat":43.29514,"lon":5.37488,"is_reserved":false,"is_disabled":false,"rental_uris":{"android":"levelo://app?vid=04c0efdf-097a-4848-9b2f-ae2fc1cc1c9d","ios":"levelo://app?vid=04c0efdf-097a-4848-9b2f-ae2fc1cc1c9d"},"vehicle_type_id":"4","last_reported":1682770254,"current_range_meters":5600,"station_id":"ce4bgkp2rcd13ifvqbmg","pricing_plan_id":"free"},{"bike_id":"35a6361b-8d75-4386-9e65-805c13ef718e","system_id":"levelo_inurba_marseille","lat":43.299717,"lon":5.384845,"is_reserved":false,"is_disabled":false,"rental_uris":{"android":"levelo://app?vid=35a6361b-8d75-4386-9e65-805c13ef718e","ios":"levelo://app?vid=35a6361b-8d75-4386-9e65-805c13ef718e"},"vehicle_type_id":"4","last_reported":1682770254,"current_range_meters":29200,"station_id":"ce4bgj92rcd13ifvqbd0","pricing_plan_id":"free"},{"bike_id":"0dbd9ae1-8b33-46b2-9ee1-a74b146f8124","system_id":"levelo_inurba_marseille","lat":43.3143,"lon":5.39279,"is_reserved":false,"is_disabled":false,"rental_uris":{"android":"levelo://app?vid=0dbd9ae1-8b33-46b2-9ee1-a74b146f8124","ios":"levelo://app?vid=0dbd9ae1-8b33-46b2-9ee1-a74b146f8124"},"vehicle_type_id":"4","last_reported":1682770254,"current_range_meters":22000,"station_id":"","pricing_plan_id":"free"},{"bike_id":"ea0a5240-f3c9-41a4-932c-11f2248938d5","system_id":"levelo_inurba_marseille","lat":43.31431,"lon":5.3928,"is_reserved":false,"is_disabled":false,"rental_uris":{"android":"levelo://app?vid=ea0a5240-f3c9-41a4-932c-11f2248938d5","ios":"levelo://app?vid=ea0a5240-f3c9-41a4-932c-11f2248938d5"},"vehicle_type_id":"4","last_reported":1682770254,"current_range_meters":28000,"station_id":"","pricing_plan_id":"free"},{"bike_id":"28e94744-abb3-4e37-a0c7-9bfd1388b1e1","system_id":"levelo_inurba_marseille","lat":43.323691,"lon":5.388847,"is_reserved":false,"is_disabled":false,"rental_uris":{"android":"levelo://app?vid=28e94744-abb3-4e37-a0c7-9bfd1388b1e1","ios":"levelo://app?vid=28e94744-abb3-4e37-a0c7-9bfd1388b1e1"},"vehicle_type_id":"4","last_reported":1682770254,"current_range_meters":31200,"station_id":"","pricing_plan_id":"free"},{"bike_id":"f8d51bb9-9578-4009-aa8e-e27177297732","system_id":"levelo_inurba_marseille","lat":43.32367,"lon":5.38894,"is_reserved":false,"is_disabled":false,"rental_uris":{"android":"levelo://app?vid=f8d51bb9-9578-4009-aa8e-e27177297732","ios":"levelo://app?vid=f8d51bb9-9578-4009-aa8e-e27177297732"},"vehicle_type_id":"4","last_reported":1682770254,"current_range_meters":31200,"station_id":"","pricing_plan_id":"free"},{"bike_id":"8b87a041-e877-461c-9ab7-1bd285cd2f35","system_id":"levelo_inurba_marseille","lat":43.2928,"lon":5.3685,"is_reserved":false,"is_disabled":false,"rental_uris":{"android":"levelo://app?vid=8b87a041-e877-461c-9ab7-1bd285cd2f35","ios":"levelo://app?vid=8b87a041-e877-461c-9ab7-1bd285cd2f35"},"vehicle_type_id":"4","last_reported":1682770254,"current_range_meters":26800,"station_id":"","pricing_plan_id":"free"},{"bike_id":"8401c394-fefe-4eca-bcf4-f7dca5332401","system_id":"levelo_inurba_marseille","lat":43.293249,"lon":5.371578,"is_reserved":false,"is_disabled":false,"rental_uris":{"android":"levelo://app?vid=8401c394-fefe-4eca-bcf4-f7dca5332401","ios":"levelo://app?vid=8401c394-fefe-4eca-bcf4-f7dca5332401"},"vehicle_type_id":"4","last_reported":1682770254,"current_range_meters":21600,"station_id":"ce4bgh92rcd13ifvqb40","pricing_plan_id":"free"},{"bike_id":"75ba8be2-3e6f-464d-8a2f-a14912f430bf","system_id":"levelo_inurba_marseille","lat":43.29275,"lon":5.3685,"is_reserved":false,"is_disabled":false,"rental_uris":{"android":"levelo://app?vid=75ba8be2-3e6f-464d-8a2f-a14912f430bf","ios":"levelo://app?vid=75ba8be2-3e6f-464d-8a2f-a14912f430bf"},"vehicle_type_id":"4","last_reported":1682770254,"current_range_meters":7200,"station_id":"","pricing_plan_id":"free"},{"bike_id":"83fc3607-5d88-4985-87f1-b2405af2288d","system_id":"levelo_inurba_marseille","lat":43.293249,"lon":5.371578,"is_reserved":false,"is_disabled":false,"rental_uris":{"android":"levelo://app?vid=83fc3607-5d88-4985-87f1-b2405af2288d","ios":"levelo://app?vid=83fc3607-5d88-4985-87f1-b2405af2288d"},"vehicle_type_id":"4","last_reported":1682770254,"current_range_meters":25600,"station_id":"ce4bgh92rcd13ifvqb40","pricing_plan_id":"free"},{"bike_id":"02635ac7-c5cb-4c9a-8a7d-c2e97e6a5f28","system_id":"levelo_inurba_marseille","lat":43.293249,"lon":5.371578,"is_reserved":false,"is_disabled":false,"rental_uris":{"android":"levelo://app?vid=02635ac7-c5cb-4c9a-8a7d-c2e97e6a5f28","ios":"levelo://app?vid=02635ac7-c5cb-4c9a-8a7d-c2e97e6a5f28"},"vehicle_type_id":"4","last_reported":1682770254,"current_range_meters":3200,"station_id":"ce4bgh92rcd13ifvqb40","pricing_plan_id":"free"},{"bike_id":"a18df886-5d75-431f-aae6-4b37a536e580","system_id":"levelo_inurba_marseille","lat":43.293249,"lon":5.371578,"is_reserved":false,"is_disabled":false,"rental_uris":{"android":"levelo://app?vid=a18df886-5d75-431f-aae6-4b37a536e580","ios":"levelo://app?vid=a18df886-5d75-431f-aae6-4b37a536e580"},"vehicle_type_id":"4","last_reported":1682770254,"current_range_meters":14800,"station_id":"ce4bgh92rcd13ifvqb40","pricing_plan_id":"free"},{"bike_id":"da42066b-3858-4b72-bf11-18f3279fa791","system_id":"levelo_inurba_marseille","lat":43.2927,"lon":5.36841,"is_reserved":false,"is_disabled":false,"rental_uris":{"android":"levelo://app?vid=da42066b-3858-4b72-bf11-18f3279fa791","ios":"levelo://app?vid=da42066b-3858-4b72-bf11-18f3279fa791"},