{"last_updated":1728382169,"ttl":60,"version":"2.2","data":{"bikes":[{"bike_id":"0325e264-d312-4071-970e-71037a052818","system_id":"levelo_inurba_marseille","lat":43.30882,"lon":5.372,"is_reserved":false,"is_disabled":false,"rental_uris":{"android":"levelo://app?vid=0325e264-d312-4071-970e-71037a052818","ios":"levelo://app?vid=0325e264-d312-4071-970e-71037a052818"},"vehicle_type_id":"4","last_reported":1728382169,"current_range_meters":8800,"station_id":"ce4bguh2rcd13ifvqckg","pricing_plan_id":"cebpf4jnsgd1na2vs0mg"},{"bike_id":"e459cdc1-c273-4c9b-84b9-a152259d2afa","system_id":"levelo_inurba_marseille","lat":43.303218,"lon":5.369089,"is_reserved":false,"is_disabled":false,"rental_uris":{"android":"levelo://app?vid=e459cdc1-c273-4c9b-84b9-a152259d2afa","ios":"levelo://app?vid=e459cdc1-c273-4c9b-84b9-a152259d2afa"},"vehicle_type_id":"4","last_reported":1728382169,"current_range_meters":18000,"station_id":"ce4bgqh2rcd13ifvqc5g","pricing_plan_id":"cebpf4jnsgd1na2vs0mg"},{"bike_id":"e9cf1c78-d7cb-49f1-a6e4-b9e06b7768b9","system_id":"levelo_inurba_marseille","lat":43.24649,"lon":5.38896,"is_reserved":false,"is_disabled":false,"rental_uris":{"android":"levelo://app?vid=e9cf1c78-d7cb-49f1-a6e4-b9e06b7768b9","ios":"levelo://app?vid=e9cf1c78-d7cb-49f1-a6e4-b9e06b7768b9"},"vehicle_type_id":"4","last_reported":1728382169,"current_range_meters":38800,"station_id":"ce4bhg12rcd13ifvqf60","pricing_plan_id":"cebpf4jnsgd1na2vs0mg"},{"bike_id":"68cc9b2e-3bdd-4866-a986-7cead00d4cfc","system_id":"levelo_inurba_marseille","lat":43.33751,"lon":5.37442,"is_reserved":false,"is_disabled":false,"rental_uris":{"android":"levelo://app?vid=68cc9b2e-3bdd-4866-a986-7cead00d4cfc","ios":"levelo://app?vid=68cc9b2e-3bdd-4866-a986-7cead00d4cfc"},"vehicle_type_id":"4","last_reported":1728382169,"current_range_meters":36400,"station_id":"","pricing_plan_id":"cebpf4jnsgd1na2vs0mg"},{"bike_id":"6ea71e61-0162-482a-8abc-aba97e9028bf","system_id":"levelo_inurba_marseille","lat":43.28142,"lon":5.42644,"is_reserved":false,"is_disabled":false,"rental_uris":{"android":"levelo://app?vid=6ea71e61-0162-482a-8abc-aba97e9028bf","ios":"levelo://app?vid=6ea71e61-0162-482a-8abc-aba97e9028bf"},"vehicle_type_id":"4","last_reported":1728382169,"current_range_meters":38000,"station_id":"ce4bhnh2rcd13ifvqgug","pricing_plan_id":"cebpf4jnsgd1na2vs0mg"},{"bike_id":"3cede6ff-185c-49e1-876a-ac4479c4ecc0","system_id":"levelo_inurba_marseille","lat":43.27217,"lon":5.39185,"is_reserved":false,"is_disabled":false,"rental_uris":{"android":"levelo://app?vid=3cede6ff-185c-49e1-876a-ac4479c4ecc0","ios":"levelo://app?vid=3cede6ff-185c-49e1-876a-ac4479c4ecc0"},"vehicle_type_id":"4","last_reported":1728382169,"current_range_meters":39200,"station_id":"ce4bhhp2rcd13ifvqfm0","pricing_plan_id":"cebpf4jnsgd1na2vs0mg"},{"bike_id":"21043ddc-1385-4a23-bc94-429cb4387c04","system_id":"levelo_inurba_marseille","lat":43.23966,"lon":5.36632,"is_reserved":false,"is_disabled":false,"rental_uris":{"android":"levelo://app?vid=21043ddc-1385-4a23-bc94-429cb4387c04","ios":"levelo://app?vid=21043ddc-1385-4a23-bc94-429cb4387c04"},"vehicle_type_id":"4","last_reported":1728382169,"current_range_meters":18000,"station_id":"ce4bhi12rcd13ifvqfp0","pricing_plan_id":"cebpf4jnsgd1na2vs0mg"},{"bike_id":"9d8c9c66-8d32-4ea1-9237-0c6cf146c32e","system_id":"levelo_inurba_marseille","lat":43.28698,"lon":5.39983,"is_reserved":false,"is_disabled":false,"rental_uris":{"android":"levelo://app?vid=9d8c9c66-8d32-4ea1-9237-0c6cf146c32e","ios":"levelo://app?vid=9d8c9c66-8d32-4ea1-9237-0c6cf146c32e"},"vehicle_type_id":"4","last_reported":1728382169,"current_range_meters":38000,"station_id":"ce4bho92rcd13ifvqh3g","pricing_plan_id":"cebpf4jnsgd1na2vs0mg"},{"bike_id":"3edccbad-c604-40df-acb2-6e9d91b67298","system_id":"levelo_inurba_marseille","lat":43.23053,"lon":5.35494,"is_reserved":false,"is_disabled":false,"rental_uris":{"android":"levelo://app?vid=3edccbad-c604-40df-acb2-6e9d91b67298","ios":"levelo://app?vid=3edccbad-c604-40df-acb2-6e9d91b67298"},"vehicle_type_id":"4","last_reported":1728382169,"current_range_meters":16000,"station_id":"cpo3342slgdg3j2ifvpg","pricing_plan_id":"cebpf4jnsgd1na2vs0mg"},{"bike_id":"5e55ff59-a486-4491-8e1d-bdae7e9aa0f4","system_id":"levelo_inurba_marseille","lat":43.30542,"lon":5.36694,"is_reserved":false,"is_disabled":false,"rental_uris":{"android":"levelo://app?vid=5e55ff59-a486-4491-8e1d-bdae7e9aa0f4","ios":"levelo://app?vid=5e55ff59-a486-4491-8e1d-bdae7e9aa0f4"},"vehicle_type_id":"4","last_reported":1728382169,"current_range_meters":20400,"station_id":"ce4bgrp2rcd13ifvqc9g","pricing_plan_id":"cebpf4jnsgd1na2vs0mg"},{"bike_id":"06deaa84-8d1b-4e48-b91a-beee7f49e7c4","system_id":"levelo_inurba_marseille","lat":43.30925,"lon":5.40158,"is_reserved":false,"is_disabled":false,"rental_uris":{"android":"levelo://app?vid=06deaa84-8d1b-4e48-b91a-beee7f49e7c4","ios":"levelo://app?vid=06deaa84-8d1b-4e48-b91a-beee7f49e7c4"},"vehicle_type_id":"4","last_reported":1728382169,"current_range_meters":9200,"station_id":"ce4bgvp2rcd13ifvqct0","pricing_plan_id":"cebpf4jnsgd1na2vs0mg"},{"bike_id":"4a2aa11a-a153-469f-88fd-3adfadc9f5b1","system_id":"levelo_inurba_marseille","lat":43.31752,"lon":5.3901,"is_reserved":false,"is_disabled":false,"rental_uris":{"android":"levelo://app?vid=4a2aa11a-a153-469f-88fd-3adfadc9f5b1","ios":"levelo://app?vid=4a2aa11a-a153-469f-88fd-3adfadc9f5b1"},"vehicle_type_id":"4","last_reported":1728382169,"current_range_meters":33600,"station_id":"ce4bhqp2rcd13ifvqhng","pricing_plan_id":"cebpf4jnsgd1na2vs0mg"},{"bike_id":"09c86d2a-7e11-4c9e-bec7-62f912b5a3ed","system_id":"levelo_inurba_marseille","lat":43.306435,"lon":5.400835,"is_reserved":false,"is_disabled":false,"rental_uris":{"android":"levelo://app?vid=09c86d2a-7e11-4c9e-bec7-62f912b5a3ed","ios":"levelo://app?vid=09c86d2a-7e11-4c9e-bec7-62f912b5a3ed"},"vehicle_type_id":"4","last_reported":1728382169,"current_range_meters":8000,"station_id":"ce4bh112rcd13ifvqda0","pricing_plan_id":"cebpf4jnsgd1na2vs0mg"},{"bike_id":"7f8896c9-e044-4169-ba02-75989da632b5","system_id":"levelo_inurba_marseille","lat":43.24812,"lon":5.37462,"is_reserved":false,"is_disabled":false,"rental_uris":{"android":"levelo://app?vid=7f8896c9-e044-4169-ba02-75989da632b5","ios":"levelo://app?vid=7f8896c9-e044-4169-ba02-75989da632b5"},"vehicle_type_id":"4","last_reported":1728382169,"current_range_meters":38000,"station_id":"ce4bhgh2rcd13ifvqfb0","pricing_plan_id":"cebpf4jnsgd1na2vs0mg"},{"bike_id":"f1fcf759-323f-47ed-8065-17977692e5a8","system_id":"levelo_inurba_marseille","lat":43.336095,"lon":5.410167,"is_reserved":false,"is_disabled":false,"rental_uris":{"android":"levelo://app?vid=f1fcf759-323f-47ed-8065-17977692e5a8","ios":"levelo://app?vid=f1fcf759-323f-47ed-8065-17977692e5a8"},"vehicle_type_id":"4","last_reported":1728382169,"current_range_meters":31200,"station_id":"ce4bhqh2rcd13ifvqhmg","pricing_plan_id":"cebpf4jnsgd1na2vs0mg"},{"bike_id":"c605ca90-53cc-4212-ba21-30fe1e413775","system_id":"levelo_inurba_marseille","lat":43.29705,"lon":5.36609,"is_reserved":false,"is_disabled":false,"rental_uris":{"android":"levelo://app?vid=c605ca90-53cc-4212-ba21-30fe1e413775","ios":"levelo://app?vid=c605ca90-53cc-4212-ba21-30fe1e413775"},"vehicle_type_id":"4","last_reported":1728382169,"current_range_meters":33600,"station_id":"ce4bgn12rcd13ifvqbt0","pricing_plan_id":"cebpf4jnsgd1na2vs0mg"},{"bike_id":"81b07a05-4c57-4e76-99d6-5f6e3acbb201","system_id":"levelo_inurba_marseille","lat":43.23062,"lon":5.35496,"is_reserved":false,"is_disabled":false,"rental_uris":{"android":"levelo://app?vid=81b07a05-4c57-4e76-99d6-5f6e3acbb201","ios":"levelo://app?vid=81b07a05-4c57-4e76-99d6-5f6e3acbb201"},"vehicle_type_id":"4","last_reported":1728382169,"current_range_meters":8000,"station_id":"cpo3342slgdg3j2ifvpg","pricing_plan_id":"cebpf4jnsgd1na2vs0mg"},{"bike_id":"5d0cfb3f-5675-4335-8763-f04c2ed870c8","system_id":"levelo_inurba_marseille","lat":43.29001,"lon":5.35607,"is_reserved":false,"is_disabled":false,"rental_uris":{"android":"levelo://app?vid=5d0cfb3f-5675-4335-8763-f04c2ed870c8","ios":"levelo://app?vid=5d0cfb3f-5675-4335-8763-f04c2ed870c8"},"vehicle_type_id":"4","last_reported":1728382169,"current_range_meters":22000,"station_id":"ce4bhb92rcd13ifvqen0","pricing_plan_id":"cebpf4jnsgd1na2vs0mg"},{"bike_id":"553df947-caf6-4536-a36f-f5b78240b269","system_id":"levelo_inurba_marseille","lat":43.33024,"lon":5.39041,"is_reserved":false,"is_disabled":false,"rental_uris":{"android":"levelo://app?vid=553df947-caf6-4536-a36f-f5b78240b269","ios":"levelo://app?vid=553df947-caf6-4536-a36f-f5b78240b269"},"vehicle_type_id":"4","last_reported":1728382169,"current_range_meters":30000,"station_id":"ce4bhr92rcd13ifvqhrg","pricing_plan_id":"cebpf4jnsgd1na2vs0mg"},{"bike_id":"2860fea1-6b50-43f5-8998-d43e31b9ded2","system_id":"levelo_inurba_marseille","lat":43.29421,"lon":5.38619,"is_reserved":false,"is_disabled":false,"rental_uris":{"android":"levelo://app?vid=2860fea1-6b50-43f5-8998-d43e31b9ded2","ios":"levelo://app?vid=2860fea1-6b50-43f5-8998-d43e31b9ded2"},"vehicle_type_id":"4","last_reported":1728382169,"current_range_meters":13600,"station_id":"ce4bh2h2rcd13ifvqdh0","pricing_plan_id":"cebpf4jnsgd1na2vs0mg"},{"bike_id":"5ee247ae-fbdb-4b53-aaae-5c994fd8f921","system_id":"levelo_inurba_marseille","lat":43.3123,"lon":5.36867,"is_reserved":false,"is_disabled":false,"rental_uris":{"android":"levelo://app?vid=5ee247ae-fbdb-4b53-aaae-5c994fd8f921","ios":"levelo://app?vid=5ee247ae-fbdb-4b53-aaae-5c994fd8f921"},"vehicle_type_id":"4","last_reported":1728382169,"current_range_meters":14800,"station_id":"ce4bgl92rcd13ifvqbq0","pricing_plan_id":"cebpf4jnsgd1na2vs0mg"},{"bike_id":"fcc4bb53-6387-4f96-8ac3-fd1182ffa777","system_id":"levelo_inurba_marseille","lat":43.28708,"lon":5.39989,"is_reserved":false,"is_disabled":false,"rental_uris":{"android":"levelo://app?vid=fcc4bb53-6387-4f96-8ac3-fd1182ffa777","ios":"levelo://app?vid=fcc4bb53-6387-4f96-8ac3-fd1182ffa777"},"vehicle_type_id":"4","last_reported":1728382169,"current_range_meters":24400,"station_id":"ce4bho92rcd13ifvqh3g","pricing_plan_id":"cebpf4jnsgd1na2vs0mg"},{"bike_id":"fcd951aa-2c4b-43f7-97fb-2a9f20027c5c","system_id":"levelo_inurba_marseille","lat":43.2407,"lon":5.37758,"is_reserved":false,"is_disabled":false,"rental_uris":{"android":"levelo://app?vid=fcd951aa-2c4b-43f7-97fb-2a9f20027c5c","ios":"levelo://app?vid=fcd951aa-2c4b-43f7-97fb-2a9f20027c5c"},"vehicle_type_id":"4","last_reported":1728382169,"current_range_meters":26800,"station_id":"ce4bhnp2rcd13ifvqgvg","pricing_plan_id":"cebpf4jnsgd1na2vs0mg"},{"bike_id":"7f22cb8f-89d4-4b60-a0b9-407c6db75e9f","system_id":"levelo_inurba_marseille","lat":43.3375,"lon":5.37446,"is_reserved":false,"is_disabled":false,"rental_uris":{"android":"levelo://app?vid=7f22cb8f-89d4-4b60-a0b9-407c6db75e9f","ios":"levelo://app?vid=7f22cb8f-89d4-4b60-a0b9-407c6db75e9f"},"vehicle_type_id":"4","last_reported":1728382169,"current_range_meters":32000,"station_id":"","pricing_plan_id":"cebpf4jnsgd1na2vs0mg"},{"bike_id":"8416b54c-6cc1-40d9-972e-776172218e59","system_id":"levelo_inurba_marseille","lat":43.26482,"lon":5.39549,"is_reserved":false,"is_disabled":false,"rental_uris":{"android":"levelo://app?vid=8416b54c-6cc1-40d9-972e-776172218e59","ios":"levelo://app?vid=8416b54c-6cc1-40d9-972e-776172218e59"},"vehicle_type_id":"4","last_reported":1728382169,"current_range_meters":25200,"station_id":"ce4bhi12rcd13ifvqfq0","pricing_plan_id":"cebpf4jnsgd1na2vs0mg"},{"bike_id":"663d807d-5236-4795-8907-d41427101515","system_id":"levelo_inurba_marseille","lat":43.33019,"lon":5.39033,"is_reserved":false,"is_disabled":false,"rental_uris":{"android":"levelo://app?vid=663d807d-5236-4795-8907-d41427101515","ios":"levelo://app?vid=663d807d-5236-4795-8907-d41427101515"},"vehicle_type_id":"4","last_reported":1728382169,"current_range_meters":38400,"station_id":"ce4bhr92rcd13ifvqhrg","pricing_plan_id":"cebpf4jnsgd1na2vs0mg"},{"bike_id":"0190a491-52c0-46a5-be20-b72d156a36de","system_id":"levelo_inurba_marseille","lat":43.31268,"lon":5.40166,"is_reserved":false,"is_disabled":false,"rental_uris":{"android":"levelo://app?vid=0190a491-52c0-46a5-be20-b72d156a36de","ios":"levelo://app?vid=0190a491-52c0-46a5-be20-b72d156a36de"},"vehicle_type_id":"4","last_reported":1728382169,"current_range_meters":32800,"station_id":"ce4bh092rcd13ifvqd30","pricing_plan_id":"cebpf4jnsgd1na2vs0mg"},{"bike_id":"066ccb90-6b9a-4302-bde4-9c97dfce747d","system_id":"levelo_inurba_marseille","lat":43.33724,"lon":5.39195,"is_reserved":false,"is_disabled":false,"rental_uris":{"android":"levelo://app?vid=066ccb90-6b9a-4302-bde4-9c97dfce747d","ios":"levelo://app?vid=066ccb90-6b9a-4302-bde4-9c97dfce747d"},"vehicle_type_id":"4","last_reported":1728382169,"current_range_meters":37600,"station_id":"ce4bhr92rcd13ifvqhsg","pricing_plan_id":"cebpf4jnsgd1na2vs0mg"},{"bike_id":"f50162c6-b604-4fac-8f3c-6b59d21e8e0f","system_id":"levelo_inurba_marseille","lat":43.24174,"lon":5.3973,"is_reserved":false,"is_disabled":false,"rental_uris":{"android":"levelo://app?vid=f50162c6-b604-4fac-8f3c-6b59d21e8e0f","ios":"levelo://app?vid=f50162c6-b604-4fac-8f3c-6b59d21e8e0f"},"vehicle_type_id":"4","last_reported":1728382169,"current_range_meters":11200,"station_id":"ce4bhn12rcd13ifvqgpg","pricing_plan_id":"cebpf4jnsgd1na2vs0mg"},{"bike_id":"baf3079b-15cc-4688-9272-f76dc5ecc7f8","system_id":"levelo_inurba_marseille","lat":43.337444,"lon":5.374475,"is_reserved":false,"is_disabled":false,"rental_uris":{"android":"levelo://app?vid=baf3079b-15cc-4688-9272-f76dc5ecc7f8","ios":"levelo://app?vid=baf3079b-15cc-4688-9272-f76dc5ecc7f8"},"vehicle_type_id":"4","last_reported":1728382169,"current_range_meters":24000,"station_id":"ce4bh192rcd13ifvqdb0","pricing_plan_id":"cebpf4jnsgd1na2vs0mg"},{"bike_id":"12974a0f-2544-4d26-91a5-435eae1a2365","system_id":"levelo_inurba_marseille","lat":43.316933,"lon":5.40475,"is_reserved":false,"is_disabled":false,"rental_uris":{"android":"levelo://app?vid=12974a0f-2544-4d26-91a5-435eae1a2365","ios":"levelo://app?vid=12974a0f-2544-4d26-91a5-435eae1a2365"},"vehicle_type_id":"4","last_reported":1728382169,"current_range_meters":36800,"station_id":"ce4bh012rcd13ifvqd00","pricing_plan_id":"cebpf4jnsgd1na2vs0mg"},{"bike_id":"b86fc600-2b91-4b84-961b-f338f765214a","system_id":"levelo_inurba_marseille","lat":43.29579,"lon":5.37513,"is_reserved":false,"is_disabled":false,"rental_uris":{"android":"levelo://app?vid=b86fc600-2b91-4b84-961b-f338f765214a","ios":"levelo://app?vid=b86fc600-2b91-4b84-961b-f338f765214a"},"vehicle_type_id":"4","last_reported":1728382169,"current_range_meters":37600,"station_id":"ce4bgh92rcd13ifvqb50","pricing_plan_id":"cebpf4jnsgd1na2vs0mg"},{"bike_id":"acc98aff-5149-4b47-9960-d6248e233e6c","system_id":"levelo_inurba_marseille","lat":43.3089,"lon":5.39633,"is_reserved":false,"is_disabled":false,"rental_uris":{"android":"levelo://app?vid=acc98aff-5149-4b47-9960-d6248e233e6c","ios":"levelo://app?vid=acc98aff-5149-4b47-9960-d6248e233e6c"},"vehicle_type_id":"4","last_reported":1728382169,"current_range_meters":7200,"station_id":"ce4bh012rcd13ifvqcv0","pricing_plan_id":"cebpf4jnsgd1na2vs0mg"},{"bike_id":"35db5aab-a536-4286-87d7-90ec43783f24","system_id":"levelo_inurba_marseille","lat":43.23193,"lon":5.35554,"is_reserved":false,"is_disabled":false,"rental_uris":{"android":"levelo://app?vid=35db5aab-a536-4286-87d7-90ec43783f24","ios":"levelo://app?vid=35db5aab-a536-4286-87d7-90ec43783f24"},"vehicle_type_id":"4","last_reported":1728382169,"current_range_meters":30800,"station_id":"ce4bhu92rcd13ifvqi70","pricing_plan_id":"cebpf4jnsgd1na2vs0mg"},{"bike_id":"e05e300f-c62b-4b3c-a56b-769f004fee23","system_id":"levelo_inurba_marseille","lat":43.29249,"lon":5.38454,"is_reserved":false,"is_disabled":false,"rental_uris":{"android":"levelo://app?vid=e05e300f-c62b-4b3c-a56b-769f004fee23","ios":"levelo://app?vid=e05e300f-c62b-4b3c-a56b-769f004fee23"},"vehicle_type_id":"4","last_reported":1728382169,"current_range_meters":14400,"station_id":"ce4bh692rcd13ifvqea0","pricing_plan_id":"cebpf4jnsgd1na2vs0mg"},{"bike_id":"24c4519e-310e-426d-93a1-ff44ec0f9d1d","system_id":"levelo_inurba_marseille","lat":43.2314,"lon":5.4373,"is_reserved":false,"is_disabled":false,"rental_uris":{"android":"levelo://app?vid=24c4519e-310e-426d-93a1-ff44ec0f9d1d","ios":"levelo://app?vid=24c4519e-310e-426d-93a1-ff44ec0f9d1d"},"vehicle_type_id":"4","last_reported":1728382169,"current_range_meters":32000,"station_id":"ce4bhmp2rcd13ifvqgog","pricing_plan_id":"cebpf4jnsgd1na2vs0mg"},{"bike_id":"62dfd99c-f976-4937-b2d0-5b50f5ae699f","system_id":"levelo_inurba_marseille","lat":43.24168,"lon":5.36398,"is_reserved":false,"is_disabled":false,"rental_uris":{"android":"levelo://app?vid=62dfd99c-f976-4937-b2d0-5b50f5ae699f","ios":"levelo://app?vid=62dfd99c-f976-4937-b2d0-5b50f5ae699f"},"vehicle_type_id":"4","last_reported":1728382169,"current_range_meters":6400,"station_id":"cpo36qri1sfpv3e86is0","pricing_plan_id":"cebpf4jnsgd1na2vs0mg"},{"bike_id":"d5b8bfb4-409c-4850-a69d-4732b5060224","system_id":"levelo_inurba_marseille","lat":43.31343,"lon":5.36717,"is_reserved":false,"is_disabled":false,"rental_uris":{"android":"levelo://app?vid=d5b8bfb4-409c-4850-a69d-4732b5060224","ios":"levelo://app?vid=d5b8bfb4-409c-4850-a69d-4732b5060224"},"vehicle_type_id":"4","last_reported":1728382169,"current_range_meters":37600,"station_id":"ce4bgr92rcd13ifvqc6g","pricing_plan_id":"cebpf4jnsgd1na2vs0mg"},{"bike_id":"f4793b99-7728-4628-8857-6672386d2140","system_id":"levelo_inurba_marseille","lat":43.30184,"lon":5.3663,"is_reserved":false,"is_disabled":false,"rental_uris":{"android":"levelo://app?vid=f4793b99-7728-4628-8857-6672386d2140","ios":"levelo://app?vid=f4793b99-7728-4628-8857-6672386d2140"},"vehicle_type_id":"4","last_reported":1728382169,"current_range_meters":37600,"station_id":"ce4bgrh2rcd13ifvqc8g","pricing_plan_id":"cebpf4jnsgd1na2vs0mg"},{"bike_id":"e72f71a7-551c-47f7-9b01-45653c5f8a66","system_id":"levelo_inurba_marseille","lat":43.26779,"lon":5.39421,"is_reserved":false,"is_disabled":false,"rental_uris":{"android":"levelo://app?vid=e72f71a7-551c-47f7-9b01-45653c5f8a66","ios":"levelo://app?vid=e72f71a7-551c-47f7-9b01-45653c5f8a66"},"vehicle_type_id":"4","last_reported":1728382169,"current_range_meters":11600,"station_id":"ce4bhh12rcd13ifvqfg0","pricing_plan_id":"cebpf4jnsgd1na2vs0mg"},{"bike_id":"51ea515d-944c-489c-8a74-b1f09acd3971","system_id":"levelo_inurba_marseille","lat":43.25582,"lon":5.38244,"is_reserved":false,"is_disabled":false,"rental_uris":{"android":"levelo://app?vid=51ea515d-944c-489c-8a74-b1f09acd3971","ios":"levelo://app?vid=51ea515d-944c-489c-8a74-b1f09acd3971"},"vehicle_type_id":"4","last_reported":1728382169,"current_range_meters":40000,"station_id":"ce4bhih2rcd13ifvqfs0","pricing_plan_id":"cebpf4jnsgd1na2vs0mg"},{"bike_id":"6d5528b5-a30c-4ef9-b8ee-ef8ab798bd6d","system_id":"levelo_inurba_marseille","lat":43.290131,"lon":5.381227,"is_reserved":false,"is_disabled":false,"rental_uris":{"android":"levelo://app?vid=6d5528b5-a30c-4ef9-b8ee-ef8ab798bd6d","ios":"levelo://app?vid=6d5528b5-a30c-4ef9-b8ee-ef8ab798bd6d"},"vehicle_type_id":"4","last_reported":1728382169,"current_range_meters":10800,"station_id":"ce4bh4p2rcd13ifvqe1g","pricing_plan_id":"cebpf4jnsgd1na2vs0mg"},{"bike_id":"9f19f49b-0cb1-4854-aec5-f14753e4b3e6","system_id":"levelo_inurba_marseille","lat":43.28464,"lon":5.35892,"is_reserved":false,"is_disabled":false,"rental_uris":{"android":"levelo://app?vid=9f19f49b-0cb1-4854-aec5-f14753e4b3e6","ios":"levelo://app?vid=9f19f49b-0cb1-4854-aec5-f14753e4b3e6"},"vehicle_type_id":"4","last_reported":1728382169,"current_range_meters":11200,"station_id":"ce4bhah2rcd13ifvqei0","pricing_plan_id":"cebpf4jnsgd1na2vs0mg"},{"bike_id":"a7a6ddea-d4ca-4d55-b8ce-c157abf492cd","system_id":"levelo_inurba_marseille","lat":43.25935,"lon":5.40908,"is_reserved":false,"is_disabled":false,"rental_uris":{"android":"levelo://app?vid=a7a6ddea-d4ca-4d55-b8ce-c157abf492cd","ios":"levelo://app?vid=a7a6ddea-d4ca-4d55-b8ce-c157abf492cd"},"vehicle_type_id":"4","last_reported":1728382169,"current_range_meters":10000,"station_id":"ce4bhm92rcd13ifvqglg","pricing_plan_id":"cebpf4jnsgd1na2vs0mg"},{"bike_id":"62b345ef-d191-4bb3-9704-5935df372b71","system_id":"levelo_inurba_marseille","lat":43.28473,"lon":5.38417,"is_reserved":false,"is_disabled":false,"rental_uris":{"android":"levelo://app?vid=62b345ef-d191-4bb3-9704-5935df372b71","ios":"levelo://app?vid=62b345ef-d191-4bb3-9704-5935df372b71"},"vehicle_type_id":"4","last_reported":1728382169,"current_range_meters":38000,"station_id":"ce4bh512rcd13ifvqe3g","pricing_plan_id":"cebpf4jnsgd1na2vs0mg"},{"bike_id":"71557b2f-0cba-4338-83db-d8c00bdfcacb","system_id":"levelo_inurba_marseille","lat":43.31705,"lon":5.37752,"is_reserved":false,"is_disabled":false,"rental_uris":{"android":"levelo://app?vid=71557b2f-0cba-4338-83db-d8c00bdfcacb","ios":"levelo://app?vid=71557b2f-0cba-4338-83db-d8c00bdfcacb"},"vehicle_type_id":"4","last_reported":1728382169,"current_range_meters":17600,"station_id":"ce4bgth2rcd13ifvqch0","pricing_plan_id":"cebpf4jnsgd1na2vs0mg"},{"bike_id":"c499376c-4b5d-475b-9055-8babf5624c27","system_id":"levelo_inurba_marseille","lat":43.298,"lon":5.38116,"is_reserved":false,"is_disabled":false,"rental_uris":{"android":"levelo://app?vid=c499376c-4b5d-475b-9055-8babf5624c27","ios":"levelo://app?vid=c499376c-4b5d-475b-9055-8babf5624c27"},"vehicle_type_id":"4","last_reported":1728382169,"current_range_meters":20800,"station_id":"ce4bgip2rcd13ifvqbb0","pricing_plan_id":"cebpf4jnsgd1na2vs0mg"},{"bike_id":"825c2146-05a1-4266-ab11-4d2b5c44897f","system_id":"levelo_inurba_marseille","lat":43.29905,"lon":5.38143,"is_reserved":false,"is_disabled":false,"rental_uris":{"android":"levelo://app?vid=825c2146-05a1-4266-ab11-4d2b5c44897f","ios":"levelo://app?vid=825c2146-05a1-4266-ab11-4d2b5c44897f"},"vehicle_type_id":"4","last_reported":1728382169,"current_range_meters":32000,"station_id":"ce4bgj12rcd13ifvqbc0","pricing_plan_id":"cebpf4jnsgd1na2vs0mg"},{"bike_id":"276c5a95-f707-48e6-870e-855751605fc1","system_id":"levelo_inurba_marseille","lat":43.30159,"lon":5.38087,"is_reserved":false,"is_disabled":false,"rental_uris":{"android":"levelo://app?vid=276c5a95-f707-48e6-870e-855751605fc1","ios":"levelo://app?vid=276c5a95-f707-48e6-870e-855751605fc1"},"vehicle_type_id":"4","last_reported":1728382169,"current_range_meters":38800,"station_id":"ce4bgjp2rcd13ifvqbh0","pricing_plan_id":"cebpf4jnsgd1na2vs0mg"},{"bike_id":"951b568c-2d7b-4118-b779-053a3e0f8d72","system_id":"levelo_inurba_marseille","lat":43.284613,"lon":5.392128,"is_reserved":false,"is_disabled":false,"rental_uris":{"android":"levelo://app?vid=951b568c-2d7b-4118-b779-053a3e0f8d72","ios":"levelo://app?vid=951b568c-2d7b-4118-b779-053a3e0f8d72"},"vehicle_type_id":"4","last_reported":1728382169,"current_range_meters":39200,"station_id":"ce4bhoh2rcd13ifvqh5g","pricing_plan_id":"cebpf4jnsgd1na2vs0mg"},{"bike_id":"72f390d6-8036-4225-a9fd-bbdc6e34eeea","system_id":"levelo_inurba_marseille","lat":43.23179,"lon":5.39997,"is_reserved":false,"is_disabled":false,"rental_uris":{"android":"levelo://app?vid=72f390d6-8036-4225-a9fd-bbdc6e34eeea","ios":"levelo://app?vid=72f390d6-8036-4225-a9fd-bbdc6e34eeea"},"vehicle_type_id":"4","last_reported":1728382169,"current_range_meters":37600,"station_id":"ce4bhn12rcd13ifvqgqg","pricing_plan_id":"cebpf4jnsgd1na2vs0mg"},{"bike_id":"8b8a31b5-2d07-4ee0-b57e-4ddc8bcaba63","system_id":"levelo_inurba_marseille","lat":43.30154,"lon":5.38088,"is_reserved":false,"is_disabled":false,"rental_uris":{"android":"levelo://app?vid=8b8a31b5-2d07-4ee0-b57e-4ddc8bcaba63","ios":"levelo://app?vid=8b8a31b5-2d07-4ee0-b57e-4ddc8bcaba63"},"vehicle_type_id":"4","last_reported":1728382169,"current_range_meters":38800,"station_id":"ce4bgjp2rcd13ifvqbh0","pricing_plan_id":"cebpf4jnsgd1na2vs0mg"},{"bike_id":"28599adc-cefe-4dc4-9e60-2a07522c60e4","system_id":"levelo_inurba_marseille","lat":43.24803,"lon":5.37449,"is_reserved":false,"is_disabled":false,"rental_uris":{"android":"levelo://app?vid=28599adc-cefe-4dc4-9e60-2a07522c60e4","ios":"levelo://app?vid=28599adc-cefe-4dc4-9e60-2a07522c60e4"},"vehicle_type_id":"4","last_reported":1728382169,"current_range_meters":40000,"station_id":"ce4bhgh2rcd13ifvqfb0","pricing_plan_id":"cebpf4jnsgd1na2vs0mg"},{"bike_id":"4af55307-045f-4c66-a045-a91d88bb4c16","system_id":"levelo_inurba_marseille","lat":43.22932,"lon":5.35381,"is_reserved":false,"is_disabled":false,"rental_uris":{"android":"levelo://app?vid=4af55307-045f-4c66-a045-a91d88bb4c16","ios":"levelo://app?vid=4af55307-045f-4c66-a045-a91d88bb4c16"},"vehicle_type_id":"4","last_reported":1728382169,"current_range_meters":22000,"station_id":"cpo3532slgdg3j2ikp40","pricing_plan_id":"cebpf4jnsgd1na2vs0mg"},{"bike_id":"07f34f5e-63fb-4a62-834e-93c06c0be886","system_id":"levelo_inurba_marseille","lat":43.3054,"lon":5.36552,"is_reserved":false,"is_disabled":false,"rental_uris":{"android":"levelo://app?vid=07f34f5e-63fb-4a62-834e-93c06c0be886","ios":"levelo://app?vid=07f34f5e-63fb-4a62-834e-93c06c0be886"},"vehicle_type_id":"4","last_reported":1728382169,"current_range_meters":32400,"station_id":"ce4bgs12rcd13ifvqcag","pricing_plan_id":"cebpf4jnsgd1na2vs0mg"},{"bike_id":"47efe985-66e3-4fb1-a00d-60851f779f19","system_id":"levelo_inurba_marseille","lat":43.325384,"lon":5.414396,"is_reserved":false,"is_disabled":false,"rental_uris":{"android":"levelo://app?vid=47efe985-66e3-4fb1-a00d-60851f779f19","ios":"levelo://app?vid=47efe985-66e3-4fb1-a00d-60851f779f19"},"vehicle_type_id":"4","last_reported":1728382169,"current_range_meters":26800,"station_id":"ce4bhq12rcd13ifvqhhg","pricing_plan_id":"cebpf4jnsgd1na2vs0mg"},{"bike_id":"e5102aeb-9557-44c6-aa95-c3e72b3a943c","system_id":"levelo_inurba_marseille","lat":43.29976,"lon":5.38498,"is_reserved":false,"is_disabled":false,"rental_uris":{"android":"levelo://app?vid=e5102aeb-9557-44c6-aa95-c3e72b3a943c","ios":"levelo://app?vid=e5102aeb-9557-44c6-aa95-c3e72b3a943c"},"vehicle_type_id":"4","last_reported":1728382169,"current_range_meters":34000,"station_id":"ce4bgj92rcd13ifvqbd0","pricing_plan_id":"cebpf4jnsgd1na2vs0mg"},{"bike_id":"980ee733-df22-4cb5-afc6-f8e1ebcb0158","system_id":"levelo_inurba_marseille","lat":43.23151,"lon":5.43717,"is_reserved":false,"is_disabled":false,"rental_uris":{"android":"levelo://app?vid=980ee733-df22-4cb5-afc6-f8e1ebcb0158","ios":"levelo://app?vid=980ee733-df22-4cb5-afc6-f8e1ebcb0158"},"vehicle_type_id":"4","last_reported":1728382169,"current_range_meters":6400,"station_id":"ce4bhmp2rcd13ifvqgog","pricing_plan_id":"cebpf4jnsgd1na2vs0mg"},{"bike_id":"ef1cf88d-9e1f-4158-8b37-1f0e3f35e886","system_id":"levelo_inurba_marseille","lat":43.29029,"lon":5.38141,"is_reserved":false,"is_disabled":false,"rental_uris":{"android":"levelo://app?vid=ef1cf88d-9e1f-4158-8b37-1f0e3f35e886","ios":"levelo://app?vid=ef1cf88d-9e1f-4158-8b37-1f0e3f35e886"},"vehicle_type_id":"4","last_reported":1728382169,"current_range_meters":38800,"station_id":"ce4bh4p2rcd13ifvqe1g","pricing_plan_id":"cebpf4jnsgd1na2vs0mg"},{"bike_id":"5adee61e-544c-4c9d-bfef-eb6c5de87f93","system_id":"levelo_inurba_marseille","lat":43.27524,"lon":5.38441,"is_reserved":false,"is_disabled":false,"rental_uris":{"android":"levelo://app?vid=5adee61e-544c-4c9d-bfef-eb6c5de87f93","ios":"levelo://app?vid=5adee61e-544c-4c9d-bfef-eb6c5de87f93"},"vehicle_type_id":"4","last_reported":1728382169,"current_range_meters":34800,"station_id":"ce4bhh92rcd13ifvqfi0","pricing_plan_id":"cebpf4jnsgd1na2vs0mg"},{"bike_id":"c12c46a4-bd86-493d-803e-5d507cd7924b","system_id":"levelo_inurba_marseille","lat":43.23196,"lon":5.35543,"is_reserved":false,"is_disabled":false,"rental_uris":{"android":"levelo://app?vid=c12c46a4-bd86-493d-803e-5d507cd7924b","ios":"levelo://app?vid=c12c46a4-bd86-493d-803e-5d507cd7924b"},"vehicle_type_id":"4","last_reported":1728382169,"current_range_meters":19200,"station_id":"ce4bhu92rcd13ifvqi70","pricing_plan_id":"cebpf4jnsgd1na2vs0mg"},{"bike_id":"1e22ea5d-d406-4b63-92d6-06a783dc0af8","system_id":"levelo_inurba_marseille","lat":43.23185,"lon":5.39978,"is_reserved":false,"is_disabled":false,"rental_uris":{"android":"levelo://app?vid=1e22ea5d-d406-4b63-92d6-06a783dc0af8","ios":"levelo://app?vid=1e22ea5d-d406-4b63-92d6-06a783dc0af8"},"vehicle_type_id":"4","last_reported":1728382169,"current_range_meters":19200,"station_id":"ce4bhn12rcd13ifvqgqg","pricing_plan_id":"cebpf4jnsgd1na2vs0mg"},{"bike_id":"c19e637b-a9df-4896-bb6a-b56e60a34764","system_id":"levelo_inurba_marseille","lat":43.2509,"lon":5.39516,"is_reserved":false,"is_disabled":false,"rental_uris":{"android":"levelo://app?vid=c19e637b-a9df-4896-bb6a-b56e60a34764","ios":"levelo://app?vid=c19e637b-a9df-4896-bb6a-b56e60a34764"},"vehicle_type_id":"4","last_reported":1728382169,"current_range_meters":22800,"station_id":"ce4bhm12rcd13ifvqgkg","pricing_plan_id":"cebpf4jnsgd1na2vs0mg"},{"bike_id":"f5bb8d98-44a5-49f3-a016-96042b7ca5f4","system_id":"levelo_inurba_marseille","lat":43.27558,"lon":5.38415,"is_reserved":false,"is_disabled":false,"rental_uris":{"android":"levelo://app?vid=f5bb8d98-44a5-49f3-a016-96042b7ca5f4","ios":"levelo://app?vid=f5bb8d98-44a5-49f3-a016-96042b7ca5f4"},"vehicle_type_id":"4","last_reported":1728382169,"current_range_meters":39200,"station_id":"ce4bhh92rcd13ifvqfi0","pricing_plan_id":"cebpf4jnsgd1na2vs0mg"},{"bike_id":"fc9bcf4c-771a-4343-bdc2-d50e643aa836","system_id":"levelo_inurba_marseille","lat":43.23154,"lon":5.43712,"is_reserved":false,"is_disabled":false,"rental_uris":{"android":"levelo://app?vid=fc9bcf4c-771a-4343-bdc2-d50e643aa836","ios":"levelo://app?vid=fc9bcf4c-771a-4343-bdc2-d50e643aa836"},"vehicle_type_id":"4","last_reported":1728382169,"current_range_meters":11200,"station_id":"ce4bhmp2rcd13ifvqgog","pricing_plan_id":"cebpf4jnsgd1na2vs0mg"},{"bike_id":"eb8fc8ee-c5fc-4298-a869-d0284f45a890","system_id":"levelo_inurba_marseille","lat":43.32366,"lon":5.38884,"is_reserved":false,"is_disabled":false,"rental_uris":{"android":"levelo://app?vid=eb8fc8ee-c5fc-4298-a869-d0284f45a890","ios":"levelo://app?vid=eb8fc8ee-c5fc-4298-a869-d0284f45a890"},"vehicle_type_id":"4","last_reported":1728382169,"current_range_meters":34800,"station_id":"ce4bhqp2rcd13ifvqhog","pricing_plan_id":"cebpf4jnsgd1na2vs0mg"},{"bike_id":"b6640f17-7ab3-4932-bbd1-5fe22e83845e","system_id":"levelo_inurba_marseille","lat":43.32282,"lon":5.38265,"is_reserved":false,"is_disabled":false,"rental_uris":{"android":"levelo://app?vid=b6640f17-7ab3-4932-bbd1-5fe22e83845e","ios":"levelo://app?vid=b6640f17-7ab3-4932-bbd1-5fe22e83845e"},"vehicle_type_id":"4","last_reported":1728382169,"current_range_meters":39200,"station_id":"ce4bhr12rcd13ifvqhqg","pricing_plan_id":"cebpf4jnsgd1na2vs0mg"},{"bike_id":"2f65c0eb-c646-49cf-9ea1-b40c4d6d3fe7","system_id":"levelo_inurba_marseille","lat":43.29253,"lon":5.40908,"is_reserved":false,"is_disabled":false,"rental_uris":{"android":"levelo://app?vid=2f65c0eb-c646-49cf-9ea1-b40c4d6d3fe7","ios":"levelo://app?vid=2f65c0eb-c646-49cf-9ea1-b40c4d6d3fe7"},"vehicle_type_id":"4","last_reported":1728382169,"current_range_meters":33200,"station_id":"ce4bh192rcd13ifvqdc0","pricing_plan_id":"cebpf4jnsgd1na2vs0mg"},{"bike_id":"d655940a-d6dd-445d-bf38-d1d1ffaecc63","system_id":"levelo_inurba_marseille","lat":43.30551,"lon":5.36702,"is_reserved":false,"is_disabled":false,"rental_uris":{"android":"levelo://app?vid=d655940a-d6dd-445d-bf38-d1d1ffaecc63","ios":"levelo://app?vid=d655940a-d6dd-445d-bf38-d1d1ffaecc63"},"vehicle_type_id":"4","last_reported":1728382169,"current_range_meters":12400,"station_id":"ce4bgrp2rcd13ifvqc9g","pricing_plan_id":"cebpf4jnsgd1na2vs0mg"},{"bike_id":"18a067f5-0f01-447b-af96-355fba06c978","system_id":"levelo_inurba_marseille","lat":43.29715,"lon":5.37696,"is_reserved":false,"is_disabled":false,"rental_uris":{"android":"levelo://app?vid=18a067f5-0f01-447b-af96-355fba06c978","ios":"levelo://app?vid=18a067f5-0f01-447b-af96-355fba06c978"},"vehicle_type_id":"4","last_reported":1728382169,"current_range_meters":38000,"station_id":"ce4bgkh2rcd13ifvqbl0","pricing_plan_id":"cebpf4jnsgd1na2vs0mg"},{"bike_id":"3baed2cf-280a-4ae4-9475-6d4519b029b1","system_id":"levelo_inurba_marseille","lat":43.24646,"lon":5.38886,"is_reserved":false,"is_disabled":false,"rental_uris":{"android":"levelo://app?vid=3baed2cf-280a-4ae4-9475-6d4519b029b1","ios":"levelo://app?vid=3baed2cf-280a-4ae4-9475-6d4519b029b1"},"vehicle_type_id":"4","last_reported":1728382169,"current_range_meters":34800,"station_id":"ce4bhg12rcd13ifvqf60","pricing_plan_id":"cebpf4jnsgd1na2vs0mg"},{"bike_id":"bc884bab-7cdf-4100-874d-71d6c86a7840","system_id":"levelo_inurba_marseille","lat":43.28276,"lon":5.35078,"is_reserved":false,"is_disabled":false,"rental_uris":{"android":"levelo://app?vid=bc884bab-7cdf-4100-874d-71d6c86a7840","ios":"levelo://app?vid=bc884bab-7cdf-4100-874d-71d6c86a7840"},"vehicle_type_id":"4","last_reported":1728382169,"current_range_meters":38000,"station_id":"ce4bhbp2rcd13ifvqerg","pricing_plan_id":"cebpf4jnsgd1na2vs0mg"},{"bike_id":"73de01c4-3c85-4946-b43b-4bb97c5498fc","system_id":"levelo_inurba_marseille","lat":43.29777,"lon":5.37095,"is_reserved":false,"is_disabled":false,"rental_uris":{"android":"levelo://app?vid=73de01c4-3c85-4946-b43b-4bb97c5498fc","ios":"levelo://app?vid=73de01c4-3c85-4946-b43b-4bb97c5498fc"},"vehicle_type_id":"4","last_reported":1728382169,"current_range_meters":25200,"station_id":"ce4bgop2rcd13ifvqc1g","pricing_plan_id":"cebpf4jnsgd1na2vs0mg"},{"bike_id":"8614b994-ae2d-4ba6-9c50-9dc14a4d72af","system_id":"levelo_inurba_marseille","lat":43.255,"lon":5.37654,"is_reserved":false,"is_disabled":false,"rental_uris":{"android":"levelo://app?vid=8614b994-ae2d-4ba6-9c50-9dc14a4d72af","ios":"levelo://app?vid=8614b994-ae2d-4ba6-9c50-9dc14a4d72af"},"vehicle_type_id":"4","last_reported":1728382169,"current_range_meters":29600,"station_id":"ce4bhh12rcd13ifvqff0","pricing_plan_id":"cebpf4jnsgd1na2vs0mg"},{"bike_id":"c46bb69c-f759-445b-a9d0-f3b7b6b66571","system_id":"levelo_inurba_marseille","lat":43.27996,"lon":5.41669,"is_reserved":false,"is_disabled":false,"rental_uris":{"android":"levelo://app?vid=c46bb69c-f759-445b-a9d0-f3b7b6b66571","ios":"levelo://app?vid=c46bb69c-f759-445b-a9d0-f3b7b6b66571"},"vehicle_type_id":"4","last_reported":1728382169,"current_range_meters":32000,"station_id":"ce4bho12rcd13ifvqh1g","pricing_plan_id":"cebpf4jnsgd1na2vs0mg"},{"bike_id":"51518c00-b5c7-480d-8547-a82c8d12269e","system_id":"levelo_inurba_marseille","lat":43.23154,"lon":5.43724,"is_reserved":false,"is_disabled":false,"rental_uris":{"android":"levelo://app?vid=51518c00-b5c7-480d-8547-a82c8d12269e","ios":"levelo://app?vid=51518c00-b5c7-480d-8547-a82c8d12269e"},"vehicle_type_id":"4","last_reported":1728382169,"current_range_meters":17200,"station_id":"ce4bhmp2rcd13ifvqgog","pricing_plan_id":"cebpf4jnsgd1na2vs0mg"},{"bike_id":"b4e08ab5-c3d1-4bd4-ab60-9ff3d02f51b7","system_id":"levelo_inurba_marseille","lat":43.31862,"lon":5.40438,"is_reserved":false,"is_disabled":false,"rental_uris":{"android":"levelo://app?vid=b4e08ab5-c3d1-4bd4-ab60-9ff3d02f51b7","ios":"levelo://app?vid=b4e08ab5-c3d1-4bd4-ab60-9ff3d02f51b7"},"vehicle_type_id":"4","last_reported":1728382169,"current_range_meters":38400,"station_id":"ce4bh012rcd13ifvqd00","pricing_plan_id":"cebpf4jnsgd1na2vs0mg"},{"bike_id":"d00a3477-782a-4de0-b711-15ed9dd434f4","system_id":"levelo_inurba_marseille","lat":43.23049,"lon":5.35498,"is_reserved":false,"is_disabled":false,"rental_uris":{"android":"levelo://app?vid=d00a3477-782a-4de0-b711-15ed9dd434f4","ios":"levelo://app?vid=d00a3477-782a-4de0-b711-15ed9dd434f4"},"vehicle_type_id":"4","last_reported":1728382169,"current_range_meters":5600,"station_id":"cpo3342slgdg3j2ifvpg","pricing_plan_id":"cebpf4jnsgd1na2vs0mg"},{"bike_id":"1f2894cb-9f86-4c5b-bd23-4460a630d2a1","system_id":"levelo_inurba_marseille","lat":43.33608,"lon":5.41033,"is_reserved":false,"is_disabled":false,"rental_uris":{"android":"levelo://app?vid=1f2894cb-9f86-4c5b-bd23-4460a630d2a1","ios":"levelo://app?vid=1f2894cb-9f86-4c5b-bd23-4460a630d2a1"},"vehicle_type_id":"4","last_reported":1728382169,"current_range_meters":39200,"station_id":"ce4bhqh2rcd13ifvqhmg","pricing_plan_id":"cebpf4jnsgd1na2vs0mg"},{"bike_id":"24391980-f586-4873-bf80-3137087b34ce","system_id":"levelo_inurba_marseille","lat":43.30078,"lon":5.39079,"is_reserved":false,"is_disabled":false,"rental_uris":{"android":"levelo://app?vid=24391980-f586-4873-bf80-3137087b34ce","ios":"levelo://app?vid=24391980-f586-4873-bf80-3137087b34ce"},"vehicle_type_id":"4","last_reported":1728382169,"current_range_meters":36800,"station_id":"ce4bh192rcd13ifvqdb0","pricing_plan_id":"cebpf4jnsgd1na2vs0mg"},{"bike_id":"c41645cc-9ca8-4599-a273-1dfae7017ffb","system_id":"levelo_inurba_marseille","lat":43.312708,"lon":5.401676,"is_reserved":false,"is_disabled":false,"rental_uris":{"android":"levelo://app?vid=c41645cc-9ca8-4599-a273-1dfae7017ffb","ios":"levelo://app?vid=c41645cc-9ca8-4599-a273-1dfae7017ffb"},"vehicle_type_id":"4","last_reported":1728382169,"current_range_meters":9200,"station_id":"ce4bh092rcd13ifvqd30","pricing_plan_id":"cebpf4jnsgd1na2vs0mg"},{"bike_id":"75d75600-316c-44c0-adc8-c8a630bf1827","system_id":"levelo_inurba_marseille","lat":43.29224,"lon":5.36066,"is_reserved":false,"is_disabled":false,"rental_uris":{"android":"levelo://app?vid=75d75600-316c-44c0-adc8-c8a630bf1827","ios":"levelo://app?vid=75d75600-316c-44c0-adc8-c8a630bf1827"},"vehicle_type_id":"4","last_reported":1728382169,"current_range_meters":27600,"station_id":"ce4bhbh2rcd13ifvqeqg","pricing_plan_id":"cebpf4jnsgd1na2vs0mg"},{"bike_id":"e8f38f77-6572-42be-9296-0cbe6e7cb972","system_id":"levelo_inurba_marseille","lat":43.23054,"lon":5.35492,"is_reserved":false,"is_disabled":false,"rental_uris":{"android":"levelo://app?vid=e8f38f77-6572-42be-9296-0cbe6e7cb972","ios":"levelo://app?vid=e8f38f77-6572-42be-9296-0cbe6e7cb972"},"vehicle_type_id":"4","last_reported":1728382169,"current_range_meters":32400,"station_id":"cpo3342slgdg3j2ifvpg","pricing_plan_id":"cebpf4jnsgd1na2vs0mg"},{"bike_id":"da2bef50-9604-4ee2-b6fe-7fbad7a1e331","system_id":"levelo_inurba_marseille","lat":43.31706,"lon":5.37749,"is_reserved":false,"is_disabled":false,"rental_uris":{"android":"levelo://app?vid=da2bef50-9604-4ee2-b6fe-7fbad7a1e331","ios":"levelo://app?vid=da2bef50-9604-4ee2-b6fe-7fbad7a1e331"},"vehicle_type_id":"4","last_reported":1728382169,"current_range_meters":38000,"station_id":"ce4bgth2rcd13ifvqch0","pricing_plan_id":"cebpf4jnsgd1na2vs0mg"},{"bike_id":"01d7a773-0247-40d0-9b40-116d8d437f81","system_id":"levelo_inurba_marseille","lat":43.28485,"lon":5.38414,"is_reserved":false,"is_disabled":false,"rental_uris":{"android":"levelo://app?vid=01d7a773-0247-40d0-9b40-116d8d437f81","ios":"levelo://app?vid=01d7a773-0247-40d0-9b40-116d8d437f81"},"vehicle_type_id":"4","last_reported":1728382169,"current_range_meters":39200,"station_id":"ce4bh512rcd13ifvqe3g","pricing_plan_id":"cebpf4jnsgd1na2vs0mg"},{"bike_id":"15031cb6-ebe2-452c-b23e-7503503dd9c3","system_id":"levelo_inurba_marseille","lat":43.29583,"lon":5.37506,"is_reserved":false,"is_disabled":false,"rental_uris":{"android":"levelo://app?vid=15031cb6-ebe2-452c-b23e-7503503dd9c3","ios":"levelo://app?vid=15031cb6-ebe2-452c-b23e-7503503dd9c3"},"vehicle_type_id":"4","last_reported":1728382169,"current_range_meters":33600,"station_id":"ce4bgh92rcd13ifvqb50","pricing_plan_id":"cebpf4jnsgd1na2vs0mg"},{"bike_id":"4b21d9d2-3c55-4578-a215-a63f757598fd","system_id":"levelo_inurba_marseille","lat":43.2995,"lon":5.398602,"is_reserved":false,"is_disabled":false,"rental_uris":{"android":"levelo://app?vid=4b21d9d2-3c55-4578-a215-a63f757598fd","ios":"levelo://app?vid=4b21d9d2-3c55-4578-a215-a63f757598fd"},"vehicle_type_id":"4","last_reported":1728382169,"current_range_meters":24800,"station_id":"ce4bh0h2rcd13ifvqd40","pricing_plan_id":"cebpf4jnsgd1na2vs0mg"},{"bike_id":"485bc90e-76e5-4ef0-8a60-6695dcc5102a","system_id":"levelo_inurba_marseille","lat":43.32482,"lon":5.36573,"is_reserved":false,"is_disabled":false,"rental_uris":{"android":"levelo://app?vid=485bc90e-76e5-4ef0-8a60-6695dcc5102a","ios":"levelo://app?vid=485bc90e-76e5-4ef0-8a60-6695dcc5102a"},"vehicle_type_id":"4","last_reported":1728382169,"current_range_meters":12400,"station_id":"ce4bhs12rcd13ifvqhvg","pricing_plan_id":"cebpf4jnsgd1na2vs0mg"},{"bike_id":"77d131a6-db5f-44eb-adb1-7fc7032d111b","system_id":"levelo_inurba_marseille","lat":43.24652,"lon":5.38897,"is_reserved":false,"is_disabled":false,"rental_uris":{"android":"levelo://app?vid=77d131a6-db5f-44eb-adb1-7fc7032d111b","ios":"levelo://app?vid=77d131a6-db5f-44eb-adb1-7fc7032d111b"},"vehicle_type_id":"4","last_reported":1728382169,"current_range_meters":14400,"station_id":"ce4bhg12rcd13ifvqf60","pricing_plan_id":"cebpf4jnsgd1na2vs0mg"},{"bike_id":"c05850ea-4342-4c26-b5a8-c76690fde6b5","system_id":"levelo_inurba_marseille","lat":43.29901,"lon":5.38151,"is_reserved":false,"is_disabled":false,"rental_uris":{"android":"levelo://app?vid=c05850ea-4342-4c26-b5a8-c76690fde6b5","ios":"levelo://app?vid=c05850ea-4342-4c26-b5a8-c76690fde6b5"},"vehicle_type_id":"4","last_reported":1728382169,"current_range_meters":36400,"station_id":"ce4bgj12rcd13ifvqbc0","pricing_plan_id":"cebpf4jnsgd1na2vs0mg"},{"bike_id":"02ce97d4-5975-479a-934a-129b2544d747","system_id":"levelo_inurba_marseille","lat":43.31687,"lon":5.40469,"is_reserved":false,"is_disabled":false,"rental_uris":{"android":"levelo://app?vid=02ce97d4-5975-479a-934a-129b2544d747","ios":"levelo://app?vid=02ce97d4-5975-479a-934a-129b2544d747"},"vehicle_type_id":"4","last_reported":1728382169,"current_range_meters":19200,"station_id":"ce4bh012rcd13ifvqd00","pricing_plan_id":"cebpf4jnsgd1na2vs0mg"},{"bike_id":"6c4e88ed-e84b-44cb-b34f-ad52f7e8f702","system_id":"levelo_inurba_marseille","lat":43.29004,"lon":5.35605,"is_reserved":false,"is_disabled":false,"rental_uris":{"android":"levelo://app?vid=6c4e88ed-e84b-44cb-b34f-ad52f7e8f702","ios":"levelo://app?vid=6c4e88ed-e84b-44cb-b34f-ad52f7e8f702"},"vehicle_type_id":"4","last_reported":1728382169,"current_range_meters":38000,"station_id":"ce4bhb92rcd13ifvqen0","pricing_plan_id":"cebpf4jnsgd1na2vs0mg"},{"bike_id":"2f4b888d-5c74-4153-900e-18576b429381","system_id":"levelo_inurba_marseille","lat":43.31696,"lon":5.4046,"is_reserved":false,"is_disabled":false,"rental_uris":{"android":"levelo://app?vid=2f4b888d-5c74-4153-900e-18576b429381","ios":"levelo://app?vid=2f4b888d-5c74-4153-900e-18576b429381"},"vehicle_type_id":"4","last_reported":1728382169,"current_range_meters":36400,"station_id":"ce4bh012rcd13ifvqd00","pricing_plan_id":"cebpf4jnsgd1na2vs0mg"},{"bike_id":"539eacbc-92e3-40a6-ae36-ff0b108b53ac","system_id":"levelo_inurba_marseille","lat":43.31332,"lon":5.39695,"is_reserved":false,"is_disabled":false,"rental_uris":{"android":"levelo://app?vid=539eacbc-92e3-40a6-ae36-ff0b108b53ac","ios":"levelo://app?vid=539eacbc-92e3-40a6-ae36-ff0b108b53ac"},"vehicle_type_id":"4","last_reported":1728382169,"current_range_meters":4800,"station_id":"ce4bgvp2rcd13ifvqcu0","pricing_plan_id":"cebpf4jnsgd1na2vs0mg"},{"bike_id":"ce9937f7-150e-4f28-b18b-01d864c29354","system_id":"levelo_inurba_marseille","lat":43.29201,"lon":5.35796,"is_reserved":false,"is_disabled":false,"rental_uris":{"android":"levelo://app?vid=ce9937f7-150e-4f28-b18b-01d864c29354","ios":"levelo://app?vid=ce9937f7-150e-4f28-b18b-01d864c29354"},"vehicle_type_id":"4","last_reported":1728382169,"current_range_meters":35600,"station_id":"ce4bhb12rcd13ifvqel0","pricing_plan_id":"cebpf4jnsgd1na2vs0mg"},{"bike_id":"409eb33b-1407-4c77-9cae-11fe7c9175ae","system_id":"levelo_inurba_marseille","lat":43.27491,"lon":5.42458,"is_reserved":false,"is_disabled":false,"rental_uris":{"android":"levelo://app?vid=409eb33b-1407-4c77-9cae-11fe7c9175ae","ios":"levelo://app?vid=409eb33b-1407-4c77-9cae-11fe7c9175ae"},"vehicle_type_id":"4","last_reported":1728382169,"current_range_meters":16800,"station_id":"ce4bhn92rcd13ifvqgrg","pricing_plan_id":"cebpf4jnsgd1na2vs0mg"},{"bike_id":"b5142c12-3f3f-452c-853c-bcb33ce12fbf","system_id":"levelo_inurba_marseille","lat":43.23194,"lon":5.35551,"is_reserved":false,"is_disabled":false,"rental_uris":{"android":"levelo://app?vid=b5142c12-3f3f-452c-853c-bcb33ce12fbf","ios":"levelo://app?vid=b5142c12-3f3f-452c-853c-bcb33ce12fbf"},"vehicle_type_id":"4","last_reported":1728382169,"current_range_meters":38000,"station_id":"ce4bhu92rcd13ifvqi70","pricing_plan_id":"cebpf4jnsgd1na2vs0mg"},{"bike_id":"d4ab9834-87f2-4a6a-9d3d-3d4d05891726","system_id":"levelo_inurba_marseille","lat":43.284722,"lon":5.384209,"is_reserved":false,"is_disabled":false,"rental_uris":{"android":"levelo://app?vid=d4ab9834-87f2-4a6a-9d3d-3d4d05891726","ios":"levelo://app?vid=d4ab9834-87f2-4a6a-9d3d-3d4d05891726"},"vehicle_type_id":"4","last_reported":1728382169,"current_range_meters":35600,"station_id":"ce4bh512rcd13ifvqe3g","pricing_plan_id":"cebpf4jnsgd1na2vs0mg"},{"bike_id":"63058893-c509-445b-b19e-dd0a41d11d9d","system_id":"levelo_inurba_marseille","lat":43.31748,"lon":5.39023,"is_reserved":false,"is_disabled":false,"rental_uris":{"android":"levelo://app?vid=63058893-c509-445b-b19e-dd0a41d11d9d","ios":"levelo://app?vid=63058893-c509-445b-b19e-dd0a41d11d9d"},"vehicle_type_id":"4","last_reported":1728382169,"current_range_meters":26000,"station_id":"ce4bhqp2rcd13ifvqhng","pricing_plan_id":"cebpf4jnsgd1na2vs0mg"},{"bike_id":"07da7e27-0e31-4df8-a274-b76408a0f862","system_id":"levelo_inurba_marseille","lat":43.29558,"lon":5.42291,"is_reserved":false,"is_disabled":false,"rental_uris":{"android":"levelo://app?vid=07da7e27-0e31-4df8-a274-b76408a0f862","ios":"levelo://app?vid=07da7e27-0e31-4df8-a274-b76408a0f862"},"vehicle_type_id":"4","last_reported":1728382169,"current_range_meters":38400,"station_id":"ce4bhph2rcd13ifvqhdg","pricing_plan_id":"cebpf4jnsgd1na2vs0mg"},{"bike_id":"513184d9-4a6b-49fd-81e0-1b13bcd19fd6","system_id":"levelo_inurba_marseille","lat":43.284177,"lon":5.400433,"is_reserved":false,"is_disabled":false,"rental_uris":{"android":"levelo://app?vid=513184d9-4a6b-49fd-81e0-1b13bcd19fd6","ios":"levelo://app?vid=513184d9-4a6b-49fd-81e0-1b13bcd19fd6"},"vehicle_type_id":"4","last_reported":1728382169,"current_range_meters":22800,"station_id":"","pricing_plan_id":"cebpf4jnsgd1na2vs0mg"},{"bike_id":"fdfcb44f-4a8b-46eb-9613-b6eb87709a9b","system_id":"levelo_inurba_marseille","lat":43.32034,"lon":5.41569,"is_reserved":false,"is_disabled":false,"rental_uris":{"android":"levelo://app?vid=fdfcb44f-4a8b-46eb-9613-b6eb87709a9b","ios":"levelo://app?vid=fdfcb44f-4a8b-46eb-9613-b6eb87709a9b"},"vehicle_type_id":"4","last_reported":1728382169,"current_range_meters":30800,"station_id":"ce4bhq92rcd13ifvqhkg","pricing_plan_id":"cebpf4jnsgd1na2vs0mg"},{"bike_id":"93d45870-2e1c-4ed1-9664-7b219a4ed443","system_id":"levelo_inurba_marseille","lat":43.22927,"lon":5.35381,"is_reserved":false,"is_disabled":false,"rental_uris":{"android":"levelo://app?vid=93d45870-2e1c-4ed1-9664-7b219a4ed443","ios":"levelo://app?vid=93d45870-2e1c-4ed1-9664-7b219a4ed443"},"vehicle_type_id":"4","last_reported":1728382169,"current_range_meters":32000,"station_id":"cpo3532slgdg3j2ikp40","pricing_plan_id":"cebpf4jnsgd1na2vs0mg"},{"bike_id":"41383494-62f0-495d-af60-15e1c19da96d","system_id":"levelo_inurba_marseille","lat":43.29564,"lon":5.37509,"is_reserved":false,"is_disabled":false,"rental_uris":{"android":"levelo://app?vid=41383494-62f0-495d-af60-15e1c19da96d","ios":"levelo://app?vid=41383494-62f0-495d-af60-15e1c19da96d"},"vehicle_type_id":"4","last_reported":1728382169,"current_range_meters":24800,"station_id":"ce4bgh92rcd13ifvqb50","pricing_plan_id":"cebpf4jnsgd1na2vs0mg"},{"bike_id":"66d183bc-55f2-4f19-b382-676468882d33","system_id":"levelo_inurba_marseille","lat":43.32537,"lon":5.41443,"is_reserved":false,"is_disabled":false,"rental_uris":{"android":"levelo://app?vid=66d183bc-55f2-4f19-b382-676468882d33","ios":"levelo://app?vid=66d183bc-55f2-4f19-b382-676468882d33"},"vehicle_type_id":"4","last_reported":1728382169,"current_range_meters":14400,"station_id":"ce4bhq12rcd13ifvqhhg","pricing_plan_id":"cebpf4jnsgd1na2vs0mg"},{"bike_id":"0e3bfff6-2bee-4be5-8568-766c0160a493","system_id":"levelo_inurba_marseille","lat":43.3171,"lon":5.43709,"is_reserved":false,"is_disabled":false,"rental_uris":{"android":"levelo://app?vid=0e3bfff6-2bee-4be5-8568-766c0160a493","ios":"levelo://app?vid=0e3bfff6-2bee-4be5-8568-766c0160a493"},"vehicle_type_id":"4","last_reported":1728382169,"current_range_meters":8400,"station_id":"ce4bhp92rcd13ifvqhcg","pricing_plan_id":"cebpf4jnsgd1na2vs0mg"},{"bike_id":"d412ca17-d85b-4711-b723-85e987c4d11d","system_id":"levelo_inurba_marseille","lat":43.29908,"lon":5.38149,"is_reserved":false,"is_disabled":false,"rental_uris":{"android":"levelo://app?vid=d412ca17-d85b-4711-b723-85e987c4d11d","ios":"levelo://app?vid=d412ca17-d85b-4711-b723-85e987c4d11d"},"vehicle_type_id":"4","last_reported":1728382169,"current_range_meters":38800,"station_id":"ce4bgj12rcd13ifvqbc0","pricing_plan_id":"cebpf4jnsgd1na2vs0mg"},{"bike_id":"68a15803-7161-4d8a-9c98-d979734f5b64","system_id":"levelo_inurba_marseille","lat":43.26031,"lon":5.37553,"is_reserved":false,"is_disabled":false,"rental_uris":{"android":"levelo://app?vid=68a15803-7161-4d8a-9c98-d979734f5b64","ios":"levelo://app?vid=68a15803-7161-4d8a-9c98-d979734f5b64"},"vehicle_type_id":"4","last_reported":1728382169,"current_range_meters":35600,"station_id":"ce4bhgh2rcd13ifvqfa0","pricing_plan_id":"cebpf4jnsgd1na2vs0mg"},{"bike_id":"b79249d5-8caf-442a-8c44-5b8b1f226b05","system_id":"levelo_inurba_marseille","lat":43.337444,"lon":5.374475,"is_reserved":false,"is_disabled":false,"rental_uris":{"android":"levelo://app?vid=b79249d5-8caf-442a-8c44-5b8b1f226b05","ios":"levelo://app?vid=b79249d5-8caf-442a-8c44-5b8b1f226b05"},"vehicle_type_id":"4","last_reported":1728382169,"current_range_meters":38000,"station_id":"ce4bh512rcd13ifvqe3g","pricing_plan_id":"cebpf4jnsgd1na2vs0mg"},{"bike_id":"ccc17164-6456-4916-af4b-b0ad35eeb52d","system_id":"levelo_inurba_marseille","lat":43.28147,"lon":5.42642,"is_reserved":false,"is_disabled":false,"rental_uris":{"android":"levelo://app?vid=ccc17164-6456-4916-af4b-b0ad35eeb52d","ios":"levelo://app?vid=ccc17164-6456-4916-af4b-b0ad35eeb52d"},"vehicle_type_id":"4","last_reported":1728382169,"current_range_meters":24800,"station_id":"ce4bhnh2rcd13ifvqgug","pricing_plan_id":"cebpf4jnsgd1na2vs0mg"},{"bike_id":"94f7d42e-82ca-4dd9-b678-88243b6663e6","system_id":"levelo_inurba_marseille","lat":43.28157,"lon":5.42647,"is_reserved":false,"is_disabled":false,"rental_uris":{"android":"levelo://app?vid=94f7d42e-82ca-4dd9-b678-88243b6663e6","ios":"levelo://app?vid=94f7d42e-82ca-4dd9-b678-88243b6663e6"},"vehicle_type_id":"4","last_reported":1728382169,"current_range_meters":24800,"station_id":"ce4bhnh2rcd13ifvqgug","pricing_plan_id":"cebpf4jnsgd1na2vs0mg"},{"bike_id":"83ca7793-fb7f-4f63-843d-a13c4fc0bddf","system_id":"levelo_inurba_marseille","lat":43.25941,"lon":5.40899,"is_reserved":false,"is_disabled":false,"rental_uris":{"android":"levelo://app?vid=83ca7793-fb7f-4f63-843d-a13c4fc0bddf","ios":"levelo://app?vid=83ca7793-fb7f-4f63-843d-a13c4fc0bddf"},"vehicle_type_id":"4","last_reported":1728382169,"current_range_meters":32400,"station_id":"ce4bhm92rcd13ifvqglg","pricing_plan_id":"cebpf4jnsgd1na2vs0mg"},{"bike_id":"80bf0682-c8e7-49a8-814e-d67a824611e2","system_id":"levelo_inurba_marseille","lat":43.26794,"lon":5.39411,"is_reserved":false,"is_disabled":false,"rental_uris":{"android":"levelo://app?vid=80bf0682-c8e7-49a8-814e-d67a824611e2","ios":"levelo://app?vid=80bf0682-c8e7-49a8-814e-d67a824611e2"},"vehicle_type_id":"4","last_reported":1728382169,"current_range_meters":28400,"station_id":"ce4bhh12rcd13ifvqfg0","pricing_plan_id":"cebpf4jnsgd1na2vs0mg"},{"bike_id":"f70c79d4-8f54-4e56-b14d-1e7a7df17abe","system_id":"levelo_inurba_marseille","lat":43.28679,"lon":5.38662,"is_reserved":false,"is_disabled":false,"rental_uris":{"android":"levelo://app?vid=f70c79d4-8f54-4e56-b14d-1e7a7df17abe","ios":"levelo://app?vid=f70c79d4-8f54-4e56-b14d-1e7a7df17abe"},"vehicle_type_id":"4","last_reported":1728382169,"current_range_meters":38800,"station_id":"ce4bh492rcd13ifvqdug","pricing_plan_id":"cebpf4jnsgd1na2vs0mg"},{"bike_id":"93a538e2-33d2-44e2-ac66-feb42e05dfad","system_id":"levelo_inurba_marseille","lat":43.24165,"lon":5.36392,"is_reserved":false,"is_disabled":false,"rental_uris":{"android":"levelo://app?vid=93a538e2-33d2-44e2-ac66-feb42e05dfad","ios":"levelo://app?vid=93a538e2-33d2-44e2-ac66-feb42e05dfad"},"vehicle_type_id":"4","last_reported":1728382169,"current_range_meters":24800,"station_id":"cpo36qri1sfpv3e86is0","pricing_plan_id":"cebpf4jnsgd1na2vs0mg"},{"bike_id":"383b720f-1ca4-4499-860d-a106b25540b3","system_id":"levelo_inurba_marseille","lat":43.27559,"lon":5.38419,"is_reserved":false,"is_disabled":false,"rental_uris":{"android":"levelo://app?vid=383b720f-1ca4-4499-860d-a106b25540b3","ios":"levelo://app?vid=383b720f-1ca4-4499-860d-a106b25540b3"},"vehicle_type_id":"4","last_reported":1728382169,"current_range_meters":31200,"station_id":"ce4bhh92rcd13ifvqfi0","pricing_plan_id":"cebpf4jnsgd1na2vs0mg"},{"bike_id":"2a9899af-5714-4404-b731-ffd6243bebc6","system_id":"levelo_inurba_marseille","lat":43.28413,"lon":5.34984,"is_reserved":false,"is_disabled":false,"rental_uris":{"android":"levelo://app?vid=2a9899af-5714-4404-b731-ffd6243bebc6","ios":"levelo://app?vid=2a9899af-5714-4404-b731-ffd6243bebc6"},"vehicle_type_id":"4","last_reported":1728382169,"current_range_meters":28400,"station_id":"ce4bhbh2rcd13ifvqepg","pricing_plan_id":"cebpf4jnsgd1na2vs0mg"},{"bike_id":"51252150-6263-4793-9b8b-46506e295cb3","system_id":"levelo_inurba_marseille","lat":43.31692,"lon":5.40469,"is_reserved":false,"is_disabled":false,"rental_uris":{"android":"levelo://app?vid=51252150-6263-4793-9b8b-46506e295cb3","ios":"levelo://app?vid=51252150-6263-4793-9b8b-46506e295cb3"},"vehicle_type_id":"4","last_reported":1728382169,"current_range_meters":37600,"station_id":"ce4bh012rcd13ifvqd00","pricing_plan_id":"cebpf4jnsgd1na2vs0mg"},{"bike_id":"a92f6206-1720-4e29-9ed4-ca1db6a5dc4b","system_id":"levelo_inurba_marseille","lat":43.2986,"lon":5.37553,"is_reserved":false,"is_disabled":false,"rental_uris":{"android":"levelo://app?vid=a92f6206-1720-4e29-9ed4-ca1db6a5dc4b","ios":"levelo://app?vid=a92f6206-1720-4e29-9ed4-ca1db6a5dc4b"},"vehicle_type_id":"4","last_reported":1728382169,"current_range_meters":30400,"station_id":"","pricing_plan_id":"cebpf4jnsgd1na2vs0mg"},{"bike_id":"98459ce7-f863-46d1-932f-b1d6988cd971","system_id":"levelo_inurba_marseille","lat":43.30417,"lon":5.41287,"is_reserved":false,"is_disabled":false,"rental_uris":{"android":"levelo://app?vid=98459ce7-f863-46d1-932f-b1d6988cd971","ios":"levelo://app?vid=98459ce7-f863-46d1-932f-b1d6988cd971"},"vehicle_type_id":"4","last_reported":1728382169,"current_range_meters":39200,"station_id":"ce4bhop2rcd13ifvqh8g","pricing_plan_id":"cebpf4jnsgd1na2vs0mg"},{"bike_id":"d27609e6-d5a5-4dec-bb61-c13b8c09fa0a","system_id":"levelo_inurba_marseille","lat":43.284775,"lon":5.384159,"is_reserved":false,"is_disabled":false,"rental_uris":{"android":"levelo://app?vid=d27609e6-d5a5-4dec-bb61-c13b8c09fa0a","ios":"levelo://app?vid=d27609e6-d5a5-4dec-bb61-c13b8c09fa0a"},"vehicle_type_id":"4","last_reported":1728382169,"current_range_meters":33600,"station_id":"ce4bh092rcd13ifvqd20","pricing_plan_id":"cebpf4jnsgd1na2vs0mg"},{"bike_id":"97b40dcc-1677-4e0f-9c57-319e22bf9af0","system_id":"levelo_inurba_marseille","lat":43.27616,"lon":5.36109,"is_reserved":false,"is_disabled":false,"rental_uris":{"android":"levelo://app?vid=97b40dcc-1677-4e0f-9c57-319e22bf9af0","ios":"levelo://app?vid=97b40dcc-1677-4e0f-9c57-319e22bf9af0"},"vehicle_type_id":"4","last_reported":1728382169,"current_range_meters":38000,"station_id":"ce4bgj92rcd13ifvqbe0","pricing_plan_id":"cebpf4jnsgd1na2vs0mg"},{"bike_id":"c20826a6-8370-4c46-9fc9-4a160ce1fc76","system_id":"levelo_inurba_marseille","lat":43.27964,"lon":5.38749,"is_reserved":false,"is_disabled":false,"rental_uris":{"android":"levelo://app?vid=c20826a6-8370-4c46-9fc9-4a160ce1fc76","ios":"levelo://app?vid=c20826a6-8370-4c46-9fc9-4a160ce1fc76"},"vehicle_type_id":"4","last_reported":1728382169,"current_range_meters":30800,"station_id":"ce4bhg12rcd13ifvqf80","pricing_plan_id":"cebpf4jnsgd1na2vs0mg"},{"bike_id":"744de9ff-3702-4a64-8f52-577cd6439b6f","system_id":"levelo_inurba_marseille","lat":43.31164,"lon":5.38712,"is_reserved":false,"is_disabled":false,"rental_uris":{"android":"levelo://app?vid=744de9ff-3702-4a64-8f52-577cd6439b6f","ios":"levelo://app?vid=744de9ff-3702-4a64-8f52-577cd6439b6f"},"vehicle_type_id":"4","last_reported":1728382169,"current_range_meters":18000,"station_id":"ce4bgv12rcd13ifvqcp0","pricing_plan_id":"cebpf4jnsgd1na2vs0mg"},{"bike_id":"7ad06205-868a-4802-a1e3-0dc7e4c673d2","system_id":"levelo_inurba_marseille","lat":43.32486,"lon":5.36569,"is_reserved":false,"is_disabled":false,"rental_uris":{"android":"levelo://app?vid=7ad06205-868a-4802-a1e3-0dc7e4c673d2","ios":"levelo://app?vid=7ad06205-868a-4802-a1e3-0dc7e4c673d2"},"vehicle_type_id":"4","last_reported":1728382169,"current_range_meters":30800,"station_id":"ce4bhs12rcd13ifvqhvg","pricing_plan_id":"cebpf4jnsgd1na2vs0mg"},{"bike_id":"6c80a266-5201-49fa-a634-06da8f620caa","system_id":"levelo_inurba_marseille","lat":43.27612,"lon":5.36115,"is_reserved":false,"is_disabled":false,"rental_uris":{"android":"levelo://app?vid=6c80a266-5201-49fa-a634-06da8f620caa","ios":"levelo://app?vid=6c80a266-5201-49fa-a634-06da8f620caa"},"vehicle_type_id":"4","last_reported":1728382169,"current_range_meters":12000,"station_id":"ce4bgj92rcd13ifvqbe0","pricing_plan_id":"cebpf4jnsgd1na2vs0mg"},{"bike_id":"f02e2cb2-e991-4eeb-bd4c-2e1633cb993c","system_id":"levelo_inurba_marseille","lat":43.29299,"lon":5.37456,"is_reserved":false,"is_disabled":false,"rental_uris":{"android":"levelo://app?vid=f02e2cb2-e991-4eeb-bd4c-2e1633cb993c","ios":"levelo://app?vid=f02e2cb2-e991-4eeb-bd4c-2e1633cb993c"},"vehicle_type_id":"4","last_reported":1728382169,"current_range_meters":27200,"station_id":"ce4bgi12rcd13ifvqb70","pricing_plan_id":"cebpf4jnsgd1na2vs0mg"},{"bike_id":"08e881b4-39c2-4880-929c-1f061e2aa504","system_id":"levelo_inurba_marseille","lat":43.31357,"lon":5.38498,"is_reserved":false,"is_disabled":false,"rental_uris":{"android":"levelo://app?vid=08e881b4-39c2-4880-929c-1f061e2aa504","ios":"levelo://app?vid=08e881b4-39c2-4880-929c-1f061e2aa504"},"vehicle_type_id":"4","last_reported":1728382169,"current_range_meters":36400,"station_id":"ce4bgt92rcd13ifvqcf0","pricing_plan_id":"cebpf4jnsgd1na2vs0mg"},{"bike_id":"a070df44-ca49-49b7-b4b2-82f3056092c4","system_id":"levelo_inurba_marseille","lat":43.32479,"lon":5.3657,"is_reserved":false,"is_disabled":false,"rental_uris":{"android":"levelo://app?vid=a070df44-ca49-49b7-b4b2-82f3056092c4","ios":"levelo://app?vid=a070df44-ca49-49b7-b4b2-82f3056092c4"},"vehicle_type_id":"4","last_reported":1728382169,"current_range_meters":30800,"station_id":"ce4bhs12rcd13ifvqhvg","pricing_plan_id":"cebpf4jnsgd1na2vs0mg"},{"bike_id":"f7612392-4f4b-453b-a64c-499de3c2600f","system_id":"levelo_inurba_marseille","lat":43.24163,"lon":5.36399,"is_reserved":false,"is_disabled":false,"rental_uris":{"android":"levelo://app?vid=f7612392-4f4b-453b-a64c-499de3c2600f","ios":"levelo://app?vid=f7612392-4f4b-453b-a64c-499de3c2600f"},"vehicle_type_id":"4","last_reported":1728382169,"current_range_meters":32000,"station_id":"cpo36qri1sfpv3e86is0","pricing_plan_id":"cebpf4jnsgd1na2vs0mg"},{"bike_id":"0d568641-6bad-4b74-89a4-8e83c4799303","system_id":"levelo_inurba_marseille","lat":43.30213,"lon":5.39477,"is_reserved":false,"is_disabled":false,"rental_uris":{"android":"levelo://app?vid=0d568641-6bad-4b74-89a4-8e83c4799303","ios":"levelo://app?vid=0d568641-6bad-4b74-89a4-8e83c4799303"},"vehicle_type_id":"4","last_reported":1728382169,"current_range_meters":31200,"station_id":"ce4bh0p2rcd13ifvqd70","pricing_plan_id":"cebpf4jnsgd1na2vs0mg"},{"bike_id":"7d8b5b98-f33c-47c3-a3f0-364fecb754a9","system_id":"levelo_inurba_marseille","lat":43.26947,"lon":5.3863,"is_reserved":false,"is_disabled":false,"rental_uris":{"android":"levelo://app?vid=7d8b5b98-f33c-47c3-a3f0-364fecb754a9","ios":"levelo://app?vid=7d8b5b98-f33c-47c3-a3f0-364fecb754a9"},"vehicle_type_id":"4","last_reported":1728382169,"current_range_meters":39200,"station_id":"ce4bhh92rcd13ifvqfh0","pricing_plan_id":"cebpf4jnsgd1na2vs0mg"},{"bike_id":"4bd8fdaf-978d-4fac-b388-0066bc4f2ea1","system_id":"levelo_inurba_marseille","lat":43.330101,"lon":5.389174,"is_reserved":false,"is_disabled":false,"rental_uris":{"android":"levelo://app?vid=4bd8fdaf-978d-4fac-b388-0066bc4f2ea1","ios":"levelo://app?vid=4bd8fdaf-978d-4fac-b388-0066bc4f2ea1"},"vehicle_type_id":"4","last_reported":1728382169,"current_range_meters":35200,"station_id":"ce4bhr12rcd13ifvqhqg","pricing_plan_id":"cebpf4jnsgd1na2vs0mg"},{"bike_id":"bde2b851-8a75-4f7f-ac50-a363b335f7c3","system_id":"levelo_inurba_marseille","lat":43.28615,"lon":5.35104,"is_reserved":false,"is_disabled":false,"rental_uris":{"android":"levelo://app?vid=bde2b851-8a75-4f7f-ac50-a363b335f7c3","ios":"levelo://app?vid=bde2b851-8a75-4f7f-ac50-a363b335f7c3"},"vehicle_type_id":"4","last_reported":1728382169,"current_range_meters":9600,"station_id":"ce4bhch2rcd13ifvqeug","pricing_plan_id":"cebpf4jnsgd1na2vs0mg"},{"bike_id":"752581ca-a175-475d-a5bd-33e2439e6f90","system_id":"levelo_inurba_marseille","lat":43.29914,"lon":5.37476,"is_reserved":false,"is_disabled":false,"rental_uris":{"android":"levelo://app?vid=752581ca-a175-475d-a5bd-33e2439e6f90","ios":"levelo://app?vid=752581ca-a175-475d-a5bd-33e2439e6f90"},"vehicle_type_id":"4","last_reported":1728382169,"current_range_meters":6400,"station_id":"ce4bgjh2rcd13ifvqbg0","pricing_plan_id":"cebpf4jnsgd1na2vs0mg"},{"bike_id":"655ef0f5-54fa-4357-ba68-c695159e7201","system_id":"levelo_inurba_marseille","lat":43.27809,"lon":5.40707,"is_reserved":false,"is_disabled":false,"rental_uris":{"android":"levelo://app?vid=655ef0f5-54fa-4357-ba68-c695159e7201","ios":"levelo://app?vid=655ef0f5-54fa-4357-ba68-c695159e7201"},"vehicle_type_id":"4","last_reported":1728382169,"current_range_meters":39200,"station_id":"ce4bhnh2rcd13ifvqgtg","pricing_plan_id":"cebpf4jnsgd1na2vs0mg"},{"bike_id":"f10bd89b-9103-4bdd-97c4-1fb022995012","system_id":"levelo_inurba_marseille","lat":43.241703,"lon":5.39734,"is_reserved":false,"is_disabled":false,"rental_uris":{"android":"levelo://app?vid=f10bd89b-9103-4bdd-97c4-1fb022995012","ios":"levelo://app?vid=f10bd89b-9103-4bdd-97c4-1fb022995012"},"vehicle_type_id":"4","last_reported":1728382169,"current_range_meters":8400,"station_id":"ce4bhn12rcd13ifvqgpg","pricing_plan_id":"cebpf4jnsgd1na2vs0mg"},{"bike_id":"f7f424be-d4da-4345-a5e8-6a0ece6eef8c","system_id":"levelo_inurba_marseille","lat":43.29964,"lon":5.38498,"is_reserved":false,"is_disabled":false,"rental_uris":{"android":"levelo://app?vid=f7f424be-d4da-4345-a5e8-6a0ece6eef8c","ios":"levelo://app?vid=f7f424be-d4da-4345-a5e8-6a0ece6eef8c"},"vehicle_type_id":"4","last_reported":1728382169,"current_range_meters":11600,"station_id":"ce4bgj92rcd13ifvqbd0","pricing_plan_id":"cebpf4jnsgd1na2vs0mg"},{"bike_id":"0a8ccba5-237d-43b9-a077-96384e616267","system_id":"levelo_inurba_marseille","lat":43.25932,"lon":5.40917,"is_reserved":false,"is_disabled":false,"rental_uris":{"android":"levelo://app?vid=0a8ccba5-237d-43b9-a077-96384e616267","ios":"levelo://app?vid=0a8ccba5-237d-43b9-a077-96384e616267"},"vehicle_type_id":"4","last_reported":1728382169,"current_range_meters":22800,"station_id":"ce4bhm92rcd13ifvqglg","pricing_plan_id":"cebpf4jnsgd1na2vs0mg"},{"bike_id":"0b7e6152-1690-467e-801b-58ede9daa594","system_id":"levelo_inurba_marseille","lat":43.309174,"lon":5.368335,"is_reserved":false,"is_disabled":false,"rental_uris":{"android":"levelo://app?vid=0b7e6152-1690-467e-801b-58ede9daa594","ios":"levelo://app?vid=0b7e6152-1690-467e-801b-58ede9daa594"},"vehicle_type_id":"4","last_reported":1728382169,"current_range_meters":36800,"station_id":"ce4bguh2rcd13ifvqckg","pricing_plan_id":"cebpf4jnsgd1na2vs0mg"},{"bike_id":"b356d79d-0fab-4432-9bdf-f65dc71a7233","system_id":"levelo_inurba_marseille","lat":43.30558,"lon":5.36537,"is_reserved":false,"is_disabled":false,"rental_uris":{"android":"levelo://app?vid=b356d79d-0fab-4432-9bdf-f65dc71a7233","ios":"levelo://app?vid=b356d79d-0fab-4432-9bdf-f65dc71a7233"},"vehicle_type_id":"4","last_reported":1728382169,"current_range_meters":40000,"station_id":"ce4bgs12rcd13ifvqcag","pricing_plan_id":"cebpf4jnsgd1na2vs0mg"},{"bike_id":"cf927195-cafe-4fe6-8a9b-b503bf9be2b0","system_id":"levelo_inurba_marseille","lat":43.23169,"lon":5.40002,"is_reserved":false,"is_disabled":false,"rental_uris":{"android":"levelo://app?vid=cf927195-cafe-4fe6-8a9b-b503bf9be2b0","ios":"levelo://app?vid=cf927195-cafe-4fe6-8a9b-b503bf9be2b0"},"vehicle_type_id":"4","last_reported":1728382169,"current_range_meters":38800,"station_id":"ce4bhn12rcd13ifvqgqg","pricing_plan_id":"cebpf4jnsgd1na2vs0mg"},{"bike_id":"2197679b-fe29-4f1e-b3bd-bd48ccf79cde","system_id":"levelo_inurba_marseille","lat":43.28939,"lon":5.39642,"is_reserved":false,"is_disabled":false,"rental_uris":{"android":"levelo://app?vid=2197679b-fe29-4f1e-b3bd-bd48ccf79cde","ios":"levelo://app?vid=2197679b-fe29-4f1e-b3bd-bd48ccf79cde"},"vehicle_type_id":"4","last_reported":1728382169,"current_range_meters":30800,"station_id":"ce4bh3h2rcd13ifvqdn0","pricing_plan_id":"cebpf4jnsgd1na2vs0mg"},{"bike_id":"556fbc1a-4164-4149-8bdf-aabf62304ff5","system_id":"levelo_inurba_marseille","lat":43.29973,"lon":5.38497,"is_reserved":false,"is_disabled":false,"rental_uris":{"android":"levelo://app?vid=556fbc1a-4164-4149-8bdf-aabf62304ff5","ios":"levelo://app?vid=556fbc1a-4164-4149-8bdf-aabf62304ff5"},"vehicle_type_id":"4","last_reported":1728382169,"current_range_meters":38800,"station_id":"ce4bgj92rcd13ifvqbd0","pricing_plan_id":"cebpf4jnsgd1na2vs0mg"},{"bike_id":"25073d1e-b4f8-488b-9724-849ae495dbd3","system_id":"levelo_inurba_marseille","lat":43.31341,"lon":5.36738,"is_reserved":false,"is_disabled":false,"rental_uris":{"android":"levelo://app?vid=25073d1e-b4f8-488b-9724-849ae495dbd3","ios":"levelo://app?vid=25073d1e-b4f8-488b-9724-849ae495dbd3"},"vehicle_type_id":"4","last_reported":1728382169,"current_range_meters":7200,"station_id":"ce4bgr92rcd13ifvqc6g","pricing_plan_id":"cebpf4jnsgd1na2vs0mg"},{"bike_id":"22942128-eccb-447c-a404-8ab36ea27ffe","system_id":"levelo_inurba_marseille","lat":43.2594,"lon":5.40903,"is_reserved":false,"is_disabled":false,"rental_uris":{"android":"levelo://app?vid=22942128-eccb-447c-a404-8ab36ea27ffe","ios":"levelo://app?vid=22942128-eccb-447c-a404-8ab36ea27ffe"},"vehicle_type_id":"4","last_reported":1728382169,"current_range_meters":38400,"station_id":"ce4bhm92rcd13ifvqglg","pricing_plan_id":"cebpf4jnsgd1na2vs0mg"},{"bike_id":"be6e433b-5ac4-4431-848f-cebc8350ecef","system_id":"levelo_inurba_marseille","lat":43.26191,"lon":5.37449,"is_reserved":false,"is_disabled":false,"rental_uris":{"android":"levelo://app?vid=be6e433b-5ac4-4431-848f-cebc8350ecef","ios":"levelo://app?vid=be6e433b-5ac4-4431-848f-cebc8350ecef"},"vehicle_type_id":"4","last_reported":1728382169,"current_range_meters":10000,"station_id":"ce4bhgp2rcd13ifvqfc0","pricing_plan_id":"cebpf4jnsgd1na2vs0mg"},{"bike_id":"a1a51467-4877-481e-990e-1f7c8eba411a","system_id":"levelo_inurba_marseille","lat":43.24666,"lon":5.38162,"is_reserved":false,"is_disabled":false,"rental_uris":{"android":"levelo://app?vid=a1a51467-4877-481e-990e-1f7c8eba411a","ios":"levelo://app?vid=a1a51467-4877-481e-990e-1f7c8eba411a"},"vehicle_type_id":"4","last_reported":1728382169,"current_range_meters":20800,"station_id":"ce4bhih2rcd13ifvqfr0","pricing_plan_id":"cebpf4jnsgd1na2vs0mg"},{"bike_id":"e18f5311-b1b9-4323-a007-493591cf0a2d","system_id":"levelo_inurba_marseille","lat":43.28724,"lon":5.36087,"is_reserved":false,"is_disabled":false,"rental_uris":{"android":"levelo://app?vid=e18f5311-b1b9-4323-a007-493591cf0a2d","ios":"levelo://app?vid=e18f5311-b1b9-4323-a007-493591cf0a2d"},"vehicle_type_id":"4","last_reported":1728382169,"current_range_meters":16000,"station_id":"cki0cbj6b192h4jlfktg","pricing_plan_id":"cebpf4jnsgd1na2vs0mg"},{"bike_id":"542404d0-7ad8-4d88-9837-14b7ea9cdc5a","system_id":"levelo_inurba_marseille","lat":43.31709,"lon":5.437,"is_reserved":false,"is_disabled":false,"rental_uris":{"android":"levelo://app?vid=542404d0-7ad8-4d88-9837-14b7ea9cdc5a","ios":"levelo://app?vid=542404d0-7ad8-4d88-9837-14b7ea9cdc5a"},"vehicle_type_id":"4","last_reported":1728382169,"current_range_meters":38000,"station_id":"ce4bhp92rcd13ifvqhcg","pricing_plan_id":"cebpf4jnsgd1na2vs0mg"},{"bike_id":"4c4a7e2d-9e86-42d7-8c95-4d80dc9bf749","system_id":"levelo_inurba_marseille","lat":43.33749,"lon":5.37451,"is_reserved":false,"is_disabled":false,"rental_uris":{"android":"levelo://app?vid=4c4a7e2d-9e86-42d7-8c95-4d80dc9bf749","ios":"levelo://app?vid=4c4a7e2d-9e86-42d7-8c95-4d80dc9bf749"},"vehicle_type_id":"4","last_reported":1728382169,"current_range_meters":38000,"station_id":"","pricing_plan_id":"cebpf4jnsgd1na2vs0mg"},{"bike_id":"a774f550-3ce3-43eb-9d80-b5fdc228d567","system_id":"levelo_inurba_marseille","lat":43.31063,"lon":5.38346,"is_reserved":false,"is_disabled":false,"rental_uris":{"android":"levelo://app?vid=a774f550-3ce3-43eb-9d80-b5fdc228d567","ios":"levelo://app?vid=a774f550-3ce3-43eb-9d80-b5fdc228d567"},"vehicle_type_id":"4","last_reported":1728382169,"current_range_meters":36800,"station_id":"ce4bgv92rcd13ifvqcr0","pricing_plan_id":"cebpf4jnsgd1na2vs0mg"},{"bike_id":"6731d1b1-b391-47f7-84a2-e5222ded00d2","system_id":"levelo_inurba_marseille","lat":43.33025,"lon":5.390369,"is_reserved":false,"is_disabled":false,"rental_uris":{"android":"levelo://app?vid=6731d1b1-b391-47f7-84a2-e5222ded00d2","ios":"levelo://app?vid=6731d1b1-b391-47f7-84a2-e5222ded00d2"},"vehicle_type_id":"4","last_reported":1728382169,"current_range_meters":25600,"station_id":"ce4bhr92rcd13ifvqhrg","pricing_plan_id":"cebpf4jnsgd1na2vs0mg"},{"bike_id":"0b48fe96-5a73-4eb1-a1e0-ff84cc376fde","system_id":"levelo_inurba_marseille","lat":43.25495,"lon":5.3765,"is_reserved":false,"is_disabled":false,"rental_uris":{"android":"levelo://app?vid=0b48fe96-5a73-4eb1-a1e0-ff84cc376fde","ios":"levelo://app?vid=0b48fe96-5a73-4eb1-a1e0-ff84cc376fde"},"vehicle_type_id":"4","last_reported":1728382169,"current_range_meters":31200,"station_id":"ce4bhh12rcd13ifvqff0","pricing_plan_id":"cebpf4jnsgd1na2vs0mg"},{"bike_id":"f457d2d7-3d70-4d4b-8dd6-547cbde4fa7b","system_id":"levelo_inurba_marseille","lat":43.25576,"lon":5.38232,"is_reserved":false,"is_disabled":false,"rental_uris":{"android":"levelo://app?vid=f457d2d7-3d70-4d4b-8dd6-547cbde4fa7b","ios":"levelo://app?vid=f457d2d7-3d70-4d4b-8dd6-547cbde4fa7b"},"vehicle_type_id":"4","last_reported":1728382169,"current_range_meters":16400,"station_id":"ce4bhih2rcd13ifvqfs0","pricing_plan_id":"cebpf4jnsgd1na2vs0mg"},{"bike_id":"5aa7d444-f057-4863-9073-80231dc456be","system_id":"levelo_inurba_marseille","lat":43.295715,"lon":5.399816,"is_reserved":false,"is_disabled":false,"rental_uris":{"android":"levelo://app?vid=5aa7d444-f057-4863-9073-80231dc456be","ios":"levelo://app?vid=5aa7d444-f057-4863-9073-80231dc456be"},"vehicle_type_id":"4","last_reported":1728382169,"current_range_meters":38800,"station_id":"ce4bh312rcd13ifvqdj0","pricing_plan_id":"cebpf4jnsgd1na2vs0mg"},{"bike_id":"66dfb237-26d1-4a86-90c5-70160dcc09ca","system_id":"levelo_inurba_marseille","lat":43.25095,"lon":5.39518,"is_reserved":false,"is_disabled":false,"rental_uris":{"android":"levelo://app?vid=66dfb237-26d1-4a86-90c5-70160dcc09ca","ios":"levelo://app?vid=66dfb237-26d1-4a86-90c5-70160dcc09ca"},"vehicle_type_id":"4","last_reported":1728382169,"current_range_meters":38800,"station_id":"ce4bhm12rcd13ifvqgkg","pricing_plan_id":"cebpf4jnsgd1na2vs0mg"},{"bike_id":"763cd71d-a5cc-4c10-b1d5-8b562bc1cd70","system_id":"levelo_inurba_marseille","lat":43.3021,"lon":5.3946,"is_reserved":false,"is_disabled":false,"rental_uris":{"android":"levelo://app?vid=763cd71d-a5cc-4c10-b1d5-8b562bc1cd70","ios":"levelo://app?vid=763cd71d-a5cc-4c10-b1d5-8b562bc1cd70"},"vehicle_type_id":"4","last_reported":1728382169,"current_range_meters":28000,"station_id":"ce4bh0p2rcd13ifvqd70","pricing_plan_id":"cebpf4jnsgd1na2vs0mg"},{"bike_id":"8c57ef0e-a429-4a21-8b4d-70eeecda1108","system_id":"levelo_inurba_marseille","lat":43.25937,"lon":5.40902,"is_reserved":false,"is_disabled":false,"rental_uris":{"android":"levelo://app?vid=8c57ef0e-a429-4a21-8b4d-70eeecda1108","ios":"levelo://app?vid=8c57ef0e-a429-4a21-8b4d-70eeecda1108"},"vehicle_type_id":"4","last_reported":1728382169,"current_range_meters":9200,"station_id":"ce4bhm92rcd13ifvqglg","pricing_plan_id":"cebpf4jnsgd1na2vs0mg"},{"bike_id":"4a96fa96-a51c-45a7-8cef-57bdac1d20c5","system_id":"levelo_inurba_marseille","lat":43.29004,"lon":5.35606,"is_reserved":false,"is_disabled":false,"rental_uris":{"android":"levelo://app?vid=4a96fa96-a51c-45a7-8cef-57bdac1d20c5","ios":"levelo://app?vid=4a96fa96-a51c-45a7-8cef-57bdac1d20c5"},"vehicle_type_id":"4","last_reported":1728382169,"current_range_meters":40000,"station_id":"ce4bhb92rcd13ifvqen0","pricing_plan_id":"cebpf4jnsgd1na2vs0mg"},{"bike_id":"f9d644f2-8d7c-4d08-954d-547864f0a8a3","system_id":"levelo_inurba_marseille","lat":43.30541,"lon":5.36718,"is_reserved":false,"is_disabled":false,"rental_uris":{"android":"levelo://app?vid=f9d644f2-8d7c-4d08-954d-547864f0a8a3","ios":"levelo://app?vid=f9d644f2-8d7c-4d08-954d-547864f0a8a3"},"vehicle_type_id":"4","last_reported":1728382169,"current_range_meters":38000,"station_id":"ce4bgrp2rcd13ifvqc9g","pricing_plan_id":"cebpf4jnsgd1na2vs0mg"},{"bike_id":"5a619668-cdef-4d89-a43c-ad0c1ae9138e","system_id":"levelo_inurba_marseille","lat":43.264852,"lon":5.39548,"is_reserved":false,"is_disabled":false,"rental_uris":{"android":"levelo://app?vid=5a619668-cdef-4d89-a43c-ad0c1ae9138e","ios":"levelo://app?vid=5a619668-cdef-4d89-a43c-ad0c1ae9138e"},"vehicle_type_id":"4","last_reported":1728382169,"current_range_meters":8400,"station_id":"ce4bhhp2rcd13ifvqfm0","pricing_plan_id":"cebpf4jnsgd1na2vs0mg"},{"bike_id":"f1510c6a-ec9a-4cb6-ba53-8ced3616703a","system_id":"levelo_inurba_marseille","lat":43.32477,"lon":5.36572,"is_reserved":false,"is_disabled":false,"rental_uris":{"android":"levelo://app?vid=f1510c6a-ec9a-4cb6-ba53-8ced3616703a","ios":"levelo://app?vid=f1510c6a-ec9a-4cb6-ba53-8ced3616703a"},"vehicle_type_id":"4","last_reported":1728382169,"current_range_meters":38000,"station_id":"ce4bhs12rcd13ifvqhvg","pricing_plan_id":"cebpf4jnsgd1na2vs0mg"},{"bike_id":"e750d3c3-df16-407a-b157-edf9172a65b7","system_id":"levelo_inurba_marseille","lat":43.33753,"lon":5.37448,"is_reserved":false,"is_disabled":false,"rental_uris":{"android":"levelo://app?vid=e750d3c3-df16-407a-b157-edf9172a65b7","ios":"levelo://app?vid=e750d3c3-df16-407a-b157-edf9172a65b7"},"vehicle_type_id":"4","last_reported":1728382169,"current_range_meters":22000,"station_id":"","pricing_plan_id":"cebpf4jnsgd1na2vs0mg"},{"bike_id":"5e43c5a9-b674-4529-8b56-808e9103d8ad","system_id":"levelo_inurba_marseille","lat":43.27901,"lon":5.39588,"is_reserved":false,"is_disabled":false,"rental_uris":{"android":"levelo://app?vid=5e43c5a9-b674-4529-8b56-808e9103d8ad","ios":"levelo://app?vid=5e43c5a9-b674-4529-8b56-808e9103d8ad"},"vehicle_type_id":"4","last_reported":1728382169,"current_range_meters":38800,"station_id":"ce4bhf92rcd13ifvqf40","pricing_plan_id":"cebpf4jnsgd1na2vs0mg"},{"bike_id":"09ef71aa-0817-4eb5-83ac-bde0ebd31387","system_id":"levelo_inurba_marseille","lat":43.32365,"lon":5.38884,"is_reserved":false,"is_disabled":false,"rental_uris":{"android":"levelo://app?vid=09ef71aa-0817-4eb5-83ac-bde0ebd31387","ios":"levelo://app?vid=09ef71aa-0817-4eb5-83ac-bde0ebd31387"},"vehicle_type_id":"4","last_reported":1728382169,"current_range_meters":38000,"station_id":"ce4bhqp2rcd13ifvqhog","pricing_plan_id":"cebpf4jnsgd1na2vs0mg"},{"bike_id":"2bc8224e-64f6-45f5-a13f-e383a4583002","system_id":"levelo_inurba_marseille","lat":43.32335,"lon":5.40619,"is_reserved":false,"is_disabled":false,"rental_uris":{"android":"levelo://app?vid=2bc8224e-64f6-45f5-a13f-e383a4583002","ios":"levelo://app?vid=2bc8224e-64f6-45f5-a13f-e383a4583002"},"vehicle_type_id":"4","last_reported":1728382169,"current_range_meters":29600,"station_id":"ce4bhq92rcd13ifvqhjg","pricing_plan_id":"cebpf4jnsgd1na2vs0mg"},{"bike_id":"6826c930-8aa2-4db5-96a6-4b67fd5214fe","system_id":"levelo_inurba_marseille","lat":43.28268,"lon":5.35065,"is_reserved":false,"is_disabled":false,"rental_uris":{"android":"levelo://app?vid=6826c930-8aa2-4db5-96a6-4b67fd5214fe","ios":"levelo://app?vid=6826c930-8aa2-4db5-96a6-4b67fd5214fe"},"vehicle_type_id":"4","last_reported":1728382169,"current_range_meters":38000,"station_id":"ce4bhbp2rcd13ifvqerg","pricing_plan_id":"cebpf4jnsgd1na2vs0mg"},{"bike_id":"4c5b01a3-f84c-4a30-ac06-7cb136490bcb","system_id":"levelo_inurba_marseille","lat":43.287,"lon":5.3739,"is_reserved":false,"is_disabled":false,"rental_uris":{"android":"levelo://app?vid=4c5b01a3-f84c-4a30-ac06-7cb136490bcb","ios":"levelo://app?vid=4c5b01a3-f84c-4a30-ac06-7cb136490bcb"},"vehicle_type_id":"4","last_reported":1728382169,"current_range_meters":30400,"station_id":"ce4bh3p2rcd13ifvqdq0","pricing_plan_id":"cebpf4jnsgd1na2vs0mg"},{"bike_id":"ef636228-b61f-43d6-97d2-bf924dc2d7f1","system_id":"levelo_inurba_marseille","lat":43.284698,"lon":5.359037,"is_reserved":false,"is_disabled":false,"rental_uris":{"android":"levelo://app?vid=ef636228-b61f-43d6-97d2-bf924dc2d7f1","ios":"levelo://app?vid=ef636228-b61f-43d6-97d2-bf924dc2d7f1"},"vehicle_type_id":"4","last_reported":1728382169,"current_range_meters":16000,"station_id":"ce4bhah2rcd13ifvqei0","pricing_plan_id":"cebpf4jnsgd1na2vs0mg"},{"bike_id":"4d9cc9b0-6ad6-48bf-b002-9ab3e38d59b0","system_id":"levelo_inurba_marseille","lat":43.30596,"lon":5.39381,"is_reserved":false,"is_disabled":false,"rental_uris":{"android":"levelo://app?vid=4d9cc9b0-6ad6-48bf-b002-9ab3e38d59b0","ios":"levelo://app?vid=4d9cc9b0-6ad6-48bf-b002-9ab3e38d59b0"},"vehicle_type_id":"4","last_reported":1728382169,"current_range_meters":28800,"station_id":"ce4bhi12rcd13ifvqfo0","pricing_plan_id":"cebpf4jnsgd1na2vs0mg"},{"bike_id":"f709cac8-8e89-438a-9f72-643c2cf33eb4","system_id":"levelo_inurba_marseille","lat":43.28612,"lon":5.35101,"is_reserved":false,"is_disabled":false,"rental_uris":{"android":"levelo://app?vid=f709cac8-8e89-438a-9f72-643c2cf33eb4","ios":"levelo://app?vid=f709cac8-8e89-438a-9f72-643c2cf33eb4"},"vehicle_type_id":"4","last_reported":1728382169,"current_range_meters":35200,"station_id":"ce4bhch2rcd13ifvqeug","pricing_plan_id":"cebpf4jnsgd1na2vs0mg"},{"bike_id":"7128580c-1a69-4b60-843e-ab1a25a175a6","system_id":"levelo_inurba_marseille","lat":43.30416,"lon":5.41285,"is_reserved":false,"is_disabled":false,"rental_uris":{"android":"levelo://app?vid=7128580c-1a69-4b60-843e-ab1a25a175a6","ios":"levelo://app?vid=7128580c-1a69-4b60-843e-ab1a25a175a6"},"vehicle_type_id":"4","last_reported":1728382169,"current_range_meters":20400,"station_id":"ce4bhop2rcd13ifvqh8g","pricing_plan_id":"cebpf4jnsgd1na2vs0mg"},{"bike_id":"7a284141-427f-4b3a-b279-a9138bc649ca","system_id":"levelo_inurba_marseille","lat":43.33024,"lon":5.39041,"is_reserved":false,"is_disabled":false,"rental_uris":{"android":"levelo://app?vid=7a284141-427f-4b3a-b279-a9138bc649ca","ios":"levelo://app?vid=7a284141-427f-4b3a-b279-a9138bc649ca"},"vehicle_type_id":"4","last_reported":1728382169,"current_range_meters":37600,"station_id":"ce4bhr92rcd13ifvqhrg","pricing_plan_id":"cebpf4jnsgd1na2vs0mg"},{"bike_id":"c190b4a1-ea1d-47e2-b2e8-eefa3099f9cc","system_id":"levelo_inurba_marseille","lat":43.23187,"lon":5.35565,"is_reserved":false,"is_disabled":false,"rental_uris":{"android":"levelo://app?vid=c190b4a1-ea1d-47e2-b2e8-eefa3099f9cc","ios":"levelo://app?vid=c190b4a1-ea1d-47e2-b2e8-eefa3099f9cc"},"vehicle_type_id":"4","last_reported":1728382169,"current_range_meters":36800,"station_id":"ce4bhu92rcd13ifvqi70","pricing_plan_id":"cebpf4jnsgd1na2vs0mg"},{"bike_id":"6f34ba66-dc7e-4580-ad03-13f9f6e9f96e","system_id":"levelo_inurba_marseille","lat":43.324914,"lon":5.365581,"is_reserved":false,"is_disabled":false,"rental_uris":{"android":"levelo://app?vid=6f34ba66-dc7e-4580-ad03-13f9f6e9f96e","ios":"levelo://app?vid=6f34ba66-dc7e-4580-ad03-13f9f6e9f96e"},"vehicle_type_id":"4","last_reported":1728382169,"current_range_meters":39200,"station_id":"ce4bhs12rcd13ifvqhvg","pricing_plan_id":"cebpf4jnsgd1na2vs0mg"},{"bike_id":"ff5ba5ff-b9bc-44eb-9be7-e35bd733d917","system_id":"levelo_inurba_marseille","lat":43.24169,"lon":5.36396,"is_reserved":false,"is_disabled":false,"rental_uris":{"android":"levelo://app?vid=ff5ba5ff-b9bc-44eb-9be7-e35bd733d917","ios":"levelo://app?vid=ff5ba5ff-b9bc-44eb-9be7-e35bd733d917"},"vehicle_type_id":"4","last_reported":1728382169,"current_range_meters":37600,"station_id":"cpo36qri1sfpv3e86is0","pricing_plan_id":"cebpf4jnsgd1na2vs0mg"},{"bike_id":"1d6fe866-e5a6-4cae-9c9a-6f55815c6cc1","system_id":"levelo_inurba_marseille","lat":43.31214,"lon":5.3687,"is_reserved":false,"is_disabled":false,"rental_uris":{"android":"levelo://app?vid=1d6fe866-e5a6-4cae-9c9a-6f55815c6cc1","ios":"levelo://app?vid=1d6fe866-e5a6-4cae-9c9a-6f55815c6cc1"},"vehicle_type_id":"4","last_reported":1728382169,"current_range_meters":31200,"station_id":"ce4bgl92rcd13ifvqbq0","pricing_plan_id":"cebpf4jnsgd1na2vs0mg"},{"bike_id":"301038ae-0144-46d0-b564-990ffdf12f70","system_id":"levelo_inurba_marseille","lat":43.27562,"lon":5.38432,"is_reserved":false,"is_disabled":false,"rental_uris":{"android":"levelo://app?vid=301038ae-0144-46d0-b564-990ffdf12f70","ios":"levelo://app?vid=301038ae-0144-46d0-b564-990ffdf12f70"},"vehicle_type_id":"4","last_reported":1728382169,"current_range_meters":39200,"station_id":"ce4bhh92rcd13ifvqfi0","pricing_plan_id":"cebpf4jnsgd1na2vs0mg"},{"bike_id":"9e036a65-4c77-4646-8812-2c8b33e5a2a7","system_id":"levelo_inurba_marseille","lat":43.26559,"lon":5.37289,"is_reserved":false,"is_disabled":false,"rental_uris":{"android":"levelo://app?vid=9e036a65-4c77-4646-8812-2c8b33e5a2a7","ios":"levelo://app?vid=9e036a65-4c77-4646-8812-2c8b33e5a2a7"},"vehicle_type_id":"4","last_reported":1728382169,"current_range_meters":6800,"station_id":"ce4bhg12rcd13ifvqf70","pricing_plan_id":"cebpf4jnsgd1na2vs0mg"},{"bike_id":"6b4618ac-bf15-42bd-b8ce-f62f3e28352b","system_id":"levelo_inurba_marseille","lat":43.23195,"lon":5.35553,"is_reserved":false,"is_disabled":false,"rental_uris":{"android":"levelo://app?vid=6b4618ac-bf15-42bd-b8ce-f62f3e28352b","ios":"levelo://app?vid=6b4618ac-bf15-42bd-b8ce-f62f3e28352b"},"vehicle_type_id":"4","last_reported":1728382169,"current_range_meters":28400,"station_id":"ce4bhu92rcd13ifvqi70","pricing_plan_id":"cebpf4jnsgd1na2vs0mg"},{"bike_id":"fa4c4cc3-cf3f-4f9a-a727-2ef93f50288a","system_id":"levelo_inurba_marseille","lat":43.23151,"lon":5.43713,"is_reserved":false,"is_disabled":false,"rental_uris":{"android":"levelo://app?vid=fa4c4cc3-cf3f-4f9a-a727-2ef93f50288a","ios":"levelo://app?vid=fa4c4cc3-cf3f-4f9a-a727-2ef93f50288a"},"vehicle_type_id":"4","last_reported":1728382169,"current_range_meters":38800,"station_id":"ce4bhmp2rcd13ifvqgog","pricing_plan_id":"cebpf4jnsgd1na2vs0mg"},{"bike_id":"a87feeaa-8440-45bc-9201-d499b489e7c9","system_id":"levelo_inurba_marseille","lat":43.330204,"lon":5.390306,"is_reserved":false,"is_disabled":false,"rental_uris":{"android":"levelo://app?vid=a87feeaa-8440-45bc-9201-d499b489e7c9","ios":"levelo://app?vid=a87feeaa-8440-45bc-9201-d499b489e7c9"},"vehicle_type_id":"4","last_reported":1728382169,"current_range_meters":18800,"station_id":"ce4bhr92rcd13ifvqhrg","pricing_plan_id":"cebpf4jnsgd1na2vs0mg"},{"bike_id":"74d9a3c9-96b5-4dbf-b3c3-81ef3a14d238","system_id":"levelo_inurba_marseille","lat":43.23149,"lon":5.4372,"is_reserved":false,"is_disabled":false,"rental_uris":{"android":"levelo://app?vid=74d9a3c9-96b5-4dbf-b3c3-81ef3a14d238","ios":"levelo://app?vid=74d9a3c9-96b5-4dbf-b3c3-81ef3a14d238"},"vehicle_type_id":"4","last_reported":1728382169,"current_range_meters":3600,"station_id":"ce4bhmp2rcd13ifvqgog","pricing_plan_id":"cebpf4jnsgd1na2vs0mg"},{"bike_id":"62b34113-8f5d-4dd4-8ae3-6ba20b54a8e1","system_id":"levelo_inurba_marseille","lat":43.297084,"lon":5.377021,"is_reserved":false,"is_disabled":false,"rental_uris":{"android":"levelo://app?vid=62b34113-8f5d-4dd4-8ae3-6ba20b54a8e1","ios":"levelo://app?vid=62b34113-8f5d-4dd4-8ae3-6ba20b54a8e1"},"vehicle_type_id":"4","last_reported":1728382169,"current_range_meters":29600,"station_id":"ce4bgkh2rcd13ifvqbl0","pricing_plan_id":"cebpf4jnsgd1na2vs0mg"},{"bike_id":"16059a15-afdf-4f1d-84cb-7cfde15d704d","system_id":"levelo_inurba_marseille","lat":43.30534,"lon":5.36541,"is_reserved":false,"is_disabled":false,"rental_uris":{"android":"levelo://app?vid=16059a15-afdf-4f1d-84cb-7cfde15d704d","ios":"levelo://app?vid=16059a15-afdf-4f1d-84cb-7cfde15d704d"},"vehicle_type_id":"4","last_reported":1728382169,"current_range_meters":27600,"station_id":"ce4bgs12rcd13ifvqcag","pricing_plan_id":"cebpf4jnsgd1na2vs0mg"},{"bike_id":"8b4dcf8f-7c5e-4e31-88a0-3d4534368290","system_id":"levelo_inurba_marseille","lat":43.28445,"lon":5.39202,"is_reserved":false,"is_disabled":false,"rental_uris":{"android":"levelo://app?vid=8b4dcf8f-7c5e-4e31-88a0-3d4534368290","ios":"levelo://app?vid=8b4dcf8f-7c5e-4e31-88a0-3d4534368290"},"vehicle_type_id":"4","last_reported":1728382169,"current_range_meters":39200,"station_id":"ce4bhoh2rcd13ifvqh5g","pricing_plan_id":"cebpf4jnsgd1na2vs0mg"},{"bike_id":"dafbe001-ebbb-4e98-b3d7-c871b5fc47e0","system_id":"levelo_inurba_marseille","lat":43.31352,"lon":5.36701,"is_reserved":false,"is_disabled":false,"rental_uris":{"android":"levelo://app?vid=dafbe001-ebbb-4e98-b3d7-c871b5fc47e0","ios":"levelo://app?vid=dafbe001-ebbb-4e98-b3d7-c871b5fc47e0"},"vehicle_type_id":"4","last_reported":1728382169,"current_range_meters":31200,"station_id":"ce4bgr92rcd13ifvqc6g","pricing_plan_id":"cebpf4jnsgd1na2vs0mg"},{"bike_id":"8c071b9e-2db5-4e0d-a9f9-97dc98100095","system_id":"levelo_inurba_marseille","lat":43.23155,"lon":5.43704,"is_reserved":false,"is_disabled":false,"rental_uris":{"android":"levelo://app?vid=8c071b9e-2db5-4e0d-a9f9-97dc98100095","ios":"levelo://app?vid=8c071b9e-2db5-4e0d-a9f9-97dc98100095"},"vehicle_type_id":"4","last_reported":1728382169,"current_range_meters":29600,"station_id":"ce4bhmp2rcd13ifvqgog","pricing_plan_id":"cebpf4jnsgd1na2vs0mg"},{"bike_id":"9f7bb594-fb34-4e78-a4aa-b9e9b8fc8e6a","system_id":"levelo_inurba_marseille","lat":43.31322,"lon":5.39695,"is_reserved":false,"is_disabled":false,"rental_uris":{"android":"levelo://app?vid=9f7bb594-fb34-4e78-a4aa-b9e9b8fc8e6a","ios":"levelo://app?vid=9f7bb594-fb34-4e78-a4aa-b9e9b8fc8e6a"},"vehicle_type_id":"4","last_reported":1728382169,"current_range_meters":39200,"station_id":"ce4bgvp2rcd13ifvqcu0","pricing_plan_id":"cebpf4jnsgd1na2vs0mg"},{"bike_id":"1a42ed45-4828-4c7c-a7e3-ac4d96ac72fa","system_id":"levelo_inurba_marseille","lat":43.25867,"lon":5.39898,"is_reserved":false,"is_disabled":false,"rental_uris":{"android":"levelo://app?vid=1a42ed45-4828-4c7c-a7e3-ac4d96ac72fa","ios":"levelo://app?vid=1a42ed45-4828-4c7c-a7e3-ac4d96ac72fa"},"vehicle_type_id":"4","last_reported":1728382169,"current_range_meters":40000,"station_id":"ce4bhl92rcd13ifvqghg","pricing_plan_id":"cebpf4jnsgd1na2vs0mg"},{"bike_id":"ad6d9e33-5c42-4466-93c0-365a4d4696f9","system_id":"levelo_inurba_marseille","lat":43.31347,"lon":5.3849,"is_reserved":false,"is_disabled":false,"rental_uris":{"android":"levelo://app?vid=ad6d9e33-5c42-4466-93c0-365a4d4696f9","ios":"levelo://app?vid=ad6d9e33-5c42-4466-93c0-365a4d4696f9"},"vehicle_type_id":"4","last_reported":1728382169,"current_range_meters":28000,"station_id":"ce4bgt92rcd13ifvqcf0","pricing_plan_id":"cebpf4jnsgd1na2vs0mg"},{"bike_id":"12de05a3-98ee-411b-b53b-f8029cd72d63","system_id":"levelo_inurba_marseille","lat":43.26554,"lon":5.37284,"is_reserved":false,"is_disabled":false,"rental_uris":{"android":"levelo://app?vid=12de05a3-98ee-411b-b53b-f8029cd72d63","ios":"levelo://app?vid=12de05a3-98ee-411b-b53b-f8029cd72d63"},"vehicle_type_id":"4","last_reported":1728382169,"current_range_meters":9600,"station_id":"ce4bhg12rcd13ifvqf70","pricing_plan_id":"cebpf4jnsgd1na2vs0mg"},{"bike_id":"74e5fcd3-d8f8-49cf-a50e-5527a4954b42","system_id":"levelo_inurba_marseille","lat":43.25578,"lon":5.38238,"is_reserved":false,"is_disabled":false,"rental_uris":{"android":"levelo://app?vid=74e5fcd3-d8f8-49cf-a50e-5527a4954b42","ios":"levelo://app?vid=74e5fcd3-d8f8-49cf-a50e-5527a4954b42"},"vehicle_type_id":"4","last_reported":1728382169,"current_range_meters":24000,"station_id":"ce4bhih2rcd13ifvqfs0","pricing_plan_id":"cebpf4jnsgd1na2vs0mg"},{"bike_id":"ee7db022-23d0-49ee-b610-0e44c387a898","system_id":"levelo_inurba_marseille","lat":43.28693,"lon":5.37403,"is_reserved":false,"is_disabled":false,"rental_uris":{"android":"levelo://app?vid=ee7db022-23d0-49ee-b610-0e44c387a898","ios":"levelo://app?vid=ee7db022-23d0-49ee-b610-0e44c387a898"},"vehicle_type_id":"4","last_reported":1728382169,"current_range_meters":15200,"station_id":"ce4bh3p2rcd13ifvqdq0","pricing_plan_id":"cebpf4jnsgd1na2vs0mg"},{"bike_id":"f236458b-a68f-4be5-ae65-f5ccd4ea25a1","system_id":"levelo_inurba_marseille","lat":43.31996,"lon":5.3815,"is_reserved":false,"is_disabled":false,"rental_uris":{"android":"levelo://app?vid=f236458b-a68f-4be5-ae65-f5ccd4ea25a1","ios":"levelo://app?vid=f236458b-a68f-4be5-ae65-f5ccd4ea25a1"},"vehicle_type_id":"4","last_reported":1728382169,"current_range_meters":39200,"station_id":"ce4bhr12rcd13ifvqhpg","pricing_plan_id":"cebpf4jnsgd1na2vs0mg"},{"bike_id":"404b4697-2249-46d0-afb0-44351c2d122f","system_id":"levelo_inurba_marseille","lat":43.29552,"lon":5.42295,"is_reserved":false,"is_disabled":false,"rental_uris":{"android":"levelo://app?vid=404b4697-2249-46d0-afb0-44351c2d122f","ios":"levelo://app?vid=404b4697-2249-46d0-afb0-44351c2d122f"},"vehicle_type_id":"4","last_reported":1728382169,"current_range_meters":17200,"station_id":"ce4bhph2rcd13ifvqhdg","pricing_plan_id":"cebpf4jnsgd1na2vs0mg"},{"bike_id":"ce9d01ef-7d06-4fb3-9664-537322597344","system_id":"levelo_inurba_marseille","lat":43.29413,"lon":5.3863,"is_reserved":false,"is_disabled":false,"rental_uris":{"android":"levelo://app?vid=ce9d01ef-7d06-4fb3-9664-537322597344","ios":"levelo://app?vid=ce9d01ef-7d06-4fb3-9664-537322597344"},"vehicle_type_id":"4","last_reported":1728382169,"current_range_meters":30800,"station_id":"ce4bh2h2rcd13ifvqdh0","pricing_plan_id":"cebpf4jnsgd1na2vs0mg"},{"bike_id":"b625834a-54ef-4eab-8c9d-e8c85e149a97","system_id":"levelo_inurba_marseille","lat":43.31081,"lon":5.4243,"is_reserved":false,"is_disabled":false,"rental_uris":{"android":"levelo://app?vid=b625834a-54ef-4eab-8c9d-e8c85e149a97","ios":"levelo://app?vid=b625834a-54ef-4eab-8c9d-e8c85e149a97"},"vehicle_type_id":"4","last_reported":1728382169,"current_range_meters":37600,"station_id":"ce4bhp92rcd13ifvqhag","pricing_plan_id":"cebpf4jnsgd1na2vs0mg"},{"bike_id":"1981aa96-f193-4ca0-8315-424e63f8984a","system_id":"levelo_inurba_marseille","lat":43.31213,"lon":5.3687,"is_reserved":false,"is_disabled":false,"rental_uris":{"android":"levelo://app?vid=1981aa96-f193-4ca0-8315-424e63f8984a","ios":"levelo://app?vid=1981aa96-f193-4ca0-8315-424e63f8984a"},"vehicle_type_id":"4","last_reported":1728382169,"current_range_meters":14000,"station_id":"ce4bgl92rcd13ifvqbq0","pricing_plan_id":"cebpf4jnsgd1na2vs0mg"},{"bike_id":"0b403d08-2413-4420-8c89-02090e354bdc","system_id":"levelo_inurba_marseille","lat":43.28145,"lon":5.42643,"is_reserved":false,"is_disabled":false,"rental_uris":{"android":"levelo://app?vid=0b403d08-2413-4420-8c89-02090e354bdc","ios":"levelo://app?vid=0b403d08-2413-4420-8c89-02090e354bdc"},"vehicle_type_id":"4","last_reported":1728382169,"current_range_meters":30800,"station_id":"ce4bhnh2rcd13ifvqgug","pricing_plan_id":"cebpf4jnsgd1na2vs0mg"},{"bike_id":"5379362e-75db-4e9e-ac3b-b69f5ecb6c86","system_id":"levelo_inurba_marseille","lat":43.29904,"lon":5.38139,"is_reserved":false,"is_disabled":false,"rental_uris":{"android":"levelo://app?vid=5379362e-75db-4e9e-ac3b-b69f5ecb6c86","ios":"levelo://app?vid=5379362e-75db-4e9e-ac3b-b69f5ecb6c86"},"vehicle_type_id":"4","last_reported":1728382169,"current_range_meters":16400,"station_id":"ce4bgj12rcd13ifvqbc0","pricing_plan_id":"cebpf4jnsgd1na2vs0mg"},{"bike_id":"d1d5d922-adec-4998-a01b-c6ced089dfe8","system_id":"levelo_inurba_marseille","lat":43.27999,"lon":5.4167,"is_reserved":false,"is_disabled":false,"rental_uris":{"android":"levelo://app?vid=d1d5d922-adec-4998-a01b-c6ced089dfe8","ios":"levelo://app?vid=d1d5d922-adec-4998-a01b-c6ced089dfe8"},"vehicle_type_id":"4","last_reported":1728382169,"current_range_meters":38800,"station_id":"ce4bho12rcd13ifvqh1g","pricing_plan_id":"cebpf4jnsgd1na2vs0mg"},{"bike_id":"d4b41b5a-4cec-47fc-8b0f-4ee889ae7964","system_id":"levelo_inurba_marseille","lat":43.31228,"lon":5.36856,"is_reserved":false,"is_disabled":false,"rental_uris":{"android":"levelo://app?vid=d4b41b5a-4cec-47fc-8b0f-4ee889ae7964","ios":"levelo://app?vid=d4b41b5a-4cec-47fc-8b0f-4ee889ae7964"},"vehicle_type_id":"4","last_reported":1728382169,"current_range_meters":28800,"station_id":"ce4bgl92rcd13ifvqbq0","pricing_plan_id":"cebpf4jnsgd1na2vs0mg"},{"bike_id":"e604d650-c7ed-4f67-97be-2c873f4ba4a0","system_id":"levelo_inurba_marseille","lat":43.29973,"lon":5.38492,"is_reserved":false,"is_disabled":false,"rental_uris":{"android":"levelo://app?vid=e604d650-c7ed-4f67-97be-2c873f4ba4a0","ios":"levelo://app?vid=e604d650-c7ed-4f67-97be-2c873f4ba4a0"},"vehicle_type_id":"4","last_reported":1728382169,"current_range_meters":26000,"station_id":"ce4bgj92rcd13ifvqbd0","pricing_plan_id":"cebpf4jnsgd1na2vs0mg"},{"bike_id":"f7b16dcb-76d1-4f9a-84ce-4ee68f0c9fd0","system_id":"levelo_inurba_marseille","lat":43.29932,"lon":5.36538,"is_reserved":false,"is_disabled":false,"rental_uris":{"android":"levelo://app?vid=f7b16dcb-76d1-4f9a-84ce-4ee68f0c9fd0","ios":"levelo://app?vid=f7b16dcb-76d1-4f9a-84ce-4ee68f0c9fd0"},"vehicle_type_id":"4","last_reported":1728382169,"current_range_meters":27600,"station_id":"ce4bgm92rcd13ifvqbr0","pricing_plan_id":"cebpf4jnsgd1na2vs0mg"},{"bike_id":"e63cbbc3-96e1-4a82-bb9c-5e3779d10128","system_id":"levelo_inurba_marseille","lat":43.31347,"lon":5.36708,"is_reserved":false,"is_disabled":false,"rental_uris":{"android":"levelo://app?vid=e63cbbc3-96e1-4a82-bb9c-5e3779d10128","ios":"levelo://app?vid=e63cbbc3-96e1-4a82-bb9c-5e3779d10128"},"vehicle_type_id":"4","last_reported":1728382169,"current_range_meters":40000,"station_id":"ce4bgr92rcd13ifvqc6g","pricing_plan_id":"cebpf4jnsgd1na2vs0mg"},{"bike_id":"d306ba31-90ae-469d-a1b5-7be11dedb8b0","system_id":"levelo_inurba_marseille","lat":43.296776,"lon":5.366736,"is_reserved":false,"is_disabled":false,"rental_uris":{"android":"levelo://app?vid=d306ba31-90ae-469d-a1b5-7be11dedb8b0","ios":"levelo://app?vid=d306ba31-90ae-469d-a1b5-7be11dedb8b0"},"vehicle_type_id":"4","last_reported":1728382169,"current_range_meters":9200,"station_id":"ce4bgn12rcd13ifvqbt0","pricing_plan_id":"cebpf4jnsgd1na2vs0mg"},{"bike_id":"513e65b3-9f73-470a-9a3e-8728aa1f5b9b","system_id":"levelo_inurba_marseille","lat":43.299656,"lon":5.384928,"is_reserved":false,"is_disabled":false,"rental_uris":{"android":"levelo://app?vid=513e65b3-9f73-470a-9a3e-8728aa1f5b9b","ios":"levelo://app?vid=513e65b3-9f73-470a-9a3e-8728aa1f5b9b"},"vehicle_type_id":"4","last_reported":1728382169,"current_range_meters":25200,"station_id":"ce4bhip2rcd13ifvqft0","pricing_plan_id":"cebpf4jnsgd1na2vs0mg"},{"bike_id":"5106ab18-5402-48a7-9497-d3150f48e6cc","system_id":"levelo_inurba_marseille","lat":43.271747,"lon":5.409928,"is_reserved":false,"is_disabled":false,"rental_uris":{"android":"levelo://app?vid=5106ab18-5402-48a7-9497-d3150f48e6cc","ios":"levelo://app?vid=5106ab18-5402-48a7-9497-d3150f48e6cc"},"vehicle_type_id":"4","last_reported":1728382169,"current_range_meters":12400,"station_id":"ce4bhl12rcd13ifvqgf0","pricing_plan_id":"cebpf4jnsgd1na2vs0mg"},{"bike_id":"464a9887-e678-4f95-affe-a0b75d8f646c","system_id":"levelo_inurba_marseille","lat":43.28962,"lon":5.39657,"is_reserved":false,"is_disabled":false,"rental_uris":{"android":"levelo://app?vid=464a9887-e678-4f95-affe-a0b75d8f646c","ios":"levelo://app?vid=464a9887-e678-4f95-affe-a0b75d8f646c"},"vehicle_type_id":"4","last_reported":1728382169,"current_range_meters":20800,"station_id":"ce4bh3h2rcd13ifvqdn0","pricing_plan_id":"cebpf4jnsgd1na2vs0mg"},{"bike_id":"7441c84f-1c12-42ed-ba31-636a365d72de","system_id":"levelo_inurba_marseille","lat":43.2467,"lon":5.38155,"is_reserved":false,"is_disabled":false,"rental_uris":{"android":"levelo://app?vid=7441c84f-1c12-42ed-ba31-636a365d72de","ios":"levelo://app?vid=7441c84f-1c12-42ed-ba31-636a365d72de"},"vehicle_type_id":"4","last_reported":1728382169,"current_range_meters":36800,"station_id":"ce4bhih2rcd13ifvqfr0","pricing_plan_id":"cebpf4jnsgd1na2vs0mg"},{"bike_id":"1506961f-627a-4449-a48e-961bf2dafaa6","system_id":"levelo_inurba_marseille","lat":43.29966,"lon":5.385,"is_reserved":false,"is_disabled":false,"rental_uris":{"android":"levelo://app?vid=1506961f-627a-4449-a48e-961bf2dafaa6","ios":"levelo://app?vid=1506961f-627a-4449-a48e-961bf2dafaa6"},"vehicle_type_id":"4","last_reported":1728382169,"current_range_meters":14000,"station_id":"ce4bgj92rcd13ifvqbd0","pricing_plan_id":"cebpf4jnsgd1na2vs0mg"},{"bike_id":"1396a4fa-e16f-4ed5-9a82-14d9d47ff93a","system_id":"levelo_inurba_marseille","lat":43.2315,"lon":5.43723,"is_reserved":false,"is_disabled":false,"rental_uris":{"android":"levelo://app?vid=1396a4fa-e16f-4ed5-9a82-14d9d47ff93a","ios":"levelo://app?vid=1396a4fa-e16f-4ed5-9a82-14d9d47ff93a"},"vehicle_type_id":"4","last_reported":1728382169,"current_range_meters":39200,"station_id":"ce4bhmp2rcd13ifvqgog","pricing_plan_id":"cebpf4jnsgd1na2vs0mg"},{"bike_id":"c54f17c1-f488-4066-b337-a77db024e147","system_id":"levelo_inurba_marseille","lat":43.25581,"lon":5.38233,"is_reserved":false,"is_disabled":false,"rental_uris":{"android":"levelo://app?vid=c54f17c1-f488-4066-b337-a77db024e147","ios":"levelo://app?vid=c54f17c1-f488-4066-b337-a77db024e147"},"vehicle_type_id":"4","last_reported":1728382169,"current_range_meters":36400,"station_id":"ce4bhih2rcd13ifvqfs0","pricing_plan_id":"cebpf4jnsgd1na2vs0mg"},{"bike_id":"539f8671-b618-4628-baed-1d3a108837b9","system_id":"levelo_inurba_marseille","lat":43.32488,"lon":5.36564,"is_reserved":false,"is_disabled":false,"rental_uris":{"android":"levelo://app?vid=539f8671-b618-4628-baed-1d3a108837b9","ios":"levelo://app?vid=539f8671-b618-4628-baed-1d3a108837b9"},"vehicle_type_id":"4","last_reported":1728382169,"current_range_meters":30400,"station_id":"ce4bhs12rcd13ifvqhvg","pricing_plan_id":"cebpf4jnsgd1na2vs0mg"},{"bike_id":"94a1b39c-72aa-4f21-bf0b-a2be6c3b739b","system_id":"levelo_inurba_marseille","lat":43.26555,"lon":5.37291,"is_reserved":false,"is_disabled":false,"rental_uris":{"android":"levelo://app?vid=94a1b39c-72aa-4f21-bf0b-a2be6c3b739b","ios":"levelo://app?vid=94a1b39c-72aa-4f21-bf0b-a2be6c3b739b"},"vehicle_type_id":"4","last_reported":1728382169,"current_range_meters":5600,"station_id":"ce4bhg12rcd13ifvqf70","pricing_plan_id":"cebpf4jnsgd1na2vs0mg"},{"bike_id":"79d4ce44-dde0-4856-adfb-9d048612b764","system_id":"levelo_inurba_marseille","lat":43.2417,"lon":5.36399,"is_reserved":false,"is_disabled":false,"rental_uris":{"android":"levelo://app?vid=79d4ce44-dde0-4856-adfb-9d048612b764","ios":"levelo://app?vid=79d4ce44-dde0-4856-adfb-9d048612b764"},"vehicle_type_id":"4","last_reported":1728382169,"current_range_meters":24800,"station_id":"cpo36qri1sfpv3e86is0","pricing_plan_id":"cebpf4jnsgd1na2vs0mg"},{"bike_id":"469a672e-ba6a-4391-a2f4-a80280e80393","system_id":"levelo_inurba_marseille","lat":43.25824,"lon":5.39436,"is_reserved":false,"is_disabled":false,"rental_uris":{"android":"levelo://app?vid=469a672e-ba6a-4391-a2f4-a80280e80393","ios":"levelo://app?vid=469a672e-ba6a-4391-a2f4-a80280e80393"},