{"last_updated":1758370716,"ttl":60,"version":"2.2","data":{"bikes":[{"bike_id":"4febd042-7c9e-4218-9095-a23bd82edeec","system_id":"levelo_inurba_marseille","lat":43.23129,"lon":5.43688,"is_reserved":false,"is_disabled":false,"rental_uris":{"android":"levelo://app?vid=4febd042-7c9e-4218-9095-a23bd82edeec","ios":"levelo://app?vid=4febd042-7c9e-4218-9095-a23bd82edeec"},"vehicle_type_id":"4","last_reported":1758370716,"current_range_meters":2800,"station_id":"ce4bhmp2rcd13ifvqgog","pricing_plan_id":"cebpf4jnsgd1na2vs0mg"},{"bike_id":"0b39104c-c987-4e97-b742-83df658c65d5","system_id":"levelo_inurba_marseille","lat":43.27901,"lon":5.37999,"is_reserved":false,"is_disabled":false,"rental_uris":{"android":"levelo://app?vid=0b39104c-c987-4e97-b742-83df658c65d5","ios":"levelo://app?vid=0b39104c-c987-4e97-b742-83df658c65d5"},"vehicle_type_id":"4","last_reported":1758370716,"current_range_meters":2800,"station_id":"ce4bhf92rcd13ifvqf50","pricing_plan_id":"cebpf4jnsgd1na2vs0mg"},{"bike_id":"56a4f75d-eaf2-44b4-aa02-4a439b19699b","system_id":"levelo_inurba_marseille","lat":43.33788,"lon":5.37422,"is_reserved":false,"is_disabled":false,"rental_uris":{"android":"levelo://app?vid=56a4f75d-eaf2-44b4-aa02-4a439b19699b","ios":"levelo://app?vid=56a4f75d-eaf2-44b4-aa02-4a439b19699b"},"vehicle_type_id":"4","last_reported":1758370716,"current_range_meters":2800,"station_id":"","pricing_plan_id":"cebpf4jnsgd1na2vs0mg"},{"bike_id":"672cbfc1-d078-44d9-960c-c1f638144536","system_id":"levelo_inurba_marseille","lat":43.2315,"lon":5.43684,"is_reserved":false,"is_disabled":false,"rental_uris":{"android":"levelo://app?vid=672cbfc1-d078-44d9-960c-c1f638144536","ios":"levelo://app?vid=672cbfc1-d078-44d9-960c-c1f638144536"},"vehicle_type_id":"4","last_reported":1758370716,"current_range_meters":2800,"station_id":"ce4bhmp2rcd13ifvqgog","pricing_plan_id":"cebpf4jnsgd1na2vs0mg"},{"bike_id":"1d094c94-0a52-4b4f-955e-df40092f1d70","system_id":"levelo_inurba_marseille","lat":43.26562,"lon":5.37279,"is_reserved":false,"is_disabled":false,"rental_uris":{"android":"levelo://app?vid=1d094c94-0a52-4b4f-955e-df40092f1d70","ios":"levelo://app?vid=1d094c94-0a52-4b4f-955e-df40092f1d70"},"vehicle_type_id":"4","last_reported":1758370716,"current_range_meters":2800,"station_id":"ce4bhg12rcd13ifvqf70","pricing_plan_id":"cebpf4jnsgd1na2vs0mg"},{"bike_id":"cfc88d08-6505-414b-9632-76077ebf6371","system_id":"levelo_inurba_marseille","lat":43.24809,"lon":5.3746,"is_reserved":false,"is_disabled":false,"rental_uris":{"android":"levelo://app?vid=cfc88d08-6505-414b-9632-76077ebf6371","ios":"levelo://app?vid=cfc88d08-6505-414b-9632-76077ebf6371"},"vehicle_type_id":"4","last_reported":1758370716,"current_range_meters":2800,"station_id":"ce4bhgh2rcd13ifvqfb0","pricing_plan_id":"cebpf4jnsgd1na2vs0mg"},{"bike_id":"aaa56b49-9ed7-4fe9-b2d7-9f89385c2dfe","system_id":"levelo_inurba_marseille","lat":43.30542,"lon":5.36548,"is_reserved":false,"is_disabled":false,"rental_uris":{"android":"levelo://app?vid=aaa56b49-9ed7-4fe9-b2d7-9f89385c2dfe","ios":"levelo://app?vid=aaa56b49-9ed7-4fe9-b2d7-9f89385c2dfe"},"vehicle_type_id":"4","last_reported":1758370716,"current_range_meters":2800,"station_id":"ce4bgs12rcd13ifvqcag","pricing_plan_id":"cebpf4jnsgd1na2vs0mg"},{"bike_id":"0d4ab407-d0e1-4309-b14d-9592b9da25c5","system_id":"levelo_inurba_marseille","lat":43.28613,"lon":5.35095,"is_reserved":false,"is_disabled":false,"rental_uris":{"android":"levelo://app?vid=0d4ab407-d0e1-4309-b14d-9592b9da25c5","ios":"levelo://app?vid=0d4ab407-d0e1-4309-b14d-9592b9da25c5"},"vehicle_type_id":"4","last_reported":1758370716,"current_range_meters":2800,"station_id":"ce4bhch2rcd13ifvqeug","pricing_plan_id":"cebpf4jnsgd1na2vs0mg"},{"bike_id":"cfd94e63-9c1b-4feb-a427-531ba8ae1dff","system_id":"levelo_inurba_marseille","lat":43.21752,"lon":5.34597,"is_reserved":false,"is_disabled":false,"rental_uris":{"android":"levelo://app?vid=cfd94e63-9c1b-4feb-a427-531ba8ae1dff","ios":"levelo://app?vid=cfd94e63-9c1b-4feb-a427-531ba8ae1dff"},"vehicle_type_id":"4","last_reported":1758370716,"current_range_meters":3200,"station_id":"st_cvj6r9ubvosntc0bgbag","pricing_plan_id":"cebpf4jnsgd1na2vs0mg"},{"bike_id":"30e37ba9-0347-4f16-9eec-eedfb51bc776","system_id":"levelo_inurba_marseille","lat":43.30209,"lon":5.39461,"is_reserved":false,"is_disabled":false,"rental_uris":{"android":"levelo://app?vid=30e37ba9-0347-4f16-9eec-eedfb51bc776","ios":"levelo://app?vid=30e37ba9-0347-4f16-9eec-eedfb51bc776"},"vehicle_type_id":"4","last_reported":1758370716,"current_range_meters":3200,"station_id":"ce4bh0p2rcd13ifvqd70","pricing_plan_id":"cebpf4jnsgd1na2vs0mg"},{"bike_id":"dbf31cd4-e14a-4cb8-b658-795807d81c3d","system_id":"levelo_inurba_marseille","lat":43.26187,"lon":5.3745,"is_reserved":false,"is_disabled":false,"rental_uris":{"android":"levelo://app?vid=dbf31cd4-e14a-4cb8-b658-795807d81c3d","ios":"levelo://app?vid=dbf31cd4-e14a-4cb8-b658-795807d81c3d"},"vehicle_type_id":"4","last_reported":1758370716,"current_range_meters":3200,"station_id":"ce4bhgp2rcd13ifvqfc0","pricing_plan_id":"cebpf4jnsgd1na2vs0mg"},{"bike_id":"51896c96-68f8-40f0-90c1-78d20d2ff0f7","system_id":"levelo_inurba_marseille","lat":43.30544,"lon":5.36554,"is_reserved":false,"is_disabled":false,"rental_uris":{"android":"levelo://app?vid=51896c96-68f8-40f0-90c1-78d20d2ff0f7","ios":"levelo://app?vid=51896c96-68f8-40f0-90c1-78d20d2ff0f7"},"vehicle_type_id":"4","last_reported":1758370716,"current_range_meters":3200,"station_id":"ce4bgs12rcd13ifvqcag","pricing_plan_id":"cebpf4jnsgd1na2vs0mg"},{"bike_id":"712fb2e5-5afe-4db6-8d57-74d641eba8e0","system_id":"levelo_inurba_marseille","lat":43.27814,"lon":5.40711,"is_reserved":false,"is_disabled":false,"rental_uris":{"android":"levelo://app?vid=712fb2e5-5afe-4db6-8d57-74d641eba8e0","ios":"levelo://app?vid=712fb2e5-5afe-4db6-8d57-74d641eba8e0"},"vehicle_type_id":"4","last_reported":1758370716,"current_range_meters":3200,"station_id":"ce4bhnh2rcd13ifvqgtg","pricing_plan_id":"cebpf4jnsgd1na2vs0mg"},{"bike_id":"a94504ee-47d6-4c93-a292-b5f1711192b8","system_id":"levelo_inurba_marseille","lat":43.28613,"lon":5.35101,"is_reserved":false,"is_disabled":false,"rental_uris":{"android":"levelo://app?vid=a94504ee-47d6-4c93-a292-b5f1711192b8","ios":"levelo://app?vid=a94504ee-47d6-4c93-a292-b5f1711192b8"},"vehicle_type_id":"4","last_reported":1758370716,"current_range_meters":3600,"station_id":"ce4bhch2rcd13ifvqeug","pricing_plan_id":"cebpf4jnsgd1na2vs0mg"},{"bike_id":"5dd7b1a8-311c-41d3-8e42-01d7a9955b7f","system_id":"levelo_inurba_marseille","lat":43.30429,"lon":5.38893,"is_reserved":false,"is_disabled":false,"rental_uris":{"android":"levelo://app?vid=5dd7b1a8-311c-41d3-8e42-01d7a9955b7f","ios":"levelo://app?vid=5dd7b1a8-311c-41d3-8e42-01d7a9955b7f"},"vehicle_type_id":"4","last_reported":1758370716,"current_range_meters":3200,"station_id":"ce4bgk12rcd13ifvqbi0","pricing_plan_id":"cebpf4jnsgd1na2vs0mg"},{"bike_id":"73c9c784-ecc2-4ecf-b6fc-750459596b37","system_id":"levelo_inurba_marseille","lat":43.255953,"lon":5.38216,"is_reserved":false,"is_disabled":false,"rental_uris":{"android":"levelo://app?vid=73c9c784-ecc2-4ecf-b6fc-750459596b37","ios":"levelo://app?vid=73c9c784-ecc2-4ecf-b6fc-750459596b37"},"vehicle_type_id":"4","last_reported":1758370716,"current_range_meters":3600,"station_id":"ce4bhih2rcd13ifvqfs0","pricing_plan_id":"cebpf4jnsgd1na2vs0mg"},{"bike_id":"21fe06dd-52a9-4668-8042-8be92f84d138","system_id":"levelo_inurba_marseille","lat":43.30648,"lon":5.40092,"is_reserved":false,"is_disabled":false,"rental_uris":{"android":"levelo://app?vid=21fe06dd-52a9-4668-8042-8be92f84d138","ios":"levelo://app?vid=21fe06dd-52a9-4668-8042-8be92f84d138"},"vehicle_type_id":"4","last_reported":1758370716,"current_range_meters":3600,"station_id":"ce4bh112rcd13ifvqda0","pricing_plan_id":"cebpf4jnsgd1na2vs0mg"},{"bike_id":"50c1c1e3-58c2-4ff0-a78a-a7e499f3540c","system_id":"levelo_inurba_marseille","lat":43.28885,"lon":5.4327,"is_reserved":false,"is_disabled":false,"rental_uris":{"android":"levelo://app?vid=50c1c1e3-58c2-4ff0-a78a-a7e499f3540c","ios":"levelo://app?vid=50c1c1e3-58c2-4ff0-a78a-a7e499f3540c"},"vehicle_type_id":"4","last_reported":1758370716,"current_range_meters":3600,"station_id":"","pricing_plan_id":"cebpf4jnsgd1na2vs0mg"},{"bike_id":"47a43b8b-8bae-4206-bcae-40d3d7d77792","system_id":"levelo_inurba_marseille","lat":43.28415,"lon":5.34991,"is_reserved":false,"is_disabled":false,"rental_uris":{"android":"levelo://app?vid=47a43b8b-8bae-4206-bcae-40d3d7d77792","ios":"levelo://app?vid=47a43b8b-8bae-4206-bcae-40d3d7d77792"},"vehicle_type_id":"4","last_reported":1758370716,"current_range_meters":3600,"station_id":"ce4bhbh2rcd13ifvqepg","pricing_plan_id":"cebpf4jnsgd1na2vs0mg"},{"bike_id":"5e1549e6-879c-42e0-8ce8-b9675e30105c","system_id":"levelo_inurba_marseille","lat":43.21188,"lon":5.35064,"is_reserved":false,"is_disabled":false,"rental_uris":{"android":"levelo://app?vid=5e1549e6-879c-42e0-8ce8-b9675e30105c","ios":"levelo://app?vid=5e1549e6-879c-42e0-8ce8-b9675e30105c"},"vehicle_type_id":"4","last_reported":1758370716,"current_range_meters":4000,"station_id":"st_cvj6sg6p6f1abm77japg","pricing_plan_id":"cebpf4jnsgd1na2vs0mg"},{"bike_id":"2193f157-8f8c-4567-8b60-6e15301a8a3b","system_id":"levelo_inurba_marseille","lat":43.21753,"lon":5.346,"is_reserved":false,"is_disabled":false,"rental_uris":{"android":"levelo://app?vid=2193f157-8f8c-4567-8b60-6e15301a8a3b","ios":"levelo://app?vid=2193f157-8f8c-4567-8b60-6e15301a8a3b"},"vehicle_type_id":"4","last_reported":1758370716,"current_range_meters":4000,"station_id":"st_cvj6r9ubvosntc0bgbag","pricing_plan_id":"cebpf4jnsgd1na2vs0mg"},{"bike_id":"c548f171-150a-4779-93a6-693f7be10701","system_id":"levelo_inurba_marseille","lat":43.337444,"lon":5.374475,"is_reserved":false,"is_disabled":false,"rental_uris":{"android":"levelo://app?vid=c548f171-150a-4779-93a6-693f7be10701","ios":"levelo://app?vid=c548f171-150a-4779-93a6-693f7be10701"},"vehicle_type_id":"4","last_reported":1758370716,"current_range_meters":4400,"station_id":"","pricing_plan_id":"cebpf4jnsgd1na2vs0mg"},{"bike_id":"9524161c-0d23-455e-a910-4ce8f55df903","system_id":"levelo_inurba_marseille","lat":43.26803,"lon":5.39431,"is_reserved":false,"is_disabled":false,"rental_uris":{"android":"levelo://app?vid=9524161c-0d23-455e-a910-4ce8f55df903","ios":"levelo://app?vid=9524161c-0d23-455e-a910-4ce8f55df903"},"vehicle_type_id":"4","last_reported":1758370716,"current_range_meters":4400,"station_id":"ce4bhh12rcd13ifvqfg0","pricing_plan_id":"cebpf4jnsgd1na2vs0mg"},{"bike_id":"070afb6c-9fae-4c5a-b817-8420eb317439","system_id":"levelo_inurba_marseille","lat":43.28941,"lon":5.39624,"is_reserved":false,"is_disabled":false,"rental_uris":{"android":"levelo://app?vid=070afb6c-9fae-4c5a-b817-8420eb317439","ios":"levelo://app?vid=070afb6c-9fae-4c5a-b817-8420eb317439"},"vehicle_type_id":"4","last_reported":1758370716,"current_range_meters":4400,"station_id":"ce4bh3h2rcd13ifvqdn0","pricing_plan_id":"cebpf4jnsgd1na2vs0mg"},{"bike_id":"42323a1a-489c-43cb-90ae-c675b27444d5","system_id":"levelo_inurba_marseille","lat":43.216452,"lon":5.3437,"is_reserved":false,"is_disabled":false,"rental_uris":{"android":"levelo://app?vid=42323a1a-489c-43cb-90ae-c675b27444d5","ios":"levelo://app?vid=42323a1a-489c-43cb-90ae-c675b27444d5"},"vehicle_type_id":"4","last_reported":1758370716,"current_range_meters":4400,"station_id":"","pricing_plan_id":"cebpf4jnsgd1na2vs0mg"},{"bike_id":"68bcdda3-9ce1-48a0-b9a5-9ea1cf6866c0","system_id":"levelo_inurba_marseille","lat":43.24167,"lon":5.36388,"is_reserved":false,"is_disabled":false,"rental_uris":{"android":"levelo://app?vid=68bcdda3-9ce1-48a0-b9a5-9ea1cf6866c0","ios":"levelo://app?vid=68bcdda3-9ce1-48a0-b9a5-9ea1cf6866c0"},"vehicle_type_id":"4","last_reported":1758370716,"current_range_meters":4400,"station_id":"cpo36qri1sfpv3e86is0","pricing_plan_id":"cebpf4jnsgd1na2vs0mg"},{"bike_id":"0dd79fc2-21fd-4522-a359-2b1744c026c6","system_id":"levelo_inurba_marseille","lat":43.231994,"lon":5.355562,"is_reserved":false,"is_disabled":false,"rental_uris":{"android":"levelo://app?vid=0dd79fc2-21fd-4522-a359-2b1744c026c6","ios":"levelo://app?vid=0dd79fc2-21fd-4522-a359-2b1744c026c6"},"vehicle_type_id":"4","last_reported":1758370716,"current_range_meters":4400,"station_id":"ce4bhu92rcd13ifvqi70","pricing_plan_id":"cebpf4jnsgd1na2vs0mg"},{"bike_id":"55ac8fc5-3ae0-4dec-9a87-c3e7637053cd","system_id":"levelo_inurba_marseille","lat":43.24171,"lon":5.36396,"is_reserved":false,"is_disabled":false,"rental_uris":{"android":"levelo://app?vid=55ac8fc5-3ae0-4dec-9a87-c3e7637053cd","ios":"levelo://app?vid=55ac8fc5-3ae0-4dec-9a87-c3e7637053cd"},"vehicle_type_id":"4","last_reported":1758370716,"current_range_meters":4400,"station_id":"cpo36qri1sfpv3e86is0","pricing_plan_id":"cebpf4jnsgd1na2vs0mg"},{"bike_id":"8e0713f0-0cd5-4e08-99a8-f4bb755e47f5","system_id":"levelo_inurba_marseille","lat":43.31331,"lon":5.39696,"is_reserved":false,"is_disabled":false,"rental_uris":{"android":"levelo://app?vid=8e0713f0-0cd5-4e08-99a8-f4bb755e47f5","ios":"levelo://app?vid=8e0713f0-0cd5-4e08-99a8-f4bb755e47f5"},"vehicle_type_id":"4","last_reported":1758370716,"current_range_meters":4800,"station_id":"ce4bgvp2rcd13ifvqcu0","pricing_plan_id":"cebpf4jnsgd1na2vs0mg"},{"bike_id":"38a40fbb-9dff-44de-b9cc-d07744ddfd18","system_id":"levelo_inurba_marseille","lat":43.28415,"lon":5.37509,"is_reserved":false,"is_disabled":false,"rental_uris":{"android":"levelo://app?vid=38a40fbb-9dff-44de-b9cc-d07744ddfd18","ios":"levelo://app?vid=38a40fbb-9dff-44de-b9cc-d07744ddfd18"},"vehicle_type_id":"4","last_reported":1758370716,"current_range_meters":4800,"station_id":"ce4bh412rcd13ifvqds0","pricing_plan_id":"cebpf4jnsgd1na2vs0mg"},{"bike_id":"6dc49f8f-31b8-485c-b489-e3fd253e6676","system_id":"levelo_inurba_marseille","lat":43.32656,"lon":5.40978,"is_reserved":false,"is_disabled":true,"rental_uris":{"android":"levelo://app?vid=6dc49f8f-31b8-485c-b489-e3fd253e6676","ios":"levelo://app?vid=6dc49f8f-31b8-485c-b489-e3fd253e6676"},"vehicle_type_id":"4","last_reported":1758370716,"current_range_meters":5600,"station_id":"ce4bhpp2rcd13ifvqhgg","pricing_plan_id":"cebpf4jnsgd1na2vs0mg"},{"bike_id":"e6f8489d-fe42-4015-a82c-b604c2c8b33e","system_id":"levelo_inurba_marseille","lat":43.29795,"lon":5.36682,"is_reserved":false,"is_disabled":false,"rental_uris":{"android":"levelo://app?vid=e6f8489d-fe42-4015-a82c-b604c2c8b33e","ios":"levelo://app?vid=e6f8489d-fe42-4015-a82c-b604c2c8b33e"},"vehicle_type_id":"4","last_reported":1758370716,"current_range_meters":5600,"station_id":"","pricing_plan_id":"cebpf4jnsgd1na2vs0mg"},{"bike_id":"a6803547-e8f6-43f9-85ef-d3658a6399f4","system_id":"levelo_inurba_marseille","lat":43.23066,"lon":5.35489,"is_reserved":false,"is_disabled":false,"rental_uris":{"android":"levelo://app?vid=a6803547-e8f6-43f9-85ef-d3658a6399f4","ios":"levelo://app?vid=a6803547-e8f6-43f9-85ef-d3658a6399f4"},"vehicle_type_id":"4","last_reported":1758370716,"current_range_meters":6000,"station_id":"cpo3342slgdg3j2ifvpg","pricing_plan_id":"cebpf4jnsgd1na2vs0mg"},{"bike_id":"e942f984-8fe7-48d1-8f04-3806656b9996","system_id":"levelo_inurba_marseille","lat":43.33637,"lon":5.37921,"is_reserved":false,"is_disabled":false,"rental_uris":{"android":"levelo://app?vid=e942f984-8fe7-48d1-8f04-3806656b9996","ios":"levelo://app?vid=e942f984-8fe7-48d1-8f04-3806656b9996"},"vehicle_type_id":"4","last_reported":1758370716,"current_range_meters":6000,"station_id":"","pricing_plan_id":"cebpf4jnsgd1na2vs0mg"},{"bike_id":"f1f4e7ef-f738-47ae-abab-f1321ebe7335","system_id":"levelo_inurba_marseille","lat":43.300983,"lon":5.390896,"is_reserved":false,"is_disabled":false,"rental_uris":{"android":"levelo://app?vid=f1f4e7ef-f738-47ae-abab-f1321ebe7335","ios":"levelo://app?vid=f1f4e7ef-f738-47ae-abab-f1321ebe7335"},"vehicle_type_id":"4","last_reported":1758370716,"current_range_meters":6000,"station_id":"ce4bh192rcd13ifvqdb0","pricing_plan_id":"cebpf4jnsgd1na2vs0mg"},{"bike_id":"3ce25707-e777-40a2-b30a-699443a4d67b","system_id":"levelo_inurba_marseille","lat":43.30336,"lon":5.40431,"is_reserved":false,"is_disabled":false,"rental_uris":{"android":"levelo://app?vid=3ce25707-e777-40a2-b30a-699443a4d67b","ios":"levelo://app?vid=3ce25707-e777-40a2-b30a-699443a4d67b"},"vehicle_type_id":"4","last_reported":1758370716,"current_range_meters":6000,"station_id":"ce4bh012rcd13ifvqd10","pricing_plan_id":"cebpf4jnsgd1na2vs0mg"},{"bike_id":"2391d332-2336-4133-b057-e9d0ae45ddf3","system_id":"levelo_inurba_marseille","lat":43.30546,"lon":5.36539,"is_reserved":false,"is_disabled":false,"rental_uris":{"android":"levelo://app?vid=2391d332-2336-4133-b057-e9d0ae45ddf3","ios":"levelo://app?vid=2391d332-2336-4133-b057-e9d0ae45ddf3"},"vehicle_type_id":"4","last_reported":1758370716,"current_range_meters":6000,"station_id":"ce4bgs12rcd13ifvqcag","pricing_plan_id":"cebpf4jnsgd1na2vs0mg"},{"bike_id":"9f0f401b-ff98-4040-b24f-13fefb233bef","system_id":"levelo_inurba_marseille","lat":43.21192,"lon":5.35073,"is_reserved":false,"is_disabled":false,"rental_uris":{"android":"levelo://app?vid=9f0f401b-ff98-4040-b24f-13fefb233bef","ios":"levelo://app?vid=9f0f401b-ff98-4040-b24f-13fefb233bef"},"vehicle_type_id":"4","last_reported":1758370716,"current_range_meters":6000,"station_id":"st_cvj6sg6p6f1abm77japg","pricing_plan_id":"cebpf4jnsgd1na2vs0mg"},{"bike_id":"43418bb1-70dc-4a92-9838-10c173db097f","system_id":"levelo_inurba_marseille","lat":43.30544,"lon":5.3653,"is_reserved":false,"is_disabled":false,"rental_uris":{"android":"levelo://app?vid=43418bb1-70dc-4a92-9838-10c173db097f","ios":"levelo://app?vid=43418bb1-70dc-4a92-9838-10c173db097f"},"vehicle_type_id":"4","last_reported":1758370716,"current_range_meters":6000,"station_id":"ce4bgs12rcd13ifvqcag","pricing_plan_id":"cebpf4jnsgd1na2vs0mg"},{"bike_id":"d801b961-8b0f-429d-9d3e-817010448aec","system_id":"levelo_inurba_marseille","lat":43.337636,"lon":5.374386,"is_reserved":false,"is_disabled":false,"rental_uris":{"android":"levelo://app?vid=d801b961-8b0f-429d-9d3e-817010448aec","ios":"levelo://app?vid=d801b961-8b0f-429d-9d3e-817010448aec"},"vehicle_type_id":"4","last_reported":1758370716,"current_range_meters":6400,"station_id":"","pricing_plan_id":"cebpf4jnsgd1na2vs0mg"},{"bike_id":"cad97885-b582-49b2-8b83-0a6c3d079fc6","system_id":"levelo_inurba_marseille","lat":43.297018,"lon":5.365873,"is_reserved":false,"is_disabled":false,"rental_uris":{"android":"levelo://app?vid=cad97885-b582-49b2-8b83-0a6c3d079fc6","ios":"levelo://app?vid=cad97885-b582-49b2-8b83-0a6c3d079fc6"},"vehicle_type_id":"4","last_reported":1758370716,"current_range_meters":6400,"station_id":"ce4bgn12rcd13ifvqbt0","pricing_plan_id":"cebpf4jnsgd1na2vs0mg"},{"bike_id":"27cc2023-610f-4a78-ba41-0db80692ecc6","system_id":"levelo_inurba_marseille","lat":43.22578,"lon":5.41628,"is_reserved":false,"is_disabled":false,"rental_uris":{"android":"levelo://app?vid=27cc2023-610f-4a78-ba41-0db80692ecc6","ios":"levelo://app?vid=27cc2023-610f-4a78-ba41-0db80692ecc6"},"vehicle_type_id":"4","last_reported":1758370716,"current_range_meters":6400,"station_id":"st_d2o4gvlbi1j2169b742g","pricing_plan_id":"cebpf4jnsgd1na2vs0mg"},{"bike_id":"c4bb2ec6-4b61-4476-899d-98f2ce44d89c","system_id":"levelo_inurba_marseille","lat":43.30301,"lon":5.39196,"is_reserved":false,"is_disabled":true,"rental_uris":{"android":"levelo://app?vid=c4bb2ec6-4b61-4476-899d-98f2ce44d89c","ios":"levelo://app?vid=c4bb2ec6-4b61-4476-899d-98f2ce44d89c"},"vehicle_type_id":"4","last_reported":1758370716,"current_range_meters":6400,"station_id":"ce4bgkh2rcd13ifvqbk0","pricing_plan_id":"cebpf4jnsgd1na2vs0mg"},{"bike_id":"f0a5701c-0afc-450b-8fa2-911fe14aeb44","system_id":"levelo_inurba_marseille","lat":43.284149,"lon":5.349924,"is_reserved":false,"is_disabled":false,"rental_uris":{"android":"levelo://app?vid=f0a5701c-0afc-450b-8fa2-911fe14aeb44","ios":"levelo://app?vid=f0a5701c-0afc-450b-8fa2-911fe14aeb44"},"vehicle_type_id":"4","last_reported":1758370716,"current_range_meters":6400,"station_id":"ce4bhbh2rcd13ifvqepg","pricing_plan_id":"cebpf4jnsgd1na2vs0mg"},{"bike_id":"32875bbe-254d-4012-ab0a-8f14426434f3","system_id":"levelo_inurba_marseille","lat":43.30604,"lon":5.37219,"is_reserved":false,"is_disabled":false,"rental_uris":{"android":"levelo://app?vid=32875bbe-254d-4012-ab0a-8f14426434f3","ios":"levelo://app?vid=32875bbe-254d-4012-ab0a-8f14426434f3"},"vehicle_type_id":"4","last_reported":1758370716,"current_range_meters":6400,"station_id":"ce4bgqh2rcd13ifvqc4g","pricing_plan_id":"cebpf4jnsgd1na2vs0mg"},{"bike_id":"dd1d2b4a-16fc-4870-8590-1412c4c935b5","system_id":"levelo_inurba_marseille","lat":43.217451,"lon":5.346032,"is_reserved":false,"is_disabled":false,"rental_uris":{"android":"levelo://app?vid=dd1d2b4a-16fc-4870-8590-1412c4c935b5","ios":"levelo://app?vid=dd1d2b4a-16fc-4870-8590-1412c4c935b5"},"vehicle_type_id":"4","last_reported":1758370716,"current_range_meters":6800,"station_id":"st_cvj6r9ubvosntc0bgbag","pricing_plan_id":"cebpf4jnsgd1na2vs0mg"},{"bike_id":"57d36c84-6b6b-4387-b287-b4a4a84dfb47","system_id":"levelo_inurba_marseille","lat":43.28289,"lon":5.35088,"is_reserved":false,"is_disabled":false,"rental_uris":{"android":"levelo://app?vid=57d36c84-6b6b-4387-b287-b4a4a84dfb47","ios":"levelo://app?vid=57d36c84-6b6b-4387-b287-b4a4a84dfb47"},"vehicle_type_id":"4","last_reported":1758370716,"current_range_meters":6800,"station_id":"ce4bhbp2rcd13ifvqerg","pricing_plan_id":"cebpf4jnsgd1na2vs0mg"},{"bike_id":"9ec9752c-8576-4826-b77c-ab6d4a8af8df","system_id":"levelo_inurba_marseille","lat":43.30143,"lon":5.3741,"is_reserved":false,"is_disabled":false,"rental_uris":{"android":"levelo://app?vid=9ec9752c-8576-4826-b77c-ab6d4a8af8df","ios":"levelo://app?vid=9ec9752c-8576-4826-b77c-ab6d4a8af8df"},"vehicle_type_id":"4","last_reported":1758370716,"current_range_meters":6800,"station_id":"ce4bgs92rcd13ifvqcc0","pricing_plan_id":"cebpf4jnsgd1na2vs0mg"},{"bike_id":"64628445-a564-4b13-a4aa-b1dd4a768837","system_id":"levelo_inurba_marseille","lat":43.22568,"lon":5.41631,"is_reserved":false,"is_disabled":false,"rental_uris":{"android":"levelo://app?vid=64628445-a564-4b13-a4aa-b1dd4a768837","ios":"levelo://app?vid=64628445-a564-4b13-a4aa-b1dd4a768837"},"vehicle_type_id":"4","last_reported":1758370716,"current_range_meters":6800,"station_id":"st_d2o4gvlbi1j2169b742g","pricing_plan_id":"cebpf4jnsgd1na2vs0mg"},{"bike_id":"c693623d-e750-435b-bb73-682d314012d5","system_id":"levelo_inurba_marseille","lat":43.330258,"lon":5.390456,"is_reserved":false,"is_disabled":false,"rental_uris":{"android":"levelo://app?vid=c693623d-e750-435b-bb73-682d314012d5","ios":"levelo://app?vid=c693623d-e750-435b-bb73-682d314012d5"},"vehicle_type_id":"4","last_reported":1758370716,"current_range_meters":6800,"station_id":"ce4bhr92rcd13ifvqhrg","pricing_plan_id":"cebpf4jnsgd1na2vs0mg"},{"bike_id":"d3f6e9e8-9364-4a93-b986-ef736ab400c4","system_id":"levelo_inurba_marseille","lat":43.27072,"lon":5.42279,"is_reserved":false,"is_disabled":false,"rental_uris":{"android":"levelo://app?vid=d3f6e9e8-9364-4a93-b986-ef736ab400c4","ios":"levelo://app?vid=d3f6e9e8-9364-4a93-b986-ef736ab400c4"},"vehicle_type_id":"4","last_reported":1758370716,"current_range_meters":7200,"station_id":"ce4bhk92rcd13ifvqgb0","pricing_plan_id":"cebpf4jnsgd1na2vs0mg"},{"bike_id":"e69de6f0-618a-4310-885c-e4ed61355056","system_id":"levelo_inurba_marseille","lat":43.29642,"lon":5.40591,"is_reserved":false,"is_disabled":false,"rental_uris":{"android":"levelo://app?vid=e69de6f0-618a-4310-885c-e4ed61355056","ios":"levelo://app?vid=e69de6f0-618a-4310-885c-e4ed61355056"},"vehicle_type_id":"4","last_reported":1758370716,"current_range_meters":6800,"station_id":"ce4bh0h2rcd13ifvqd60","pricing_plan_id":"cebpf4jnsgd1na2vs0mg"},{"bike_id":"0ce3f37b-3f14-480c-814c-f2458c650782","system_id":"levelo_inurba_marseille","lat":43.30911,"lon":5.36848,"is_reserved":false,"is_disabled":false,"rental_uris":{"android":"levelo://app?vid=0ce3f37b-3f14-480c-814c-f2458c650782","ios":"levelo://app?vid=0ce3f37b-3f14-480c-814c-f2458c650782"},"vehicle_type_id":"4","last_reported":1758370716,"current_range_meters":7200,"station_id":"ce4bgn92rcd13ifvqbvg","pricing_plan_id":"cebpf4jnsgd1na2vs0mg"},{"bike_id":"c3139e2c-9acb-4303-8cea-b83d3a35b84b","system_id":"levelo_inurba_marseille","lat":43.30396,"lon":5.42472,"is_reserved":false,"is_disabled":false,"rental_uris":{"android":"levelo://app?vid=c3139e2c-9acb-4303-8cea-b83d3a35b84b","ios":"levelo://app?vid=c3139e2c-9acb-4303-8cea-b83d3a35b84b"},"vehicle_type_id":"4","last_reported":1758370716,"current_range_meters":7200,"station_id":"ce4bhoh2rcd13ifvqh6g","pricing_plan_id":"cebpf4jnsgd1na2vs0mg"},{"bike_id":"84c87e85-d1e1-4e29-a42b-82d5f509cdea","system_id":"levelo_inurba_marseille","lat":43.2304,"lon":5.35494,"is_reserved":false,"is_disabled":false,"rental_uris":{"android":"levelo://app?vid=84c87e85-d1e1-4e29-a42b-82d5f509cdea","ios":"levelo://app?vid=84c87e85-d1e1-4e29-a42b-82d5f509cdea"},"vehicle_type_id":"4","last_reported":1758370716,"current_range_meters":7200,"station_id":"cpo3342slgdg3j2ifvpg","pricing_plan_id":"cebpf4jnsgd1na2vs0mg"},{"bike_id":"2441ee41-b222-4b14-b166-4bd3030731ea","system_id":"levelo_inurba_marseille","lat":43.30784,"lon":5.37632,"is_reserved":false,"is_disabled":false,"rental_uris":{"android":"levelo://app?vid=2441ee41-b222-4b14-b166-4bd3030731ea","ios":"levelo://app?vid=2441ee41-b222-4b14-b166-4bd3030731ea"},"vehicle_type_id":"4","last_reported":1758370716,"current_range_meters":6800,"station_id":"ce4bgv92rcd13ifvqcq0","pricing_plan_id":"cebpf4jnsgd1na2vs0mg"},{"bike_id":"c6418d4c-2faa-4aa2-8e60-a8dcefd0cb79","system_id":"levelo_inurba_marseille","lat":43.257563,"lon":5.418671,"is_reserved":false,"is_disabled":false,"rental_uris":{"android":"levelo://app?vid=c6418d4c-2faa-4aa2-8e60-a8dcefd0cb79","ios":"levelo://app?vid=c6418d4c-2faa-4aa2-8e60-a8dcefd0cb79"},"vehicle_type_id":"4","last_reported":1758370716,"current_range_meters":7200,"station_id":"","pricing_plan_id":"cebpf4jnsgd1na2vs0mg"},{"bike_id":"2c506e7d-0253-4252-b21f-01c1dffc4bfa","system_id":"levelo_inurba_marseille","lat":43.22569,"lon":5.4163,"is_reserved":false,"is_disabled":false,"rental_uris":{"android":"levelo://app?vid=2c506e7d-0253-4252-b21f-01c1dffc4bfa","ios":"levelo://app?vid=2c506e7d-0253-4252-b21f-01c1dffc4bfa"},"vehicle_type_id":"4","last_reported":1758370716,"current_range_meters":7200,"station_id":"st_d2o4gvlbi1j2169b742g","pricing_plan_id":"cebpf4jnsgd1na2vs0mg"},{"bike_id":"257f71e4-ec4c-4b34-aff3-c1dd00f1e525","system_id":"levelo_inurba_marseille","lat":43.23967,"lon":5.36623,"is_reserved":false,"is_disabled":false,"rental_uris":{"android":"levelo://app?vid=257f71e4-ec4c-4b34-aff3-c1dd00f1e525","ios":"levelo://app?vid=257f71e4-ec4c-4b34-aff3-c1dd00f1e525"},"vehicle_type_id":"4","last_reported":1758370716,"current_range_meters":7200,"station_id":"ce4bhi12rcd13ifvqfp0","pricing_plan_id":"cebpf4jnsgd1na2vs0mg"},{"bike_id":"84c4e9d5-0931-46d5-8501-05b544dd91bf","system_id":"levelo_inurba_marseille","lat":43.25497,"lon":5.37642,"is_reserved":false,"is_disabled":false,"rental_uris":{"android":"levelo://app?vid=84c4e9d5-0931-46d5-8501-05b544dd91bf","ios":"levelo://app?vid=84c4e9d5-0931-46d5-8501-05b544dd91bf"},"vehicle_type_id":"4","last_reported":1758370716,"current_range_meters":8000,"station_id":"ce4bhh12rcd13ifvqff0","pricing_plan_id":"cebpf4jnsgd1na2vs0mg"},{"bike_id":"e1065c32-ac19-477b-812a-39f964d50769","system_id":"levelo_inurba_marseille","lat":43.23192,"lon":5.35538,"is_reserved":false,"is_disabled":false,"rental_uris":{"android":"levelo://app?vid=e1065c32-ac19-477b-812a-39f964d50769","ios":"levelo://app?vid=e1065c32-ac19-477b-812a-39f964d50769"},"vehicle_type_id":"4","last_reported":1758370716,"current_range_meters":8000,"station_id":"ce4bhu92rcd13ifvqi70","pricing_plan_id":"cebpf4jnsgd1na2vs0mg"},{"bike_id":"a341eb2c-adf3-41df-a864-dfc605ab80d7","system_id":"levelo_inurba_marseille","lat":43.292416,"lon":5.368555,"is_reserved":false,"is_disabled":false,"rental_uris":{"android":"levelo://app?vid=a341eb2c-adf3-41df-a864-dfc605ab80d7","ios":"levelo://app?vid=a341eb2c-adf3-41df-a864-dfc605ab80d7"},"vehicle_type_id":"4","last_reported":1758370716,"current_range_meters":8000,"station_id":"ce4bhbp2rcd13ifvqesg","pricing_plan_id":"cebpf4jnsgd1na2vs0mg"},{"bike_id":"3179c7de-680c-44b2-8050-133cf4e41d3b","system_id":"levelo_inurba_marseille","lat":43.292704,"lon":5.38441,"is_reserved":false,"is_disabled":false,"rental_uris":{"android":"levelo://app?vid=3179c7de-680c-44b2-8050-133cf4e41d3b","ios":"levelo://app?vid=3179c7de-680c-44b2-8050-133cf4e41d3b"},"vehicle_type_id":"4","last_reported":1758370716,"current_range_meters":8000,"station_id":"ce4bh692rcd13ifvqea0","pricing_plan_id":"cebpf4jnsgd1na2vs0mg"},{"bike_id":"0ac0a059-c226-478c-9e65-bfb2fd578ddd","system_id":"levelo_inurba_marseille","lat":43.21188,"lon":5.35081,"is_reserved":false,"is_disabled":false,"rental_uris":{"android":"levelo://app?vid=0ac0a059-c226-478c-9e65-bfb2fd578ddd","ios":"levelo://app?vid=0ac0a059-c226-478c-9e65-bfb2fd578ddd"},"vehicle_type_id":"4","last_reported":1758370716,"current_range_meters":8000,"station_id":"st_cvj6sg6p6f1abm77japg","pricing_plan_id":"cebpf4jnsgd1na2vs0mg"},{"bike_id":"cc48539f-3363-44f7-9041-3eea5291a9db","system_id":"levelo_inurba_marseille","lat":43.21216,"lon":5.35092,"is_reserved":false,"is_disabled":false,"rental_uris":{"android":"levelo://app?vid=cc48539f-3363-44f7-9041-3eea5291a9db","ios":"levelo://app?vid=cc48539f-3363-44f7-9041-3eea5291a9db"},"vehicle_type_id":"4","last_reported":1758370716,"current_range_meters":8000,"station_id":"st_cvj6sg6p6f1abm77japg","pricing_plan_id":"cebpf4jnsgd1na2vs0mg"},{"bike_id":"0fbc0ce6-a3ce-477d-a1ae-e79beb243e17","system_id":"levelo_inurba_marseille","lat":43.21761,"lon":5.3459,"is_reserved":false,"is_disabled":false,"rental_uris":{"android":"levelo://app?vid=0fbc0ce6-a3ce-477d-a1ae-e79beb243e17","ios":"levelo://app?vid=0fbc0ce6-a3ce-477d-a1ae-e79beb243e17"},"vehicle_type_id":"4","last_reported":1758370716,"current_range_meters":8400,"station_id":"st_cvj6r9ubvosntc0bgbag","pricing_plan_id":"cebpf4jnsgd1na2vs0mg"},{"bike_id":"fb78ea42-e26f-45b3-a617-d3474b811b72","system_id":"levelo_inurba_marseille","lat":43.298734,"lon":5.379351,"is_reserved":false,"is_disabled":false,"rental_uris":{"android":"levelo://app?vid=fb78ea42-e26f-45b3-a617-d3474b811b72","ios":"levelo://app?vid=fb78ea42-e26f-45b3-a617-d3474b811b72"},"vehicle_type_id":"4","last_reported":1758370716,"current_range_meters":8400,"station_id":"","pricing_plan_id":"cebpf4jnsgd1na2vs0mg"},{"bike_id":"1bee5da9-0e23-45e0-97ae-444892d9682f","system_id":"levelo_inurba_marseille","lat":43.295279,"lon":5.390379,"is_reserved":false,"is_disabled":false,"rental_uris":{"android":"levelo://app?vid=1bee5da9-0e23-45e0-97ae-444892d9682f","ios":"levelo://app?vid=1bee5da9-0e23-45e0-97ae-444892d9682f"},"vehicle_type_id":"4","last_reported":1758370716,"current_range_meters":8400,"station_id":"ce4bh3p2rcd13ifvqdp0","pricing_plan_id":"cebpf4jnsgd1na2vs0mg"},{"bike_id":"e973c018-34bf-46fc-aa4f-9243dd2e9837","system_id":"levelo_inurba_marseille","lat":43.30148,"lon":5.38078,"is_reserved":false,"is_disabled":false,"rental_uris":{"android":"levelo://app?vid=e973c018-34bf-46fc-aa4f-9243dd2e9837","ios":"levelo://app?vid=e973c018-34bf-46fc-aa4f-9243dd2e9837"},"vehicle_type_id":"4","last_reported":1758370716,"current_range_meters":8400,"station_id":"ce4bgjp2rcd13ifvqbh0","pricing_plan_id":"cebpf4jnsgd1na2vs0mg"},{"bike_id":"da00ecd4-73f7-4e01-bb61-1fe9036e7f97","system_id":"levelo_inurba_marseille","lat":43.26574,"lon":5.37285,"is_reserved":false,"is_disabled":false,"rental_uris":{"android":"levelo://app?vid=da00ecd4-73f7-4e01-bb61-1fe9036e7f97","ios":"levelo://app?vid=da00ecd4-73f7-4e01-bb61-1fe9036e7f97"},"vehicle_type_id":"4","last_reported":1758370716,"current_range_meters":8400,"station_id":"ce4bhg12rcd13ifvqf70","pricing_plan_id":"cebpf4jnsgd1na2vs0mg"},{"bike_id":"6f0f9740-2be7-4074-a779-550afdb8e51d","system_id":"levelo_inurba_marseille","lat":43.23969,"lon":5.36608,"is_reserved":false,"is_disabled":false,"rental_uris":{"android":"levelo://app?vid=6f0f9740-2be7-4074-a779-550afdb8e51d","ios":"levelo://app?vid=6f0f9740-2be7-4074-a779-550afdb8e51d"},"vehicle_type_id":"4","last_reported":1758370716,"current_range_meters":8400,"station_id":"ce4bhi12rcd13ifvqfp0","pricing_plan_id":"cebpf4jnsgd1na2vs0mg"},{"bike_id":"250c3dae-55bf-4250-9fbc-1e4ab77e9812","system_id":"levelo_inurba_marseille","lat":43.23965,"lon":5.36626,"is_reserved":false,"is_disabled":false,"rental_uris":{"android":"levelo://app?vid=250c3dae-55bf-4250-9fbc-1e4ab77e9812","ios":"levelo://app?vid=250c3dae-55bf-4250-9fbc-1e4ab77e9812"},"vehicle_type_id":"4","last_reported":1758370716,"current_range_meters":8400,"station_id":"ce4bhi12rcd13ifvqfp0","pricing_plan_id":"cebpf4jnsgd1na2vs0mg"},{"bike_id":"5bb42022-0e19-48bc-a5b4-218bb1d7482e","system_id":"levelo_inurba_marseille","lat":43.31274,"lon":5.37727,"is_reserved":false,"is_disabled":false,"rental_uris":{"android":"levelo://app?vid=5bb42022-0e19-48bc-a5b4-218bb1d7482e","ios":"levelo://app?vid=5bb42022-0e19-48bc-a5b4-218bb1d7482e"},"vehicle_type_id":"4","last_reported":1758370716,"current_range_meters":8400,"station_id":"","pricing_plan_id":"cebpf4jnsgd1na2vs0mg"},{"bike_id":"32397ca5-e787-47de-92d2-cee0e73ef682","system_id":"levelo_inurba_marseille","lat":43.239633,"lon":5.366293,"is_reserved":false,"is_disabled":false,"rental_uris":{"android":"levelo://app?vid=32397ca5-e787-47de-92d2-cee0e73ef682","ios":"levelo://app?vid=32397ca5-e787-47de-92d2-cee0e73ef682"},"vehicle_type_id":"4","last_reported":1758370716,"current_range_meters":8400,"station_id":"ce4bhi12rcd13ifvqfp0","pricing_plan_id":"cebpf4jnsgd1na2vs0mg"},{"bike_id":"3e682cf4-5ea7-4563-9004-71435c031ec4","system_id":"levelo_inurba_marseille","lat":43.21194,"lon":5.35062,"is_reserved":false,"is_disabled":false,"rental_uris":{"android":"levelo://app?vid=3e682cf4-5ea7-4563-9004-71435c031ec4","ios":"levelo://app?vid=3e682cf4-5ea7-4563-9004-71435c031ec4"},"vehicle_type_id":"4","last_reported":1758370716,"current_range_meters":8800,"station_id":"st_cvj6sg6p6f1abm77japg","pricing_plan_id":"cebpf4jnsgd1na2vs0mg"},{"bike_id":"95f897e7-9edd-44ee-8b4b-1f6ac282b0e6","system_id":"levelo_inurba_marseille","lat":43.29376,"lon":5.37868,"is_reserved":false,"is_disabled":false,"rental_uris":{"android":"levelo://app?vid=95f897e7-9edd-44ee-8b4b-1f6ac282b0e6","ios":"levelo://app?vid=95f897e7-9edd-44ee-8b4b-1f6ac282b0e6"},"vehicle_type_id":"4","last_reported":1758370716,"current_range_meters":8800,"station_id":"ce4bgjh2rcd13ifvqbf0","pricing_plan_id":"cebpf4jnsgd1na2vs0mg"},{"bike_id":"bf6e6d27-c09e-4725-9fbc-20073fd5a515","system_id":"levelo_inurba_marseille","lat":43.289376,"lon":5.396214,"is_reserved":false,"is_disabled":false,"rental_uris":{"android":"levelo://app?vid=bf6e6d27-c09e-4725-9fbc-20073fd5a515","ios":"levelo://app?vid=bf6e6d27-c09e-4725-9fbc-20073fd5a515"},"vehicle_type_id":"4","last_reported":1758370716,"current_range_meters":8800,"station_id":"","pricing_plan_id":"cebpf4jnsgd1na2vs0mg"},{"bike_id":"c627b34a-8e81-4438-af3b-4fd0aab1c160","system_id":"levelo_inurba_marseille","lat":43.296567,"lon":5.360363,"is_reserved":false,"is_disabled":false,"rental_uris":{"android":"levelo://app?vid=c627b34a-8e81-4438-af3b-4fd0aab1c160","ios":"levelo://app?vid=c627b34a-8e81-4438-af3b-4fd0aab1c160"},"vehicle_type_id":"4","last_reported":1758370716,"current_range_meters":8800,"station_id":"","pricing_plan_id":"cebpf4jnsgd1na2vs0mg"},{"bike_id":"0960e3dd-c358-4474-bd10-8223758e1f6b","system_id":"levelo_inurba_marseille","lat":43.296996,"lon":5.376855,"is_reserved":false,"is_disabled":false,"rental_uris":{"android":"levelo://app?vid=0960e3dd-c358-4474-bd10-8223758e1f6b","ios":"levelo://app?vid=0960e3dd-c358-4474-bd10-8223758e1f6b"},"vehicle_type_id":"4","last_reported":1758370716,"current_range_meters":8800,"station_id":"","pricing_plan_id":"cebpf4jnsgd1na2vs0mg"},{"bike_id":"918454b6-f4e2-4f36-9b9f-1169daf69b69","system_id":"levelo_inurba_marseille","lat":43.27371,"lon":5.36245,"is_reserved":false,"is_disabled":false,"rental_uris":{"android":"levelo://app?vid=918454b6-f4e2-4f36-9b9f-1169daf69b69","ios":"levelo://app?vid=918454b6-f4e2-4f36-9b9f-1169daf69b69"},"vehicle_type_id":"4","last_reported":1758370716,"current_range_meters":8800,"station_id":"ce4bhbh2rcd13ifvqeo0","pricing_plan_id":"cebpf4jnsgd1na2vs0mg"},{"bike_id":"416ec571-6568-4f06-953f-364315c3d452","system_id":"levelo_inurba_marseille","lat":43.28041,"lon":5.36934,"is_reserved":false,"is_disabled":false,"rental_uris":{"android":"levelo://app?vid=416ec571-6568-4f06-953f-364315c3d452","ios":"levelo://app?vid=416ec571-6568-4f06-953f-364315c3d452"},"vehicle_type_id":"4","last_reported":1758370716,"current_range_meters":8800,"station_id":"ce4bha12rcd13ifvqef0","pricing_plan_id":"cebpf4jnsgd1na2vs0mg"},{"bike_id":"7dd65b1b-fb7b-4087-9803-34d477de11ae","system_id":"levelo_inurba_marseille","lat":43.21202,"lon":5.35057,"is_reserved":false,"is_disabled":false,"rental_uris":{"android":"levelo://app?vid=7dd65b1b-fb7b-4087-9803-34d477de11ae","ios":"levelo://app?vid=7dd65b1b-fb7b-4087-9803-34d477de11ae"},"vehicle_type_id":"4","last_reported":1758370716,"current_range_meters":9200,"station_id":"st_cvj6sg6p6f1abm77japg","pricing_plan_id":"cebpf4jnsgd1na2vs0mg"},{"bike_id":"7b4bf7e6-db7f-4f63-a04c-2e0dfde6a21a","system_id":"levelo_inurba_marseille","lat":43.27212,"lon":5.39179,"is_reserved":false,"is_disabled":false,"rental_uris":{"android":"levelo://app?vid=7b4bf7e6-db7f-4f63-a04c-2e0dfde6a21a","ios":"levelo://app?vid=7b4bf7e6-db7f-4f63-a04c-2e0dfde6a21a"},"vehicle_type_id":"4","last_reported":1758370716,"current_range_meters":9200,"station_id":"ce4bhhp2rcd13ifvqfm0","pricing_plan_id":"cebpf4jnsgd1na2vs0mg"},{"bike_id":"e26be477-9296-4a4c-b54f-3e36eb30386e","system_id":"levelo_inurba_marseille","lat":43.28615,"lon":5.35107,"is_reserved":false,"is_disabled":false,"rental_uris":{"android":"levelo://app?vid=e26be477-9296-4a4c-b54f-3e36eb30386e","ios":"levelo://app?vid=e26be477-9296-4a4c-b54f-3e36eb30386e"},"vehicle_type_id":"4","last_reported":1758370716,"current_range_meters":9200,"station_id":"ce4bhch2rcd13ifvqeug","pricing_plan_id":"cebpf4jnsgd1na2vs0mg"},{"bike_id":"32dbcc47-6240-462c-b89d-ae73dc0144f3","system_id":"levelo_inurba_marseille","lat":43.29577,"lon":5.36732,"is_reserved":false,"is_disabled":false,"rental_uris":{"android":"levelo://app?vid=32dbcc47-6240-462c-b89d-ae73dc0144f3","ios":"levelo://app?vid=32dbcc47-6240-462c-b89d-ae73dc0144f3"},"vehicle_type_id":"4","last_reported":1758370716,"current_range_meters":9200,"station_id":"ce4bgph2rcd13ifvqc2g","pricing_plan_id":"cebpf4jnsgd1na2vs0mg"},{"bike_id":"4bbb8e4b-8415-4755-924b-7c4f87fc83dd","system_id":"levelo_inurba_marseille","lat":43.21747,"lon":5.34605,"is_reserved":false,"is_disabled":false,"rental_uris":{"android":"levelo://app?vid=4bbb8e4b-8415-4755-924b-7c4f87fc83dd","ios":"levelo://app?vid=4bbb8e4b-8415-4755-924b-7c4f87fc83dd"},"vehicle_type_id":"4","last_reported":1758370716,"current_range_meters":9200,"station_id":"","pricing_plan_id":"cebpf4jnsgd1na2vs0mg"},{"bike_id":"c41e2d3d-8708-49ff-81fd-d3f8ea7aae45","system_id":"levelo_inurba_marseille","lat":43.21765,"lon":5.34591,"is_reserved":false,"is_disabled":false,"rental_uris":{"android":"levelo://app?vid=c41e2d3d-8708-49ff-81fd-d3f8ea7aae45","ios":"levelo://app?vid=c41e2d3d-8708-49ff-81fd-d3f8ea7aae45"},"vehicle_type_id":"4","last_reported":1758370716,"current_range_meters":9200,"station_id":"st_cvj6r9ubvosntc0bgbag","pricing_plan_id":"cebpf4jnsgd1na2vs0mg"},{"bike_id":"8c0d88ec-805a-432c-a3c8-3c8550a18ce0","system_id":"levelo_inurba_marseille","lat":43.24391,"lon":5.3706,"is_reserved":false,"is_disabled":false,"rental_uris":{"android":"levelo://app?vid=8c0d88ec-805a-432c-a3c8-3c8550a18ce0","ios":"levelo://app?vid=8c0d88ec-805a-432c-a3c8-3c8550a18ce0"},"vehicle_type_id":"4","last_reported":1758370716,"current_range_meters":9200,"station_id":"ce4bhhh2rcd13ifvqfk0","pricing_plan_id":"cebpf4jnsgd1na2vs0mg"},{"bike_id":"d4c5f949-c99d-4e6f-a569-c3a08475eb74","system_id":"levelo_inurba_marseille","lat":43.28686,"lon":5.38668,"is_reserved":false,"is_disabled":false,"rental_uris":{"android":"levelo://app?vid=d4c5f949-c99d-4e6f-a569-c3a08475eb74","ios":"levelo://app?vid=d4c5f949-c99d-4e6f-a569-c3a08475eb74"},"vehicle_type_id":"4","last_reported":1758370716,"current_range_meters":9600,"station_id":"ce4bh492rcd13ifvqdug","pricing_plan_id":"cebpf4jnsgd1na2vs0mg"},{"bike_id":"33d69153-3ab1-466b-9006-3187feb06b56","system_id":"levelo_inurba_marseille","lat":43.21193,"lon":5.35071,"is_reserved":false,"is_disabled":false,"rental_uris":{"android":"levelo://app?vid=33d69153-3ab1-466b-9006-3187feb06b56","ios":"levelo://app?vid=33d69153-3ab1-466b-9006-3187feb06b56"},"vehicle_type_id":"4","last_reported":1758370716,"current_range_meters":9600,"station_id":"st_cvj6sg6p6f1abm77japg","pricing_plan_id":"cebpf4jnsgd1na2vs0mg"},{"bike_id":"b3738c69-eca7-4402-9505-86989a05e9a8","system_id":"levelo_inurba_marseille","lat":43.254966,"lon":5.376475,"is_reserved":false,"is_disabled":false,"rental_uris":{"android":"levelo://app?vid=b3738c69-eca7-4402-9505-86989a05e9a8","ios":"levelo://app?vid=b3738c69-eca7-4402-9505-86989a05e9a8"},"vehicle_type_id":"4","last_reported":1758370716,"current_range_meters":9600,"station_id":"ce4bhh12rcd13ifvqff0","pricing_plan_id":"cebpf4jnsgd1na2vs0mg"},{"bike_id":"626b6093-634e-4cbb-b2d9-40fd2760e802","system_id":"levelo_inurba_marseille","lat":43.25835,"lon":5.39433,"is_reserved":false,"is_disabled":false,"rental_uris":{"android":"levelo://app?vid=626b6093-634e-4cbb-b2d9-40fd2760e802","ios":"levelo://app?vid=626b6093-634e-4cbb-b2d9-40fd2760e802"},"vehicle_type_id":"4","last_reported":1758370716,"current_range_meters":9600,"station_id":"ce4bhip2rcd13ifvqft0","pricing_plan_id":"cebpf4jnsgd1na2vs0mg"},{"bike_id":"be959163-3ff4-4bf2-ae8d-a9fe77be5648","system_id":"levelo_inurba_marseille","lat":43.24174,"lon":5.36395,"is_reserved":false,"is_disabled":false,"rental_uris":{"android":"levelo://app?vid=be959163-3ff4-4bf2-ae8d-a9fe77be5648","ios":"levelo://app?vid=be959163-3ff4-4bf2-ae8d-a9fe77be5648"},"vehicle_type_id":"4","last_reported":1758370716,"current_range_meters":9600,"station_id":"cpo36qri1sfpv3e86is0","pricing_plan_id":"cebpf4jnsgd1na2vs0mg"},{"bike_id":"223695bb-31b5-49ce-9d11-a7791913231f","system_id":"levelo_inurba_marseille","lat":43.23065,"lon":5.3549,"is_reserved":false,"is_disabled":false,"rental_uris":{"android":"levelo://app?vid=223695bb-31b5-49ce-9d11-a7791913231f","ios":"levelo://app?vid=223695bb-31b5-49ce-9d11-a7791913231f"},"vehicle_type_id":"4","last_reported":1758370716,"current_range_meters":9600,"station_id":"cpo3342slgdg3j2ifvpg","pricing_plan_id":"cebpf4jnsgd1na2vs0mg"},{"bike_id":"3ff98634-c41c-4334-8ce0-3062c62d1003","system_id":"levelo_inurba_marseille","lat":43.28272,"lon":5.35062,"is_reserved":false,"is_disabled":false,"rental_uris":{"android":"levelo://app?vid=3ff98634-c41c-4334-8ce0-3062c62d1003","ios":"levelo://app?vid=3ff98634-c41c-4334-8ce0-3062c62d1003"},"vehicle_type_id":"4","last_reported":1758370716,"current_range_meters":9600,"station_id":"ce4bhbp2rcd13ifvqerg","pricing_plan_id":"cebpf4jnsgd1na2vs0mg"},{"bike_id":"eb7fa1b5-17e3-43e5-afee-4d26243c73e7","system_id":"levelo_inurba_marseille","lat":43.28238,"lon":5.3507,"is_reserved":false,"is_disabled":false,"rental_uris":{"android":"levelo://app?vid=eb7fa1b5-17e3-43e5-afee-4d26243c73e7","ios":"levelo://app?vid=eb7fa1b5-17e3-43e5-afee-4d26243c73e7"},"vehicle_type_id":"4","last_reported":1758370716,"current_range_meters":9600,"station_id":"ce4bhbp2rcd13ifvqerg","pricing_plan_id":"cebpf4jnsgd1na2vs0mg"},{"bike_id":"c5ee63a8-9ba7-470c-8ef4-7593c337dce5","system_id":"levelo_inurba_marseille","lat":43.24165,"lon":5.3639,"is_reserved":false,"is_disabled":false,"rental_uris":{"android":"levelo://app?vid=c5ee63a8-9ba7-470c-8ef4-7593c337dce5","ios":"levelo://app?vid=c5ee63a8-9ba7-470c-8ef4-7593c337dce5"},"vehicle_type_id":"4","last_reported":1758370716,"current_range_meters":9600,"station_id":"cpo36qri1sfpv3e86is0","pricing_plan_id":"cebpf4jnsgd1na2vs0mg"},{"bike_id":"c14e7df5-47b6-4a16-b559-896c1c3fb0f9","system_id":"levelo_inurba_marseille","lat":43.2603,"lon":5.37552,"is_reserved":false,"is_disabled":false,"rental_uris":{"android":"levelo://app?vid=c14e7df5-47b6-4a16-b559-896c1c3fb0f9","ios":"levelo://app?vid=c14e7df5-47b6-4a16-b559-896c1c3fb0f9"},"vehicle_type_id":"4","last_reported":1758370716,"current_range_meters":9600,"station_id":"ce4bhgh2rcd13ifvqfa0","pricing_plan_id":"cebpf4jnsgd1na2vs0mg"},{"bike_id":"fcb3f6af-c7d4-4ccc-be82-7f951e8865a2","system_id":"levelo_inurba_marseille","lat":43.21195,"lon":5.35074,"is_reserved":false,"is_disabled":false,"rental_uris":{"android":"levelo://app?vid=fcb3f6af-c7d4-4ccc-be82-7f951e8865a2","ios":"levelo://app?vid=fcb3f6af-c7d4-4ccc-be82-7f951e8865a2"},"vehicle_type_id":"4","last_reported":1758370716,"current_range_meters":10000,"station_id":"","pricing_plan_id":"cebpf4jnsgd1na2vs0mg"},{"bike_id":"537e98ee-2d47-4dc9-bf77-7f9284f63a61","system_id":"levelo_inurba_marseille","lat":43.2843,"lon":5.34982,"is_reserved":false,"is_disabled":false,"rental_uris":{"android":"levelo://app?vid=537e98ee-2d47-4dc9-bf77-7f9284f63a61","ios":"levelo://app?vid=537e98ee-2d47-4dc9-bf77-7f9284f63a61"},"vehicle_type_id":"4","last_reported":1758370716,"current_range_meters":10000,"station_id":"ce4bhbh2rcd13ifvqepg","pricing_plan_id":"cebpf4jnsgd1na2vs0mg"},{"bike_id":"c06f205f-b149-48e1-af6e-4e386850564e","system_id":"levelo_inurba_marseille","lat":43.24404,"lon":5.37051,"is_reserved":false,"is_disabled":true,"rental_uris":{"android":"levelo://app?vid=c06f205f-b149-48e1-af6e-4e386850564e","ios":"levelo://app?vid=c06f205f-b149-48e1-af6e-4e386850564e"},"vehicle_type_id":"4","last_reported":1758370716,"current_range_meters":10000,"station_id":"ce4bhhh2rcd13ifvqfk0","pricing_plan_id":"cebpf4jnsgd1na2vs0mg"},{"bike_id":"13b657c5-dbfd-4c2d-97cb-887df27e484d","system_id":"levelo_inurba_marseille","lat":43.24382,"lon":5.37046,"is_reserved":false,"is_disabled":false,"rental_uris":{"android":"levelo://app?vid=13b657c5-dbfd-4c2d-97cb-887df27e484d","ios":"levelo://app?vid=13b657c5-dbfd-4c2d-97cb-887df27e484d"},"vehicle_type_id":"4","last_reported":1758370716,"current_range_meters":10000,"station_id":"ce4bhhh2rcd13ifvqfk0","pricing_plan_id":"cebpf4jnsgd1na2vs0mg"},{"bike_id":"ddd53d42-8842-478b-bfdb-c8723c823cf9","system_id":"levelo_inurba_marseille","lat":43.25868,"lon":5.39896,"is_reserved":false,"is_disabled":false,"rental_uris":{"android":"levelo://app?vid=ddd53d42-8842-478b-bfdb-c8723c823cf9","ios":"levelo://app?vid=ddd53d42-8842-478b-bfdb-c8723c823cf9"},"vehicle_type_id":"4","last_reported":1758370716,"current_range_meters":9600,"station_id":"ce4bhl92rcd13ifvqghg","pricing_plan_id":"cebpf4jnsgd1na2vs0mg"},{"bike_id":"47a5b051-3d25-4f9d-a9d4-3b4111816b42","system_id":"levelo_inurba_marseille","lat":43.2258,"lon":5.41646,"is_reserved":false,"is_disabled":false,"rental_uris":{"android":"levelo://app?vid=47a5b051-3d25-4f9d-a9d4-3b4111816b42","ios":"levelo://app?vid=47a5b051-3d25-4f9d-a9d4-3b4111816b42"},"vehicle_type_id":"4","last_reported":1758370716,"current_range_meters":10000,"station_id":"st_d2o4gvlbi1j2169b742g","pricing_plan_id":"cebpf4jnsgd1na2vs0mg"},{"bike_id":"528e20e6-9666-44bb-b960-2ae01a6bcf76","system_id":"levelo_inurba_marseille","lat":43.295188,"lon":5.390328,"is_reserved":false,"is_disabled":false,"rental_uris":{"android":"levelo://app?vid=528e20e6-9666-44bb-b960-2ae01a6bcf76","ios":"levelo://app?vid=528e20e6-9666-44bb-b960-2ae01a6bcf76"},"vehicle_type_id":"4","last_reported":1758370716,"current_range_meters":10000,"station_id":"ce4bh312rcd13ifvqdj0","pricing_plan_id":"cebpf4jnsgd1na2vs0mg"},{"bike_id":"c3689421-78f9-4aac-a06d-8b67fc64481a","system_id":"levelo_inurba_marseille","lat":43.29922,"lon":5.36538,"is_reserved":false,"is_disabled":false,"rental_uris":{"android":"levelo://app?vid=c3689421-78f9-4aac-a06d-8b67fc64481a","ios":"levelo://app?vid=c3689421-78f9-4aac-a06d-8b67fc64481a"},"vehicle_type_id":"4","last_reported":1758370716,"current_range_meters":10800,"station_id":"ce4bgm92rcd13ifvqbr0","pricing_plan_id":"cebpf4jnsgd1na2vs0mg"},{"bike_id":"b766d582-d4f0-4f9a-9867-0ae0b8177870","system_id":"levelo_inurba_marseille","lat":43.21193,"lon":5.35061,"is_reserved":false,"is_disabled":false,"rental_uris":{"android":"levelo://app?vid=b766d582-d4f0-4f9a-9867-0ae0b8177870","ios":"levelo://app?vid=b766d582-d4f0-4f9a-9867-0ae0b8177870"},"vehicle_type_id":"4","last_reported":1758370716,"current_range_meters":10800,"station_id":"st_cvj6sg6p6f1abm77japg","pricing_plan_id":"cebpf4jnsgd1na2vs0mg"},{"bike_id":"81563a0d-184f-45e9-9138-b7af580c6983","system_id":"levelo_inurba_marseille","lat":43.2926,"lon":5.40902,"is_reserved":false,"is_disabled":false,"rental_uris":{"android":"levelo://app?vid=81563a0d-184f-45e9-9138-b7af580c6983","ios":"levelo://app?vid=81563a0d-184f-45e9-9138-b7af580c6983"},"vehicle_type_id":"4","last_reported":1758370716,"current_range_meters":10800,"station_id":"ce4bh192rcd13ifvqdc0","pricing_plan_id":"cebpf4jnsgd1na2vs0mg"},{"bike_id":"cb69f6d2-1342-45b4-8f61-26f32c32f29d","system_id":"levelo_inurba_marseille","lat":43.24171,"lon":5.36396,"is_reserved":false,"is_disabled":false,"rental_uris":{"android":"levelo://app?vid=cb69f6d2-1342-45b4-8f61-26f32c32f29d","ios":"levelo://app?vid=cb69f6d2-1342-45b4-8f61-26f32c32f29d"},"vehicle_type_id":"4","last_reported":1758370716,"current_range_meters":10800,"station_id":"cpo36qri1sfpv3e86is0","pricing_plan_id":"cebpf4jnsgd1na2vs0mg"},{"bike_id":"a2523396-9757-4f7a-af46-78c68f0314ac","system_id":"levelo_inurba_marseille","lat":43.337444,"lon":5.374475,"is_reserved":false,"is_disabled":false,"rental_uris":{"android":"levelo://app?vid=a2523396-9757-4f7a-af46-78c68f0314ac","ios":"levelo://app?vid=a2523396-9757-4f7a-af46-78c68f0314ac"},"vehicle_type_id":"4","last_reported":1758370716,"current_range_meters":10800,"station_id":"ce4bgrh2rcd13ifvqc8g","pricing_plan_id":"cebpf4jnsgd1na2vs0mg"},{"bike_id":"617dca4b-4508-4d52-9e62-d583d919ac44","system_id":"levelo_inurba_marseille","lat":43.29733,"lon":5.37121,"is_reserved":false,"is_disabled":false,"rental_uris":{"android":"levelo://app?vid=617dca4b-4508-4d52-9e62-d583d919ac44","ios":"levelo://app?vid=617dca4b-4508-4d52-9e62-d583d919ac44"},"vehicle_type_id":"4","last_reported":1758370716,"current_range_meters":10800,"station_id":"","pricing_plan_id":"cebpf4jnsgd1na2vs0mg"},{"bike_id":"605d0282-63b4-40e6-a3f5-0de13027a90e","system_id":"levelo_inurba_marseille","lat":43.28431,"lon":5.34972,"is_reserved":false,"is_disabled":false,"rental_uris":{"android":"levelo://app?vid=605d0282-63b4-40e6-a3f5-0de13027a90e","ios":"levelo://app?vid=605d0282-63b4-40e6-a3f5-0de13027a90e"},"vehicle_type_id":"4","last_reported":1758370716,"current_range_meters":10800,"station_id":"ce4bhbh2rcd13ifvqepg","pricing_plan_id":"cebpf4jnsgd1na2vs0mg"},{"bike_id":"af77eb6d-dc27-4b4c-82d4-32525e244ac4","system_id":"levelo_inurba_marseille","lat":43.21745,"lon":5.346,"is_reserved":false,"is_disabled":false,"rental_uris":{"android":"levelo://app?vid=af77eb6d-dc27-4b4c-82d4-32525e244ac4","ios":"levelo://app?vid=af77eb6d-dc27-4b4c-82d4-32525e244ac4"},"vehicle_type_id":"4","last_reported":1758370716,"current_range_meters":10800,"station_id":"st_cvj6r9ubvosntc0bgbag","pricing_plan_id":"cebpf4jnsgd1na2vs0mg"},{"bike_id":"575f379b-682e-45a6-a90b-e2da032a9ae0","system_id":"levelo_inurba_marseille","lat":43.21194,"lon":5.35073,"is_reserved":false,"is_disabled":false,"rental_uris":{"android":"levelo://app?vid=575f379b-682e-45a6-a90b-e2da032a9ae0","ios":"levelo://app?vid=575f379b-682e-45a6-a90b-e2da032a9ae0"},"vehicle_type_id":"4","last_reported":1758370716,"current_range_meters":10800,"station_id":"st_cvj6sg6p6f1abm77japg","pricing_plan_id":"cebpf4jnsgd1na2vs0mg"},{"bike_id":"52594e2c-870e-40ac-9c4d-e743aa368938","system_id":"levelo_inurba_marseille","lat":43.30381,"lon":5.42485,"is_reserved":false,"is_disabled":false,"rental_uris":{"android":"levelo://app?vid=52594e2c-870e-40ac-9c4d-e743aa368938","ios":"levelo://app?vid=52594e2c-870e-40ac-9c4d-e743aa368938"},"vehicle_type_id":"4","last_reported":1758370716,"current_range_meters":11200,"station_id":"ce4bhoh2rcd13ifvqh6g","pricing_plan_id":"cebpf4jnsgd1na2vs0mg"},{"bike_id":"b77580f2-2757-4ce2-89a7-bf551bfbec7a","system_id":"levelo_inurba_marseille","lat":43.292906,"lon":5.374648,"is_reserved":false,"is_disabled":false,"rental_uris":{"android":"levelo://app?vid=b77580f2-2757-4ce2-89a7-bf551bfbec7a","ios":"levelo://app?vid=b77580f2-2757-4ce2-89a7-bf551bfbec7a"},"vehicle_type_id":"4","last_reported":1758370716,"current_range_meters":11200,"station_id":"","pricing_plan_id":"cebpf4jnsgd1na2vs0mg"},{"bike_id":"df3243a0-da48-4408-b9b5-fdecde32d06e","system_id":"levelo_inurba_marseille","lat":43.25496,"lon":5.3765,"is_reserved":false,"is_disabled":false,"rental_uris":{"android":"levelo://app?vid=df3243a0-da48-4408-b9b5-fdecde32d06e","ios":"levelo://app?vid=df3243a0-da48-4408-b9b5-fdecde32d06e"},"vehicle_type_id":"4","last_reported":1758370716,"current_range_meters":11200,"station_id":"ce4bhh12rcd13ifvqff0","pricing_plan_id":"cebpf4jnsgd1na2vs0mg"},{"bike_id":"5b84af94-a4d6-4b46-a63f-085ff5681f73","system_id":"levelo_inurba_marseille","lat":43.21199,"lon":5.35044,"is_reserved":false,"is_disabled":false,"rental_uris":{"android":"levelo://app?vid=5b84af94-a4d6-4b46-a63f-085ff5681f73","ios":"levelo://app?vid=5b84af94-a4d6-4b46-a63f-085ff5681f73"},"vehicle_type_id":"4","last_reported":1758370716,"current_range_meters":11200,"station_id":"st_cvj6sg6p6f1abm77japg","pricing_plan_id":"cebpf4jnsgd1na2vs0mg"},{"bike_id":"2dbb9a5f-994c-4cc3-be96-b9d4556d7225","system_id":"levelo_inurba_marseille","lat":43.2829,"lon":5.35069,"is_reserved":false,"is_disabled":false,"rental_uris":{"android":"levelo://app?vid=2dbb9a5f-994c-4cc3-be96-b9d4556d7225","ios":"levelo://app?vid=2dbb9a5f-994c-4cc3-be96-b9d4556d7225"},"vehicle_type_id":"4","last_reported":1758370716,"current_range_meters":11200,"station_id":"ce4bhbp2rcd13ifvqerg","pricing_plan_id":"cebpf4jnsgd1na2vs0mg"},{"bike_id":"b5175bf2-b970-4193-a107-a70c3097ce26","system_id":"levelo_inurba_marseille","lat":43.25333,"lon":5.42132,"is_reserved":false,"is_disabled":false,"rental_uris":{"android":"levelo://app?vid=b5175bf2-b970-4193-a107-a70c3097ce26","ios":"levelo://app?vid=b5175bf2-b970-4193-a107-a70c3097ce26"},"vehicle_type_id":"4","last_reported":1758370716,"current_range_meters":11200,"station_id":"st_d2m65c5bi1j21697t3ng","pricing_plan_id":"cebpf4jnsgd1na2vs0mg"},{"bike_id":"3e7eed7f-fb22-43f5-9f11-d614377f1153","system_id":"levelo_inurba_marseille","lat":43.26203,"lon":5.37927,"is_reserved":false,"is_disabled":false,"rental_uris":{"android":"levelo://app?vid=3e7eed7f-fb22-43f5-9f11-d614377f1153","ios":"levelo://app?vid=3e7eed7f-fb22-43f5-9f11-d614377f1153"},"vehicle_type_id":"4","last_reported":1758370716,"current_range_meters":11200,"station_id":"ce4bhjp2rcd13ifvqg90","pricing_plan_id":"cebpf4jnsgd1na2vs0mg"},{"bike_id":"50653f04-43cf-4e1a-a367-5b87f74c9bec","system_id":"levelo_inurba_marseille","lat":43.28284,"lon":5.35066,"is_reserved":false,"is_disabled":false,"rental_uris":{"android":"levelo://app?vid=50653f04-43cf-4e1a-a367-5b87f74c9bec","ios":"levelo://app?vid=50653f04-43cf-4e1a-a367-5b87f74c9bec"},"vehicle_type_id":"4","last_reported":1758370716,"current_range_meters":11600,"station_id":"ce4bhbp2rcd13ifvqerg","pricing_plan_id":"cebpf4jnsgd1na2vs0mg"},{"bike_id":"90e39901-02a2-417a-9c4c-76363c540417","system_id":"levelo_inurba_marseille","lat":43.319854,"lon":5.381445,"is_reserved":false,"is_disabled":false,"rental_uris":{"android":"levelo://app?vid=90e39901-02a2-417a-9c4c-76363c540417","ios":"levelo://app?vid=90e39901-02a2-417a-9c4c-76363c540417"},"vehicle_type_id":"4","last_reported":1758370716,"current_range_meters":11600,"station_id":"ce4bhr12rcd13ifvqhpg","pricing_plan_id":"cebpf4jnsgd1na2vs0mg"},{"bike_id":"123d0c34-6e09-40e8-8d56-d81362cadb43","system_id":"levelo_inurba_marseille","lat":43.3153,"lon":5.38036,"is_reserved":false,"is_disabled":false,"rental_uris":{"android":"levelo://app?vid=123d0c34-6e09-40e8-8d56-d81362cadb43","ios":"levelo://app?vid=123d0c34-6e09-40e8-8d56-d81362cadb43"},"vehicle_type_id":"4","last_reported":1758370716,"current_range_meters":11600,"station_id":"ce4bhsp2rcd13ifvqi50","pricing_plan_id":"cebpf4jnsgd1na2vs0mg"},{"bike_id":"a94cfd6b-692b-4959-a3b4-a109e1e16394","system_id":"levelo_inurba_marseille","lat":43.29976,"lon":5.38493,"is_reserved":false,"is_disabled":false,"rental_uris":{"android":"levelo://app?vid=a94cfd6b-692b-4959-a3b4-a109e1e16394","ios":"levelo://app?vid=a94cfd6b-692b-4959-a3b4-a109e1e16394"},"vehicle_type_id":"4","last_reported":1758370716,"current_range_meters":11200,"station_id":"ce4bgj92rcd13ifvqbd0","pricing_plan_id":"cebpf4jnsgd1na2vs0mg"},{"bike_id":"eb40682e-3e6d-47c2-be90-c12a69077085","system_id":"levelo_inurba_marseille","lat":43.28279,"lon":5.35065,"is_reserved":false,"is_disabled":false,"rental_uris":{"android":"levelo://app?vid=eb40682e-3e6d-47c2-be90-c12a69077085","ios":"levelo://app?vid=eb40682e-3e6d-47c2-be90-c12a69077085"},"vehicle_type_id":"4","last_reported":1758370716,"current_range_meters":11600,"station_id":"ce4bhbp2rcd13ifvqerg","pricing_plan_id":"cebpf4jnsgd1na2vs0mg"},{"bike_id":"89b5af1f-bbaa-4779-92d6-8fe6a720102a","system_id":"levelo_inurba_marseille","lat":43.21194,"lon":5.3507,"is_reserved":false,"is_disabled":false,"rental_uris":{"android":"levelo://app?vid=89b5af1f-bbaa-4779-92d6-8fe6a720102a","ios":"levelo://app?vid=89b5af1f-bbaa-4779-92d6-8fe6a720102a"},"vehicle_type_id":"4","last_reported":1758370716,"current_range_meters":11600,"station_id":"st_cvj6sg6p6f1abm77japg","pricing_plan_id":"cebpf4jnsgd1na2vs0mg"},{"bike_id":"586d90c2-f9cc-4aba-99be-c3a22b1e2d27","system_id":"levelo_inurba_marseille","lat":43.261879,"lon":5.374514,"is_reserved":false,"is_disabled":false,"rental_uris":{"android":"levelo://app?vid=586d90c2-f9cc-4aba-99be-c3a22b1e2d27","ios":"levelo://app?vid=586d90c2-f9cc-4aba-99be-c3a22b1e2d27"},"vehicle_type_id":"4","last_reported":1758370716,"current_range_meters":11200,"station_id":"ce4bhgp2rcd13ifvqfc0","pricing_plan_id":"cebpf4jnsgd1na2vs0mg"},{"bike_id":"b0cd38e0-80bb-4840-827d-b3dc4f86a939","system_id":"levelo_inurba_marseille","lat":43.21756,"lon":5.34594,"is_reserved":false,"is_disabled":false,"rental_uris":{"android":"levelo://app?vid=b0cd38e0-80bb-4840-827d-b3dc4f86a939","ios":"levelo://app?vid=b0cd38e0-80bb-4840-827d-b3dc4f86a939"},"vehicle_type_id":"4","last_reported":1758370716,"current_range_meters":11600,"station_id":"","pricing_plan_id":"cebpf4jnsgd1na2vs0mg"},{"bike_id":"22e3f046-8f02-4423-8e13-b1babe52b759","system_id":"levelo_inurba_marseille","lat":43.294347,"lon":5.376389,"is_reserved":false,"is_disabled":false,"rental_uris":{"android":"levelo://app?vid=22e3f046-8f02-4423-8e13-b1babe52b759","ios":"levelo://app?vid=22e3f046-8f02-4423-8e13-b1babe52b759"},"vehicle_type_id":"4","last_reported":1758370716,"current_range_meters":11600,"station_id":"ce4bgpp2rcd13ifvqc3g","pricing_plan_id":"cebpf4jnsgd1na2vs0mg"},{"bike_id":"c4706891-6ce1-4440-91ff-a3ecf2ff007e","system_id":"levelo_inurba_marseille","lat":43.26374,"lon":5.40075,"is_reserved":false,"is_disabled":false,"rental_uris":{"android":"levelo://app?vid=c4706891-6ce1-4440-91ff-a3ecf2ff007e","ios":"levelo://app?vid=c4706891-6ce1-4440-91ff-a3ecf2ff007e"},"vehicle_type_id":"4","last_reported":1758370716,"current_range_meters":12000,"station_id":"","pricing_plan_id":"cebpf4jnsgd1na2vs0mg"},{"bike_id":"86899b9a-8977-4c92-9304-245ab431dc64","system_id":"levelo_inurba_marseille","lat":43.28616,"lon":5.35098,"is_reserved":false,"is_disabled":false,"rental_uris":{"android":"levelo://app?vid=86899b9a-8977-4c92-9304-245ab431dc64","ios":"levelo://app?vid=86899b9a-8977-4c92-9304-245ab431dc64"},"vehicle_type_id":"4","last_reported":1758370716,"current_range_meters":12000,"station_id":"ce4bhch2rcd13ifvqeug","pricing_plan_id":"cebpf4jnsgd1na2vs0mg"},{"bike_id":"1f585528-8638-411c-aaf1-d375c5dfda4a","system_id":"levelo_inurba_marseille","lat":43.284182,"lon":5.349961,"is_reserved":false,"is_disabled":false,"rental_uris":{"android":"levelo://app?vid=1f585528-8638-411c-aaf1-d375c5dfda4a","ios":"levelo://app?vid=1f585528-8638-411c-aaf1-d375c5dfda4a"},"vehicle_type_id":"4","last_reported":1758370716,"current_range_meters":12000,"station_id":"","pricing_plan_id":"cebpf4jnsgd1na2vs0mg"},{"bike_id":"c1de798e-d796-45de-a2b3-3989b11db8d4","system_id":"levelo_inurba_marseille","lat":43.29787,"lon":5.37099,"is_reserved":false,"is_disabled":false,"rental_uris":{"android":"levelo://app?vid=c1de798e-d796-45de-a2b3-3989b11db8d4","ios":"levelo://app?vid=c1de798e-d796-45de-a2b3-3989b11db8d4"},"vehicle_type_id":"4","last_reported":1758370716,"current_range_meters":11600,"station_id":"ce4bgop2rcd13ifvqc1g","pricing_plan_id":"cebpf4jnsgd1na2vs0mg"},{"bike_id":"b0c6857b-7ffa-4f26-b876-471a4e99d60c","system_id":"levelo_inurba_marseille","lat":43.2455,"lon":5.39519,"is_reserved":false,"is_disabled":false,"rental_uris":{"android":"levelo://app?vid=b0c6857b-7ffa-4f26-b876-471a4e99d60c","ios":"levelo://app?vid=b0c6857b-7ffa-4f26-b876-471a4e99d60c"},"vehicle_type_id":"4","last_reported":1758370716,"current_range_meters":12000,"station_id":"ce4bhlp2rcd13ifvqgjg","pricing_plan_id":"cebpf4jnsgd1na2vs0mg"},{"bike_id":"8e86fe12-b2d6-4764-9720-31f5ab462b7b","system_id":"levelo_inurba_marseille","lat":43.22572,"lon":5.41626,"is_reserved":false,"is_disabled":false,"rental_uris":{"android":"levelo://app?vid=8e86fe12-b2d6-4764-9720-31f5ab462b7b","ios":"levelo://app?vid=8e86fe12-b2d6-4764-9720-31f5ab462b7b"},"vehicle_type_id":"4","last_reported":1758370716,"current_range_meters":12400,"station_id":"st_d2o4gvlbi1j2169b742g","pricing_plan_id":"cebpf4jnsgd1na2vs0mg"},{"bike_id":"99ef6637-84d7-44f9-bde4-948e86f6cf85","system_id":"levelo_inurba_marseille","lat":43.2842,"lon":5.3499,"is_reserved":false,"is_disabled":false,"rental_uris":{"android":"levelo://app?vid=99ef6637-84d7-44f9-bde4-948e86f6cf85","ios":"levelo://app?vid=99ef6637-84d7-44f9-bde4-948e86f6cf85"},"vehicle_type_id":"4","last_reported":1758370716,"current_range_meters":12400,"station_id":"ce4bhbh2rcd13ifvqepg","pricing_plan_id":"cebpf4jnsgd1na2vs0mg"},{"bike_id":"21100b46-a46f-4dba-8aca-533ef91f921b","system_id":"levelo_inurba_marseille","lat":43.2119,"lon":5.35083,"is_reserved":false,"is_disabled":false,"rental_uris":{"android":"levelo://app?vid=21100b46-a46f-4dba-8aca-533ef91f921b","ios":"levelo://app?vid=21100b46-a46f-4dba-8aca-533ef91f921b"},"vehicle_type_id":"4","last_reported":1758370716,"current_range_meters":12400,"station_id":"st_cvj6sg6p6f1abm77japg","pricing_plan_id":"cebpf4jnsgd1na2vs0mg"},{"bike_id":"05ca0aa0-5596-4971-a0c3-94e65df6bd50","system_id":"levelo_inurba_marseille","lat":43.22531,"lon":5.4159,"is_reserved":false,"is_disabled":false,"rental_uris":{"android":"levelo://app?vid=05ca0aa0-5596-4971-a0c3-94e65df6bd50","ios":"levelo://app?vid=05ca0aa0-5596-4971-a0c3-94e65df6bd50"},"vehicle_type_id":"4","last_reported":1758370716,"current_range_meters":12400,"station_id":"st_d2o4gvlbi1j2169b742g","pricing_plan_id":"cebpf4jnsgd1na2vs0mg"},{"bike_id":"f5e4ee18-c5bc-4d4b-876f-a1818d070afc","system_id":"levelo_inurba_marseille","lat":43.28615,"lon":5.35109,"is_reserved":false,"is_disabled":false,"rental_uris":{"android":"levelo://app?vid=f5e4ee18-c5bc-4d4b-876f-a1818d070afc","ios":"levelo://app?vid=f5e4ee18-c5bc-4d4b-876f-a1818d070afc"},"vehicle_type_id":"4","last_reported":1758370716,"current_range_meters":12400,"station_id":"ce4bhch2rcd13ifvqeug","pricing_plan_id":"cebpf4jnsgd1na2vs0mg"},{"bike_id":"bf15a5e8-5f9d-465c-8783-852eb7e6ec72","system_id":"levelo_inurba_marseille","lat":43.26553,"lon":5.37309,"is_reserved":false,"is_disabled":false,"rental_uris":{"android":"levelo://app?vid=bf15a5e8-5f9d-465c-8783-852eb7e6ec72","ios":"levelo://app?vid=bf15a5e8-5f9d-465c-8783-852eb7e6ec72"},"vehicle_type_id":"4","last_reported":1758370716,"current_range_meters":12400,"station_id":"ce4bhg12rcd13ifvqf70","pricing_plan_id":"cebpf4jnsgd1na2vs0mg"},{"bike_id":"82af8e6c-c199-4035-84e2-dea0d818bc7f","system_id":"levelo_inurba_marseille","lat":43.23071,"lon":5.35487,"is_reserved":false,"is_disabled":false,"rental_uris":{"android":"levelo://app?vid=82af8e6c-c199-4035-84e2-dea0d818bc7f","ios":"levelo://app?vid=82af8e6c-c199-4035-84e2-dea0d818bc7f"},"vehicle_type_id":"4","last_reported":1758370716,"current_range_meters":12400,"station_id":"cpo3342slgdg3j2ifvpg","pricing_plan_id":"cebpf4jnsgd1na2vs0mg"},{"bike_id":"1b84b000-8a36-4c5f-89db-2bef96360cd4","system_id":"levelo_inurba_marseille","lat":43.29794,"lon":5.38117,"is_reserved":false,"is_disabled":false,"rental_uris":{"android":"levelo://app?vid=1b84b000-8a36-4c5f-89db-2bef96360cd4","ios":"levelo://app?vid=1b84b000-8a36-4c5f-89db-2bef96360cd4"},"vehicle_type_id":"4","last_reported":1758370716,"current_range_meters":12800,"station_id":"ce4bgip2rcd13ifvqbb0","pricing_plan_id":"cebpf4jnsgd1na2vs0mg"},{"bike_id":"d24c18bc-9176-4fd0-8734-4d63574cb1ed","system_id":"levelo_inurba_marseille","lat":43.21757,"lon":5.34586,"is_reserved":false,"is_disabled":false,"rental_uris":{"android":"levelo://app?vid=d24c18bc-9176-4fd0-8734-4d63574cb1ed","ios":"levelo://app?vid=d24c18bc-9176-4fd0-8734-4d63574cb1ed"},"vehicle_type_id":"4","last_reported":1758370716,"current_range_meters":12800,"station_id":"","pricing_plan_id":"cebpf4jnsgd1na2vs0mg"},{"bike_id":"5a5a77d0-f0c8-4a67-9b89-309637b22751","system_id":"levelo_inurba_marseille","lat":43.21749,"lon":5.34601,"is_reserved":false,"is_disabled":false,"rental_uris":{"android":"levelo://app?vid=5a5a77d0-f0c8-4a67-9b89-309637b22751","ios":"levelo://app?vid=5a5a77d0-f0c8-4a67-9b89-309637b22751"},"vehicle_type_id":"4","last_reported":1758370716,"current_range_meters":12800,"station_id":"st_cvj6r9ubvosntc0bgbag","pricing_plan_id":"cebpf4jnsgd1na2vs0mg"},{"bike_id":"11f536f5-f858-4572-b106-c5cc3146e3cd","system_id":"levelo_inurba_marseille","lat":43.25336,"lon":5.42151,"is_reserved":false,"is_disabled":false,"rental_uris":{"android":"levelo://app?vid=11f536f5-f858-4572-b106-c5cc3146e3cd","ios":"levelo://app?vid=11f536f5-f858-4572-b106-c5cc3146e3cd"},"vehicle_type_id":"4","last_reported":1758370716,"current_range_meters":12800,"station_id":"st_d2m65c5bi1j21697t3ng","pricing_plan_id":"cebpf4jnsgd1na2vs0mg"},{"bike_id":"6dc0b0f2-d299-4b0b-8b3d-44acd15131d1","system_id":"levelo_inurba_marseille","lat":43.30309,"lon":5.36888,"is_reserved":false,"is_disabled":false,"rental_uris":{"android":"levelo://app?vid=6dc0b0f2-d299-4b0b-8b3d-44acd15131d1","ios":"levelo://app?vid=6dc0b0f2-d299-4b0b-8b3d-44acd15131d1"},"vehicle_type_id":"4","last_reported":1758370716,"current_range_meters":13600,"station_id":"ce4bgqh2rcd13ifvqc5g","pricing_plan_id":"cebpf4jnsgd1na2vs0mg"},{"bike_id":"100fc699-7bc2-45de-9e70-967069e79569","system_id":"levelo_inurba_marseille","lat":43.27943,"lon":5.41031,"is_reserved":false,"is_disabled":false,"rental_uris":{"android":"levelo://app?vid=100fc699-7bc2-45de-9e70-967069e79569","ios":"levelo://app?vid=100fc699-7bc2-45de-9e70-967069e79569"},"vehicle_type_id":"4","last_reported":1758370716,"current_range_meters":13600,"station_id":"ce4bhnp2rcd13ifvqh0g","pricing_plan_id":"cebpf4jnsgd1na2vs0mg"},{"bike_id":"51ede2a9-1b9d-40bd-83a7-178da9509fb7","system_id":"levelo_inurba_marseille","lat":43.29918,"lon":5.37455,"is_reserved":false,"is_disabled":false,"rental_uris":{"android":"levelo://app?vid=51ede2a9-1b9d-40bd-83a7-178da9509fb7","ios":"levelo://app?vid=51ede2a9-1b9d-40bd-83a7-178da9509fb7"},"vehicle_type_id":"4","last_reported":1758370716,"current_range_meters":13600,"station_id":"ce4bgjh2rcd13ifvqbg0","pricing_plan_id":"cebpf4jnsgd1na2vs0mg"},{"bike_id":"7fb58d99-54fa-4834-9399-d93d773fcc6f","system_id":"levelo_inurba_marseille","lat":43.21195,"lon":5.35066,"is_reserved":false,"is_disabled":false,"rental_uris":{"android":"levelo://app?vid=7fb58d99-54fa-4834-9399-d93d773fcc6f","ios":"levelo://app?vid=7fb58d99-54fa-4834-9399-d93d773fcc6f"},"vehicle_type_id":"4","last_reported":1758370716,"current_range_meters":13600,"station_id":"st_cvj6sg6p6f1abm77japg","pricing_plan_id":"cebpf4jnsgd1na2vs0mg"},{"bike_id":"3fc70425-07a0-4969-a4e2-30ace61b756b","system_id":"levelo_inurba_marseille","lat":43.217399,"lon":5.346146,"is_reserved":false,"is_disabled":false,"rental_uris":{"android":"levelo://app?vid=3fc70425-07a0-4969-a4e2-30ace61b756b","ios":"levelo://app?vid=3fc70425-07a0-4969-a4e2-30ace61b756b"},"vehicle_type_id":"4","last_reported":1758370716,"current_range_meters":13600,"station_id":"","pricing_plan_id":"cebpf4jnsgd1na2vs0mg"},{"bike_id":"cca2c54a-2af0-41a3-9bee-3753b2105d32","system_id":"levelo_inurba_marseille","lat":43.21766,"lon":5.34577,"is_reserved":false,"is_disabled":false,"rental_uris":{"android":"levelo://app?vid=cca2c54a-2af0-41a3-9bee-3753b2105d32","ios":"levelo://app?vid=cca2c54a-2af0-41a3-9bee-3753b2105d32"},"vehicle_type_id":"4","last_reported":1758370716,"current_range_meters":14000,"station_id":"st_cvj6r9ubvosntc0bgbag","pricing_plan_id":"cebpf4jnsgd1na2vs0mg"},{"bike_id":"e3b9d1a2-0a22-44da-bd4f-a7a36eeeffb1","system_id":"levelo_inurba_marseille","lat":43.28618,"lon":5.3511,"is_reserved":false,"is_disabled":false,"rental_uris":{"android":"levelo://app?vid=e3b9d1a2-0a22-44da-bd4f-a7a36eeeffb1","ios":"levelo://app?vid=e3b9d1a2-0a22-44da-bd4f-a7a36eeeffb1"},"vehicle_type_id":"4","last_reported":1758370716,"current_range_meters":14000,"station_id":"ce4bhch2rcd13ifvqeug","pricing_plan_id":"cebpf4jnsgd1na2vs0mg"},{"bike_id":"08156082-ce7f-420c-9f22-bee81ccbaab1","system_id":"levelo_inurba_marseille","lat":43.24166,"lon":5.36395,"is_reserved":false,"is_disabled":false,"rental_uris":{"android":"levelo://app?vid=08156082-ce7f-420c-9f22-bee81ccbaab1","ios":"levelo://app?vid=08156082-ce7f-420c-9f22-bee81ccbaab1"},"vehicle_type_id":"4","last_reported":1758370716,"current_range_meters":14000,"station_id":"cpo36qri1sfpv3e86is0","pricing_plan_id":"cebpf4jnsgd1na2vs0mg"},{"bike_id":"c9705a80-580a-4119-ada9-5847fd307594","system_id":"levelo_inurba_marseille","lat":43.23063,"lon":5.35497,"is_reserved":false,"is_disabled":false,"rental_uris":{"android":"levelo://app?vid=c9705a80-580a-4119-ada9-5847fd307594","ios":"levelo://app?vid=c9705a80-580a-4119-ada9-5847fd307594"},"vehicle_type_id":"4","last_reported":1758370716,"current_range_meters":14000,"station_id":"cpo3342slgdg3j2ifvpg","pricing_plan_id":"cebpf4jnsgd1na2vs0mg"},{"bike_id":"4da2363f-a15d-4413-81f5-ae8047f450a7","system_id":"levelo_inurba_marseille","lat":43.28612,"lon":5.35106,"is_reserved":false,"is_disabled":false,"rental_uris":{"android":"levelo://app?vid=4da2363f-a15d-4413-81f5-ae8047f450a7","ios":"levelo://app?vid=4da2363f-a15d-4413-81f5-ae8047f450a7"},"vehicle_type_id":"4","last_reported":1758370716,"current_range_meters":14000,"station_id":"ce4bhch2rcd13ifvqeug","pricing_plan_id":"cebpf4jnsgd1na2vs0mg"},{"bike_id":"382ebfe6-6b1c-4f25-8a99-6e6970139651","system_id":"levelo_inurba_marseille","lat":43.27621,"lon":5.36106,"is_reserved":false,"is_disabled":false,"rental_uris":{"android":"levelo://app?vid=382ebfe6-6b1c-4f25-8a99-6e6970139651","ios":"levelo://app?vid=382ebfe6-6b1c-4f25-8a99-6e6970139651"},"vehicle_type_id":"4","last_reported":1758370716,"current_range_meters":14000,"station_id":"ce4bgj92rcd13ifvqbe0","pricing_plan_id":"cebpf4jnsgd1na2vs0mg"},{"bike_id":"438ead59-de14-4fa0-a61d-03a70a4122ae","system_id":"levelo_inurba_marseille","lat":43.9729,"lon":4.89133,"is_reserved":false,"is_disabled":true,"rental_uris":{"android":"levelo://app?vid=438ead59-de14-4fa0-a61d-03a70a4122ae","ios":"levelo://app?vid=438ead59-de14-4fa0-a61d-03a70a4122ae"},"vehicle_type_id":"4","last_reported":1758370716,"current_range_meters":14000,"station_id":"","pricing_plan_id":"cebpf4jnsgd1na2vs0mg"},{"bike_id":"0f7caa9f-1d1a-40d7-9b4a-2f8720e63681","system_id":"levelo_inurba_marseille","lat":43.30855,"lon":5.37494,"is_reserved":false,"is_disabled":false,"rental_uris":{"android":"levelo://app?vid=0f7caa9f-1d1a-40d7-9b4a-2f8720e63681","ios":"levelo://app?vid=0f7caa9f-1d1a-40d7-9b4a-2f8720e63681"},"vehicle_type_id":"4","last_reported":1758370716,"current_range_meters":14400,"station_id":"","pricing_plan_id":"cebpf4jnsgd1na2vs0mg"},{"bike_id":"035be1b5-37eb-4ce0-af39-f012d6e605bd","system_id":"levelo_inurba_marseille","lat":43.24164,"lon":5.36402,"is_reserved":false,"is_disabled":false,"rental_uris":{"android":"levelo://app?vid=035be1b5-37eb-4ce0-af39-f012d6e605bd","ios":"levelo://app?vid=035be1b5-37eb-4ce0-af39-f012d6e605bd"},"vehicle_type_id":"4","last_reported":1758370716,"current_range_meters":14400,"station_id":"cpo36qri1sfpv3e86is0","pricing_plan_id":"cebpf4jnsgd1na2vs0mg"},{"bike_id":"9dda362f-31ca-490a-a5c0-06c09f1dbe36","system_id":"levelo_inurba_marseille","lat":43.240041,"lon":5.366447,"is_reserved":false,"is_disabled":false,"rental_uris":{"android":"levelo://app?vid=9dda362f-31ca-490a-a5c0-06c09f1dbe36","ios":"levelo://app?vid=9dda362f-31ca-490a-a5c0-06c09f1dbe36"},"vehicle_type_id":"4","last_reported":1758370716,"current_range_meters":14400,"station_id":"ce4bhgh2rcd13ifvqfa0","pricing_plan_id":"cebpf4jnsgd1na2vs0mg"},{"bike_id":"55d1bc08-fd54-4a82-afc7-2adcaa7b1c4e","system_id":"levelo_inurba_marseille","lat":43.30027,"lon":5.37702,"is_reserved":false,"is_disabled":false,"rental_uris":{"android":"levelo://app?vid=55d1bc08-fd54-4a82-afc7-2adcaa7b1c4e","ios":"levelo://app?vid=55d1bc08-fd54-4a82-afc7-2adcaa7b1c4e"},"vehicle_type_id":"4","last_reported":1758370716,"current_range_meters":14400,"station_id":"","pricing_plan_id":"cebpf4jnsgd1na2vs0mg"},{"bike_id":"c1843d42-9f15-4235-8c7f-0c60147cb155","system_id":"levelo_inurba_marseille","lat":43.21176,"lon":5.35014,"is_reserved":false,"is_disabled":false,"rental_uris":{"android":"levelo://app?vid=c1843d42-9f15-4235-8c7f-0c60147cb155","ios":"levelo://app?vid=c1843d42-9f15-4235-8c7f-0c60147cb155"},"vehicle_type_id":"4","last_reported":1758370716,"current_range_meters":14400,"station_id":"","pricing_plan_id":"cebpf4jnsgd1na2vs0mg"},{"bike_id":"45b3b57e-09ce-4fca-a41f-cab070095f92","system_id":"levelo_inurba_marseille","lat":43.23186,"lon":5.35537,"is_reserved":false,"is_disabled":false,"rental_uris":{"android":"levelo://app?vid=45b3b57e-09ce-4fca-a41f-cab070095f92","ios":"levelo://app?vid=45b3b57e-09ce-4fca-a41f-cab070095f92"},"vehicle_type_id":"4","last_reported":1758370716,"current_range_meters":14400,"station_id":"ce4bhu92rcd13ifvqi70","pricing_plan_id":"cebpf4jnsgd1na2vs0mg"},{"bike_id":"3167f28a-6c46-4379-b41f-5bde089ea22d","system_id":"levelo_inurba_marseille","lat":43.21746,"lon":5.34603,"is_reserved":false,"is_disabled":false,"rental_uris":{"android":"levelo://app?vid=3167f28a-6c46-4379-b41f-5bde089ea22d","ios":"levelo://app?vid=3167f28a-6c46-4379-b41f-5bde089ea22d"},"vehicle_type_id":"4","last_reported":1758370716,"current_range_meters":14400,"station_id":"st_cvj6r9ubvosntc0bgbag","pricing_plan_id":"cebpf4jnsgd1na2vs0mg"},{"bike_id":"2a00cb84-e9e6-4781-804d-0494d7480777","system_id":"levelo_inurba_marseille","lat":43.22565,"lon":5.41625,"is_reserved":false,"is_disabled":false,"rental_uris":{"android":"levelo://app?vid=2a00cb84-e9e6-4781-804d-0494d7480777","ios":"levelo://app?vid=2a00cb84-e9e6-4781-804d-0494d7480777"},"vehicle_type_id":"4","last_reported":1758370716,"current_range_meters":14800,"station_id":"st_d2o4gvlbi1j2169b742g","pricing_plan_id":"cebpf4jnsgd1na2vs0mg"},{"bike_id":"d2cdba37-4634-4d6d-9361-fed8a6fd9ee0","system_id":"levelo_inurba_marseille","lat":43.25496,"lon":5.37646,"is_reserved":false,"is_disabled":false,"rental_uris":{"android":"levelo://app?vid=d2cdba37-4634-4d6d-9361-fed8a6fd9ee0","ios":"levelo://app?vid=d2cdba37-4634-4d6d-9361-fed8a6fd9ee0"},"vehicle_type_id":"4","last_reported":1758370716,"current_range_meters":14400,"station_id":"ce4bhh12rcd13ifvqff0","pricing_plan_id":"cebpf4jnsgd1na2vs0mg"},{"bike_id":"f752aa8c-ed7e-4239-b71e-771a2a3cec1e","system_id":"levelo_inurba_marseille","lat":43.21199,"lon":5.35064,"is_reserved":false,"is_disabled":false,"rental_uris":{"android":"levelo://app?vid=f752aa8c-ed7e-4239-b71e-771a2a3cec1e","ios":"levelo://app?vid=f752aa8c-ed7e-4239-b71e-771a2a3cec1e"},"vehicle_type_id":"4","last_reported":1758370716,"current_range_meters":14800,"station_id":"st_cvj6sg6p6f1abm77japg","pricing_plan_id":"cebpf4jnsgd1na2vs0mg"},{"bike_id":"2d82061a-a240-43d1-93a6-ab71cf777b3c","system_id":"levelo_inurba_marseille","lat":43.21192,"lon":5.35062,"is_reserved":false,"is_disabled":false,"rental_uris":{"android":"levelo://app?vid=2d82061a-a240-43d1-93a6-ab71cf777b3c","ios":"levelo://app?vid=2d82061a-a240-43d1-93a6-ab71cf777b3c"},"vehicle_type_id":"4","last_reported":1758370716,"current_range_meters":14800,"station_id":"st_cvj6sg6p6f1abm77japg","pricing_plan_id":"cebpf4jnsgd1na2vs0mg"},{"bike_id":"a07a513e-e5a9-4481-8592-d991379bc662","system_id":"levelo_inurba_marseille","lat":43.337536,"lon":5.374536,"is_reserved":false,"is_disabled":false,"rental_uris":{"android":"levelo://app?vid=a07a513e-e5a9-4481-8592-d991379bc662","ios":"levelo://app?vid=a07a513e-e5a9-4481-8592-d991379bc662"},"vehicle_type_id":"4","last_reported":1758370716,"current_range_meters":14800,"station_id":"","pricing_plan_id":"cebpf4jnsgd1na2vs0mg"},{"bike_id":"46c51bbc-b69e-44ca-bcc6-fa8eb7eaadfb","system_id":"levelo_inurba_marseille","lat":43.24177,"lon":5.3639,"is_reserved":false,"is_disabled":false,"rental_uris":{"android":"levelo://app?vid=46c51bbc-b69e-44ca-bcc6-fa8eb7eaadfb","ios":"levelo://app?vid=46c51bbc-b69e-44ca-bcc6-fa8eb7eaadfb"},"vehicle_type_id":"4","last_reported":1758370716,"current_range_meters":15200,"station_id":"cpo36qri1sfpv3e86is0","pricing_plan_id":"cebpf4jnsgd1na2vs0mg"},{"bike_id":"31145a03-9ece-4780-b629-8a6b876ec918","system_id":"levelo_inurba_marseille","lat":43.23185,"lon":5.39992,"is_reserved":false,"is_disabled":false,"rental_uris":{"android":"levelo://app?vid=31145a03-9ece-4780-b629-8a6b876ec918","ios":"levelo://app?vid=31145a03-9ece-4780-b629-8a6b876ec918"},"vehicle_type_id":"4","last_reported":1758370716,"current_range_meters":15200,"station_id":"ce4bhn12rcd13ifvqgqg","pricing_plan_id":"cebpf4jnsgd1na2vs0mg"},{"bike_id":"7c0c2828-80bb-4487-a31c-f8cbe6afb77f","system_id":"levelo_inurba_marseille","lat":43.22563,"lon":5.41627,"is_reserved":false,"is_disabled":false,"rental_uris":{"android":"levelo://app?vid=7c0c2828-80bb-4487-a31c-f8cbe6afb77f","ios":"levelo://app?vid=7c0c2828-80bb-4487-a31c-f8cbe6afb77f"},"vehicle_type_id":"4","last_reported":1758370716,"current_range_meters":15200,"station_id":"st_d2o4gvlbi1j2169b742g","pricing_plan_id":"cebpf4jnsgd1na2vs0mg"},{"bike_id":"2e293824-b51e-4d23-8047-40ce2de89912","system_id":"levelo_inurba_marseille","lat":43.32113,"lon":5.36784,"is_reserved":false,"is_disabled":false,"rental_uris":{"android":"levelo://app?vid=2e293824-b51e-4d23-8047-40ce2de89912","ios":"levelo://app?vid=2e293824-b51e-4d23-8047-40ce2de89912"},"vehicle_type_id":"4","last_reported":1758370716,"current_range_meters":15200,"station_id":"ce4bhrh2rcd13ifvqhug","pricing_plan_id":"cebpf4jnsgd1na2vs0mg"},{"bike_id":"f8fe7cb5-f58c-41c0-83e6-248fdfa62242","system_id":"levelo_inurba_marseille","lat":43.21759,"lon":5.34592,"is_reserved":false,"is_disabled":false,"rental_uris":{"android":"levelo://app?vid=f8fe7cb5-f58c-41c0-83e6-248fdfa62242","ios":"levelo://app?vid=f8fe7cb5-f58c-41c0-83e6-248fdfa62242"},"vehicle_type_id":"4","last_reported":1758370716,"current_range_meters":15200,"station_id":"st_cvj6r9ubvosntc0bgbag","pricing_plan_id":"cebpf4jnsgd1na2vs0mg"},{"bike_id":"97893650-9a0c-47e4-baee-ec60bbc1b06d","system_id":"levelo_inurba_marseille","lat":43.25726,"lon":5.41107,"is_reserved":false,"is_disabled":true,"rental_uris":{"android":"levelo://app?vid=97893650-9a0c-47e4-baee-ec60bbc1b06d","ios":"levelo://app?vid=97893650-9a0c-47e4-baee-ec60bbc1b06d"},"vehicle_type_id":"4","last_reported":1758370716,"current_range_meters":16000,"station_id":"ce4bhkp2rcd13ifvqgd0","pricing_plan_id":"cebpf4jnsgd1na2vs0mg"},{"bike_id":"79486728-2110-435e-a70b-317729b04c1a","system_id":"levelo_inurba_marseille","lat":43.23155,"lon":5.43717,"is_reserved":false,"is_disabled":false,"rental_uris":{"android":"levelo://app?vid=79486728-2110-435e-a70b-317729b04c1a","ios":"levelo://app?vid=79486728-2110-435e-a70b-317729b04c1a"},"vehicle_type_id":"4","last_reported":1758370716,"current_range_meters":15200,"station_id":"ce4bhmp2rcd13ifvqgog","pricing_plan_id":"cebpf4jnsgd1na2vs0mg"},{"bike_id":"d0665e4f-00da-46e5-b2cc-396a4c65bcca","system_id":"levelo_inurba_marseille","lat":43.231941,"lon":5.355502,"is_reserved":false,"is_disabled":false,"rental_uris":{"android":"levelo://app?vid=d0665e4f-00da-46e5-b2cc-396a4c65bcca","ios":"levelo://app?vid=d0665e4f-00da-46e5-b2cc-396a4c65bcca"},"vehicle_type_id":"4","last_reported":1758370716,"current_range_meters":15200,"station_id":"ce4bhu92rcd13ifvqi70","pricing_plan_id":"cebpf4jnsgd1na2vs0mg"},{"bike_id":"3ddd109f-6940-4f22-9160-786f75d3c0db","system_id":"levelo_inurba_marseille","lat":43.24163,"lon":5.36397,"is_reserved":false,"is_disabled":false,"rental_uris":{"android":"levelo://app?vid=3ddd109f-6940-4f22-9160-786f75d3c0db","ios":"levelo://app?vid=3ddd109f-6940-4f22-9160-786f75d3c0db"},"vehicle_type_id":"4","last_reported":1758370716,"current_range_meters":15200,"station_id":"cpo36qri1sfpv3e86is0","pricing_plan_id":"cebpf4jnsgd1na2vs0mg"},{"bike_id":"2015c1f2-c286-408a-b930-50d865ce0bb9","system_id":"levelo_inurba_marseille","lat":43.21205,"lon":5.35058,"is_reserved":false,"is_disabled":false,"rental_uris":{"android":"levelo://app?vid=2015c1f2-c286-408a-b930-50d865ce0bb9","ios":"levelo://app?vid=2015c1f2-c286-408a-b930-50d865ce0bb9"},"vehicle_type_id":"4","last_reported":1758370716,"current_range_meters":15200,"station_id":"st_cvj6sg6p6f1abm77japg","pricing_plan_id":"cebpf4jnsgd1na2vs0mg"},{"bike_id":"13825361-7d19-49cf-bea3-4b5de67c4f78","system_id":"levelo_inurba_marseille","lat":43.28625,"lon":5.3509,"is_reserved":false,"is_disabled":false,"rental_uris":{"android":"levelo://app?vid=13825361-7d19-49cf-bea3-4b5de67c4f78","ios":"levelo://app?vid=13825361-7d19-49cf-bea3-4b5de67c4f78"},"vehicle_type_id":"4","last_reported":1758370716,"current_range_meters":16000,"station_id":"ce4bhch2rcd13ifvqeug","pricing_plan_id":"cebpf4jnsgd1na2vs0mg"},{"bike_id":"b7a5dfb6-b941-4e44-834d-ca0b65abdbc7","system_id":"levelo_inurba_marseille","lat":43.21196,"lon":5.35068,"is_reserved":false,"is_disabled":false,"rental_uris":{"android":"levelo://app?vid=b7a5dfb6-b941-4e44-834d-ca0b65abdbc7","ios":"levelo://app?vid=b7a5dfb6-b941-4e44-834d-ca0b65abdbc7"},"vehicle_type_id":"4","last_reported":1758370716,"current_range_meters":16000,"station_id":"st_cvj6sg6p6f1abm77japg","pricing_plan_id":"cebpf4jnsgd1na2vs0mg"},{"bike_id":"aa320dfe-41a0-40a2-a52c-9ba1b6dc845f","system_id":"levelo_inurba_marseille","lat":43.23969,"lon":5.36632,"is_reserved":false,"is_disabled":false,"rental_uris":{"android":"levelo://app?vid=aa320dfe-41a0-40a2-a52c-9ba1b6dc845f","ios":"levelo://app?vid=aa320dfe-41a0-40a2-a52c-9ba1b6dc845f"},"vehicle_type_id":"4","last_reported":1758370716,"current_range_meters":16000,"station_id":"ce4bhi12rcd13ifvqfp0","pricing_plan_id":"cebpf4jnsgd1na2vs0mg"},{"bike_id":"557c593f-6b6c-4105-b835-75dc4deb1587","system_id":"levelo_inurba_marseille","lat":43.23194,"lon":5.35556,"is_reserved":false,"is_disabled":false,"rental_uris":{"android":"levelo://app?vid=557c593f-6b6c-4105-b835-75dc4deb1587","ios":"levelo://app?vid=557c593f-6b6c-4105-b835-75dc4deb1587"},"vehicle_type_id":"4","last_reported":1758370716,"current_range_meters":16000,"station_id":"ce4bhu92rcd13ifvqi70","pricing_plan_id":"cebpf4jnsgd1na2vs0mg"},{"bike_id":"68adab37-f5ad-4072-b58a-fe6c68285ca6","system_id":"levelo_inurba_marseille","lat":43.30631,"lon":5.3765,"is_reserved":false,"is_disabled":false,"rental_uris":{"android":"levelo://app?vid=68adab37-f5ad-4072-b58a-fe6c68285ca6","ios":"levelo://app?vid=68adab37-f5ad-4072-b58a-fe6c68285ca6"},"vehicle_type_id":"4","last_reported":1758370716,"current_range_meters":16000,"station_id":"","pricing_plan_id":"cebpf4jnsgd1na2vs0mg"},{"bike_id":"8f90c6e9-c2a0-414b-a280-ed01b517d1e8","system_id":"levelo_inurba_marseille","lat":43.21195,"lon":5.35064,"is_reserved":false,"is_disabled":false,"rental_uris":{"android":"levelo://app?vid=8f90c6e9-c2a0-414b-a280-ed01b517d1e8","ios":"levelo://app?vid=8f90c6e9-c2a0-414b-a280-ed01b517d1e8"},"vehicle_type_id":"4","last_reported":1758370716,"current_range_meters":16000,"station_id":"st_cvj6sg6p6f1abm77japg","pricing_plan_id":"cebpf4jnsgd1na2vs0mg"},{"bike_id":"c23faf31-98e0-4aed-a49b-79b265a93287","system_id":"levelo_inurba_marseille","lat":43.32056,"lon":5.41527,"is_reserved":false,"is_disabled":false,"rental_uris":{"android":"levelo://app?vid=c23faf31-98e0-4aed-a49b-79b265a93287","ios":"levelo://app?vid=c23faf31-98e0-4aed-a49b-79b265a93287"},"vehicle_type_id":"4","last_reported":1758370716,"current_range_meters":16000,"station_id":"ce4bhq92rcd13ifvqhkg","pricing_plan_id":"cebpf4jnsgd1na2vs0mg"},{"bike_id":"60a5e849-0cc3-4075-b987-ee2dd7c93ce3","system_id":"levelo_inurba_marseille","lat":43.21197,"lon":5.35064,"is_reserved":false,"is_disabled":false,"rental_uris":{"android":"levelo://app?vid=60a5e849-0cc3-4075-b987-ee2dd7c93ce3","ios":"levelo://app?vid=60a5e849-0cc3-4075-b987-ee2dd7c93ce3"},"vehicle_type_id":"4","last_reported":1758370716,"current_range_meters":16400,"station_id":"st_cvj6sg6p6f1abm77japg","pricing_plan_id":"cebpf4jnsgd1na2vs0mg"},{"bike_id":"fdb058a0-7a28-4807-9a0c-700235eae10d","system_id":"levelo_inurba_marseille","lat":43.231339,"lon":5.437172,"is_reserved":false,"is_disabled":false,"rental_uris":{"android":"levelo://app?vid=fdb058a0-7a28-4807-9a0c-700235eae10d","ios":"levelo://app?vid=fdb058a0-7a28-4807-9a0c-700235eae10d"},"vehicle_type_id":"4","last_reported":1758370716,"current_range_meters":16400,"station_id":"ce4bhmp2rcd13ifvqgog","pricing_plan_id":"cebpf4jnsgd1na2vs0mg"},{"bike_id":"32b9e56e-8a59-4bea-89b5-1a85a2262e6d","system_id":"levelo_inurba_marseille","lat":43.28279,"lon":5.35064,"is_reserved":false,"is_disabled":false,"rental_uris":{"android":"levelo://app?vid=32b9e56e-8a59-4bea-89b5-1a85a2262e6d","ios":"levelo://app?vid=32b9e56e-8a59-4bea-89b5-1a85a2262e6d"},"vehicle_type_id":"4","last_reported":1758370716,"current_range_meters":16400,"station_id":"ce4bhbp2rcd13ifvqerg","pricing_plan_id":"cebpf4jnsgd1na2vs0mg"},{"bike_id":"ee6d0940-1dc3-470c-8280-f336617079e2","system_id":"levelo_inurba_marseille","lat":43.23063,"lon":5.35486,"is_reserved":false,"is_disabled":false,"rental_uris":{"android":"levelo://app?vid=ee6d0940-1dc3-470c-8280-f336617079e2","ios":"levelo://app?vid=ee6d0940-1dc3-470c-8280-f336617079e2"},"vehicle_type_id":"4","last_reported":1758370716,"current_range_meters":16400,"station_id":"cpo3342slgdg3j2ifvpg","pricing_plan_id":"cebpf4jnsgd1na2vs0mg"},{"bike_id":"97514a44-1f4d-4ae1-a270-04ca7b75c621","system_id":"levelo_inurba_marseille","lat":43.28864,"lon":5.42522,"is_reserved":false,"is_disabled":false,"rental_uris":{"android":"levelo://app?vid=97514a44-1f4d-4ae1-a270-04ca7b75c621","ios":"levelo://app?vid=97514a44-1f4d-4ae1-a270-04ca7b75c621"},"vehicle_type_id":"4","last_reported":1758370716,"current_range_meters":16400,"station_id":"","pricing_plan_id":"cebpf4jnsgd1na2vs0mg"},{"bike_id":"5319fae8-be79-4d87-b5d0-b333eba32d6a","system_id":"levelo_inurba_marseille","lat":43.21196,"lon":5.35067,"is_reserved":false,"is_disabled":false,"rental_uris":{"android":"levelo://app?vid=5319fae8-be79-4d87-b5d0-b333eba32d6a","ios":"levelo://app?vid=5319fae8-be79-4d87-b5d0-b333eba32d6a"},"vehicle_type_id":"4","last_reported":1758370716,"current_range_meters":16400,"station_id":"st_cvj6sg6p6f1abm77japg","pricing_plan_id":"cebpf4jnsgd1na2vs0mg"},{"bike_id":"a6905ac0-57b1-4988-9d8d-dda03cb6cf78","system_id":"levelo_inurba_marseille","lat":43.26554,"lon":5.37284,"is_reserved":false,"is_disabled":false,"rental_uris":{"android":"levelo://app?vid=a6905ac0-57b1-4988-9d8d-dda03cb6cf78","ios":"levelo://app?vid=a6905ac0-57b1-4988-9d8d-dda03cb6cf78"},"vehicle_type_id":"4","last_reported":1758370716,"current_range_meters":16400,"station_id":"ce4bhg12rcd13ifvqf70","pricing_plan_id":"cebpf4jnsgd1na2vs0mg"},{"bike_id":"3dd4d095-f5c2-4157-97fb-ba29b64c8c9d","system_id":"levelo_inurba_marseille","lat":43.27375,"lon":5.36255,"is_reserved":false,"is_disabled":false,"rental_uris":{"android":"levelo://app?vid=3dd4d095-f5c2-4157-97fb-ba29b64c8c9d","ios":"levelo://app?vid=3dd4d095-f5c2-4157-97fb-ba29b64c8c9d"},"vehicle_type_id":"4","last_reported":1758370716,"current_range_meters":16400,"station_id":"ce4bhbh2rcd13ifvqeo0","pricing_plan_id":"cebpf4jnsgd1na2vs0mg"},{"bike_id":"43d57fd4-047e-4ac8-97e5-ec9b96239472","system_id":"levelo_inurba_marseille","lat":43.32615,"lon":5.38905,"is_reserved":false,"is_disabled":false,"rental_uris":{"android":"levelo://app?vid=43d57fd4-047e-4ac8-97e5-ec9b96239472","ios":"levelo://app?vid=43d57fd4-047e-4ac8-97e5-ec9b96239472"},"vehicle_type_id":"4","last_reported":1758370716,"current_range_meters":16400,"station_id":"","pricing_plan_id":"cebpf4jnsgd1na2vs0mg"},{"bike_id":"534ff5b4-9e83-493b-9063-104ef0af4212","system_id":"levelo_inurba_marseille","lat":43.27996,"lon":5.41658,"is_reserved":false,"is_disabled":true,"rental_uris":{"android":"levelo://app?vid=534ff5b4-9e83-493b-9063-104ef0af4212","ios":"levelo://app?vid=534ff5b4-9e83-493b-9063-104ef0af4212"},"vehicle_type_id":"4","last_reported":1758370716,"current_range_meters":16400,"station_id":"ce4bho12rcd13ifvqh1g","pricing_plan_id":"cebpf4jnsgd1na2vs0mg"},{"bike_id":"7529c141-e692-4e8e-b63a-1f58c3535e92","system_id":"levelo_inurba_marseille","lat":43.24171,"lon":5.36385,"is_reserved":false,"is_disabled":false,"rental_uris":{"android":"levelo://app?vid=7529c141-e692-4e8e-b63a-1f58c3535e92","ios":"levelo://app?vid=7529c141-e692-4e8e-b63a-1f58c3535e92"},"vehicle_type_id":"4","last_reported":1758370716,"current_range_meters":16400,"station_id":"cpo36qri1sfpv3e86is0","pricing_plan_id":"cebpf4jnsgd1na2vs0mg"},{"bike_id":"c4654016-0a4d-48b4-a60c-5175e41f6824","system_id":"levelo_inurba_marseille","lat":43.29277,"lon":5.36848,"is_reserved":false,"is_disabled":false,"rental_uris":{"android":"levelo://app?vid=c4654016-0a4d-48b4-a60c-5175e41f6824","ios":"levelo://app?vid=c4654016-0a4d-48b4-a60c-5175e41f6824"},"vehicle_type_id":"4","last_reported":1758370716,"current_range_meters":16800,"station_id":"ce4bhbp2rcd13ifvqesg","pricing_plan_id":"cebpf4jnsgd1na2vs0mg"},{"bike_id":"e4f70685-7313-42e0-9872-e63a0eaaa771","system_id":"levelo_inurba_marseille","lat":43.21749,"lon":5.34597,"is_reserved":false,"is_disabled":false,"rental_uris":{"android":"levelo://app?vid=e4f70685-7313-42e0-9872-e63a0eaaa771","ios":"levelo://app?vid=e4f70685-7313-42e0-9872-e63a0eaaa771"},"vehicle_type_id":"4","last_reported":1758370716,"current_range_meters":16800,"station_id":"","pricing_plan_id":"cebpf4jnsgd1na2vs0mg"},{"bike_id":"35da6695-3201-4ea6-8792-a27d60e37cb4","system_id":"levelo_inurba_marseille","lat":43.26206,"lon":5.3705,"is_reserved":false,"is_disabled":false,"rental_uris":{"android":"levelo://app?vid=35da6695-3201-4ea6-8792-a27d60e37cb4","ios":"levelo://app?vid=35da6695-3201-4ea6-8792-a27d60e37cb4"},"vehicle_type_id":"4","last_reported":1758370716,"current_range_meters":16800,"station_id":"","pricing_plan_id":"cebpf4jnsgd1na2vs0mg"},{"bike_id":"efc713a1-3d97-4e42-9eb1-d1cc9ae8553f","system_id":"levelo_inurba_marseille","lat":43.28279,"lon":5.35071,"is_reserved":false,"is_disabled":false,"rental_uris":{"android":"levelo://app?vid=efc713a1-3d97-4e42-9eb1-d1cc9ae8553f","ios":"levelo://app?vid=efc713a1-3d97-4e42-9eb1-d1cc9ae8553f"},"vehicle_type_id":"4","last_reported":1758370716,"current_range_meters":17200,"station_id":"ce4bhbp2rcd13ifvqerg","pricing_plan_id":"cebpf4jnsgd1na2vs0mg"},{"bike_id":"73f29d37-9d61-447a-99e1-0bf71f91fed0","system_id":"levelo_inurba_marseille","lat":43.28425,"lon":5.34975,"is_reserved":false,"is_disabled":false,"rental_uris":{"android":"levelo://app?vid=73f29d37-9d61-447a-99e1-0bf71f91fed0","ios":"levelo://app?vid=73f29d37-9d61-447a-99e1-0bf71f91fed0"},"vehicle_type_id":"4","last_reported":1758370716,"current_range_meters":17200,"station_id":"ce4bhbh2rcd13ifvqepg","pricing_plan_id":"cebpf4jnsgd1na2vs0mg"},{"bike_id":"02f8ec7a-3306-4f08-b4a9-ee11568ed36b","system_id":"levelo_inurba_marseille","lat":43.23977,"lon":5.36623,"is_reserved":false,"is_disabled":false,"rental_uris":{"android":"levelo://app?vid=02f8ec7a-3306-4f08-b4a9-ee11568ed36b","ios":"levelo://app?vid=02f8ec7a-3306-4f08-b4a9-ee11568ed36b"},"vehicle_type_id":"4","last_reported":1758370716,"current_range_meters":17200,"station_id":"ce4bhi12rcd13ifvqfp0","pricing_plan_id":"cebpf4jnsgd1na2vs0mg"},{"bike_id":"9637c146-59d7-436a-a4f3-e8022fe36949","system_id":"levelo_inurba_marseille","lat":43.21199,"lon":5.35054,"is_reserved":false,"is_disabled":false,"rental_uris":{"android":"levelo://app?vid=9637c146-59d7-436a-a4f3-e8022fe36949","ios":"levelo://app?vid=9637c146-59d7-436a-a4f3-e8022fe36949"},"vehicle_type_id":"4","last_reported":1758370716,"current_range_meters":17200,"station_id":"st_cvj6sg6p6f1abm77japg","pricing_plan_id":"cebpf4jnsgd1na2vs0mg"},{"bike_id":"71d75c3c-a21c-4360-9a57-702344157240","system_id":"levelo_inurba_marseille","lat":43.24395,"lon":5.37067,"is_reserved":false,"is_disabled":false,"rental_uris":{"android":"levelo://app?vid=71d75c3c-a21c-4360-9a57-702344157240","ios":"levelo://app?vid=71d75c3c-a21c-4360-9a57-702344157240"},"vehicle_type_id":"4","last_reported":1758370716,"current_range_meters":17200,"station_id":"ce4bhhh2rcd13ifvqfk0","pricing_plan_id":"cebpf4jnsgd1na2vs0mg"},{"bike_id":"61183c5b-24a7-40b0-a073-cfa757e6c464","system_id":"levelo_inurba_marseille","lat":43.23965,"lon":5.36636,"is_reserved":false,"is_disabled":false,"rental_uris":{"android":"levelo://app?vid=61183c5b-24a7-40b0-a073-cfa757e6c464","ios":"levelo://app?vid=61183c5b-24a7-40b0-a073-cfa757e6c464"},"vehicle_type_id":"4","last_reported":1758370716,"current_range_meters":17200,"station_id":"ce4bhi12rcd13ifvqfp0","pricing_plan_id":"cebpf4jnsgd1na2vs0mg"},{"bike_id":"6f00a981-ea1c-4e5d-813b-84daaa170976","system_id":"levelo_inurba_marseille","lat":43.28611,"lon":5.35104,"is_reserved":false,"is_disabled":false,"rental_uris":{"android":"levelo://app?vid=6f00a981-ea1c-4e5d-813b-84daaa170976","ios":"levelo://app?vid=6f00a981-ea1c-4e5d-813b-84daaa170976"},"vehicle_type_id":"4","last_reported":1758370716,"current_range_meters":17200,"station_id":"ce4bhch2rcd13ifvqeug","pricing_plan_id":"cebpf4jnsgd1na2vs0mg"},{"bike_id":"c6988026-9701-4b3e-9b0d-a4c7b2a5772c","system_id":"levelo_inurba_marseille","lat":43.23151,"lon":5.43708,"is_reserved":false,"is_disabled":false,"rental_uris":{"android":"levelo://app?vid=c6988026-9701-4b3e-9b0d-a4c7b2a5772c","ios":"levelo://app?vid=c6988026-9701-4b3e-9b0d-a4c7b2a5772c"},"vehicle_type_id":"4","last_reported":1758370716,"current_range_meters":17600,"station_id":"ce4bhmp2rcd13ifvqgog","pricing_plan_id":"cebpf4jnsgd1na2vs0mg"},{"bike_id":"e86857f8-f405-4657-b145-ec58ed187087","system_id":"levelo_inurba_marseille","lat":43.31484,"lon":5.3881,"is_reserved":false,"is_disabled":false,"rental_uris":{"android":"levelo://app?vid=e86857f8-f405-4657-b145-ec58ed187087","ios":"levelo://app?vid=e86857f8-f405-4657-b145-ec58ed187087"},"vehicle_type_id":"4","last_reported":1758370716,"current_range_meters":17600,"station_id":"ce4bgt92rcd13ifvqcf0","pricing_plan_id":"cebpf4jnsgd1na2vs0mg"},{"bike_id":"5e845cf4-60f1-4566-aad1-cf4d2d13c15d","system_id":"levelo_inurba_marseille","lat":43.217436,"lon":5.346043,"is_reserved":false,"is_disabled":false,"rental_uris":{"android":"levelo://app?vid=5e845cf4-60f1-4566-aad1-cf4d2d13c15d","ios":"levelo://app?vid=5e845cf4-60f1-4566-aad1-cf4d2d13c15d"},"vehicle_type_id":"4","last_reported":1758370716,"current_range_meters":17600,"station_id":"st_cvj6r9ubvosntc0bgbag","pricing_plan_id":"cebpf4jnsgd1na2vs0mg"},{"bike_id":"5cd1e486-7b26-481d-9fa2-9cbdde02ba17","system_id":"levelo_inurba_marseille","lat":43.28421,"lon":5.34986,"is_reserved":false,"is_disabled":false,"rental_uris":{"android":"levelo://app?vid=5cd1e486-7b26-481d-9fa2-9cbdde02ba17","ios":"levelo://app?vid=5cd1e486-7b26-481d-9fa2-9cbdde02ba17"},"vehicle_type_id":"4","last_reported":1758370716,"current_range_meters":17600,"station_id":"ce4bhbh2rcd13ifvqepg","pricing_plan_id":"cebpf4jnsgd1na2vs0mg"},{"bike_id":"d309effb-ef13-4c29-b1b9-d1857e082fac","system_id":"levelo_inurba_marseille","lat":43.23066,"lon":5.35487,"is_reserved":false,"is_disabled":false,"rental_uris":{"android":"levelo://app?vid=d309effb-ef13-4c29-b1b9-d1857e082fac","ios":"levelo://app?vid=d309effb-ef13-4c29-b1b9-d1857e082fac"},"vehicle_type_id":"4","last_reported":1758370716,"current_range_meters":17600,"station_id":"cpo3342slgdg3j2ifvpg","pricing_plan_id":"cebpf4jnsgd1na2vs0mg"},{"bike_id":"363d99e5-837c-43c8-abcc-c80ef2e2786a","system_id":"levelo_inurba_marseille","lat":43.21188,"lon":5.35064,"is_reserved":false,"is_disabled":false,"rental_uris":{"android":"levelo://app?vid=363d99e5-837c-43c8-abcc-c80ef2e2786a","ios":"levelo://app?vid=363d99e5-837c-43c8-abcc-c80ef2e2786a"},"vehicle_type_id":"4","last_reported":1758370716,"current_range_meters":17600,"station_id":"st_cvj6sg6p6f1abm77japg","pricing_plan_id":"cebpf4jnsgd1na2vs0mg"},{"bike_id":"61daeb0e-4a1a-4418-9335-20dda0c6dbcf","system_id":"levelo_inurba_marseille","lat":43.288548,"lon":5.393108,"is_reserved":false,"is_disabled":false,"rental_uris":{"android":"levelo://app?vid=61daeb0e-4a1a-4418-9335-20dda0c6dbcf","ios":"levelo://app?vid=61daeb0e-4a1a-4418-9335-20dda0c6dbcf"},"vehicle_type_id":"4","last_reported":1758370716,"current_range_meters":17600,"station_id":"ce4bh2p2rcd13ifvqdi0","pricing_plan_id":"cebpf4jnsgd1na2vs0mg"},{"bike_id":"76bbf107-7ec5-4826-b296-ab629ecd14ab","system_id":"levelo_inurba_marseille","lat":43.2985,"lon":5.42028,"is_reserved":false,"is_disabled":false,"rental_uris":{"android":"levelo://app?vid=76bbf107-7ec5-4826-b296-ab629ecd14ab","ios":"levelo://app?vid=76bbf107-7ec5-4826-b296-ab629ecd14ab"},"vehicle_type_id":"4","last_reported":1758370716,"current_range_meters":17600,"station_id":"","pricing_plan_id":"cebpf4jnsgd1na2vs0mg"},{"bike_id":"c583a48c-2975-4add-84c7-5a9df938f44d","system_id":"levelo_inurba_marseille","lat":43.2592,"lon":5.40867,"is_reserved":false,"is_disabled":false,"rental_uris":{"android":"levelo://app?vid=c583a48c-2975-4add-84c7-5a9df938f44d","ios":"levelo://app?vid=c583a48c-2975-4add-84c7-5a9df938f44d"},"vehicle_type_id":"4","last_reported":1758370716,"current_range_meters":18000,"station_id":"ce4bhm92rcd13ifvqglg","pricing_plan_id":"cebpf4jnsgd1na2vs0mg"},{"bike_id":"a3a4206e-9698-40c4-99a7-c2a694b15382","system_id":"levelo_inurba_marseille","lat":43.259258,"lon":5.408858,"is_reserved":false,"is_disabled":false,"rental_uris":{"android":"levelo://app?vid=a3a4206e-9698-40c4-99a7-c2a694b15382","ios":"levelo://app?vid=a3a4206e-9698-40c4-99a7-c2a694b15382"},"vehicle_type_id":"4","last_reported":1758370716,"current_range_meters":18000,"station_id":"ce4bhm92rcd13ifvqglg","pricing_plan_id":"cebpf4jnsgd1na2vs0mg"},{"bike_id":"5f2417e9-a3dc-4b69-8ec7-924619576abb","system_id":"levelo_inurba_marseille","lat":43.29272,"lon":5.36847,"is_reserved":false,"is_disabled":false,"rental_uris":{"android":"levelo://app?vid=5f2417e9-a3dc-4b69-8ec7-924619576abb","ios":"levelo://app?vid=5f2417e9-a3dc-4b69-8ec7-924619576abb"},"vehicle_type_id":"4","last_reported":1758370716,"current_range_meters":18000,"station_id":"ce4bhbp2rcd13ifvqesg","pricing_plan_id":"cebpf4jnsgd1na2vs0mg"},{"bike_id":"234f3b8d-078f-4441-9725-5eae668f1473","system_id":"levelo_inurba_marseille","lat":43.23068,"lon":5.35495,"is_reserved":false,"is_disabled":false,"rental_uris":{"android":"levelo://app?vid=234f3b8d-078f-4441-9725-5eae668f1473","ios":"levelo://app?vid=234f3b8d-078f-4441-9725-5eae668f1473"},"vehicle_type_id":"4","last_reported":1758370716,"current_range_meters":18800,"station_id":"cpo3342slgdg3j2ifvpg","pricing_plan_id":"cebpf4jnsgd1na2vs0mg"},