{"last_updated":1704265621,"ttl":30,"version":"2.2","data":{"bikes":[{"bike_id":"27af156a-f757-451e-a296-6236234e0b6e","system_id":"levelo_inurba_marseille","lat":43.313391,"lon":5.36706,"is_reserved":false,"is_disabled":false,"rental_uris":{"android":"levelo://app?vid=27af156a-f757-451e-a296-6236234e0b6e","ios":"levelo://app?vid=27af156a-f757-451e-a296-6236234e0b6e"},"vehicle_type_id":"4","last_reported":1704265622,"current_range_meters":21200,"station_id":"ce4bgr92rcd13ifvqc6g","pricing_plan_id":"free"},{"bike_id":"86f98240-67de-444a-af38-b1a40edfc803","system_id":"levelo_inurba_marseille","lat":43.313391,"lon":5.36706,"is_reserved":false,"is_disabled":false,"rental_uris":{"android":"levelo://app?vid=86f98240-67de-444a-af38-b1a40edfc803","ios":"levelo://app?vid=86f98240-67de-444a-af38-b1a40edfc803"},"vehicle_type_id":"4","last_reported":1704265622,"current_range_meters":28400,"station_id":"ce4bgr92rcd13ifvqc6g","pricing_plan_id":"free"},{"bike_id":"a8e02652-8f7c-4541-b8a6-60c6ae07ab0e","system_id":"levelo_inurba_marseille","lat":43.31341,"lon":5.367098,"is_reserved":false,"is_disabled":false,"rental_uris":{"android":"levelo://app?vid=a8e02652-8f7c-4541-b8a6-60c6ae07ab0e","ios":"levelo://app?vid=a8e02652-8f7c-4541-b8a6-60c6ae07ab0e"},"vehicle_type_id":"4","last_reported":1704265622,"current_range_meters":22400,"station_id":"ce4bgr92rcd13ifvqc6g","pricing_plan_id":"free"},{"bike_id":"3a5a8258-3bb9-47e5-9a89-458e232ebb9d","system_id":"levelo_inurba_marseille","lat":43.31341,"lon":5.367098,"is_reserved":false,"is_disabled":false,"rental_uris":{"android":"levelo://app?vid=3a5a8258-3bb9-47e5-9a89-458e232ebb9d","ios":"levelo://app?vid=3a5a8258-3bb9-47e5-9a89-458e232ebb9d"},"vehicle_type_id":"4","last_reported":1704265622,"current_range_meters":29600,"station_id":"ce4bgr92rcd13ifvqc6g","pricing_plan_id":"free"},{"bike_id":"8337351c-d687-461c-9249-f0b210ad98b7","system_id":"levelo_inurba_marseille","lat":43.31341,"lon":5.367098,"is_reserved":false,"is_disabled":false,"rental_uris":{"android":"levelo://app?vid=8337351c-d687-461c-9249-f0b210ad98b7","ios":"levelo://app?vid=8337351c-d687-461c-9249-f0b210ad98b7"},"vehicle_type_id":"4","last_reported":1704265622,"current_range_meters":14800,"station_id":"ce4bgr92rcd13ifvqc6g","pricing_plan_id":"free"},{"bike_id":"cf933c82-c75f-4e79-81d0-dad897cdbfff","system_id":"levelo_inurba_marseille","lat":43.31341,"lon":5.367098,"is_reserved":false,"is_disabled":false,"rental_uris":{"android":"levelo://app?vid=cf933c82-c75f-4e79-81d0-dad897cdbfff","ios":"levelo://app?vid=cf933c82-c75f-4e79-81d0-dad897cdbfff"},"vehicle_type_id":"4","last_reported":1704265622,"current_range_meters":11200,"station_id":"ce4bgr92rcd13ifvqc6g","pricing_plan_id":"free"},{"bike_id":"09327900-1e2d-460a-99ef-5aaf4d320414","system_id":"levelo_inurba_marseille","lat":43.312239,"lon":5.368562,"is_reserved":false,"is_disabled":false,"rental_uris":{"android":"levelo://app?vid=09327900-1e2d-460a-99ef-5aaf4d320414","ios":"levelo://app?vid=09327900-1e2d-460a-99ef-5aaf4d320414"},"vehicle_type_id":"4","last_reported":1704265622,"current_range_meters":15600,"station_id":"ce4bgl92rcd13ifvqbq0","pricing_plan_id":"free"},{"bike_id":"cea81269-7f63-4da2-be1b-9e1bc69eb960","system_id":"levelo_inurba_marseille","lat":43.309076,"lon":5.368465,"is_reserved":false,"is_disabled":false,"rental_uris":{"android":"levelo://app?vid=cea81269-7f63-4da2-be1b-9e1bc69eb960","ios":"levelo://app?vid=cea81269-7f63-4da2-be1b-9e1bc69eb960"},"vehicle_type_id":"4","last_reported":1704265622,"current_range_meters":13600,"station_id":"ce4bgn92rcd13ifvqbvg","pricing_plan_id":"free"},{"bike_id":"162539d5-37a2-4818-9763-a4eeadf7fb5c","system_id":"levelo_inurba_marseille","lat":43.314811,"lon":5.373103,"is_reserved":false,"is_disabled":false,"rental_uris":{"android":"levelo://app?vid=162539d5-37a2-4818-9763-a4eeadf7fb5c","ios":"levelo://app?vid=162539d5-37a2-4818-9763-a4eeadf7fb5c"},"vehicle_type_id":"4","last_reported":1704265622,"current_range_meters":27600,"station_id":"ce4bgt12rcd13ifvqcd0","pricing_plan_id":"free"},{"bike_id":"f85b1b3d-bb37-4c7b-871f-9bad2f3c9893","system_id":"levelo_inurba_marseille","lat":43.314811,"lon":5.373103,"is_reserved":false,"is_disabled":false,"rental_uris":{"android":"levelo://app?vid=f85b1b3d-bb37-4c7b-871f-9bad2f3c9893","ios":"levelo://app?vid=f85b1b3d-bb37-4c7b-871f-9bad2f3c9893"},"vehicle_type_id":"4","last_reported":1704265622,"current_range_meters":31200,"station_id":"ce4bgt12rcd13ifvqcd0","pricing_plan_id":"free"},{"bike_id":"f1e56939-7977-45fd-8505-00fc7852092d","system_id":"levelo_inurba_marseille","lat":43.314811,"lon":5.373103,"is_reserved":false,"is_disabled":false,"rental_uris":{"android":"levelo://app?vid=f1e56939-7977-45fd-8505-00fc7852092d","ios":"levelo://app?vid=f1e56939-7977-45fd-8505-00fc7852092d"},"vehicle_type_id":"4","last_reported":1704265622,"current_range_meters":26000,"station_id":"ce4bgt12rcd13ifvqcd0","pricing_plan_id":"free"},{"bike_id":"20de4893-b994-4aff-8709-dd4becbad9ba","system_id":"levelo_inurba_marseille","lat":43.3149,"lon":5.37308,"is_reserved":false,"is_disabled":false,"rental_uris":{"android":"levelo://app?vid=20de4893-b994-4aff-8709-dd4becbad9ba","ios":"levelo://app?vid=20de4893-b994-4aff-8709-dd4becbad9ba"},"vehicle_type_id":"4","last_reported":1704265622,"current_range_meters":31200,"station_id":"ce4bgt12rcd13ifvqcd0","pricing_plan_id":"free"},{"bike_id":"09ca4c1b-df29-491e-826b-e00da85c6578","system_id":"levelo_inurba_marseille","lat":43.309039,"lon":5.371797,"is_reserved":false,"is_disabled":false,"rental_uris":{"android":"levelo://app?vid=09ca4c1b-df29-491e-826b-e00da85c6578","ios":"levelo://app?vid=09ca4c1b-df29-491e-826b-e00da85c6578"},"vehicle_type_id":"4","last_reported":1704265622,"current_range_meters":31600,"station_id":"ce4bguh2rcd13ifvqckg","pricing_plan_id":"free"},{"bike_id":"1f3e5c5e-7cd1-457d-8cc4-26c5c754281b","system_id":"levelo_inurba_marseille","lat":43.305368,"lon":5.367343,"is_reserved":false,"is_disabled":false,"rental_uris":{"android":"levelo://app?vid=1f3e5c5e-7cd1-457d-8cc4-26c5c754281b","ios":"levelo://app?vid=1f3e5c5e-7cd1-457d-8cc4-26c5c754281b"},"vehicle_type_id":"4","last_reported":1704265622,"current_range_meters":19200,"station_id":"ce4bgrp2rcd13ifvqc9g","pricing_plan_id":"free"},{"bike_id":"c67ccd48-d874-4ef5-b97a-5f5d1a54778f","system_id":"levelo_inurba_marseille","lat":43.305368,"lon":5.367343,"is_reserved":false,"is_disabled":false,"rental_uris":{"android":"levelo://app?vid=c67ccd48-d874-4ef5-b97a-5f5d1a54778f","ios":"levelo://app?vid=c67ccd48-d874-4ef5-b97a-5f5d1a54778f"},"vehicle_type_id":"4","last_reported":1704265622,"current_range_meters":29600,"station_id":"ce4bgrp2rcd13ifvqc9g","pricing_plan_id":"free"},{"bike_id":"646d0ad0-cc28-4615-9c21-8757e7eb2707","system_id":"levelo_inurba_marseille","lat":43.305368,"lon":5.367343,"is_reserved":false,"is_disabled":false,"rental_uris":{"android":"levelo://app?vid=646d0ad0-cc28-4615-9c21-8757e7eb2707","ios":"levelo://app?vid=646d0ad0-cc28-4615-9c21-8757e7eb2707"},"vehicle_type_id":"4","last_reported":1704265622,"current_range_meters":27200,"station_id":"ce4bgrp2rcd13ifvqc9g","pricing_plan_id":"free"},{"bike_id":"4908e8f0-02ec-499e-8340-2aae74d3a51d","system_id":"levelo_inurba_marseille","lat":43.305714,"lon":5.365633,"is_reserved":false,"is_disabled":false,"rental_uris":{"android":"levelo://app?vid=4908e8f0-02ec-499e-8340-2aae74d3a51d","ios":"levelo://app?vid=4908e8f0-02ec-499e-8340-2aae74d3a51d"},"vehicle_type_id":"4","last_reported":1704265622,"current_range_meters":30000,"station_id":"ce4bgs12rcd13ifvqcag","pricing_plan_id":"free"},{"bike_id":"a00ec042-8f03-4c82-aa24-c93d82301310","system_id":"levelo_inurba_marseille","lat":43.305706,"lon":5.365654,"is_reserved":false,"is_disabled":false,"rental_uris":{"android":"levelo://app?vid=a00ec042-8f03-4c82-aa24-c93d82301310","ios":"levelo://app?vid=a00ec042-8f03-4c82-aa24-c93d82301310"},"vehicle_type_id":"4","last_reported":1704265622,"current_range_meters":26000,"station_id":"ce4bgs12rcd13ifvqcag","pricing_plan_id":"free"},{"bike_id":"31082213-e340-4bb5-bf0e-8b35e1e5274f","system_id":"levelo_inurba_marseille","lat":43.305706,"lon":5.365654,"is_reserved":false,"is_disabled":false,"rental_uris":{"android":"levelo://app?vid=31082213-e340-4bb5-bf0e-8b35e1e5274f","ios":"levelo://app?vid=31082213-e340-4bb5-bf0e-8b35e1e5274f"},"vehicle_type_id":"4","last_reported":1704265622,"current_range_meters":22000,"station_id":"ce4bgs12rcd13ifvqcag","pricing_plan_id":"free"},{"bike_id":"c5d749f2-65b3-40e9-b344-f7f61c51d28c","system_id":"levelo_inurba_marseille","lat":43.305989,"lon":5.37225,"is_reserved":false,"is_disabled":false,"rental_uris":{"android":"levelo://app?vid=c5d749f2-65b3-40e9-b344-f7f61c51d28c","ios":"levelo://app?vid=c5d749f2-65b3-40e9-b344-f7f61c51d28c"},"vehicle_type_id":"4","last_reported":1704265622,"current_range_meters":30000,"station_id":"ce4bgqh2rcd13ifvqc4g","pricing_plan_id":"free"},{"bike_id":"3eba7ecc-f935-4c5b-b118-f1cbfb940304","system_id":"levelo_inurba_marseille","lat":43.311131,"lon":5.377651,"is_reserved":false,"is_disabled":false,"rental_uris":{"android":"levelo://app?vid=3eba7ecc-f935-4c5b-b118-f1cbfb940304","ios":"levelo://app?vid=3eba7ecc-f935-4c5b-b118-f1cbfb940304"},"vehicle_type_id":"4","last_reported":1704265622,"current_range_meters":20800,"station_id":"ce4bgt92rcd13ifvqcg0","pricing_plan_id":"free"},{"bike_id":"ae2b5f6d-2418-44f2-a47c-6c30176e6865","system_id":"levelo_inurba_marseille","lat":43.311125,"lon":5.377624,"is_reserved":false,"is_disabled":false,"rental_uris":{"android":"levelo://app?vid=ae2b5f6d-2418-44f2-a47c-6c30176e6865","ios":"levelo://app?vid=ae2b5f6d-2418-44f2-a47c-6c30176e6865"},"vehicle_type_id":"4","last_reported":1704265622,"current_range_meters":32000,"station_id":"ce4bgt92rcd13ifvqcg0","pricing_plan_id":"free"},{"bike_id":"105fa009-c379-45ab-88e2-4fcd837cb773","system_id":"levelo_inurba_marseille","lat":43.311117,"lon":5.377657,"is_reserved":false,"is_disabled":false,"rental_uris":{"android":"levelo://app?vid=105fa009-c379-45ab-88e2-4fcd837cb773","ios":"levelo://app?vid=105fa009-c379-45ab-88e2-4fcd837cb773"},"vehicle_type_id":"4","last_reported":1704265622,"current_range_meters":21600,"station_id":"ce4bgt92rcd13ifvqcg0","pricing_plan_id":"free"},{"bike_id":"4ab851c2-3ce3-45dd-a5f2-1f03588f3757","system_id":"levelo_inurba_marseille","lat":43.311125,"lon":5.377624,"is_reserved":false,"is_disabled":false,"rental_uris":{"android":"levelo://app?vid=4ab851c2-3ce3-45dd-a5f2-1f03588f3757","ios":"levelo://app?vid=4ab851c2-3ce3-45dd-a5f2-1f03588f3757"},"vehicle_type_id":"4","last_reported":1704265622,"current_range_meters":8000,"station_id":"ce4bgt92rcd13ifvqcg0","pricing_plan_id":"free"},{"bike_id":"36588b21-dbfd-456e-9949-8fd9c52d29b5","system_id":"levelo_inurba_marseille","lat":43.31722,"lon":5.37668,"is_reserved":false,"is_disabled":false,"rental_uris":{"android":"levelo://app?vid=36588b21-dbfd-456e-9949-8fd9c52d29b5","ios":"levelo://app?vid=36588b21-dbfd-456e-9949-8fd9c52d29b5"},"vehicle_type_id":"4","last_reported":1704265622,"current_range_meters":11600,"station_id":"","pricing_plan_id":"free"},{"bike_id":"f79f74eb-d6d1-44cf-bc5b-4bebecf35b4e","system_id":"levelo_inurba_marseille","lat":43.307945,"lon":5.376487,"is_reserved":false,"is_disabled":false,"rental_uris":{"android":"levelo://app?vid=f79f74eb-d6d1-44cf-bc5b-4bebecf35b4e","ios":"levelo://app?vid=f79f74eb-d6d1-44cf-bc5b-4bebecf35b4e"},"vehicle_type_id":"4","last_reported":1704265622,"current_range_meters":2400,"station_id":"ce4bgv92rcd13ifvqcq0","pricing_plan_id":"free"},{"bike_id":"377c8254-82f4-487c-b5e0-397493086885","system_id":"levelo_inurba_marseille","lat":43.307945,"lon":5.376487,"is_reserved":false,"is_disabled":false,"rental_uris":{"android":"levelo://app?vid=377c8254-82f4-487c-b5e0-397493086885","ios":"levelo://app?vid=377c8254-82f4-487c-b5e0-397493086885"},"vehicle_type_id":"4","last_reported":1704265622,"current_range_meters":31600,"station_id":"ce4bgv92rcd13ifvqcq0","pricing_plan_id":"free"},{"bike_id":"494cf91d-85f5-4037-b8c1-acbb6290c452","system_id":"levelo_inurba_marseille","lat":43.307945,"lon":5.376487,"is_reserved":false,"is_disabled":false,"rental_uris":{"android":"levelo://app?vid=494cf91d-85f5-4037-b8c1-acbb6290c452","ios":"levelo://app?vid=494cf91d-85f5-4037-b8c1-acbb6290c452"},"vehicle_type_id":"4","last_reported":1704265622,"current_range_meters":19600,"station_id":"ce4bgv92rcd13ifvqcq0","pricing_plan_id":"free"},{"bike_id":"0405e0c0-a05c-4da8-8995-ae6b7818090b","system_id":"levelo_inurba_marseille","lat":43.307945,"lon":5.376487,"is_reserved":false,"is_disabled":false,"rental_uris":{"android":"levelo://app?vid=0405e0c0-a05c-4da8-8995-ae6b7818090b","ios":"levelo://app?vid=0405e0c0-a05c-4da8-8995-ae6b7818090b"},"vehicle_type_id":"4","last_reported":1704265622,"current_range_meters":18800,"station_id":"ce4bgv92rcd13ifvqcq0","pricing_plan_id":"free"},{"bike_id":"c4e90871-bb94-4085-82dc-ccbd997a22ca","system_id":"levelo_inurba_marseille","lat":43.31527,"lon":5.37901,"is_reserved":false,"is_disabled":false,"rental_uris":{"android":"levelo://app?vid=c4e90871-bb94-4085-82dc-ccbd997a22ca","ios":"levelo://app?vid=c4e90871-bb94-4085-82dc-ccbd997a22ca"},"vehicle_type_id":"4","last_reported":1704265622,"current_range_meters":24400,"station_id":"","pricing_plan_id":"free"},{"bike_id":"1ddd25bc-f049-47d9-97a9-c2423de75239","system_id":"levelo_inurba_marseille","lat":43.303046,"lon":5.368981,"is_reserved":false,"is_disabled":false,"rental_uris":{"android":"levelo://app?vid=1ddd25bc-f049-47d9-97a9-c2423de75239","ios":"levelo://app?vid=1ddd25bc-f049-47d9-97a9-c2423de75239"},"vehicle_type_id":"4","last_reported":1704265622,"current_range_meters":31200,"station_id":"ce4bgqh2rcd13ifvqc5g","pricing_plan_id":"free"},{"bike_id":"d88e545e-7a27-40b3-8043-bab7375293b9","system_id":"levelo_inurba_marseille","lat":43.303046,"lon":5.368981,"is_reserved":false,"is_disabled":false,"rental_uris":{"android":"levelo://app?vid=d88e545e-7a27-40b3-8043-bab7375293b9","ios":"levelo://app?vid=d88e545e-7a27-40b3-8043-bab7375293b9"},"vehicle_type_id":"4","last_reported":1704265622,"current_range_meters":28800,"station_id":"ce4bgqh2rcd13ifvqc5g","pricing_plan_id":"free"},{"bike_id":"c19088d4-9ad9-43f4-8e14-e3da2b421d8e","system_id":"levelo_inurba_marseille","lat":43.30304,"lon":5.368987,"is_reserved":false,"is_disabled":false,"rental_uris":{"android":"levelo://app?vid=c19088d4-9ad9-43f4-8e14-e3da2b421d8e","ios":"levelo://app?vid=c19088d4-9ad9-43f4-8e14-e3da2b421d8e"},"vehicle_type_id":"4","last_reported":1704265622,"current_range_meters":30000,"station_id":"ce4bgqh2rcd13ifvqc5g","pricing_plan_id":"free"},{"bike_id":"db40e2cb-d0e6-4d60-b096-fbdf3c39fdc2","system_id":"levelo_inurba_marseille","lat":43.308012,"lon":5.381511,"is_reserved":false,"is_disabled":false,"rental_uris":{"android":"levelo://app?vid=db40e2cb-d0e6-4d60-b096-fbdf3c39fdc2","ios":"levelo://app?vid=db40e2cb-d0e6-4d60-b096-fbdf3c39fdc2"},"vehicle_type_id":"4","last_reported":1704265622,"current_range_meters":30400,"station_id":"ce4bgt12rcd13ifvqce0","pricing_plan_id":"free"},{"bike_id":"1ea4e237-7cde-4bf8-9f74-fecf912886a4","system_id":"levelo_inurba_marseille","lat":43.308012,"lon":5.381511,"is_reserved":false,"is_disabled":false,"rental_uris":{"android":"levelo://app?vid=1ea4e237-7cde-4bf8-9f74-fecf912886a4","ios":"levelo://app?vid=1ea4e237-7cde-4bf8-9f74-fecf912886a4"},"vehicle_type_id":"4","last_reported":1704265622,"current_range_meters":18000,"station_id":"ce4bgt12rcd13ifvqce0","pricing_plan_id":"free"},{"bike_id":"5377074b-30e2-4d67-825b-9deb3b1dbed3","system_id":"levelo_inurba_marseille","lat":43.304708,"lon":5.379039,"is_reserved":false,"is_disabled":false,"rental_uris":{"android":"levelo://app?vid=5377074b-30e2-4d67-825b-9deb3b1dbed3","ios":"levelo://app?vid=5377074b-30e2-4d67-825b-9deb3b1dbed3"},"vehicle_type_id":"4","last_reported":1704265622,"current_range_meters":8000,"station_id":"","pricing_plan_id":"free"},{"bike_id":"d43a228d-acb7-4de7-bc48-25de1a1cb505","system_id":"levelo_inurba_marseille","lat":43.304606,"lon":5.379026,"is_reserved":false,"is_disabled":false,"rental_uris":{"android":"levelo://app?vid=d43a228d-acb7-4de7-bc48-25de1a1cb505","ios":"levelo://app?vid=d43a228d-acb7-4de7-bc48-25de1a1cb505"},"vehicle_type_id":"4","last_reported":1704265622,"current_range_meters":20400,"station_id":"ce4bgup2rcd13ifvqcn0","pricing_plan_id":"free"},{"bike_id":"d2ea983b-4ebd-45b7-b38a-fe1a69c2c6b3","system_id":"levelo_inurba_marseille","lat":43.304606,"lon":5.379026,"is_reserved":false,"is_disabled":false,"rental_uris":{"android":"levelo://app?vid=d2ea983b-4ebd-45b7-b38a-fe1a69c2c6b3","ios":"levelo://app?vid=d2ea983b-4ebd-45b7-b38a-fe1a69c2c6b3"},"vehicle_type_id":"4","last_reported":1704265622,"current_range_meters":27600,"station_id":"ce4bgup2rcd13ifvqcn0","pricing_plan_id":"free"},{"bike_id":"9f7aa842-6c78-455a-b306-17da3c8d5457","system_id":"levelo_inurba_marseille","lat":43.304606,"lon":5.379026,"is_reserved":false,"is_disabled":false,"rental_uris":{"android":"levelo://app?vid=9f7aa842-6c78-455a-b306-17da3c8d5457","ios":"levelo://app?vid=9f7aa842-6c78-455a-b306-17da3c8d5457"},"vehicle_type_id":"4","last_reported":1704265622,"current_range_meters":16800,"station_id":"ce4bgup2rcd13ifvqcn0","pricing_plan_id":"free"},{"bike_id":"cbb08a3c-113f-4adc-8ff3-5752bd287500","system_id":"levelo_inurba_marseille","lat":43.304606,"lon":5.379026,"is_reserved":false,"is_disabled":false,"rental_uris":{"android":"levelo://app?vid=cbb08a3c-113f-4adc-8ff3-5752bd287500","ios":"levelo://app?vid=cbb08a3c-113f-4adc-8ff3-5752bd287500"},"vehicle_type_id":"4","last_reported":1704265622,"current_range_meters":22400,"station_id":"ce4bgup2rcd13ifvqcn0","pricing_plan_id":"free"},{"bike_id":"3086f9b0-8bda-4550-aba2-c13c613669b9","system_id":"levelo_inurba_marseille","lat":43.304606,"lon":5.379026,"is_reserved":false,"is_disabled":false,"rental_uris":{"android":"levelo://app?vid=3086f9b0-8bda-4550-aba2-c13c613669b9","ios":"levelo://app?vid=3086f9b0-8bda-4550-aba2-c13c613669b9"},"vehicle_type_id":"4","last_reported":1704265622,"current_range_meters":23200,"station_id":"ce4bgup2rcd13ifvqcn0","pricing_plan_id":"free"},{"bike_id":"918f909f-4aed-4d1e-8e0c-8f4eefdde063","system_id":"levelo_inurba_marseille","lat":43.304606,"lon":5.379026,"is_reserved":false,"is_disabled":false,"rental_uris":{"android":"levelo://app?vid=918f909f-4aed-4d1e-8e0c-8f4eefdde063","ios":"levelo://app?vid=918f909f-4aed-4d1e-8e0c-8f4eefdde063"},"vehicle_type_id":"4","last_reported":1704265622,"current_range_meters":31600,"station_id":"ce4bgup2rcd13ifvqcn0","pricing_plan_id":"free"},{"bike_id":"d8c84cc9-8f83-431a-b8d5-5cb386e435cd","system_id":"levelo_inurba_marseille","lat":43.304606,"lon":5.379026,"is_reserved":false,"is_disabled":false,"rental_uris":{"android":"levelo://app?vid=d8c84cc9-8f83-431a-b8d5-5cb386e435cd","ios":"levelo://app?vid=d8c84cc9-8f83-431a-b8d5-5cb386e435cd"},"vehicle_type_id":"4","last_reported":1704265622,"current_range_meters":8800,"station_id":"ce4bgup2rcd13ifvqcn0","pricing_plan_id":"free"},{"bike_id":"fdaebc15-3d46-4027-95d9-1cf17e1f8e6a","system_id":"levelo_inurba_marseille","lat":43.304606,"lon":5.379026,"is_reserved":false,"is_disabled":false,"rental_uris":{"android":"levelo://app?vid=fdaebc15-3d46-4027-95d9-1cf17e1f8e6a","ios":"levelo://app?vid=fdaebc15-3d46-4027-95d9-1cf17e1f8e6a"},"vehicle_type_id":"4","last_reported":1704265622,"current_range_meters":26000,"station_id":"ce4bgup2rcd13ifvqcn0","pricing_plan_id":"free"},{"bike_id":"bcb85666-6a14-4809-b1de-4a354648283c","system_id":"levelo_inurba_marseille","lat":43.304606,"lon":5.379026,"is_reserved":false,"is_disabled":false,"rental_uris":{"android":"levelo://app?vid=bcb85666-6a14-4809-b1de-4a354648283c","ios":"levelo://app?vid=bcb85666-6a14-4809-b1de-4a354648283c"},"vehicle_type_id":"4","last_reported":1704265622,"current_range_meters":27600,"station_id":"ce4bgup2rcd13ifvqcn0","pricing_plan_id":"free"},{"bike_id":"63cbeba6-6cfe-40ba-8a9c-acc9281d0118","system_id":"levelo_inurba_marseille","lat":43.30311,"lon":5.37697,"is_reserved":false,"is_disabled":false,"rental_uris":{"android":"levelo://app?vid=63cbeba6-6cfe-40ba-8a9c-acc9281d0118","ios":"levelo://app?vid=63cbeba6-6cfe-40ba-8a9c-acc9281d0118"},"vehicle_type_id":"4","last_reported":1704265622,"current_range_meters":16400,"station_id":"","pricing_plan_id":"free"},{"bike_id":"ecd4bf44-ffd4-4cca-a727-ec631529eb49","system_id":"levelo_inurba_marseille","lat":43.304606,"lon":5.379026,"is_reserved":false,"is_disabled":false,"rental_uris":{"android":"levelo://app?vid=ecd4bf44-ffd4-4cca-a727-ec631529eb49","ios":"levelo://app?vid=ecd4bf44-ffd4-4cca-a727-ec631529eb49"},"vehicle_type_id":"4","last_reported":1704265622,"current_range_meters":22000,"station_id":"ce4bgup2rcd13ifvqcn0","pricing_plan_id":"free"},{"bike_id":"d01304be-fa08-4208-a921-ce1ec0a5f2a0","system_id":"levelo_inurba_marseille","lat":43.30143,"lon":5.37413,"is_reserved":false,"is_disabled":false,"rental_uris":{"android":"levelo://app?vid=d01304be-fa08-4208-a921-ce1ec0a5f2a0","ios":"levelo://app?vid=d01304be-fa08-4208-a921-ce1ec0a5f2a0"},"vehicle_type_id":"4","last_reported":1704265622,"current_range_meters":27600,"station_id":"ce4bgs92rcd13ifvqcc0","pricing_plan_id":"free"},{"bike_id":"c15d83a9-d505-4211-8a27-a39cd0f9dbdb","system_id":"levelo_inurba_marseille","lat":43.297794,"lon":5.370888,"is_reserved":false,"is_disabled":false,"rental_uris":{"android":"levelo://app?vid=c15d83a9-d505-4211-8a27-a39cd0f9dbdb","ios":"levelo://app?vid=c15d83a9-d505-4211-8a27-a39cd0f9dbdb"},"vehicle_type_id":"4","last_reported":1704265622,"current_range_meters":11600,"station_id":"ce4bgop2rcd13ifvqc1g","pricing_plan_id":"free"},{"bike_id":"62e01e1e-1e10-40d0-b80f-271e81bf850c","system_id":"levelo_inurba_marseille","lat":43.31361,"lon":5.38499,"is_reserved":false,"is_disabled":false,"rental_uris":{"android":"levelo://app?vid=62e01e1e-1e10-40d0-b80f-271e81bf850c","ios":"levelo://app?vid=62e01e1e-1e10-40d0-b80f-271e81bf850c"},"vehicle_type_id":"4","last_reported":1704265622,"current_range_meters":30000,"station_id":"ce4bhs92rcd13ifvqi0g","pricing_plan_id":"free"},{"bike_id":"17504bde-947a-4cd6-98b3-9a4c66aca99b","system_id":"levelo_inurba_marseille","lat":43.313827,"lon":5.385007,"is_reserved":false,"is_disabled":false,"rental_uris":{"android":"levelo://app?vid=17504bde-947a-4cd6-98b3-9a4c66aca99b","ios":"levelo://app?vid=17504bde-947a-4cd6-98b3-9a4c66aca99b"},"vehicle_type_id":"4","last_reported":1704265622,"current_range_meters":18000,"station_id":"ce4bgt92rcd13ifvqcf0","pricing_plan_id":"free"},{"bike_id":"2db87c88-e576-4960-b756-94fdeffbbfdd","system_id":"levelo_inurba_marseille","lat":43.299222,"lon":5.365554,"is_reserved":false,"is_disabled":false,"rental_uris":{"android":"levelo://app?vid=2db87c88-e576-4960-b756-94fdeffbbfdd","ios":"levelo://app?vid=2db87c88-e576-4960-b756-94fdeffbbfdd"},"vehicle_type_id":"4","last_reported":1704265622,"current_range_meters":7200,"station_id":"ce4bgm92rcd13ifvqbr0","pricing_plan_id":"free"},{"bike_id":"9581834e-b3d6-461a-a43d-abcf254d485f","system_id":"levelo_inurba_marseille","lat":43.299215,"lon":5.365548,"is_reserved":false,"is_disabled":false,"rental_uris":{"android":"levelo://app?vid=9581834e-b3d6-461a-a43d-abcf254d485f","ios":"levelo://app?vid=9581834e-b3d6-461a-a43d-abcf254d485f"},"vehicle_type_id":"4","last_reported":1704265622,"current_range_meters":27200,"station_id":"","pricing_plan_id":"free"},{"bike_id":"3d4e58a3-0e93-490d-a6dc-5f6bfb5cb352","system_id":"levelo_inurba_marseille","lat":43.299243,"lon":5.374807,"is_reserved":false,"is_disabled":false,"rental_uris":{"android":"levelo://app?vid=3d4e58a3-0e93-490d-a6dc-5f6bfb5cb352","ios":"levelo://app?vid=3d4e58a3-0e93-490d-a6dc-5f6bfb5cb352"},"vehicle_type_id":"4","last_reported":1704265622,"current_range_meters":30000,"station_id":"ce4bgjh2rcd13ifvqbg0","pricing_plan_id":"free"},{"bike_id":"7e42aa2c-5b17-4e9e-b16f-6592362f4c60","system_id":"levelo_inurba_marseille","lat":43.305364,"lon":5.384119,"is_reserved":false,"is_disabled":false,"rental_uris":{"android":"levelo://app?vid=7e42aa2c-5b17-4e9e-b16f-6592362f4c60","ios":"levelo://app?vid=7e42aa2c-5b17-4e9e-b16f-6592362f4c60"},"vehicle_type_id":"4","last_reported":1704265622,"current_range_meters":30400,"station_id":"ce4bgg92rcd13ifvqb30","pricing_plan_id":"free"},{"bike_id":"8e24c930-b196-4dbf-91c1-1c14ac7df3dd","system_id":"levelo_inurba_marseille","lat":43.298433,"lon":5.362774,"is_reserved":false,"is_disabled":false,"rental_uris":{"android":"levelo://app?vid=8e24c930-b196-4dbf-91c1-1c14ac7df3dd","ios":"levelo://app?vid=8e24c930-b196-4dbf-91c1-1c14ac7df3dd"},"vehicle_type_id":"4","last_reported":1704265622,"current_range_meters":31200,"station_id":"ce4bgpp2rcd13ifvqc3g","pricing_plan_id":"free"},{"bike_id":"dd59b163-a796-4e9e-8465-67f0aaa133da","system_id":"levelo_inurba_marseille","lat":43.299243,"lon":5.37481,"is_reserved":false,"is_disabled":false,"rental_uris":{"android":"levelo://app?vid=dd59b163-a796-4e9e-8465-67f0aaa133da","ios":"levelo://app?vid=dd59b163-a796-4e9e-8465-67f0aaa133da"},"vehicle_type_id":"4","last_reported":1704265622,"current_range_meters":28800,"station_id":"ce4bgjh2rcd13ifvqbg0","pricing_plan_id":"free"},{"bike_id":"64ed3bf0-b9e8-4d4f-bb28-bbdb6434e61f","system_id":"levelo_inurba_marseille","lat":43.305364,"lon":5.384119,"is_reserved":false,"is_disabled":false,"rental_uris":{"android":"levelo://app?vid=64ed3bf0-b9e8-4d4f-bb28-bbdb6434e61f","ios":"levelo://app?vid=64ed3bf0-b9e8-4d4f-bb28-bbdb6434e61f"},"vehicle_type_id":"4","last_reported":1704265622,"current_range_meters":22000,"station_id":"ce4bgg92rcd13ifvqb30","pricing_plan_id":"free"},{"bike_id":"34100da8-2764-43be-a62a-7148b55be537","system_id":"levelo_inurba_marseille","lat":43.299161,"lon":5.374698,"is_reserved":false,"is_disabled":false,"rental_uris":{"android":"levelo://app?vid=34100da8-2764-43be-a62a-7148b55be537","ios":"levelo://app?vid=34100da8-2764-43be-a62a-7148b55be537"},"vehicle_type_id":"4","last_reported":1704265622,"current_range_meters":20800,"station_id":"ce4bgjh2rcd13ifvqbg0","pricing_plan_id":"free"},{"bike_id":"ebb092b3-e357-4600-a1c8-9bbb5b18daa2","system_id":"levelo_inurba_marseille","lat":43.299243,"lon":5.374807,"is_reserved":false,"is_disabled":false,"rental_uris":{"android":"levelo://app?vid=ebb092b3-e357-4600-a1c8-9bbb5b18daa2","ios":"levelo://app?vid=ebb092b3-e357-4600-a1c8-9bbb5b18daa2"},"vehicle_type_id":"4","last_reported":1704265622,"current_range_meters":32000,"station_id":"ce4bgjh2rcd13ifvqbg0","pricing_plan_id":"free"},{"bike_id":"ba3cb6f6-e871-4cea-aece-7c06dff359de","system_id":"levelo_inurba_marseille","lat":43.311722,"lon":5.387247,"is_reserved":false,"is_disabled":false,"rental_uris":{"android":"levelo://app?vid=ba3cb6f6-e871-4cea-aece-7c06dff359de","ios":"levelo://app?vid=ba3cb6f6-e871-4cea-aece-7c06dff359de"},"vehicle_type_id":"4","last_reported":1704265622,"current_range_meters":31200,"station_id":"ce4bgv12rcd13ifvqcp0","pricing_plan_id":"free"},{"bike_id":"020643d0-293d-4419-a1c7-f59552bc7f02","system_id":"levelo_inurba_marseille","lat":43.299243,"lon":5.374807,"is_reserved":false,"is_disabled":false,"rental_uris":{"android":"levelo://app?vid=020643d0-293d-4419-a1c7-f59552bc7f02","ios":"levelo://app?vid=020643d0-293d-4419-a1c7-f59552bc7f02"},"vehicle_type_id":"4","last_reported":1704265622,"current_range_meters":31600,"station_id":"ce4bgjh2rcd13ifvqbg0","pricing_plan_id":"free"},{"bike_id":"4aef92a6-c2b6-4529-88c1-476f3fa0caa5","system_id":"levelo_inurba_marseille","lat":43.29904,"lon":5.37464,"is_reserved":false,"is_disabled":false,"rental_uris":{"android":"levelo://app?vid=4aef92a6-c2b6-4529-88c1-476f3fa0caa5","ios":"levelo://app?vid=4aef92a6-c2b6-4529-88c1-476f3fa0caa5"},"vehicle_type_id":"4","last_reported":1704265622,"current_range_meters":23200,"station_id":"ce4bgjh2rcd13ifvqbg0","pricing_plan_id":"free"},{"bike_id":"6c544f9a-e119-4692-a6e1-410a4851f3ab","system_id":"levelo_inurba_marseille","lat":43.299243,"lon":5.374807,"is_reserved":false,"is_disabled":false,"rental_uris":{"android":"levelo://app?vid=6c544f9a-e119-4692-a6e1-410a4851f3ab","ios":"levelo://app?vid=6c544f9a-e119-4692-a6e1-410a4851f3ab"},"vehicle_type_id":"4","last_reported":1704265622,"current_range_meters":28000,"station_id":"ce4bgjh2rcd13ifvqbg0","pricing_plan_id":"free"},{"bike_id":"d5b4e57b-682d-4981-b644-a93659f7780a","system_id":"levelo_inurba_marseille","lat":43.299243,"lon":5.374807,"is_reserved":false,"is_disabled":false,"rental_uris":{"android":"levelo://app?vid=d5b4e57b-682d-4981-b644-a93659f7780a","ios":"levelo://app?vid=d5b4e57b-682d-4981-b644-a93659f7780a"},"vehicle_type_id":"4","last_reported":1704265622,"current_range_meters":31600,"station_id":"ce4bgjh2rcd13ifvqbg0","pricing_plan_id":"free"},{"bike_id":"f2182d80-4533-4182-aa58-88eb48093891","system_id":"levelo_inurba_marseille","lat":43.299243,"lon":5.37481,"is_reserved":false,"is_disabled":false,"rental_uris":{"android":"levelo://app?vid=f2182d80-4533-4182-aa58-88eb48093891","ios":"levelo://app?vid=f2182d80-4533-4182-aa58-88eb48093891"},"vehicle_type_id":"4","last_reported":1704265622,"current_range_meters":22800,"station_id":"ce4bgjh2rcd13ifvqbg0","pricing_plan_id":"free"},{"bike_id":"cd405847-2352-4422-a8d9-4652f493b5db","system_id":"levelo_inurba_marseille","lat":43.299243,"lon":5.374807,"is_reserved":false,"is_disabled":false,"rental_uris":{"android":"levelo://app?vid=cd405847-2352-4422-a8d9-4652f493b5db","ios":"levelo://app?vid=cd405847-2352-4422-a8d9-4652f493b5db"},"vehicle_type_id":"4","last_reported":1704265622,"current_range_meters":31600,"station_id":"ce4bgjh2rcd13ifvqbg0","pricing_plan_id":"free"},{"bike_id":"00bda5e2-135d-4cc8-8b28-f8e1382acb83","system_id":"levelo_inurba_marseille","lat":43.311722,"lon":5.387247,"is_reserved":false,"is_disabled":false,"rental_uris":{"android":"levelo://app?vid=00bda5e2-135d-4cc8-8b28-f8e1382acb83","ios":"levelo://app?vid=00bda5e2-135d-4cc8-8b28-f8e1382acb83"},"vehicle_type_id":"4","last_reported":1704265622,"current_range_meters":24400,"station_id":"ce4bgv12rcd13ifvqcp0","pricing_plan_id":"free"},{"bike_id":"5bed71a5-d997-4739-a52d-cbf8e56d9f8a","system_id":"levelo_inurba_marseille","lat":43.299243,"lon":5.374807,"is_reserved":false,"is_disabled":false,"rental_uris":{"android":"levelo://app?vid=5bed71a5-d997-4739-a52d-cbf8e56d9f8a","ios":"levelo://app?vid=5bed71a5-d997-4739-a52d-cbf8e56d9f8a"},"vehicle_type_id":"4","last_reported":1704265622,"current_range_meters":27200,"station_id":"ce4bgjh2rcd13ifvqbg0","pricing_plan_id":"free"},{"bike_id":"72ce748b-864f-48f3-ba89-20830474be10","system_id":"levelo_inurba_marseille","lat":43.29905,"lon":5.37476,"is_reserved":false,"is_disabled":false,"rental_uris":{"android":"levelo://app?vid=72ce748b-864f-48f3-ba89-20830474be10","ios":"levelo://app?vid=72ce748b-864f-48f3-ba89-20830474be10"},"vehicle_type_id":"4","last_reported":1704265622,"current_range_meters":22400,"station_id":"ce4bgjh2rcd13ifvqbg0","pricing_plan_id":"free"},{"bike_id":"396725eb-1d47-4624-88c8-cd6a13e1b9f8","system_id":"levelo_inurba_marseille","lat":43.29905,"lon":5.37482,"is_reserved":false,"is_disabled":false,"rental_uris":{"android":"levelo://app?vid=396725eb-1d47-4624-88c8-cd6a13e1b9f8","ios":"levelo://app?vid=396725eb-1d47-4624-88c8-cd6a13e1b9f8"},"vehicle_type_id":"4","last_reported":1704265622,"current_range_meters":28000,"station_id":"ce4bgjh2rcd13ifvqbg0","pricing_plan_id":"free"},{"bike_id":"c8c22939-dc10-4364-b026-c7387fc3b2fa","system_id":"levelo_inurba_marseille","lat":43.297794,"lon":5.370888,"is_reserved":false,"is_disabled":false,"rental_uris":{"android":"levelo://app?vid=c8c22939-dc10-4364-b026-c7387fc3b2fa","ios":"levelo://app?vid=c8c22939-dc10-4364-b026-c7387fc3b2fa"},"vehicle_type_id":"4","last_reported":1704265622,"current_range_meters":29600,"station_id":"ce4bgop2rcd13ifvqc1g","pricing_plan_id":"free"},{"bike_id":"6a8df504-5c83-4248-a2b6-3cf11c9ad4a1","system_id":"levelo_inurba_marseille","lat":43.297794,"lon":5.370888,"is_reserved":false,"is_disabled":false,"rental_uris":{"android":"levelo://app?vid=6a8df504-5c83-4248-a2b6-3cf11c9ad4a1","ios":"levelo://app?vid=6a8df504-5c83-4248-a2b6-3cf11c9ad4a1"},"vehicle_type_id":"4","last_reported":1704265622,"current_range_meters":29200,"station_id":"ce4bgop2rcd13ifvqc1g","pricing_plan_id":"free"},{"bike_id":"e25879d8-1688-47e8-8a17-f3fd5e5877cc","system_id":"levelo_inurba_marseille","lat":43.328371,"lon":5.366912,"is_reserved":false,"is_disabled":false,"rental_uris":{"android":"levelo://app?vid=e25879d8-1688-47e8-8a17-f3fd5e5877cc","ios":"levelo://app?vid=e25879d8-1688-47e8-8a17-f3fd5e5877cc"},"vehicle_type_id":"4","last_reported":1704265622,"current_range_meters":22400,"station_id":"ce4bhs92rcd13ifvqi0g","pricing_plan_id":"free"},{"bike_id":"2c34cac5-58a3-4ec6-a51a-0e680d5b2c4e","system_id":"levelo_inurba_marseille","lat":43.32829,"lon":5.36672,"is_reserved":false,"is_disabled":false,"rental_uris":{"android":"levelo://app?vid=2c34cac5-58a3-4ec6-a51a-0e680d5b2c4e","ios":"levelo://app?vid=2c34cac5-58a3-4ec6-a51a-0e680d5b2c4e"},"vehicle_type_id":"4","last_reported":1704265622,"current_range_meters":16400,"station_id":"ce4bhs92rcd13ifvqi0g","pricing_plan_id":"free"},{"bike_id":"f206342c-38bc-4948-a4e1-517e8437b144","system_id":"levelo_inurba_marseille","lat":43.328371,"lon":5.366912,"is_reserved":false,"is_disabled":false,"rental_uris":{"android":"levelo://app?vid=f206342c-38bc-4948-a4e1-517e8437b144","ios":"levelo://app?vid=f206342c-38bc-4948-a4e1-517e8437b144"},"vehicle_type_id":"4","last_reported":1704265622,"current_range_meters":8800,"station_id":"ce4bhs92rcd13ifvqi0g","pricing_plan_id":"free"},{"bike_id":"db9a3172-0444-44e1-98b7-ca7a2f84f3e8","system_id":"levelo_inurba_marseille","lat":43.328303,"lon":5.366716,"is_reserved":false,"is_disabled":false,"rental_uris":{"android":"levelo://app?vid=db9a3172-0444-44e1-98b7-ca7a2f84f3e8","ios":"levelo://app?vid=db9a3172-0444-44e1-98b7-ca7a2f84f3e8"},"vehicle_type_id":"4","last_reported":1704265622,"current_range_meters":20400,"station_id":"ce4bhs92rcd13ifvqi0g","pricing_plan_id":"free"},{"bike_id":"2b06df78-a4c1-486a-a736-ddc81ebff8e0","system_id":"levelo_inurba_marseille","lat":43.328307,"lon":5.366696,"is_reserved":false,"is_disabled":false,"rental_uris":{"android":"levelo://app?vid=2b06df78-a4c1-486a-a736-ddc81ebff8e0","ios":"levelo://app?vid=2b06df78-a4c1-486a-a736-ddc81ebff8e0"},"vehicle_type_id":"4","last_reported":1704265622,"current_range_meters":8400,"station_id":"ce4bhs92rcd13ifvqi0g","pricing_plan_id":"free"},{"bike_id":"98fd740c-da1c-45aa-a4bb-91192fa701c6","system_id":"levelo_inurba_marseille","lat":43.328371,"lon":5.366912,"is_reserved":false,"is_disabled":false,"rental_uris":{"android":"levelo://app?vid=98fd740c-da1c-45aa-a4bb-91192fa701c6","ios":"levelo://app?vid=98fd740c-da1c-45aa-a4bb-91192fa701c6"},"vehicle_type_id":"4","last_reported":1704265622,"current_range_meters":8400,"station_id":"ce4bhs92rcd13ifvqi0g","pricing_plan_id":"free"},{"bike_id":"3eb8fa66-bb38-4605-8a64-971f0d205bcc","system_id":"levelo_inurba_marseille","lat":43.32835,"lon":5.3668,"is_reserved":false,"is_disabled":false,"rental_uris":{"android":"levelo://app?vid=3eb8fa66-bb38-4605-8a64-971f0d205bcc","ios":"levelo://app?vid=3eb8fa66-bb38-4605-8a64-971f0d205bcc"},"vehicle_type_id":"4","last_reported":1704265622,"current_range_meters":21600,"station_id":"ce4bhs92rcd13ifvqi0g","pricing_plan_id":"free"},{"bike_id":"370cccf7-c9ba-46c2-819b-c8e8cacc4c21","system_id":"levelo_inurba_marseille","lat":43.3277,"lon":5.37458,"is_reserved":false,"is_disabled":false,"rental_uris":{"android":"levelo://app?vid=370cccf7-c9ba-46c2-819b-c8e8cacc4c21","ios":"levelo://app?vid=370cccf7-c9ba-46c2-819b-c8e8cacc4c21"},"vehicle_type_id":"4","last_reported":1704265622,"current_range_meters":6000,"station_id":"","pricing_plan_id":"free"},{"bike_id":"b828065b-a642-4280-9edb-77a777a66290","system_id":"levelo_inurba_marseille","lat":43.2968,"lon":5.37291,"is_reserved":false,"is_disabled":false,"rental_uris":{"android":"levelo://app?vid=b828065b-a642-4280-9edb-77a777a66290","ios":"levelo://app?vid=b828065b-a642-4280-9edb-77a777a66290"},"vehicle_type_id":"4","last_reported":1704265622,"current_range_meters":20400,"station_id":"ce4bgk12rcd13ifvqbj0","pricing_plan_id":"free"},{"bike_id":"24cca423-c3f5-45c4-b991-679742ad59b9","system_id":"levelo_inurba_marseille","lat":43.296131,"lon":5.370791,"is_reserved":false,"is_disabled":false,"rental_uris":{"android":"levelo://app?vid=24cca423-c3f5-45c4-b991-679742ad59b9","ios":"levelo://app?vid=24cca423-c3f5-45c4-b991-679742ad59b9"},"vehicle_type_id":"4","last_reported":1704265622,"current_range_meters":25600,"station_id":"ce4bgnh2rcd13ifvqc0g","pricing_plan_id":"free"},{"bike_id":"c3e0c275-21dd-42b3-aa86-34693a42e254","system_id":"levelo_inurba_marseille","lat":43.296129,"lon":5.370777,"is_reserved":false,"is_disabled":false,"rental_uris":{"android":"levelo://app?vid=c3e0c275-21dd-42b3-aa86-34693a42e254","ios":"levelo://app?vid=c3e0c275-21dd-42b3-aa86-34693a42e254"},"vehicle_type_id":"4","last_reported":1704265622,"current_range_meters":23600,"station_id":"ce4bgnh2rcd13ifvqc0g","pricing_plan_id":"free"},{"bike_id":"f295d92b-be4e-4578-a46e-5232c2da53f5","system_id":"levelo_inurba_marseille","lat":43.296129,"lon":5.370777,"is_reserved":false,"is_disabled":false,"rental_uris":{"android":"levelo://app?vid=f295d92b-be4e-4578-a46e-5232c2da53f5","ios":"levelo://app?vid=f295d92b-be4e-4578-a46e-5232c2da53f5"},"vehicle_type_id":"4","last_reported":1704265622,"current_range_meters":28400,"station_id":"ce4bgnh2rcd13ifvqc0g","pricing_plan_id":"free"},{"bike_id":"2b72cfcd-d1c4-474d-b4be-1cf9077b0e0f","system_id":"levelo_inurba_marseille","lat":43.296131,"lon":5.370791,"is_reserved":false,"is_disabled":false,"rental_uris":{"android":"levelo://app?vid=2b72cfcd-d1c4-474d-b4be-1cf9077b0e0f","ios":"levelo://app?vid=2b72cfcd-d1c4-474d-b4be-1cf9077b0e0f"},"vehicle_type_id":"4","last_reported":1704265622,"current_range_meters":30400,"station_id":"ce4bgnh2rcd13ifvqc0g","pricing_plan_id":"free"},{"bike_id":"25e6a765-1166-4d6e-b634-fa1654f46031","system_id":"levelo_inurba_marseille","lat":43.29586,"lon":5.36732,"is_reserved":false,"is_disabled":false,"rental_uris":{"android":"levelo://app?vid=25e6a765-1166-4d6e-b634-fa1654f46031","ios":"levelo://app?vid=25e6a765-1166-4d6e-b634-fa1654f46031"},"vehicle_type_id":"4","last_reported":1704265622,"current_range_meters":26000,"station_id":"ce4bgph2rcd13ifvqc2g","pricing_plan_id":"free"},{"bike_id":"1e6c340a-e0bb-437b-bd17-34f8d846eed8","system_id":"levelo_inurba_marseille","lat":43.296131,"lon":5.370773,"is_reserved":false,"is_disabled":false,"rental_uris":{"android":"levelo://app?vid=1e6c340a-e0bb-437b-bd17-34f8d846eed8","ios":"levelo://app?vid=1e6c340a-e0bb-437b-bd17-34f8d846eed8"},"vehicle_type_id":"4","last_reported":1704265622,"current_range_meters":28400,"station_id":"ce4bgnh2rcd13ifvqc0g","pricing_plan_id":"free"},{"bike_id":"4d7884a0-b592-403b-98ec-24e38fdcef3d","system_id":"levelo_inurba_marseille","lat":43.29582,"lon":5.36739,"is_reserved":false,"is_disabled":false,"rental_uris":{"android":"levelo://app?vid=4d7884a0-b592-403b-98ec-24e38fdcef3d","ios":"levelo://app?vid=4d7884a0-b592-403b-98ec-24e38fdcef3d"},"vehicle_type_id":"4","last_reported":1704265622,"current_range_meters":25600,"station_id":"ce4bgph2rcd13ifvqc2g","pricing_plan_id":"free"},{"bike_id":"432b449d-dbf4-480a-a9d5-aac743b004d0","system_id":"levelo_inurba_marseille","lat":43.29573,"lon":5.367355,"is_reserved":false,"is_disabled":false,"rental_uris":{"android":"levelo://app?vid=432b449d-dbf4-480a-a9d5-aac743b004d0","ios":"levelo://app?vid=432b449d-dbf4-480a-a9d5-aac743b004d0"},"vehicle_type_id":"4","last_reported":1704265622,"current_range_meters":30000,"station_id":"ce4bgph2rcd13ifvqc2g","pricing_plan_id":"free"},{"bike_id":"bad509b0-43c1-4c76-82da-ae5f86d386ce","system_id":"levelo_inurba_marseille","lat":43.29573,"lon":5.367355,"is_reserved":false,"is_disabled":false,"rental_uris":{"android":"levelo://app?vid=bad509b0-43c1-4c76-82da-ae5f86d386ce","ios":"levelo://app?vid=bad509b0-43c1-4c76-82da-ae5f86d386ce"},"vehicle_type_id":"4","last_reported":1704265622,"current_range_meters":30000,"station_id":"ce4bgph2rcd13ifvqc2g","pricing_plan_id":"free"},{"bike_id":"cbfdf920-3554-4cb1-b46e-dbb229911663","system_id":"levelo_inurba_marseille","lat":43.29579,"lon":5.36742,"is_reserved":false,"is_disabled":false,"rental_uris":{"android":"levelo://app?vid=cbfdf920-3554-4cb1-b46e-dbb229911663","ios":"levelo://app?vid=cbfdf920-3554-4cb1-b46e-dbb229911663"},"vehicle_type_id":"4","last_reported":1704265622,"current_range_meters":22800,"station_id":"ce4bgph2rcd13ifvqc2g","pricing_plan_id":"free"},{"bike_id":"6153aad4-ce54-4c31-a806-0123b5363dea","system_id":"levelo_inurba_marseille","lat":43.29579,"lon":5.36744,"is_reserved":false,"is_disabled":false,"rental_uris":{"android":"levelo://app?vid=6153aad4-ce54-4c31-a806-0123b5363dea","ios":"levelo://app?vid=6153aad4-ce54-4c31-a806-0123b5363dea"},"vehicle_type_id":"4","last_reported":1704265622,"current_range_meters":19600,"station_id":"ce4bgph2rcd13ifvqc2g","pricing_plan_id":"free"},{"bike_id":"3285e6da-405c-4481-8837-83b7c1f86b95","system_id":"levelo_inurba_marseille","lat":43.29573,"lon":5.367355,"is_reserved":false,"is_disabled":false,"rental_uris":{"android":"levelo://app?vid=3285e6da-405c-4481-8837-83b7c1f86b95","ios":"levelo://app?vid=3285e6da-405c-4481-8837-83b7c1f86b95"},"vehicle_type_id":"4","last_reported":1704265622,"current_range_meters":25200,"station_id":"ce4bgph2rcd13ifvqc2g","pricing_plan_id":"free"},{"bike_id":"2acdf301-fcaa-4097-8571-9b289f82400e","system_id":"levelo_inurba_marseille","lat":43.317557,"lon":5.390173,"is_reserved":false,"is_disabled":false,"rental_uris":{"android":"levelo://app?vid=2acdf301-fcaa-4097-8571-9b289f82400e","ios":"levelo://app?vid=2acdf301-fcaa-4097-8571-9b289f82400e"},"vehicle_type_id":"4","last_reported":1704265622,"current_range_meters":10000,"station_id":"ce4bhqp2rcd13ifvqhng","pricing_plan_id":"free"},{"bike_id":"0eb73cc6-5f0c-4ec4-a733-5a219c159f57","system_id":"levelo_inurba_marseille","lat":43.317557,"lon":5.390173,"is_reserved":false,"is_disabled":false,"rental_uris":{"android":"levelo://app?vid=0eb73cc6-5f0c-4ec4-a733-5a219c159f57","ios":"levelo://app?vid=0eb73cc6-5f0c-4ec4-a733-5a219c159f57"},"vehicle_type_id":"4","last_reported":1704265622,"current_range_meters":31600,"station_id":"ce4bhqp2rcd13ifvqhng","pricing_plan_id":"free"},{"bike_id":"e9dfd98d-d24d-47aa-9523-919ae7c8a368","system_id":"levelo_inurba_marseille","lat":43.317557,"lon":5.390173,"is_reserved":false,"is_disabled":false,"rental_uris":{"android":"levelo://app?vid=e9dfd98d-d24d-47aa-9523-919ae7c8a368","ios":"levelo://app?vid=e9dfd98d-d24d-47aa-9523-919ae7c8a368"},"vehicle_type_id":"4","last_reported":1704265622,"current_range_meters":30400,"station_id":"ce4bhqp2rcd13ifvqhng","pricing_plan_id":"free"},{"bike_id":"e44fa06b-05a6-4cba-821c-24cadb7830e3","system_id":"levelo_inurba_marseille","lat":43.317557,"lon":5.390173,"is_reserved":false,"is_disabled":false,"rental_uris":{"android":"levelo://app?vid=e44fa06b-05a6-4cba-821c-24cadb7830e3","ios":"levelo://app?vid=e44fa06b-05a6-4cba-821c-24cadb7830e3"},"vehicle_type_id":"4","last_reported":1704265622,"current_range_meters":17600,"station_id":"ce4bhqp2rcd13ifvqhng","pricing_plan_id":"free"},{"bike_id":"d30892ed-fff9-452b-8e88-40c42bdd8755","system_id":"levelo_inurba_marseille","lat":43.317557,"lon":5.390173,"is_reserved":false,"is_disabled":false,"rental_uris":{"android":"levelo://app?vid=d30892ed-fff9-452b-8e88-40c42bdd8755","ios":"levelo://app?vid=d30892ed-fff9-452b-8e88-40c42bdd8755"},"vehicle_type_id":"4","last_reported":1704265622,"current_range_meters":9600,"station_id":"ce4bhqp2rcd13ifvqhng","pricing_plan_id":"free"},{"bike_id":"aba2dea7-8749-4460-a621-73aa014d0f3f","system_id":"levelo_inurba_marseille","lat":43.317557,"lon":5.390173,"is_reserved":false,"is_disabled":false,"rental_uris":{"android":"levelo://app?vid=aba2dea7-8749-4460-a621-73aa014d0f3f","ios":"levelo://app?vid=aba2dea7-8749-4460-a621-73aa014d0f3f"},"vehicle_type_id":"4","last_reported":1704265622,"current_range_meters":28400,"station_id":"ce4bhqp2rcd13ifvqhng","pricing_plan_id":"free"},{"bike_id":"20cc9f90-1250-47b0-b9d1-9a667b814e37","system_id":"levelo_inurba_marseille","lat":43.298037,"lon":5.381066,"is_reserved":false,"is_disabled":false,"rental_uris":{"android":"levelo://app?vid=20cc9f90-1250-47b0-b9d1-9a667b814e37","ios":"levelo://app?vid=20cc9f90-1250-47b0-b9d1-9a667b814e37"},"vehicle_type_id":"4","last_reported":1704265622,"current_range_meters":0,"station_id":"ce4bgip2rcd13ifvqbb0","pricing_plan_id":"free"},{"bike_id":"76894931-d77e-4dad-bc2a-4c5fd3461da9","system_id":"levelo_inurba_marseille","lat":43.295748,"lon":5.37522,"is_reserved":false,"is_disabled":false,"rental_uris":{"android":"levelo://app?vid=76894931-d77e-4dad-bc2a-4c5fd3461da9","ios":"levelo://app?vid=76894931-d77e-4dad-bc2a-4c5fd3461da9"},"vehicle_type_id":"4","last_reported":1704265622,"current_range_meters":24400,"station_id":"ce4bgh92rcd13ifvqb50","pricing_plan_id":"free"},{"bike_id":"be984103-ea98-4faf-b2d1-dfe440797b46","system_id":"levelo_inurba_marseille","lat":43.304278,"lon":5.388868,"is_reserved":false,"is_disabled":false,"rental_uris":{"android":"levelo://app?vid=be984103-ea98-4faf-b2d1-dfe440797b46","ios":"levelo://app?vid=be984103-ea98-4faf-b2d1-dfe440797b46"},"vehicle_type_id":"4","last_reported":1704265622,"current_range_meters":31200,"station_id":"ce4bgk12rcd13ifvqbi0","pricing_plan_id":"free"},{"bike_id":"6a6d8e46-469a-497d-8537-9cc1cfae6169","system_id":"levelo_inurba_marseille","lat":43.304278,"lon":5.388868,"is_reserved":false,"is_disabled":false,"rental_uris":{"android":"levelo://app?vid=6a6d8e46-469a-497d-8537-9cc1cfae6169","ios":"levelo://app?vid=6a6d8e46-469a-497d-8537-9cc1cfae6169"},"vehicle_type_id":"4","last_reported":1704265622,"current_range_meters":21200,"station_id":"ce4bgk12rcd13ifvqbi0","pricing_plan_id":"free"},{"bike_id":"74eaf515-51d5-44e5-8329-7c70c20aa2be","system_id":"levelo_inurba_marseille","lat":43.295748,"lon":5.37522,"is_reserved":false,"is_disabled":false,"rental_uris":{"android":"levelo://app?vid=74eaf515-51d5-44e5-8329-7c70c20aa2be","ios":"levelo://app?vid=74eaf515-51d5-44e5-8329-7c70c20aa2be"},"vehicle_type_id":"4","last_reported":1704265622,"current_range_meters":23200,"station_id":"ce4bgh92rcd13ifvqb50","pricing_plan_id":"free"},{"bike_id":"ae431fd3-1a34-40ce-bc94-288a9442b313","system_id":"levelo_inurba_marseille","lat":43.304274,"lon":5.388873,"is_reserved":false,"is_disabled":false,"rental_uris":{"android":"levelo://app?vid=ae431fd3-1a34-40ce-bc94-288a9442b313","ios":"levelo://app?vid=ae431fd3-1a34-40ce-bc94-288a9442b313"},"vehicle_type_id":"4","last_reported":1704265622,"current_range_meters":27600,"station_id":"ce4bgk12rcd13ifvqbi0","pricing_plan_id":"free"},{"bike_id":"42adcf6f-8b2e-441b-a7cf-e49dc6f6e26c","system_id":"levelo_inurba_marseille","lat":43.295748,"lon":5.37522,"is_reserved":false,"is_disabled":false,"rental_uris":{"android":"levelo://app?vid=42adcf6f-8b2e-441b-a7cf-e49dc6f6e26c","ios":"levelo://app?vid=42adcf6f-8b2e-441b-a7cf-e49dc6f6e26c"},"vehicle_type_id":"4","last_reported":1704265622,"current_range_meters":29200,"station_id":"ce4bgh92rcd13ifvqb50","pricing_plan_id":"free"},{"bike_id":"1356930e-6358-426f-bfdf-d1fcc643cc0d","system_id":"levelo_inurba_marseille","lat":43.295748,"lon":5.37522,"is_reserved":false,"is_disabled":false,"rental_uris":{"android":"levelo://app?vid=1356930e-6358-426f-bfdf-d1fcc643cc0d","ios":"levelo://app?vid=1356930e-6358-426f-bfdf-d1fcc643cc0d"},"vehicle_type_id":"4","last_reported":1704265622,"current_range_meters":16800,"station_id":"ce4bgh92rcd13ifvqb50","pricing_plan_id":"free"},{"bike_id":"d60802d6-4f47-444a-b234-883690eec05b","system_id":"levelo_inurba_marseille","lat":43.33062,"lon":5.3627,"is_reserved":false,"is_disabled":false,"rental_uris":{"android":"levelo://app?vid=d60802d6-4f47-444a-b234-883690eec05b","ios":"levelo://app?vid=d60802d6-4f47-444a-b234-883690eec05b"},"vehicle_type_id":"4","last_reported":1704265622,"current_range_meters":12800,"station_id":"","pricing_plan_id":"free"},{"bike_id":"363b8f63-2f9b-4076-9e4c-c29a2f97bd1c","system_id":"levelo_inurba_marseille","lat":43.296277,"lon":5.377108,"is_reserved":false,"is_disabled":false,"rental_uris":{"android":"levelo://app?vid=363b8f63-2f9b-4076-9e4c-c29a2f97bd1c","ios":"levelo://app?vid=363b8f63-2f9b-4076-9e4c-c29a2f97bd1c"},"vehicle_type_id":"4","last_reported":1704265622,"current_range_meters":28400,"station_id":"ce4bgi92rcd13ifvqb90","pricing_plan_id":"free"},{"bike_id":"b547c94d-567e-437a-949a-16e923720013","system_id":"levelo_inurba_marseille","lat":43.296277,"lon":5.377108,"is_reserved":false,"is_disabled":false,"rental_uris":{"android":"levelo://app?vid=b547c94d-567e-437a-949a-16e923720013","ios":"levelo://app?vid=b547c94d-567e-437a-949a-16e923720013"},"vehicle_type_id":"4","last_reported":1704265622,"current_range_meters":24400,"station_id":"ce4bgi92rcd13ifvqb90","pricing_plan_id":"free"},{"bike_id":"23d62633-32bc-45ee-b645-dcb75be9be21","system_id":"levelo_inurba_marseille","lat":43.29538,"lon":5.375,"is_reserved":false,"is_disabled":false,"rental_uris":{"android":"levelo://app?vid=23d62633-32bc-45ee-b645-dcb75be9be21","ios":"levelo://app?vid=23d62633-32bc-45ee-b645-dcb75be9be21"},"vehicle_type_id":"4","last_reported":1704265622,"current_range_meters":19200,"station_id":"ce4bgi92rcd13ifvqb90","pricing_plan_id":"free"},{"bike_id":"7119845d-00aa-4d9f-be8c-fc97d41f1380","system_id":"levelo_inurba_marseille","lat":43.297594,"lon":5.381134,"is_reserved":false,"is_disabled":false,"rental_uris":{"android":"levelo://app?vid=7119845d-00aa-4d9f-be8c-fc97d41f1380","ios":"levelo://app?vid=7119845d-00aa-4d9f-be8c-fc97d41f1380"},"vehicle_type_id":"4","last_reported":1704265622,"current_range_meters":1200,"station_id":"ce4bgip2rcd13ifvqbb0","pricing_plan_id":"free"},{"bike_id":"3d7ce3ad-5e55-4f44-92e9-e8c12d7a39a6","system_id":"levelo_inurba_marseille","lat":43.295279,"lon":5.375048,"is_reserved":false,"is_disabled":false,"rental_uris":{"android":"levelo://app?vid=3d7ce3ad-5e55-4f44-92e9-e8c12d7a39a6","ios":"levelo://app?vid=3d7ce3ad-5e55-4f44-92e9-e8c12d7a39a6"},"vehicle_type_id":"4","last_reported":1704265622,"current_range_meters":29200,"station_id":"ce4bgkp2rcd13ifvqbmg","pricing_plan_id":"free"},{"bike_id":"10dc0b10-3f2d-4989-a3a8-a5aef4cb3957","system_id":"levelo_inurba_marseille","lat":43.295279,"lon":5.375048,"is_reserved":false,"is_disabled":false,"rental_uris":{"android":"levelo://app?vid=10dc0b10-3f2d-4989-a3a8-a5aef4cb3957","ios":"levelo://app?vid=10dc0b10-3f2d-4989-a3a8-a5aef4cb3957"},"vehicle_type_id":"4","last_reported":1704265622,"current_range_meters":26800,"station_id":"ce4bgkp2rcd13ifvqbmg","pricing_plan_id":"free"},{"bike_id":"6d1f2469-44b4-40c3-96a3-2a32c5c4f733","system_id":"levelo_inurba_marseille","lat":43.32367,"lon":5.388836,"is_reserved":false,"is_disabled":false,"rental_uris":{"android":"levelo://app?vid=6d1f2469-44b4-40c3-96a3-2a32c5c4f733","ios":"levelo://app?vid=6d1f2469-44b4-40c3-96a3-2a32c5c4f733"},"vehicle_type_id":"4","last_reported":1704265622,"current_range_meters":10000,"station_id":"ce4bhqp2rcd13ifvqhog","pricing_plan_id":"free"},{"bike_id":"2d929794-67ac-4d98-ab11-c381a1cb3a05","system_id":"levelo_inurba_marseille","lat":43.32367,"lon":5.388836,"is_reserved":false,"is_disabled":false,"rental_uris":{"android":"levelo://app?vid=2d929794-67ac-4d98-ab11-c381a1cb3a05","ios":"levelo://app?vid=2d929794-67ac-4d98-ab11-c381a1cb3a05"},"vehicle_type_id":"4","last_reported":1704265622,"current_range_meters":30400,"station_id":"ce4bhqp2rcd13ifvqhog","pricing_plan_id":"free"},{"bike_id":"74a229bc-114b-4c48-b891-39a55deb7a18","system_id":"levelo_inurba_marseille","lat":43.32367,"lon":5.388836,"is_reserved":false,"is_disabled":false,"rental_uris":{"android":"levelo://app?vid=74a229bc-114b-4c48-b891-39a55deb7a18","ios":"levelo://app?vid=74a229bc-114b-4c48-b891-39a55deb7a18"},"vehicle_type_id":"4","last_reported":1704265622,"current_range_meters":22400,"station_id":"ce4bhqp2rcd13ifvqhog","pricing_plan_id":"free"},{"bike_id":"ead12de1-524d-4afe-9668-9aed5b9106a2","system_id":"levelo_inurba_marseille","lat":43.32367,"lon":5.388836,"is_reserved":false,"is_disabled":false,"rental_uris":{"android":"levelo://app?vid=ead12de1-524d-4afe-9668-9aed5b9106a2","ios":"levelo://app?vid=ead12de1-524d-4afe-9668-9aed5b9106a2"},"vehicle_type_id":"4","last_reported":1704265622,"current_range_meters":24400,"station_id":"ce4bhqp2rcd13ifvqhog","pricing_plan_id":"free"},{"bike_id":"2826100b-e30d-4c47-bda3-9b8cbf3e5cf7","system_id":"levelo_inurba_marseille","lat":43.32367,"lon":5.388836,"is_reserved":false,"is_disabled":false,"rental_uris":{"android":"levelo://app?vid=2826100b-e30d-4c47-bda3-9b8cbf3e5cf7","ios":"levelo://app?vid=2826100b-e30d-4c47-bda3-9b8cbf3e5cf7"},"vehicle_type_id":"4","last_reported":1704265622,"current_range_meters":30000,"station_id":"ce4bhqp2rcd13ifvqhog","pricing_plan_id":"free"},{"bike_id":"6708a5b5-13c0-4d12-80c0-d3dd5e200e56","system_id":"levelo_inurba_marseille","lat":43.32367,"lon":5.388836,"is_reserved":false,"is_disabled":false,"rental_uris":{"android":"levelo://app?vid=6708a5b5-13c0-4d12-80c0-d3dd5e200e56","ios":"levelo://app?vid=6708a5b5-13c0-4d12-80c0-d3dd5e200e56"},"vehicle_type_id":"4","last_reported":1704265622,"current_range_meters":28400,"station_id":"ce4bhqp2rcd13ifvqhog","pricing_plan_id":"free"},{"bike_id":"a2921e9e-44de-4cfc-a63d-9b4c73af52f3","system_id":"levelo_inurba_marseille","lat":43.32367,"lon":5.388836,"is_reserved":false,"is_disabled":false,"rental_uris":{"android":"levelo://app?vid=a2921e9e-44de-4cfc-a63d-9b4c73af52f3","ios":"levelo://app?vid=a2921e9e-44de-4cfc-a63d-9b4c73af52f3"},"vehicle_type_id":"4","last_reported":1704265622,"current_range_meters":30800,"station_id":"ce4bhqp2rcd13ifvqhog","pricing_plan_id":"free"},{"bike_id":"9be0922a-ddc2-4c00-b423-a99c3284ed26","system_id":"levelo_inurba_marseille","lat":43.29602,"lon":5.381084,"is_reserved":false,"is_disabled":false,"rental_uris":{"android":"levelo://app?vid=9be0922a-ddc2-4c00-b423-a99c3284ed26","ios":"levelo://app?vid=9be0922a-ddc2-4c00-b423-a99c3284ed26"},"vehicle_type_id":"4","last_reported":1704265622,"current_range_meters":29200,"station_id":"ce4bgl12rcd13ifvqbo0","pricing_plan_id":"free"},{"bike_id":"982ea8b2-32ff-4e44-a665-45392e21e9ed","system_id":"levelo_inurba_marseille","lat":43.293259,"lon":5.371586,"is_reserved":false,"is_disabled":false,"rental_uris":{"android":"levelo://app?vid=982ea8b2-32ff-4e44-a665-45392e21e9ed","ios":"levelo://app?vid=982ea8b2-32ff-4e44-a665-45392e21e9ed"},"vehicle_type_id":"4","last_reported":1704265622,"current_range_meters":25600,"station_id":"ce4bgh92rcd13ifvqb40","pricing_plan_id":"free"},{"bike_id":"1c617055-0152-4043-a4ae-c5427e71af90","system_id":"levelo_inurba_marseille","lat":43.292749,"lon":5.368402,"is_reserved":false,"is_disabled":false,"rental_uris":{"android":"levelo://app?vid=1c617055-0152-4043-a4ae-c5427e71af90","ios":"levelo://app?vid=1c617055-0152-4043-a4ae-c5427e71af90"},"vehicle_type_id":"4","last_reported":1704265622,"current_range_meters":29600,"station_id":"ce4bhbp2rcd13ifvqesg","pricing_plan_id":"free"},{"bike_id":"b6b5ba6f-0d50-4259-8439-63baea0daeeb","system_id":"levelo_inurba_marseille","lat":43.303002,"lon":5.392142,"is_reserved":false,"is_disabled":false,"rental_uris":{"android":"levelo://app?vid=b6b5ba6f-0d50-4259-8439-63baea0daeeb","ios":"levelo://app?vid=b6b5ba6f-0d50-4259-8439-63baea0daeeb"},"vehicle_type_id":"4","last_reported":1704265622,"current_range_meters":25600,"station_id":"ce4bgkh2rcd13ifvqbk0","pricing_plan_id":"free"},{"bike_id":"80234e89-f461-463b-8d84-556b312666bd","system_id":"levelo_inurba_marseille","lat":43.30085,"lon":5.390856,"is_reserved":false,"is_disabled":false,"rental_uris":{"android":"levelo://app?vid=80234e89-f461-463b-8d84-556b312666bd","ios":"levelo://app?vid=80234e89-f461-463b-8d84-556b312666bd"},"vehicle_type_id":"4","last_reported":1704265622,"current_range_meters":28800,"station_id":"ce4bh192rcd13ifvqdb0","pricing_plan_id":"free"},{"bike_id":"cbd58e90-1488-48f7-b1f7-09445235aa26","system_id":"levelo_inurba_marseille","lat":43.300852,"lon":5.390859,"is_reserved":false,"is_disabled":false,"rental_uris":{"android":"levelo://app?vid=cbd58e90-1488-48f7-b1f7-09445235aa26","ios":"levelo://app?vid=cbd58e90-1488-48f7-b1f7-09445235aa26"},"vehicle_type_id":"4","last_reported":1704265622,"current_range_meters":28000,"station_id":"ce4bh192rcd13ifvqdb0","pricing_plan_id":"free"},{"bike_id":"b34fa4d8-3535-4ecc-aa14-554f71aef0e5","system_id":"levelo_inurba_marseille","lat":43.291675,"lon":5.371583,"is_reserved":false,"is_disabled":false,"rental_uris":{"android":"levelo://app?vid=b34fa4d8-3535-4ecc-aa14-554f71aef0e5","ios":"levelo://app?vid=b34fa4d8-3535-4ecc-aa14-554f71aef0e5"},"vehicle_type_id":"4","last_reported":1704265622,"current_range_meters":27600,"station_id":"ce4bha92rcd13ifvqeh0","pricing_plan_id":"free"},{"bike_id":"477a02a3-3aed-4c2b-a541-1f50fe18a7de","system_id":"levelo_inurba_marseille","lat":43.313291,"lon":5.396838,"is_reserved":false,"is_disabled":false,"rental_uris":{"android":"levelo://app?vid=477a02a3-3aed-4c2b-a541-1f50fe18a7de","ios":"levelo://app?vid=477a02a3-3aed-4c2b-a541-1f50fe18a7de"},"vehicle_type_id":"4","last_reported":1704265622,"current_range_meters":19200,"station_id":"ce4bgvp2rcd13ifvqcu0","pricing_plan_id":"free"},{"bike_id":"6a81b50f-ae4b-4c12-a481-44b003323491","system_id":"levelo_inurba_marseille","lat":43.31287,"lon":5.396846,"is_reserved":false,"is_disabled":false,"rental_uris":{"android":"levelo://app?vid=6a81b50f-ae4b-4c12-a481-44b003323491","ios":"levelo://app?vid=6a81b50f-ae4b-4c12-a481-44b003323491"},"vehicle_type_id":"4","last_reported":1704265622,"current_range_meters":15200,"station_id":"ce4bgvp2rcd13ifvqcu0","pricing_plan_id":"free"},{"bike_id":"fa48146b-b929-46bc-87fb-86a43b5b982d","system_id":"levelo_inurba_marseille","lat":43.313291,"lon":5.396838,"is_reserved":false,"is_disabled":false,"rental_uris":{"android":"levelo://app?vid=fa48146b-b929-46bc-87fb-86a43b5b982d","ios":"levelo://app?vid=fa48146b-b929-46bc-87fb-86a43b5b982d"},"vehicle_type_id":"4","last_reported":1704265622,"current_range_meters":31600,"station_id":"ce4bgvp2rcd13ifvqcu0","pricing_plan_id":"free"},{"bike_id":"f337f03a-eccb-48e9-97c0-536354d6ba5c","system_id":"levelo_inurba_marseille","lat":43.29529,"lon":5.385581,"is_reserved":false,"is_disabled":false,"rental_uris":{"android":"levelo://app?vid=f337f03a-eccb-48e9-97c0-536354d6ba5c","ios":"levelo://app?vid=f337f03a-eccb-48e9-97c0-536354d6ba5c"},"vehicle_type_id":"4","last_reported":1704265622,"current_range_meters":3200,"station_id":"ce4bgih2rcd13ifvqba0","pricing_plan_id":"free"},{"bike_id":"2aa69697-0349-4ebe-8c1c-2cc80e98b834","system_id":"levelo_inurba_marseille","lat":43.290631,"lon":5.359244,"is_reserved":false,"is_disabled":false,"rental_uris":{"android":"levelo://app?vid=2aa69697-0349-4ebe-8c1c-2cc80e98b834","ios":"levelo://app?vid=2aa69697-0349-4ebe-8c1c-2cc80e98b834"},"vehicle_type_id":"4","last_reported":1704265622,"current_range_meters":31600,"station_id":"ce4bha92rcd13ifvqeg0","pricing_plan_id":"free"},{"bike_id":"b7d87577-7bd3-4b6c-a579-836e6f62a689","system_id":"levelo_inurba_marseille","lat":43.290631,"lon":5.359244,"is_reserved":false,"is_disabled":false,"rental_uris":{"android":"levelo://app?vid=b7d87577-7bd3-4b6c-a579-836e6f62a689","ios":"levelo://app?vid=b7d87577-7bd3-4b6c-a579-836e6f62a689"},"vehicle_type_id":"4","last_reported":1704265622,"current_range_meters":23600,"station_id":"ce4bha92rcd13ifvqeg0","pricing_plan_id":"free"},{"bike_id":"02d06487-8ad8-47f6-be3e-cf08c15d1d1b","system_id":"levelo_inurba_marseille","lat":43.290327,"lon":5.375711,"is_reserved":false,"is_disabled":false,"rental_uris":{"android":"levelo://app?vid=02d06487-8ad8-47f6-be3e-cf08c15d1d1b","ios":"levelo://app?vid=02d06487-8ad8-47f6-be3e-cf08c15d1d1b"},"vehicle_type_id":"4","last_reported":1704265622,"current_range_meters":27600,"station_id":"ce4bh692rcd13ifvqe90","pricing_plan_id":"free"},{"bike_id":"c85a351b-6a54-41c7-8c34-6fabaf1b5cd7","system_id":"levelo_inurba_marseille","lat":43.289184,"lon":5.366408,"is_reserved":false,"is_disabled":false,"rental_uris":{"android":"levelo://app?vid=c85a351b-6a54-41c7-8c34-6fabaf1b5cd7","ios":"levelo://app?vid=c85a351b-6a54-41c7-8c34-6fabaf1b5cd7"},"vehicle_type_id":"4","last_reported":1704265622,"current_range_meters":26800,"station_id":"ce4bhap2rcd13ifvqek0","pricing_plan_id":"free"},{"bike_id":"c4fa7a78-0580-45b7-bb1d-6ed875a573e0","system_id":"levelo_inurba_marseille","lat":43.289184,"lon":5.366408,"is_reserved":false,"is_disabled":false,"rental_uris":{"android":"levelo://app?vid=c4fa7a78-0580-45b7-bb1d-6ed875a573e0","ios":"levelo://app?vid=c4fa7a78-0580-45b7-bb1d-6ed875a573e0"},"vehicle_type_id":"4","last_reported":1704265622,"current_range_meters":30800,"station_id":"ce4bhap2rcd13ifvqek0","pricing_plan_id":"free"},{"bike_id":"7730c932-8c0f-4c04-839b-ed6ed5c1ebb6","system_id":"levelo_inurba_marseille","lat":43.289453,"lon":5.363995,"is_reserved":false,"is_disabled":false,"rental_uris":{"android":"levelo://app?vid=7730c932-8c0f-4c04-839b-ed6ed5c1ebb6","ios":"levelo://app?vid=7730c932-8c0f-4c04-839b-ed6ed5c1ebb6"},"vehicle_type_id":"4","last_reported":1704265622,"current_range_meters":19200,"station_id":"ce4bhc92rcd13ifvqetg","pricing_plan_id":"free"},{"bike_id":"2b61080d-66af-447e-b08b-8702324b4ee8","system_id":"levelo_inurba_marseille","lat":43.289468,"lon":5.363719,"is_reserved":false,"is_disabled":false,"rental_uris":{"android":"levelo://app?vid=2b61080d-66af-447e-b08b-8702324b4ee8","ios":"levelo://app?vid=2b61080d-66af-447e-b08b-8702324b4ee8"},"vehicle_type_id":"4","last_reported":1704265622,"current_range_meters":27200,"station_id":"ce4bhc92rcd13ifvqetg","pricing_plan_id":"free"},{"bike_id":"2e82fbdb-6216-463e-aa8e-c03d8bdd6dd7","system_id":"levelo_inurba_marseille","lat":43.292642,"lon":5.384254,"is_reserved":false,"is_disabled":false,"rental_uris":{"android":"levelo://app?vid=2e82fbdb-6216-463e-aa8e-c03d8bdd6dd7","ios":"levelo://app?vid=2e82fbdb-6216-463e-aa8e-c03d8bdd6dd7"},"vehicle_type_id":"4","last_reported":1704265622,"current_range_meters":28400,"station_id":"ce4bh692rcd13ifvqea0","pricing_plan_id":"free"},{"bike_id":"eb4c9fd0-258f-4049-ae8d-f4283af448d5","system_id":"levelo_inurba_marseille","lat":43.304274,"lon":5.397513,"is_reserved":false,"is_disabled":false,"rental_uris":{"android":"levelo://app?vid=eb4c9fd0-258f-4049-ae8d-f4283af448d5","ios":"levelo://app?vid=eb4c9fd0-258f-4049-ae8d-f4283af448d5"},"vehicle_type_id":"4","last_reported":1704265622,"current_range_meters":24000,"station_id":"ce4bh092rcd13ifvqd20","pricing_plan_id":"free"},{"bike_id":"a1ee3364-28ae-4153-943e-13e8db98a605","system_id":"levelo_inurba_marseille","lat":43.330442,"lon":5.389148,"is_reserved":false,"is_disabled":false,"rental_uris":{"android":"levelo://app?vid=a1ee3364-28ae-4153-943e-13e8db98a605","ios":"levelo://app?vid=a1ee3364-28ae-4153-943e-13e8db98a605"},"vehicle_type_id":"4","last_reported":1704265622,"current_range_meters":5200,"station_id":"ce4bhr92rcd13ifvqhrg","pricing_plan_id":"free"},{"bike_id":"a45508dc-3e20-4dc2-a3f2-c48092cac22d","system_id":"levelo_inurba_marseille","lat":43.330442,"lon":5.389148,"is_reserved":false,"is_disabled":false,"rental_uris":{"android":"levelo://app?vid=a45508dc-3e20-4dc2-a3f2-c48092cac22d","ios":"levelo://app?vid=a45508dc-3e20-4dc2-a3f2-c48092cac22d"},"vehicle_type_id":"4","last_reported":1704265622,"current_range_meters":8800,"station_id":"ce4bhr92rcd13ifvqhrg","pricing_plan_id":"free"},{"bike_id":"92d8b4c8-e3d1-41fc-b708-02f9b95679dc","system_id":"levelo_inurba_marseille","lat":43.295169,"lon":5.390426,"is_reserved":false,"is_disabled":false,"rental_uris":{"android":"levelo://app?vid=92d8b4c8-e3d1-41fc-b708-02f9b95679dc","ios":"levelo://app?vid=92d8b4c8-e3d1-41fc-b708-02f9b95679dc"},"vehicle_type_id":"4","last_reported":1704265622,"current_range_meters":28000,"station_id":"ce4bh3p2rcd13ifvqdp0","pricing_plan_id":"free"},{"bike_id":"d10239c1-672c-4ed8-838c-b34b41ed0367","system_id":"levelo_inurba_marseille","lat":43.33739,"lon":5.37449,"is_reserved":false,"is_disabled":false,"rental_uris":{"android":"levelo://app?vid=d10239c1-672c-4ed8-838c-b34b41ed0367","ios":"levelo://app?vid=d10239c1-672c-4ed8-838c-b34b41ed0367"},"vehicle_type_id":"4","last_reported":1704265622,"current_range_meters":30800,"station_id":"","pricing_plan_id":"free"},{"bike_id":"276a54b0-a061-4622-903f-d9a1f62221a3","system_id":"levelo_inurba_marseille","lat":43.309371,"lon":5.401449,"is_reserved":false,"is_disabled":false,"rental_uris":{"android":"levelo://app?vid=276a54b0-a061-4622-903f-d9a1f62221a3","ios":"levelo://app?vid=276a54b0-a061-4622-903f-d9a1f62221a3"},"vehicle_type_id":"4","last_reported":1704265622,"current_range_meters":28800,"station_id":"ce4bgvp2rcd13ifvqct0","pricing_plan_id":"free"},{"bike_id":"3f35a1dd-4110-4d1d-af6e-ff0436c72142","system_id":"levelo_inurba_marseille","lat":43.30933,"lon":5.40145,"is_reserved":false,"is_disabled":false,"rental_uris":{"android":"levelo://app?vid=3f35a1dd-4110-4d1d-af6e-ff0436c72142","ios":"levelo://app?vid=3f35a1dd-4110-4d1d-af6e-ff0436c72142"},"vehicle_type_id":"4","last_reported":1704265622,"current_range_meters":0,"station_id":"ce4bgvp2rcd13ifvqct0","pricing_plan_id":"free"},{"bike_id":"234e34b2-afe8-4b26-bbb9-09ba6ee9830d","system_id":"levelo_inurba_marseille","lat":43.306412,"lon":5.401035,"is_reserved":false,"is_disabled":false,"rental_uris":{"android":"levelo://app?vid=234e34b2-afe8-4b26-bbb9-09ba6ee9830d","ios":"levelo://app?vid=234e34b2-afe8-4b26-bbb9-09ba6ee9830d"},"vehicle_type_id":"4","last_reported":1704265622,"current_range_meters":27200,"station_id":"ce4bh112rcd13ifvqda0","pricing_plan_id":"free"},{"bike_id":"48bded61-f057-4faa-886b-176c8d00f4b2","system_id":"levelo_inurba_marseille","lat":43.309371,"lon":5.401449,"is_reserved":false,"is_disabled":false,"rental_uris":{"android":"levelo://app?vid=48bded61-f057-4faa-886b-176c8d00f4b2","ios":"levelo://app?vid=48bded61-f057-4faa-886b-176c8d00f4b2"},"vehicle_type_id":"4","last_reported":1704265622,"current_range_meters":29600,"station_id":"ce4bgvp2rcd13ifvqct0","pricing_plan_id":"free"},{"bike_id":"c740bd41-c5ce-476a-8b16-e214136c677b","system_id":"levelo_inurba_marseille","lat":43.309371,"lon":5.401449,"is_reserved":false,"is_disabled":false,"rental_uris":{"android":"levelo://app?vid=c740bd41-c5ce-476a-8b16-e214136c677b","ios":"levelo://app?vid=c740bd41-c5ce-476a-8b16-e214136c677b"},"vehicle_type_id":"4","last_reported":1704265622,"current_range_meters":27600,"station_id":"ce4bgvp2rcd13ifvqct0","pricing_plan_id":"free"},{"bike_id":"37c6b546-46f1-48fd-9861-6680b4ad152d","system_id":"levelo_inurba_marseille","lat":43.309371,"lon":5.401449,"is_reserved":false,"is_disabled":false,"rental_uris":{"android":"levelo://app?vid=37c6b546-46f1-48fd-9861-6680b4ad152d","ios":"levelo://app?vid=37c6b546-46f1-48fd-9861-6680b4ad152d"},"vehicle_type_id":"4","last_reported":1704265622,"current_range_meters":30800,"station_id":"ce4bgvp2rcd13ifvqct0","pricing_plan_id":"free"},{"bike_id":"d78eb311-939b-4bbe-b6b5-c7816f1b4af5","system_id":"levelo_inurba_marseille","lat":43.30932,"lon":5.401477,"is_reserved":false,"is_disabled":false,"rental_uris":{"android":"levelo://app?vid=d78eb311-939b-4bbe-b6b5-c7816f1b4af5","ios":"levelo://app?vid=d78eb311-939b-4bbe-b6b5-c7816f1b4af5"},"vehicle_type_id":"4","last_reported":1704265622,"current_range_meters":29200,"station_id":"ce4bgvp2rcd13ifvqct0","pricing_plan_id":"free"},{"bike_id":"206c227f-289c-4346-981e-ec38db7016f4","system_id":"levelo_inurba_marseille","lat":43.309371,"lon":5.401449,"is_reserved":false,"is_disabled":false,"rental_uris":{"android":"levelo://app?vid=206c227f-289c-4346-981e-ec38db7016f4","ios":"levelo://app?vid=206c227f-289c-4346-981e-ec38db7016f4"},"vehicle_type_id":"4","last_reported":1704265622,"current_range_meters":27600,"station_id":"ce4bgvp2rcd13ifvqct0","pricing_plan_id":"free"},{"bike_id":"e9b17cc2-ca5a-4161-9ff2-1c1d56a18a37","system_id":"levelo_inurba_marseille","lat":43.30642,"lon":5.401031,"is_reserved":false,"is_disabled":false,"rental_uris":{"android":"levelo://app?vid=e9b17cc2-ca5a-4161-9ff2-1c1d56a18a37","ios":"levelo://app?vid=e9b17cc2-ca5a-4161-9ff2-1c1d56a18a37"},"vehicle_type_id":"4","last_reported":1704265622,"current_range_meters":28400,"station_id":"ce4bh112rcd13ifvqda0","pricing_plan_id":"free"},{"bike_id":"e6c75395-75e4-46e1-8058-b1fe639f10da","system_id":"levelo_inurba_marseille","lat":43.309371,"lon":5.401449,"is_reserved":false,"is_disabled":false,"rental_uris":{"android":"levelo://app?vid=e6c75395-75e4-46e1-8058-b1fe639f10da","ios":"levelo://app?vid=e6c75395-75e4-46e1-8058-b1fe639f10da"},"vehicle_type_id":"4","last_reported":1704265622,"current_range_meters":30400,"station_id":"ce4bgvp2rcd13ifvqct0","pricing_plan_id":"free"},{"bike_id":"7bff5d96-c9da-413f-9076-7fbeec946e12","system_id":"levelo_inurba_marseille","lat":43.337548,"lon":5.374623,"is_reserved":false,"is_disabled":false,"rental_uris":{"android":"levelo://app?vid=7bff5d96-c9da-413f-9076-7fbeec946e12","ios":"levelo://app?vid=7bff5d96-c9da-413f-9076-7fbeec946e12"},"vehicle_type_id":"4","last_reported":1704265622,"current_range_meters":22800,"station_id":"","pricing_plan_id":"free"},{"bike_id":"f0343c8c-bb4e-4f5b-a52c-fcd0c07bda39","system_id":"levelo_inurba_marseille","lat":43.306412,"lon":5.401035,"is_reserved":false,"is_disabled":false,"rental_uris":{"android":"levelo://app?vid=f0343c8c-bb4e-4f5b-a52c-fcd0c07bda39","ios":"levelo://app?vid=f0343c8c-bb4e-4f5b-a52c-fcd0c07bda39"},"vehicle_type_id":"4","last_reported":1704265622,"current_range_meters":31600,"station_id":"ce4bh112rcd13ifvqda0","pricing_plan_id":"free"},{"bike_id":"1c86c5a0-cffc-4faa-94a1-6cf5f93206ea","system_id":"levelo_inurba_marseille","lat":43.337605,"lon":5.374572,"is_reserved":false,"is_disabled":false,"rental_uris":{"android":"levelo://app?vid=1c86c5a0-cffc-4faa-94a1-6cf5f93206ea","ios":"levelo://app?vid=1c86c5a0-cffc-4faa-94a1-6cf5f93206ea"},"vehicle_type_id":"4","last_reported":1704265622,"current_range_meters":3600,"station_id":"","pricing_plan_id":"free"},{"bike_id":"2698b1cc-9d8f-4af1-9d41-a07e93bd5755","system_id":"levelo_inurba_marseille","lat":43.33763,"lon":5.375,"is_reserved":false,"is_disabled":false,"rental_uris":{"android":"levelo://app?vid=2698b1cc-9d8f-4af1-9d41-a07e93bd5755","ios":"levelo://app?vid=2698b1cc-9d8f-4af1-9d41-a07e93bd5755"},"vehicle_type_id":"4","last_reported":1704265622,"current_range_meters":26000,"station_id":"","pricing_plan_id":"free"},{"bike_id":"46bcbd8a-0b5f-4b89-aac9-34812a85cd49","system_id":"levelo_inurba_marseille","lat":43.337681,"lon":5.374847,"is_reserved":false,"is_disabled":false,"rental_uris":{"android":"levelo://app?vid=46bcbd8a-0b5f-4b89-aac9-34812a85cd49","ios":"levelo://app?vid=46bcbd8a-0b5f-4b89-aac9-34812a85cd49"},"vehicle_type_id":"4","last_reported":1704265622,"current_range_meters":12000,"station_id":"","pricing_plan_id":"free"},{"bike_id":"dc0f7993-24e7-4023-a676-def2c5e35e70","system_id":"levelo_inurba_marseille","lat":43.28727,"lon":5.36078,"is_reserved":false,"is_disabled":false,"rental_uris":{"android":"levelo://app?vid=dc0f7993-24e7-4023-a676-def2c5e35e70","ios":"levelo://app?vid=dc0f7993-24e7-4023-a676-def2c5e35e70"},"vehicle_type_id":"4","last_reported":1704265622,"current_range_meters":27600,"station_id":"cki0cbj6b192h4jlfktg","pricing_plan_id":"free"},{"bike_id":"43b50400-bf73-455a-a63e-2224febf021d","system_id":"levelo_inurba_marseille","lat":43.28727,"lon":5.36078,"is_reserved":false,"is_disabled":false,"rental_uris":{"android":"levelo://app?vid=43b50400-bf73-455a-a63e-2224febf021d","ios":"levelo://app?vid=43b50400-bf73-455a-a63e-2224febf021d"},"vehicle_type_id":"4","last_reported":1704265622,"current_range_meters":31600,"station_id":"cki0cbj6b192h4jlfktg","pricing_plan_id":"free"},{"bike_id":"25143700-3da5-46c3-8329-221bb4a7bc16","system_id":"levelo_inurba_marseille","lat":43.28727,"lon":5.36078,"is_reserved":false,"is_disabled":false,"rental_uris":{"android":"levelo://app?vid=25143700-3da5-46c3-8329-221bb4a7bc16","ios":"levelo://app?vid=25143700-3da5-46c3-8329-221bb4a7bc16"},"vehicle_type_id":"4","last_reported":1704265622,"current_range_meters":31600,"station_id":"cki0cbj6b192h4jlfktg","pricing_plan_id":"free"},{"bike_id":"1b598ab9-ed17-479a-9143-a63ba0c5fe60","system_id":"levelo_inurba_marseille","lat":43.286961,"lon":5.373785,"is_reserved":false,"is_disabled":false,"rental_uris":{"android":"levelo://app?vid=1b598ab9-ed17-479a-9143-a63ba0c5fe60","ios":"levelo://app?vid=1b598ab9-ed17-479a-9143-a63ba0c5fe60"},"vehicle_type_id":"4","last_reported":1704265622,"current_range_meters":30800,"station_id":"ce4bh3p2rcd13ifvqdq0","pricing_plan_id":"free"},{"bike_id":"f629bdd7-11a7-4b7c-9182-6332f4076f6b","system_id":"levelo_inurba_marseille","lat":43.30293,"lon":5.40048,"is_reserved":false,"is_disabled":false,"rental_uris":{"android":"levelo://app?vid=f629bdd7-11a7-4b7c-9182-6332f4076f6b","ios":"levelo://app?vid=f629bdd7-11a7-4b7c-9182-6332f4076f6b"},"vehicle_type_id":"4","last_reported":1704265622,"current_range_meters":16000,"station_id":"ce4bgvh2rcd13ifvqcs0","pricing_plan_id":"free"},{"bike_id":"871e95f2-b175-419a-95c6-3c7f1137c19c","system_id":"levelo_inurba_marseille","lat":43.3033,"lon":5.40076,"is_reserved":false,"is_disabled":false,"rental_uris":{"android":"levelo://app?vid=871e95f2-b175-419a-95c6-3c7f1137c19c","ios":"levelo://app?vid=871e95f2-b175-419a-95c6-3c7f1137c19c"},"vehicle_type_id":"4","last_reported":1704265622,"current_range_meters":8400,"station_id":"","pricing_plan_id":"free"},{"bike_id":"46c55e44-38ac-4c19-9373-8a3342a01177","system_id":"levelo_inurba_marseille","lat":43.30289,"lon":5.40064,"is_reserved":false,"is_disabled":false,"rental_uris":{"android":"levelo://app?vid=46c55e44-38ac-4c19-9373-8a3342a01177","ios":"levelo://app?vid=46c55e44-38ac-4c19-9373-8a3342a01177"},"vehicle_type_id":"4","last_reported":1704265622,"current_range_meters":12800,"station_id":"ce4bgvh2rcd13ifvqcs0","pricing_plan_id":"free"},{"bike_id":"bcd69029-ee54-4337-aadd-825bfec1da50","system_id":"levelo_inurba_marseille","lat":43.290336,"lon":5.386425,"is_reserved":false,"is_disabled":false,"rental_uris":{"android":"levelo://app?vid=bcd69029-ee54-4337-aadd-825bfec1da50","ios":"levelo://app?vid=bcd69029-ee54-4337-aadd-825bfec1da50"},"vehicle_type_id":"4","last_reported":1704265622,"current_range_meters":29600,"station_id":"ce4bh4p2rcd13ifvqe0g","pricing_plan_id":"free"},{"bike_id":"02c3b795-586e-4eaf-813f-28e783f486ff","system_id":"levelo_inurba_marseille","lat":43.289307,"lon":5.38406,"is_reserved":false,"is_disabled":false,"rental_uris":{"android":"levelo://app?vid=02c3b795-586e-4eaf-813f-28e783f486ff","ios":"levelo://app?vid=02c3b795-586e-4eaf-813f-28e783f486ff"},"vehicle_type_id":"4","last_reported":1704265622,"current_range_meters":28400,"station_id":"ce4bh612rcd13ifvqe6g","pricing_plan_id":"free"},{"bike_id":"ea1673b7-eaab-432f-9c68-02e1b0af0dda","system_id":"levelo_inurba_marseille","lat":43.316828,"lon":5.404723,"is_reserved":false,"is_disabled":false,"rental_uris":{"android":"levelo://app?vid=ea1673b7-eaab-432f-9c68-02e1b0af0dda","ios":"levelo://app?vid=ea1673b7-eaab-432f-9c68-02e1b0af0dda"},"vehicle_type_id":"4","last_reported":1704265622,"current_range_meters":30800,"station_id":"ce4bh012rcd13ifvqd00","pricing_plan_id":"free"},{"bike_id":"8c23bd12-4206-4e37-a464-2bd87083e868","system_id":"levelo_inurba_marseille","lat":43.316828,"lon":5.404723,"is_reserved":false,"is_disabled":false,"rental_uris":{"android":"levelo://app?vid=8c23bd12-4206-4e37-a464-2bd87083e868","ios":"levelo://app?vid=8c23bd12-4206-4e37-a464-2bd87083e868"},"vehicle_type_id":"4","last_reported":1704265622,"current_range_meters":29600,"station_id":"ce4bh012rcd13ifvqd00","pricing_plan_id":"free"},{"bike_id":"114e9ed1-9c71-4a83-8298-17c1df66c319","system_id":"levelo_inurba_marseille","lat":43.291994,"lon":5.392907,"is_reserved":false,"is_disabled":false,"rental_uris":{"android":"levelo://app?vid=114e9ed1-9c71-4a83-8298-17c1df66c319","ios":"levelo://app?vid=114e9ed1-9c71-4a83-8298-17c1df66c319"},"vehicle_type_id":"4","last_reported":1704265622,"current_range_meters":29200,"station_id":"ce4bh192rcd13ifvqdd0","pricing_plan_id":"free"},{"bike_id":"bfa114bd-6acc-405c-808d-2c1b1671ef75","system_id":"levelo_inurba_marseille","lat":43.28458,"lon":5.35897,"is_reserved":false,"is_disabled":false,"rental_uris":{"android":"levelo://app?vid=bfa114bd-6acc-405c-808d-2c1b1671ef75","ios":"levelo://app?vid=bfa114bd-6acc-405c-808d-2c1b1671ef75"},"vehicle_type_id":"4","last_reported":1704265622,"current_range_meters":29600,"station_id":"ce4bhah2rcd13ifvqei0","pricing_plan_id":"free"},{"bike_id":"2538e493-5564-4c26-8e5d-8e70dfa83cd0","system_id":"levelo_inurba_marseille","lat":43.2845,"lon":5.35896,"is_reserved":false,"is_disabled":false,"rental_uris":{"android":"levelo://app?vid=2538e493-5564-4c26-8e5d-8e70dfa83cd0","ios":"levelo://app?vid=2538e493-5564-4c26-8e5d-8e70dfa83cd0"},"vehicle_type_id":"4","last_reported":1704265622,"current_range_meters":18000,"station_id":"ce4bhah2rcd13ifvqei0","pricing_plan_id":"free"},{"bike_id":"47264697-73ca-438c-b8e0-0372149d5a67","system_id":"levelo_inurba_marseille","lat":43.309597,"lon":5.406523,"is_reserved":false,"is_disabled":false,"rental_uris":{"android":"levelo://app?vid=47264697-73ca-438c-b8e0-0372149d5a67","ios":"levelo://app?vid=47264697-73ca-438c-b8e0-0372149d5a67"},"vehicle_type_id":"4","last_reported":1704265622,"current_range_meters":18400,"station_id":"","pricing_plan_id":"free"},{"bike_id":"0e825bae-9877-4489-b9ac-78d433b98e8d","system_id":"levelo_inurba_marseille","lat":43.285856,"lon":5.350771,"is_reserved":false,"is_disabled":false,"rental_uris":{"android":"levelo://app?vid=0e825bae-9877-4489-b9ac-78d433b98e8d","ios":"levelo://app?vid=0e825bae-9877-4489-b9ac-78d433b98e8d"},"vehicle_type_id":"4","last_reported":1704265622,"current_range_meters":16400,"station_id":"ce4bhch2rcd13ifvqeug","pricing_plan_id":"free"},{"bike_id":"198a392e-210a-4e60-9ed1-04bec2bff6e0","system_id":"levelo_inurba_marseille","lat":43.2861,"lon":5.351,"is_reserved":false,"is_disabled":false,"rental_uris":{"android":"levelo://app?vid=198a392e-210a-4e60-9ed1-04bec2bff6e0","ios":"levelo://app?vid=198a392e-210a-4e60-9ed1-04bec2bff6e0"},"vehicle_type_id":"4","last_reported":1704265622,"current_range_meters":27600,"station_id":"ce4bhch2rcd13ifvqeug","pricing_plan_id":"free"},{"bike_id":"3e31ef25-cd21-434c-a53a-b2712177cb28","system_id":"levelo_inurba_marseille","lat":43.283998,"lon":5.375062,"is_reserved":false,"is_disabled":false,"rental_uris":{"android":"levelo://app?vid=3e31ef25-cd21-434c-a53a-b2712177cb28","ios":"levelo://app?vid=3e31ef25-cd21-434c-a53a-b2712177cb28"},"vehicle_type_id":"4","last_reported":1704265622,"current_range_meters":30000,"station_id":"ce4bh412rcd13ifvqds0","pricing_plan_id":"free"},{"bike_id":"eb0a7d6e-d090-4ade-92fd-8f9f28934e68","system_id":"levelo_inurba_marseille","lat":43.319179,"lon":5.407725,"is_reserved":false,"is_disabled":false,"rental_uris":{"android":"levelo://app?vid=eb0a7d6e-d090-4ade-92fd-8f9f28934e68","ios":"levelo://app?vid=eb0a7d6e-d090-4ade-92fd-8f9f28934e68"},"vehicle_type_id":"4","last_reported":1704265622,"current_range_meters":15600,"station_id":"ce4bhq12rcd13ifvqhig","pricing_plan_id":"free"},{"bike_id":"541c20ee-763f-4697-b50a-7c17d2dbd70d","system_id":"levelo_inurba_marseille","lat":43.323464,"lon":5.406297,"is_reserved":false,"is_disabled":false,"rental_uris":{"android":"levelo://app?vid=541c20ee-763f-4697-b50a-7c17d2dbd70d","ios":"levelo://app?vid=541c20ee-763f-4697-b50a-7c17d2dbd70d"},"vehicle_type_id":"4","last_reported":1704265622,"current_range_meters":28800,"station_id":"ce4bhq92rcd13ifvqhjg","pricing_plan_id":"free"},{"bike_id":"b318819b-4e1a-40ca-bdee-f143cd78945b","system_id":"levelo_inurba_marseille","lat":43.323464,"lon":5.406297,"is_reserved":false,"is_disabled":false,"rental_uris":{"android":"levelo://app?vid=b318819b-4e1a-40ca-bdee-f143cd78945b","ios":"levelo://app?vid=b318819b-4e1a-40ca-bdee-f143cd78945b"},"vehicle_type_id":"4","last_reported":1704265622,"current_range_meters":8000,"station_id":"ce4bhq92rcd13ifvqhjg","pricing_plan_id":"free"},{"bike_id":"73dcf0f1-cdf8-4d38-ad18-f29bb3ab1578","system_id":"levelo_inurba_marseille","lat":43.323464,"lon":5.406297,"is_reserved":false,"is_disabled":false,"rental_uris":{"android":"levelo://app?vid=73dcf0f1-cdf8-4d38-ad18-f29bb3ab1578","ios":"levelo://app?vid=73dcf0f1-cdf8-4d38-ad18-f29bb3ab1578"},"vehicle_type_id":"4","last_reported":1704265622,"current_range_meters":31600,"station_id":"ce4bhq92rcd13ifvqhjg","pricing_plan_id":"free"},{"bike_id":"cb22166f-f745-45c7-ba04-12949ca802b8","system_id":"levelo_inurba_marseille","lat":43.323464,"lon":5.406297,"is_reserved":false,"is_disabled":false,"rental_uris":{"android":"levelo://app?vid=cb22166f-f745-45c7-ba04-12949ca802b8","ios":"levelo://app?vid=cb22166f-f745-45c7-ba04-12949ca802b8"},"vehicle_type_id":"4","last_reported":1704265622,"current_range_meters":14800,"station_id":"ce4bhq92rcd13ifvqhjg","pricing_plan_id":"free"},{"bike_id":"cceb7d57-b024-4cf4-a504-5b77f5db55c4","system_id":"levelo_inurba_marseille","lat":43.33717,"lon":5.391857,"is_reserved":false,"is_disabled":false,"rental_uris":{"android":"levelo://app?vid=cceb7d57-b024-4cf4-a504-5b77f5db55c4","ios":"levelo://app?vid=cceb7d57-b024-4cf4-a504-5b77f5db55c4"},"vehicle_type_id":"4","last_reported":1704265622,"current_range_meters":30800,"station_id":"ce4bhr92rcd13ifvqhsg","pricing_plan_id":"free"},{"bike_id":"6bc980f9-c371-4f71-b987-8c6f176c2b9e","system_id":"levelo_inurba_marseille","lat":43.3234,"lon":5.40622,"is_reserved":false,"is_disabled":false,"rental_uris":{"android":"levelo://app?vid=6bc980f9-c371-4f71-b987-8c6f176c2b9e","ios":"levelo://app?vid=6bc980f9-c371-4f71-b987-8c6f176c2b9e"},"vehicle_type_id":"4","last_reported":1704265622,"current_range_meters":23600,"station_id":"ce4bhq92rcd13ifvqhjg","pricing_plan_id":"free"},{"bike_id":"7d50b5d8-000b-43a6-9302-ceda1cfbb99a","system_id":"levelo_inurba_marseille","lat":43.323464,"lon":5.406297,"is_reserved":false,"is_disabled":false,"rental_uris":{"android":"levelo://app?vid=7d50b5d8-000b-43a6-9302-ceda1cfbb99a","ios":"levelo://app?vid=7d50b5d8-000b-43a6-9302-ceda1cfbb99a"},"vehicle_type_id":"4","last_reported":1704265622,"current_range_meters":28000,"station_id":"ce4bhq92rcd13ifvqhjg","pricing_plan_id":"free"},{"bike_id":"1e755e27-5bec-44f5-9bc5-07d1b1956aa6","system_id":"levelo_inurba_marseille","lat":43.297946,"lon":5.404063,"is_reserved":false,"is_disabled":false,"rental_uris":{"android":"levelo://app?vid=1e755e27-5bec-44f5-9bc5-07d1b1956aa6","ios":"levelo://app?vid=1e755e27-5bec-44f5-9bc5-07d1b1956aa6"},"vehicle_type_id":"4","last_reported":1704265622,"current_range_meters":30000,"station_id":"ce4bh112rcd13ifvqd90","pricing_plan_id":"free"},{"bike_id":"5ac14087-94b2-4b9d-b3d8-630fe1c8a268","system_id":"levelo_inurba_marseille","lat":43.29795,"lon":5.404086,"is_reserved":false,"is_disabled":false,"rental_uris":{"android":"levelo://app?vid=5ac14087-94b2-4b9d-b3d8-630fe1c8a268","ios":"levelo://app?vid=5ac14087-94b2-4b9d-b3d8-630fe1c8a268"},"vehicle_type_id":"4","last_reported":1704265622,"current_range_meters":28000,"station_id":"ce4bh112rcd13ifvqd90","pricing_plan_id":"free"},{"bike_id":"98625349-0cbe-473f-acc8-157ee4988fad","system_id":"levelo_inurba_marseille","lat":43.29795,"lon":5.404086,"is_reserved":false,"is_disabled":false,"rental_uris":{"android":"levelo://app?vid=98625349-0cbe-473f-acc8-157ee4988fad","ios":"levelo://app?vid=98625349-0cbe-473f-acc8-157ee4988fad"},"vehicle_type_id":"4","last_reported":1704265622,"current_range_meters":28000,"station_id":"ce4bh112rcd13ifvqd90","pricing_plan_id":"free"},{"bike_id":"2a79f818-bc7a-41ac-aeed-0b0ebf399ae9","system_id":"levelo_inurba_marseille","lat":43.288501,"lon":5.393087,"is_reserved":false,"is_disabled":false,"rental_uris":{"android":"levelo://app?vid=2a79f818-bc7a-41ac-aeed-0b0ebf399ae9","ios":"levelo://app?vid=2a79f818-bc7a-41ac-aeed-0b0ebf399ae9"},"vehicle_type_id":"4","last_reported":1704265622,"current_range_meters":23200,"station_id":"ce4bh2p2rcd13ifvqdi0","pricing_plan_id":"free"},{"bike_id":"4cc32faf-c266-4535-bdff-c42098dbefc9","system_id":"levelo_inurba_marseille","lat":43.322044,"lon":5.407697,"is_reserved":false,"is_disabled":false,"rental_uris":{"android":"levelo://app?vid=4cc32faf-c266-4535-bdff-c42098dbefc9","ios":"levelo://app?vid=4cc32faf-c266-4535-bdff-c42098dbefc9"},"vehicle_type_id":"4","last_reported":1704265622,"current_range_meters":20800,"station_id":"","pricing_plan_id":"free"},{"bike_id":"b98ab3fe-1342-490f-bd4a-3df601268dad","system_id":"levelo_inurba_marseille","lat":43.289363,"lon":5.396322,"is_reserved":false,"is_disabled":false,"rental_uris":{"android":"levelo://app?vid=b98ab3fe-1342-490f-bd4a-3df601268dad","ios":"levelo://app?vid=b98ab3fe-1342-490f-bd4a-3df601268dad"},"vehicle_type_id":"4","last_reported":1704265622,"current_range_meters":24000,"station_id":"ce4bh3h2rcd13ifvqdn0","pricing_plan_id":"free"},{"bike_id":"b0116b6a-0efa-46c3-98c6-2b64b79c1a5c","system_id":"levelo_inurba_marseille","lat":43.289363,"lon":5.396322,"is_reserved":false,"is_disabled":false,"rental_uris":{"android":"levelo://app?vid=b0116b6a-0efa-46c3-98c6-2b64b79c1a5c","ios":"levelo://app?vid=b0116b6a-0efa-46c3-98c6-2b64b79c1a5c"},"vehicle_type_id":"4","last_reported":1704265622,"current_range_meters":30000,"station_id":"ce4bh3h2rcd13ifvqdn0","pricing_plan_id":"free"},{"bike_id":"8db7567b-9ffd-4c50-956c-23e7d6bda0d9","system_id":"levelo_inurba_marseille","lat":43.289363,"lon":5.396322,"is_reserved":false,"is_disabled":false,"rental_uris":{"android":"levelo://app?vid=8db7567b-9ffd-4c50-956c-23e7d6bda0d9","ios":"levelo://app?vid=8db7567b-9ffd-4c50-956c-23e7d6bda0d9"},"vehicle_type_id":"4","last_reported":1704265622,"current_range_meters":30400,"station_id":"ce4bh3h2rcd13ifvqdn0","pricing_plan_id":"free"},{"bike_id":"61102880-c0e4-4d95-bf18-d1c99c75e195","system_id":"levelo_inurba_marseille","lat":43.292724,"lon":5.401131,"is_reserved":false,"is_disabled":false,"rental_uris":{"android":"levelo://app?vid=61102880-c0e4-4d95-bf18-d1c99c75e195","ios":"levelo://app?vid=61102880-c0e4-4d95-bf18-d1c99c75e195"},"vehicle_type_id":"4","last_reported":1704265622,"current_range_meters":28800,"station_id":"ce4bh312rcd13ifvqdk0","pricing_plan_id":"free"},{"bike_id":"89da34f8-7697-4184-b01f-088a7c63af8a","system_id":"levelo_inurba_marseille","lat":43.292724,"lon":5.401131,"is_reserved":false,"is_disabled":false,"rental_uris":{"android":"levelo://app?vid=89da34f8-7697-4184-b01f-088a7c63af8a","ios":"levelo://app?vid=89da34f8-7697-4184-b01f-088a7c63af8a"},"vehicle_type_id":"4","last_reported":1704265622,"current_range_meters":27200,"station_id":"ce4bh312rcd13ifvqdk0","pricing_plan_id":"free"},{"bike_id":"ab9d4a9c-efd8-4545-b839-5befeab3b777","system_id":"levelo_inurba_marseille","lat":43.282744,"lon":5.350533,"is_reserved":false,"is_disabled":false,"rental_uris":{"android":"levelo://app?vid=ab9d4a9c-efd8-4545-b839-5befeab3b777","ios":"levelo://app?vid=ab9d4a9c-efd8-4545-b839-5befeab3b777"},"vehicle_type_id":"4","last_reported":1704265622,"current_range_meters":27600,"station_id":"ce4bhbp2rcd13ifvqerg","pricing_plan_id":"free"},{"bike_id":"54b622f1-e2e8-4b98-924c-408545073c21","system_id":"levelo_inurba_marseille","lat":43.282754,"lon":5.350519,"is_reserved":false,"is_disabled":false,"rental_uris":{"android":"levelo://app?vid=54b622f1-e2e8-4b98-924c-408545073c21","ios":"levelo://app?vid=54b622f1-e2e8-4b98-924c-408545073c21"},"vehicle_type_id":"4","last_reported":1704265622,"current_range_meters":27200,"station_id":"ce4bhbp2rcd13ifvqerg","pricing_plan_id":"free"},{"bike_id":"df0f14fb-edd3-4ab0-a4eb-d67c459288ef","system_id":"levelo_inurba_marseille","lat":43.282744,"lon":5.350533,"is_reserved":false,"is_disabled":false,"rental_uris":{"android":"levelo://app?vid=df0f14fb-edd3-4ab0-a4eb-d67c459288ef","ios":"levelo://app?vid=df0f14fb-edd3-4ab0-a4eb-d67c459288ef"},"vehicle_type_id":"4","last_reported":1704265622,"current_range_meters":27200,"station_id":"ce4bhbp2rcd13ifvqerg","pricing_plan_id":"free"},{"bike_id":"693ba94e-1482-4072-a6ab-3d5f90288879","system_id":"levelo_inurba_marseille","lat":43.282754,"lon":5.350519,"is_reserved":false,"is_disabled":false,"rental_uris":{"android":"levelo://app?vid=693ba94e-1482-4072-a6ab-3d5f90288879","ios":"levelo://app?vid=693ba94e-1482-4072-a6ab-3d5f90288879"},"vehicle_type_id":"4","last_reported":1704265622,"current_range_meters":31200,"station_id":"ce4bhbp2rcd13ifvqerg","pricing_plan_id":"free"},{"bike_id":"14ec941f-3661-4284-bdf1-99101e6b6bd8","system_id":"levelo_inurba_marseille","lat":43.282744,"lon":5.350533,"is_reserved":false,"is_disabled":false,"rental_uris":{"android":"levelo://app?vid=14ec941f-3661-4284-bdf1-99101e6b6bd8","ios":"levelo://app?vid=14ec941f-3661-4284-bdf1-99101e6b6bd8"},"vehicle_type_id":"4","last_reported":1704265622,"current_range_meters":12800,"station_id":"ce4bhbp2rcd13ifvqerg","pricing_plan_id":"free"},{"bike_id":"100be469-38fc-43c0-9f55-75ce2b71787b","system_id":"levelo_inurba_marseille","lat":43.280382,"lon":5.369291,"is_reserved":false,"is_disabled":false,"rental_uris":{"android":"levelo://app?vid=100be469-38fc-43c0-9f55-75ce2b71787b","ios":"levelo://app?vid=100be469-38fc-43c0-9f55-75ce2b71787b"},"vehicle_type_id":"4","last_reported":1704265622,"current_range_meters":10800,"station_id":"ce4bha12rcd13ifvqef0","pricing_plan_id":"free"},{"bike_id":"834bc26d-d583-4f83-857d-7797339d2887","system_id":"levelo_inurba_marseille","lat":43.280382,"lon":5.369291,"is_reserved":false,"is_disabled":false,"rental_uris":{"android":"levelo://app?vid=834bc26d-d583-4f83-857d-7797339d2887","ios":"levelo://app?vid=834bc26d-d583-4f83-857d-7797339d2887"},"vehicle_type_id":"4","last_reported":1704265622,"current_range_meters":31600,"station_id":"ce4bha12rcd13ifvqef0","pricing_plan_id":"free"},{"bike_id":"488113fb-1bbe-4a09-b2c2-26bc0753011d","system_id":"levelo_inurba_marseille","lat":43.280382,"lon":5.369291,"is_reserved":false,"is_disabled":false,"rental_uris":{"android":"levelo://app?vid=488113fb-1bbe-4a09-b2c2-26bc0753011d","ios":"levelo://app?vid=488113fb-1bbe-4a09-b2c2-26bc0753011d"},"vehicle_type_id":"4","last_reported":1704265622,"current_range_meters":31600,"station_id":"ce4bha12rcd13ifvqef0","pricing_plan_id":"free"},{"bike_id":"7d764873-173c-4fb5-94c0-5cd34ee1d3cb","system_id":"levelo_inurba_marseille","lat":43.29041,"lon":5.399634,"is_reserved":false,"is_disabled":false,"rental_uris":{"android":"levelo://app?vid=7d764873-173c-4fb5-94c0-5cd34ee1d3cb","ios":"levelo://app?vid=7d764873-173c-4fb5-94c0-5cd34ee1d3cb"},"vehicle_type_id":"4","last_reported":1704265622,"current_range_meters":4800,"station_id":"ce4bh392rcd13ifvqdm0","pricing_plan_id":"free"},{"bike_id":"e7df4b96-71b7-480f-b1ea-d9cd759592bf","system_id":"levelo_inurba_marseille","lat":43.28568,"lon":5.394969,"is_reserved":false,"is_disabled":false,"rental_uris":{"android":"levelo://app?vid=e7df4b96-71b7-480f-b1ea-d9cd759592bf","ios":"levelo://app?vid=e7df4b96-71b7-480f-b1ea-d9cd759592bf"},"vehicle_type_id":"4","last_reported":1704265622,"current_range_meters":26800,"station_id":"ce4bh292rcd13ifvqdg0","pricing_plan_id":"free"},{"bike_id":"48def0f2-45b7-42d5-84f4-031c97a930ee","system_id":"levelo_inurba_marseille","lat":43.326605,"lon":5.409903,"is_reserved":false,"is_disabled":false,"rental_uris":{"android":"levelo://app?vid=48def0f2-45b7-42d5-84f4-031c97a930ee","ios":"levelo://app?vid=48def0f2-45b7-42d5-84f4-031c97a930ee"},"vehicle_type_id":"4","last_reported":1704265622,"current_range_meters":24400,"station_id":"ce4bhpp2rcd13ifvqhgg","pricing_plan_id":"free"},{"bike_id":"1b388849-2476-4bc8-a56d-7ce92d9a55b7","system_id":"levelo_inurba_marseille","lat":43.326605,"lon":5.409903,"is_reserved":false,"is_disabled":false,"rental_uris":{"android":"levelo://app?vid=1b388849-2476-4bc8-a56d-7ce92d9a55b7","ios":"levelo://app?vid=1b388849-2476-4bc8-a56d-7ce92d9a55b7"},"vehicle_type_id":"4","last_reported":1704265622,"current_range_meters":31200,"station_id":"ce4bhpp2rcd13ifvqhgg","pricing_plan_id":"free"},{"bike_id":"a4d23897-f53a-4d1b-a874-454212f50137","system_id":"levelo_inurba_marseille","lat":43.304188,"lon":5.412904,"is_reserved":false,"is_disabled":false,"rental_uris":{"android":"levelo://app?vid=a4d23897-f53a-4d1b-a874-454212f50137","ios":"levelo://app?vid=a4d23897-f53a-4d1b-a874-454212f50137"},"vehicle_type_id":"4","last_reported":1704265622,"current_range_meters":31200,"station_id":"ce4bhop2rcd13ifvqh8g","pricing_plan_id":"free"},{"bike_id":"ce388a99-2ab1-41b7-ae86-b40c471c3cbf","system_id":"levelo_inurba_marseille","lat":43.304188,"lon":5.412904,"is_reserved":false,"is_disabled":false,"rental_uris":{"android":"levelo://app?vid=ce388a99-2ab1-41b7-ae86-b40c471c3cbf","ios":"levelo://app?vid=ce388a99-2ab1-41b7-ae86-b40c471c3cbf"},"vehicle_type_id":"4","last_reported":1704265622,"current_range_meters":27600,"station_id":"ce4bhop2rcd13ifvqh8g","pricing_plan_id":"free"},{"bike_id":"b8519765-aa1f-434c-acd0-1e71d4e793d5","system_id":"levelo_inurba_marseille","lat":43.287154,"lon":5.399979,"is_reserved":false,"is_disabled":false,"rental_uris":{"android":"levelo://app?vid=b8519765-aa1f-434c-acd0-1e71d4e793d5","ios":"levelo://app?vid=b8519765-aa1f-434c-acd0-1e71d4e793d5"},"vehicle_type_id":"4","last_reported":1704265622,"current_range_meters":26800,"station_id":"ce4bho92rcd13ifvqh3g","pricing_plan_id":"free"},{"bike_id":"a1226994-5296-4cbb-9a14-20f50e54cfe5","system_id":"levelo_inurba_marseille","lat":43.320045,"lon":5.415046,"is_reserved":false,"is_disabled":false,"rental_uris":{"android":"levelo://app?vid=a1226994-5296-4cbb-9a14-20f50e54cfe5","ios":"levelo://app?vid=a1226994-5296-4cbb-9a14-20f50e54cfe5"},"vehicle_type_id":"4","last_reported":1704265622,"current_range_meters":20800,"station_id":"ce4bhq92rcd13ifvqhkg","pricing_plan_id":"free"},{"bike_id":"1d7d0b44-395f-4e21-af9d-8af1ed86a5aa","system_id":"levelo_inurba_marseille","lat":43.299579,"lon":5.413255,"is_reserved":false,"is_disabled":false,"rental_uris":{"android":"levelo://app?vid=1d7d0b44-395f-4e21-af9d-8af1ed86a5aa","ios":"levelo://app?vid=1d7d0b44-395f-4e21-af9d-8af1ed86a5aa"},"vehicle_type_id":"4","last_reported":1704265622,"current_range_meters":26000,"station_id":"ce4bhp12rcd13ifvqh9g","pricing_plan_id":"free"},{"bike_id":"9e17e7de-3300-4b63-83af-bb74d7486da4","system_id":"levelo_inurba_marseille","lat":43.320045,"lon":5.415048,"is_reserved":false,"is_disabled":false,"rental_uris":{"android":"levelo://app?vid=9e17e7de-3300-4b63-83af-bb74d7486da4","ios":"levelo://app?vid=9e17e7de-3300-4b63-83af-bb74d7486da4"},"vehicle_type_id":"4","last_reported":1704265622,"current_range_meters":15200,"station_id":"ce4bhq92rcd13ifvqhkg","pricing_plan_id":"free"},{"bike_id":"0a8a2f9d-13d0-48bf-932a-df05b87ffd24","system_id":"levelo_inurba_marseille","lat":43.279742,"lon":5.38744,"is_reserved":false,"is_disabled":false,"rental_uris":{"android":"levelo://app?vid=0a8a2f9d-13d0-48bf-932a-df05b87ffd24","ios":"levelo://app?vid=0a8a2f9d-13d0-48bf-932a-df05b87ffd24"},"vehicle_type_id":"4","last_reported":1704265622,"current_range_meters":30800,"station_id":"ce4bhg12rcd13ifvqf80","pricing_plan_id":"free"},{"bike_id":"7cf60dfe-183f-48b5-af59-fe1523551b1e","system_id":"levelo_inurba_marseille","lat":43.320045,"lon":5.415046,"is_reserved":false,"is_disabled":false,"rental_uris":{"android":"levelo://app?vid=7cf60dfe-183f-48b5-af59-fe1523551b1e","ios":"levelo://app?vid=7cf60dfe-183f-48b5-af59-fe1523551b1e"},"vehicle_type_id":"4","last_reported":1704265622,"current_range_meters":12400,"station_id":"ce4bhq92rcd13ifvqhkg","pricing_plan_id":"free"},{"bike_id":"ea7256cd-39b7-4171-9712-7009479e013c","system_id":"levelo_inurba_marseille","lat":43.279742,"lon":5.38744,"is_reserved":false,"is_disabled":false,"rental_uris":{"android":"levelo://app?vid=ea7256cd-39b7-4171-9712-7009479e013c","ios":"levelo://app?vid=ea7256cd-39b7-4171-9712-7009479e013c"},"vehicle_type_id":"4","last_reported":1704265622,"current_range_meters":20800,"station_id":"ce4bhg12rcd13ifvqf80","pricing_plan_id":"free"},{"bike_id":"b7d7de47-400e-439b-9d5a-f8383c96d392","system_id":"levelo_inurba_marseille","lat":43.292571,"lon":5.409107,"is_reserved":false,"is_disabled":false,"rental_uris":{"android":"levelo://app?vid=b7d7de47-400e-439b-9d5a-f8383c96d392","ios":"levelo://app?vid=b7d7de47-400e-439b-9d5a-f8383c96d392"},"vehicle_type_id":"4","last_reported":1704265622,"current_range_meters":24400,"station_id":"ce4bh192rcd13ifvqdc0","pricing_plan_id":"free"},{"bike_id":"2f07b6ec-cb19-4393-848e-201add03b747","system_id":"levelo_inurba_marseille","lat":43.280784,"lon":5.396622,"is_reserved":false,"is_disabled":false,"rental_uris":{"android":"levelo://app?vid=2f07b6ec-cb19-4393-848e-201add03b747","ios":"levelo://app?vid=2f07b6ec-cb19-4393-848e-201add03b747"},"vehicle_type_id":"4","last_reported":1704265622,"current_range_meters":31600,"station_id":"ce4bho12rcd13ifvqh2g","pricing_plan_id":"free"},{"bike_id":"e18e35c0-6f19-4e48-8d4c-18d6a8383f4d","system_id":"levelo_inurba_marseille","lat":43.28081,"lon":5.39668,"is_reserved":false,"is_disabled":false,"rental_uris":{"android":"levelo://app?vid=e18e35c0-6f19-4e48-8d4c-18d6a8383f4d","ios":"levelo://app?vid=e18e35c0-6f19-4e48-8d4c-18d6a8383f4d"},"vehicle_type_id":"4","last_reported":1704265622,"current_range_meters":18400,"station_id":"ce4bho12rcd13ifvqh2g","pricing_plan_id":"free"},{"bike_id":"0930ded4-b8d4-466a-8481-195062b6f2d8","system_id":"levelo_inurba_marseille","lat":43.280784,"lon":5.396622,"is_reserved":false,"is_disabled":false,"rental_uris":{"android":"levelo://app?vid=0930ded4-b8d4-466a-8481-195062b6f2d8","ios":"levelo://app?vid=0930ded4-b8d4-466a-8481-195062b6f2d8"},"vehicle_type_id":"4","last_reported":1704265622,"current_range_meters":30800,"station_id":"ce4bho12rcd13ifvqh2g","pricing_plan_id":"free"},{"bike_id":"2a7aff35-34cf-41fb-8de1-96339215a68b","system_id":"levelo_inurba_marseille","lat":43.303837,"lon":5.418724,"is_reserved":false,"is_disabled":false,"rental_uris":{"android":"levelo://app?vid=2a7aff35-34cf-41fb-8de1-96339215a68b","ios":"levelo://app?vid=2a7aff35-34cf-41fb-8de1-96339215a68b"},"vehicle_type_id":"4","last_reported":1704265622,"current_range_meters":28800,"station_id":"ce4bhop2rcd13ifvqh7g","pricing_plan_id":"free"},{"bike_id":"de8074ca-03c8-4872-bfee-fbeb1f45b0e8","system_id":"levelo_inurba_marseille","lat":43.276771,"lon":5.388799,"is_reserved":false,"is_disabled":false,"rental_uris":{"android":"levelo://app?vid=de8074ca-03c8-4872-bfee-fbeb1f45b0e8","ios":"levelo://app?vid=de8074ca-03c8-4872-bfee-fbeb1f45b0e8"},"vehicle_type_id":"4","last_reported":1704265622,"current_range_meters":28800,"station_id":"ce4bhi12rcd13ifvqfo0","pricing_plan_id":"free"},{"bike_id":"add0c299-5982-42dc-a830-e842d62b7481","system_id":"levelo_inurba_marseille","lat":43.336134,"lon":5.410341,"is_reserved":false,"is_disabled":false,"rental_uris":{"android":"levelo://app?vid=add0c299-5982-42dc-a830-e842d62b7481","ios":"levelo://app?vid=add0c299-5982-42dc-a830-e842d62b7481"},"vehicle_type_id":"4","last_reported":1704265622,"current_range_meters":24400,"station_id":"ce4bhqh2rcd13ifvqhmg","pricing_plan_id":"free"},{"bike_id":"135de8d1-b503-4df4-8fa5-bf7f66b0e23c","system_id":"levelo_inurba_marseille","lat":43.336134,"lon":5.410341,"is_reserved":false,"is_disabled":false,"rental_uris":{"android":"levelo://app?vid=135de8d1-b503-4df4-8fa5-bf7f66b0e23c","ios":"levelo://app?vid=135de8d1-b503-4df4-8fa5-bf7f66b0e23c"},"vehicle_type_id":"4","last_reported":1704265622,"current_range_meters":12000,"station_id":"ce4bhqh2rcd13ifvqhmg","pricing_plan_id":"free"},