{"last_updated":1730412490,"ttl":60,"version":"2.2","data":{"bikes":[{"bike_id":"4619a927-69f6-4e40-aea7-50e83b0fe185","system_id":"levelo_inurba_marseille","lat":43.32475,"lon":5.36552,"is_reserved":false,"is_disabled":false,"rental_uris":{"android":"levelo://app?vid=4619a927-69f6-4e40-aea7-50e83b0fe185","ios":"levelo://app?vid=4619a927-69f6-4e40-aea7-50e83b0fe185"},"vehicle_type_id":"4","last_reported":1730412490,"current_range_meters":12400,"station_id":"ce4bhs12rcd13ifvqhvg","pricing_plan_id":"cebpf4jnsgd1na2vs0mg"},{"bike_id":"c09d6211-a761-4d74-b22a-b4f5b52eb9ff","system_id":"levelo_inurba_marseille","lat":43.24664,"lon":5.38161,"is_reserved":false,"is_disabled":false,"rental_uris":{"android":"levelo://app?vid=c09d6211-a761-4d74-b22a-b4f5b52eb9ff","ios":"levelo://app?vid=c09d6211-a761-4d74-b22a-b4f5b52eb9ff"},"vehicle_type_id":"4","last_reported":1730412490,"current_range_meters":37600,"station_id":"ce4bhih2rcd13ifvqfr0","pricing_plan_id":"cebpf4jnsgd1na2vs0mg"},{"bike_id":"f3b9c2ac-f7b3-4c79-b081-6f839f877480","system_id":"levelo_inurba_marseille","lat":43.29967,"lon":5.3849,"is_reserved":false,"is_disabled":false,"rental_uris":{"android":"levelo://app?vid=f3b9c2ac-f7b3-4c79-b081-6f839f877480","ios":"levelo://app?vid=f3b9c2ac-f7b3-4c79-b081-6f839f877480"},"vehicle_type_id":"4","last_reported":1730412490,"current_range_meters":11600,"station_id":"ce4bgj92rcd13ifvqbd0","pricing_plan_id":"cebpf4jnsgd1na2vs0mg"},{"bike_id":"7e60e73e-d7ec-4efb-b579-089d6a348eca","system_id":"levelo_inurba_marseille","lat":43.28719,"lon":5.37933,"is_reserved":false,"is_disabled":false,"rental_uris":{"android":"levelo://app?vid=7e60e73e-d7ec-4efb-b579-089d6a348eca","ios":"levelo://app?vid=7e60e73e-d7ec-4efb-b579-089d6a348eca"},"vehicle_type_id":"4","last_reported":1730412490,"current_range_meters":38800,"station_id":"ce4bh9p2rcd13ifvqec0","pricing_plan_id":"cebpf4jnsgd1na2vs0mg"},{"bike_id":"3a419e18-a5e0-4d2f-bfb2-e7af1668e2fd","system_id":"levelo_inurba_marseille","lat":43.30146,"lon":5.38083,"is_reserved":false,"is_disabled":false,"rental_uris":{"android":"levelo://app?vid=3a419e18-a5e0-4d2f-bfb2-e7af1668e2fd","ios":"levelo://app?vid=3a419e18-a5e0-4d2f-bfb2-e7af1668e2fd"},"vehicle_type_id":"4","last_reported":1730412490,"current_range_meters":31200,"station_id":"ce4bgjp2rcd13ifvqbh0","pricing_plan_id":"cebpf4jnsgd1na2vs0mg"},{"bike_id":"57faee49-c017-401f-82e0-d71865a07812","system_id":"levelo_inurba_marseille","lat":43.28721,"lon":5.37931,"is_reserved":false,"is_disabled":false,"rental_uris":{"android":"levelo://app?vid=57faee49-c017-401f-82e0-d71865a07812","ios":"levelo://app?vid=57faee49-c017-401f-82e0-d71865a07812"},"vehicle_type_id":"4","last_reported":1730412490,"current_range_meters":38000,"station_id":"ce4bh9p2rcd13ifvqec0","pricing_plan_id":"cebpf4jnsgd1na2vs0mg"},{"bike_id":"b564d8bc-2b59-43dd-ad25-39bd7cd1e42e","system_id":"levelo_inurba_marseille","lat":43.31712,"lon":5.37759,"is_reserved":false,"is_disabled":false,"rental_uris":{"android":"levelo://app?vid=b564d8bc-2b59-43dd-ad25-39bd7cd1e42e","ios":"levelo://app?vid=b564d8bc-2b59-43dd-ad25-39bd7cd1e42e"},"vehicle_type_id":"4","last_reported":1730412490,"current_range_meters":10000,"station_id":"ce4bgth2rcd13ifvqch0","pricing_plan_id":"cebpf4jnsgd1na2vs0mg"},{"bike_id":"b7e7f622-ddf0-46d8-b0d8-1b5dbc838ad3","system_id":"levelo_inurba_marseille","lat":43.29022,"lon":5.38138,"is_reserved":false,"is_disabled":false,"rental_uris":{"android":"levelo://app?vid=b7e7f622-ddf0-46d8-b0d8-1b5dbc838ad3","ios":"levelo://app?vid=b7e7f622-ddf0-46d8-b0d8-1b5dbc838ad3"},"vehicle_type_id":"4","last_reported":1730412490,"current_range_meters":38800,"station_id":"ce4bh4p2rcd13ifvqe1g","pricing_plan_id":"cebpf4jnsgd1na2vs0mg"},{"bike_id":"c3be5043-a701-47b6-a4a8-6ff005ff82de","system_id":"levelo_inurba_marseille","lat":43.31714,"lon":5.43709,"is_reserved":false,"is_disabled":false,"rental_uris":{"android":"levelo://app?vid=c3be5043-a701-47b6-a4a8-6ff005ff82de","ios":"levelo://app?vid=c3be5043-a701-47b6-a4a8-6ff005ff82de"},"vehicle_type_id":"4","last_reported":1730412490,"current_range_meters":22400,"station_id":"ce4bhp92rcd13ifvqhcg","pricing_plan_id":"cebpf4jnsgd1na2vs0mg"},{"bike_id":"ccdf8f45-f2e1-46e2-b932-c9192ef53d45","system_id":"levelo_inurba_marseille","lat":43.28435,"lon":5.3919,"is_reserved":false,"is_disabled":false,"rental_uris":{"android":"levelo://app?vid=ccdf8f45-f2e1-46e2-b932-c9192ef53d45","ios":"levelo://app?vid=ccdf8f45-f2e1-46e2-b932-c9192ef53d45"},"vehicle_type_id":"4","last_reported":1730412490,"current_range_meters":18800,"station_id":"ce4bhoh2rcd13ifvqh5g","pricing_plan_id":"cebpf4jnsgd1na2vs0mg"},{"bike_id":"6d5f036e-7e12-430a-9fc6-8d070be6dbb4","system_id":"levelo_inurba_marseille","lat":43.292599,"lon":5.384358,"is_reserved":false,"is_disabled":false,"rental_uris":{"android":"levelo://app?vid=6d5f036e-7e12-430a-9fc6-8d070be6dbb4","ios":"levelo://app?vid=6d5f036e-7e12-430a-9fc6-8d070be6dbb4"},"vehicle_type_id":"4","last_reported":1730412490,"current_range_meters":4400,"station_id":"ce4bh692rcd13ifvqea0","pricing_plan_id":"cebpf4jnsgd1na2vs0mg"},{"bike_id":"a4627486-a087-47d1-bdea-e9476cd49986","system_id":"levelo_inurba_marseille","lat":43.23197,"lon":5.35546,"is_reserved":false,"is_disabled":false,"rental_uris":{"android":"levelo://app?vid=a4627486-a087-47d1-bdea-e9476cd49986","ios":"levelo://app?vid=a4627486-a087-47d1-bdea-e9476cd49986"},"vehicle_type_id":"4","last_reported":1730412490,"current_range_meters":35600,"station_id":"ce4bhu92rcd13ifvqi70","pricing_plan_id":"cebpf4jnsgd1na2vs0mg"},{"bike_id":"55dab1c5-8299-4ba5-b0e5-ab02ab9376bc","system_id":"levelo_inurba_marseille","lat":43.24177,"lon":5.3973,"is_reserved":false,"is_disabled":false,"rental_uris":{"android":"levelo://app?vid=55dab1c5-8299-4ba5-b0e5-ab02ab9376bc","ios":"levelo://app?vid=55dab1c5-8299-4ba5-b0e5-ab02ab9376bc"},"vehicle_type_id":"4","last_reported":1730412490,"current_range_meters":22800,"station_id":"ce4bhn12rcd13ifvqgpg","pricing_plan_id":"cebpf4jnsgd1na2vs0mg"},{"bike_id":"509a9bdc-ca48-4855-8040-748bb9b3087b","system_id":"levelo_inurba_marseille","lat":43.25936,"lon":5.40901,"is_reserved":false,"is_disabled":false,"rental_uris":{"android":"levelo://app?vid=509a9bdc-ca48-4855-8040-748bb9b3087b","ios":"levelo://app?vid=509a9bdc-ca48-4855-8040-748bb9b3087b"},"vehicle_type_id":"4","last_reported":1730412490,"current_range_meters":31200,"station_id":"ce4bhm92rcd13ifvqglg","pricing_plan_id":"cebpf4jnsgd1na2vs0mg"},{"bike_id":"209a2144-1436-4891-b7dd-3a92718302e8","system_id":"levelo_inurba_marseille","lat":43.29776,"lon":5.37396,"is_reserved":false,"is_disabled":false,"rental_uris":{"android":"levelo://app?vid=209a2144-1436-4891-b7dd-3a92718302e8","ios":"levelo://app?vid=209a2144-1436-4891-b7dd-3a92718302e8"},"vehicle_type_id":"4","last_reported":1730412490,"current_range_meters":20800,"station_id":"","pricing_plan_id":"cebpf4jnsgd1na2vs0mg"},{"bike_id":"cf851bc5-77be-4d48-9a32-b5c7071a3e42","system_id":"levelo_inurba_marseille","lat":43.23301,"lon":5.36461,"is_reserved":false,"is_disabled":false,"rental_uris":{"android":"levelo://app?vid=cf851bc5-77be-4d48-9a32-b5c7071a3e42","ios":"levelo://app?vid=cf851bc5-77be-4d48-9a32-b5c7071a3e42"},"vehicle_type_id":"4","last_reported":1730412490,"current_range_meters":17200,"station_id":"","pricing_plan_id":"cebpf4jnsgd1na2vs0mg"},{"bike_id":"61a17217-866a-45e4-ad7d-ed917d0d9903","system_id":"levelo_inurba_marseille","lat":43.295359,"lon":5.385404,"is_reserved":false,"is_disabled":false,"rental_uris":{"android":"levelo://app?vid=61a17217-866a-45e4-ad7d-ed917d0d9903","ios":"levelo://app?vid=61a17217-866a-45e4-ad7d-ed917d0d9903"},"vehicle_type_id":"4","last_reported":1730412490,"current_range_meters":36800,"station_id":"ce4bgih2rcd13ifvqba0","pricing_plan_id":"cebpf4jnsgd1na2vs0mg"},{"bike_id":"efbe383f-83c6-4df5-ac1f-ffa8f2e0197b","system_id":"levelo_inurba_marseille","lat":43.31329,"lon":5.39694,"is_reserved":false,"is_disabled":false,"rental_uris":{"android":"levelo://app?vid=efbe383f-83c6-4df5-ac1f-ffa8f2e0197b","ios":"levelo://app?vid=efbe383f-83c6-4df5-ac1f-ffa8f2e0197b"},"vehicle_type_id":"4","last_reported":1730412490,"current_range_meters":14000,"station_id":"ce4bgvp2rcd13ifvqcu0","pricing_plan_id":"cebpf4jnsgd1na2vs0mg"},{"bike_id":"b9e2d373-b9a4-4275-a922-2279b093e808","system_id":"levelo_inurba_marseille","lat":43.32661,"lon":5.40993,"is_reserved":false,"is_disabled":false,"rental_uris":{"android":"levelo://app?vid=b9e2d373-b9a4-4275-a922-2279b093e808","ios":"levelo://app?vid=b9e2d373-b9a4-4275-a922-2279b093e808"},"vehicle_type_id":"4","last_reported":1730412490,"current_range_meters":25600,"station_id":"ce4bhpp2rcd13ifvqhgg","pricing_plan_id":"cebpf4jnsgd1na2vs0mg"},{"bike_id":"346253b2-bc8a-459b-9780-8c87c73028fa","system_id":"levelo_inurba_marseille","lat":43.26688,"lon":5.3826,"is_reserved":false,"is_disabled":false,"rental_uris":{"android":"levelo://app?vid=346253b2-bc8a-459b-9780-8c87c73028fa","ios":"levelo://app?vid=346253b2-bc8a-459b-9780-8c87c73028fa"},"vehicle_type_id":"4","last_reported":1730412490,"current_range_meters":28400,"station_id":"ce4bhg92rcd13ifvqf90","pricing_plan_id":"cebpf4jnsgd1na2vs0mg"},{"bike_id":"9f97d214-e97e-4089-9432-ff3b0289936c","system_id":"levelo_inurba_marseille","lat":43.28466,"lon":5.35884,"is_reserved":false,"is_disabled":false,"rental_uris":{"android":"levelo://app?vid=9f97d214-e97e-4089-9432-ff3b0289936c","ios":"levelo://app?vid=9f97d214-e97e-4089-9432-ff3b0289936c"},"vehicle_type_id":"4","last_reported":1730412490,"current_range_meters":36800,"station_id":"ce4bhah2rcd13ifvqei0","pricing_plan_id":"cebpf4jnsgd1na2vs0mg"},{"bike_id":"c877f25d-7701-4526-b4eb-1b351133f6e9","system_id":"levelo_inurba_marseille","lat":43.29524,"lon":5.38538,"is_reserved":false,"is_disabled":false,"rental_uris":{"android":"levelo://app?vid=c877f25d-7701-4526-b4eb-1b351133f6e9","ios":"levelo://app?vid=c877f25d-7701-4526-b4eb-1b351133f6e9"},"vehicle_type_id":"4","last_reported":1730412490,"current_range_meters":20000,"station_id":"ce4bgih2rcd13ifvqba0","pricing_plan_id":"cebpf4jnsgd1na2vs0mg"},{"bike_id":"0ef2288d-c1a0-42eb-8866-32f573819d65","system_id":"levelo_inurba_marseille","lat":43.299591,"lon":5.384794,"is_reserved":false,"is_disabled":false,"rental_uris":{"android":"levelo://app?vid=0ef2288d-c1a0-42eb-8866-32f573819d65","ios":"levelo://app?vid=0ef2288d-c1a0-42eb-8866-32f573819d65"},"vehicle_type_id":"4","last_reported":1730412490,"current_range_meters":38000,"station_id":"ce4bgj92rcd13ifvqbd0","pricing_plan_id":"cebpf4jnsgd1na2vs0mg"},{"bike_id":"7022c03f-786d-431a-ac1b-2e29cbc5d392","system_id":"levelo_inurba_marseille","lat":43.30434,"lon":5.38897,"is_reserved":false,"is_disabled":false,"rental_uris":{"android":"levelo://app?vid=7022c03f-786d-431a-ac1b-2e29cbc5d392","ios":"levelo://app?vid=7022c03f-786d-431a-ac1b-2e29cbc5d392"},"vehicle_type_id":"4","last_reported":1730412490,"current_range_meters":18800,"station_id":"ce4bgk12rcd13ifvqbi0","pricing_plan_id":"cebpf4jnsgd1na2vs0mg"},{"bike_id":"8d88c7eb-6edd-4af4-a561-987ac0a8b767","system_id":"levelo_inurba_marseille","lat":43.272,"lon":5.39187,"is_reserved":false,"is_disabled":false,"rental_uris":{"android":"levelo://app?vid=8d88c7eb-6edd-4af4-a561-987ac0a8b767","ios":"levelo://app?vid=8d88c7eb-6edd-4af4-a561-987ac0a8b767"},"vehicle_type_id":"4","last_reported":1730412490,"current_range_meters":24800,"station_id":"ce4bhhp2rcd13ifvqfm0","pricing_plan_id":"cebpf4jnsgd1na2vs0mg"},{"bike_id":"43611269-a215-477e-8054-74e6555c43fe","system_id":"levelo_inurba_marseille","lat":43.2762,"lon":5.36109,"is_reserved":false,"is_disabled":false,"rental_uris":{"android":"levelo://app?vid=43611269-a215-477e-8054-74e6555c43fe","ios":"levelo://app?vid=43611269-a215-477e-8054-74e6555c43fe"},"vehicle_type_id":"4","last_reported":1730412490,"current_range_meters":14000,"station_id":"ce4bgj92rcd13ifvqbe0","pricing_plan_id":"cebpf4jnsgd1na2vs0mg"},{"bike_id":"98e591af-1b37-4791-81f8-0a1125c50536","system_id":"levelo_inurba_marseille","lat":43.26201,"lon":5.37928,"is_reserved":false,"is_disabled":false,"rental_uris":{"android":"levelo://app?vid=98e591af-1b37-4791-81f8-0a1125c50536","ios":"levelo://app?vid=98e591af-1b37-4791-81f8-0a1125c50536"},"vehicle_type_id":"4","last_reported":1730412490,"current_range_meters":29600,"station_id":"ce4bhjp2rcd13ifvqg90","pricing_plan_id":"cebpf4jnsgd1na2vs0mg"},{"bike_id":"2ff296d5-7689-4f1c-9557-487d99cb311f","system_id":"levelo_inurba_marseille","lat":43.30106,"lon":5.39075,"is_reserved":false,"is_disabled":false,"rental_uris":{"android":"levelo://app?vid=2ff296d5-7689-4f1c-9557-487d99cb311f","ios":"levelo://app?vid=2ff296d5-7689-4f1c-9557-487d99cb311f"},"vehicle_type_id":"4","last_reported":1730412490,"current_range_meters":38000,"station_id":"ce4bh192rcd13ifvqdb0","pricing_plan_id":"cebpf4jnsgd1na2vs0mg"},{"bike_id":"3ab642d6-f0e7-4176-9513-7ca2a30a1c90","system_id":"levelo_inurba_marseille","lat":43.33023,"lon":5.39042,"is_reserved":false,"is_disabled":false,"rental_uris":{"android":"levelo://app?vid=3ab642d6-f0e7-4176-9513-7ca2a30a1c90","ios":"levelo://app?vid=3ab642d6-f0e7-4176-9513-7ca2a30a1c90"},"vehicle_type_id":"4","last_reported":1730412490,"current_range_meters":38800,"station_id":"ce4bhr92rcd13ifvqhrg","pricing_plan_id":"cebpf4jnsgd1na2vs0mg"},{"bike_id":"46bf6bfd-a20c-4ee5-8e27-11ec89c15e0f","system_id":"levelo_inurba_marseille","lat":43.31145,"lon":5.37742,"is_reserved":false,"is_disabled":false,"rental_uris":{"android":"levelo://app?vid=46bf6bfd-a20c-4ee5-8e27-11ec89c15e0f","ios":"levelo://app?vid=46bf6bfd-a20c-4ee5-8e27-11ec89c15e0f"},"vehicle_type_id":"4","last_reported":1730412490,"current_range_meters":38800,"station_id":"ce4bgt92rcd13ifvqcg0","pricing_plan_id":"cebpf4jnsgd1na2vs0mg"},{"bike_id":"9113f39f-5c37-4617-80c9-3fc220de532e","system_id":"levelo_inurba_marseille","lat":43.28148,"lon":5.42986,"is_reserved":false,"is_disabled":false,"rental_uris":{"android":"levelo://app?vid=9113f39f-5c37-4617-80c9-3fc220de532e","ios":"levelo://app?vid=9113f39f-5c37-4617-80c9-3fc220de532e"},"vehicle_type_id":"4","last_reported":1730412490,"current_range_meters":6000,"station_id":"","pricing_plan_id":"cebpf4jnsgd1na2vs0mg"},{"bike_id":"8c047285-7075-4daf-8901-faf1065d2964","system_id":"levelo_inurba_marseille","lat":43.28574,"lon":5.38328,"is_reserved":false,"is_disabled":false,"rental_uris":{"android":"levelo://app?vid=8c047285-7075-4daf-8901-faf1065d2964","ios":"levelo://app?vid=8c047285-7075-4daf-8901-faf1065d2964"},"vehicle_type_id":"4","last_reported":1730412490,"current_range_meters":38800,"station_id":"ce4bgrp2rcd13ifvqc9g","pricing_plan_id":"cebpf4jnsgd1na2vs0mg"},{"bike_id":"f8b0c64a-c98d-4010-bbd9-0d1d276b4bd4","system_id":"levelo_inurba_marseille","lat":43.29791,"lon":5.39346,"is_reserved":false,"is_disabled":false,"rental_uris":{"android":"levelo://app?vid=f8b0c64a-c98d-4010-bbd9-0d1d276b4bd4","ios":"levelo://app?vid=f8b0c64a-c98d-4010-bbd9-0d1d276b4bd4"},"vehicle_type_id":"4","last_reported":1730412490,"current_range_meters":21600,"station_id":"chh1huq6cuj3fo74tm60","pricing_plan_id":"cebpf4jnsgd1na2vs0mg"},{"bike_id":"305c3326-55ed-4bf7-a4fc-60bd3d474bf1","system_id":"levelo_inurba_marseille","lat":43.271366,"lon":5.392353,"is_reserved":false,"is_disabled":false,"rental_uris":{"android":"levelo://app?vid=305c3326-55ed-4bf7-a4fc-60bd3d474bf1","ios":"levelo://app?vid=305c3326-55ed-4bf7-a4fc-60bd3d474bf1"},"vehicle_type_id":"4","last_reported":1730412490,"current_range_meters":30000,"station_id":"","pricing_plan_id":"cebpf4jnsgd1na2vs0mg"},{"bike_id":"7dc92ad6-3be4-426e-9950-769ccd94cfcf","system_id":"levelo_inurba_marseille","lat":43.29593,"lon":5.38093,"is_reserved":false,"is_disabled":false,"rental_uris":{"android":"levelo://app?vid=7dc92ad6-3be4-426e-9950-769ccd94cfcf","ios":"levelo://app?vid=7dc92ad6-3be4-426e-9950-769ccd94cfcf"},"vehicle_type_id":"4","last_reported":1730412490,"current_range_meters":38000,"station_id":"ce4bgl12rcd13ifvqbo0","pricing_plan_id":"cebpf4jnsgd1na2vs0mg"},{"bike_id":"6d0518ae-8ff5-4f43-aabf-471cfe97e777","system_id":"levelo_inurba_marseille","lat":43.28567,"lon":5.39501,"is_reserved":false,"is_disabled":false,"rental_uris":{"android":"levelo://app?vid=6d0518ae-8ff5-4f43-aabf-471cfe97e777","ios":"levelo://app?vid=6d0518ae-8ff5-4f43-aabf-471cfe97e777"},"vehicle_type_id":"4","last_reported":1730412490,"current_range_meters":40000,"station_id":"ce4bh292rcd13ifvqdg0","pricing_plan_id":"cebpf4jnsgd1na2vs0mg"},{"bike_id":"aeea1237-3887-42d7-be21-0e7463630790","system_id":"levelo_inurba_marseille","lat":43.23717,"lon":5.4019,"is_reserved":false,"is_disabled":false,"rental_uris":{"android":"levelo://app?vid=aeea1237-3887-42d7-be21-0e7463630790","ios":"levelo://app?vid=aeea1237-3887-42d7-be21-0e7463630790"},"vehicle_type_id":"4","last_reported":1730412490,"current_range_meters":17600,"station_id":"","pricing_plan_id":"cebpf4jnsgd1na2vs0mg"},{"bike_id":"89d995e6-dbe8-49eb-b963-bc7888742db5","system_id":"levelo_inurba_marseille","lat":43.25577,"lon":5.38222,"is_reserved":false,"is_disabled":false,"rental_uris":{"android":"levelo://app?vid=89d995e6-dbe8-49eb-b963-bc7888742db5","ios":"levelo://app?vid=89d995e6-dbe8-49eb-b963-bc7888742db5"},"vehicle_type_id":"4","last_reported":1730412490,"current_range_meters":38800,"station_id":"ce4bhih2rcd13ifvqfs0","pricing_plan_id":"cebpf4jnsgd1na2vs0mg"},{"bike_id":"49e8499a-e1d6-4f8f-a02c-ad5daad14d76","system_id":"levelo_inurba_marseille","lat":43.30911,"lon":5.36842,"is_reserved":false,"is_disabled":false,"rental_uris":{"android":"levelo://app?vid=49e8499a-e1d6-4f8f-a02c-ad5daad14d76","ios":"levelo://app?vid=49e8499a-e1d6-4f8f-a02c-ad5daad14d76"},"vehicle_type_id":"4","last_reported":1730412490,"current_range_meters":36800,"station_id":"ce4bgn92rcd13ifvqbvg","pricing_plan_id":"cebpf4jnsgd1na2vs0mg"},{"bike_id":"fbf552b3-8b90-4c94-a1d3-0f7d0cd207d6","system_id":"levelo_inurba_marseille","lat":43.29423,"lon":5.38603,"is_reserved":false,"is_disabled":false,"rental_uris":{"android":"levelo://app?vid=fbf552b3-8b90-4c94-a1d3-0f7d0cd207d6","ios":"levelo://app?vid=fbf552b3-8b90-4c94-a1d3-0f7d0cd207d6"},"vehicle_type_id":"4","last_reported":1730412490,"current_range_meters":38800,"station_id":"ce4bh2h2rcd13ifvqdh0","pricing_plan_id":"cebpf4jnsgd1na2vs0mg"},{"bike_id":"458ea252-557b-4a8e-a07e-5ee5dcbac059","system_id":"levelo_inurba_marseille","lat":43.29041,"lon":5.35917,"is_reserved":false,"is_disabled":false,"rental_uris":{"android":"levelo://app?vid=458ea252-557b-4a8e-a07e-5ee5dcbac059","ios":"levelo://app?vid=458ea252-557b-4a8e-a07e-5ee5dcbac059"},"vehicle_type_id":"4","last_reported":1730412490,"current_range_meters":38400,"station_id":"ce4bha92rcd13ifvqeg0","pricing_plan_id":"cebpf4jnsgd1na2vs0mg"},{"bike_id":"60b71c7c-4918-47ba-8287-329d23746782","system_id":"levelo_inurba_marseille","lat":43.29896,"lon":5.43662,"is_reserved":false,"is_disabled":false,"rental_uris":{"android":"levelo://app?vid=60b71c7c-4918-47ba-8287-329d23746782","ios":"levelo://app?vid=60b71c7c-4918-47ba-8287-329d23746782"},"vehicle_type_id":"4","last_reported":1730412490,"current_range_meters":36400,"station_id":"ce4bhpp2rcd13ifvqhfg","pricing_plan_id":"cebpf4jnsgd1na2vs0mg"},{"bike_id":"5644894c-cdce-4e76-94df-f900a3ab051d","system_id":"levelo_inurba_marseille","lat":43.27324,"lon":5.39102,"is_reserved":false,"is_disabled":false,"rental_uris":{"android":"levelo://app?vid=5644894c-cdce-4e76-94df-f900a3ab051d","ios":"levelo://app?vid=5644894c-cdce-4e76-94df-f900a3ab051d"},"vehicle_type_id":"4","last_reported":1730412490,"current_range_meters":25200,"station_id":"ce4bhgp2rcd13ifvqfe0","pricing_plan_id":"cebpf4jnsgd1na2vs0mg"},{"bike_id":"b0377714-7a30-49ee-b6c1-7ca6811d5925","system_id":"levelo_inurba_marseille","lat":43.32483,"lon":5.36545,"is_reserved":false,"is_disabled":false,"rental_uris":{"android":"levelo://app?vid=b0377714-7a30-49ee-b6c1-7ca6811d5925","ios":"levelo://app?vid=b0377714-7a30-49ee-b6c1-7ca6811d5925"},"vehicle_type_id":"4","last_reported":1730412490,"current_range_meters":28400,"station_id":"ce4bhs12rcd13ifvqhvg","pricing_plan_id":"cebpf4jnsgd1na2vs0mg"},{"bike_id":"57204d72-5573-4297-b729-82cf6c0bc3e0","system_id":"levelo_inurba_marseille","lat":43.29031,"lon":5.38644,"is_reserved":false,"is_disabled":false,"rental_uris":{"android":"levelo://app?vid=57204d72-5573-4297-b729-82cf6c0bc3e0","ios":"levelo://app?vid=57204d72-5573-4297-b729-82cf6c0bc3e0"},"vehicle_type_id":"4","last_reported":1730412490,"current_range_meters":38800,"station_id":"ce4bh4p2rcd13ifvqe0g","pricing_plan_id":"cebpf4jnsgd1na2vs0mg"},{"bike_id":"69355a51-41a5-4455-b14c-61dd7df03e2c","system_id":"levelo_inurba_marseille","lat":43.3267,"lon":5.38851,"is_reserved":false,"is_disabled":false,"rental_uris":{"android":"levelo://app?vid=69355a51-41a5-4455-b14c-61dd7df03e2c","ios":"levelo://app?vid=69355a51-41a5-4455-b14c-61dd7df03e2c"},"vehicle_type_id":"4","last_reported":1730412490,"current_range_meters":25200,"station_id":"ce4bhr92rcd13ifvqhsg","pricing_plan_id":"cebpf4jnsgd1na2vs0mg"},{"bike_id":"5b621be9-d24c-4967-8509-e48f1738f72c","system_id":"levelo_inurba_marseille","lat":43.2926,"lon":5.38444,"is_reserved":false,"is_disabled":false,"rental_uris":{"android":"levelo://app?vid=5b621be9-d24c-4967-8509-e48f1738f72c","ios":"levelo://app?vid=5b621be9-d24c-4967-8509-e48f1738f72c"},"vehicle_type_id":"4","last_reported":1730412490,"current_range_meters":26800,"station_id":"ce4bh692rcd13ifvqea0","pricing_plan_id":"cebpf4jnsgd1na2vs0mg"},{"bike_id":"020b11d5-6358-46f9-9ffc-1747707bba78","system_id":"levelo_inurba_marseille","lat":43.3199,"lon":5.38148,"is_reserved":false,"is_disabled":false,"rental_uris":{"android":"levelo://app?vid=020b11d5-6358-46f9-9ffc-1747707bba78","ios":"levelo://app?vid=020b11d5-6358-46f9-9ffc-1747707bba78"},"vehicle_type_id":"4","last_reported":1730412490,"current_range_meters":36800,"station_id":"ce4bhr12rcd13ifvqhpg","pricing_plan_id":"cebpf4jnsgd1na2vs0mg"},{"bike_id":"900c8d00-929c-4721-b8b8-ccb2cc8dd117","system_id":"levelo_inurba_marseille","lat":43.30078,"lon":5.38668,"is_reserved":false,"is_disabled":false,"rental_uris":{"android":"levelo://app?vid=900c8d00-929c-4721-b8b8-ccb2cc8dd117","ios":"levelo://app?vid=900c8d00-929c-4721-b8b8-ccb2cc8dd117"},"vehicle_type_id":"4","last_reported":1730412490,"current_range_meters":16400,"station_id":"","pricing_plan_id":"cebpf4jnsgd1na2vs0mg"},{"bike_id":"fece2b4d-5fbc-4072-950a-5fe5acd29804","system_id":"levelo_inurba_marseille","lat":43.29539,"lon":5.38542,"is_reserved":false,"is_disabled":false,"rental_uris":{"android":"levelo://app?vid=fece2b4d-5fbc-4072-950a-5fe5acd29804","ios":"levelo://app?vid=fece2b4d-5fbc-4072-950a-5fe5acd29804"},"vehicle_type_id":"4","last_reported":1730412490,"current_range_meters":14800,"station_id":"ce4bgih2rcd13ifvqba0","pricing_plan_id":"cebpf4jnsgd1na2vs0mg"},{"bike_id":"84098211-d98e-4aba-a423-13b0ea038f67","system_id":"levelo_inurba_marseille","lat":43.29262,"lon":5.38442,"is_reserved":false,"is_disabled":false,"rental_uris":{"android":"levelo://app?vid=84098211-d98e-4aba-a423-13b0ea038f67","ios":"levelo://app?vid=84098211-d98e-4aba-a423-13b0ea038f67"},"vehicle_type_id":"4","last_reported":1730412490,"current_range_meters":38400,"station_id":"ce4bh692rcd13ifvqea0","pricing_plan_id":"cebpf4jnsgd1na2vs0mg"},{"bike_id":"e38eec5c-64c0-4409-939c-bddf4db4df34","system_id":"levelo_inurba_marseille","lat":43.28695,"lon":5.37391,"is_reserved":false,"is_disabled":false,"rental_uris":{"android":"levelo://app?vid=e38eec5c-64c0-4409-939c-bddf4db4df34","ios":"levelo://app?vid=e38eec5c-64c0-4409-939c-bddf4db4df34"},"vehicle_type_id":"4","last_reported":1730412490,"current_range_meters":30800,"station_id":"ce4bh3p2rcd13ifvqdq0","pricing_plan_id":"cebpf4jnsgd1na2vs0mg"},{"bike_id":"435ef0d4-4239-4021-9c0b-b9d7e16f8f03","system_id":"levelo_inurba_marseille","lat":43.29267,"lon":5.38442,"is_reserved":false,"is_disabled":false,"rental_uris":{"android":"levelo://app?vid=435ef0d4-4239-4021-9c0b-b9d7e16f8f03","ios":"levelo://app?vid=435ef0d4-4239-4021-9c0b-b9d7e16f8f03"},"vehicle_type_id":"4","last_reported":1730412490,"current_range_meters":29600,"station_id":"ce4bh692rcd13ifvqea0","pricing_plan_id":"cebpf4jnsgd1na2vs0mg"},{"bike_id":"ceb55059-2562-42a2-9035-244f2e2577c8","system_id":"levelo_inurba_marseille","lat":43.29267,"lon":5.38444,"is_reserved":false,"is_disabled":false,"rental_uris":{"android":"levelo://app?vid=ceb55059-2562-42a2-9035-244f2e2577c8","ios":"levelo://app?vid=ceb55059-2562-42a2-9035-244f2e2577c8"},"vehicle_type_id":"4","last_reported":1730412490,"current_range_meters":8400,"station_id":"ce4bh692rcd13ifvqea0","pricing_plan_id":"cebpf4jnsgd1na2vs0mg"},{"bike_id":"a9bbcbbe-e1bb-449c-adcd-34688245503d","system_id":"levelo_inurba_marseille","lat":43.29527,"lon":5.38532,"is_reserved":false,"is_disabled":false,"rental_uris":{"android":"levelo://app?vid=a9bbcbbe-e1bb-449c-adcd-34688245503d","ios":"levelo://app?vid=a9bbcbbe-e1bb-449c-adcd-34688245503d"},"vehicle_type_id":"4","last_reported":1730412490,"current_range_meters":38800,"station_id":"ce4bgih2rcd13ifvqba0","pricing_plan_id":"cebpf4jnsgd1na2vs0mg"},{"bike_id":"10dd4f0a-3352-467f-bdd2-7b7d82421551","system_id":"levelo_inurba_marseille","lat":43.25726,"lon":5.41115,"is_reserved":false,"is_disabled":false,"rental_uris":{"android":"levelo://app?vid=10dd4f0a-3352-467f-bdd2-7b7d82421551","ios":"levelo://app?vid=10dd4f0a-3352-467f-bdd2-7b7d82421551"},"vehicle_type_id":"4","last_reported":1730412490,"current_range_meters":39200,"station_id":"ce4bhkp2rcd13ifvqgd0","pricing_plan_id":"cebpf4jnsgd1na2vs0mg"},{"bike_id":"1d86639d-224e-4fba-8d73-2dfb4aa18a81","system_id":"levelo_inurba_marseille","lat":43.29787,"lon":5.37099,"is_reserved":false,"is_disabled":false,"rental_uris":{"android":"levelo://app?vid=1d86639d-224e-4fba-8d73-2dfb4aa18a81","ios":"levelo://app?vid=1d86639d-224e-4fba-8d73-2dfb4aa18a81"},"vehicle_type_id":"4","last_reported":1730412490,"current_range_meters":12800,"station_id":"ce4bgop2rcd13ifvqc1g","pricing_plan_id":"cebpf4jnsgd1na2vs0mg"},{"bike_id":"ad9f4039-9bf9-47e5-939e-2ac5f69fb593","system_id":"levelo_inurba_marseille","lat":43.27322,"lon":5.39084,"is_reserved":false,"is_disabled":false,"rental_uris":{"android":"levelo://app?vid=ad9f4039-9bf9-47e5-939e-2ac5f69fb593","ios":"levelo://app?vid=ad9f4039-9bf9-47e5-939e-2ac5f69fb593"},"vehicle_type_id":"4","last_reported":1730412490,"current_range_meters":33600,"station_id":"ce4bhgp2rcd13ifvqfe0","pricing_plan_id":"cebpf4jnsgd1na2vs0mg"},{"bike_id":"5c8a5bb5-a198-4a3b-92e7-8543db03156f","system_id":"levelo_inurba_marseille","lat":43.317168,"lon":5.377382,"is_reserved":false,"is_disabled":false,"rental_uris":{"android":"levelo://app?vid=5c8a5bb5-a198-4a3b-92e7-8543db03156f","ios":"levelo://app?vid=5c8a5bb5-a198-4a3b-92e7-8543db03156f"},"vehicle_type_id":"4","last_reported":1730412490,"current_range_meters":39200,"station_id":"ce4bgth2rcd13ifvqch0","pricing_plan_id":"cebpf4jnsgd1na2vs0mg"},{"bike_id":"3d762461-ddf0-42eb-9b6e-f26add914a1b","system_id":"levelo_inurba_marseille","lat":43.27572,"lon":5.38424,"is_reserved":false,"is_disabled":false,"rental_uris":{"android":"levelo://app?vid=3d762461-ddf0-42eb-9b6e-f26add914a1b","ios":"levelo://app?vid=3d762461-ddf0-42eb-9b6e-f26add914a1b"},"vehicle_type_id":"4","last_reported":1730412490,"current_range_meters":28400,"station_id":"ce4bhh92rcd13ifvqfi0","pricing_plan_id":"cebpf4jnsgd1na2vs0mg"},{"bike_id":"6f1158fd-f519-4fab-b518-72cd08479709","system_id":"levelo_inurba_marseille","lat":43.30598,"lon":5.3936,"is_reserved":false,"is_disabled":false,"rental_uris":{"android":"levelo://app?vid=6f1158fd-f519-4fab-b518-72cd08479709","ios":"levelo://app?vid=6f1158fd-f519-4fab-b518-72cd08479709"},"vehicle_type_id":"4","last_reported":1730412490,"current_range_meters":4400,"station_id":"ce4bh0p2rcd13ifvqd80","pricing_plan_id":"cebpf4jnsgd1na2vs0mg"},{"bike_id":"9daca46e-b450-4f6e-8fa7-dc74aa35a5dd","system_id":"levelo_inurba_marseille","lat":43.23103,"lon":5.40065,"is_reserved":false,"is_disabled":false,"rental_uris":{"android":"levelo://app?vid=9daca46e-b450-4f6e-8fa7-dc74aa35a5dd","ios":"levelo://app?vid=9daca46e-b450-4f6e-8fa7-dc74aa35a5dd"},"vehicle_type_id":"4","last_reported":1730412490,"current_range_meters":23200,"station_id":"ce4bhn12rcd13ifvqgqg","pricing_plan_id":"cebpf4jnsgd1na2vs0mg"},{"bike_id":"e4368fe2-29c6-4a48-994c-a1208e6fc302","system_id":"levelo_inurba_marseille","lat":43.29527,"lon":5.38539,"is_reserved":false,"is_disabled":false,"rental_uris":{"android":"levelo://app?vid=e4368fe2-29c6-4a48-994c-a1208e6fc302","ios":"levelo://app?vid=e4368fe2-29c6-4a48-994c-a1208e6fc302"},"vehicle_type_id":"4","last_reported":1730412490,"current_range_meters":36000,"station_id":"ce4bgih2rcd13ifvqba0","pricing_plan_id":"cebpf4jnsgd1na2vs0mg"},{"bike_id":"0b4f5acc-ae70-4869-ab7b-08e48b7e7b17","system_id":"levelo_inurba_marseille","lat":43.2994,"lon":5.38519,"is_reserved":false,"is_disabled":false,"rental_uris":{"android":"levelo://app?vid=0b4f5acc-ae70-4869-ab7b-08e48b7e7b17","ios":"levelo://app?vid=0b4f5acc-ae70-4869-ab7b-08e48b7e7b17"},"vehicle_type_id":"4","last_reported":1730412490,"current_range_meters":29600,"station_id":"ce4bgj92rcd13ifvqbd0","pricing_plan_id":"cebpf4jnsgd1na2vs0mg"},{"bike_id":"6f091c9c-e1f4-4df3-aa18-c140e4b15b86","system_id":"levelo_inurba_marseille","lat":43.28716,"lon":5.37932,"is_reserved":false,"is_disabled":false,"rental_uris":{"android":"levelo://app?vid=6f091c9c-e1f4-4df3-aa18-c140e4b15b86","ios":"levelo://app?vid=6f091c9c-e1f4-4df3-aa18-c140e4b15b86"},"vehicle_type_id":"4","last_reported":1730412490,"current_range_meters":36400,"station_id":"ce4bh9p2rcd13ifvqec0","pricing_plan_id":"cebpf4jnsgd1na2vs0mg"},{"bike_id":"ed9aa993-8003-4cbf-9aaf-8a3f2e010645","system_id":"levelo_inurba_marseille","lat":43.24167,"lon":5.36403,"is_reserved":false,"is_disabled":false,"rental_uris":{"android":"levelo://app?vid=ed9aa993-8003-4cbf-9aaf-8a3f2e010645","ios":"levelo://app?vid=ed9aa993-8003-4cbf-9aaf-8a3f2e010645"},"vehicle_type_id":"4","last_reported":1730412490,"current_range_meters":8400,"station_id":"cpo36qri1sfpv3e86is0","pricing_plan_id":"cebpf4jnsgd1na2vs0mg"},{"bike_id":"33a098b5-2f3f-4957-af96-675614306bdc","system_id":"levelo_inurba_marseille","lat":43.28285,"lon":5.39021,"is_reserved":false,"is_disabled":false,"rental_uris":{"android":"levelo://app?vid=33a098b5-2f3f-4957-af96-675614306bdc","ios":"levelo://app?vid=33a098b5-2f3f-4957-af96-675614306bdc"},"vehicle_type_id":"4","last_reported":1730412490,"current_range_meters":19200,"station_id":"","pricing_plan_id":"cebpf4jnsgd1na2vs0mg"},{"bike_id":"aa9601c0-622c-4ab6-a747-92657d1569b5","system_id":"levelo_inurba_marseille","lat":43.29261,"lon":5.38433,"is_reserved":false,"is_disabled":false,"rental_uris":{"android":"levelo://app?vid=aa9601c0-622c-4ab6-a747-92657d1569b5","ios":"levelo://app?vid=aa9601c0-622c-4ab6-a747-92657d1569b5"},"vehicle_type_id":"4","last_reported":1730412490,"current_range_meters":23200,"station_id":"ce4bh692rcd13ifvqea0","pricing_plan_id":"cebpf4jnsgd1na2vs0mg"},{"bike_id":"d6f817ae-cc89-4569-8e43-678cca7530bc","system_id":"levelo_inurba_marseille","lat":43.30953,"lon":5.390325,"is_reserved":false,"is_disabled":false,"rental_uris":{"android":"levelo://app?vid=d6f817ae-cc89-4569-8e43-678cca7530bc","ios":"levelo://app?vid=d6f817ae-cc89-4569-8e43-678cca7530bc"},"vehicle_type_id":"4","last_reported":1730412490,"current_range_meters":13600,"station_id":"ce4bgup2rcd13ifvqco0","pricing_plan_id":"cebpf4jnsgd1na2vs0mg"},{"bike_id":"a8594471-923b-4371-82a5-d750e1a3d991","system_id":"levelo_inurba_marseille","lat":43.31532,"lon":5.38027,"is_reserved":false,"is_disabled":false,"rental_uris":{"android":"levelo://app?vid=a8594471-923b-4371-82a5-d750e1a3d991","ios":"levelo://app?vid=a8594471-923b-4371-82a5-d750e1a3d991"},"vehicle_type_id":"4","last_reported":1730412490,"current_range_meters":12000,"station_id":"ce4bhsp2rcd13ifvqi50","pricing_plan_id":"cebpf4jnsgd1na2vs0mg"},{"bike_id":"cd7754bc-8667-452f-9ddb-15623cac69e8","system_id":"levelo_inurba_marseille","lat":43.2927,"lon":5.38448,"is_reserved":false,"is_disabled":false,"rental_uris":{"android":"levelo://app?vid=cd7754bc-8667-452f-9ddb-15623cac69e8","ios":"levelo://app?vid=cd7754bc-8667-452f-9ddb-15623cac69e8"},"vehicle_type_id":"4","last_reported":1730412490,"current_range_meters":24800,"station_id":"ce4bh692rcd13ifvqea0","pricing_plan_id":"cebpf4jnsgd1na2vs0mg"},{"bike_id":"56c6d29e-0277-45e0-bf65-07fce049d4a9","system_id":"levelo_inurba_marseille","lat":43.2743,"lon":5.39411,"is_reserved":false,"is_disabled":false,"rental_uris":{"android":"levelo://app?vid=56c6d29e-0277-45e0-bf65-07fce049d4a9","ios":"levelo://app?vid=56c6d29e-0277-45e0-bf65-07fce049d4a9"},"vehicle_type_id":"4","last_reported":1730412490,"current_range_meters":28000,"station_id":"ce4bhdp2rcd13ifvqf20","pricing_plan_id":"cebpf4jnsgd1na2vs0mg"},{"bike_id":"6493f964-309f-40e9-ba7e-e96a1a77e9da","system_id":"levelo_inurba_marseille","lat":43.2792,"lon":5.39576,"is_reserved":false,"is_disabled":false,"rental_uris":{"android":"levelo://app?vid=6493f964-309f-40e9-ba7e-e96a1a77e9da","ios":"levelo://app?vid=6493f964-309f-40e9-ba7e-e96a1a77e9da"},"vehicle_type_id":"4","last_reported":1730412490,"current_range_meters":38800,"station_id":"ce4bhf92rcd13ifvqf40","pricing_plan_id":"cebpf4jnsgd1na2vs0mg"},{"bike_id":"bb733ef7-c736-4882-9b4d-4a38a2e55de0","system_id":"levelo_inurba_marseille","lat":43.29258,"lon":5.38429,"is_reserved":false,"is_disabled":false,"rental_uris":{"android":"levelo://app?vid=bb733ef7-c736-4882-9b4d-4a38a2e55de0","ios":"levelo://app?vid=bb733ef7-c736-4882-9b4d-4a38a2e55de0"},"vehicle_type_id":"4","last_reported":1730412490,"current_range_meters":37600,"station_id":"ce4bh692rcd13ifvqea0","pricing_plan_id":"cebpf4jnsgd1na2vs0mg"},{"bike_id":"fa52463e-a1da-4e86-b568-e66d07aa2068","system_id":"levelo_inurba_marseille","lat":43.28003,"lon":5.40009,"is_reserved":false,"is_disabled":false,"rental_uris":{"android":"levelo://app?vid=fa52463e-a1da-4e86-b568-e66d07aa2068","ios":"levelo://app?vid=fa52463e-a1da-4e86-b568-e66d07aa2068"},"vehicle_type_id":"4","last_reported":1730412490,"current_range_meters":38400,"station_id":"ce4bho92rcd13ifvqh4g","pricing_plan_id":"cebpf4jnsgd1na2vs0mg"},{"bike_id":"500c9dd4-f799-42df-abf1-a2436d187ac0","system_id":"levelo_inurba_marseille","lat":43.30137,"lon":5.38772,"is_reserved":false,"is_disabled":false,"rental_uris":{"android":"levelo://app?vid=500c9dd4-f799-42df-abf1-a2436d187ac0","ios":"levelo://app?vid=500c9dd4-f799-42df-abf1-a2436d187ac0"},"vehicle_type_id":"4","last_reported":1730412490,"current_range_meters":36000,"station_id":"ce4bghh2rcd13ifvqb60","pricing_plan_id":"cebpf4jnsgd1na2vs0mg"},{"bike_id":"0acdf120-81f9-486f-8ea5-e14a817d42af","system_id":"levelo_inurba_marseille","lat":43.28347,"lon":5.38096,"is_reserved":false,"is_disabled":false,"rental_uris":{"android":"levelo://app?vid=0acdf120-81f9-486f-8ea5-e14a817d42af","ios":"levelo://app?vid=0acdf120-81f9-486f-8ea5-e14a817d42af"},"vehicle_type_id":"4","last_reported":1730412490,"current_range_meters":39200,"station_id":"ce4bh412rcd13ifvqdr0","pricing_plan_id":"cebpf4jnsgd1na2vs0mg"},{"bike_id":"0eac5a1d-d684-45e0-be5d-a22f3e11c4ca","system_id":"levelo_inurba_marseille","lat":43.23968,"lon":5.36622,"is_reserved":false,"is_disabled":false,"rental_uris":{"android":"levelo://app?vid=0eac5a1d-d684-45e0-be5d-a22f3e11c4ca","ios":"levelo://app?vid=0eac5a1d-d684-45e0-be5d-a22f3e11c4ca"},"vehicle_type_id":"4","last_reported":1730412490,"current_range_meters":10000,"station_id":"ce4bhi12rcd13ifvqfp0","pricing_plan_id":"cebpf4jnsgd1na2vs0mg"},{"bike_id":"28a03429-c247-4feb-ace3-a820048521c3","system_id":"levelo_inurba_marseille","lat":43.29918,"lon":5.37451,"is_reserved":false,"is_disabled":false,"rental_uris":{"android":"levelo://app?vid=28a03429-c247-4feb-ace3-a820048521c3","ios":"levelo://app?vid=28a03429-c247-4feb-ace3-a820048521c3"},"vehicle_type_id":"4","last_reported":1730412490,"current_range_meters":36800,"station_id":"ce4bgjh2rcd13ifvqbg0","pricing_plan_id":"cebpf4jnsgd1na2vs0mg"},{"bike_id":"2136c808-dbd5-4e9d-94e9-81dce9d2cc17","system_id":"levelo_inurba_marseille","lat":43.29529,"lon":5.3854,"is_reserved":false,"is_disabled":false,"rental_uris":{"android":"levelo://app?vid=2136c808-dbd5-4e9d-94e9-81dce9d2cc17","ios":"levelo://app?vid=2136c808-dbd5-4e9d-94e9-81dce9d2cc17"},"vehicle_type_id":"4","last_reported":1730412490,"current_range_meters":22000,"station_id":"ce4bgih2rcd13ifvqba0","pricing_plan_id":"cebpf4jnsgd1na2vs0mg"},{"bike_id":"e7b2be94-21fc-42ac-bdf7-d486710a5d9a","system_id":"levelo_inurba_marseille","lat":43.23191,"lon":5.3555,"is_reserved":false,"is_disabled":false,"rental_uris":{"android":"levelo://app?vid=e7b2be94-21fc-42ac-bdf7-d486710a5d9a","ios":"levelo://app?vid=e7b2be94-21fc-42ac-bdf7-d486710a5d9a"},"vehicle_type_id":"4","last_reported":1730412490,"current_range_meters":39200,"station_id":"ce4bhu92rcd13ifvqi70","pricing_plan_id":"cebpf4jnsgd1na2vs0mg"},{"bike_id":"cdb24575-62fb-4eb8-b18a-c038e60b7be5","system_id":"levelo_inurba_marseille","lat":43.29055,"lon":5.3592,"is_reserved":false,"is_disabled":false,"rental_uris":{"android":"levelo://app?vid=cdb24575-62fb-4eb8-b18a-c038e60b7be5","ios":"levelo://app?vid=cdb24575-62fb-4eb8-b18a-c038e60b7be5"},"vehicle_type_id":"4","last_reported":1730412490,"current_range_meters":30000,"station_id":"ce4bha92rcd13ifvqeg0","pricing_plan_id":"cebpf4jnsgd1na2vs0mg"},{"bike_id":"ce9125b4-2784-49e5-86f8-4920df44b4e6","system_id":"levelo_inurba_marseille","lat":43.29415,"lon":5.38615,"is_reserved":false,"is_disabled":false,"rental_uris":{"android":"levelo://app?vid=ce9125b4-2784-49e5-86f8-4920df44b4e6","ios":"levelo://app?vid=ce9125b4-2784-49e5-86f8-4920df44b4e6"},"vehicle_type_id":"4","last_reported":1730412490,"current_range_meters":35600,"station_id":"ce4bh2h2rcd13ifvqdh0","pricing_plan_id":"cebpf4jnsgd1na2vs0mg"},{"bike_id":"4ee09f11-5387-4eb9-ae15-b6668577c55b","system_id":"levelo_inurba_marseille","lat":43.24385,"lon":5.37057,"is_reserved":false,"is_disabled":false,"rental_uris":{"android":"levelo://app?vid=4ee09f11-5387-4eb9-ae15-b6668577c55b","ios":"levelo://app?vid=4ee09f11-5387-4eb9-ae15-b6668577c55b"},"vehicle_type_id":"4","last_reported":1730412490,"current_range_meters":22000,"station_id":"ce4bhhh2rcd13ifvqfk0","pricing_plan_id":"cebpf4jnsgd1na2vs0mg"},{"bike_id":"ddd61f92-90bb-4c96-bb29-cb24e60dddcf","system_id":"levelo_inurba_marseille","lat":43.29684,"lon":5.37282,"is_reserved":false,"is_disabled":false,"rental_uris":{"android":"levelo://app?vid=ddd61f92-90bb-4c96-bb29-cb24e60dddcf","ios":"levelo://app?vid=ddd61f92-90bb-4c96-bb29-cb24e60dddcf"},"vehicle_type_id":"4","last_reported":1730412490,"current_range_meters":38800,"station_id":"ce4bgk12rcd13ifvqbj0","pricing_plan_id":"cebpf4jnsgd1na2vs0mg"},{"bike_id":"dacaf0a1-652d-4a4b-ae67-ee7a01f2112c","system_id":"levelo_inurba_marseille","lat":43.23193,"lon":5.35552,"is_reserved":false,"is_disabled":false,"rental_uris":{"android":"levelo://app?vid=dacaf0a1-652d-4a4b-ae67-ee7a01f2112c","ios":"levelo://app?vid=dacaf0a1-652d-4a4b-ae67-ee7a01f2112c"},"vehicle_type_id":"4","last_reported":1730412490,"current_range_meters":20800,"station_id":"ce4bhu92rcd13ifvqi70","pricing_plan_id":"cebpf4jnsgd1na2vs0mg"},{"bike_id":"46f626a0-2501-4540-ba80-fb070c2b5759","system_id":"levelo_inurba_marseille","lat":43.29534,"lon":5.38541,"is_reserved":false,"is_disabled":false,"rental_uris":{"android":"levelo://app?vid=46f626a0-2501-4540-ba80-fb070c2b5759","ios":"levelo://app?vid=46f626a0-2501-4540-ba80-fb070c2b5759"},"vehicle_type_id":"4","last_reported":1730412490,"current_range_meters":38000,"station_id":"ce4bgih2rcd13ifvqba0","pricing_plan_id":"cebpf4jnsgd1na2vs0mg"},{"bike_id":"0c0d4548-c9f5-4b26-84f3-518a85e46544","system_id":"levelo_inurba_marseille","lat":43.27433,"lon":5.39402,"is_reserved":false,"is_disabled":false,"rental_uris":{"android":"levelo://app?vid=0c0d4548-c9f5-4b26-84f3-518a85e46544","ios":"levelo://app?vid=0c0d4548-c9f5-4b26-84f3-518a85e46544"},"vehicle_type_id":"4","last_reported":1730412490,"current_range_meters":36800,"station_id":"ce4bhdp2rcd13ifvqf20","pricing_plan_id":"cebpf4jnsgd1na2vs0mg"},{"bike_id":"09876b4e-96cc-44b2-95cf-9e2124098dc6","system_id":"levelo_inurba_marseille","lat":43.2743,"lon":5.39411,"is_reserved":false,"is_disabled":false,"rental_uris":{"android":"levelo://app?vid=09876b4e-96cc-44b2-95cf-9e2124098dc6","ios":"levelo://app?vid=09876b4e-96cc-44b2-95cf-9e2124098dc6"},"vehicle_type_id":"4","last_reported":1730412490,"current_range_meters":11200,"station_id":"ce4bhdp2rcd13ifvqf20","pricing_plan_id":"cebpf4jnsgd1na2vs0mg"},{"bike_id":"c713a5b0-9279-4b6b-92a6-beb74806a54f","system_id":"levelo_inurba_marseille","lat":43.2808,"lon":5.36154,"is_reserved":false,"is_disabled":false,"rental_uris":{"android":"levelo://app?vid=c713a5b0-9279-4b6b-92a6-beb74806a54f","ios":"levelo://app?vid=c713a5b0-9279-4b6b-92a6-beb74806a54f"},"vehicle_type_id":"4","last_reported":1730412490,"current_range_meters":30000,"station_id":"","pricing_plan_id":"cebpf4jnsgd1na2vs0mg"},{"bike_id":"d6570dca-baf7-46c8-8fe6-f64896384ef8","system_id":"levelo_inurba_marseille","lat":43.2861,"lon":5.37069,"is_reserved":false,"is_disabled":false,"rental_uris":{"android":"levelo://app?vid=d6570dca-baf7-46c8-8fe6-f64896384ef8","ios":"levelo://app?vid=d6570dca-baf7-46c8-8fe6-f64896384ef8"},"vehicle_type_id":"4","last_reported":1730412490,"current_range_meters":38800,"station_id":"ce4bht12rcd13ifvqi60","pricing_plan_id":"cebpf4jnsgd1na2vs0mg"},{"bike_id":"5505627b-8278-457b-9c63-9a16aac49a16","system_id":"levelo_inurba_marseille","lat":43.26934,"lon":5.38909,"is_reserved":false,"is_disabled":false,"rental_uris":{"android":"levelo://app?vid=5505627b-8278-457b-9c63-9a16aac49a16","ios":"levelo://app?vid=5505627b-8278-457b-9c63-9a16aac49a16"},"vehicle_type_id":"4","last_reported":1730412490,"current_range_meters":39200,"station_id":"ce4bhhh2rcd13ifvqfl0","pricing_plan_id":"cebpf4jnsgd1na2vs0mg"},{"bike_id":"432245c8-aae7-4413-a01a-f97683516aa8","system_id":"levelo_inurba_marseille","lat":43.31272,"lon":5.40177,"is_reserved":false,"is_disabled":false,"rental_uris":{"android":"levelo://app?vid=432245c8-aae7-4413-a01a-f97683516aa8","ios":"levelo://app?vid=432245c8-aae7-4413-a01a-f97683516aa8"},"vehicle_type_id":"4","last_reported":1730412490,"current_range_meters":25600,"station_id":"ce4bh092rcd13ifvqd30","pricing_plan_id":"cebpf4jnsgd1na2vs0mg"},{"bike_id":"cd506133-45e2-421c-adbd-9501e6e43795","system_id":"levelo_inurba_marseille","lat":43.28039,"lon":5.36934,"is_reserved":false,"is_disabled":false,"rental_uris":{"android":"levelo://app?vid=cd506133-45e2-421c-adbd-9501e6e43795","ios":"levelo://app?vid=cd506133-45e2-421c-adbd-9501e6e43795"},"vehicle_type_id":"4","last_reported":1730412490,"current_range_meters":36000,"station_id":"ce4bha12rcd13ifvqef0","pricing_plan_id":"cebpf4jnsgd1na2vs0mg"},{"bike_id":"eb12389b-542e-46ef-b54c-2ff199d29424","system_id":"levelo_inurba_marseille","lat":43.27634,"lon":5.36102,"is_reserved":false,"is_disabled":false,"rental_uris":{"android":"levelo://app?vid=eb12389b-542e-46ef-b54c-2ff199d29424","ios":"levelo://app?vid=eb12389b-542e-46ef-b54c-2ff199d29424"},"vehicle_type_id":"4","last_reported":1730412490,"current_range_meters":8800,"station_id":"ce4bgj92rcd13ifvqbe0","pricing_plan_id":"cebpf4jnsgd1na2vs0mg"},{"bike_id":"84eb234f-5cef-4e43-995c-c2a6c7272b1a","system_id":"levelo_inurba_marseille","lat":43.27944,"lon":5.41034,"is_reserved":false,"is_disabled":false,"rental_uris":{"android":"levelo://app?vid=84eb234f-5cef-4e43-995c-c2a6c7272b1a","ios":"levelo://app?vid=84eb234f-5cef-4e43-995c-c2a6c7272b1a"},"vehicle_type_id":"4","last_reported":1730412490,"current_range_meters":28000,"station_id":"ce4bhnp2rcd13ifvqh0g","pricing_plan_id":"cebpf4jnsgd1na2vs0mg"},{"bike_id":"d7ffa81d-2529-46b6-a8eb-e37e63999233","system_id":"levelo_inurba_marseille","lat":43.27434,"lon":5.3941,"is_reserved":false,"is_disabled":false,"rental_uris":{"android":"levelo://app?vid=d7ffa81d-2529-46b6-a8eb-e37e63999233","ios":"levelo://app?vid=d7ffa81d-2529-46b6-a8eb-e37e63999233"},"vehicle_type_id":"4","last_reported":1730412490,"current_range_meters":31200,"station_id":"ce4bhdp2rcd13ifvqf20","pricing_plan_id":"cebpf4jnsgd1na2vs0mg"},{"bike_id":"51839d7a-26e7-47a1-af1e-7744eba12fc5","system_id":"levelo_inurba_marseille","lat":43.27211,"lon":5.39182,"is_reserved":false,"is_disabled":false,"rental_uris":{"android":"levelo://app?vid=51839d7a-26e7-47a1-af1e-7744eba12fc5","ios":"levelo://app?vid=51839d7a-26e7-47a1-af1e-7744eba12fc5"},"vehicle_type_id":"4","last_reported":1730412490,"current_range_meters":32400,"station_id":"ce4bhhp2rcd13ifvqfm0","pricing_plan_id":"cebpf4jnsgd1na2vs0mg"},{"bike_id":"1a0d871d-36e8-4e16-b66b-6cb931fbf582","system_id":"levelo_inurba_marseille","lat":43.29048,"lon":5.37174,"is_reserved":false,"is_disabled":false,"rental_uris":{"android":"levelo://app?vid=1a0d871d-36e8-4e16-b66b-6cb931fbf582","ios":"levelo://app?vid=1a0d871d-36e8-4e16-b66b-6cb931fbf582"},"vehicle_type_id":"4","last_reported":1730412490,"current_range_meters":38800,"station_id":"ce4bh5p2rcd13ifvqe4g","pricing_plan_id":"cebpf4jnsgd1na2vs0mg"},{"bike_id":"08644204-8aff-4544-94a7-e7830a6e4707","system_id":"levelo_inurba_marseille","lat":43.31684,"lon":5.40474,"is_reserved":false,"is_disabled":false,"rental_uris":{"android":"levelo://app?vid=08644204-8aff-4544-94a7-e7830a6e4707","ios":"levelo://app?vid=08644204-8aff-4544-94a7-e7830a6e4707"},"vehicle_type_id":"4","last_reported":1730412490,"current_range_meters":21600,"station_id":"ce4bh012rcd13ifvqd00","pricing_plan_id":"cebpf4jnsgd1na2vs0mg"},{"bike_id":"655e5c84-6957-4a22-898b-b606bb7480d4","system_id":"levelo_inurba_marseille","lat":43.2293,"lon":5.35381,"is_reserved":false,"is_disabled":false,"rental_uris":{"android":"levelo://app?vid=655e5c84-6957-4a22-898b-b606bb7480d4","ios":"levelo://app?vid=655e5c84-6957-4a22-898b-b606bb7480d4"},"vehicle_type_id":"4","last_reported":1730412490,"current_range_meters":28800,"station_id":"cpo3532slgdg3j2ikp40","pricing_plan_id":"cebpf4jnsgd1na2vs0mg"},{"bike_id":"265209af-4198-43e0-a274-b813f9677d0c","system_id":"levelo_inurba_marseille","lat":43.27321,"lon":5.39091,"is_reserved":false,"is_disabled":false,"rental_uris":{"android":"levelo://app?vid=265209af-4198-43e0-a274-b813f9677d0c","ios":"levelo://app?vid=265209af-4198-43e0-a274-b813f9677d0c"},"vehicle_type_id":"4","last_reported":1730412490,"current_range_meters":8000,"station_id":"ce4bhgp2rcd13ifvqfe0","pricing_plan_id":"cebpf4jnsgd1na2vs0mg"},{"bike_id":"b8bc90bd-95bc-467e-866d-39f8988e4a21","system_id":"levelo_inurba_marseille","lat":43.28003,"lon":5.4,"is_reserved":false,"is_disabled":false,"rental_uris":{"android":"levelo://app?vid=b8bc90bd-95bc-467e-866d-39f8988e4a21","ios":"levelo://app?vid=b8bc90bd-95bc-467e-866d-39f8988e4a21"},"vehicle_type_id":"4","last_reported":1730412490,"current_range_meters":24400,"station_id":"ce4bho92rcd13ifvqh4g","pricing_plan_id":"cebpf4jnsgd1na2vs0mg"},{"bike_id":"f648cb5e-68b5-4d7e-a486-244259ba290a","system_id":"levelo_inurba_marseille","lat":43.29986,"lon":5.37205,"is_reserved":false,"is_disabled":false,"rental_uris":{"android":"levelo://app?vid=f648cb5e-68b5-4d7e-a486-244259ba290a","ios":"levelo://app?vid=f648cb5e-68b5-4d7e-a486-244259ba290a"},"vehicle_type_id":"4","last_reported":1730412490,"current_range_meters":38800,"station_id":"ce4bgr92rcd13ifvqc7g","pricing_plan_id":"cebpf4jnsgd1na2vs0mg"},{"bike_id":"32595b1d-cd5c-4cc2-96ce-fdd8a0eb8452","system_id":"levelo_inurba_marseille","lat":43.296,"lon":5.38091,"is_reserved":false,"is_disabled":false,"rental_uris":{"android":"levelo://app?vid=32595b1d-cd5c-4cc2-96ce-fdd8a0eb8452","ios":"levelo://app?vid=32595b1d-cd5c-4cc2-96ce-fdd8a0eb8452"},"vehicle_type_id":"4","last_reported":1730412490,"current_range_meters":37600,"station_id":"ce4bgl12rcd13ifvqbo0","pricing_plan_id":"cebpf4jnsgd1na2vs0mg"},{"bike_id":"6d58bf63-0344-4e01-b872-27a4ce914d16","system_id":"levelo_inurba_marseille","lat":43.29886,"lon":5.38902,"is_reserved":false,"is_disabled":false,"rental_uris":{"android":"levelo://app?vid=6d58bf63-0344-4e01-b872-27a4ce914d16","ios":"levelo://app?vid=6d58bf63-0344-4e01-b872-27a4ce914d16"},"vehicle_type_id":"4","last_reported":1730412490,"current_range_meters":38800,"station_id":"ce4bh392rcd13ifvqdl0","pricing_plan_id":"cebpf4jnsgd1na2vs0mg"},{"bike_id":"7dc07648-9fb1-4248-92f4-9aec012db4cc","system_id":"levelo_inurba_marseille","lat":43.27202,"lon":5.39177,"is_reserved":false,"is_disabled":false,"rental_uris":{"android":"levelo://app?vid=7dc07648-9fb1-4248-92f4-9aec012db4cc","ios":"levelo://app?vid=7dc07648-9fb1-4248-92f4-9aec012db4cc"},"vehicle_type_id":"4","last_reported":1730412490,"current_range_meters":3600,"station_id":"ce4bhhp2rcd13ifvqfm0","pricing_plan_id":"cebpf4jnsgd1na2vs0mg"},{"bike_id":"cf984b07-c06a-489f-a198-682f7019d2a4","system_id":"levelo_inurba_marseille","lat":43.25579,"lon":5.38233,"is_reserved":false,"is_disabled":false,"rental_uris":{"android":"levelo://app?vid=cf984b07-c06a-489f-a198-682f7019d2a4","ios":"levelo://app?vid=cf984b07-c06a-489f-a198-682f7019d2a4"},"vehicle_type_id":"4","last_reported":1730412490,"current_range_meters":38800,"station_id":"ce4bhih2rcd13ifvqfs0","pricing_plan_id":"cebpf4jnsgd1na2vs0mg"},{"bike_id":"8f55f6cc-0b54-4d5f-9029-aa15dfd6d9b0","system_id":"levelo_inurba_marseille","lat":43.31613,"lon":5.39056,"is_reserved":false,"is_disabled":false,"rental_uris":{"android":"levelo://app?vid=8f55f6cc-0b54-4d5f-9029-aa15dfd6d9b0","ios":"levelo://app?vid=8f55f6cc-0b54-4d5f-9029-aa15dfd6d9b0"},"vehicle_type_id":"4","last_reported":1730412490,"current_range_meters":12400,"station_id":"","pricing_plan_id":"cebpf4jnsgd1na2vs0mg"},{"bike_id":"82fc33c9-8df5-4ecc-84d7-15cbf03ea71f","system_id":"levelo_inurba_marseille","lat":43.25106,"lon":5.40333,"is_reserved":false,"is_disabled":false,"rental_uris":{"android":"levelo://app?vid=82fc33c9-8df5-4ecc-84d7-15cbf03ea71f","ios":"levelo://app?vid=82fc33c9-8df5-4ecc-84d7-15cbf03ea71f"},"vehicle_type_id":"4","last_reported":1730412490,"current_range_meters":8000,"station_id":"ce4bhlh2rcd13ifvqgig","pricing_plan_id":"cebpf4jnsgd1na2vs0mg"},{"bike_id":"8e4402d5-2389-439f-b571-a1bf55caf0b3","system_id":"levelo_inurba_marseille","lat":43.29265,"lon":5.38436,"is_reserved":false,"is_disabled":false,"rental_uris":{"android":"levelo://app?vid=8e4402d5-2389-439f-b571-a1bf55caf0b3","ios":"levelo://app?vid=8e4402d5-2389-439f-b571-a1bf55caf0b3"},"vehicle_type_id":"4","last_reported":1730412490,"current_range_meters":24000,"station_id":"ce4bh692rcd13ifvqea0","pricing_plan_id":"cebpf4jnsgd1na2vs0mg"},{"bike_id":"f43d672d-bc61-4cce-908b-d99b79faaa4f","system_id":"levelo_inurba_marseille","lat":43.29533,"lon":5.38539,"is_reserved":false,"is_disabled":false,"rental_uris":{"android":"levelo://app?vid=f43d672d-bc61-4cce-908b-d99b79faaa4f","ios":"levelo://app?vid=f43d672d-bc61-4cce-908b-d99b79faaa4f"},"vehicle_type_id":"4","last_reported":1730412490,"current_range_meters":12000,"station_id":"ce4bgih2rcd13ifvqba0","pricing_plan_id":"cebpf4jnsgd1na2vs0mg"},{"bike_id":"c70c168a-a194-4bdd-a91d-c90f62128f76","system_id":"levelo_inurba_marseille","lat":43.29781,"lon":5.37093,"is_reserved":false,"is_disabled":false,"rental_uris":{"android":"levelo://app?vid=c70c168a-a194-4bdd-a91d-c90f62128f76","ios":"levelo://app?vid=c70c168a-a194-4bdd-a91d-c90f62128f76"},"vehicle_type_id":"4","last_reported":1730412490,"current_range_meters":38800,"station_id":"ce4bgop2rcd13ifvqc1g","pricing_plan_id":"cebpf4jnsgd1na2vs0mg"},{"bike_id":"5ff74640-5d39-40f8-808a-e5695df59fd4","system_id":"levelo_inurba_marseille","lat":43.27189,"lon":5.41026,"is_reserved":false,"is_disabled":false,"rental_uris":{"android":"levelo://app?vid=5ff74640-5d39-40f8-808a-e5695df59fd4","ios":"levelo://app?vid=5ff74640-5d39-40f8-808a-e5695df59fd4"},"vehicle_type_id":"4","last_reported":1730412490,"current_range_meters":5600,"station_id":"ce4bhl12rcd13ifvqgf0","pricing_plan_id":"cebpf4jnsgd1na2vs0mg"},{"bike_id":"63a9f77e-6a3d-43bd-9f91-df32e10ff01f","system_id":"levelo_inurba_marseille","lat":43.29255,"lon":5.38438,"is_reserved":false,"is_disabled":false,"rental_uris":{"android":"levelo://app?vid=63a9f77e-6a3d-43bd-9f91-df32e10ff01f","ios":"levelo://app?vid=63a9f77e-6a3d-43bd-9f91-df32e10ff01f"},"vehicle_type_id":"4","last_reported":1730412490,"current_range_meters":34000,"station_id":"ce4bh692rcd13ifvqea0","pricing_plan_id":"cebpf4jnsgd1na2vs0mg"},{"bike_id":"2d7b433c-9b06-43dd-8c83-063233474d86","system_id":"levelo_inurba_marseille","lat":43.29055,"lon":5.35918,"is_reserved":false,"is_disabled":false,"rental_uris":{"android":"levelo://app?vid=2d7b433c-9b06-43dd-8c83-063233474d86","ios":"levelo://app?vid=2d7b433c-9b06-43dd-8c83-063233474d86"},"vehicle_type_id":"4","last_reported":1730412490,"current_range_meters":9200,"station_id":"ce4bha92rcd13ifvqeg0","pricing_plan_id":"cebpf4jnsgd1na2vs0mg"},{"bike_id":"e0668f95-9931-4760-9d86-0788d318d622","system_id":"levelo_inurba_marseille","lat":43.26194,"lon":5.37446,"is_reserved":false,"is_disabled":false,"rental_uris":{"android":"levelo://app?vid=e0668f95-9931-4760-9d86-0788d318d622","ios":"levelo://app?vid=e0668f95-9931-4760-9d86-0788d318d622"},"vehicle_type_id":"4","last_reported":1730412490,"current_range_meters":22400,"station_id":"ce4bhgp2rcd13ifvqfc0","pricing_plan_id":"cebpf4jnsgd1na2vs0mg"},{"bike_id":"b01f7fb7-581d-4a11-b1ff-60b1326781b9","system_id":"levelo_inurba_marseille","lat":43.29885,"lon":5.3974,"is_reserved":false,"is_disabled":false,"rental_uris":{"android":"levelo://app?vid=b01f7fb7-581d-4a11-b1ff-60b1326781b9","ios":"levelo://app?vid=b01f7fb7-581d-4a11-b1ff-60b1326781b9"},"vehicle_type_id":"4","last_reported":1730412490,"current_range_meters":37600,"station_id":"ce4bh0h2rcd13ifvqd50","pricing_plan_id":"cebpf4jnsgd1na2vs0mg"},{"bike_id":"82fae54e-3e86-48aa-8fc4-84c040a4b041","system_id":"levelo_inurba_marseille","lat":43.28715,"lon":5.37945,"is_reserved":false,"is_disabled":false,"rental_uris":{"android":"levelo://app?vid=82fae54e-3e86-48aa-8fc4-84c040a4b041","ios":"levelo://app?vid=82fae54e-3e86-48aa-8fc4-84c040a4b041"},"vehicle_type_id":"4","last_reported":1730412490,"current_range_meters":20400,"station_id":"ce4bh9p2rcd13ifvqec0","pricing_plan_id":"cebpf4jnsgd1na2vs0mg"},{"bike_id":"257c47fb-8a4d-45d6-bd5f-ba5393b3cd47","system_id":"levelo_inurba_marseille","lat":43.304443,"lon":5.365419,"is_reserved":false,"is_disabled":false,"rental_uris":{"android":"levelo://app?vid=257c47fb-8a4d-45d6-bd5f-ba5393b3cd47","ios":"levelo://app?vid=257c47fb-8a4d-45d6-bd5f-ba5393b3cd47"},"vehicle_type_id":"4","last_reported":1730412490,"current_range_meters":35200,"station_id":"ce4bgs12rcd13ifvqcag","pricing_plan_id":"cebpf4jnsgd1na2vs0mg"},{"bike_id":"24690883-53ed-4e59-b93f-1b774333d011","system_id":"levelo_inurba_marseille","lat":43.29601,"lon":5.38096,"is_reserved":false,"is_disabled":false,"rental_uris":{"android":"levelo://app?vid=24690883-53ed-4e59-b93f-1b774333d011","ios":"levelo://app?vid=24690883-53ed-4e59-b93f-1b774333d011"},"vehicle_type_id":"4","last_reported":1730412490,"current_range_meters":35200,"station_id":"ce4bgl12rcd13ifvqbo0","pricing_plan_id":"cebpf4jnsgd1na2vs0mg"},{"bike_id":"175eac46-285a-4922-8020-37fc66edbc1d","system_id":"levelo_inurba_marseille","lat":43.30302,"lon":5.39212,"is_reserved":false,"is_disabled":false,"rental_uris":{"android":"levelo://app?vid=175eac46-285a-4922-8020-37fc66edbc1d","ios":"levelo://app?vid=175eac46-285a-4922-8020-37fc66edbc1d"},"vehicle_type_id":"4","last_reported":1730412490,"current_range_meters":17200,"station_id":"ce4bgkh2rcd13ifvqbk0","pricing_plan_id":"cebpf4jnsgd1na2vs0mg"},{"bike_id":"e33dc35d-b2d3-49f0-a4be-ab771640f3d5","system_id":"levelo_inurba_marseille","lat":43.303103,"lon":5.369071,"is_reserved":false,"is_disabled":false,"rental_uris":{"android":"levelo://app?vid=e33dc35d-b2d3-49f0-a4be-ab771640f3d5","ios":"levelo://app?vid=e33dc35d-b2d3-49f0-a4be-ab771640f3d5"},"vehicle_type_id":"4","last_reported":1730412490,"current_range_meters":25600,"station_id":"ce4bgqh2rcd13ifvqc5g","pricing_plan_id":"cebpf4jnsgd1na2vs0mg"},{"bike_id":"47559785-93de-40ff-accd-0643c51db46c","system_id":"levelo_inurba_marseille","lat":43.27212,"lon":5.3917,"is_reserved":false,"is_disabled":false,"rental_uris":{"android":"levelo://app?vid=47559785-93de-40ff-accd-0643c51db46c","ios":"levelo://app?vid=47559785-93de-40ff-accd-0643c51db46c"},"vehicle_type_id":"4","last_reported":1730412490,"current_range_meters":25200,"station_id":"ce4bhhp2rcd13ifvqfm0","pricing_plan_id":"cebpf4jnsgd1na2vs0mg"},{"bike_id":"9125c06e-a999-402e-964e-74463a7d5f9e","system_id":"levelo_inurba_marseille","lat":43.2721,"lon":5.39179,"is_reserved":false,"is_disabled":false,"rental_uris":{"android":"levelo://app?vid=9125c06e-a999-402e-964e-74463a7d5f9e","ios":"levelo://app?vid=9125c06e-a999-402e-964e-74463a7d5f9e"},"vehicle_type_id":"4","last_reported":1730412490,"current_range_meters":39200,"station_id":"ce4bhhp2rcd13ifvqfm0","pricing_plan_id":"cebpf4jnsgd1na2vs0mg"},{"bike_id":"3a09ceaf-2e70-40df-b9b5-539e96d81463","system_id":"levelo_inurba_marseille","lat":43.26952,"lon":5.38633,"is_reserved":false,"is_disabled":false,"rental_uris":{"android":"levelo://app?vid=3a09ceaf-2e70-40df-b9b5-539e96d81463","ios":"levelo://app?vid=3a09ceaf-2e70-40df-b9b5-539e96d81463"},"vehicle_type_id":"4","last_reported":1730412490,"current_range_meters":30400,"station_id":"ce4bhh92rcd13ifvqfh0","pricing_plan_id":"cebpf4jnsgd1na2vs0mg"},{"bike_id":"5b1beb29-08c3-4517-96e1-89c4b727e0c3","system_id":"levelo_inurba_marseille","lat":43.2319,"lon":5.35547,"is_reserved":false,"is_disabled":false,"rental_uris":{"android":"levelo://app?vid=5b1beb29-08c3-4517-96e1-89c4b727e0c3","ios":"levelo://app?vid=5b1beb29-08c3-4517-96e1-89c4b727e0c3"},"vehicle_type_id":"4","last_reported":1730412490,"current_range_meters":33200,"station_id":"ce4bhu92rcd13ifvqi70","pricing_plan_id":"cebpf4jnsgd1na2vs0mg"},{"bike_id":"b8c309ac-2d71-44a4-9ec0-1d42458adc5a","system_id":"levelo_inurba_marseille","lat":43.29426,"lon":5.3861,"is_reserved":false,"is_disabled":false,"rental_uris":{"android":"levelo://app?vid=b8c309ac-2d71-44a4-9ec0-1d42458adc5a","ios":"levelo://app?vid=b8c309ac-2d71-44a4-9ec0-1d42458adc5a"},"vehicle_type_id":"4","last_reported":1730412490,"current_range_meters":38400,"station_id":"ce4bh2h2rcd13ifvqdh0","pricing_plan_id":"cebpf4jnsgd1na2vs0mg"},{"bike_id":"678bd49d-4e97-464a-9d6b-ff8f1a094f5f","system_id":"levelo_inurba_marseille","lat":43.2903,"lon":5.38643,"is_reserved":false,"is_disabled":false,"rental_uris":{"android":"levelo://app?vid=678bd49d-4e97-464a-9d6b-ff8f1a094f5f","ios":"levelo://app?vid=678bd49d-4e97-464a-9d6b-ff8f1a094f5f"},"vehicle_type_id":"4","last_reported":1730412490,"current_range_meters":39200,"station_id":"ce4bh4p2rcd13ifvqe0g","pricing_plan_id":"cebpf4jnsgd1na2vs0mg"},{"bike_id":"9faaee68-cd63-426e-bbc5-bc626ff7f28a","system_id":"levelo_inurba_marseille","lat":43.29304,"lon":5.37165,"is_reserved":false,"is_disabled":false,"rental_uris":{"android":"levelo://app?vid=9faaee68-cd63-426e-bbc5-bc626ff7f28a","ios":"levelo://app?vid=9faaee68-cd63-426e-bbc5-bc626ff7f28a"},"vehicle_type_id":"4","last_reported":1730412490,"current_range_meters":32000,"station_id":"ce4bgh92rcd13ifvqb40","pricing_plan_id":"cebpf4jnsgd1na2vs0mg"},{"bike_id":"f99547b6-e0b7-4a86-b4bb-f600f8ca5cb2","system_id":"levelo_inurba_marseille","lat":43.24168,"lon":5.36401,"is_reserved":false,"is_disabled":false,"rental_uris":{"android":"levelo://app?vid=f99547b6-e0b7-4a86-b4bb-f600f8ca5cb2","ios":"levelo://app?vid=f99547b6-e0b7-4a86-b4bb-f600f8ca5cb2"},"vehicle_type_id":"4","last_reported":1730412490,"current_range_meters":9200,"station_id":"cpo36qri1sfpv3e86is0","pricing_plan_id":"cebpf4jnsgd1na2vs0mg"},{"bike_id":"592f4fc4-36f6-4068-ad0e-e5415fc9cbe7","system_id":"levelo_inurba_marseille","lat":43.24208,"lon":5.37943,"is_reserved":false,"is_disabled":false,"rental_uris":{"android":"levelo://app?vid=592f4fc4-36f6-4068-ad0e-e5415fc9cbe7","ios":"levelo://app?vid=592f4fc4-36f6-4068-ad0e-e5415fc9cbe7"},"vehicle_type_id":"4","last_reported":1730412490,"current_range_meters":8000,"station_id":"ce4bhnp2rcd13ifvqgvg","pricing_plan_id":"cebpf4jnsgd1na2vs0mg"},{"bike_id":"dee5bc62-3c96-40c5-9e4b-75590d97f798","system_id":"levelo_inurba_marseille","lat":43.28421,"lon":5.34978,"is_reserved":false,"is_disabled":false,"rental_uris":{"android":"levelo://app?vid=dee5bc62-3c96-40c5-9e4b-75590d97f798","ios":"levelo://app?vid=dee5bc62-3c96-40c5-9e4b-75590d97f798"},"vehicle_type_id":"4","last_reported":1730412490,"current_range_meters":16800,"station_id":"ce4bhbh2rcd13ifvqepg","pricing_plan_id":"cebpf4jnsgd1na2vs0mg"},{"bike_id":"79c9da24-0272-4c6b-9c3b-fa84e01d94ec","system_id":"levelo_inurba_marseille","lat":43.29052,"lon":5.35913,"is_reserved":false,"is_disabled":false,"rental_uris":{"android":"levelo://app?vid=79c9da24-0272-4c6b-9c3b-fa84e01d94ec","ios":"levelo://app?vid=79c9da24-0272-4c6b-9c3b-fa84e01d94ec"},"vehicle_type_id":"4","last_reported":1730412490,"current_range_meters":10800,"station_id":"ce4bha92rcd13ifvqeg0","pricing_plan_id":"cebpf4jnsgd1na2vs0mg"},{"bike_id":"2db5b474-a46f-4063-96ea-1611d1f20cc4","system_id":"levelo_inurba_marseille","lat":43.26566,"lon":5.39012,"is_reserved":false,"is_disabled":false,"rental_uris":{"android":"levelo://app?vid=2db5b474-a46f-4063-96ea-1611d1f20cc4","ios":"levelo://app?vid=2db5b474-a46f-4063-96ea-1611d1f20cc4"},"vehicle_type_id":"4","last_reported":1730412490,"current_range_meters":2000,"station_id":"ce4bhe12rcd13ifvqf30","pricing_plan_id":"cebpf4jnsgd1na2vs0mg"},{"bike_id":"794d23c0-def7-4557-a69a-112ea268f585","system_id":"levelo_inurba_marseille","lat":43.23191,"lon":5.35558,"is_reserved":false,"is_disabled":false,"rental_uris":{"android":"levelo://app?vid=794d23c0-def7-4557-a69a-112ea268f585","ios":"levelo://app?vid=794d23c0-def7-4557-a69a-112ea268f585"},"vehicle_type_id":"4","last_reported":1730412490,"current_range_meters":39200,"station_id":"ce4bhu92rcd13ifvqi70","pricing_plan_id":"cebpf4jnsgd1na2vs0mg"},{"bike_id":"bca4a1a9-a4f1-47a7-a3b1-b710e4235e5d","system_id":"levelo_inurba_marseille","lat":43.28656,"lon":5.36338,"is_reserved":false,"is_disabled":false,"rental_uris":{"android":"levelo://app?vid=bca4a1a9-a4f1-47a7-a3b1-b710e4235e5d","ios":"levelo://app?vid=bca4a1a9-a4f1-47a7-a3b1-b710e4235e5d"},"vehicle_type_id":"4","last_reported":1730412490,"current_range_meters":36800,"station_id":"ce4bhah2rcd13ifvqej0","pricing_plan_id":"cebpf4jnsgd1na2vs0mg"},{"bike_id":"d66059ff-f033-40f3-b26d-de5e031226fa","system_id":"levelo_inurba_marseille","lat":43.2847,"lon":5.35889,"is_reserved":false,"is_disabled":false,"rental_uris":{"android":"levelo://app?vid=d66059ff-f033-40f3-b26d-de5e031226fa","ios":"levelo://app?vid=d66059ff-f033-40f3-b26d-de5e031226fa"},"vehicle_type_id":"4","last_reported":1730412490,"current_range_meters":27200,"station_id":"ce4bhah2rcd13ifvqei0","pricing_plan_id":"cebpf4jnsgd1na2vs0mg"},{"bike_id":"5454e530-5c87-4957-bf94-620cb84627b6","system_id":"levelo_inurba_marseille","lat":43.28154,"lon":5.42649,"is_reserved":false,"is_disabled":false,"rental_uris":{"android":"levelo://app?vid=5454e530-5c87-4957-bf94-620cb84627b6","ios":"levelo://app?vid=5454e530-5c87-4957-bf94-620cb84627b6"},"vehicle_type_id":"4","last_reported":1730412490,"current_range_meters":11200,"station_id":"ce4bhnh2rcd13ifvqgug","pricing_plan_id":"cebpf4jnsgd1na2vs0mg"},{"bike_id":"d843627f-14fd-4686-94e3-ce47a963fbbd","system_id":"levelo_inurba_marseille","lat":43.29264,"lon":5.38436,"is_reserved":false,"is_disabled":false,"rental_uris":{"android":"levelo://app?vid=d843627f-14fd-4686-94e3-ce47a963fbbd","ios":"levelo://app?vid=d843627f-14fd-4686-94e3-ce47a963fbbd"},"vehicle_type_id":"4","last_reported":1730412490,"current_range_meters":38800,"station_id":"ce4bh692rcd13ifvqea0","pricing_plan_id":"cebpf4jnsgd1na2vs0mg"},{"bike_id":"c9fe9305-e5b5-403a-8ac6-ee784523647c","system_id":"levelo_inurba_marseille","lat":43.23424,"lon":5.35943,"is_reserved":false,"is_disabled":false,"rental_uris":{"android":"levelo://app?vid=c9fe9305-e5b5-403a-8ac6-ee784523647c","ios":"levelo://app?vid=c9fe9305-e5b5-403a-8ac6-ee784523647c"},"vehicle_type_id":"4","last_reported":1730412490,"current_range_meters":25600,"station_id":"","pricing_plan_id":"cebpf4jnsgd1na2vs0mg"},{"bike_id":"3762b5b7-778d-4d2e-9b34-ac4ef4125c24","system_id":"levelo_inurba_marseille","lat":43.27617,"lon":5.36109,"is_reserved":false,"is_disabled":false,"rental_uris":{"android":"levelo://app?vid=3762b5b7-778d-4d2e-9b34-ac4ef4125c24","ios":"levelo://app?vid=3762b5b7-778d-4d2e-9b34-ac4ef4125c24"},"vehicle_type_id":"4","last_reported":1730412490,"current_range_meters":36400,"station_id":"ce4bgj92rcd13ifvqbe0","pricing_plan_id":"cebpf4jnsgd1na2vs0mg"},{"bike_id":"e1f38475-1a5f-460f-8d3a-c2ed01dbd393","system_id":"levelo_inurba_marseille","lat":43.29028,"lon":5.38642,"is_reserved":false,"is_disabled":false,"rental_uris":{"android":"levelo://app?vid=e1f38475-1a5f-460f-8d3a-c2ed01dbd393","ios":"levelo://app?vid=e1f38475-1a5f-460f-8d3a-c2ed01dbd393"},"vehicle_type_id":"4","last_reported":1730412490,"current_range_meters":39200,"station_id":"ce4bh4p2rcd13ifvqe0g","pricing_plan_id":"cebpf4jnsgd1na2vs0mg"},{"bike_id":"2571a3ca-668d-432c-9403-c4fad7dd50e9","system_id":"levelo_inurba_marseille","lat":43.2926,"lon":5.38442,"is_reserved":false,"is_disabled":false,"rental_uris":{"android":"levelo://app?vid=2571a3ca-668d-432c-9403-c4fad7dd50e9","ios":"levelo://app?vid=2571a3ca-668d-432c-9403-c4fad7dd50e9"},"vehicle_type_id":"4","last_reported":1730412490,"current_range_meters":9600,"station_id":"ce4bh692rcd13ifvqea0","pricing_plan_id":"cebpf4jnsgd1na2vs0mg"},{"bike_id":"82df2c5c-e034-416e-a3af-15e5fc91fe12","system_id":"levelo_inurba_marseille","lat":43.29931,"lon":5.36549,"is_reserved":false,"is_disabled":false,"rental_uris":{"android":"levelo://app?vid=82df2c5c-e034-416e-a3af-15e5fc91fe12","ios":"levelo://app?vid=82df2c5c-e034-416e-a3af-15e5fc91fe12"},"vehicle_type_id":"4","last_reported":1730412490,"current_range_meters":3600,"station_id":"ce4bgm92rcd13ifvqbr0","pricing_plan_id":"cebpf4jnsgd1na2vs0mg"},{"bike_id":"5b65c998-a70a-4147-a5ad-cfde4a53ff4d","system_id":"levelo_inurba_marseille","lat":43.29025,"lon":5.38641,"is_reserved":false,"is_disabled":false,"rental_uris":{"android":"levelo://app?vid=5b65c998-a70a-4147-a5ad-cfde4a53ff4d","ios":"levelo://app?vid=5b65c998-a70a-4147-a5ad-cfde4a53ff4d"},"vehicle_type_id":"4","last_reported":1730412490,"current_range_meters":27600,"station_id":"ce4bh4p2rcd13ifvqe0g","pricing_plan_id":"cebpf4jnsgd1na2vs0mg"},{"bike_id":"60223806-a44d-4bd3-a685-de2b36919390","system_id":"levelo_inurba_marseille","lat":43.27583,"lon":5.38491,"is_reserved":false,"is_disabled":false,"rental_uris":{"android":"levelo://app?vid=60223806-a44d-4bd3-a685-de2b36919390","ios":"levelo://app?vid=60223806-a44d-4bd3-a685-de2b36919390"},"vehicle_type_id":"4","last_reported":1730412490,"current_range_meters":16400,"station_id":"ce4bhh92rcd13ifvqfi0","pricing_plan_id":"cebpf4jnsgd1na2vs0mg"},{"bike_id":"149cd22b-8024-4817-867e-76a6390627be","system_id":"levelo_inurba_marseille","lat":43.30546,"lon":5.38428,"is_reserved":false,"is_disabled":false,"rental_uris":{"android":"levelo://app?vid=149cd22b-8024-4817-867e-76a6390627be","ios":"levelo://app?vid=149cd22b-8024-4817-867e-76a6390627be"},"vehicle_type_id":"4","last_reported":1730412490,"current_range_meters":32000,"station_id":"ce4bgg92rcd13ifvqb30","pricing_plan_id":"cebpf4jnsgd1na2vs0mg"},{"bike_id":"128e004d-d866-4629-b9a8-0ef62bb11b68","system_id":"levelo_inurba_marseille","lat":43.29893,"lon":5.43663,"is_reserved":false,"is_disabled":false,"rental_uris":{"android":"levelo://app?vid=128e004d-d866-4629-b9a8-0ef62bb11b68","ios":"levelo://app?vid=128e004d-d866-4629-b9a8-0ef62bb11b68"},"vehicle_type_id":"4","last_reported":1730412490,"current_range_meters":11600,"station_id":"ce4bhpp2rcd13ifvqhfg","pricing_plan_id":"cebpf4jnsgd1na2vs0mg"},{"bike_id":"501e2dd8-5de1-4db3-9502-fb8ae08b3030","system_id":"levelo_inurba_marseille","lat":43.27211,"lon":5.39182,"is_reserved":false,"is_disabled":false,"rental_uris":{"android":"levelo://app?vid=501e2dd8-5de1-4db3-9502-fb8ae08b3030","ios":"levelo://app?vid=501e2dd8-5de1-4db3-9502-fb8ae08b3030"},"vehicle_type_id":"4","last_reported":1730412490,"current_range_meters":12000,"station_id":"ce4bhhp2rcd13ifvqfm0","pricing_plan_id":"cebpf4jnsgd1na2vs0mg"},{"bike_id":"a170b4cb-3e23-4249-961a-c8b3c67a8011","system_id":"levelo_inurba_marseille","lat":43.29539,"lon":5.3854,"is_reserved":false,"is_disabled":false,"rental_uris":{"android":"levelo://app?vid=a170b4cb-3e23-4249-961a-c8b3c67a8011","ios":"levelo://app?vid=a170b4cb-3e23-4249-961a-c8b3c67a8011"},"vehicle_type_id":"4","last_reported":1730412490,"current_range_meters":12400,"station_id":"ce4bgih2rcd13ifvqba0","pricing_plan_id":"cebpf4jnsgd1na2vs0mg"},{"bike_id":"b019a3db-d3dc-4eb2-99df-c13cffd04fab","system_id":"levelo_inurba_marseille","lat":43.27909,"lon":5.39589,"is_reserved":false,"is_disabled":false,"rental_uris":{"android":"levelo://app?vid=b019a3db-d3dc-4eb2-99df-c13cffd04fab","ios":"levelo://app?vid=b019a3db-d3dc-4eb2-99df-c13cffd04fab"},"vehicle_type_id":"4","last_reported":1730412490,"current_range_meters":38800,"station_id":"ce4bhf92rcd13ifvqf40","pricing_plan_id":"cebpf4jnsgd1na2vs0mg"},{"bike_id":"f64780b2-1768-4481-bc9c-3c6d67099c9d","system_id":"levelo_inurba_marseille","lat":43.30087,"lon":5.390873,"is_reserved":false,"is_disabled":false,"rental_uris":{"android":"levelo://app?vid=f64780b2-1768-4481-bc9c-3c6d67099c9d","ios":"levelo://app?vid=f64780b2-1768-4481-bc9c-3c6d67099c9d"},"vehicle_type_id":"4","last_reported":1730412490,"current_range_meters":38000,"station_id":"ce4bh192rcd13ifvqdb0","pricing_plan_id":"cebpf4jnsgd1na2vs0mg"},{"bike_id":"cd3d1088-15a2-4c47-9e0b-bf2fe31281d2","system_id":"levelo_inurba_marseille","lat":43.330247,"lon":5.390368,"is_reserved":false,"is_disabled":false,"rental_uris":{"android":"levelo://app?vid=cd3d1088-15a2-4c47-9e0b-bf2fe31281d2","ios":"levelo://app?vid=cd3d1088-15a2-4c47-9e0b-bf2fe31281d2"},"vehicle_type_id":"4","last_reported":1730412490,"current_range_meters":39200,"station_id":"ce4bhr92rcd13ifvqhrg","pricing_plan_id":"cebpf4jnsgd1na2vs0mg"},{"bike_id":"a75fbca2-5497-4a02-b16d-20d1c5a8f209","system_id":"levelo_inurba_marseille","lat":43.27211,"lon":5.39175,"is_reserved":false,"is_disabled":false,"rental_uris":{"android":"levelo://app?vid=a75fbca2-5497-4a02-b16d-20d1c5a8f209","ios":"levelo://app?vid=a75fbca2-5497-4a02-b16d-20d1c5a8f209"},"vehicle_type_id":"4","last_reported":1730412490,"current_range_meters":37600,"station_id":"ce4bhhp2rcd13ifvqfm0","pricing_plan_id":"cebpf4jnsgd1na2vs0mg"},{"bike_id":"30cd3637-5231-4451-8b17-3902824e2d98","system_id":"levelo_inurba_marseille","lat":43.31437,"lon":5.3928,"is_reserved":false,"is_disabled":false,"rental_uris":{"android":"levelo://app?vid=30cd3637-5231-4451-8b17-3902824e2d98","ios":"levelo://app?vid=30cd3637-5231-4451-8b17-3902824e2d98"},"vehicle_type_id":"4","last_reported":1730412490,"current_range_meters":20000,"station_id":"","pricing_plan_id":"cebpf4jnsgd1na2vs0mg"},{"bike_id":"25eb13cb-92bd-4a30-b4b6-e905389ff41d","system_id":"levelo_inurba_marseille","lat":43.27573,"lon":5.38437,"is_reserved":false,"is_disabled":false,"rental_uris":{"android":"levelo://app?vid=25eb13cb-92bd-4a30-b4b6-e905389ff41d","ios":"levelo://app?vid=25eb13cb-92bd-4a30-b4b6-e905389ff41d"},"vehicle_type_id":"4","last_reported":1730412490,"current_range_meters":20800,"station_id":"ce4bhh92rcd13ifvqfi0","pricing_plan_id":"cebpf4jnsgd1na2vs0mg"},{"bike_id":"94485233-8cd4-41a3-af43-c0366477ca81","system_id":"levelo_inurba_marseille","lat":43.30197,"lon":5.36624,"is_reserved":false,"is_disabled":false,"rental_uris":{"android":"levelo://app?vid=94485233-8cd4-41a3-af43-c0366477ca81","ios":"levelo://app?vid=94485233-8cd4-41a3-af43-c0366477ca81"},"vehicle_type_id":"4","last_reported":1730412490,"current_range_meters":35600,"station_id":"ce4bgrh2rcd13ifvqc8g","pricing_plan_id":"cebpf4jnsgd1na2vs0mg"},{"bike_id":"dafc57dc-c6e9-4549-a285-19866fd7680f","system_id":"levelo_inurba_marseille","lat":43.28703,"lon":5.39975,"is_reserved":false,"is_disabled":false,"rental_uris":{"android":"levelo://app?vid=dafc57dc-c6e9-4549-a285-19866fd7680f","ios":"levelo://app?vid=dafc57dc-c6e9-4549-a285-19866fd7680f"},"vehicle_type_id":"4","last_reported":1730412490,"current_range_meters":20000,"station_id":"ce4bho92rcd13ifvqh3g","pricing_plan_id":"cebpf4jnsgd1na2vs0mg"},{"bike_id":"146c8f51-2eee-40f1-a8a2-510d1d3cee4f","system_id":"levelo_inurba_marseille","lat":43.29843,"lon":5.36273,"is_reserved":false,"is_disabled":false,"rental_uris":{"android":"levelo://app?vid=146c8f51-2eee-40f1-a8a2-510d1d3cee4f","ios":"levelo://app?vid=146c8f51-2eee-40f1-a8a2-510d1d3cee4f"},"vehicle_type_id":"4","last_reported":1730412490,"current_range_meters":20000,"station_id":"ce4bgpp2rcd13ifvqc3g","pricing_plan_id":"cebpf4jnsgd1na2vs0mg"},{"bike_id":"28d3908a-af05-463f-ba89-60bb7ec0116a","system_id":"levelo_inurba_marseille","lat":43.29535,"lon":5.38546,"is_reserved":false,"is_disabled":false,"rental_uris":{"android":"levelo://app?vid=28d3908a-af05-463f-ba89-60bb7ec0116a","ios":"levelo://app?vid=28d3908a-af05-463f-ba89-60bb7ec0116a"},"vehicle_type_id":"4","last_reported":1730412490,"current_range_meters":36000,"station_id":"ce4bgih2rcd13ifvqba0","pricing_plan_id":"cebpf4jnsgd1na2vs0mg"},{"bike_id":"c59be4ab-8fc7-4f03-9ba3-3204b8faa6b4","system_id":"levelo_inurba_marseille","lat":43.25874,"lon":5.39912,"is_reserved":false,"is_disabled":false,"rental_uris":{"android":"levelo://app?vid=c59be4ab-8fc7-4f03-9ba3-3204b8faa6b4","ios":"levelo://app?vid=c59be4ab-8fc7-4f03-9ba3-3204b8faa6b4"},"vehicle_type_id":"4","last_reported":1730412490,"current_range_meters":16800,"station_id":"ce4bhl92rcd13ifvqghg","pricing_plan_id":"cebpf4jnsgd1na2vs0mg"},{"bike_id":"2e67f7b6-01c2-4ccc-9d96-369af4546414","system_id":"levelo_inurba_marseille","lat":43.29526,"lon":5.38536,"is_reserved":false,"is_disabled":false,"rental_uris":{"android":"levelo://app?vid=2e67f7b6-01c2-4ccc-9d96-369af4546414","ios":"levelo://app?vid=2e67f7b6-01c2-4ccc-9d96-369af4546414"},"vehicle_type_id":"4","last_reported":1730412490,"current_range_meters":38800,"station_id":"ce4bgih2rcd13ifvqba0","pricing_plan_id":"cebpf4jnsgd1na2vs0mg"},{"bike_id":"58748d2a-dff2-4bfe-ba69-a9beed25e62c","system_id":"levelo_inurba_marseille","lat":43.27113,"lon":5.39454,"is_reserved":false,"is_disabled":false,"rental_uris":{"android":"levelo://app?vid=58748d2a-dff2-4bfe-ba69-a9beed25e62c","ios":"levelo://app?vid=58748d2a-dff2-4bfe-ba69-a9beed25e62c"},"vehicle_type_id":"4","last_reported":1730412490,"current_range_meters":26800,"station_id":"","pricing_plan_id":"cebpf4jnsgd1na2vs0mg"},{"bike_id":"08ed22d7-663d-413b-8e4a-a32596a7792f","system_id":"levelo_inurba_marseille","lat":43.32493,"lon":5.41568,"is_reserved":false,"is_disabled":false,"rental_uris":{"android":"levelo://app?vid=08ed22d7-663d-413b-8e4a-a32596a7792f","ios":"levelo://app?vid=08ed22d7-663d-413b-8e4a-a32596a7792f"},"vehicle_type_id":"4","last_reported":1730412490,"current_range_meters":38800,"station_id":"","pricing_plan_id":"cebpf4jnsgd1na2vs0mg"},{"bike_id":"a46989d1-40cb-4edc-a303-ea27515b4f17","system_id":"levelo_inurba_marseille","lat":43.27818,"lon":5.40706,"is_reserved":false,"is_disabled":false,"rental_uris":{"android":"levelo://app?vid=a46989d1-40cb-4edc-a303-ea27515b4f17","ios":"levelo://app?vid=a46989d1-40cb-4edc-a303-ea27515b4f17"},"vehicle_type_id":"4","last_reported":1730412490,"current_range_meters":33600,"station_id":"ce4bhnh2rcd13ifvqgtg","pricing_plan_id":"cebpf4jnsgd1na2vs0mg"},{"bike_id":"fb536a03-1f45-4685-8473-f3f23d542b83","system_id":"levelo_inurba_marseille","lat":43.27309,"lon":5.3909,"is_reserved":false,"is_disabled":false,"rental_uris":{"android":"levelo://app?vid=fb536a03-1f45-4685-8473-f3f23d542b83","ios":"levelo://app?vid=fb536a03-1f45-4685-8473-f3f23d542b83"},"vehicle_type_id":"4","last_reported":1730412490,"current_range_meters":27600,"station_id":"ce4bhgp2rcd13ifvqfe0","pricing_plan_id":"cebpf4jnsgd1na2vs0mg"},{"bike_id":"35b9aca8-7f70-4db8-a360-d94a8449d6d6","system_id":"levelo_inurba_marseille","lat":43.29603,"lon":5.38102,"is_reserved":false,"is_disabled":false,"rental_uris":{"android":"levelo://app?vid=35b9aca8-7f70-4db8-a360-d94a8449d6d6","ios":"levelo://app?vid=35b9aca8-7f70-4db8-a360-d94a8449d6d6"},"vehicle_type_id":"4","last_reported":1730412490,"current_range_meters":6400,"station_id":"ce4bgl12rcd13ifvqbo0","pricing_plan_id":"cebpf4jnsgd1na2vs0mg"},{"bike_id":"a8bf15a2-3da0-456e-bd97-081c5a518dd1","system_id":"levelo_inurba_marseille","lat":43.27375,"lon":5.36249,"is_reserved":false,"is_disabled":false,"rental_uris":{"android":"levelo://app?vid=a8bf15a2-3da0-456e-bd97-081c5a518dd1","ios":"levelo://app?vid=a8bf15a2-3da0-456e-bd97-081c5a518dd1"},"vehicle_type_id":"4","last_reported":1730412490,"current_range_meters":38800,"station_id":"ce4bhbh2rcd13ifvqeo0","pricing_plan_id":"cebpf4jnsgd1na2vs0mg"},{"bike_id":"ea860d18-d5bb-4b0e-a22b-25a2ca231534","system_id":"levelo_inurba_marseille","lat":43.29032,"lon":5.38666,"is_reserved":false,"is_disabled":false,"rental_uris":{"android":"levelo://app?vid=ea860d18-d5bb-4b0e-a22b-25a2ca231534","ios":"levelo://app?vid=ea860d18-d5bb-4b0e-a22b-25a2ca231534"},"vehicle_type_id":"4","last_reported":1730412490,"current_range_meters":35600,"station_id":"ce4bh4p2rcd13ifvqe0g","pricing_plan_id":"cebpf4jnsgd1na2vs0mg"},{"bike_id":"4748c607-e231-4758-abac-4ae44466df2c","system_id":"levelo_inurba_marseille","lat":43.2927,"lon":5.38449,"is_reserved":false,"is_disabled":false,"rental_uris":{"android":"levelo://app?vid=4748c607-e231-4758-abac-4ae44466df2c","ios":"levelo://app?vid=4748c607-e231-4758-abac-4ae44466df2c"},"vehicle_type_id":"4","last_reported":1730412490,"current_range_meters":14800,"station_id":"ce4bh692rcd13ifvqea0","pricing_plan_id":"cebpf4jnsgd1na2vs0mg"},{"bike_id":"94279a57-03c0-47b7-abe3-7226e86fd3b0","system_id":"levelo_inurba_marseille","lat":43.27619,"lon":5.36101,"is_reserved":false,"is_disabled":false,"rental_uris":{"android":"levelo://app?vid=94279a57-03c0-47b7-abe3-7226e86fd3b0","ios":"levelo://app?vid=94279a57-03c0-47b7-abe3-7226e86fd3b0"},"vehicle_type_id":"4","last_reported":1730412490,"current_range_meters":28000,"station_id":"ce4bgj92rcd13ifvqbe0","pricing_plan_id":"cebpf4jnsgd1na2vs0mg"},{"bike_id":"5fa6fa0f-2d77-4b58-8f21-d0c45f129615","system_id":"levelo_inurba_marseille","lat":43.29285,"lon":5.40106,"is_reserved":false,"is_disabled":false,"rental_uris":{"android":"levelo://app?vid=5fa6fa0f-2d77-4b58-8f21-d0c45f129615","ios":"levelo://app?vid=5fa6fa0f-2d77-4b58-8f21-d0c45f129615"},"vehicle_type_id":"4","last_reported":1730412490,"current_range_meters":20000,"station_id":"ce4bh312rcd13ifvqdk0","pricing_plan_id":"cebpf4jnsgd1na2vs0mg"},{"bike_id":"864a552f-87dd-464a-977f-d7ea2d5d0d29","system_id":"levelo_inurba_marseille","lat":43.27615,"lon":5.36105,"is_reserved":false,"is_disabled":false,"rental_uris":{"android":"levelo://app?vid=864a552f-87dd-464a-977f-d7ea2d5d0d29","ios":"levelo://app?vid=864a552f-87dd-464a-977f-d7ea2d5d0d29"},"vehicle_type_id":"4","last_reported":1730412490,"current_range_meters":24800,"station_id":"ce4bgj92rcd13ifvqbe0","pricing_plan_id":"cebpf4jnsgd1na2vs0mg"},{"bike_id":"1c03b1dd-0784-49b8-889b-839041fa077d","system_id":"levelo_inurba_marseille","lat":43.27617,"lon":5.36113,"is_reserved":false,"is_disabled":false,"rental_uris":{"android":"levelo://app?vid=1c03b1dd-0784-49b8-889b-839041fa077d","ios":"levelo://app?vid=1c03b1dd-0784-49b8-889b-839041fa077d"},"vehicle_type_id":"4","last_reported":1730412490,"current_range_meters":35200,"station_id":"ce4bgj92rcd13ifvqbe0","pricing_plan_id":"cebpf4jnsgd1na2vs0mg"},{"bike_id":"6ed6a989-9445-42cb-88f4-17f899a86427","system_id":"levelo_inurba_marseille","lat":43.2558,"lon":5.38228,"is_reserved":false,"is_disabled":false,"rental_uris":{"android":"levelo://app?vid=6ed6a989-9445-42cb-88f4-17f899a86427","ios":"levelo://app?vid=6ed6a989-9445-42cb-88f4-17f899a86427"},"vehicle_type_id":"4","last_reported":1730412490,"current_range_meters":34800,"station_id":"ce4bhih2rcd13ifvqfs0","pricing_plan_id":"cebpf4jnsgd1na2vs0mg"},{"bike_id":"ce7a9679-1309-4337-a277-05901a838b7d","system_id":"levelo_inurba_marseille","lat":43.2943,"lon":5.43386,"is_reserved":false,"is_disabled":false,"rental_uris":{"android":"levelo://app?vid=ce7a9679-1309-4337-a277-05901a838b7d","ios":"levelo://app?vid=ce7a9679-1309-4337-a277-05901a838b7d"},"vehicle_type_id":"4","last_reported":1730412490,"current_range_meters":18800,"station_id":"","pricing_plan_id":"cebpf4jnsgd1na2vs0mg"},{"bike_id":"764067bd-8409-4de8-a95e-521eb16423fc","system_id":"levelo_inurba_marseille","lat":43.26782,"lon":5.39412,"is_reserved":false,"is_disabled":false,"rental_uris":{"android":"levelo://app?vid=764067bd-8409-4de8-a95e-521eb16423fc","ios":"levelo://app?vid=764067bd-8409-4de8-a95e-521eb16423fc"},"vehicle_type_id":"4","last_reported":1730412490,"current_range_meters":6000,"station_id":"ce4bhh12rcd13ifvqfg0","pricing_plan_id":"cebpf4jnsgd1na2vs0mg"},{"bike_id":"742e3b39-99d0-477f-8dff-13676bdb1f4a","system_id":"levelo_inurba_marseille","lat":43.27065,"lon":5.42273,"is_reserved":false,"is_disabled":false,"rental_uris":{"android":"levelo://app?vid=742e3b39-99d0-477f-8dff-13676bdb1f4a","ios":"levelo://app?vid=742e3b39-99d0-477f-8dff-13676bdb1f4a"},"vehicle_type_id":"4","last_reported":1730412490,"current_range_meters":38800,"station_id":"ce4bhk92rcd13ifvqgb0","pricing_plan_id":"cebpf4jnsgd1na2vs0mg"},{"bike_id":"dcb8f151-5f72-4ce7-a41b-c8f44dd67b21","system_id":"levelo_inurba_marseille","lat":43.31365,"lon":5.38498,"is_reserved":false,"is_disabled":false,"rental_uris":{"android":"levelo://app?vid=dcb8f151-5f72-4ce7-a41b-c8f44dd67b21","ios":"levelo://app?vid=dcb8f151-5f72-4ce7-a41b-c8f44dd67b21"},"vehicle_type_id":"4","last_reported":1730412490,"current_range_meters":8000,"station_id":"ce4bgt92rcd13ifvqcf0","pricing_plan_id":"cebpf4jnsgd1na2vs0mg"},{"bike_id":"0327b2c3-a953-4a00-af49-25eb8099bcbf","system_id":"levelo_inurba_marseille","lat":43.31331,"lon":5.39685,"is_reserved":false,"is_disabled":false,"rental_uris":{"android":"levelo://app?vid=0327b2c3-a953-4a00-af49-25eb8099bcbf","ios":"levelo://app?vid=0327b2c3-a953-4a00-af49-25eb8099bcbf"},"vehicle_type_id":"4","last_reported":1730412490,"current_range_meters":38800,"station_id":"ce4bgvp2rcd13ifvqcu0","pricing_plan_id":"cebpf4jnsgd1na2vs0mg"},{"bike_id":"1e118e6b-ca08-4a1f-82dd-7bc52207365a","system_id":"levelo_inurba_marseille","lat":43.29422,"lon":5.38608,"is_reserved":false,"is_disabled":false,"rental_uris":{"android":"levelo://app?vid=1e118e6b-ca08-4a1f-82dd-7bc52207365a","ios":"levelo://app?vid=1e118e6b-ca08-4a1f-82dd-7bc52207365a"},"vehicle_type_id":"4","last_reported":1730412490,"current_range_meters":29600,"station_id":"ce4bh2h2rcd13ifvqdh0","pricing_plan_id":"cebpf4jnsgd1na2vs0mg"},{"bike_id":"84952c50-9810-490c-84e6-826a3c4dc33f","system_id":"levelo_inurba_marseille","lat":43.31221,"lon":5.36851,"is_reserved":false,"is_disabled":false,"rental_uris":{"android":"levelo://app?vid=84952c50-9810-490c-84e6-826a3c4dc33f","ios":"levelo://app?vid=84952c50-9810-490c-84e6-826a3c4dc33f"},"vehicle_type_id":"4","last_reported":1730412490,"current_range_meters":6400,"station_id":"ce4bgl92rcd13ifvqbq0","pricing_plan_id":"cebpf4jnsgd1na2vs0mg"},{"bike_id":"98b6d671-73be-4e9f-9eb5-4e9410e42c9d","system_id":"levelo_inurba_marseille","lat":43.27619,"lon":5.36108,"is_reserved":false,"is_disabled":false,"rental_uris":{"android":"levelo://app?vid=98b6d671-73be-4e9f-9eb5-4e9410e42c9d","ios":"levelo://app?vid=98b6d671-73be-4e9f-9eb5-4e9410e42c9d"},"vehicle_type_id":"4","last_reported":1730412490,"current_range_meters":37600,"station_id":"ce4bgj92rcd13ifvqbe0","pricing_plan_id":"cebpf4jnsgd1na2vs0mg"},{"bike_id":"a3126011-34ea-44f9-8739-4e0b0ad74aa0","system_id":"levelo_inurba_marseille","lat":43.23971,"lon":5.36623,"is_reserved":false,"is_disabled":false,"rental_uris":{"android":"levelo://app?vid=a3126011-34ea-44f9-8739-4e0b0ad74aa0","ios":"levelo://app?vid=a3126011-34ea-44f9-8739-4e0b0ad74aa0"},"vehicle_type_id":"4","last_reported":1730412490,"current_range_meters":13600,"station_id":"ce4bhi12rcd13ifvqfp0","pricing_plan_id":"cebpf4jnsgd1na2vs0mg"},{"bike_id":"2d045039-c52b-4a5d-b80a-fd1aec0a23ec","system_id":"levelo_inurba_marseille","lat":43.29254,"lon":5.38442,"is_reserved":false,"is_disabled":false,"rental_uris":{"android":"levelo://app?vid=2d045039-c52b-4a5d-b80a-fd1aec0a23ec","ios":"levelo://app?vid=2d045039-c52b-4a5d-b80a-fd1aec0a23ec"},"vehicle_type_id":"4","last_reported":1730412490,"current_range_meters":38000,"station_id":"ce4bh692rcd13ifvqea0","pricing_plan_id":"cebpf4jnsgd1na2vs0mg"},{"bike_id":"99f60d99-0a57-4992-9e28-beeb29ec765f","system_id":"levelo_inurba_marseille","lat":43.3229,"lon":5.38266,"is_reserved":false,"is_disabled":false,"rental_uris":{"android":"levelo://app?vid=99f60d99-0a57-4992-9e28-beeb29ec765f","ios":"levelo://app?vid=99f60d99-0a57-4992-9e28-beeb29ec765f"},"vehicle_type_id":"4","last_reported":1730412490,"current_range_meters":38400,"station_id":"ce4bhr12rcd13ifvqhqg","pricing_plan_id":"cebpf4jnsgd1na2vs0mg"},{"bike_id":"e64b75ee-aa47-40ce-bf85-a0c3a4da3340","system_id":"levelo_inurba_marseille","lat":43.2648,"lon":5.39556,"is_reserved":false,"is_disabled":false,"rental_uris":{"android":"levelo://app?vid=e64b75ee-aa47-40ce-bf85-a0c3a4da3340","ios":"levelo://app?vid=e64b75ee-aa47-40ce-bf85-a0c3a4da3340"},"vehicle_type_id":"4","last_reported":1730412490,"current_range_meters":3200,"station_id":"ce4bhi12rcd13ifvqfq0","pricing_plan_id":"cebpf4jnsgd1na2vs0mg"},{"bike_id":"160c3125-d109-49e3-a687-ede78b99dea2","system_id":"levelo_inurba_marseille","lat":43.23204,"lon":5.35549,"is_reserved":false,"is_disabled":false,"rental_uris":{"android":"levelo://app?vid=160c3125-d109-49e3-a687-ede78b99dea2","ios":"levelo://app?vid=160c3125-d109-49e3-a687-ede78b99dea2"},"vehicle_type_id":"4","last_reported":1730412490,"current_range_meters":33200,"station_id":"ce4bhu92rcd13ifvqi70","pricing_plan_id":"cebpf4jnsgd1na2vs0mg"},{"bike_id":"0e664c17-da14-4dad-904a-bfe1e659c0e3","system_id":"levelo_inurba_marseille","lat":43.29423,"lon":5.38611,"is_reserved":false,"is_disabled":false,"rental_uris":{"android":"levelo://app?vid=0e664c17-da14-4dad-904a-bfe1e659c0e3","ios":"levelo://app?vid=0e664c17-da14-4dad-904a-bfe1e659c0e3"},"vehicle_type_id":"4","last_reported":1730412490,"current_range_meters":30000,"station_id":"ce4bh2h2rcd13ifvqdh0","pricing_plan_id":"cebpf4jnsgd1na2vs0mg"},{"bike_id":"ae31f7aa-ec14-4090-9ea9-479b30ff0ee5","system_id":"levelo_inurba_marseille","lat":43.33601,"lon":5.41038,"is_reserved":false,"is_disabled":false,"rental_uris":{"android":"levelo://app?vid=ae31f7aa-ec14-4090-9ea9-479b30ff0ee5","ios":"levelo://app?vid=ae31f7aa-ec14-4090-9ea9-479b30ff0ee5"},"vehicle_type_id":"4","last_reported":1730412490,"current_range_meters":33600,"station_id":"ce4bhqh2rcd13ifvqhmg","pricing_plan_id":"cebpf4jnsgd1na2vs0mg"},{"bike_id":"9f4b3ed9-8fdf-49ee-82b0-52062da6c3cd","system_id":"levelo_inurba_marseille","lat":43.29419,"lon":5.38609,"is_reserved":false,"is_disabled":false,"rental_uris":{"android":"levelo://app?vid=9f4b3ed9-8fdf-49ee-82b0-52062da6c3cd","ios":"levelo://app?vid=9f4b3ed9-8fdf-49ee-82b0-52062da6c3cd"},"vehicle_type_id":"4","last_reported":1730412490,"current_range_meters":14400,"station_id":"ce4bh2h2rcd13ifvqdh0","pricing_plan_id":"cebpf4jnsgd1na2vs0mg"},{"bike_id":"4c61f11b-de49-4664-8246-0fd92e617235","system_id":"levelo_inurba_marseille","lat":43.27817,"lon":5.40716,"is_reserved":false,"is_disabled":false,"rental_uris":{"android":"levelo://app?vid=4c61f11b-de49-4664-8246-0fd92e617235","ios":"levelo://app?vid=4c61f11b-de49-4664-8246-0fd92e617235"},"vehicle_type_id":"4","last_reported":1730412490,"current_range_meters":24000,"station_id":"ce4bhnh2rcd13ifvqgtg","pricing_plan_id":"cebpf4jnsgd1na2vs0mg"},{"bike_id":"71d10f41-2ffe-4394-bc10-bfa4bb58be1e","system_id":"levelo_inurba_marseille","lat":43.32341,"lon":5.40627,"is_reserved":false,"is_disabled":false,"rental_uris":{"android":"levelo://app?vid=71d10f41-2ffe-4394-bc10-bfa4bb58be1e","ios":"levelo://app?vid=71d10f41-2ffe-4394-bc10-bfa4bb58be1e"},"vehicle_type_id":"4","last_reported":1730412490,"current_range_meters":26800,"station_id":"ce4bhq92rcd13ifvqhjg","pricing_plan_id":"cebpf4jnsgd1na2vs0mg"},{"bike_id":"6bdedc30-2698-4234-b144-a06adc28aeba","system_id":"levelo_inurba_marseille","lat":43.28571,"lon":5.394927,"is_reserved":false,"is_disabled":false,"rental_uris":{"android":"levelo://app?vid=6bdedc30-2698-4234-b144-a06adc28aeba","ios":"levelo://app?vid=6bdedc30-2698-4234-b144-a06adc28aeba"},"vehicle_type_id":"4","last_reported":1730412490,"current_range_meters":36400,"station_id":"ce4bh292rcd13ifvqdg0","pricing_plan_id":"cebpf4jnsgd1na2vs0mg"},{"bike_id":"56bf23b5-b89b-4068-aa80-4548df17eb67","system_id":"levelo_inurba_marseille","lat":43.28078,"lon":5.39658,"is_reserved":false,"is_disabled":false,"rental_uris":{"android":"levelo://app?vid=56bf23b5-b89b-4068-aa80-4548df17eb67","ios":"levelo://app?vid=56bf23b5-b89b-4068-aa80-4548df17eb67"},"vehicle_type_id":"4","last_reported":1730412490,"current_range_meters":34000,"station_id":"ce4bho12rcd13ifvqh2g","pricing_plan_id":"cebpf4jnsgd1na2vs0mg"},{"bike_id":"588d2488-f394-48b1-b98a-b5ec4d27ec61","system_id":"levelo_inurba_marseille","lat":43.29258,"lon":5.38448,"is_reserved":false,"is_disabled":false,"rental_uris":{"android":"levelo://app?vid=588d2488-f394-48b1-b98a-b5ec4d27ec61","ios":"levelo://app?vid=588d2488-f394-48b1-b98a-b5ec4d27ec61"},"vehicle_type_id":"4","last_reported":1730412490,"current_range_meters":23200,"station_id":"ce4bh692rcd13ifvqea0","pricing_plan_id":"cebpf4jnsgd1na2vs0mg"},{"bike_id":"a4e1ca50-ded6-4271-a5da-c67edd55fc27","system_id":"levelo_inurba_marseille","lat":43.27909,"lon":5.39577,"is_reserved":false,"is_disabled":false,"rental_uris":{"android":"levelo://app?vid=a4e1ca50-ded6-4271-a5da-c67edd55fc27","ios":"levelo://app?vid=a4e1ca50-ded6-4271-a5da-c67edd55fc27"},"vehicle_type_id":"4","last_reported":1730412490,"current_range_meters":32400,"station_id":"ce4bhf92rcd13ifvqf40","pricing_plan_id":"cebpf4jnsgd1na2vs0mg"},{"bike_id":"9c0ce7c2-266b-456a-b600-aad012ecaf01","system_id":"levelo_inurba_marseille","lat":43.26202,"lon":5.37928,"is_reserved":false,"is_disabled":false,"rental_uris":{"android":"levelo://app?vid=9c0ce7c2-266b-456a-b600-aad012ecaf01","ios":"levelo://app?vid=9c0ce7c2-266b-456a-b600-aad012ecaf01"},"vehicle_type_id":"4","last_reported":1730412490,"current_range_meters":39200,"station_id":"ce4bhjp2rcd13ifvqg90","pricing_plan_id":"cebpf4jnsgd1na2vs0mg"},{"bike_id":"b3a1d2f8-81d8-4290-a139-82121f05aaeb","system_id":"levelo_inurba_marseille","lat":43.28693,"lon":5.37395,"is_reserved":false,"is_disabled":false,"rental_uris":{"android":"levelo://app?vid=b3a1d2f8-81d8-4290-a139-82121f05aaeb","ios":"levelo://app?vid=b3a1d2f8-81d8-4290-a139-82121f05aaeb"},"vehicle_type_id":"4","last_reported":1730412490,"current_range_meters":9600,"station_id":"ce4bh3p2rcd13ifvqdq0","pricing_plan_id":"cebpf4jnsgd1na2vs0mg"},{"bike_id":"9b21af48-94ff-4e05-8b13-fc0acb67e194","system_id":"levelo_inurba_marseille","lat":43.28716,"lon":5.379337,"is_reserved":false,"is_disabled":false,"rental_uris":{"android":"levelo://app?vid=9b21af48-94ff-4e05-8b13-fc0acb67e194","ios":"levelo://app?vid=9b21af48-94ff-4e05-8b13-fc0acb67e194"},"vehicle_type_id":"4","last_reported":1730412490,"current_range_meters":3600,"station_id":"ce4bh9p2rcd13ifvqec0","pricing_plan_id":"cebpf4jnsgd1na2vs0mg"},{"bike_id":"9a083879-d071-441a-bdbb-71ccdb1d097d","system_id":"levelo_inurba_marseille","lat":43.26793,"lon":5.39422,"is_reserved":false,"is_disabled":false,"rental_uris":{"android":"levelo://app?vid=9a083879-d071-441a-bdbb-71ccdb1d097d","ios":"levelo://app?vid=9a083879-d071-441a-bdbb-71ccdb1d097d"},"vehicle_type_id":"4","last_reported":1730412490,"current_range_meters":36400,"station_id":"ce4bhh12rcd13ifvqfg0","pricing_plan_id":"cebpf4jnsgd1na2vs0mg"},{"bike_id":"ce753621-c045-4606-b913-84a939caec50","system_id":"levelo_inurba_marseille","lat":43.28663,"lon":5.36343,"is_reserved":false,"is_disabled":false,"rental_uris":{"android":"levelo://app?vid=ce753621-c045-4606-b913-84a939caec50","ios":"levelo://app?vid=ce753621-c045-4606-b913-84a939caec50"},"vehicle_type_id":"4","last_reported":1730412490,"current_range_meters":16800,"station_id":"ce4bhah2rcd13ifvqej0","pricing_plan_id":"cebpf4jnsgd1na2vs0mg"},{"bike_id":"fa8f995f-acc8-4f57-a119-d94d6e7a9440","system_id":"levelo_inurba_marseille","lat":43.30923,"lon":5.391174,"is_reserved":false,"is_disabled":false,"rental_uris":{"android":"levelo://app?vid=fa8f995f-acc8-4f57-a119-d94d6e7a9440","ios":"levelo://app?vid=fa8f995f-acc8-4f57-a119-d94d6e7a9440"},"vehicle_type_id":"4","last_reported":1730412490,"current_range_meters":19200,"station_id":"ce4bgup2rcd13ifvqco0","pricing_plan_id":"cebpf4jnsgd1na2vs0mg"},{"bike_id":"13faadfd-34f8-47c2-a836-b4264e266fb2","system_id":"levelo_inurba_marseille","lat":43.29965,"lon":5.37187,"is_reserved":false,"is_disabled":false,"rental_uris":{"android":"levelo://app?vid=13faadfd-34f8-47c2-a836-b4264e266fb2","ios":"levelo://app?vid=13faadfd-34f8-47c2-a836-b4264e266fb2"},"vehicle_type_id":"4","last_reported":1730412490,"current_range_meters":40000,"station_id":"ce4bgr92rcd13ifvqc7g","pricing_plan_id":"cebpf4jnsgd1na2vs0mg"},{"bike_id":"6fe95313-e873-4982-8420-95fec21f0b5f","system_id":"levelo_inurba_marseille","lat":43.31992,"lon":5.38152,"is_reserved":false,"is_disabled":false,"rental_uris":{"android":"levelo://app?vid=6fe95313-e873-4982-8420-95fec21f0b5f","ios":"levelo://app?vid=6fe95313-e873-4982-8420-95fec21f0b5f"},"vehicle_type_id":"4","last_reported":1730412490,"current_range_meters":23200,"station_id":"ce4bhr12rcd13ifvqhpg","pricing_plan_id":"cebpf4jnsgd1na2vs0mg"},{"bike_id":"e8293b4e-059a-4396-9bed-846c599622d5","system_id":"levelo_inurba_marseille","lat":43.27176,"lon":5.4098,"is_reserved":false,"is_disabled":false,"rental_uris":{"android":"levelo://app?vid=e8293b4e-059a-4396-9bed-846c599622d5","ios":"levelo://app?vid=e8293b4e-059a-4396-9bed-846c599622d5"},"vehicle_type_id":"4","last_reported":1730412490,"current_range_meters":39200,"station_id":"ce4bhl12rcd13ifvqgf0","pricing_plan_id":"cebpf4jnsgd1na2vs0mg"},{"bike_id":"ca6834ed-f61e-4abe-85e5-7c3aa33c14e3","system_id":"levelo_inurba_marseille","lat":43.29631,"lon":5.40605,"is_reserved":false,"is_disabled":false,"rental_uris":{"android":"levelo://app?vid=ca6834ed-f61e-4abe-85e5-7c3aa33c14e3","ios":"levelo://app?vid=ca6834ed-f61e-4abe-85e5-7c3aa33c14e3"},"vehicle_type_id":"4","last_reported":1730412490,"current_range_meters":20000,"station_id":"ce4bh0h2rcd13ifvqd60","pricing_plan_id":"cebpf4jnsgd1na2vs0mg"},{"bike_id":"646971bd-7b4e-417e-a986-35e42b284858","system_id":"levelo_inurba_marseille","lat":43.27317,"lon":5.39105,"is_reserved":false,"is_disabled":false,"rental_uris":{"android":"levelo://app?vid=646971bd-7b4e-417e-a986-35e42b284858","ios":"levelo://app?vid=646971bd-7b4e-417e-a986-35e42b284858"},"vehicle_type_id":"4","last_reported":1730412490,"current_range_meters":28400,"station_id":"ce4bhgp2rcd13ifvqfe0","pricing_plan_id":"cebpf4jnsgd1na2vs0mg"},{"bike_id":"b043ba10-06bc-4e41-b505-f0312d4de2fb","system_id":"levelo_inurba_marseille","lat":43.2721,"lon":5.39175,"is_reserved":false,"is_disabled":false,"rental_uris":{"android":"levelo://app?vid=b043ba10-06bc-4e41-b505-f0312d4de2fb","ios":"levelo://app?vid=b043ba10-06bc-4e41-b505-f0312d4de2fb"},"vehicle_type_id":"4","last_reported":1730412490,"current_range_meters":4400,"station_id":"ce4bhhp2rcd13ifvqfm0","pricing_plan_id":"cebpf4jnsgd1na2vs0mg"},{"bike_id":"2e679aa2-6222-4666-94d2-8febbbac34cf","system_id":"levelo_inurba_marseille","lat":43.28945,"lon":5.48066,"is_reserved":false,"is_disabled":false,"rental_uris":{"android":"levelo://app?vid=2e679aa2-6222-4666-94d2-8febbbac34cf","ios":"levelo://app?vid=2e679aa2-6222-4666-94d2-8febbbac34cf"},"vehicle_type_id":"4","last_reported":1730412490,"current_range_meters":9600,"station_id":"ce4bgvp2rcd13ifvqct0","pricing_plan_id":"cebpf4jnsgd1na2vs0mg"},{"bike_id":"2c5d1baa-0f42-472f-bb98-7872113afad3","system_id":"levelo_inurba_marseille","lat":43.3127,"lon":5.40171,"is_reserved":false,"is_disabled":false,"rental_uris":{"android":"levelo://app?vid=2c5d1baa-0f42-472f-bb98-7872113afad3","ios":"levelo://app?vid=2c5d1baa-0f42-472f-bb98-7872113afad3"},"vehicle_type_id":"4","last_reported":1730412490,"current_range_meters":33200,"station_id":"ce4bh092rcd13ifvqd30","pricing_plan_id":"cebpf4jnsgd1na2vs0mg"},{"bike_id":"9c68905a-1fb9-459e-a4ee-06556a113720","system_id":"levelo_inurba_marseille","lat":43.31688,"lon":5.40476,"is_reserved":false,"is_disabled":false,"rental_uris":{"android":"levelo://app?vid=9c68905a-1fb9-459e-a4ee-06556a113720","ios":"levelo://app?vid=9c68905a-1fb9-459e-a4ee-06556a113720"},"vehicle_type_id":"4","last_reported":1730412490,"current_range_meters":34800,"station_id":"ce4bh012rcd13ifvqd00","pricing_plan_id":"cebpf4jnsgd1na2vs0mg"},{"bike_id":"03adfe23-4b7b-4cc3-954f-9ad3ff87e060","system_id":"levelo_inurba_marseille","lat":43.25502,"lon":5.3765,"is_reserved":false,"is_disabled":false,"rental_uris":{"android":"levelo://app?vid=03adfe23-4b7b-4cc3-954f-9ad3ff87e060","ios":"levelo://app?vid=03adfe23-4b7b-4cc3-954f-9ad3ff87e060"},"vehicle_type_id":"4","last_reported":1730412490,"current_range_meters":38400,"station_id":"ce4bhh12rcd13ifvqff0","pricing_plan_id":"cebpf4jnsgd1na2vs0mg"},{"bike_id":"b88053c0-3809-4101-8975-e0f82a1bcb5d","system_id":"levelo_inurba_marseille","lat":43.30878,"lon":5.39701,"is_reserved":false,"is_disabled":false,"rental_uris":{"android":"levelo://app?vid=b88053c0-3809-4101-8975-e0f82a1bcb5d","ios":"levelo://app?vid=b88053c0-3809-4101-8975-e0f82a1bcb5d"},"vehicle_type_id":"4","last_reported":1730412490,"current_range_meters":14400,"station_id":"ce4bh012rcd13ifvqcv0","pricing_plan_id":"cebpf4jnsgd1na2vs0mg"},{"bike_id":"93072931-5343-4193-9a66-ce0652d92eda","system_id":"levelo_inurba_marseille","lat":43.29747,"lon":5.38126,"is_reserved":false,"is_disabled":false,"rental_uris":{"android":"levelo://app?vid=93072931-5343-4193-9a66-ce0652d92eda","ios":"levelo://app?vid=93072931-5343-4193-9a66-ce0652d92eda"},"vehicle_type_id":"4","last_reported":1730412490,"current_range_meters":3200,"station_id":"ce4bgl12rcd13ifvqbo0","pricing_plan_id":"cebpf4jnsgd1na2vs0mg"},{"bike_id":"387bab51-ba9b-43a4-a6c6-76941e2ed3d4","system_id":"levelo_inurba_marseille","lat":43.28762,"lon":5.38896,"is_reserved":false,"is_disabled":false,"rental_uris":{"android":"levelo://app?vid=387bab51-ba9b-43a4-a6c6-76941e2ed3d4","ios":"levelo://app?vid=387bab51-ba9b-43a4-a6c6-76941e2ed3d4"},"vehicle_type_id":"4","last_reported":1730412490,"current_range_meters":24400,"station_id":"","pricing_plan_id":"cebpf4jnsgd1na2vs0mg"},{"bike_id":"9f1cdd3f-af35-4b6f-9e2b-d6ad2275c7bb","system_id":"levelo_inurba_marseille","lat":43.29705,"lon":5.36597,"is_reserved":false,"is_disabled":false,"rental_uris":{"android":"levelo://app?vid=9f1cdd3f-af35-4b6f-9e2b-d6ad2275c7bb","ios":"levelo://app?vid=9f1cdd3f-af35-4b6f-9e2b-d6ad2275c7bb"},"vehicle_type_id":"4","last_reported":1730412490,"current_range_meters":39200,"station_id":"ce4bgn12rcd13ifvqbt0","pricing_plan_id":"cebpf4jnsgd1na2vs0mg"},{"bike_id":"c6bf5478-8cbd-4f9f-84c9-d44a8b59f18f","system_id":"levelo_inurba_marseille","lat":43.27424,"lon":5.39396,"is_reserved":false,"is_disabled":false,"rental_uris":{"android":"levelo://app?vid=c6bf5478-8cbd-4f9f-84c9-d44a8b59f18f","ios":"levelo://app?vid=c6bf5478-8cbd-4f9f-84c9-d44a8b59f18f"},"vehicle_type_id":"4","last_reported":1730412490,"current_range_meters":17600,"station_id":"ce4bhdp2rcd13ifvqf20","pricing_plan_id":"cebpf4jnsgd1na2vs0mg"},